{"last_updated":1731344883,"ttl":60,"version":"2.2","data":{"bikes":[{"bike_id":"2afb4c00-67cc-42f1-ae32-502f5aecb4b2","system_id":"levelo_inurba_marseille","lat":43.239572,"lon":5.377668,"is_reserved":false,"is_disabled":false,"rental_uris":{"android":"levelo://app?vid=2afb4c00-67cc-42f1-ae32-502f5aecb4b2","ios":"levelo://app?vid=2afb4c00-67cc-42f1-ae32-502f5aecb4b2"},"vehicle_type_id":"4","last_reported":1731344883,"current_range_meters":32800,"station_id":"ce4bhnp2rcd13ifvqgvg","pricing_plan_id":"cebpf4jnsgd1na2vs0mg"},{"bike_id":"55f338da-564d-4339-bcb5-5d0a4b68c4e6","system_id":"levelo_inurba_marseille","lat":43.31047,"lon":5.40099,"is_reserved":false,"is_disabled":false,"rental_uris":{"android":"levelo://app?vid=55f338da-564d-4339-bcb5-5d0a4b68c4e6","ios":"levelo://app?vid=55f338da-564d-4339-bcb5-5d0a4b68c4e6"},"vehicle_type_id":"4","last_reported":1731344883,"current_range_meters":6800,"station_id":"","pricing_plan_id":"cebpf4jnsgd1na2vs0mg"},{"bike_id":"092dc3c4-ec94-48f1-bf24-36eadab65fb9","system_id":"levelo_inurba_marseille","lat":43.28936,"lon":5.38174,"is_reserved":false,"is_disabled":false,"rental_uris":{"android":"levelo://app?vid=092dc3c4-ec94-48f1-bf24-36eadab65fb9","ios":"levelo://app?vid=092dc3c4-ec94-48f1-bf24-36eadab65fb9"},"vehicle_type_id":"4","last_reported":1731344883,"current_range_meters":33600,"station_id":"","pricing_plan_id":"cebpf4jnsgd1na2vs0mg"},{"bike_id":"0f811748-14ea-40eb-8f4f-0d09ca71ccb8","system_id":"levelo_inurba_marseille","lat":43.3025,"lon":5.40086,"is_reserved":false,"is_disabled":false,"rental_uris":{"android":"levelo://app?vid=0f811748-14ea-40eb-8f4f-0d09ca71ccb8","ios":"levelo://app?vid=0f811748-14ea-40eb-8f4f-0d09ca71ccb8"},"vehicle_type_id":"4","last_reported":1731344883,"current_range_meters":38800,"station_id":"ce4bgvh2rcd13ifvqcs0","pricing_plan_id":"cebpf4jnsgd1na2vs0mg"},{"bike_id":"8b0ca473-0c48-4195-9b6d-7e2b6c83cdd5","system_id":"levelo_inurba_marseille","lat":43.28731,"lon":5.37965,"is_reserved":false,"is_disabled":false,"rental_uris":{"android":"levelo://app?vid=8b0ca473-0c48-4195-9b6d-7e2b6c83cdd5","ios":"levelo://app?vid=8b0ca473-0c48-4195-9b6d-7e2b6c83cdd5"},"vehicle_type_id":"4","last_reported":1731344883,"current_range_meters":38800,"station_id":"ce4bh9p2rcd13ifvqec0","pricing_plan_id":"cebpf4jnsgd1na2vs0mg"},{"bike_id":"c68a4da3-8a52-4329-9b23-e9907283017e","system_id":"levelo_inurba_marseille","lat":43.2969,"lon":5.37298,"is_reserved":false,"is_disabled":false,"rental_uris":{"android":"levelo://app?vid=c68a4da3-8a52-4329-9b23-e9907283017e","ios":"levelo://app?vid=c68a4da3-8a52-4329-9b23-e9907283017e"},"vehicle_type_id":"4","last_reported":1731344883,"current_range_meters":36400,"station_id":"ce4bgk12rcd13ifvqbj0","pricing_plan_id":"cebpf4jnsgd1na2vs0mg"},{"bike_id":"0e52fd09-97b5-4b04-b298-e0450daca82d","system_id":"levelo_inurba_marseille","lat":43.29033,"lon":5.38644,"is_reserved":false,"is_disabled":false,"rental_uris":{"android":"levelo://app?vid=0e52fd09-97b5-4b04-b298-e0450daca82d","ios":"levelo://app?vid=0e52fd09-97b5-4b04-b298-e0450daca82d"},"vehicle_type_id":"4","last_reported":1731344883,"current_range_meters":14400,"station_id":"ce4bh4p2rcd13ifvqe0g","pricing_plan_id":"cebpf4jnsgd1na2vs0mg"},{"bike_id":"7ae54a86-8643-4dea-b707-d80d00772076","system_id":"levelo_inurba_marseille","lat":43.30852,"lon":5.39684,"is_reserved":false,"is_disabled":false,"rental_uris":{"android":"levelo://app?vid=7ae54a86-8643-4dea-b707-d80d00772076","ios":"levelo://app?vid=7ae54a86-8643-4dea-b707-d80d00772076"},"vehicle_type_id":"4","last_reported":1731344883,"current_range_meters":20000,"station_id":"ce4bh012rcd13ifvqcv0","pricing_plan_id":"cebpf4jnsgd1na2vs0mg"},{"bike_id":"28350b20-6663-4acb-871a-090d11484da5","system_id":"levelo_inurba_marseille","lat":43.280367,"lon":5.36958,"is_reserved":false,"is_disabled":false,"rental_uris":{"android":"levelo://app?vid=28350b20-6663-4acb-871a-090d11484da5","ios":"levelo://app?vid=28350b20-6663-4acb-871a-090d11484da5"},"vehicle_type_id":"4","last_reported":1731344883,"current_range_meters":37600,"station_id":"ce4bha12rcd13ifvqef0","pricing_plan_id":"cebpf4jnsgd1na2vs0mg"},{"bike_id":"a0578366-08cf-42ad-a510-a4e1c2612f21","system_id":"levelo_inurba_marseille","lat":43.30799,"lon":5.38158,"is_reserved":false,"is_disabled":false,"rental_uris":{"android":"levelo://app?vid=a0578366-08cf-42ad-a510-a4e1c2612f21","ios":"levelo://app?vid=a0578366-08cf-42ad-a510-a4e1c2612f21"},"vehicle_type_id":"4","last_reported":1731344883,"current_range_meters":29600,"station_id":"ce4bgt12rcd13ifvqce0","pricing_plan_id":"cebpf4jnsgd1na2vs0mg"},{"bike_id":"74d952b7-e6b2-4d56-a798-dc34c99a35cb","system_id":"levelo_inurba_marseille","lat":43.30184,"lon":5.36618,"is_reserved":false,"is_disabled":false,"rental_uris":{"android":"levelo://app?vid=74d952b7-e6b2-4d56-a798-dc34c99a35cb","ios":"levelo://app?vid=74d952b7-e6b2-4d56-a798-dc34c99a35cb"},"vehicle_type_id":"4","last_reported":1731344883,"current_range_meters":22000,"station_id":"ce4bgrh2rcd13ifvqc8g","pricing_plan_id":"cebpf4jnsgd1na2vs0mg"},{"bike_id":"424e278c-b80a-4824-adb1-27e195f4e1ae","system_id":"levelo_inurba_marseille","lat":43.268067,"lon":5.402844,"is_reserved":false,"is_disabled":false,"rental_uris":{"android":"levelo://app?vid=424e278c-b80a-4824-adb1-27e195f4e1ae","ios":"levelo://app?vid=424e278c-b80a-4824-adb1-27e195f4e1ae"},"vehicle_type_id":"4","last_reported":1731344883,"current_range_meters":3200,"station_id":"ce501612rcd8frsf0b60","pricing_plan_id":"cebpf4jnsgd1na2vs0mg"},{"bike_id":"1ec31f50-d96c-47c6-9806-96f227089cd4","system_id":"levelo_inurba_marseille","lat":43.27493,"lon":5.42455,"is_reserved":false,"is_disabled":false,"rental_uris":{"android":"levelo://app?vid=1ec31f50-d96c-47c6-9806-96f227089cd4","ios":"levelo://app?vid=1ec31f50-d96c-47c6-9806-96f227089cd4"},"vehicle_type_id":"4","last_reported":1731344883,"current_range_meters":36800,"station_id":"ce4bhn92rcd13ifvqgrg","pricing_plan_id":"cebpf4jnsgd1na2vs0mg"},{"bike_id":"428f3e8f-0602-47c2-a55e-9e2f6429053b","system_id":"levelo_inurba_marseille","lat":43.298706,"lon":5.397356,"is_reserved":false,"is_disabled":false,"rental_uris":{"android":"levelo://app?vid=428f3e8f-0602-47c2-a55e-9e2f6429053b","ios":"levelo://app?vid=428f3e8f-0602-47c2-a55e-9e2f6429053b"},"vehicle_type_id":"4","last_reported":1731344883,"current_range_meters":36000,"station_id":"","pricing_plan_id":"cebpf4jnsgd1na2vs0mg"},{"bike_id":"cb598dff-f4b1-4c7b-82f5-0f46d19cab26","system_id":"levelo_inurba_marseille","lat":43.26679,"lon":5.38273,"is_reserved":false,"is_disabled":false,"rental_uris":{"android":"levelo://app?vid=cb598dff-f4b1-4c7b-82f5-0f46d19cab26","ios":"levelo://app?vid=cb598dff-f4b1-4c7b-82f5-0f46d19cab26"},"vehicle_type_id":"4","last_reported":1731344883,"current_range_meters":38800,"station_id":"ce4bhg92rcd13ifvqf90","pricing_plan_id":"cebpf4jnsgd1na2vs0mg"},{"bike_id":"e2b5d8cc-48e0-4743-a206-c3ef03a09bc2","system_id":"levelo_inurba_marseille","lat":43.25008,"lon":5.38927,"is_reserved":false,"is_disabled":false,"rental_uris":{"android":"levelo://app?vid=e2b5d8cc-48e0-4743-a206-c3ef03a09bc2","ios":"levelo://app?vid=e2b5d8cc-48e0-4743-a206-c3ef03a09bc2"},"vehicle_type_id":"4","last_reported":1731344883,"current_range_meters":28000,"station_id":"ce4bhgp2rcd13ifvqfd0","pricing_plan_id":"cebpf4jnsgd1na2vs0mg"},{"bike_id":"7177ed80-d4fa-41b6-bd54-ee732cf106e5","system_id":"levelo_inurba_marseille","lat":43.28935,"lon":5.3664,"is_reserved":false,"is_disabled":false,"rental_uris":{"android":"levelo://app?vid=7177ed80-d4fa-41b6-bd54-ee732cf106e5","ios":"levelo://app?vid=7177ed80-d4fa-41b6-bd54-ee732cf106e5"},"vehicle_type_id":"4","last_reported":1731344883,"current_range_meters":8000,"station_id":"ce4bhap2rcd13ifvqek0","pricing_plan_id":"cebpf4jnsgd1na2vs0mg"},{"bike_id":"3204bdca-9beb-457a-b1d8-c609c7bdfa83","system_id":"levelo_inurba_marseille","lat":43.24802,"lon":5.37458,"is_reserved":false,"is_disabled":false,"rental_uris":{"android":"levelo://app?vid=3204bdca-9beb-457a-b1d8-c609c7bdfa83","ios":"levelo://app?vid=3204bdca-9beb-457a-b1d8-c609c7bdfa83"},"vehicle_type_id":"4","last_reported":1731344883,"current_range_meters":14800,"station_id":"ce4bhgh2rcd13ifvqfb0","pricing_plan_id":"cebpf4jnsgd1na2vs0mg"},{"bike_id":"4839c812-e2cb-432b-a0ef-e2817e346c52","system_id":"levelo_inurba_marseille","lat":43.29163,"lon":5.39297,"is_reserved":false,"is_disabled":false,"rental_uris":{"android":"levelo://app?vid=4839c812-e2cb-432b-a0ef-e2817e346c52","ios":"levelo://app?vid=4839c812-e2cb-432b-a0ef-e2817e346c52"},"vehicle_type_id":"4","last_reported":1731344883,"current_range_meters":38800,"station_id":"ce4bh192rcd13ifvqdd0","pricing_plan_id":"cebpf4jnsgd1na2vs0mg"},{"bike_id":"7a95755a-3580-4668-83df-fbf97c2ae4af","system_id":"levelo_inurba_marseille","lat":43.31334,"lon":5.39709,"is_reserved":false,"is_disabled":false,"rental_uris":{"android":"levelo://app?vid=7a95755a-3580-4668-83df-fbf97c2ae4af","ios":"levelo://app?vid=7a95755a-3580-4668-83df-fbf97c2ae4af"},"vehicle_type_id":"4","last_reported":1731344883,"current_range_meters":30000,"station_id":"ce4bgvp2rcd13ifvqcu0","pricing_plan_id":"cebpf4jnsgd1na2vs0mg"},{"bike_id":"a6bf0e8d-16b3-4722-bad1-138c1faed2ad","system_id":"levelo_inurba_marseille","lat":43.28486,"lon":5.3842,"is_reserved":false,"is_disabled":false,"rental_uris":{"android":"levelo://app?vid=a6bf0e8d-16b3-4722-bad1-138c1faed2ad","ios":"levelo://app?vid=a6bf0e8d-16b3-4722-bad1-138c1faed2ad"},"vehicle_type_id":"4","last_reported":1731344883,"current_range_meters":38400,"station_id":"ce4bh512rcd13ifvqe3g","pricing_plan_id":"cebpf4jnsgd1na2vs0mg"},{"bike_id":"2c5fdb4b-c3d2-4bbb-af5b-fd080253a2f3","system_id":"levelo_inurba_marseille","lat":43.31994,"lon":5.38153,"is_reserved":false,"is_disabled":false,"rental_uris":{"android":"levelo://app?vid=2c5fdb4b-c3d2-4bbb-af5b-fd080253a2f3","ios":"levelo://app?vid=2c5fdb4b-c3d2-4bbb-af5b-fd080253a2f3"},"vehicle_type_id":"4","last_reported":1731344883,"current_range_meters":19200,"station_id":"ce4bhr12rcd13ifvqhpg","pricing_plan_id":"cebpf4jnsgd1na2vs0mg"},{"bike_id":"0eb03395-9db6-43c2-99fd-3b0a65988124","system_id":"levelo_inurba_marseille","lat":43.29519,"lon":5.39406,"is_reserved":false,"is_disabled":false,"rental_uris":{"android":"levelo://app?vid=0eb03395-9db6-43c2-99fd-3b0a65988124","ios":"levelo://app?vid=0eb03395-9db6-43c2-99fd-3b0a65988124"},"vehicle_type_id":"4","last_reported":1731344883,"current_range_meters":38800,"station_id":"ce4bh292rcd13ifvqdf0","pricing_plan_id":"cebpf4jnsgd1na2vs0mg"},{"bike_id":"8d9b314e-039f-4b84-9af2-6aab99d3867d","system_id":"levelo_inurba_marseille","lat":43.29918,"lon":5.37466,"is_reserved":false,"is_disabled":false,"rental_uris":{"android":"levelo://app?vid=8d9b314e-039f-4b84-9af2-6aab99d3867d","ios":"levelo://app?vid=8d9b314e-039f-4b84-9af2-6aab99d3867d"},"vehicle_type_id":"4","last_reported":1731344883,"current_range_meters":25200,"station_id":"ce4bgjh2rcd13ifvqbg0","pricing_plan_id":"cebpf4jnsgd1na2vs0mg"},{"bike_id":"3603859d-120d-4ec8-81ce-2906c962f38f","system_id":"levelo_inurba_marseille","lat":43.28003,"lon":5.40025,"is_reserved":false,"is_disabled":false,"rental_uris":{"android":"levelo://app?vid=3603859d-120d-4ec8-81ce-2906c962f38f","ios":"levelo://app?vid=3603859d-120d-4ec8-81ce-2906c962f38f"},"vehicle_type_id":"4","last_reported":1731344883,"current_range_meters":3600,"station_id":"ce4bho92rcd13ifvqh4g","pricing_plan_id":"cebpf4jnsgd1na2vs0mg"},{"bike_id":"2684a46d-bd51-4978-ba6c-c61abe608ac8","system_id":"levelo_inurba_marseille","lat":43.27964,"lon":5.38676,"is_reserved":false,"is_disabled":false,"rental_uris":{"android":"levelo://app?vid=2684a46d-bd51-4978-ba6c-c61abe608ac8","ios":"levelo://app?vid=2684a46d-bd51-4978-ba6c-c61abe608ac8"},"vehicle_type_id":"4","last_reported":1731344883,"current_range_meters":22800,"station_id":"ce4bha12rcd13ifvqee0","pricing_plan_id":"cebpf4jnsgd1na2vs0mg"},{"bike_id":"8c1c4a1f-0516-4c7e-82b1-56316ee499e8","system_id":"levelo_inurba_marseille","lat":43.29421,"lon":5.3862,"is_reserved":false,"is_disabled":false,"rental_uris":{"android":"levelo://app?vid=8c1c4a1f-0516-4c7e-82b1-56316ee499e8","ios":"levelo://app?vid=8c1c4a1f-0516-4c7e-82b1-56316ee499e8"},"vehicle_type_id":"4","last_reported":1731344883,"current_range_meters":4800,"station_id":"ce4bh2h2rcd13ifvqdh0","pricing_plan_id":"cebpf4jnsgd1na2vs0mg"},{"bike_id":"333a8fd1-0af5-4d2d-8e99-f8610bc57a84","system_id":"levelo_inurba_marseille","lat":43.23965,"lon":5.36635,"is_reserved":false,"is_disabled":false,"rental_uris":{"android":"levelo://app?vid=333a8fd1-0af5-4d2d-8e99-f8610bc57a84","ios":"levelo://app?vid=333a8fd1-0af5-4d2d-8e99-f8610bc57a84"},"vehicle_type_id":"4","last_reported":1731344883,"current_range_meters":9600,"station_id":"ce4bhi12rcd13ifvqfp0","pricing_plan_id":"cebpf4jnsgd1na2vs0mg"},{"bike_id":"d9450e9c-b5b6-4c9b-89d0-e9d347376fa9","system_id":"levelo_inurba_marseille","lat":43.29421,"lon":5.38621,"is_reserved":false,"is_disabled":false,"rental_uris":{"android":"levelo://app?vid=d9450e9c-b5b6-4c9b-89d0-e9d347376fa9","ios":"levelo://app?vid=d9450e9c-b5b6-4c9b-89d0-e9d347376fa9"},"vehicle_type_id":"4","last_reported":1731344883,"current_range_meters":3200,"station_id":"ce4bh2h2rcd13ifvqdh0","pricing_plan_id":"cebpf4jnsgd1na2vs0mg"},{"bike_id":"2972f759-c98e-4fe7-9758-85d215895273","system_id":"levelo_inurba_marseille","lat":43.23962,"lon":5.36625,"is_reserved":false,"is_disabled":false,"rental_uris":{"android":"levelo://app?vid=2972f759-c98e-4fe7-9758-85d215895273","ios":"levelo://app?vid=2972f759-c98e-4fe7-9758-85d215895273"},"vehicle_type_id":"4","last_reported":1731344883,"current_range_meters":30000,"station_id":"ce4bhi12rcd13ifvqfp0","pricing_plan_id":"cebpf4jnsgd1na2vs0mg"},{"bike_id":"0a3ee5fd-f030-4016-8cbb-0cc79f7bf691","system_id":"levelo_inurba_marseille","lat":43.28444,"lon":5.39204,"is_reserved":false,"is_disabled":false,"rental_uris":{"android":"levelo://app?vid=0a3ee5fd-f030-4016-8cbb-0cc79f7bf691","ios":"levelo://app?vid=0a3ee5fd-f030-4016-8cbb-0cc79f7bf691"},"vehicle_type_id":"4","last_reported":1731344883,"current_range_meters":23200,"station_id":"ce4bhoh2rcd13ifvqh5g","pricing_plan_id":"cebpf4jnsgd1na2vs0mg"},{"bike_id":"7c57b3cc-e4c2-4883-872e-936e770ec0e4","system_id":"levelo_inurba_marseille","lat":43.2512,"lon":5.40318,"is_reserved":false,"is_disabled":false,"rental_uris":{"android":"levelo://app?vid=7c57b3cc-e4c2-4883-872e-936e770ec0e4","ios":"levelo://app?vid=7c57b3cc-e4c2-4883-872e-936e770ec0e4"},"vehicle_type_id":"4","last_reported":1731344883,"current_range_meters":33200,"station_id":"ce4bhlh2rcd13ifvqgig","pricing_plan_id":"cebpf4jnsgd1na2vs0mg"},{"bike_id":"408feeb0-a197-461d-9632-905fa54ccd6b","system_id":"levelo_inurba_marseille","lat":43.28358,"lon":5.38638,"is_reserved":false,"is_disabled":false,"rental_uris":{"android":"levelo://app?vid=408feeb0-a197-461d-9632-905fa54ccd6b","ios":"levelo://app?vid=408feeb0-a197-461d-9632-905fa54ccd6b"},"vehicle_type_id":"4","last_reported":1731344883,"current_range_meters":11600,"station_id":"ce4bh492rcd13ifvqdvg","pricing_plan_id":"cebpf4jnsgd1na2vs0mg"},{"bike_id":"8ca99178-6817-46ad-bfbf-2c6e3d96e9c0","system_id":"levelo_inurba_marseille","lat":43.29418,"lon":5.38625,"is_reserved":false,"is_disabled":false,"rental_uris":{"android":"levelo://app?vid=8ca99178-6817-46ad-bfbf-2c6e3d96e9c0","ios":"levelo://app?vid=8ca99178-6817-46ad-bfbf-2c6e3d96e9c0"},"vehicle_type_id":"4","last_reported":1731344883,"current_range_meters":17200,"station_id":"ce4bh2h2rcd13ifvqdh0","pricing_plan_id":"cebpf4jnsgd1na2vs0mg"},{"bike_id":"01ec9632-5066-48f5-808b-100e9b3f0528","system_id":"levelo_inurba_marseille","lat":43.29305,"lon":5.37171,"is_reserved":false,"is_disabled":false,"rental_uris":{"android":"levelo://app?vid=01ec9632-5066-48f5-808b-100e9b3f0528","ios":"levelo://app?vid=01ec9632-5066-48f5-808b-100e9b3f0528"},"vehicle_type_id":"4","last_reported":1731344883,"current_range_meters":15200,"station_id":"ce4bgh92rcd13ifvqb40","pricing_plan_id":"cebpf4jnsgd1na2vs0mg"},{"bike_id":"8fc6ebbf-cbb9-48fb-82a1-81cf2aa7095b","system_id":"levelo_inurba_marseille","lat":43.3089,"lon":5.39647,"is_reserved":false,"is_disabled":false,"rental_uris":{"android":"levelo://app?vid=8fc6ebbf-cbb9-48fb-82a1-81cf2aa7095b","ios":"levelo://app?vid=8fc6ebbf-cbb9-48fb-82a1-81cf2aa7095b"},"vehicle_type_id":"4","last_reported":1731344883,"current_range_meters":38800,"station_id":"ce4bh012rcd13ifvqcv0","pricing_plan_id":"cebpf4jnsgd1na2vs0mg"},{"bike_id":"9c4f8c3d-4199-41d5-ae4c-2187a1769153","system_id":"levelo_inurba_marseille","lat":43.33026,"lon":5.39037,"is_reserved":false,"is_disabled":false,"rental_uris":{"android":"levelo://app?vid=9c4f8c3d-4199-41d5-ae4c-2187a1769153","ios":"levelo://app?vid=9c4f8c3d-4199-41d5-ae4c-2187a1769153"},"vehicle_type_id":"4","last_reported":1731344883,"current_range_meters":33600,"station_id":"ce4bhr92rcd13ifvqhrg","pricing_plan_id":"cebpf4jnsgd1na2vs0mg"},{"bike_id":"6f7d5bcf-4621-4445-b576-651735e3fad4","system_id":"levelo_inurba_marseille","lat":43.29872,"lon":5.37567,"is_reserved":false,"is_disabled":false,"rental_uris":{"android":"levelo://app?vid=6f7d5bcf-4621-4445-b576-651735e3fad4","ios":"levelo://app?vid=6f7d5bcf-4621-4445-b576-651735e3fad4"},"vehicle_type_id":"4","last_reported":1731344883,"current_range_meters":36800,"station_id":"","pricing_plan_id":"cebpf4jnsgd1na2vs0mg"},{"bike_id":"f5f7adb1-08a0-41e5-84f8-4eacbb87fa6f","system_id":"levelo_inurba_marseille","lat":43.2396,"lon":5.36642,"is_reserved":false,"is_disabled":false,"rental_uris":{"android":"levelo://app?vid=f5f7adb1-08a0-41e5-84f8-4eacbb87fa6f","ios":"levelo://app?vid=f5f7adb1-08a0-41e5-84f8-4eacbb87fa6f"},"vehicle_type_id":"4","last_reported":1731344883,"current_range_meters":37600,"station_id":"ce4bhi12rcd13ifvqfp0","pricing_plan_id":"cebpf4jnsgd1na2vs0mg"},{"bike_id":"cd3763b4-c6c9-439a-8c88-6b6d78464d6e","system_id":"levelo_inurba_marseille","lat":43.337444,"lon":5.374475,"is_reserved":false,"is_disabled":false,"rental_uris":{"android":"levelo://app?vid=cd3763b4-c6c9-439a-8c88-6b6d78464d6e","ios":"levelo://app?vid=cd3763b4-c6c9-439a-8c88-6b6d78464d6e"},"vehicle_type_id":"4","last_reported":1731344883,"current_range_meters":36000,"station_id":"","pricing_plan_id":"cebpf4jnsgd1na2vs0mg"},{"bike_id":"29733ea4-4a8f-4a0c-97cf-170dd4f25683","system_id":"levelo_inurba_marseille","lat":43.29275,"lon":5.40103,"is_reserved":false,"is_disabled":false,"rental_uris":{"android":"levelo://app?vid=29733ea4-4a8f-4a0c-97cf-170dd4f25683","ios":"levelo://app?vid=29733ea4-4a8f-4a0c-97cf-170dd4f25683"},"vehicle_type_id":"4","last_reported":1731344883,"current_range_meters":38800,"station_id":"ce4bh312rcd13ifvqdk0","pricing_plan_id":"cebpf4jnsgd1na2vs0mg"},{"bike_id":"001bb56b-a629-4556-a944-0a9c8c0c4dc3","system_id":"levelo_inurba_marseille","lat":43.30072,"lon":5.386832,"is_reserved":false,"is_disabled":false,"rental_uris":{"android":"levelo://app?vid=001bb56b-a629-4556-a944-0a9c8c0c4dc3","ios":"levelo://app?vid=001bb56b-a629-4556-a944-0a9c8c0c4dc3"},"vehicle_type_id":"4","last_reported":1731344883,"current_range_meters":8000,"station_id":"ce4bgj92rcd13ifvqbd0","pricing_plan_id":"cebpf4jnsgd1na2vs0mg"},{"bike_id":"82897d4a-4903-4b9e-a296-c5a71d8ad65b","system_id":"levelo_inurba_marseille","lat":43.27494,"lon":5.42457,"is_reserved":false,"is_disabled":false,"rental_uris":{"android":"levelo://app?vid=82897d4a-4903-4b9e-a296-c5a71d8ad65b","ios":"levelo://app?vid=82897d4a-4903-4b9e-a296-c5a71d8ad65b"},"vehicle_type_id":"4","last_reported":1731344883,"current_range_meters":27600,"station_id":"ce4bhn92rcd13ifvqgrg","pricing_plan_id":"cebpf4jnsgd1na2vs0mg"},{"bike_id":"453dc6b0-f2d0-4daa-aab9-663747a21ebe","system_id":"levelo_inurba_marseille","lat":43.341447,"lon":5.409103,"is_reserved":false,"is_disabled":false,"rental_uris":{"android":"levelo://app?vid=453dc6b0-f2d0-4daa-aab9-663747a21ebe","ios":"levelo://app?vid=453dc6b0-f2d0-4daa-aab9-663747a21ebe"},"vehicle_type_id":"4","last_reported":1731344883,"current_range_meters":30000,"station_id":"ce4bhqh2rcd13ifvqhlg","pricing_plan_id":"cebpf4jnsgd1na2vs0mg"},{"bike_id":"253bd397-6fc7-4e3d-985f-482d2e469494","system_id":"levelo_inurba_marseille","lat":43.30182,"lon":5.36631,"is_reserved":false,"is_disabled":false,"rental_uris":{"android":"levelo://app?vid=253bd397-6fc7-4e3d-985f-482d2e469494","ios":"levelo://app?vid=253bd397-6fc7-4e3d-985f-482d2e469494"},"vehicle_type_id":"4","last_reported":1731344883,"current_range_meters":30400,"station_id":"ce4bgrh2rcd13ifvqc8g","pricing_plan_id":"cebpf4jnsgd1na2vs0mg"},{"bike_id":"a31b1972-3f06-4c00-9c24-7f02e409e50f","system_id":"levelo_inurba_marseille","lat":43.2991,"lon":5.38138,"is_reserved":false,"is_disabled":false,"rental_uris":{"android":"levelo://app?vid=a31b1972-3f06-4c00-9c24-7f02e409e50f","ios":"levelo://app?vid=a31b1972-3f06-4c00-9c24-7f02e409e50f"},"vehicle_type_id":"4","last_reported":1731344883,"current_range_meters":11200,"station_id":"ce4bgj12rcd13ifvqbc0","pricing_plan_id":"cebpf4jnsgd1na2vs0mg"},{"bike_id":"c546e22e-a11b-4de1-ba70-35d8d964606f","system_id":"levelo_inurba_marseille","lat":43.28857,"lon":5.39314,"is_reserved":false,"is_disabled":false,"rental_uris":{"android":"levelo://app?vid=c546e22e-a11b-4de1-ba70-35d8d964606f","ios":"levelo://app?vid=c546e22e-a11b-4de1-ba70-35d8d964606f"},"vehicle_type_id":"4","last_reported":1731344883,"current_range_meters":25600,"station_id":"ce4bh2p2rcd13ifvqdi0","pricing_plan_id":"cebpf4jnsgd1na2vs0mg"},{"bike_id":"33f378b3-a10f-499d-b174-e39a93da21a3","system_id":"levelo_inurba_marseille","lat":43.29876,"lon":5.39731,"is_reserved":false,"is_disabled":false,"rental_uris":{"android":"levelo://app?vid=33f378b3-a10f-499d-b174-e39a93da21a3","ios":"levelo://app?vid=33f378b3-a10f-499d-b174-e39a93da21a3"},"vehicle_type_id":"4","last_reported":1731344883,"current_range_meters":36400,"station_id":"ce4bh0h2rcd13ifvqd50","pricing_plan_id":"cebpf4jnsgd1na2vs0mg"},{"bike_id":"10763902-1352-4277-8492-1b048032a85d","system_id":"levelo_inurba_marseille","lat":43.290359,"lon":5.375707,"is_reserved":false,"is_disabled":false,"rental_uris":{"android":"levelo://app?vid=10763902-1352-4277-8492-1b048032a85d","ios":"levelo://app?vid=10763902-1352-4277-8492-1b048032a85d"},"vehicle_type_id":"4","last_reported":1731344883,"current_range_meters":32400,"station_id":"cki0cbj6b192h4jlfktg","pricing_plan_id":"cebpf4jnsgd1na2vs0mg"},{"bike_id":"22a2914a-6d99-4b9f-a055-86e657c3c38f","system_id":"levelo_inurba_marseille","lat":43.31992,"lon":5.38169,"is_reserved":false,"is_disabled":false,"rental_uris":{"android":"levelo://app?vid=22a2914a-6d99-4b9f-a055-86e657c3c38f","ios":"levelo://app?vid=22a2914a-6d99-4b9f-a055-86e657c3c38f"},"vehicle_type_id":"4","last_reported":1731344883,"current_range_meters":6000,"station_id":"ce4bhr12rcd13ifvqhpg","pricing_plan_id":"cebpf4jnsgd1na2vs0mg"},{"bike_id":"1d75d4ce-da07-47a0-83ad-027ef32b7b53","system_id":"levelo_inurba_marseille","lat":43.27407,"lon":5.38954,"is_reserved":false,"is_disabled":false,"rental_uris":{"android":"levelo://app?vid=1d75d4ce-da07-47a0-83ad-027ef32b7b53","ios":"levelo://app?vid=1d75d4ce-da07-47a0-83ad-027ef32b7b53"},"vehicle_type_id":"4","last_reported":1731344883,"current_range_meters":20400,"station_id":"","pricing_plan_id":"cebpf4jnsgd1na2vs0mg"},{"bike_id":"4b030070-7462-4bf2-bebf-0530c956675b","system_id":"levelo_inurba_marseille","lat":43.2926,"lon":5.38436,"is_reserved":false,"is_disabled":false,"rental_uris":{"android":"levelo://app?vid=4b030070-7462-4bf2-bebf-0530c956675b","ios":"levelo://app?vid=4b030070-7462-4bf2-bebf-0530c956675b"},"vehicle_type_id":"4","last_reported":1731344883,"current_range_meters":10000,"station_id":"ce4bh692rcd13ifvqea0","pricing_plan_id":"cebpf4jnsgd1na2vs0mg"},{"bike_id":"712ede97-1c1a-4760-a710-ca87afba0c23","system_id":"levelo_inurba_marseille","lat":43.2797,"lon":5.38729,"is_reserved":false,"is_disabled":false,"rental_uris":{"android":"levelo://app?vid=712ede97-1c1a-4760-a710-ca87afba0c23","ios":"levelo://app?vid=712ede97-1c1a-4760-a710-ca87afba0c23"},"vehicle_type_id":"4","last_reported":1731344883,"current_range_meters":6800,"station_id":"ce4bhg12rcd13ifvqf80","pricing_plan_id":"cebpf4jnsgd1na2vs0mg"},{"bike_id":"34f29ae3-5bb2-456a-a5a1-6b334781b5ea","system_id":"levelo_inurba_marseille","lat":43.27319,"lon":5.39083,"is_reserved":false,"is_disabled":false,"rental_uris":{"android":"levelo://app?vid=34f29ae3-5bb2-456a-a5a1-6b334781b5ea","ios":"levelo://app?vid=34f29ae3-5bb2-456a-a5a1-6b334781b5ea"},"vehicle_type_id":"4","last_reported":1731344883,"current_range_meters":5600,"station_id":"ce4bhgp2rcd13ifvqfe0","pricing_plan_id":"cebpf4jnsgd1na2vs0mg"},{"bike_id":"b731b298-79f3-4530-9cb6-39a5dc333f5d","system_id":"levelo_inurba_marseille","lat":43.248047,"lon":5.374592,"is_reserved":false,"is_disabled":false,"rental_uris":{"android":"levelo://app?vid=b731b298-79f3-4530-9cb6-39a5dc333f5d","ios":"levelo://app?vid=b731b298-79f3-4530-9cb6-39a5dc333f5d"},"vehicle_type_id":"4","last_reported":1731344883,"current_range_meters":28400,"station_id":"ce4bhgh2rcd13ifvqfb0","pricing_plan_id":"cebpf4jnsgd1na2vs0mg"},{"bike_id":"bd59f678-b282-4048-8633-f9cbb59b175b","system_id":"levelo_inurba_marseille","lat":43.27811,"lon":5.4071,"is_reserved":false,"is_disabled":false,"rental_uris":{"android":"levelo://app?vid=bd59f678-b282-4048-8633-f9cbb59b175b","ios":"levelo://app?vid=bd59f678-b282-4048-8633-f9cbb59b175b"},"vehicle_type_id":"4","last_reported":1731344883,"current_range_meters":24000,"station_id":"ce4bhnh2rcd13ifvqgtg","pricing_plan_id":"cebpf4jnsgd1na2vs0mg"},{"bike_id":"784616cb-3dcc-4a17-ae25-f5786a0d223a","system_id":"levelo_inurba_marseille","lat":43.337444,"lon":5.374475,"is_reserved":false,"is_disabled":false,"rental_uris":{"android":"levelo://app?vid=784616cb-3dcc-4a17-ae25-f5786a0d223a","ios":"levelo://app?vid=784616cb-3dcc-4a17-ae25-f5786a0d223a"},"vehicle_type_id":"4","last_reported":1731344883,"current_range_meters":36400,"station_id":"","pricing_plan_id":"cebpf4jnsgd1na2vs0mg"},{"bike_id":"60165c93-150f-40c0-b1c0-d8dbf931edd8","system_id":"levelo_inurba_marseille","lat":43.31262,"lon":5.40171,"is_reserved":false,"is_disabled":false,"rental_uris":{"android":"levelo://app?vid=60165c93-150f-40c0-b1c0-d8dbf931edd8","ios":"levelo://app?vid=60165c93-150f-40c0-b1c0-d8dbf931edd8"},"vehicle_type_id":"4","last_reported":1731344883,"current_range_meters":23200,"station_id":"ce4bh092rcd13ifvqd30","pricing_plan_id":"cebpf4jnsgd1na2vs0mg"},{"bike_id":"38494b26-732c-4693-af81-a3cf4c4e1902","system_id":"levelo_inurba_marseille","lat":43.30406,"lon":5.36865,"is_reserved":false,"is_disabled":false,"rental_uris":{"android":"levelo://app?vid=38494b26-732c-4693-af81-a3cf4c4e1902","ios":"levelo://app?vid=38494b26-732c-4693-af81-a3cf4c4e1902"},"vehicle_type_id":"4","last_reported":1731344883,"current_range_meters":13600,"station_id":"","pricing_plan_id":"cebpf4jnsgd1na2vs0mg"},{"bike_id":"181fa628-fd06-4339-88f4-5d411c857699","system_id":"levelo_inurba_marseille","lat":43.27065,"lon":5.42281,"is_reserved":false,"is_disabled":false,"rental_uris":{"android":"levelo://app?vid=181fa628-fd06-4339-88f4-5d411c857699","ios":"levelo://app?vid=181fa628-fd06-4339-88f4-5d411c857699"},"vehicle_type_id":"4","last_reported":1731344883,"current_range_meters":36400,"station_id":"ce4bhk92rcd13ifvqgb0","pricing_plan_id":"cebpf4jnsgd1na2vs0mg"},{"bike_id":"f40ba144-0a7b-41fd-aa14-e8807293a3e3","system_id":"levelo_inurba_marseille","lat":43.29977,"lon":5.385,"is_reserved":false,"is_disabled":false,"rental_uris":{"android":"levelo://app?vid=f40ba144-0a7b-41fd-aa14-e8807293a3e3","ios":"levelo://app?vid=f40ba144-0a7b-41fd-aa14-e8807293a3e3"},"vehicle_type_id":"4","last_reported":1731344883,"current_range_meters":6800,"station_id":"ce4bgj92rcd13ifvqbd0","pricing_plan_id":"cebpf4jnsgd1na2vs0mg"},{"bike_id":"21e137ff-3c66-45d4-8967-f2781f45e25c","system_id":"levelo_inurba_marseille","lat":43.26141,"lon":5.39376,"is_reserved":false,"is_disabled":false,"rental_uris":{"android":"levelo://app?vid=21e137ff-3c66-45d4-8967-f2781f45e25c","ios":"levelo://app?vid=21e137ff-3c66-45d4-8967-f2781f45e25c"},"vehicle_type_id":"4","last_reported":1731344883,"current_range_meters":12800,"station_id":"ce4bhh92rcd13ifvqfj0","pricing_plan_id":"cebpf4jnsgd1na2vs0mg"},{"bike_id":"fc01d943-4616-4d37-8e17-5947c751d06c","system_id":"levelo_inurba_marseille","lat":43.28102,"lon":5.37837,"is_reserved":false,"is_disabled":false,"rental_uris":{"android":"levelo://app?vid=fc01d943-4616-4d37-8e17-5947c751d06c","ios":"levelo://app?vid=fc01d943-4616-4d37-8e17-5947c751d06c"},"vehicle_type_id":"4","last_reported":1731344883,"current_range_meters":21600,"station_id":"ce4bha12rcd13ifvqee0","pricing_plan_id":"cebpf4jnsgd1na2vs0mg"},{"bike_id":"6e7edb60-78e3-46d3-81b0-56489f199812","system_id":"levelo_inurba_marseille","lat":43.28037,"lon":5.36964,"is_reserved":false,"is_disabled":false,"rental_uris":{"android":"levelo://app?vid=6e7edb60-78e3-46d3-81b0-56489f199812","ios":"levelo://app?vid=6e7edb60-78e3-46d3-81b0-56489f199812"},"vehicle_type_id":"4","last_reported":1731344883,"current_range_meters":25200,"station_id":"ce4bha12rcd13ifvqef0","pricing_plan_id":"cebpf4jnsgd1na2vs0mg"},{"bike_id":"4e354ec3-11e4-47fb-bff6-480b188800db","system_id":"levelo_inurba_marseille","lat":43.29036,"lon":5.37569,"is_reserved":false,"is_disabled":false,"rental_uris":{"android":"levelo://app?vid=4e354ec3-11e4-47fb-bff6-480b188800db","ios":"levelo://app?vid=4e354ec3-11e4-47fb-bff6-480b188800db"},"vehicle_type_id":"4","last_reported":1731344883,"current_range_meters":25600,"station_id":"ce4bh692rcd13ifvqe90","pricing_plan_id":"cebpf4jnsgd1na2vs0mg"},{"bike_id":"9488d1b2-e4c9-41d2-a10c-49d77c8f3ef3","system_id":"levelo_inurba_marseille","lat":43.28666,"lon":5.36357,"is_reserved":false,"is_disabled":false,"rental_uris":{"android":"levelo://app?vid=9488d1b2-e4c9-41d2-a10c-49d77c8f3ef3","ios":"levelo://app?vid=9488d1b2-e4c9-41d2-a10c-49d77c8f3ef3"},"vehicle_type_id":"4","last_reported":1731344883,"current_range_meters":36400,"station_id":"ce4bhah2rcd13ifvqej0","pricing_plan_id":"cebpf4jnsgd1na2vs0mg"},{"bike_id":"7ff94f97-87aa-4ded-a796-d703e064c0b0","system_id":"levelo_inurba_marseille","lat":43.30146,"lon":5.38788,"is_reserved":false,"is_disabled":false,"rental_uris":{"android":"levelo://app?vid=7ff94f97-87aa-4ded-a796-d703e064c0b0","ios":"levelo://app?vid=7ff94f97-87aa-4ded-a796-d703e064c0b0"},"vehicle_type_id":"4","last_reported":1731344883,"current_range_meters":28400,"station_id":"ce4bghh2rcd13ifvqb60","pricing_plan_id":"cebpf4jnsgd1na2vs0mg"},{"bike_id":"a875991b-6091-43df-8026-3e7fab422ca5","system_id":"levelo_inurba_marseille","lat":43.30534,"lon":5.384271,"is_reserved":false,"is_disabled":false,"rental_uris":{"android":"levelo://app?vid=a875991b-6091-43df-8026-3e7fab422ca5","ios":"levelo://app?vid=a875991b-6091-43df-8026-3e7fab422ca5"},"vehicle_type_id":"4","last_reported":1731344883,"current_range_meters":32400,"station_id":"ce4bh092rcd13ifvqd30","pricing_plan_id":"cebpf4jnsgd1na2vs0mg"},{"bike_id":"46d89453-f0e8-4f82-a146-8dbee71044e2","system_id":"levelo_inurba_marseille","lat":43.284629,"lon":5.358909,"is_reserved":false,"is_disabled":false,"rental_uris":{"android":"levelo://app?vid=46d89453-f0e8-4f82-a146-8dbee71044e2","ios":"levelo://app?vid=46d89453-f0e8-4f82-a146-8dbee71044e2"},"vehicle_type_id":"4","last_reported":1731344883,"current_range_meters":17600,"station_id":"ce4bhah2rcd13ifvqei0","pricing_plan_id":"cebpf4jnsgd1na2vs0mg"},{"bike_id":"d98c7629-edc6-4079-b6c2-3f0d8e7131a7","system_id":"levelo_inurba_marseille","lat":43.29265,"lon":5.38438,"is_reserved":false,"is_disabled":false,"rental_uris":{"android":"levelo://app?vid=d98c7629-edc6-4079-b6c2-3f0d8e7131a7","ios":"levelo://app?vid=d98c7629-edc6-4079-b6c2-3f0d8e7131a7"},"vehicle_type_id":"4","last_reported":1731344883,"current_range_meters":28800,"station_id":"ce4bh692rcd13ifvqea0","pricing_plan_id":"cebpf4jnsgd1na2vs0mg"},{"bike_id":"0389f6ba-9b11-4bae-aa59-6c887bee55e5","system_id":"levelo_inurba_marseille","lat":43.32298,"lon":5.38258,"is_reserved":false,"is_disabled":false,"rental_uris":{"android":"levelo://app?vid=0389f6ba-9b11-4bae-aa59-6c887bee55e5","ios":"levelo://app?vid=0389f6ba-9b11-4bae-aa59-6c887bee55e5"},"vehicle_type_id":"4","last_reported":1731344883,"current_range_meters":30000,"station_id":"ce4bhr12rcd13ifvqhqg","pricing_plan_id":"cebpf4jnsgd1na2vs0mg"},{"bike_id":"0f2045ed-57eb-4076-a48d-26cc5447b700","system_id":"levelo_inurba_marseille","lat":43.30582,"lon":5.39349,"is_reserved":false,"is_disabled":false,"rental_uris":{"android":"levelo://app?vid=0f2045ed-57eb-4076-a48d-26cc5447b700","ios":"levelo://app?vid=0f2045ed-57eb-4076-a48d-26cc5447b700"},"vehicle_type_id":"4","last_reported":1731344883,"current_range_meters":8800,"station_id":"ce4bh0p2rcd13ifvqd80","pricing_plan_id":"cebpf4jnsgd1na2vs0mg"},{"bike_id":"e4750b1b-460b-4e91-9444-91cf7bbc4387","system_id":"levelo_inurba_marseille","lat":43.27911,"lon":5.39582,"is_reserved":false,"is_disabled":false,"rental_uris":{"android":"levelo://app?vid=e4750b1b-460b-4e91-9444-91cf7bbc4387","ios":"levelo://app?vid=e4750b1b-460b-4e91-9444-91cf7bbc4387"},"vehicle_type_id":"4","last_reported":1731344883,"current_range_meters":2000,"station_id":"ce4bhf92rcd13ifvqf40","pricing_plan_id":"cebpf4jnsgd1na2vs0mg"},{"bike_id":"ac5941e1-3fd0-4a36-b1af-70a3352289e4","system_id":"levelo_inurba_marseille","lat":43.28034,"lon":5.36957,"is_reserved":false,"is_disabled":false,"rental_uris":{"android":"levelo://app?vid=ac5941e1-3fd0-4a36-b1af-70a3352289e4","ios":"levelo://app?vid=ac5941e1-3fd0-4a36-b1af-70a3352289e4"},"vehicle_type_id":"4","last_reported":1731344883,"current_range_meters":25600,"station_id":"ce4bha12rcd13ifvqef0","pricing_plan_id":"cebpf4jnsgd1na2vs0mg"},{"bike_id":"fc07f6e4-25e4-4947-a581-34ee227723d1","system_id":"levelo_inurba_marseille","lat":43.29038,"lon":5.39971,"is_reserved":false,"is_disabled":false,"rental_uris":{"android":"levelo://app?vid=fc07f6e4-25e4-4947-a581-34ee227723d1","ios":"levelo://app?vid=fc07f6e4-25e4-4947-a581-34ee227723d1"},"vehicle_type_id":"4","last_reported":1731344883,"current_range_meters":24400,"station_id":"ce4bh392rcd13ifvqdm0","pricing_plan_id":"cebpf4jnsgd1na2vs0mg"},{"bike_id":"435feee7-1d10-461b-b0f6-14d0161d44c0","system_id":"levelo_inurba_marseille","lat":43.28355,"lon":5.38105,"is_reserved":false,"is_disabled":false,"rental_uris":{"android":"levelo://app?vid=435feee7-1d10-461b-b0f6-14d0161d44c0","ios":"levelo://app?vid=435feee7-1d10-461b-b0f6-14d0161d44c0"},"vehicle_type_id":"4","last_reported":1731344883,"current_range_meters":26000,"station_id":"ce4bh412rcd13ifvqdr0","pricing_plan_id":"cebpf4jnsgd1na2vs0mg"},{"bike_id":"3d1235e2-b84a-4857-b9ab-d13cc7f2755b","system_id":"levelo_inurba_marseille","lat":43.295537,"lon":5.390844,"is_reserved":false,"is_disabled":false,"rental_uris":{"android":"levelo://app?vid=3d1235e2-b84a-4857-b9ab-d13cc7f2755b","ios":"levelo://app?vid=3d1235e2-b84a-4857-b9ab-d13cc7f2755b"},"vehicle_type_id":"4","last_reported":1731344883,"current_range_meters":33600,"station_id":"ce4bh612rcd13ifvqe6g","pricing_plan_id":"cebpf4jnsgd1na2vs0mg"},{"bike_id":"de1dc5dd-e2df-451d-87d2-abc6c500568d","system_id":"levelo_inurba_marseille","lat":43.29794,"lon":5.38113,"is_reserved":false,"is_disabled":false,"rental_uris":{"android":"levelo://app?vid=de1dc5dd-e2df-451d-87d2-abc6c500568d","ios":"levelo://app?vid=de1dc5dd-e2df-451d-87d2-abc6c500568d"},"vehicle_type_id":"4","last_reported":1731344883,"current_range_meters":29600,"station_id":"ce4bgip2rcd13ifvqbb0","pricing_plan_id":"cebpf4jnsgd1na2vs0mg"},{"bike_id":"cd958b36-197d-44e1-9718-2633ae760fbf","system_id":"levelo_inurba_marseille","lat":43.29199,"lon":5.39343,"is_reserved":false,"is_disabled":false,"rental_uris":{"android":"levelo://app?vid=cd958b36-197d-44e1-9718-2633ae760fbf","ios":"levelo://app?vid=cd958b36-197d-44e1-9718-2633ae760fbf"},"vehicle_type_id":"4","last_reported":1731344883,"current_range_meters":20400,"station_id":"ce4bh192rcd13ifvqdd0","pricing_plan_id":"cebpf4jnsgd1na2vs0mg"},{"bike_id":"9e22c680-5ff4-4adf-87bd-063d6a5c4995","system_id":"levelo_inurba_marseille","lat":43.27809,"lon":5.40715,"is_reserved":false,"is_disabled":false,"rental_uris":{"android":"levelo://app?vid=9e22c680-5ff4-4adf-87bd-063d6a5c4995","ios":"levelo://app?vid=9e22c680-5ff4-4adf-87bd-063d6a5c4995"},"vehicle_type_id":"4","last_reported":1731344883,"current_range_meters":32000,"station_id":"ce4bhnh2rcd13ifvqgtg","pricing_plan_id":"cebpf4jnsgd1na2vs0mg"},{"bike_id":"ca01ac6f-b37e-45e0-b5c3-926d05ed7269","system_id":"levelo_inurba_marseille","lat":43.31164,"lon":5.38718,"is_reserved":false,"is_disabled":false,"rental_uris":{"android":"levelo://app?vid=ca01ac6f-b37e-45e0-b5c3-926d05ed7269","ios":"levelo://app?vid=ca01ac6f-b37e-45e0-b5c3-926d05ed7269"},"vehicle_type_id":"4","last_reported":1731344883,"current_range_meters":24800,"station_id":"ce4bgv12rcd13ifvqcp0","pricing_plan_id":"cebpf4jnsgd1na2vs0mg"},{"bike_id":"0f22c2a6-e94e-4f17-a7aa-0f3dc499945b","system_id":"levelo_inurba_marseille","lat":43.3172,"lon":5.43714,"is_reserved":false,"is_disabled":false,"rental_uris":{"android":"levelo://app?vid=0f22c2a6-e94e-4f17-a7aa-0f3dc499945b","ios":"levelo://app?vid=0f22c2a6-e94e-4f17-a7aa-0f3dc499945b"},"vehicle_type_id":"4","last_reported":1731344883,"current_range_meters":38400,"station_id":"ce4bhp92rcd13ifvqhcg","pricing_plan_id":"cebpf4jnsgd1na2vs0mg"},{"bike_id":"4e92c04e-7827-47ed-bd51-6b03deae800b","system_id":"levelo_inurba_marseille","lat":43.26556,"lon":5.37286,"is_reserved":false,"is_disabled":false,"rental_uris":{"android":"levelo://app?vid=4e92c04e-7827-47ed-bd51-6b03deae800b","ios":"levelo://app?vid=4e92c04e-7827-47ed-bd51-6b03deae800b"},"vehicle_type_id":"4","last_reported":1731344883,"current_range_meters":28800,"station_id":"ce4bhg12rcd13ifvqf70","pricing_plan_id":"cebpf4jnsgd1na2vs0mg"},{"bike_id":"ded277d9-d0f8-4719-b076-d6b99773aed3","system_id":"levelo_inurba_marseille","lat":43.303528,"lon":5.418946,"is_reserved":false,"is_disabled":false,"rental_uris":{"android":"levelo://app?vid=ded277d9-d0f8-4719-b076-d6b99773aed3","ios":"levelo://app?vid=ded277d9-d0f8-4719-b076-d6b99773aed3"},"vehicle_type_id":"4","last_reported":1731344883,"current_range_meters":11200,"station_id":"ce4bhop2rcd13ifvqh7g","pricing_plan_id":"cebpf4jnsgd1na2vs0mg"},{"bike_id":"b5ad3c73-58ba-4c92-9f69-7c69ddf4ab1f","system_id":"levelo_inurba_marseille","lat":43.32363,"lon":5.38885,"is_reserved":false,"is_disabled":false,"rental_uris":{"android":"levelo://app?vid=b5ad3c73-58ba-4c92-9f69-7c69ddf4ab1f","ios":"levelo://app?vid=b5ad3c73-58ba-4c92-9f69-7c69ddf4ab1f"},"vehicle_type_id":"4","last_reported":1731344883,"current_range_meters":28800,"station_id":"ce4bhqp2rcd13ifvqhog","pricing_plan_id":"cebpf4jnsgd1na2vs0mg"},{"bike_id":"c2b1ed54-2eb9-47fa-b64d-38e053dc1d60","system_id":"levelo_inurba_marseille","lat":43.29898,"lon":5.38136,"is_reserved":false,"is_disabled":false,"rental_uris":{"android":"levelo://app?vid=c2b1ed54-2eb9-47fa-b64d-38e053dc1d60","ios":"levelo://app?vid=c2b1ed54-2eb9-47fa-b64d-38e053dc1d60"},"vehicle_type_id":"4","last_reported":1731344883,"current_range_meters":4800,"station_id":"ce4bgj12rcd13ifvqbc0","pricing_plan_id":"cebpf4jnsgd1na2vs0mg"},{"bike_id":"0c4bdab7-59c3-4cc2-9ce6-d3a48ee35c91","system_id":"levelo_inurba_marseille","lat":43.29536,"lon":5.39403,"is_reserved":false,"is_disabled":false,"rental_uris":{"android":"levelo://app?vid=0c4bdab7-59c3-4cc2-9ce6-d3a48ee35c91","ios":"levelo://app?vid=0c4bdab7-59c3-4cc2-9ce6-d3a48ee35c91"},"vehicle_type_id":"4","last_reported":1731344883,"current_range_meters":39200,"station_id":"ce4bh292rcd13ifvqdf0","pricing_plan_id":"cebpf4jnsgd1na2vs0mg"},{"bike_id":"2e00b511-4ac8-46d5-b097-e2e8b89127d5","system_id":"levelo_inurba_marseille","lat":43.28512,"lon":5.38442,"is_reserved":false,"is_disabled":false,"rental_uris":{"android":"levelo://app?vid=2e00b511-4ac8-46d5-b097-e2e8b89127d5","ios":"levelo://app?vid=2e00b511-4ac8-46d5-b097-e2e8b89127d5"},"vehicle_type_id":"4","last_reported":1731344883,"current_range_meters":18000,"station_id":"ce4bh512rcd13ifvqe3g","pricing_plan_id":"cebpf4jnsgd1na2vs0mg"},{"bike_id":"b2f3adca-b446-441d-a1ab-5903c30fd432","system_id":"levelo_inurba_marseille","lat":43.33772,"lon":5.37447,"is_reserved":false,"is_disabled":false,"rental_uris":{"android":"levelo://app?vid=b2f3adca-b446-441d-a1ab-5903c30fd432","ios":"levelo://app?vid=b2f3adca-b446-441d-a1ab-5903c30fd432"},"vehicle_type_id":"4","last_reported":1731344883,"current_range_meters":10000,"station_id":"","pricing_plan_id":"cebpf4jnsgd1na2vs0mg"},{"bike_id":"ffdd877c-41e3-4e8f-af1b-406256cf6424","system_id":"levelo_inurba_marseille","lat":43.3009,"lon":5.39071,"is_reserved":false,"is_disabled":false,"rental_uris":{"android":"levelo://app?vid=ffdd877c-41e3-4e8f-af1b-406256cf6424","ios":"levelo://app?vid=ffdd877c-41e3-4e8f-af1b-406256cf6424"},"vehicle_type_id":"4","last_reported":1731344883,"current_range_meters":4400,"station_id":"ce4bh192rcd13ifvqdb0","pricing_plan_id":"cebpf4jnsgd1na2vs0mg"},{"bike_id":"18335a4d-f6f9-4eb7-a281-741a68fb565d","system_id":"levelo_inurba_marseille","lat":43.29621,"lon":5.37717,"is_reserved":false,"is_disabled":false,"rental_uris":{"android":"levelo://app?vid=18335a4d-f6f9-4eb7-a281-741a68fb565d","ios":"levelo://app?vid=18335a4d-f6f9-4eb7-a281-741a68fb565d"},"vehicle_type_id":"4","last_reported":1731344883,"current_range_meters":12000,"station_id":"ce4bgi92rcd13ifvqb90","pricing_plan_id":"cebpf4jnsgd1na2vs0mg"},{"bike_id":"b72ca6e7-47e9-42be-9a97-b74e22acdc0e","system_id":"levelo_inurba_marseille","lat":43.32104,"lon":5.36772,"is_reserved":false,"is_disabled":false,"rental_uris":{"android":"levelo://app?vid=b72ca6e7-47e9-42be-9a97-b74e22acdc0e","ios":"levelo://app?vid=b72ca6e7-47e9-42be-9a97-b74e22acdc0e"},"vehicle_type_id":"4","last_reported":1731344883,"current_range_meters":29600,"station_id":"ce4bhrh2rcd13ifvqhug","pricing_plan_id":"cebpf4jnsgd1na2vs0mg"},{"bike_id":"0e8b328d-d250-4022-b102-700ab6c44fe0","system_id":"levelo_inurba_marseille","lat":43.28033,"lon":5.36953,"is_reserved":false,"is_disabled":false,"rental_uris":{"android":"levelo://app?vid=0e8b328d-d250-4022-b102-700ab6c44fe0","ios":"levelo://app?vid=0e8b328d-d250-4022-b102-700ab6c44fe0"},"vehicle_type_id":"4","last_reported":1731344883,"current_range_meters":38000,"station_id":"ce4bha12rcd13ifvqef0","pricing_plan_id":"cebpf4jnsgd1na2vs0mg"},{"bike_id":"9aff85ac-5629-4eea-aae5-b116924189eb","system_id":"levelo_inurba_marseille","lat":43.28363,"lon":5.38633,"is_reserved":false,"is_disabled":false,"rental_uris":{"android":"levelo://app?vid=9aff85ac-5629-4eea-aae5-b116924189eb","ios":"levelo://app?vid=9aff85ac-5629-4eea-aae5-b116924189eb"},"vehicle_type_id":"4","last_reported":1731344883,"current_range_meters":17200,"station_id":"ce4bh492rcd13ifvqdvg","pricing_plan_id":"cebpf4jnsgd1na2vs0mg"},{"bike_id":"755d47d5-03c1-4a41-9bbc-7f3962d7f720","system_id":"levelo_inurba_marseille","lat":43.27814,"lon":5.40716,"is_reserved":false,"is_disabled":false,"rental_uris":{"android":"levelo://app?vid=755d47d5-03c1-4a41-9bbc-7f3962d7f720","ios":"levelo://app?vid=755d47d5-03c1-4a41-9bbc-7f3962d7f720"},"vehicle_type_id":"4","last_reported":1731344883,"current_range_meters":8800,"station_id":"ce4bhnh2rcd13ifvqgtg","pricing_plan_id":"cebpf4jnsgd1na2vs0mg"},{"bike_id":"bd6136c8-fdc6-4bfc-9378-1b172f6b3155","system_id":"levelo_inurba_marseille","lat":43.28415,"lon":5.35001,"is_reserved":false,"is_disabled":false,"rental_uris":{"android":"levelo://app?vid=bd6136c8-fdc6-4bfc-9378-1b172f6b3155","ios":"levelo://app?vid=bd6136c8-fdc6-4bfc-9378-1b172f6b3155"},"vehicle_type_id":"4","last_reported":1731344883,"current_range_meters":37600,"station_id":"ce4bhbh2rcd13ifvqepg","pricing_plan_id":"cebpf4jnsgd1na2vs0mg"},{"bike_id":"52a71ef5-8ef7-4a13-9edb-b931936b8cfb","system_id":"levelo_inurba_marseille","lat":43.33727,"lon":5.39189,"is_reserved":false,"is_disabled":false,"rental_uris":{"android":"levelo://app?vid=52a71ef5-8ef7-4a13-9edb-b931936b8cfb","ios":"levelo://app?vid=52a71ef5-8ef7-4a13-9edb-b931936b8cfb"},"vehicle_type_id":"4","last_reported":1731344883,"current_range_meters":29600,"station_id":"ce4bhr92rcd13ifvqhsg","pricing_plan_id":"cebpf4jnsgd1na2vs0mg"},{"bike_id":"2c507cd7-54ef-475c-8faa-961482f8a251","system_id":"levelo_inurba_marseille","lat":43.29561,"lon":5.42293,"is_reserved":false,"is_disabled":false,"rental_uris":{"android":"levelo://app?vid=2c507cd7-54ef-475c-8faa-961482f8a251","ios":"levelo://app?vid=2c507cd7-54ef-475c-8faa-961482f8a251"},"vehicle_type_id":"4","last_reported":1731344883,"current_range_meters":26000,"station_id":"ce4bhph2rcd13ifvqhdg","pricing_plan_id":"cebpf4jnsgd1na2vs0mg"},{"bike_id":"52fec909-af2e-4e34-939b-743770dfab0a","system_id":"levelo_inurba_marseille","lat":43.3089,"lon":5.3721,"is_reserved":false,"is_disabled":false,"rental_uris":{"android":"levelo://app?vid=52fec909-af2e-4e34-939b-743770dfab0a","ios":"levelo://app?vid=52fec909-af2e-4e34-939b-743770dfab0a"},"vehicle_type_id":"4","last_reported":1731344883,"current_range_meters":26000,"station_id":"ce4bguh2rcd13ifvqckg","pricing_plan_id":"cebpf4jnsgd1na2vs0mg"},{"bike_id":"a1ee54ee-9a99-4f78-a6c9-887bc085fe80","system_id":"levelo_inurba_marseille","lat":43.28939,"lon":5.3964,"is_reserved":false,"is_disabled":false,"rental_uris":{"android":"levelo://app?vid=a1ee54ee-9a99-4f78-a6c9-887bc085fe80","ios":"levelo://app?vid=a1ee54ee-9a99-4f78-a6c9-887bc085fe80"},"vehicle_type_id":"4","last_reported":1731344883,"current_range_meters":31200,"station_id":"ce4bh3h2rcd13ifvqdn0","pricing_plan_id":"cebpf4jnsgd1na2vs0mg"},{"bike_id":"c02a192e-5825-44fe-a0c9-fd04411f4ff2","system_id":"levelo_inurba_marseille","lat":43.25009,"lon":5.38924,"is_reserved":false,"is_disabled":false,"rental_uris":{"android":"levelo://app?vid=c02a192e-5825-44fe-a0c9-fd04411f4ff2","ios":"levelo://app?vid=c02a192e-5825-44fe-a0c9-fd04411f4ff2"},"vehicle_type_id":"4","last_reported":1731344883,"current_range_meters":24400,"station_id":"ce4bhgp2rcd13ifvqfd0","pricing_plan_id":"cebpf4jnsgd1na2vs0mg"},{"bike_id":"feb86f62-2c80-4064-8e38-33c5534046da","system_id":"levelo_inurba_marseille","lat":43.28198,"lon":5.3992,"is_reserved":false,"is_disabled":false,"rental_uris":{"android":"levelo://app?vid=feb86f62-2c80-4064-8e38-33c5534046da","ios":"levelo://app?vid=feb86f62-2c80-4064-8e38-33c5534046da"},"vehicle_type_id":"4","last_reported":1731344883,"current_range_meters":15200,"station_id":"","pricing_plan_id":"cebpf4jnsgd1na2vs0mg"},{"bike_id":"1d980259-d208-4c94-9ea1-3c8eaef46bb6","system_id":"levelo_inurba_marseille","lat":43.2885,"lon":5.39316,"is_reserved":false,"is_disabled":false,"rental_uris":{"android":"levelo://app?vid=1d980259-d208-4c94-9ea1-3c8eaef46bb6","ios":"levelo://app?vid=1d980259-d208-4c94-9ea1-3c8eaef46bb6"},"vehicle_type_id":"4","last_reported":1731344883,"current_range_meters":30400,"station_id":"ce4bh2p2rcd13ifvqdi0","pricing_plan_id":"cebpf4jnsgd1na2vs0mg"},{"bike_id":"bb7d3301-5963-4952-8254-37b46bf9aaed","system_id":"levelo_inurba_marseille","lat":43.239657,"lon":5.366366,"is_reserved":false,"is_disabled":false,"rental_uris":{"android":"levelo://app?vid=bb7d3301-5963-4952-8254-37b46bf9aaed","ios":"levelo://app?vid=bb7d3301-5963-4952-8254-37b46bf9aaed"},"vehicle_type_id":"4","last_reported":1731344883,"current_range_meters":16000,"station_id":"ce4bhi12rcd13ifvqfp0","pricing_plan_id":"cebpf4jnsgd1na2vs0mg"},{"bike_id":"8108899c-2bce-4e66-a34d-4d64f1ad21d9","system_id":"levelo_inurba_marseille","lat":43.295207,"lon":5.390463,"is_reserved":false,"is_disabled":false,"rental_uris":{"android":"levelo://app?vid=8108899c-2bce-4e66-a34d-4d64f1ad21d9","ios":"levelo://app?vid=8108899c-2bce-4e66-a34d-4d64f1ad21d9"},"vehicle_type_id":"4","last_reported":1731344883,"current_range_meters":8000,"station_id":"ce4bh3p2rcd13ifvqdp0","pricing_plan_id":"cebpf4jnsgd1na2vs0mg"},{"bike_id":"bc2dfb2a-823d-4f32-b428-13264d2b0fc0","system_id":"levelo_inurba_marseille","lat":43.30423,"lon":5.38882,"is_reserved":false,"is_disabled":false,"rental_uris":{"android":"levelo://app?vid=bc2dfb2a-823d-4f32-b428-13264d2b0fc0","ios":"levelo://app?vid=bc2dfb2a-823d-4f32-b428-13264d2b0fc0"},"vehicle_type_id":"4","last_reported":1731344883,"current_range_meters":25200,"station_id":"ce4bgk12rcd13ifvqbi0","pricing_plan_id":"cebpf4jnsgd1na2vs0mg"},{"bike_id":"3e6b1c7f-d2d5-424e-993b-cf0ea3434252","system_id":"levelo_inurba_marseille","lat":43.26496,"lon":5.39539,"is_reserved":false,"is_disabled":false,"rental_uris":{"android":"levelo://app?vid=3e6b1c7f-d2d5-424e-993b-cf0ea3434252","ios":"levelo://app?vid=3e6b1c7f-d2d5-424e-993b-cf0ea3434252"},"vehicle_type_id":"4","last_reported":1731344883,"current_range_meters":20400,"station_id":"ce4bhi12rcd13ifvqfq0","pricing_plan_id":"cebpf4jnsgd1na2vs0mg"},{"bike_id":"106cc77c-122d-43e9-b84f-d8544cad5890","system_id":"levelo_inurba_marseille","lat":43.28984,"lon":5.36695,"is_reserved":false,"is_disabled":false,"rental_uris":{"android":"levelo://app?vid=106cc77c-122d-43e9-b84f-d8544cad5890","ios":"levelo://app?vid=106cc77c-122d-43e9-b84f-d8544cad5890"},"vehicle_type_id":"4","last_reported":1731344883,"current_range_meters":30400,"station_id":"","pricing_plan_id":"cebpf4jnsgd1na2vs0mg"},{"bike_id":"b16943e1-6e4b-4767-8789-7da828786277","system_id":"levelo_inurba_marseille","lat":43.34183,"lon":5.38614,"is_reserved":false,"is_disabled":false,"rental_uris":{"android":"levelo://app?vid=b16943e1-6e4b-4767-8789-7da828786277","ios":"levelo://app?vid=b16943e1-6e4b-4767-8789-7da828786277"},"vehicle_type_id":"4","last_reported":1731344883,"current_range_meters":12000,"station_id":"","pricing_plan_id":"cebpf4jnsgd1na2vs0mg"},{"bike_id":"1f3c88dd-66a6-4799-9344-dacb4c102852","system_id":"levelo_inurba_marseille","lat":43.29965,"lon":5.38499,"is_reserved":false,"is_disabled":false,"rental_uris":{"android":"levelo://app?vid=1f3c88dd-66a6-4799-9344-dacb4c102852","ios":"levelo://app?vid=1f3c88dd-66a6-4799-9344-dacb4c102852"},"vehicle_type_id":"4","last_reported":1731344883,"current_range_meters":33200,"station_id":"ce4bgj92rcd13ifvqbd0","pricing_plan_id":"cebpf4jnsgd1na2vs0mg"},{"bike_id":"bffa26fc-b235-4563-8794-0e3c0db7f7ef","system_id":"levelo_inurba_marseille","lat":43.2794,"lon":5.41058,"is_reserved":false,"is_disabled":false,"rental_uris":{"android":"levelo://app?vid=bffa26fc-b235-4563-8794-0e3c0db7f7ef","ios":"levelo://app?vid=bffa26fc-b235-4563-8794-0e3c0db7f7ef"},"vehicle_type_id":"4","last_reported":1731344883,"current_range_meters":8000,"station_id":"ce4bhnp2rcd13ifvqh0g","pricing_plan_id":"cebpf4jnsgd1na2vs0mg"},{"bike_id":"f368046f-08fd-4397-af9b-a3977d4b9cec","system_id":"levelo_inurba_marseille","lat":43.29978,"lon":5.37181,"is_reserved":false,"is_disabled":false,"rental_uris":{"android":"levelo://app?vid=f368046f-08fd-4397-af9b-a3977d4b9cec","ios":"levelo://app?vid=f368046f-08fd-4397-af9b-a3977d4b9cec"},"vehicle_type_id":"4","last_reported":1731344883,"current_range_meters":0,"station_id":"ce4bgr92rcd13ifvqc7g","pricing_plan_id":"cebpf4jnsgd1na2vs0mg"},{"bike_id":"5e04c8f6-4677-41c9-9d33-aad2a505a6a5","system_id":"levelo_inurba_marseille","lat":43.29516,"lon":5.388439,"is_reserved":false,"is_disabled":false,"rental_uris":{"android":"levelo://app?vid=5e04c8f6-4677-41c9-9d33-aad2a505a6a5","ios":"levelo://app?vid=5e04c8f6-4677-41c9-9d33-aad2a505a6a5"},"vehicle_type_id":"4","last_reported":1731344883,"current_range_meters":36000,"station_id":"ce4bh0h2rcd13ifvqd40","pricing_plan_id":"cebpf4jnsgd1na2vs0mg"},{"bike_id":"dc12c22a-8cf2-4528-b50b-ec412d178453","system_id":"levelo_inurba_marseille","lat":43.31728,"lon":5.42398,"is_reserved":false,"is_disabled":false,"rental_uris":{"android":"levelo://app?vid=dc12c22a-8cf2-4528-b50b-ec412d178453","ios":"levelo://app?vid=dc12c22a-8cf2-4528-b50b-ec412d178453"},"vehicle_type_id":"4","last_reported":1731344883,"current_range_meters":38400,"station_id":"ce4bhp92rcd13ifvqhbg","pricing_plan_id":"cebpf4jnsgd1na2vs0mg"},{"bike_id":"3dfc655f-dc40-40e1-adc8-dad4496f2e4c","system_id":"levelo_inurba_marseille","lat":43.23962,"lon":5.36633,"is_reserved":false,"is_disabled":false,"rental_uris":{"android":"levelo://app?vid=3dfc655f-dc40-40e1-adc8-dad4496f2e4c","ios":"levelo://app?vid=3dfc655f-dc40-40e1-adc8-dad4496f2e4c"},"vehicle_type_id":"4","last_reported":1731344883,"current_range_meters":34800,"station_id":"ce4bhi12rcd13ifvqfp0","pricing_plan_id":"cebpf4jnsgd1na2vs0mg"},{"bike_id":"670a0569-1cd2-4534-816e-2223647a4790","system_id":"levelo_inurba_marseille","lat":43.337444,"lon":5.374475,"is_reserved":false,"is_disabled":false,"rental_uris":{"android":"levelo://app?vid=670a0569-1cd2-4534-816e-2223647a4790","ios":"levelo://app?vid=670a0569-1cd2-4534-816e-2223647a4790"},"vehicle_type_id":"4","last_reported":1731344883,"current_range_meters":35600,"station_id":"","pricing_plan_id":"cebpf4jnsgd1na2vs0mg"},{"bike_id":"2678dba8-96db-431b-8501-19eb207e0f6b","system_id":"levelo_inurba_marseille","lat":43.28457,"lon":5.35888,"is_reserved":false,"is_disabled":false,"rental_uris":{"android":"levelo://app?vid=2678dba8-96db-431b-8501-19eb207e0f6b","ios":"levelo://app?vid=2678dba8-96db-431b-8501-19eb207e0f6b"},"vehicle_type_id":"4","last_reported":1731344883,"current_range_meters":39200,"station_id":"ce4bhah2rcd13ifvqei0","pricing_plan_id":"cebpf4jnsgd1na2vs0mg"},{"bike_id":"cda4d5ca-16db-4d45-9822-14141a1915b8","system_id":"levelo_inurba_marseille","lat":43.3172,"lon":5.42401,"is_reserved":false,"is_disabled":false,"rental_uris":{"android":"levelo://app?vid=cda4d5ca-16db-4d45-9822-14141a1915b8","ios":"levelo://app?vid=cda4d5ca-16db-4d45-9822-14141a1915b8"},"vehicle_type_id":"4","last_reported":1731344883,"current_range_meters":11600,"station_id":"ce4bhp92rcd13ifvqhbg","pricing_plan_id":"cebpf4jnsgd1na2vs0mg"},{"bike_id":"cfb0f050-1099-4978-8eff-8e5c2bf7308f","system_id":"levelo_inurba_marseille","lat":43.31076,"lon":5.38356,"is_reserved":false,"is_disabled":false,"rental_uris":{"android":"levelo://app?vid=cfb0f050-1099-4978-8eff-8e5c2bf7308f","ios":"levelo://app?vid=cfb0f050-1099-4978-8eff-8e5c2bf7308f"},"vehicle_type_id":"4","last_reported":1731344883,"current_range_meters":16000,"station_id":"ce4bgv92rcd13ifvqcr0","pricing_plan_id":"cebpf4jnsgd1na2vs0mg"},{"bike_id":"5b86b072-d114-4fe3-b97d-b7eec3b13ee7","system_id":"levelo_inurba_marseille","lat":43.2593,"lon":5.40916,"is_reserved":false,"is_disabled":false,"rental_uris":{"android":"levelo://app?vid=5b86b072-d114-4fe3-b97d-b7eec3b13ee7","ios":"levelo://app?vid=5b86b072-d114-4fe3-b97d-b7eec3b13ee7"},"vehicle_type_id":"4","last_reported":1731344883,"current_range_meters":8400,"station_id":"ce4bhm92rcd13ifvqglg","pricing_plan_id":"cebpf4jnsgd1na2vs0mg"},{"bike_id":"503cb603-8392-448f-94b0-579527d6f47e","system_id":"levelo_inurba_marseille","lat":43.25116,"lon":5.40321,"is_reserved":false,"is_disabled":false,"rental_uris":{"android":"levelo://app?vid=503cb603-8392-448f-94b0-579527d6f47e","ios":"levelo://app?vid=503cb603-8392-448f-94b0-579527d6f47e"},"vehicle_type_id":"4","last_reported":1731344883,"current_range_meters":3200,"station_id":"ce4bhlh2rcd13ifvqgig","pricing_plan_id":"cebpf4jnsgd1na2vs0mg"},{"bike_id":"03e95532-b941-4820-a632-f497d6e02804","system_id":"levelo_inurba_marseille","lat":43.296264,"lon":5.371657,"is_reserved":false,"is_disabled":false,"rental_uris":{"android":"levelo://app?vid=03e95532-b941-4820-a632-f497d6e02804","ios":"levelo://app?vid=03e95532-b941-4820-a632-f497d6e02804"},"vehicle_type_id":"4","last_reported":1731344883,"current_range_meters":27200,"station_id":"ce4bgnh2rcd13ifvqc0g","pricing_plan_id":"cebpf4jnsgd1na2vs0mg"},{"bike_id":"619a7a9d-0fc7-48a3-8e43-7b51d1724459","system_id":"levelo_inurba_marseille","lat":43.3248,"lon":5.3657,"is_reserved":false,"is_disabled":false,"rental_uris":{"android":"levelo://app?vid=619a7a9d-0fc7-48a3-8e43-7b51d1724459","ios":"levelo://app?vid=619a7a9d-0fc7-48a3-8e43-7b51d1724459"},"vehicle_type_id":"4","last_reported":1731344883,"current_range_meters":30400,"station_id":"ce4bhs12rcd13ifvqhvg","pricing_plan_id":"cebpf4jnsgd1na2vs0mg"},{"bike_id":"eadf852f-6226-4fa6-a3b6-6351797779a6","system_id":"levelo_inurba_marseille","lat":43.27241,"lon":5.4111,"is_reserved":false,"is_disabled":false,"rental_uris":{"android":"levelo://app?vid=eadf852f-6226-4fa6-a3b6-6351797779a6","ios":"levelo://app?vid=eadf852f-6226-4fa6-a3b6-6351797779a6"},"vehicle_type_id":"4","last_reported":1731344883,"current_range_meters":16000,"station_id":"ce4bhi12rcd13ifvqfq0","pricing_plan_id":"cebpf4jnsgd1na2vs0mg"},{"bike_id":"6c70179e-28df-4a98-8b24-db5e64a1d48a","system_id":"levelo_inurba_marseille","lat":43.300067,"lon":5.385176,"is_reserved":false,"is_disabled":false,"rental_uris":{"android":"levelo://app?vid=6c70179e-28df-4a98-8b24-db5e64a1d48a","ios":"levelo://app?vid=6c70179e-28df-4a98-8b24-db5e64a1d48a"},"vehicle_type_id":"4","last_reported":1731344883,"current_range_meters":24400,"station_id":"ce4bgj92rcd13ifvqbd0","pricing_plan_id":"cebpf4jnsgd1na2vs0mg"},{"bike_id":"e19af4e2-40e7-48bb-ae18-d7b5a68660e7","system_id":"levelo_inurba_marseille","lat":43.25573,"lon":5.38244,"is_reserved":false,"is_disabled":false,"rental_uris":{"android":"levelo://app?vid=e19af4e2-40e7-48bb-ae18-d7b5a68660e7","ios":"levelo://app?vid=e19af4e2-40e7-48bb-ae18-d7b5a68660e7"},"vehicle_type_id":"4","last_reported":1731344883,"current_range_meters":14400,"station_id":"ce4bhih2rcd13ifvqfs0","pricing_plan_id":"cebpf4jnsgd1na2vs0mg"},{"bike_id":"e74c8c59-96f9-45a9-a952-624370753cc9","system_id":"levelo_inurba_marseille","lat":43.29529,"lon":5.3855,"is_reserved":false,"is_disabled":false,"rental_uris":{"android":"levelo://app?vid=e74c8c59-96f9-45a9-a952-624370753cc9","ios":"levelo://app?vid=e74c8c59-96f9-45a9-a952-624370753cc9"},"vehicle_type_id":"4","last_reported":1731344883,"current_range_meters":10800,"station_id":"ce4bgih2rcd13ifvqba0","pricing_plan_id":"cebpf4jnsgd1na2vs0mg"},{"bike_id":"3000ecb6-1f45-4d94-acd0-9106cfe9de98","system_id":"levelo_inurba_marseille","lat":43.24395,"lon":5.37057,"is_reserved":false,"is_disabled":false,"rental_uris":{"android":"levelo://app?vid=3000ecb6-1f45-4d94-acd0-9106cfe9de98","ios":"levelo://app?vid=3000ecb6-1f45-4d94-acd0-9106cfe9de98"},"vehicle_type_id":"4","last_reported":1731344883,"current_range_meters":36000,"station_id":"ce4bhhh2rcd13ifvqfk0","pricing_plan_id":"cebpf4jnsgd1na2vs0mg"},{"bike_id":"5f4302bc-a188-4ebb-95b9-97226e47c115","system_id":"levelo_inurba_marseille","lat":43.29942,"lon":5.36559,"is_reserved":false,"is_disabled":false,"rental_uris":{"android":"levelo://app?vid=5f4302bc-a188-4ebb-95b9-97226e47c115","ios":"levelo://app?vid=5f4302bc-a188-4ebb-95b9-97226e47c115"},"vehicle_type_id":"4","last_reported":1731344883,"current_range_meters":10800,"station_id":"ce4bgm92rcd13ifvqbr0","pricing_plan_id":"cebpf4jnsgd1na2vs0mg"},{"bike_id":"d995777f-21e7-41f5-8bd9-e7e802c20856","system_id":"levelo_inurba_marseille","lat":43.29039,"lon":5.39965,"is_reserved":false,"is_disabled":false,"rental_uris":{"android":"levelo://app?vid=d995777f-21e7-41f5-8bd9-e7e802c20856","ios":"levelo://app?vid=d995777f-21e7-41f5-8bd9-e7e802c20856"},"vehicle_type_id":"4","last_reported":1731344883,"current_range_meters":6800,"station_id":"ce4bh392rcd13ifvqdm0","pricing_plan_id":"cebpf4jnsgd1na2vs0mg"},{"bike_id":"5aa0449a-46af-4bd2-b3c3-ced747216bef","system_id":"levelo_inurba_marseille","lat":43.29581,"lon":5.375135,"is_reserved":false,"is_disabled":false,"rental_uris":{"android":"levelo://app?vid=5aa0449a-46af-4bd2-b3c3-ced747216bef","ios":"levelo://app?vid=5aa0449a-46af-4bd2-b3c3-ced747216bef"},"vehicle_type_id":"4","last_reported":1731344883,"current_range_meters":23200,"station_id":"ce4bgh92rcd13ifvqb50","pricing_plan_id":"cebpf4jnsgd1na2vs0mg"},{"bike_id":"0c235279-814d-46b2-bf86-9e11c8028028","system_id":"levelo_inurba_marseille","lat":43.29928,"lon":5.36543,"is_reserved":false,"is_disabled":false,"rental_uris":{"android":"levelo://app?vid=0c235279-814d-46b2-bf86-9e11c8028028","ios":"levelo://app?vid=0c235279-814d-46b2-bf86-9e11c8028028"},"vehicle_type_id":"4","last_reported":1731344883,"current_range_meters":8400,"station_id":"ce4bgm92rcd13ifvqbr0","pricing_plan_id":"cebpf4jnsgd1na2vs0mg"},{"bike_id":"7fd3d1c3-1273-4251-a33f-d433579f5560","system_id":"levelo_inurba_marseille","lat":43.29285,"lon":5.40122,"is_reserved":false,"is_disabled":false,"rental_uris":{"android":"levelo://app?vid=7fd3d1c3-1273-4251-a33f-d433579f5560","ios":"levelo://app?vid=7fd3d1c3-1273-4251-a33f-d433579f5560"},"vehicle_type_id":"4","last_reported":1731344883,"current_range_meters":22400,"station_id":"ce4bh312rcd13ifvqdk0","pricing_plan_id":"cebpf4jnsgd1na2vs0mg"},{"bike_id":"4dc0e3bd-ab9c-461a-835f-d4784d7b8326","system_id":"levelo_inurba_marseille","lat":43.313274,"lon":5.423696,"is_reserved":false,"is_disabled":false,"rental_uris":{"android":"levelo://app?vid=4dc0e3bd-ab9c-461a-835f-d4784d7b8326","ios":"levelo://app?vid=4dc0e3bd-ab9c-461a-835f-d4784d7b8326"},"vehicle_type_id":"4","last_reported":1731344883,"current_range_meters":8400,"station_id":"ce4bhp92rcd13ifvqhcg","pricing_plan_id":"cebpf4jnsgd1na2vs0mg"},{"bike_id":"2b26d51d-3da6-4977-bb5a-15b71021dcfd","system_id":"levelo_inurba_marseille","lat":43.29039,"lon":5.38674,"is_reserved":false,"is_disabled":false,"rental_uris":{"android":"levelo://app?vid=2b26d51d-3da6-4977-bb5a-15b71021dcfd","ios":"levelo://app?vid=2b26d51d-3da6-4977-bb5a-15b71021dcfd"},"vehicle_type_id":"4","last_reported":1731344883,"current_range_meters":34000,"station_id":"ce4bh4p2rcd13ifvqe0g","pricing_plan_id":"cebpf4jnsgd1na2vs0mg"},{"bike_id":"908726bc-93d0-490a-a079-e3d2ed549539","system_id":"levelo_inurba_marseille","lat":43.28941,"lon":5.39636,"is_reserved":false,"is_disabled":false,"rental_uris":{"android":"levelo://app?vid=908726bc-93d0-490a-a079-e3d2ed549539","ios":"levelo://app?vid=908726bc-93d0-490a-a079-e3d2ed549539"},"vehicle_type_id":"4","last_reported":1731344883,"current_range_meters":19200,"station_id":"ce4bh3h2rcd13ifvqdn0","pricing_plan_id":"cebpf4jnsgd1na2vs0mg"},{"bike_id":"a7cdd6c9-4427-4970-ac46-e4662cdbf04d","system_id":"levelo_inurba_marseille","lat":43.30314,"lon":5.3921,"is_reserved":false,"is_disabled":false,"rental_uris":{"android":"levelo://app?vid=a7cdd6c9-4427-4970-ac46-e4662cdbf04d","ios":"levelo://app?vid=a7cdd6c9-4427-4970-ac46-e4662cdbf04d"},"vehicle_type_id":"4","last_reported":1731344883,"current_range_meters":5600,"station_id":"ce4bgkh2rcd13ifvqbk0","pricing_plan_id":"cebpf4jnsgd1na2vs0mg"},{"bike_id":"c30c7c17-b515-4143-9517-47b104debd66","system_id":"levelo_inurba_marseille","lat":43.337444,"lon":5.374475,"is_reserved":false,"is_disabled":false,"rental_uris":{"android":"levelo://app?vid=c30c7c17-b515-4143-9517-47b104debd66","ios":"levelo://app?vid=c30c7c17-b515-4143-9517-47b104debd66"},"vehicle_type_id":"4","last_reported":1731344883,"current_range_meters":9600,"station_id":"","pricing_plan_id":"cebpf4jnsgd1na2vs0mg"},{"bike_id":"a3737c00-2b24-45c7-87f6-a52becd1e5b4","system_id":"levelo_inurba_marseille","lat":43.27083,"lon":5.37999,"is_reserved":false,"is_disabled":false,"rental_uris":{"android":"levelo://app?vid=a3737c00-2b24-45c7-87f6-a52becd1e5b4","ios":"levelo://app?vid=a3737c00-2b24-45c7-87f6-a52becd1e5b4"},"vehicle_type_id":"4","last_reported":1731344883,"current_range_meters":30400,"station_id":"","pricing_plan_id":"cebpf4jnsgd1na2vs0mg"},{"bike_id":"003c1a2a-ece9-47fe-9336-89c68edcd245","system_id":"levelo_inurba_marseille","lat":43.29277,"lon":5.38458,"is_reserved":false,"is_disabled":false,"rental_uris":{"android":"levelo://app?vid=003c1a2a-ece9-47fe-9336-89c68edcd245","ios":"levelo://app?vid=003c1a2a-ece9-47fe-9336-89c68edcd245"},"vehicle_type_id":"4","last_reported":1731344883,"current_range_meters":38000,"station_id":"ce4bh692rcd13ifvqea0","pricing_plan_id":"cebpf4jnsgd1na2vs0mg"},{"bike_id":"3c8af3c5-bb73-4ccb-bf1c-ce6f9151d77c","system_id":"levelo_inurba_marseille","lat":43.23964,"lon":5.36642,"is_reserved":false,"is_disabled":false,"rental_uris":{"android":"levelo://app?vid=3c8af3c5-bb73-4ccb-bf1c-ce6f9151d77c","ios":"levelo://app?vid=3c8af3c5-bb73-4ccb-bf1c-ce6f9151d77c"},"vehicle_type_id":"4","last_reported":1731344883,"current_range_meters":38800,"station_id":"ce4bhi12rcd13ifvqfp0","pricing_plan_id":"cebpf4jnsgd1na2vs0mg"},{"bike_id":"e6349e14-d235-4b81-aca2-b09665fd9af3","system_id":"levelo_inurba_marseille","lat":43.30144,"lon":5.38789,"is_reserved":false,"is_disabled":false,"rental_uris":{"android":"levelo://app?vid=e6349e14-d235-4b81-aca2-b09665fd9af3","ios":"levelo://app?vid=e6349e14-d235-4b81-aca2-b09665fd9af3"},"vehicle_type_id":"4","last_reported":1731344883,"current_range_meters":35600,"station_id":"ce4bghh2rcd13ifvqb60","pricing_plan_id":"cebpf4jnsgd1na2vs0mg"},{"bike_id":"87ba4ffe-442c-4078-a68a-c899846ddb18","system_id":"levelo_inurba_marseille","lat":43.28664,"lon":5.36358,"is_reserved":false,"is_disabled":false,"rental_uris":{"android":"levelo://app?vid=87ba4ffe-442c-4078-a68a-c899846ddb18","ios":"levelo://app?vid=87ba4ffe-442c-4078-a68a-c899846ddb18"},"vehicle_type_id":"4","last_reported":1731344883,"current_range_meters":9600,"station_id":"ce4bhah2rcd13ifvqej0","pricing_plan_id":"cebpf4jnsgd1na2vs0mg"},{"bike_id":"8dac1f8b-d6ff-4d58-9969-a0313ad69b65","system_id":"levelo_inurba_marseille","lat":43.31712,"lon":5.43709,"is_reserved":false,"is_disabled":false,"rental_uris":{"android":"levelo://app?vid=8dac1f8b-d6ff-4d58-9969-a0313ad69b65","ios":"levelo://app?vid=8dac1f8b-d6ff-4d58-9969-a0313ad69b65"},"vehicle_type_id":"4","last_reported":1731344883,"current_range_meters":27200,"station_id":"ce4bhp92rcd13ifvqhcg","pricing_plan_id":"cebpf4jnsgd1na2vs0mg"},{"bike_id":"e0186bf7-9328-4e9f-b211-014fa0c8e51e","system_id":"levelo_inurba_marseille","lat":43.27556,"lon":5.38423,"is_reserved":false,"is_disabled":false,"rental_uris":{"android":"levelo://app?vid=e0186bf7-9328-4e9f-b211-014fa0c8e51e","ios":"levelo://app?vid=e0186bf7-9328-4e9f-b211-014fa0c8e51e"},"vehicle_type_id":"4","last_reported":1731344883,"current_range_meters":37600,"station_id":"ce4bhh92rcd13ifvqfi0","pricing_plan_id":"cebpf4jnsgd1na2vs0mg"},{"bike_id":"4e938243-66dd-4dc3-b6e3-8714d02ac2ef","system_id":"levelo_inurba_marseille","lat":43.29866,"lon":5.39731,"is_reserved":false,"is_disabled":false,"rental_uris":{"android":"levelo://app?vid=4e938243-66dd-4dc3-b6e3-8714d02ac2ef","ios":"levelo://app?vid=4e938243-66dd-4dc3-b6e3-8714d02ac2ef"},"vehicle_type_id":"4","last_reported":1731344883,"current_range_meters":17200,"station_id":"ce4bh0h2rcd13ifvqd50","pricing_plan_id":"cebpf4jnsgd1na2vs0mg"},{"bike_id":"76ffbf89-fe59-40e1-a297-2808dc4739fd","system_id":"levelo_inurba_marseille","lat":43.3021,"lon":5.39471,"is_reserved":false,"is_disabled":false,"rental_uris":{"android":"levelo://app?vid=76ffbf89-fe59-40e1-a297-2808dc4739fd","ios":"levelo://app?vid=76ffbf89-fe59-40e1-a297-2808dc4739fd"},"vehicle_type_id":"4","last_reported":1731344883,"current_range_meters":38800,"station_id":"ce4bh0p2rcd13ifvqd70","pricing_plan_id":"cebpf4jnsgd1na2vs0mg"},{"bike_id":"fe15a555-07f6-4bc0-8130-7c42dc9434dc","system_id":"levelo_inurba_marseille","lat":43.29914,"lon":5.38136,"is_reserved":false,"is_disabled":false,"rental_uris":{"android":"levelo://app?vid=fe15a555-07f6-4bc0-8130-7c42dc9434dc","ios":"levelo://app?vid=fe15a555-07f6-4bc0-8130-7c42dc9434dc"},"vehicle_type_id":"4","last_reported":1731344883,"current_range_meters":22800,"station_id":"ce4bgj12rcd13ifvqbc0","pricing_plan_id":"cebpf4jnsgd1na2vs0mg"},{"bike_id":"c51ce346-c342-47a0-ac6b-5037ac6a843e","system_id":"levelo_inurba_marseille","lat":43.25083,"lon":5.39523,"is_reserved":false,"is_disabled":false,"rental_uris":{"android":"levelo://app?vid=c51ce346-c342-47a0-ac6b-5037ac6a843e","ios":"levelo://app?vid=c51ce346-c342-47a0-ac6b-5037ac6a843e"},"vehicle_type_id":"4","last_reported":1731344883,"current_range_meters":7200,"station_id":"ce4bhm12rcd13ifvqgkg","pricing_plan_id":"cebpf4jnsgd1na2vs0mg"},{"bike_id":"fe98d769-6019-4dbc-8f6b-74c8b9c55f5a","system_id":"levelo_inurba_marseille","lat":43.31895,"lon":5.40738,"is_reserved":false,"is_disabled":false,"rental_uris":{"android":"levelo://app?vid=fe98d769-6019-4dbc-8f6b-74c8b9c55f5a","ios":"levelo://app?vid=fe98d769-6019-4dbc-8f6b-74c8b9c55f5a"},"vehicle_type_id":"4","last_reported":1731344883,"current_range_meters":23200,"station_id":"ce4bhq12rcd13ifvqhig","pricing_plan_id":"cebpf4jnsgd1na2vs0mg"},{"bike_id":"33845154-d813-4616-a95a-10f8ed399603","system_id":"levelo_inurba_marseille","lat":43.30923,"lon":5.40149,"is_reserved":false,"is_disabled":false,"rental_uris":{"android":"levelo://app?vid=33845154-d813-4616-a95a-10f8ed399603","ios":"levelo://app?vid=33845154-d813-4616-a95a-10f8ed399603"},"vehicle_type_id":"4","last_reported":1731344883,"current_range_meters":17200,"station_id":"ce4bgvp2rcd13ifvqct0","pricing_plan_id":"cebpf4jnsgd1na2vs0mg"},{"bike_id":"34b73801-48c8-4a8e-8a8f-155843b1379c","system_id":"levelo_inurba_marseille","lat":43.285669,"lon":5.39496,"is_reserved":false,"is_disabled":false,"rental_uris":{"android":"levelo://app?vid=34b73801-48c8-4a8e-8a8f-155843b1379c","ios":"levelo://app?vid=34b73801-48c8-4a8e-8a8f-155843b1379c"},"vehicle_type_id":"4","last_reported":1731344883,"current_range_meters":6800,"station_id":"ce4bh292rcd13ifvqdg0","pricing_plan_id":"cebpf4jnsgd1na2vs0mg"},{"bike_id":"e6798bbc-0707-42c5-9a11-d1fda0166cf7","system_id":"levelo_inurba_marseille","lat":43.337444,"lon":5.374475,"is_reserved":false,"is_disabled":false,"rental_uris":{"android":"levelo://app?vid=e6798bbc-0707-42c5-9a11-d1fda0166cf7","ios":"levelo://app?vid=e6798bbc-0707-42c5-9a11-d1fda0166cf7"},"vehicle_type_id":"4","last_reported":1731344883,"current_range_meters":10000,"station_id":"","pricing_plan_id":"cebpf4jnsgd1na2vs0mg"},{"bike_id":"4a682749-c9b1-4ce4-a89e-91de92347aa3","system_id":"levelo_inurba_marseille","lat":43.3046,"lon":5.39783,"is_reserved":false,"is_disabled":false,"rental_uris":{"android":"levelo://app?vid=4a682749-c9b1-4ce4-a89e-91de92347aa3","ios":"levelo://app?vid=4a682749-c9b1-4ce4-a89e-91de92347aa3"},"vehicle_type_id":"4","last_reported":1731344883,"current_range_meters":14800,"station_id":"ce4bh092rcd13ifvqd20","pricing_plan_id":"cebpf4jnsgd1na2vs0mg"},{"bike_id":"fccd6c78-d9bb-4952-9036-903c63319bf0","system_id":"levelo_inurba_marseille","lat":43.288391,"lon":5.393352,"is_reserved":false,"is_disabled":false,"rental_uris":{"android":"levelo://app?vid=fccd6c78-d9bb-4952-9036-903c63319bf0","ios":"levelo://app?vid=fccd6c78-d9bb-4952-9036-903c63319bf0"},"vehicle_type_id":"4","last_reported":1731344883,"current_range_meters":4800,"station_id":"ce4bh2p2rcd13ifvqdi0","pricing_plan_id":"cebpf4jnsgd1na2vs0mg"},{"bike_id":"6962350e-7aa4-440c-82bf-69fc595fca75","system_id":"levelo_inurba_marseille","lat":43.23963,"lon":5.36636,"is_reserved":false,"is_disabled":false,"rental_uris":{"android":"levelo://app?vid=6962350e-7aa4-440c-82bf-69fc595fca75","ios":"levelo://app?vid=6962350e-7aa4-440c-82bf-69fc595fca75"},"vehicle_type_id":"4","last_reported":1731344883,"current_range_meters":6400,"station_id":"ce4bhi12rcd13ifvqfp0","pricing_plan_id":"cebpf4jnsgd1na2vs0mg"},{"bike_id":"d060d776-3c96-4c99-a0e4-ad762748511a","system_id":"levelo_inurba_marseille","lat":43.29931,"lon":5.37479,"is_reserved":false,"is_disabled":false,"rental_uris":{"android":"levelo://app?vid=d060d776-3c96-4c99-a0e4-ad762748511a","ios":"levelo://app?vid=d060d776-3c96-4c99-a0e4-ad762748511a"},"vehicle_type_id":"4","last_reported":1731344883,"current_range_meters":15200,"station_id":"ce4bgjh2rcd13ifvqbg0","pricing_plan_id":"cebpf4jnsgd1na2vs0mg"},{"bike_id":"52ef94d2-0cf0-4974-9f32-ad69965b13b5","system_id":"levelo_inurba_marseille","lat":43.308,"lon":5.38158,"is_reserved":false,"is_disabled":false,"rental_uris":{"android":"levelo://app?vid=52ef94d2-0cf0-4974-9f32-ad69965b13b5","ios":"levelo://app?vid=52ef94d2-0cf0-4974-9f32-ad69965b13b5"},"vehicle_type_id":"4","last_reported":1731344883,"current_range_meters":8400,"station_id":"ce4bgt12rcd13ifvqce0","pricing_plan_id":"cebpf4jnsgd1na2vs0mg"},{"bike_id":"aec56cd4-e5a3-4635-bc58-acc84daafd36","system_id":"levelo_inurba_marseille","lat":43.29528,"lon":5.38547,"is_reserved":false,"is_disabled":false,"rental_uris":{"android":"levelo://app?vid=aec56cd4-e5a3-4635-bc58-acc84daafd36","ios":"levelo://app?vid=aec56cd4-e5a3-4635-bc58-acc84daafd36"},"vehicle_type_id":"4","last_reported":1731344883,"current_range_meters":11600,"station_id":"ce4bgih2rcd13ifvqba0","pricing_plan_id":"cebpf4jnsgd1na2vs0mg"},{"bike_id":"5ec4181b-b451-4097-8025-26038020c132","system_id":"levelo_inurba_marseille","lat":43.24321,"lon":5.37018,"is_reserved":false,"is_disabled":false,"rental_uris":{"android":"levelo://app?vid=5ec4181b-b451-4097-8025-26038020c132","ios":"levelo://app?vid=5ec4181b-b451-4097-8025-26038020c132"},"vehicle_type_id":"4","last_reported":1731344883,"current_range_meters":28000,"station_id":"ce4bhhh2rcd13ifvqfk0","pricing_plan_id":"cebpf4jnsgd1na2vs0mg"},{"bike_id":"32f4e355-680e-4cf4-b795-c23dc6e59821","system_id":"levelo_inurba_marseille","lat":43.290169,"lon":5.38659,"is_reserved":false,"is_disabled":false,"rental_uris":{"android":"levelo://app?vid=32f4e355-680e-4cf4-b795-c23dc6e59821","ios":"levelo://app?vid=32f4e355-680e-4cf4-b795-c23dc6e59821"},"vehicle_type_id":"4","last_reported":1731344883,"current_range_meters":24800,"station_id":"ce4bh4p2rcd13ifvqe0g","pricing_plan_id":"cebpf4jnsgd1na2vs0mg"},{"bike_id":"7d0eb162-718e-435e-9ef4-6c47d56882b7","system_id":"levelo_inurba_marseille","lat":43.28497,"lon":5.38555,"is_reserved":false,"is_disabled":false,"rental_uris":{"android":"levelo://app?vid=7d0eb162-718e-435e-9ef4-6c47d56882b7","ios":"levelo://app?vid=7d0eb162-718e-435e-9ef4-6c47d56882b7"},"vehicle_type_id":"4","last_reported":1731344883,"current_range_meters":12000,"station_id":"ce4bh8p2rcd13ifvqeb0","pricing_plan_id":"cebpf4jnsgd1na2vs0mg"},{"bike_id":"afd84fcc-4d8c-4b89-ba13-10681ba93fa3","system_id":"levelo_inurba_marseille","lat":43.29356,"lon":5.45046,"is_reserved":false,"is_disabled":false,"rental_uris":{"android":"levelo://app?vid=afd84fcc-4d8c-4b89-ba13-10681ba93fa3","ios":"levelo://app?vid=afd84fcc-4d8c-4b89-ba13-10681ba93fa3"},"vehicle_type_id":"4","last_reported":1731344883,"current_range_meters":17200,"station_id":"","pricing_plan_id":"cebpf4jnsgd1na2vs0mg"},{"bike_id":"a00c50e9-f932-4280-8641-6de0ae3844c5","system_id":"levelo_inurba_marseille","lat":43.31827,"lon":5.37198,"is_reserved":false,"is_disabled":false,"rental_uris":{"android":"levelo://app?vid=a00c50e9-f932-4280-8641-6de0ae3844c5","ios":"levelo://app?vid=a00c50e9-f932-4280-8641-6de0ae3844c5"},"vehicle_type_id":"4","last_reported":1731344883,"current_range_meters":16000,"station_id":"","pricing_plan_id":"cebpf4jnsgd1na2vs0mg"},{"bike_id":"5e50d75e-b002-4fa5-a26f-ffead006208b","system_id":"levelo_inurba_marseille","lat":43.2396,"lon":5.36631,"is_reserved":false,"is_disabled":false,"rental_uris":{"android":"levelo://app?vid=5e50d75e-b002-4fa5-a26f-ffead006208b","ios":"levelo://app?vid=5e50d75e-b002-4fa5-a26f-ffead006208b"},"vehicle_type_id":"4","last_reported":1731344883,"current_range_meters":15200,"station_id":"ce4bhi12rcd13ifvqfp0","pricing_plan_id":"cebpf4jnsgd1na2vs0mg"},{"bike_id":"9b30d6ea-c3e3-4a20-8f22-4393c6ffa288","system_id":"levelo_inurba_marseille","lat":43.29047,"lon":5.359117,"is_reserved":false,"is_disabled":false,"rental_uris":{"android":"levelo://app?vid=9b30d6ea-c3e3-4a20-8f22-4393c6ffa288","ios":"levelo://app?vid=9b30d6ea-c3e3-4a20-8f22-4393c6ffa288"},"vehicle_type_id":"4","last_reported":1731344883,"current_range_meters":38800,"station_id":"ce4bha92rcd13ifvqeg0","pricing_plan_id":"cebpf4jnsgd1na2vs0mg"},{"bike_id":"566eab89-15f5-4d14-956b-e8eac078cde9","system_id":"levelo_inurba_marseille","lat":43.23963,"lon":5.36626,"is_reserved":false,"is_disabled":false,"rental_uris":{"android":"levelo://app?vid=566eab89-15f5-4d14-956b-e8eac078cde9","ios":"levelo://app?vid=566eab89-15f5-4d14-956b-e8eac078cde9"},"vehicle_type_id":"4","last_reported":1731344883,"current_range_meters":30400,"station_id":"ce4bhi12rcd13ifvqfp0","pricing_plan_id":"cebpf4jnsgd1na2vs0mg"},{"bike_id":"dc5ccc07-d5cb-49e9-a64d-01e75a191e8c","system_id":"levelo_inurba_marseille","lat":43.28856,"lon":5.39317,"is_reserved":false,"is_disabled":false,"rental_uris":{"android":"levelo://app?vid=dc5ccc07-d5cb-49e9-a64d-01e75a191e8c","ios":"levelo://app?vid=dc5ccc07-d5cb-49e9-a64d-01e75a191e8c"},"vehicle_type_id":"4","last_reported":1731344883,"current_range_meters":30400,"station_id":"ce4bh2p2rcd13ifvqdi0","pricing_plan_id":"cebpf4jnsgd1na2vs0mg"},{"bike_id":"5cd241d1-ee41-4a56-8772-871d86ae6160","system_id":"levelo_inurba_marseille","lat":43.30797,"lon":5.43533,"is_reserved":false,"is_disabled":false,"rental_uris":{"android":"levelo://app?vid=5cd241d1-ee41-4a56-8772-871d86ae6160","ios":"levelo://app?vid=5cd241d1-ee41-4a56-8772-871d86ae6160"},"vehicle_type_id":"4","last_reported":1731344883,"current_range_meters":28800,"station_id":"ce4bhph2rcd13ifvqheg","pricing_plan_id":"cebpf4jnsgd1na2vs0mg"},{"bike_id":"14eba35d-e9ab-4f53-ace3-9805296a4a6c","system_id":"levelo_inurba_marseille","lat":43.31316,"lon":5.39686,"is_reserved":false,"is_disabled":false,"rental_uris":{"android":"levelo://app?vid=14eba35d-e9ab-4f53-ace3-9805296a4a6c","ios":"levelo://app?vid=14eba35d-e9ab-4f53-ace3-9805296a4a6c"},"vehicle_type_id":"4","last_reported":1731344883,"current_range_meters":38800,"station_id":"ce4bgvp2rcd13ifvqcu0","pricing_plan_id":"cebpf4jnsgd1na2vs0mg"},{"bike_id":"071f4e99-dc45-49ec-94de-986e90240ed2","system_id":"levelo_inurba_marseille","lat":43.28406,"lon":5.37518,"is_reserved":false,"is_disabled":false,"rental_uris":{"android":"levelo://app?vid=071f4e99-dc45-49ec-94de-986e90240ed2","ios":"levelo://app?vid=071f4e99-dc45-49ec-94de-986e90240ed2"},"vehicle_type_id":"4","last_reported":1731344883,"current_range_meters":2800,"station_id":"ce4bh412rcd13ifvqds0","pricing_plan_id":"cebpf4jnsgd1na2vs0mg"},{"bike_id":"4bfc7cfc-a0a8-496b-932f-a2b1757ae91d","system_id":"levelo_inurba_marseille","lat":43.24454,"lon":5.37252,"is_reserved":false,"is_disabled":false,"rental_uris":{"android":"levelo://app?vid=4bfc7cfc-a0a8-496b-932f-a2b1757ae91d","ios":"levelo://app?vid=4bfc7cfc-a0a8-496b-932f-a2b1757ae91d"},"vehicle_type_id":"4","last_reported":1731344883,"current_range_meters":26800,"station_id":"","pricing_plan_id":"cebpf4jnsgd1na2vs0mg"},{"bike_id":"83fc1035-8d39-464e-9866-519b303f03f3","system_id":"levelo_inurba_marseille","lat":43.289795,"lon":5.365102,"is_reserved":false,"is_disabled":false,"rental_uris":{"android":"levelo://app?vid=83fc1035-8d39-464e-9866-519b303f03f3","ios":"levelo://app?vid=83fc1035-8d39-464e-9866-519b303f03f3"},"vehicle_type_id":"4","last_reported":1731344883,"current_range_meters":32800,"station_id":"ce4bhc92rcd13ifvqetg","pricing_plan_id":"cebpf4jnsgd1na2vs0mg"},{"bike_id":"036ed9a3-ecbd-42c2-8f66-aa5d9df3af7c","system_id":"levelo_inurba_marseille","lat":43.269365,"lon":5.402453,"is_reserved":false,"is_disabled":false,"rental_uris":{"android":"levelo://app?vid=036ed9a3-ecbd-42c2-8f66-aa5d9df3af7c","ios":"levelo://app?vid=036ed9a3-ecbd-42c2-8f66-aa5d9df3af7c"},"vehicle_type_id":"4","last_reported":1731344883,"current_range_meters":8000,"station_id":"cjm6bp8fraef2m0cb0m0","pricing_plan_id":"cebpf4jnsgd1na2vs0mg"},{"bike_id":"9cb0aabe-7353-40d3-a003-5b0bff90078e","system_id":"levelo_inurba_marseille","lat":43.25861,"lon":5.39894,"is_reserved":false,"is_disabled":false,"rental_uris":{"android":"levelo://app?vid=9cb0aabe-7353-40d3-a003-5b0bff90078e","ios":"levelo://app?vid=9cb0aabe-7353-40d3-a003-5b0bff90078e"},"vehicle_type_id":"4","last_reported":1731344883,"current_range_meters":14000,"station_id":"ce4bhl92rcd13ifvqghg","pricing_plan_id":"cebpf4jnsgd1na2vs0mg"},{"bike_id":"97c72c15-b2a4-44ec-9a14-8ec0a3148744","system_id":"levelo_inurba_marseille","lat":43.27495,"lon":5.42454,"is_reserved":false,"is_disabled":false,"rental_uris":{"android":"levelo://app?vid=97c72c15-b2a4-44ec-9a14-8ec0a3148744","ios":"levelo://app?vid=97c72c15-b2a4-44ec-9a14-8ec0a3148744"},"vehicle_type_id":"4","last_reported":1731344883,"current_range_meters":34000,"station_id":"ce4bhn92rcd13ifvqgrg","pricing_plan_id":"cebpf4jnsgd1na2vs0mg"},{"bike_id":"b67099d2-5e4e-4ca1-8dd7-676b3ef402f4","system_id":"levelo_inurba_marseille","lat":43.28345,"lon":5.38106,"is_reserved":false,"is_disabled":false,"rental_uris":{"android":"levelo://app?vid=b67099d2-5e4e-4ca1-8dd7-676b3ef402f4","ios":"levelo://app?vid=b67099d2-5e4e-4ca1-8dd7-676b3ef402f4"},"vehicle_type_id":"4","last_reported":1731344883,"current_range_meters":34000,"station_id":"ce4bh412rcd13ifvqdr0","pricing_plan_id":"cebpf4jnsgd1na2vs0mg"},{"bike_id":"a9aa792e-6634-4cad-a087-2d5fb2d9a9f3","system_id":"levelo_inurba_marseille","lat":43.23967,"lon":5.36635,"is_reserved":false,"is_disabled":false,"rental_uris":{"android":"levelo://app?vid=a9aa792e-6634-4cad-a087-2d5fb2d9a9f3","ios":"levelo://app?vid=a9aa792e-6634-4cad-a087-2d5fb2d9a9f3"},"vehicle_type_id":"4","last_reported":1731344883,"current_range_meters":30400,"station_id":"ce4bhi12rcd13ifvqfp0","pricing_plan_id":"cebpf4jnsgd1na2vs0mg"},{"bike_id":"5e9baf9d-6caf-43de-ae06-6b49af3fda77","system_id":"levelo_inurba_marseille","lat":43.25825,"lon":5.39435,"is_reserved":false,"is_disabled":false,"rental_uris":{"android":"levelo://app?vid=5e9baf9d-6caf-43de-ae06-6b49af3fda77","ios":"levelo://app?vid=5e9baf9d-6caf-43de-ae06-6b49af3fda77"},"vehicle_type_id":"4","last_reported":1731344883,"current_range_meters":4000,"station_id":"ce4bhip2rcd13ifvqft0","pricing_plan_id":"cebpf4jnsgd1na2vs0mg"},{"bike_id":"987d377f-58ad-411e-873a-8169d09e0aff","system_id":"levelo_inurba_marseille","lat":43.3092,"lon":5.40147,"is_reserved":false,"is_disabled":false,"rental_uris":{"android":"levelo://app?vid=987d377f-58ad-411e-873a-8169d09e0aff","ios":"levelo://app?vid=987d377f-58ad-411e-873a-8169d09e0aff"},"vehicle_type_id":"4","last_reported":1731344883,"current_range_meters":18800,"station_id":"ce4bgvp2rcd13ifvqct0","pricing_plan_id":"cebpf4jnsgd1na2vs0mg"},{"bike_id":"1a74646b-e9bb-41c5-9d07-e03fcea845d8","system_id":"levelo_inurba_marseille","lat":43.323367,"lon":5.406216,"is_reserved":false,"is_disabled":false,"rental_uris":{"android":"levelo://app?vid=1a74646b-e9bb-41c5-9d07-e03fcea845d8","ios":"levelo://app?vid=1a74646b-e9bb-41c5-9d07-e03fcea845d8"},"vehicle_type_id":"4","last_reported":1731344883,"current_range_meters":4400,"station_id":"ce4bhq92rcd13ifvqhjg","pricing_plan_id":"cebpf4jnsgd1na2vs0mg"},{"bike_id":"c054b2cb-fd24-443a-838f-aab3e45491a2","system_id":"levelo_inurba_marseille","lat":43.31221,"lon":5.3685,"is_reserved":false,"is_disabled":false,"rental_uris":{"android":"levelo://app?vid=c054b2cb-fd24-443a-838f-aab3e45491a2","ios":"levelo://app?vid=c054b2cb-fd24-443a-838f-aab3e45491a2"},"vehicle_type_id":"4","last_reported":1731344883,"current_range_meters":30400,"station_id":"ce4bgl92rcd13ifvqbq0","pricing_plan_id":"cebpf4jnsgd1na2vs0mg"},{"bike_id":"8dbbb84b-11e8-4543-b4a9-ed782f65dbe7","system_id":"levelo_inurba_marseille","lat":43.28724,"lon":5.36093,"is_reserved":false,"is_disabled":false,"rental_uris":{"android":"levelo://app?vid=8dbbb84b-11e8-4543-b4a9-ed782f65dbe7","ios":"levelo://app?vid=8dbbb84b-11e8-4543-b4a9-ed782f65dbe7"},"vehicle_type_id":"4","last_reported":1731344883,"current_range_meters":9200,"station_id":"cki0cbj6b192h4jlfktg","pricing_plan_id":"cebpf4jnsgd1na2vs0mg"},{"bike_id":"27e744b5-af59-42c4-8b48-f0ec7df80abb","system_id":"levelo_inurba_marseille","lat":43.32047,"lon":5.41525,"is_reserved":false,"is_disabled":false,"rental_uris":{"android":"levelo://app?vid=27e744b5-af59-42c4-8b48-f0ec7df80abb","ios":"levelo://app?vid=27e744b5-af59-42c4-8b48-f0ec7df80abb"},"vehicle_type_id":"4","last_reported":1731344883,"current_range_meters":28800,"station_id":"ce4bhq92rcd13ifvqhkg","pricing_plan_id":"cebpf4jnsgd1na2vs0mg"},{"bike_id":"59b08a36-4c60-4340-b6a9-0edb2c1dc5a9","system_id":"levelo_inurba_marseille","lat":43.28463,"lon":5.35881,"is_reserved":false,"is_disabled":false,"rental_uris":{"android":"levelo://app?vid=59b08a36-4c60-4340-b6a9-0edb2c1dc5a9","ios":"levelo://app?vid=59b08a36-4c60-4340-b6a9-0edb2c1dc5a9"},"vehicle_type_id":"4","last_reported":1731344883,"current_range_meters":32400,"station_id":"ce4bhah2rcd13ifvqei0","pricing_plan_id":"cebpf4jnsgd1na2vs0mg"},{"bike_id":"36d0473f-cd19-42eb-94dc-43ad8831db8e","system_id":"levelo_inurba_marseille","lat":43.28734,"lon":5.37936,"is_reserved":false,"is_disabled":false,"rental_uris":{"android":"levelo://app?vid=36d0473f-cd19-42eb-94dc-43ad8831db8e","ios":"levelo://app?vid=36d0473f-cd19-42eb-94dc-43ad8831db8e"},"vehicle_type_id":"4","last_reported":1731344883,"current_range_meters":2800,"station_id":"ce4bh9p2rcd13ifvqec0","pricing_plan_id":"cebpf4jnsgd1na2vs0mg"},{"bike_id":"7e3baf21-fdf0-4da8-b397-d81fa68f07d0","system_id":"levelo_inurba_marseille","lat":43.30582,"lon":5.39356,"is_reserved":false,"is_disabled":false,"rental_uris":{"android":"levelo://app?vid=7e3baf21-fdf0-4da8-b397-d81fa68f07d0","ios":"levelo://app?vid=7e3baf21-fdf0-4da8-b397-d81fa68f07d0"},"vehicle_type_id":"4","last_reported":1731344883,"current_range_meters":12400,"station_id":"ce4bh0p2rcd13ifvqd80","pricing_plan_id":"cebpf4jnsgd1na2vs0mg"},{"bike_id":"278f4e99-80cd-46dd-bfab-68c9c844ae91","system_id":"levelo_inurba_marseille","lat":43.23947,"lon":5.3664,"is_reserved":false,"is_disabled":false,"rental_uris":{"android":"levelo://app?vid=278f4e99-80cd-46dd-bfab-68c9c844ae91","ios":"levelo://app?vid=278f4e99-80cd-46dd-bfab-68c9c844ae91"},"vehicle_type_id":"4","last_reported":1731344883,"current_range_meters":8000,"station_id":"ce4bhi12rcd13ifvqfp0","pricing_plan_id":"cebpf4jnsgd1na2vs0mg"},{"bike_id":"1ee8051a-116c-4c4c-8f08-807d70e125ba","system_id":"levelo_inurba_marseille","lat":43.23191,"lon":5.35554,"is_reserved":false,"is_disabled":false,"rental_uris":{"android":"levelo://app?vid=1ee8051a-116c-4c4c-8f08-807d70e125ba","ios":"levelo://app?vid=1ee8051a-116c-4c4c-8f08-807d70e125ba"},"vehicle_type_id":"4","last_reported":1731344883,"current_range_meters":4000,"station_id":"ce4bh0p2rcd13ifvqd70","pricing_plan_id":"cebpf4jnsgd1na2vs0mg"},{"bike_id":"f1849913-0cff-42bd-98ed-687381ee9ea2","system_id":"levelo_inurba_marseille","lat":43.24933,"lon":5.37512,"is_reserved":false,"is_disabled":false,"rental_uris":{"android":"levelo://app?vid=f1849913-0cff-42bd-98ed-687381ee9ea2","ios":"levelo://app?vid=f1849913-0cff-42bd-98ed-687381ee9ea2"},"vehicle_type_id":"4","last_reported":1731344883,"current_range_meters":6800,"station_id":"","pricing_plan_id":"cebpf4jnsgd1na2vs0mg"},{"bike_id":"bff5887c-4f61-49ed-b8bf-60e13e435c79","system_id":"levelo_inurba_marseille","lat":43.26932,"lon":5.38921,"is_reserved":false,"is_disabled":false,"rental_uris":{"android":"levelo://app?vid=bff5887c-4f61-49ed-b8bf-60e13e435c79","ios":"levelo://app?vid=bff5887c-4f61-49ed-b8bf-60e13e435c79"},"vehicle_type_id":"4","last_reported":1731344883,"current_range_meters":30800,"station_id":"ce4bhhh2rcd13ifvqfl0","pricing_plan_id":"cebpf4jnsgd1na2vs0mg"},{"bike_id":"3cfe77f8-a621-4dbe-8962-4a773a2c1698","system_id":"levelo_inurba_marseille","lat":43.284576,"lon":5.358857,"is_reserved":false,"is_disabled":false,"rental_uris":{"android":"levelo://app?vid=3cfe77f8-a621-4dbe-8962-4a773a2c1698","ios":"levelo://app?vid=3cfe77f8-a621-4dbe-8962-4a773a2c1698"},"vehicle_type_id":"4","last_reported":1731344883,"current_range_meters":12000,"station_id":"ce4bhah2rcd13ifvqei0","pricing_plan_id":"cebpf4jnsgd1na2vs0mg"},{"bike_id":"7f6534b3-0eb6-47f0-9c03-7ea9c6b03d9a","system_id":"levelo_inurba_marseille","lat":43.30794,"lon":5.37661,"is_reserved":false,"is_disabled":false,"rental_uris":{"android":"levelo://app?vid=7f6534b3-0eb6-47f0-9c03-7ea9c6b03d9a","ios":"levelo://app?vid=7f6534b3-0eb6-47f0-9c03-7ea9c6b03d9a"},"vehicle_type_id":"4","last_reported":1731344883,"current_range_meters":4000,"station_id":"ce4bgv92rcd13ifvqcq0","pricing_plan_id":"cebpf4jnsgd1na2vs0mg"},{"bike_id":"18c29324-2995-4af3-90f1-c3be7d39794c","system_id":"levelo_inurba_marseille","lat":43.27076,"lon":5.42284,"is_reserved":false,"is_disabled":false,"rental_uris":{"android":"levelo://app?vid=18c29324-2995-4af3-90f1-c3be7d39794c","ios":"levelo://app?vid=18c29324-2995-4af3-90f1-c3be7d39794c"},"vehicle_type_id":"4","last_reported":1731344883,"current_range_meters":37600,"station_id":"ce4bhk92rcd13ifvqgb0","pricing_plan_id":"cebpf4jnsgd1na2vs0mg"},{"bike_id":"bc011e18-0df5-45b4-840b-bf2dc95c54d6","system_id":"levelo_inurba_marseille","lat":43.2837,"lon":5.3864,"is_reserved":false,"is_disabled":false,"rental_uris":{"android":"levelo://app?vid=bc011e18-0df5-45b4-840b-bf2dc95c54d6","ios":"levelo://app?vid=bc011e18-0df5-45b4-840b-bf2dc95c54d6"},"vehicle_type_id":"4","last_reported":1731344883,"current_range_meters":30000,"station_id":"ce4bh492rcd13ifvqdvg","pricing_plan_id":"cebpf4jnsgd1na2vs0mg"},{"bike_id":"e9922865-cc4c-4ef0-827b-75a902451e23","system_id":"levelo_inurba_marseille","lat":43.28661,"lon":5.36358,"is_reserved":false,"is_disabled":false,"rental_uris":{"android":"levelo://app?vid=e9922865-cc4c-4ef0-827b-75a902451e23","ios":"levelo://app?vid=e9922865-cc4c-4ef0-827b-75a902451e23"},"vehicle_type_id":"4","last_reported":1731344883,"current_range_meters":6800,"station_id":"ce4bhah2rcd13ifvqej0","pricing_plan_id":"cebpf4jnsgd1na2vs0mg"},{"bike_id":"2c01ecbf-7a23-4a6f-a907-323fbc321f28","system_id":"levelo_inurba_marseille","lat":43.29631,"lon":5.40597,"is_reserved":false,"is_disabled":false,"rental_uris":{"android":"levelo://app?vid=2c01ecbf-7a23-4a6f-a907-323fbc321f28","ios":"levelo://app?vid=2c01ecbf-7a23-4a6f-a907-323fbc321f28"},"vehicle_type_id":"4","last_reported":1731344883,"current_range_meters":7200,"station_id":"ce4bh0h2rcd13ifvqd60","pricing_plan_id":"cebpf4jnsgd1na2vs0mg"},{"bike_id":"54382cfb-d8ce-4648-bc86-fcee2a0748c1","system_id":"levelo_inurba_marseille","lat":43.29967,"lon":5.38497,"is_reserved":false,"is_disabled":false,"rental_uris":{"android":"levelo://app?vid=54382cfb-d8ce-4648-bc86-fcee2a0748c1","ios":"levelo://app?vid=54382cfb-d8ce-4648-bc86-fcee2a0748c1"},"vehicle_type_id":"4","last_reported":1731344883,"current_range_meters":38800,"station_id":"ce4bgj92rcd13ifvqbd0","pricing_plan_id":"cebpf4jnsgd1na2vs0mg"},{"bike_id":"7758a0a3-9435-4154-a294-1b935b285651","system_id":"levelo_inurba_marseille","lat":43.29281,"lon":5.40125,"is_reserved":false,"is_disabled":false,"rental_uris":{"android":"levelo://app?vid=7758a0a3-9435-4154-a294-1b935b285651","ios":"levelo://app?vid=7758a0a3-9435-4154-a294-1b935b285651"},"vehicle_type_id":"4","last_reported":1731344883,"current_range_meters":38800,"station_id":"ce4bh312rcd13ifvqdk0","pricing_plan_id":"cebpf4jnsgd1na2vs0mg"},{"bike_id":"6ec98681-2ccf-4cac-aaeb-7935bfaba7bb","system_id":"levelo_inurba_marseille","lat":43.26558,"lon":5.37286,"is_reserved":false,"is_disabled":false,"rental_uris":{"android":"levelo://app?vid=6ec98681-2ccf-4cac-aaeb-7935bfaba7bb","ios":"levelo://app?vid=6ec98681-2ccf-4cac-aaeb-7935bfaba7bb"},"vehicle_type_id":"4","last_reported":1731344883,"current_range_meters":8000,"station_id":"ce4bhg12rcd13ifvqf70","pricing_plan_id":"cebpf4jnsgd1na2vs0mg"},{"bike_id":"eba4cceb-a25f-4223-be1e-eb8ca0162675","system_id":"levelo_inurba_marseille","lat":43.29618,"lon":5.37709,"is_reserved":false,"is_disabled":false,"rental_uris":{"android":"levelo://app?vid=eba4cceb-a25f-4223-be1e-eb8ca0162675","ios":"levelo://app?vid=eba4cceb-a25f-4223-be1e-eb8ca0162675"},"vehicle_type_id":"4","last_reported":1731344883,"current_range_meters":3200,"station_id":"","pricing_plan_id":"cebpf4jnsgd1na2vs0mg"},{"bike_id":"77a063cb-c3f0-431f-a07a-242054bf0bf1","system_id":"levelo_inurba_marseille","lat":43.26028,"lon":5.37551,"is_reserved":false,"is_disabled":false,"rental_uris":{"android":"levelo://app?vid=77a063cb-c3f0-431f-a07a-242054bf0bf1","ios":"levelo://app?vid=77a063cb-c3f0-431f-a07a-242054bf0bf1"},"vehicle_type_id":"4","last_reported":1731344883,"current_range_meters":23200,"station_id":"ce4bhgh2rcd13ifvqfa0","pricing_plan_id":"cebpf4jnsgd1na2vs0mg"},{"bike_id":"0e937be9-12d1-4f65-8969-abaf9c5e6b13","system_id":"levelo_inurba_marseille","lat":43.29028,"lon":5.38652,"is_reserved":false,"is_disabled":false,"rental_uris":{"android":"levelo://app?vid=0e937be9-12d1-4f65-8969-abaf9c5e6b13","ios":"levelo://app?vid=0e937be9-12d1-4f65-8969-abaf9c5e6b13"},"vehicle_type_id":"4","last_reported":1731344883,"current_range_meters":38800,"station_id":"ce4bh4p2rcd13ifvqe0g","pricing_plan_id":"cebpf4jnsgd1na2vs0mg"},{"bike_id":"969db3bc-049c-43df-8b0c-34083dbc24f9","system_id":"levelo_inurba_marseille","lat":43.28034,"lon":5.36957,"is_reserved":false,"is_disabled":false,"rental_uris":{"android":"levelo://app?vid=969db3bc-049c-43df-8b0c-34083dbc24f9","ios":"levelo://app?vid=969db3bc-049c-43df-8b0c-34083dbc24f9"},"vehicle_type_id":"4","last_reported":1731344883,"current_range_meters":20000,"station_id":"ce4bha12rcd13ifvqef0","pricing_plan_id":"cebpf4jnsgd1na2vs0mg"},{"bike_id":"4ad5eccf-ec21-4062-bf31-8056a883fdfc","system_id":"levelo_inurba_marseille","lat":43.26821,"lon":5.41109,"is_reserved":false,"is_disabled":false,"rental_uris":{"android":"levelo://app?vid=4ad5eccf-ec21-4062-bf31-8056a883fdfc","ios":"levelo://app?vid=4ad5eccf-ec21-4062-bf31-8056a883fdfc"},"vehicle_type_id":"4","last_reported":1731344883,"current_range_meters":19600,"station_id":"","pricing_plan_id":"cebpf4jnsgd1na2vs0mg"},{"bike_id":"b0c62213-9da8-4c4f-aec2-59641ae8f5cf","system_id":"levelo_inurba_marseille","lat":43.269616,"lon":5.402954,"is_reserved":false,"is_disabled":false,"rental_uris":{"android":"levelo://app?vid=b0c62213-9da8-4c4f-aec2-59641ae8f5cf","ios":"levelo://app?vid=b0c62213-9da8-4c4f-aec2-59641ae8f5cf"},"vehicle_type_id":"4","last_reported":1731344883,"current_range_meters":1200,"station_id":"cjm6bp8fraef2m0cb0m0","pricing_plan_id":"cebpf4jnsgd1na2vs0mg"},{"bike_id":"de581d7c-3654-4217-ba30-cfffbba35f94","system_id":"levelo_inurba_marseille","lat":43.32337,"lon":5.40615,"is_reserved":false,"is_disabled":false,"rental_uris":{"android":"levelo://app?vid=de581d7c-3654-4217-ba30-cfffbba35f94","ios":"levelo://app?vid=de581d7c-3654-4217-ba30-cfffbba35f94"},"vehicle_type_id":"4","last_reported":1731344883,"current_range_meters":20000,"station_id":"ce4bhq92rcd13ifvqhjg","pricing_plan_id":"cebpf4jnsgd1na2vs0mg"},{"bike_id":"0d0dd40d-86ca-407d-96f6-14d3610216cb","system_id":"levelo_inurba_marseille","lat":43.31477,"lon":5.45047,"is_reserved":false,"is_disabled":false,"rental_uris":{"android":"levelo://app?vid=0d0dd40d-86ca-407d-96f6-14d3610216cb","ios":"levelo://app?vid=0d0dd40d-86ca-407d-96f6-14d3610216cb"},"vehicle_type_id":"4","last_reported":1731344883,"current_range_meters":24000,"station_id":"","pricing_plan_id":"cebpf4jnsgd1na2vs0mg"},{"bike_id":"a65ead2d-92bc-471d-b333-60ec7cfd0c13","system_id":"levelo_inurba_marseille","lat":43.31528,"lon":5.38033,"is_reserved":false,"is_disabled":false,"rental_uris":{"android":"levelo://app?vid=a65ead2d-92bc-471d-b333-60ec7cfd0c13","ios":"levelo://app?vid=a65ead2d-92bc-471d-b333-60ec7cfd0c13"},"vehicle_type_id":"4","last_reported":1731344883,"current_range_meters":36400,"station_id":"ce4bhsp2rcd13ifvqi50","pricing_plan_id":"cebpf4jnsgd1na2vs0mg"},{"bike_id":"aa3b073b-2baf-4c7b-816e-77d4ba2dc7c0","system_id":"levelo_inurba_marseille","lat":43.244385,"lon":5.366853,"is_reserved":false,"is_disabled":false,"rental_uris":{"android":"levelo://app?vid=aa3b073b-2baf-4c7b-816e-77d4ba2dc7c0","ios":"levelo://app?vid=aa3b073b-2baf-4c7b-816e-77d4ba2dc7c0"},"vehicle_type_id":"4","last_reported":1731344883,"current_range_meters":12400,"station_id":"ce4bhl92rcd13ifvqghg","pricing_plan_id":"cebpf4jnsgd1na2vs0mg"},{"bike_id":"b016746e-0018-40a0-bccb-a07381e31c18","system_id":"levelo_inurba_marseille","lat":43.25939,"lon":5.40887,"is_reserved":false,"is_disabled":false,"rental_uris":{"android":"levelo://app?vid=b016746e-0018-40a0-bccb-a07381e31c18","ios":"levelo://app?vid=b016746e-0018-40a0-bccb-a07381e31c18"},"vehicle_type_id":"4","last_reported":1731344883,"current_range_meters":9200,"station_id":"ce4bhm92rcd13ifvqglg","pricing_plan_id":"cebpf4jnsgd1na2vs0mg"},{"bike_id":"10b05a34-8983-44cc-bade-41711e70f3e6","system_id":"levelo_inurba_marseille","lat":43.23962,"lon":5.36629,"is_reserved":false,"is_disabled":false,"rental_uris":{"android":"levelo://app?vid=10b05a34-8983-44cc-bade-41711e70f3e6","ios":"levelo://app?vid=10b05a34-8983-44cc-bade-41711e70f3e6"},"vehicle_type_id":"4","last_reported":1731344883,"current_range_meters":14800,"station_id":"ce4bhi12rcd13ifvqfp0","pricing_plan_id":"cebpf4jnsgd1na2vs0mg"},{"bike_id":"475c5795-64f1-42ee-afcc-c704f15e9594","system_id":"levelo_inurba_marseille","lat":43.29909,"lon":5.38133,"is_reserved":false,"is_disabled":false,"rental_uris":{"android":"levelo://app?vid=475c5795-64f1-42ee-afcc-c704f15e9594","ios":"levelo://app?vid=475c5795-64f1-42ee-afcc-c704f15e9594"},"vehicle_type_id":"4","last_reported":1731344883,"current_range_meters":36800,"station_id":"ce4bgj12rcd13ifvqbc0","pricing_plan_id":"cebpf4jnsgd1na2vs0mg"},{"bike_id":"78addac4-121d-4291-b4d0-df9e97a2c99a","system_id":"levelo_inurba_marseille","lat":43.28928,"lon":5.36643,"is_reserved":false,"is_disabled":false,"rental_uris":{"android":"levelo://app?vid=78addac4-121d-4291-b4d0-df9e97a2c99a","ios":"levelo://app?vid=78addac4-121d-4291-b4d0-df9e97a2c99a"},"vehicle_type_id":"4","last_reported":1731344883,"current_range_meters":29600,"station_id":"ce4bhap2rcd13ifvqek0","pricing_plan_id":"cebpf4jnsgd1na2vs0mg"},{"bike_id":"edaa17a0-97e9-4a99-8882-b160cc575c7e","system_id":"levelo_inurba_marseille","lat":43.30355,"lon":5.41885,"is_reserved":false,"is_disabled":false,"rental_uris":{"android":"levelo://app?vid=edaa17a0-97e9-4a99-8882-b160cc575c7e","ios":"levelo://app?vid=edaa17a0-97e9-4a99-8882-b160cc575c7e"},"vehicle_type_id":"4","last_reported":1731344883,"current_range_meters":14000,"station_id":"ce4bhop2rcd13ifvqh7g","pricing_plan_id":"cebpf4jnsgd1na2vs0mg"},{"bike_id":"e6bf3e00-929d-41f1-8eef-83ff4f45f41c","system_id":"levelo_inurba_marseille","lat":43.27492,"lon":5.42452,"is_reserved":false,"is_disabled":false,"rental_uris":{"android":"levelo://app?vid=e6bf3e00-929d-41f1-8eef-83ff4f45f41c","ios":"levelo://app?vid=e6bf3e00-929d-41f1-8eef-83ff4f45f41c"},"vehicle_type_id":"4","last_reported":1731344883,"current_range_meters":36800,"station_id":"ce4bhn92rcd13ifvqgrg","pricing_plan_id":"cebpf4jnsgd1na2vs0mg"},{"bike_id":"2c0151ba-0ae8-44b4-8cb2-8fe7761fee43","system_id":"levelo_inurba_marseille","lat":43.31759,"lon":5.39002,"is_reserved":false,"is_disabled":false,"rental_uris":{"android":"levelo://app?vid=2c0151ba-0ae8-44b4-8cb2-8fe7761fee43","ios":"levelo://app?vid=2c0151ba-0ae8-44b4-8cb2-8fe7761fee43"},"vehicle_type_id":"4","last_reported":1731344883,"current_range_meters":10800,"station_id":"ce4bhqp2rcd13ifvqhng","pricing_plan_id":"cebpf4jnsgd1na2vs0mg"},{"bike_id":"e1e03f96-1b6e-4df0-83b0-b0a9a53810e2","system_id":"levelo_inurba_marseille","lat":43.29626,"lon":5.40594,"is_reserved":false,"is_disabled":false,"rental_uris":{"android":"levelo://app?vid=e1e03f96-1b6e-4df0-83b0-b0a9a53810e2","ios":"levelo://app?vid=e1e03f96-1b6e-4df0-83b0-b0a9a53810e2"},"vehicle_type_id":"4","last_reported":1731344883,"current_range_meters":34800,"station_id":"ce4bhph2rcd13ifvqhdg","pricing_plan_id":"cebpf4jnsgd1na2vs0mg"},{"bike_id":"64d7a834-6be0-4f1c-96d1-a45ed94437a0","system_id":"levelo_inurba_marseille","lat":43.2928,"lon":5.40116,"is_reserved":false,"is_disabled":false,"rental_uris":{"android":"levelo://app?vid=64d7a834-6be0-4f1c-96d1-a45ed94437a0","ios":"levelo://app?vid=64d7a834-6be0-4f1c-96d1-a45ed94437a0"},"vehicle_type_id":"4","last_reported":1731344883,"current_range_meters":28800,"station_id":"ce4bh312rcd13ifvqdk0","pricing_plan_id":"cebpf4jnsgd1na2vs0mg"},{"bike_id":"c874f3e8-86bd-46b9-a083-ef9245ea2386","system_id":"levelo_inurba_marseille","lat":43.290325,"lon":5.399581,"is_reserved":false,"is_disabled":false,"rental_uris":{"android":"levelo://app?vid=c874f3e8-86bd-46b9-a083-ef9245ea2386","ios":"levelo://app?vid=c874f3e8-86bd-46b9-a083-ef9245ea2386"},