{"last_updated":1747318253,"ttl":60,"version":"2.2","data":{"bikes":[{"bike_id":"c0b9fd4f-e181-46ce-b0bf-f5119973334f","system_id":"levelo_inurba_marseille","lat":43.33771,"lon":5.37424,"is_reserved":false,"is_disabled":false,"rental_uris":{"android":"levelo://app?vid=c0b9fd4f-e181-46ce-b0bf-f5119973334f","ios":"levelo://app?vid=c0b9fd4f-e181-46ce-b0bf-f5119973334f"},"vehicle_type_id":"4","last_reported":1747318253,"current_range_meters":14400,"station_id":"","pricing_plan_id":"cebpf4jnsgd1na2vs0mg"},{"bike_id":"420a6fa3-149c-40da-9e81-5de9e6e642d5","system_id":"levelo_inurba_marseille","lat":43.28864,"lon":5.35845,"is_reserved":false,"is_disabled":true,"rental_uris":{"android":"levelo://app?vid=420a6fa3-149c-40da-9e81-5de9e6e642d5","ios":"levelo://app?vid=420a6fa3-149c-40da-9e81-5de9e6e642d5"},"vehicle_type_id":"4","last_reported":1747318253,"current_range_meters":0,"station_id":"","pricing_plan_id":"cebpf4jnsgd1na2vs0mg"},{"bike_id":"fc2577e7-1497-425b-9d4f-ab8d7dc843c6","system_id":"levelo_inurba_marseille","lat":43.33771,"lon":5.37485,"is_reserved":false,"is_disabled":true,"rental_uris":{"android":"levelo://app?vid=fc2577e7-1497-425b-9d4f-ab8d7dc843c6","ios":"levelo://app?vid=fc2577e7-1497-425b-9d4f-ab8d7dc843c6"},"vehicle_type_id":"4","last_reported":1747318253,"current_range_meters":0,"station_id":"","pricing_plan_id":"cebpf4jnsgd1na2vs0mg"},{"bike_id":"893cee9f-22ed-4823-82b3-4da288b81784","system_id":"levelo_inurba_marseille","lat":43.3181,"lon":5.36928,"is_reserved":false,"is_disabled":true,"rental_uris":{"android":"levelo://app?vid=893cee9f-22ed-4823-82b3-4da288b81784","ios":"levelo://app?vid=893cee9f-22ed-4823-82b3-4da288b81784"},"vehicle_type_id":"4","last_reported":1747318253,"current_range_meters":0,"station_id":"","pricing_plan_id":"cebpf4jnsgd1na2vs0mg"},{"bike_id":"0b9aeeb7-6371-4d0d-8ffa-abe03cb9d032","system_id":"levelo_inurba_marseille","lat":43.30658,"lon":5.40101,"is_reserved":false,"is_disabled":true,"rental_uris":{"android":"levelo://app?vid=0b9aeeb7-6371-4d0d-8ffa-abe03cb9d032","ios":"levelo://app?vid=0b9aeeb7-6371-4d0d-8ffa-abe03cb9d032"},"vehicle_type_id":"4","last_reported":1747318253,"current_range_meters":0,"station_id":"","pricing_plan_id":"cebpf4jnsgd1na2vs0mg"},{"bike_id":"792567c6-0442-4011-aff0-9c05e25deb48","system_id":"levelo_inurba_marseille","lat":43.337444,"lon":5.374475,"is_reserved":false,"is_disabled":true,"rental_uris":{"android":"levelo://app?vid=792567c6-0442-4011-aff0-9c05e25deb48","ios":"levelo://app?vid=792567c6-0442-4011-aff0-9c05e25deb48"},"vehicle_type_id":"4","last_reported":1747318253,"current_range_meters":0,"station_id":"","pricing_plan_id":"cebpf4jnsgd1na2vs0mg"},{"bike_id":"847386ad-b411-4d74-b6e6-947ddd73447d","system_id":"levelo_inurba_marseille","lat":43.29975,"lon":5.38508,"is_reserved":false,"is_disabled":true,"rental_uris":{"android":"levelo://app?vid=847386ad-b411-4d74-b6e6-947ddd73447d","ios":"levelo://app?vid=847386ad-b411-4d74-b6e6-947ddd73447d"},"vehicle_type_id":"4","last_reported":1747318253,"current_range_meters":0,"station_id":"ce4bgj92rcd13ifvqbd0","pricing_plan_id":"cebpf4jnsgd1na2vs0mg"},{"bike_id":"1dc205f5-d3d2-4df5-b3c8-086fba4c0035","system_id":"levelo_inurba_marseille","lat":43.29926,"lon":5.37459,"is_reserved":false,"is_disabled":true,"rental_uris":{"android":"levelo://app?vid=1dc205f5-d3d2-4df5-b3c8-086fba4c0035","ios":"levelo://app?vid=1dc205f5-d3d2-4df5-b3c8-086fba4c0035"},"vehicle_type_id":"4","last_reported":1747318253,"current_range_meters":0,"station_id":"ce4bgjh2rcd13ifvqbg0","pricing_plan_id":"cebpf4jnsgd1na2vs0mg"},{"bike_id":"10ba8826-347d-4e87-9cf1-f271b5a09608","system_id":"levelo_inurba_marseille","lat":43.30893,"lon":5.3963,"is_reserved":false,"is_disabled":true,"rental_uris":{"android":"levelo://app?vid=10ba8826-347d-4e87-9cf1-f271b5a09608","ios":"levelo://app?vid=10ba8826-347d-4e87-9cf1-f271b5a09608"},"vehicle_type_id":"4","last_reported":1747318253,"current_range_meters":0,"station_id":"ce4bh012rcd13ifvqcv0","pricing_plan_id":"cebpf4jnsgd1na2vs0mg"},{"bike_id":"000c515a-085d-4464-903a-2969efc42604","system_id":"levelo_inurba_marseille","lat":43.31685,"lon":5.40478,"is_reserved":false,"is_disabled":true,"rental_uris":{"android":"levelo://app?vid=000c515a-085d-4464-903a-2969efc42604","ios":"levelo://app?vid=000c515a-085d-4464-903a-2969efc42604"},"vehicle_type_id":"4","last_reported":1747318253,"current_range_meters":0,"station_id":"ce4bh012rcd13ifvqd00","pricing_plan_id":"cebpf4jnsgd1na2vs0mg"},{"bike_id":"111ebbdb-72a9-4e4d-bc22-f68f42b99ba3","system_id":"levelo_inurba_marseille","lat":43.2837,"lon":5.38618,"is_reserved":false,"is_disabled":true,"rental_uris":{"android":"levelo://app?vid=111ebbdb-72a9-4e4d-bc22-f68f42b99ba3","ios":"levelo://app?vid=111ebbdb-72a9-4e4d-bc22-f68f42b99ba3"},"vehicle_type_id":"4","last_reported":1747318253,"current_range_meters":0,"station_id":"ce4bh492rcd13ifvqdvg","pricing_plan_id":"cebpf4jnsgd1na2vs0mg"},{"bike_id":"386860ab-488e-4111-86b1-32d251c6e7e6","system_id":"levelo_inurba_marseille","lat":43.28356,"lon":5.38639,"is_reserved":false,"is_disabled":true,"rental_uris":{"android":"levelo://app?vid=386860ab-488e-4111-86b1-32d251c6e7e6","ios":"levelo://app?vid=386860ab-488e-4111-86b1-32d251c6e7e6"},"vehicle_type_id":"4","last_reported":1747318253,"current_range_meters":0,"station_id":"ce4bh492rcd13ifvqdvg","pricing_plan_id":"cebpf4jnsgd1na2vs0mg"},{"bike_id":"397ba072-9961-4770-a30f-b221d8cf030f","system_id":"levelo_inurba_marseille","lat":43.28484,"lon":5.38417,"is_reserved":false,"is_disabled":true,"rental_uris":{"android":"levelo://app?vid=397ba072-9961-4770-a30f-b221d8cf030f","ios":"levelo://app?vid=397ba072-9961-4770-a30f-b221d8cf030f"},"vehicle_type_id":"4","last_reported":1747318253,"current_range_meters":0,"station_id":"ce4bh512rcd13ifvqe3g","pricing_plan_id":"cebpf4jnsgd1na2vs0mg"},{"bike_id":"3eb20a2d-9347-45c0-81a7-6053f604c8a6","system_id":"levelo_inurba_marseille","lat":43.29029,"lon":5.37567,"is_reserved":false,"is_disabled":true,"rental_uris":{"android":"levelo://app?vid=3eb20a2d-9347-45c0-81a7-6053f604c8a6","ios":"levelo://app?vid=3eb20a2d-9347-45c0-81a7-6053f604c8a6"},"vehicle_type_id":"4","last_reported":1747318253,"current_range_meters":0,"station_id":"ce4bh692rcd13ifvqe90","pricing_plan_id":"cebpf4jnsgd1na2vs0mg"},{"bike_id":"7e0a2236-796e-4a23-9ea9-b46ca77843ef","system_id":"levelo_inurba_marseille","lat":43.27366,"lon":5.36247,"is_reserved":false,"is_disabled":true,"rental_uris":{"android":"levelo://app?vid=7e0a2236-796e-4a23-9ea9-b46ca77843ef","ios":"levelo://app?vid=7e0a2236-796e-4a23-9ea9-b46ca77843ef"},"vehicle_type_id":"4","last_reported":1747318253,"current_range_meters":0,"station_id":"ce4bhbh2rcd13ifvqeo0","pricing_plan_id":"cebpf4jnsgd1na2vs0mg"},{"bike_id":"825537ac-c238-4444-9611-e8b424492c9f","system_id":"levelo_inurba_marseille","lat":43.27374,"lon":5.36256,"is_reserved":false,"is_disabled":true,"rental_uris":{"android":"levelo://app?vid=825537ac-c238-4444-9611-e8b424492c9f","ios":"levelo://app?vid=825537ac-c238-4444-9611-e8b424492c9f"},"vehicle_type_id":"4","last_reported":1747318253,"current_range_meters":0,"station_id":"ce4bhbh2rcd13ifvqeo0","pricing_plan_id":"cebpf4jnsgd1na2vs0mg"},{"bike_id":"70b98290-9fc5-416b-88c8-8f702cc9732c","system_id":"levelo_inurba_marseille","lat":43.26215,"lon":5.37426,"is_reserved":false,"is_disabled":true,"rental_uris":{"android":"levelo://app?vid=70b98290-9fc5-416b-88c8-8f702cc9732c","ios":"levelo://app?vid=70b98290-9fc5-416b-88c8-8f702cc9732c"},"vehicle_type_id":"4","last_reported":1747318253,"current_range_meters":0,"station_id":"ce4bhgp2rcd13ifvqfc0","pricing_plan_id":"cebpf4jnsgd1na2vs0mg"},{"bike_id":"436be758-a0a6-43f0-b632-8c07baca098e","system_id":"levelo_inurba_marseille","lat":43.25725,"lon":5.41111,"is_reserved":false,"is_disabled":true,"rental_uris":{"android":"levelo://app?vid=436be758-a0a6-43f0-b632-8c07baca098e","ios":"levelo://app?vid=436be758-a0a6-43f0-b632-8c07baca098e"},"vehicle_type_id":"4","last_reported":1747318253,"current_range_meters":0,"station_id":"ce4bhkp2rcd13ifvqgd0","pricing_plan_id":"cebpf4jnsgd1na2vs0mg"},{"bike_id":"2b8fbf5f-4106-421b-bd48-29543ccb14db","system_id":"levelo_inurba_marseille","lat":43.23675,"lon":5.36312,"is_reserved":false,"is_disabled":true,"rental_uris":{"android":"levelo://app?vid=2b8fbf5f-4106-421b-bd48-29543ccb14db","ios":"levelo://app?vid=2b8fbf5f-4106-421b-bd48-29543ccb14db"},"vehicle_type_id":"4","last_reported":1747318253,"current_range_meters":400,"station_id":"","pricing_plan_id":"cebpf4jnsgd1na2vs0mg"},{"bike_id":"ec06551e-f979-40d5-ad81-8debc7a554e2","system_id":"levelo_inurba_marseille","lat":43.3117,"lon":5.38723,"is_reserved":false,"is_disabled":true,"rental_uris":{"android":"levelo://app?vid=ec06551e-f979-40d5-ad81-8debc7a554e2","ios":"levelo://app?vid=ec06551e-f979-40d5-ad81-8debc7a554e2"},"vehicle_type_id":"4","last_reported":1747318253,"current_range_meters":400,"station_id":"ce4bgv12rcd13ifvqcp0","pricing_plan_id":"cebpf4jnsgd1na2vs0mg"},{"bike_id":"9b5f30df-451d-4eca-9d31-4159eab3b301","system_id":"levelo_inurba_marseille","lat":43.282555,"lon":5.350763,"is_reserved":false,"is_disabled":true,"rental_uris":{"android":"levelo://app?vid=9b5f30df-451d-4eca-9d31-4159eab3b301","ios":"levelo://app?vid=9b5f30df-451d-4eca-9d31-4159eab3b301"},"vehicle_type_id":"4","last_reported":1747318253,"current_range_meters":400,"station_id":"ce4bhbp2rcd13ifvqerg","pricing_plan_id":"cebpf4jnsgd1na2vs0mg"},{"bike_id":"0014d222-f306-4754-9375-57d60ecd3885","system_id":"levelo_inurba_marseille","lat":43.26489,"lon":5.39549,"is_reserved":false,"is_disabled":true,"rental_uris":{"android":"levelo://app?vid=0014d222-f306-4754-9375-57d60ecd3885","ios":"levelo://app?vid=0014d222-f306-4754-9375-57d60ecd3885"},"vehicle_type_id":"4","last_reported":1747318253,"current_range_meters":400,"station_id":"ce4bhi12rcd13ifvqfq0","pricing_plan_id":"cebpf4jnsgd1na2vs0mg"},{"bike_id":"9314dddf-072c-4cc0-8876-ed2b90349374","system_id":"levelo_inurba_marseille","lat":43.32536,"lon":5.41472,"is_reserved":false,"is_disabled":true,"rental_uris":{"android":"levelo://app?vid=9314dddf-072c-4cc0-8876-ed2b90349374","ios":"levelo://app?vid=9314dddf-072c-4cc0-8876-ed2b90349374"},"vehicle_type_id":"4","last_reported":1747318253,"current_range_meters":400,"station_id":"ce4bhq12rcd13ifvqhhg","pricing_plan_id":"cebpf4jnsgd1na2vs0mg"},{"bike_id":"b142481e-c6f7-4503-a1e9-d09796e7c5d9","system_id":"levelo_inurba_marseille","lat":43.28464,"lon":5.35891,"is_reserved":false,"is_disabled":true,"rental_uris":{"android":"levelo://app?vid=b142481e-c6f7-4503-a1e9-d09796e7c5d9","ios":"levelo://app?vid=b142481e-c6f7-4503-a1e9-d09796e7c5d9"},"vehicle_type_id":"4","last_reported":1747318253,"current_range_meters":800,"station_id":"ce4bhah2rcd13ifvqei0","pricing_plan_id":"cebpf4jnsgd1na2vs0mg"},{"bike_id":"ce4325af-2448-4172-bdec-81d552ee0b62","system_id":"levelo_inurba_marseille","lat":43.26149,"lon":5.42036,"is_reserved":false,"is_disabled":true,"rental_uris":{"android":"levelo://app?vid=ce4325af-2448-4172-bdec-81d552ee0b62","ios":"levelo://app?vid=ce4325af-2448-4172-bdec-81d552ee0b62"},"vehicle_type_id":"4","last_reported":1747318253,"current_range_meters":1200,"station_id":"","pricing_plan_id":"cebpf4jnsgd1na2vs0mg"},{"bike_id":"01f5ed81-feb7-4e04-95a7-0a2ac68dd9b3","system_id":"levelo_inurba_marseille","lat":43.30598,"lon":5.39358,"is_reserved":false,"is_disabled":true,"rental_uris":{"android":"levelo://app?vid=01f5ed81-feb7-4e04-95a7-0a2ac68dd9b3","ios":"levelo://app?vid=01f5ed81-feb7-4e04-95a7-0a2ac68dd9b3"},"vehicle_type_id":"4","last_reported":1747318253,"current_range_meters":1200,"station_id":"ce4bh0p2rcd13ifvqd80","pricing_plan_id":"cebpf4jnsgd1na2vs0mg"},{"bike_id":"58c9508e-fbea-4370-8caa-9920ddf3cefe","system_id":"levelo_inurba_marseille","lat":43.29199,"lon":5.35795,"is_reserved":false,"is_disabled":true,"rental_uris":{"android":"levelo://app?vid=58c9508e-fbea-4370-8caa-9920ddf3cefe","ios":"levelo://app?vid=58c9508e-fbea-4370-8caa-9920ddf3cefe"},"vehicle_type_id":"4","last_reported":1747318253,"current_range_meters":1200,"station_id":"ce4bhb12rcd13ifvqel0","pricing_plan_id":"cebpf4jnsgd1na2vs0mg"},{"bike_id":"2f8964a3-1523-4847-9169-a9a42a8b1b05","system_id":"levelo_inurba_marseille","lat":43.28418,"lon":5.34977,"is_reserved":false,"is_disabled":true,"rental_uris":{"android":"levelo://app?vid=2f8964a3-1523-4847-9169-a9a42a8b1b05","ios":"levelo://app?vid=2f8964a3-1523-4847-9169-a9a42a8b1b05"},"vehicle_type_id":"4","last_reported":1747318253,"current_range_meters":1200,"station_id":"ce4bhbh2rcd13ifvqepg","pricing_plan_id":"cebpf4jnsgd1na2vs0mg"},{"bike_id":"0c0446db-3161-4125-b21e-c9dca911830c","system_id":"levelo_inurba_marseille","lat":43.255,"lon":5.37657,"is_reserved":false,"is_disabled":true,"rental_uris":{"android":"levelo://app?vid=0c0446db-3161-4125-b21e-c9dca911830c","ios":"levelo://app?vid=0c0446db-3161-4125-b21e-c9dca911830c"},"vehicle_type_id":"4","last_reported":1747318253,"current_range_meters":1200,"station_id":"ce4bhh12rcd13ifvqff0","pricing_plan_id":"cebpf4jnsgd1na2vs0mg"},{"bike_id":"72c54091-5f27-454d-ae12-d600f4f9c9a3","system_id":"levelo_inurba_marseille","lat":43.23197,"lon":5.35553,"is_reserved":false,"is_disabled":true,"rental_uris":{"android":"levelo://app?vid=72c54091-5f27-454d-ae12-d600f4f9c9a3","ios":"levelo://app?vid=72c54091-5f27-454d-ae12-d600f4f9c9a3"},"vehicle_type_id":"4","last_reported":1747318253,"current_range_meters":1200,"station_id":"ce4bhu92rcd13ifvqi70","pricing_plan_id":"cebpf4jnsgd1na2vs0mg"},{"bike_id":"50f0eb23-5b0e-487e-8419-b1da69e5d44e","system_id":"levelo_inurba_marseille","lat":43.28613,"lon":5.38158,"is_reserved":false,"is_disabled":true,"rental_uris":{"android":"levelo://app?vid=50f0eb23-5b0e-487e-8419-b1da69e5d44e","ios":"levelo://app?vid=50f0eb23-5b0e-487e-8419-b1da69e5d44e"},"vehicle_type_id":"4","last_reported":1747318253,"current_range_meters":1600,"station_id":"","pricing_plan_id":"cebpf4jnsgd1na2vs0mg"},{"bike_id":"0ca4cac7-6226-4c82-8def-1b2730c3c6f1","system_id":"levelo_inurba_marseille","lat":43.29614,"lon":5.37742,"is_reserved":false,"is_disabled":true,"rental_uris":{"android":"levelo://app?vid=0ca4cac7-6226-4c82-8def-1b2730c3c6f1","ios":"levelo://app?vid=0ca4cac7-6226-4c82-8def-1b2730c3c6f1"},"vehicle_type_id":"4","last_reported":1747318253,"current_range_meters":1600,"station_id":"ce4bgi92rcd13ifvqb90","pricing_plan_id":"cebpf4jnsgd1na2vs0mg"},{"bike_id":"6faeaca7-5b94-4177-8417-7214601c161a","system_id":"levelo_inurba_marseille","lat":43.30801,"lon":5.38152,"is_reserved":false,"is_disabled":true,"rental_uris":{"android":"levelo://app?vid=6faeaca7-5b94-4177-8417-7214601c161a","ios":"levelo://app?vid=6faeaca7-5b94-4177-8417-7214601c161a"},"vehicle_type_id":"4","last_reported":1747318253,"current_range_meters":1600,"station_id":"ce4bgt12rcd13ifvqce0","pricing_plan_id":"cebpf4jnsgd1na2vs0mg"},{"bike_id":"bb7271be-8fd3-45b5-b2fa-a40f51edc665","system_id":"levelo_inurba_marseille","lat":43.25507,"lon":5.37651,"is_reserved":false,"is_disabled":true,"rental_uris":{"android":"levelo://app?vid=bb7271be-8fd3-45b5-b2fa-a40f51edc665","ios":"levelo://app?vid=bb7271be-8fd3-45b5-b2fa-a40f51edc665"},"vehicle_type_id":"4","last_reported":1747318253,"current_range_meters":1600,"station_id":"ce4bhh12rcd13ifvqff0","pricing_plan_id":"cebpf4jnsgd1na2vs0mg"},{"bike_id":"f25419af-79fa-43b0-af4a-a0738706a661","system_id":"levelo_inurba_marseille","lat":43.28085,"lon":5.3967,"is_reserved":false,"is_disabled":true,"rental_uris":{"android":"levelo://app?vid=f25419af-79fa-43b0-af4a-a0738706a661","ios":"levelo://app?vid=f25419af-79fa-43b0-af4a-a0738706a661"},"vehicle_type_id":"4","last_reported":1747318253,"current_range_meters":1600,"station_id":"ce4bho12rcd13ifvqh2g","pricing_plan_id":"cebpf4jnsgd1na2vs0mg"},{"bike_id":"7da1e935-18ca-4628-a06b-757c91eac086","system_id":"levelo_inurba_marseille","lat":43.29624,"lon":5.377115,"is_reserved":false,"is_disabled":true,"rental_uris":{"android":"levelo://app?vid=7da1e935-18ca-4628-a06b-757c91eac086","ios":"levelo://app?vid=7da1e935-18ca-4628-a06b-757c91eac086"},"vehicle_type_id":"4","last_reported":1747318253,"current_range_meters":2000,"station_id":"ce4bgi92rcd13ifvqb90","pricing_plan_id":"cebpf4jnsgd1na2vs0mg"},{"bike_id":"d805c266-e964-4fbd-aa05-19511acd6f8b","system_id":"levelo_inurba_marseille","lat":43.31235,"lon":5.36868,"is_reserved":false,"is_disabled":true,"rental_uris":{"android":"levelo://app?vid=d805c266-e964-4fbd-aa05-19511acd6f8b","ios":"levelo://app?vid=d805c266-e964-4fbd-aa05-19511acd6f8b"},"vehicle_type_id":"4","last_reported":1747318253,"current_range_meters":2000,"station_id":"ce4bgl92rcd13ifvqbq0","pricing_plan_id":"cebpf4jnsgd1na2vs0mg"},{"bike_id":"2be3972a-3185-4ae6-81cb-9a75ce85d210","system_id":"levelo_inurba_marseille","lat":43.29515,"lon":5.39409,"is_reserved":false,"is_disabled":true,"rental_uris":{"android":"levelo://app?vid=2be3972a-3185-4ae6-81cb-9a75ce85d210","ios":"levelo://app?vid=2be3972a-3185-4ae6-81cb-9a75ce85d210"},"vehicle_type_id":"4","last_reported":1747318253,"current_range_meters":2000,"station_id":"ce4bh292rcd13ifvqdf0","pricing_plan_id":"cebpf4jnsgd1na2vs0mg"},{"bike_id":"78b14751-9d49-44b9-8287-e3f70fb43e60","system_id":"levelo_inurba_marseille","lat":43.28263,"lon":5.35065,"is_reserved":false,"is_disabled":true,"rental_uris":{"android":"levelo://app?vid=78b14751-9d49-44b9-8287-e3f70fb43e60","ios":"levelo://app?vid=78b14751-9d49-44b9-8287-e3f70fb43e60"},"vehicle_type_id":"4","last_reported":1747318253,"current_range_meters":2000,"station_id":"ce4bhbp2rcd13ifvqerg","pricing_plan_id":"cebpf4jnsgd1na2vs0mg"},{"bike_id":"0e538899-6a68-424d-af9f-9d5280fa7921","system_id":"levelo_inurba_marseille","lat":43.28616,"lon":5.351,"is_reserved":false,"is_disabled":true,"rental_uris":{"android":"levelo://app?vid=0e538899-6a68-424d-af9f-9d5280fa7921","ios":"levelo://app?vid=0e538899-6a68-424d-af9f-9d5280fa7921"},"vehicle_type_id":"4","last_reported":1747318253,"current_range_meters":2000,"station_id":"ce4bhch2rcd13ifvqeug","pricing_plan_id":"cebpf4jnsgd1na2vs0mg"},{"bike_id":"4d15a933-d6ca-46c7-8a83-0229aab7183a","system_id":"levelo_inurba_marseille","lat":43.27175,"lon":5.40994,"is_reserved":false,"is_disabled":true,"rental_uris":{"android":"levelo://app?vid=4d15a933-d6ca-46c7-8a83-0229aab7183a","ios":"levelo://app?vid=4d15a933-d6ca-46c7-8a83-0229aab7183a"},"vehicle_type_id":"4","last_reported":1747318253,"current_range_meters":2000,"station_id":"ce4bhl12rcd13ifvqgf0","pricing_plan_id":"cebpf4jnsgd1na2vs0mg"},{"bike_id":"9804531e-06a8-4a3a-abda-a6ad1062d5d3","system_id":"levelo_inurba_marseille","lat":43.30795,"lon":5.38155,"is_reserved":false,"is_disabled":false,"rental_uris":{"android":"levelo://app?vid=9804531e-06a8-4a3a-abda-a6ad1062d5d3","ios":"levelo://app?vid=9804531e-06a8-4a3a-abda-a6ad1062d5d3"},"vehicle_type_id":"4","last_reported":1747318253,"current_range_meters":2800,"station_id":"ce4bgt12rcd13ifvqce0","pricing_plan_id":"cebpf4jnsgd1na2vs0mg"},{"bike_id":"90477825-ffb2-4978-859d-dd7669b366b6","system_id":"levelo_inurba_marseille","lat":43.30871,"lon":5.39648,"is_reserved":false,"is_disabled":false,"rental_uris":{"android":"levelo://app?vid=90477825-ffb2-4978-859d-dd7669b366b6","ios":"levelo://app?vid=90477825-ffb2-4978-859d-dd7669b366b6"},"vehicle_type_id":"4","last_reported":1747318253,"current_range_meters":2800,"station_id":"ce4bh012rcd13ifvqcv0","pricing_plan_id":"cebpf4jnsgd1na2vs0mg"},{"bike_id":"f4a79954-4711-44fb-9093-e69432c7478f","system_id":"levelo_inurba_marseille","lat":43.29284,"lon":5.40117,"is_reserved":false,"is_disabled":false,"rental_uris":{"android":"levelo://app?vid=f4a79954-4711-44fb-9093-e69432c7478f","ios":"levelo://app?vid=f4a79954-4711-44fb-9093-e69432c7478f"},"vehicle_type_id":"4","last_reported":1747318253,"current_range_meters":2800,"station_id":"ce4bh312rcd13ifvqdk0","pricing_plan_id":"cebpf4jnsgd1na2vs0mg"},{"bike_id":"5eed5424-7070-41a7-824c-5e4945e39e83","system_id":"levelo_inurba_marseille","lat":43.30148,"lon":5.38061,"is_reserved":false,"is_disabled":false,"rental_uris":{"android":"levelo://app?vid=5eed5424-7070-41a7-824c-5e4945e39e83","ios":"levelo://app?vid=5eed5424-7070-41a7-824c-5e4945e39e83"},"vehicle_type_id":"4","last_reported":1747318253,"current_range_meters":3200,"station_id":"ce4bgjp2rcd13ifvqbh0","pricing_plan_id":"cebpf4jnsgd1na2vs0mg"},{"bike_id":"663224a8-fba3-44bc-b5e4-fd9782258b8d","system_id":"levelo_inurba_marseille","lat":43.29533,"lon":5.39392,"is_reserved":false,"is_disabled":false,"rental_uris":{"android":"levelo://app?vid=663224a8-fba3-44bc-b5e4-fd9782258b8d","ios":"levelo://app?vid=663224a8-fba3-44bc-b5e4-fd9782258b8d"},"vehicle_type_id":"4","last_reported":1747318253,"current_range_meters":3200,"station_id":"ce4bh292rcd13ifvqdf0","pricing_plan_id":"cebpf4jnsgd1na2vs0mg"},{"bike_id":"62200a21-3b90-45b0-a3ff-cc8b9b7eda26","system_id":"levelo_inurba_marseille","lat":43.28617,"lon":5.35112,"is_reserved":false,"is_disabled":true,"rental_uris":{"android":"levelo://app?vid=62200a21-3b90-45b0-a3ff-cc8b9b7eda26","ios":"levelo://app?vid=62200a21-3b90-45b0-a3ff-cc8b9b7eda26"},"vehicle_type_id":"4","last_reported":1747318253,"current_range_meters":3200,"station_id":"ce4bhch2rcd13ifvqeug","pricing_plan_id":"cebpf4jnsgd1na2vs0mg"},{"bike_id":"73bb2fe4-ec8d-4662-b951-1794127d2fa7","system_id":"levelo_inurba_marseille","lat":43.25001,"lon":5.38928,"is_reserved":false,"is_disabled":false,"rental_uris":{"android":"levelo://app?vid=73bb2fe4-ec8d-4662-b951-1794127d2fa7","ios":"levelo://app?vid=73bb2fe4-ec8d-4662-b951-1794127d2fa7"},"vehicle_type_id":"4","last_reported":1747318253,"current_range_meters":3200,"station_id":"ce4bhgp2rcd13ifvqfd0","pricing_plan_id":"cebpf4jnsgd1na2vs0mg"},{"bike_id":"3394a0d8-6fd6-4806-9358-abe8edcd5408","system_id":"levelo_inurba_marseille","lat":43.29263,"lon":5.37625,"is_reserved":false,"is_disabled":false,"rental_uris":{"android":"levelo://app?vid=3394a0d8-6fd6-4806-9358-abe8edcd5408","ios":"levelo://app?vid=3394a0d8-6fd6-4806-9358-abe8edcd5408"},"vehicle_type_id":"4","last_reported":1747318253,"current_range_meters":3600,"station_id":"ce4bgi12rcd13ifvqb80","pricing_plan_id":"cebpf4jnsgd1na2vs0mg"},{"bike_id":"8e6b2ae0-b698-4344-b896-d94261592933","system_id":"levelo_inurba_marseille","lat":43.30526,"lon":5.36537,"is_reserved":false,"is_disabled":false,"rental_uris":{"android":"levelo://app?vid=8e6b2ae0-b698-4344-b896-d94261592933","ios":"levelo://app?vid=8e6b2ae0-b698-4344-b896-d94261592933"},"vehicle_type_id":"4","last_reported":1747318253,"current_range_meters":3600,"station_id":"ce4bgs12rcd13ifvqcag","pricing_plan_id":"cebpf4jnsgd1na2vs0mg"},{"bike_id":"4ecbf7e5-dec4-4f44-bb54-b5af7feb6ce0","system_id":"levelo_inurba_marseille","lat":43.28466,"lon":5.35883,"is_reserved":false,"is_disabled":false,"rental_uris":{"android":"levelo://app?vid=4ecbf7e5-dec4-4f44-bb54-b5af7feb6ce0","ios":"levelo://app?vid=4ecbf7e5-dec4-4f44-bb54-b5af7feb6ce0"},"vehicle_type_id":"4","last_reported":1747318253,"current_range_meters":3600,"station_id":"ce4bhah2rcd13ifvqei0","pricing_plan_id":"cebpf4jnsgd1na2vs0mg"},{"bike_id":"b54254c9-a9ee-4a26-9e2b-419f2511b08b","system_id":"levelo_inurba_marseille","lat":43.26493,"lon":5.39543,"is_reserved":false,"is_disabled":false,"rental_uris":{"android":"levelo://app?vid=b54254c9-a9ee-4a26-9e2b-419f2511b08b","ios":"levelo://app?vid=b54254c9-a9ee-4a26-9e2b-419f2511b08b"},"vehicle_type_id":"4","last_reported":1747318253,"current_range_meters":3600,"station_id":"ce4bhi12rcd13ifvqfq0","pricing_plan_id":"cebpf4jnsgd1na2vs0mg"},{"bike_id":"7876859a-349a-49de-ab35-99b143a4bcae","system_id":"levelo_inurba_marseille","lat":43.25585,"lon":5.38229,"is_reserved":false,"is_disabled":false,"rental_uris":{"android":"levelo://app?vid=7876859a-349a-49de-ab35-99b143a4bcae","ios":"levelo://app?vid=7876859a-349a-49de-ab35-99b143a4bcae"},"vehicle_type_id":"4","last_reported":1747318253,"current_range_meters":3600,"station_id":"ce4bhih2rcd13ifvqfs0","pricing_plan_id":"cebpf4jnsgd1na2vs0mg"},{"bike_id":"ed215bae-85da-4a0c-b9d5-45693e89a959","system_id":"levelo_inurba_marseille","lat":43.32668,"lon":5.40996,"is_reserved":false,"is_disabled":false,"rental_uris":{"android":"levelo://app?vid=ed215bae-85da-4a0c-b9d5-45693e89a959","ios":"levelo://app?vid=ed215bae-85da-4a0c-b9d5-45693e89a959"},"vehicle_type_id":"4","last_reported":1747318253,"current_range_meters":3600,"station_id":"ce4bhpp2rcd13ifvqhgg","pricing_plan_id":"cebpf4jnsgd1na2vs0mg"},{"bike_id":"e3040876-059d-47a7-813b-279530b5e22d","system_id":"levelo_inurba_marseille","lat":43.30462,"lon":5.37903,"is_reserved":false,"is_disabled":false,"rental_uris":{"android":"levelo://app?vid=e3040876-059d-47a7-813b-279530b5e22d","ios":"levelo://app?vid=e3040876-059d-47a7-813b-279530b5e22d"},"vehicle_type_id":"4","last_reported":1747318253,"current_range_meters":4000,"station_id":"ce4bgup2rcd13ifvqcn0","pricing_plan_id":"cebpf4jnsgd1na2vs0mg"},{"bike_id":"d650b536-801e-415b-9a95-47aa6d5e2c5a","system_id":"levelo_inurba_marseille","lat":43.26483,"lon":5.39556,"is_reserved":false,"is_disabled":false,"rental_uris":{"android":"levelo://app?vid=d650b536-801e-415b-9a95-47aa6d5e2c5a","ios":"levelo://app?vid=d650b536-801e-415b-9a95-47aa6d5e2c5a"},"vehicle_type_id":"4","last_reported":1747318253,"current_range_meters":4000,"station_id":"ce4bhi12rcd13ifvqfq0","pricing_plan_id":"cebpf4jnsgd1na2vs0mg"},{"bike_id":"5173335a-7e74-4ccd-a830-f3c515a85007","system_id":"levelo_inurba_marseille","lat":43.284698,"lon":5.349976,"is_reserved":false,"is_disabled":false,"rental_uris":{"android":"levelo://app?vid=5173335a-7e74-4ccd-a830-f3c515a85007","ios":"levelo://app?vid=5173335a-7e74-4ccd-a830-f3c515a85007"},"vehicle_type_id":"4","last_reported":1747318253,"current_range_meters":4400,"station_id":"","pricing_plan_id":"cebpf4jnsgd1na2vs0mg"},{"bike_id":"5ca41ceb-959f-4a12-ba49-1a751f1e9777","system_id":"levelo_inurba_marseille","lat":43.27373,"lon":5.36262,"is_reserved":false,"is_disabled":false,"rental_uris":{"android":"levelo://app?vid=5ca41ceb-959f-4a12-ba49-1a751f1e9777","ios":"levelo://app?vid=5ca41ceb-959f-4a12-ba49-1a751f1e9777"},"vehicle_type_id":"4","last_reported":1747318253,"current_range_meters":4400,"station_id":"ce4bhbh2rcd13ifvqeo0","pricing_plan_id":"cebpf4jnsgd1na2vs0mg"},{"bike_id":"9b785d1a-08dd-4b74-9cef-fe3199c518dc","system_id":"levelo_inurba_marseille","lat":43.27314,"lon":5.39083,"is_reserved":false,"is_disabled":false,"rental_uris":{"android":"levelo://app?vid=9b785d1a-08dd-4b74-9cef-fe3199c518dc","ios":"levelo://app?vid=9b785d1a-08dd-4b74-9cef-fe3199c518dc"},"vehicle_type_id":"4","last_reported":1747318253,"current_range_meters":4400,"station_id":"ce4bhgp2rcd13ifvqfe0","pricing_plan_id":"cebpf4jnsgd1na2vs0mg"},{"bike_id":"ab7b7fb8-1718-4c52-9ab7-4a9a86b8f6eb","system_id":"levelo_inurba_marseille","lat":43.29976,"lon":5.37186,"is_reserved":false,"is_disabled":false,"rental_uris":{"android":"levelo://app?vid=ab7b7fb8-1718-4c52-9ab7-4a9a86b8f6eb","ios":"levelo://app?vid=ab7b7fb8-1718-4c52-9ab7-4a9a86b8f6eb"},"vehicle_type_id":"4","last_reported":1747318253,"current_range_meters":5600,"station_id":"ce4bgr92rcd13ifvqc7g","pricing_plan_id":"cebpf4jnsgd1na2vs0mg"},{"bike_id":"887dfb7f-ec54-4687-8c28-a8a8d846c17e","system_id":"levelo_inurba_marseille","lat":43.27493,"lon":5.42454,"is_reserved":false,"is_disabled":false,"rental_uris":{"android":"levelo://app?vid=887dfb7f-ec54-4687-8c28-a8a8d846c17e","ios":"levelo://app?vid=887dfb7f-ec54-4687-8c28-a8a8d846c17e"},"vehicle_type_id":"4","last_reported":1747318253,"current_range_meters":5600,"station_id":"ce4bhn92rcd13ifvqgrg","pricing_plan_id":"cebpf4jnsgd1na2vs0mg"},{"bike_id":"91dec8d2-51de-4e16-a9b8-a1b3eac280c0","system_id":"levelo_inurba_marseille","lat":43.30528,"lon":5.38423,"is_reserved":false,"is_disabled":false,"rental_uris":{"android":"levelo://app?vid=91dec8d2-51de-4e16-a9b8-a1b3eac280c0","ios":"levelo://app?vid=91dec8d2-51de-4e16-a9b8-a1b3eac280c0"},"vehicle_type_id":"4","last_reported":1747318253,"current_range_meters":6000,"station_id":"ce4bgg92rcd13ifvqb30","pricing_plan_id":"cebpf4jnsgd1na2vs0mg"},{"bike_id":"e2d0b63b-abce-40f8-ace9-1b2b2d0b5e0c","system_id":"levelo_inurba_marseille","lat":43.30793,"lon":5.37648,"is_reserved":false,"is_disabled":false,"rental_uris":{"android":"levelo://app?vid=e2d0b63b-abce-40f8-ace9-1b2b2d0b5e0c","ios":"levelo://app?vid=e2d0b63b-abce-40f8-ace9-1b2b2d0b5e0c"},"vehicle_type_id":"4","last_reported":1747318253,"current_range_meters":6000,"station_id":"ce4bgv92rcd13ifvqcq0","pricing_plan_id":"cebpf4jnsgd1na2vs0mg"},{"bike_id":"d13023d9-90e1-40f3-b934-72641a473b95","system_id":"levelo_inurba_marseille","lat":43.23153,"lon":5.43716,"is_reserved":false,"is_disabled":false,"rental_uris":{"android":"levelo://app?vid=d13023d9-90e1-40f3-b934-72641a473b95","ios":"levelo://app?vid=d13023d9-90e1-40f3-b934-72641a473b95"},"vehicle_type_id":"4","last_reported":1747318253,"current_range_meters":6000,"station_id":"ce4bhmp2rcd13ifvqgog","pricing_plan_id":"cebpf4jnsgd1na2vs0mg"},{"bike_id":"1843d90d-9c97-41e7-90b2-d1d5233f5056","system_id":"levelo_inurba_marseille","lat":43.30548,"lon":5.36551,"is_reserved":false,"is_disabled":false,"rental_uris":{"android":"levelo://app?vid=1843d90d-9c97-41e7-90b2-d1d5233f5056","ios":"levelo://app?vid=1843d90d-9c97-41e7-90b2-d1d5233f5056"},"vehicle_type_id":"4","last_reported":1747318253,"current_range_meters":6400,"station_id":"ce4bgs12rcd13ifvqcag","pricing_plan_id":"cebpf4jnsgd1na2vs0mg"},{"bike_id":"3d809d61-3735-4a7d-87a1-f6b25f6044f8","system_id":"levelo_inurba_marseille","lat":43.28487,"lon":5.38423,"is_reserved":false,"is_disabled":false,"rental_uris":{"android":"levelo://app?vid=3d809d61-3735-4a7d-87a1-f6b25f6044f8","ios":"levelo://app?vid=3d809d61-3735-4a7d-87a1-f6b25f6044f8"},"vehicle_type_id":"4","last_reported":1747318253,"current_range_meters":6400,"station_id":"ce4bh512rcd13ifvqe3g","pricing_plan_id":"cebpf4jnsgd1na2vs0mg"},{"bike_id":"f3e4c052-dd51-438d-a721-804f0bd9368a","system_id":"levelo_inurba_marseille","lat":43.29197,"lon":5.35801,"is_reserved":false,"is_disabled":false,"rental_uris":{"android":"levelo://app?vid=f3e4c052-dd51-438d-a721-804f0bd9368a","ios":"levelo://app?vid=f3e4c052-dd51-438d-a721-804f0bd9368a"},"vehicle_type_id":"4","last_reported":1747318253,"current_range_meters":6800,"station_id":"ce4bhb12rcd13ifvqel0","pricing_plan_id":"cebpf4jnsgd1na2vs0mg"},{"bike_id":"34c6d641-1204-4fa1-9c68-59968a78ccbb","system_id":"levelo_inurba_marseille","lat":43.28617,"lon":5.35108,"is_reserved":false,"is_disabled":false,"rental_uris":{"android":"levelo://app?vid=34c6d641-1204-4fa1-9c68-59968a78ccbb","ios":"levelo://app?vid=34c6d641-1204-4fa1-9c68-59968a78ccbb"},"vehicle_type_id":"4","last_reported":1747318253,"current_range_meters":6800,"station_id":"ce4bhch2rcd13ifvqeug","pricing_plan_id":"cebpf4jnsgd1na2vs0mg"},{"bike_id":"dd22d880-02f9-4dd8-a7db-4c780ac2721e","system_id":"levelo_inurba_marseille","lat":43.24997,"lon":5.38934,"is_reserved":false,"is_disabled":false,"rental_uris":{"android":"levelo://app?vid=dd22d880-02f9-4dd8-a7db-4c780ac2721e","ios":"levelo://app?vid=dd22d880-02f9-4dd8-a7db-4c780ac2721e"},"vehicle_type_id":"4","last_reported":1747318253,"current_range_meters":6800,"station_id":"ce4bhgp2rcd13ifvqfd0","pricing_plan_id":"cebpf4jnsgd1na2vs0mg"},{"bike_id":"3f3584b3-ff69-426f-a153-46db14308113","system_id":"levelo_inurba_marseille","lat":43.24661,"lon":5.38151,"is_reserved":false,"is_disabled":false,"rental_uris":{"android":"levelo://app?vid=3f3584b3-ff69-426f-a153-46db14308113","ios":"levelo://app?vid=3f3584b3-ff69-426f-a153-46db14308113"},"vehicle_type_id":"4","last_reported":1747318253,"current_range_meters":6800,"station_id":"ce4bhih2rcd13ifvqfr0","pricing_plan_id":"cebpf4jnsgd1na2vs0mg"},{"bike_id":"3faf053c-e846-4d83-83ee-8fd51efc38bb","system_id":"levelo_inurba_marseille","lat":43.32116,"lon":5.36779,"is_reserved":false,"is_disabled":false,"rental_uris":{"android":"levelo://app?vid=3faf053c-e846-4d83-83ee-8fd51efc38bb","ios":"levelo://app?vid=3faf053c-e846-4d83-83ee-8fd51efc38bb"},"vehicle_type_id":"4","last_reported":1747318253,"current_range_meters":6800,"station_id":"ce4bhrh2rcd13ifvqhug","pricing_plan_id":"cebpf4jnsgd1na2vs0mg"},{"bike_id":"86a3a5b8-bd09-4d98-bded-1408f0eba0e1","system_id":"levelo_inurba_marseille","lat":43.30471,"lon":5.37906,"is_reserved":false,"is_disabled":false,"rental_uris":{"android":"levelo://app?vid=86a3a5b8-bd09-4d98-bded-1408f0eba0e1","ios":"levelo://app?vid=86a3a5b8-bd09-4d98-bded-1408f0eba0e1"},"vehicle_type_id":"4","last_reported":1747318253,"current_range_meters":7200,"station_id":"ce4bgup2rcd13ifvqcn0","pricing_plan_id":"cebpf4jnsgd1na2vs0mg"},{"bike_id":"5fab2e08-373d-41d2-b64a-5c31be8fb44a","system_id":"levelo_inurba_marseille","lat":43.28865,"lon":5.35835,"is_reserved":false,"is_disabled":false,"rental_uris":{"android":"levelo://app?vid=5fab2e08-373d-41d2-b64a-5c31be8fb44a","ios":"levelo://app?vid=5fab2e08-373d-41d2-b64a-5c31be8fb44a"},"vehicle_type_id":"4","last_reported":1747318253,"current_range_meters":7200,"station_id":"ce4bhb12rcd13ifvqem0","pricing_plan_id":"cebpf4jnsgd1na2vs0mg"},{"bike_id":"08625615-1926-4331-b489-7d7bd08b6d01","system_id":"levelo_inurba_marseille","lat":43.27375,"lon":5.36267,"is_reserved":false,"is_disabled":false,"rental_uris":{"android":"levelo://app?vid=08625615-1926-4331-b489-7d7bd08b6d01","ios":"levelo://app?vid=08625615-1926-4331-b489-7d7bd08b6d01"},"vehicle_type_id":"4","last_reported":1747318253,"current_range_meters":7200,"station_id":"ce4bhbh2rcd13ifvqeo0","pricing_plan_id":"cebpf4jnsgd1na2vs0mg"},{"bike_id":"f399ba97-0951-4175-a416-e54dc5c4bf42","system_id":"levelo_inurba_marseille","lat":43.2863,"lon":5.35089,"is_reserved":false,"is_disabled":false,"rental_uris":{"android":"levelo://app?vid=f399ba97-0951-4175-a416-e54dc5c4bf42","ios":"levelo://app?vid=f399ba97-0951-4175-a416-e54dc5c4bf42"},"vehicle_type_id":"4","last_reported":1747318253,"current_range_meters":8000,"station_id":"ce4bhch2rcd13ifvqeug","pricing_plan_id":"cebpf4jnsgd1na2vs0mg"},{"bike_id":"d5ddcfd4-cc60-4a84-bc76-55f25a231b05","system_id":"levelo_inurba_marseille","lat":43.265581,"lon":5.3728,"is_reserved":false,"is_disabled":false,"rental_uris":{"android":"levelo://app?vid=d5ddcfd4-cc60-4a84-bc76-55f25a231b05","ios":"levelo://app?vid=d5ddcfd4-cc60-4a84-bc76-55f25a231b05"},"vehicle_type_id":"4","last_reported":1747318253,"current_range_meters":8000,"station_id":"ce4bhg12rcd13ifvqf70","pricing_plan_id":"cebpf4jnsgd1na2vs0mg"},{"bike_id":"094c4808-776d-4b66-af3a-cf29dfc94970","system_id":"levelo_inurba_marseille","lat":43.26554,"lon":5.37302,"is_reserved":false,"is_disabled":false,"rental_uris":{"android":"levelo://app?vid=094c4808-776d-4b66-af3a-cf29dfc94970","ios":"levelo://app?vid=094c4808-776d-4b66-af3a-cf29dfc94970"},"vehicle_type_id":"4","last_reported":1747318253,"current_range_meters":8000,"station_id":"ce4bhg12rcd13ifvqf70","pricing_plan_id":"cebpf4jnsgd1na2vs0mg"},{"bike_id":"e3faef6f-635a-4b6b-b2b3-c0b918604df6","system_id":"levelo_inurba_marseille","lat":43.29909,"lon":5.43667,"is_reserved":false,"is_disabled":false,"rental_uris":{"android":"levelo://app?vid=e3faef6f-635a-4b6b-b2b3-c0b918604df6","ios":"levelo://app?vid=e3faef6f-635a-4b6b-b2b3-c0b918604df6"},"vehicle_type_id":"4","last_reported":1747318253,"current_range_meters":8000,"station_id":"ce4bhpp2rcd13ifvqhfg","pricing_plan_id":"cebpf4jnsgd1na2vs0mg"},{"bike_id":"2c0bd2da-dc3d-4819-a82f-ca6bfb5f3fc3","system_id":"levelo_inurba_marseille","lat":43.29191,"lon":5.39331,"is_reserved":false,"is_disabled":false,"rental_uris":{"android":"levelo://app?vid=2c0bd2da-dc3d-4819-a82f-ca6bfb5f3fc3","ios":"levelo://app?vid=2c0bd2da-dc3d-4819-a82f-ca6bfb5f3fc3"},"vehicle_type_id":"4","last_reported":1747318253,"current_range_meters":8400,"station_id":"ce4bh192rcd13ifvqdd0","pricing_plan_id":"cebpf4jnsgd1na2vs0mg"},{"bike_id":"1d774fd4-d9fe-42e0-b701-37196646cbb9","system_id":"levelo_inurba_marseille","lat":43.28407,"lon":5.34992,"is_reserved":false,"is_disabled":false,"rental_uris":{"android":"levelo://app?vid=1d774fd4-d9fe-42e0-b701-37196646cbb9","ios":"levelo://app?vid=1d774fd4-d9fe-42e0-b701-37196646cbb9"},"vehicle_type_id":"4","last_reported":1747318253,"current_range_meters":8400,"station_id":"ce4bhbh2rcd13ifvqepg","pricing_plan_id":"cebpf4jnsgd1na2vs0mg"},{"bike_id":"0c4d88aa-d524-4ae2-bf44-37a32f7f889d","system_id":"levelo_inurba_marseille","lat":43.28613,"lon":5.35103,"is_reserved":false,"is_disabled":false,"rental_uris":{"android":"levelo://app?vid=0c4d88aa-d524-4ae2-bf44-37a32f7f889d","ios":"levelo://app?vid=0c4d88aa-d524-4ae2-bf44-37a32f7f889d"},"vehicle_type_id":"4","last_reported":1747318253,"current_range_meters":8400,"station_id":"ce4bhch2rcd13ifvqeug","pricing_plan_id":"cebpf4jnsgd1na2vs0mg"},{"bike_id":"73174a1e-b779-4402-b8c8-f72bd450c25f","system_id":"levelo_inurba_marseille","lat":43.26559,"lon":5.37285,"is_reserved":false,"is_disabled":false,"rental_uris":{"android":"levelo://app?vid=73174a1e-b779-4402-b8c8-f72bd450c25f","ios":"levelo://app?vid=73174a1e-b779-4402-b8c8-f72bd450c25f"},"vehicle_type_id":"4","last_reported":1747318253,"current_range_meters":8400,"station_id":"ce4bhg12rcd13ifvqf70","pricing_plan_id":"cebpf4jnsgd1na2vs0mg"},{"bike_id":"57fcac31-046c-4d18-bb2d-a19a5dc97aae","system_id":"levelo_inurba_marseille","lat":43.27212,"lon":5.39183,"is_reserved":false,"is_disabled":false,"rental_uris":{"android":"levelo://app?vid=57fcac31-046c-4d18-bb2d-a19a5dc97aae","ios":"levelo://app?vid=57fcac31-046c-4d18-bb2d-a19a5dc97aae"},"vehicle_type_id":"4","last_reported":1747318253,"current_range_meters":8400,"station_id":"ce4bhhp2rcd13ifvqfm0","pricing_plan_id":"cebpf4jnsgd1na2vs0mg"},{"bike_id":"ec656d4e-6e68-46d4-bbac-128e19d286f4","system_id":"levelo_inurba_marseille","lat":43.295549,"lon":5.422956,"is_reserved":false,"is_disabled":false,"rental_uris":{"android":"levelo://app?vid=ec656d4e-6e68-46d4-bbac-128e19d286f4","ios":"levelo://app?vid=ec656d4e-6e68-46d4-bbac-128e19d286f4"},"vehicle_type_id":"4","last_reported":1747318253,"current_range_meters":8400,"station_id":"ce4bhph2rcd13ifvqhdg","pricing_plan_id":"cebpf4jnsgd1na2vs0mg"},{"bike_id":"35d750d2-c428-49da-afc1-67211ce9a477","system_id":"levelo_inurba_marseille","lat":43.32545,"lon":5.41475,"is_reserved":false,"is_disabled":false,"rental_uris":{"android":"levelo://app?vid=35d750d2-c428-49da-afc1-67211ce9a477","ios":"levelo://app?vid=35d750d2-c428-49da-afc1-67211ce9a477"},"vehicle_type_id":"4","last_reported":1747318253,"current_range_meters":8400,"station_id":"ce4bhq12rcd13ifvqhhg","pricing_plan_id":"cebpf4jnsgd1na2vs0mg"},{"bike_id":"5211e100-0e78-4b71-8c08-c18cc59f79a3","system_id":"levelo_inurba_marseille","lat":43.31181,"lon":5.38721,"is_reserved":false,"is_disabled":false,"rental_uris":{"android":"levelo://app?vid=5211e100-0e78-4b71-8c08-c18cc59f79a3","ios":"levelo://app?vid=5211e100-0e78-4b71-8c08-c18cc59f79a3"},"vehicle_type_id":"4","last_reported":1747318253,"current_range_meters":8800,"station_id":"ce4bgv12rcd13ifvqcp0","pricing_plan_id":"cebpf4jnsgd1na2vs0mg"},{"bike_id":"6f6cfd9f-6b0e-4383-9353-89c6f3be0095","system_id":"levelo_inurba_marseille","lat":43.31686,"lon":5.40471,"is_reserved":false,"is_disabled":false,"rental_uris":{"android":"levelo://app?vid=6f6cfd9f-6b0e-4383-9353-89c6f3be0095","ios":"levelo://app?vid=6f6cfd9f-6b0e-4383-9353-89c6f3be0095"},"vehicle_type_id":"4","last_reported":1747318253,"current_range_meters":8800,"station_id":"ce4bh012rcd13ifvqd00","pricing_plan_id":"cebpf4jnsgd1na2vs0mg"},{"bike_id":"f141b136-aadf-4a94-923e-4b198f8dbce8","system_id":"levelo_inurba_marseille","lat":43.26212,"lon":5.40454,"is_reserved":false,"is_disabled":false,"rental_uris":{"android":"levelo://app?vid=f141b136-aadf-4a94-923e-4b198f8dbce8","ios":"levelo://app?vid=f141b136-aadf-4a94-923e-4b198f8dbce8"},"vehicle_type_id":"4","last_reported":1747318253,"current_range_meters":8800,"station_id":"ce4bhmh2rcd13ifvqgmg","pricing_plan_id":"cebpf4jnsgd1na2vs0mg"},{"bike_id":"3e2223ce-7bde-4ec4-9252-679cd1be4927","system_id":"levelo_inurba_marseille","lat":43.23154,"lon":5.43711,"is_reserved":false,"is_disabled":false,"rental_uris":{"android":"levelo://app?vid=3e2223ce-7bde-4ec4-9252-679cd1be4927","ios":"levelo://app?vid=3e2223ce-7bde-4ec4-9252-679cd1be4927"},"vehicle_type_id":"4","last_reported":1747318253,"current_range_meters":8800,"station_id":"ce4bhmp2rcd13ifvqgog","pricing_plan_id":"cebpf4jnsgd1na2vs0mg"},{"bike_id":"f7557673-bc83-42bd-a681-18a2fc8a7373","system_id":"levelo_inurba_marseille","lat":43.32532,"lon":5.41442,"is_reserved":false,"is_disabled":false,"rental_uris":{"android":"levelo://app?vid=f7557673-bc83-42bd-a681-18a2fc8a7373","ios":"levelo://app?vid=f7557673-bc83-42bd-a681-18a2fc8a7373"},"vehicle_type_id":"4","last_reported":1747318253,"current_range_meters":8800,"station_id":"ce4bhq12rcd13ifvqhhg","pricing_plan_id":"cebpf4jnsgd1na2vs0mg"},{"bike_id":"e9644d12-b48e-4a2f-8ba8-7cc3dea7b648","system_id":"levelo_inurba_marseille","lat":43.32493,"lon":5.3656,"is_reserved":false,"is_disabled":false,"rental_uris":{"android":"levelo://app?vid=e9644d12-b48e-4a2f-8ba8-7cc3dea7b648","ios":"levelo://app?vid=e9644d12-b48e-4a2f-8ba8-7cc3dea7b648"},"vehicle_type_id":"4","last_reported":1747318253,"current_range_meters":8800,"station_id":"ce4bhs12rcd13ifvqhvg","pricing_plan_id":"cebpf4jnsgd1na2vs0mg"},{"bike_id":"5fbcd3a8-5fba-4859-a6da-5a3b617f4707","system_id":"levelo_inurba_marseille","lat":43.24163,"lon":5.36401,"is_reserved":false,"is_disabled":false,"rental_uris":{"android":"levelo://app?vid=5fbcd3a8-5fba-4859-a6da-5a3b617f4707","ios":"levelo://app?vid=5fbcd3a8-5fba-4859-a6da-5a3b617f4707"},"vehicle_type_id":"4","last_reported":1747318253,"current_range_meters":8800,"station_id":"cpo36qri1sfpv3e86is0","pricing_plan_id":"cebpf4jnsgd1na2vs0mg"},{"bike_id":"14c2117d-b894-4ac9-bb56-d1e360c9520f","system_id":"levelo_inurba_marseille","lat":43.30212,"lon":5.39464,"is_reserved":false,"is_disabled":false,"rental_uris":{"android":"levelo://app?vid=14c2117d-b894-4ac9-bb56-d1e360c9520f","ios":"levelo://app?vid=14c2117d-b894-4ac9-bb56-d1e360c9520f"},"vehicle_type_id":"4","last_reported":1747318253,"current_range_meters":9200,"station_id":"ce4bh0p2rcd13ifvqd70","pricing_plan_id":"cebpf4jnsgd1na2vs0mg"},{"bike_id":"d0f3b23c-0dd5-4317-94c1-8a3e00b2b653","system_id":"levelo_inurba_marseille","lat":43.27371,"lon":5.36251,"is_reserved":false,"is_disabled":false,"rental_uris":{"android":"levelo://app?vid=d0f3b23c-0dd5-4317-94c1-8a3e00b2b653","ios":"levelo://app?vid=d0f3b23c-0dd5-4317-94c1-8a3e00b2b653"},"vehicle_type_id":"4","last_reported":1747318253,"current_range_meters":9200,"station_id":"ce4bhbh2rcd13ifvqeo0","pricing_plan_id":"cebpf4jnsgd1na2vs0mg"},{"bike_id":"58ac708e-a200-4703-94eb-83551d3e7f97","system_id":"levelo_inurba_marseille","lat":43.23158,"lon":5.43728,"is_reserved":false,"is_disabled":false,"rental_uris":{"android":"levelo://app?vid=58ac708e-a200-4703-94eb-83551d3e7f97","ios":"levelo://app?vid=58ac708e-a200-4703-94eb-83551d3e7f97"},"vehicle_type_id":"4","last_reported":1747318253,"current_range_meters":9200,"station_id":"ce4bhmp2rcd13ifvqgog","pricing_plan_id":"cebpf4jnsgd1na2vs0mg"},{"bike_id":"c5f61984-3bce-418d-b000-83d403ab584f","system_id":"levelo_inurba_marseille","lat":43.2315,"lon":5.43687,"is_reserved":false,"is_disabled":false,"rental_uris":{"android":"levelo://app?vid=c5f61984-3bce-418d-b000-83d403ab584f","ios":"levelo://app?vid=c5f61984-3bce-418d-b000-83d403ab584f"},"vehicle_type_id":"4","last_reported":1747318253,"current_range_meters":9200,"station_id":"ce4bhmp2rcd13ifvqgog","pricing_plan_id":"cebpf4jnsgd1na2vs0mg"},{"bike_id":"17d57f58-ffb0-4d77-bbe5-7f462887ac74","system_id":"levelo_inurba_marseille","lat":43.24205,"lon":5.39686,"is_reserved":false,"is_disabled":false,"rental_uris":{"android":"levelo://app?vid=17d57f58-ffb0-4d77-bbe5-7f462887ac74","ios":"levelo://app?vid=17d57f58-ffb0-4d77-bbe5-7f462887ac74"},"vehicle_type_id":"4","last_reported":1747318253,"current_range_meters":9200,"station_id":"ce4bhn12rcd13ifvqgpg","pricing_plan_id":"cebpf4jnsgd1na2vs0mg"},{"bike_id":"7cad8bbf-afe9-4767-8543-3e633fd367b9","system_id":"levelo_inurba_marseille","lat":43.27833,"lon":5.40679,"is_reserved":false,"is_disabled":false,"rental_uris":{"android":"levelo://app?vid=7cad8bbf-afe9-4767-8543-3e633fd367b9","ios":"levelo://app?vid=7cad8bbf-afe9-4767-8543-3e633fd367b9"},"vehicle_type_id":"4","last_reported":1747318253,"current_range_meters":9200,"station_id":"ce4bhnh2rcd13ifvqgtg","pricing_plan_id":"cebpf4jnsgd1na2vs0mg"},{"bike_id":"e7a9fe1f-0630-429e-a442-16437d6d8736","system_id":"levelo_inurba_marseille","lat":43.284088,"lon":5.349713,"is_reserved":false,"is_disabled":false,"rental_uris":{"android":"levelo://app?vid=e7a9fe1f-0630-429e-a442-16437d6d8736","ios":"levelo://app?vid=e7a9fe1f-0630-429e-a442-16437d6d8736"},"vehicle_type_id":"4","last_reported":1747318253,"current_range_meters":9600,"station_id":"ce4bhbh2rcd13ifvqepg","pricing_plan_id":"cebpf4jnsgd1na2vs0mg"},{"bike_id":"7aa4162e-ed9f-4c4c-bfbc-da0036b7e090","system_id":"levelo_inurba_marseille","lat":43.26555,"lon":5.37293,"is_reserved":false,"is_disabled":false,"rental_uris":{"android":"levelo://app?vid=7aa4162e-ed9f-4c4c-bfbc-da0036b7e090","ios":"levelo://app?vid=7aa4162e-ed9f-4c4c-bfbc-da0036b7e090"},"vehicle_type_id":"4","last_reported":1747318253,"current_range_meters":9600,"station_id":"ce4bhg12rcd13ifvqf70","pricing_plan_id":"cebpf4jnsgd1na2vs0mg"},{"bike_id":"90049ab7-471a-407b-9c25-9134ef02f6bc","system_id":"levelo_inurba_marseille","lat":43.27567,"lon":5.3842,"is_reserved":false,"is_disabled":false,"rental_uris":{"android":"levelo://app?vid=90049ab7-471a-407b-9c25-9134ef02f6bc","ios":"levelo://app?vid=90049ab7-471a-407b-9c25-9134ef02f6bc"},"vehicle_type_id":"4","last_reported":1747318253,"current_range_meters":9600,"station_id":"ce4bhh92rcd13ifvqfi0","pricing_plan_id":"cebpf4jnsgd1na2vs0mg"},{"bike_id":"1e1569d2-cd47-4021-9147-53f1253b62e7","system_id":"levelo_inurba_marseille","lat":43.25581,"lon":5.38223,"is_reserved":false,"is_disabled":false,"rental_uris":{"android":"levelo://app?vid=1e1569d2-cd47-4021-9147-53f1253b62e7","ios":"levelo://app?vid=1e1569d2-cd47-4021-9147-53f1253b62e7"},"vehicle_type_id":"4","last_reported":1747318253,"current_range_meters":9600,"station_id":"ce4bhih2rcd13ifvqfs0","pricing_plan_id":"cebpf4jnsgd1na2vs0mg"},{"bike_id":"ff170230-ed40-4dd3-8522-74a1db2b6cf6","system_id":"levelo_inurba_marseille","lat":43.31712,"lon":5.43711,"is_reserved":false,"is_disabled":false,"rental_uris":{"android":"levelo://app?vid=ff170230-ed40-4dd3-8522-74a1db2b6cf6","ios":"levelo://app?vid=ff170230-ed40-4dd3-8522-74a1db2b6cf6"},"vehicle_type_id":"4","last_reported":1747318253,"current_range_meters":9600,"station_id":"ce4bhp92rcd13ifvqhcg","pricing_plan_id":"cebpf4jnsgd1na2vs0mg"},{"bike_id":"0a16ab3a-b7c6-4340-87e6-d4802fff825d","system_id":"levelo_inurba_marseille","lat":43.26809,"lon":5.40266,"is_reserved":false,"is_disabled":false,"rental_uris":{"android":"levelo://app?vid=0a16ab3a-b7c6-4340-87e6-d4802fff825d","ios":"levelo://app?vid=0a16ab3a-b7c6-4340-87e6-d4802fff825d"},"vehicle_type_id":"4","last_reported":1747318253,"current_range_meters":9600,"station_id":"ce501612rcd8frsf0b60","pricing_plan_id":"cebpf4jnsgd1na2vs0mg"},{"bike_id":"55697a48-9aaa-468a-9813-6afc6f45d640","system_id":"levelo_inurba_marseille","lat":43.27617,"lon":5.36136,"is_reserved":false,"is_disabled":false,"rental_uris":{"android":"levelo://app?vid=55697a48-9aaa-468a-9813-6afc6f45d640","ios":"levelo://app?vid=55697a48-9aaa-468a-9813-6afc6f45d640"},"vehicle_type_id":"4","last_reported":1747318253,"current_range_meters":10000,"station_id":"ce4bgj92rcd13ifvqbe0","pricing_plan_id":"cebpf4jnsgd1na2vs0mg"},{"bike_id":"aee04fe3-c8ce-4964-9c80-74c2ddd1907b","system_id":"levelo_inurba_marseille","lat":43.30526,"lon":5.36553,"is_reserved":false,"is_disabled":false,"rental_uris":{"android":"levelo://app?vid=aee04fe3-c8ce-4964-9c80-74c2ddd1907b","ios":"levelo://app?vid=aee04fe3-c8ce-4964-9c80-74c2ddd1907b"},"vehicle_type_id":"4","last_reported":1747318253,"current_range_meters":10000,"station_id":"ce4bgs12rcd13ifvqcag","pricing_plan_id":"cebpf4jnsgd1na2vs0mg"},{"bike_id":"90b69d99-1649-4b1c-b958-5bc65617a69f","system_id":"levelo_inurba_marseille","lat":43.30333,"lon":5.40432,"is_reserved":false,"is_disabled":false,"rental_uris":{"android":"levelo://app?vid=90b69d99-1649-4b1c-b958-5bc65617a69f","ios":"levelo://app?vid=90b69d99-1649-4b1c-b958-5bc65617a69f"},"vehicle_type_id":"4","last_reported":1747318253,"current_range_meters":10000,"station_id":"ce4bh012rcd13ifvqd10","pricing_plan_id":"cebpf4jnsgd1na2vs0mg"},{"bike_id":"5a2aeac5-8336-4155-b8ff-794734499844","system_id":"levelo_inurba_marseille","lat":43.25581,"lon":5.38222,"is_reserved":false,"is_disabled":false,"rental_uris":{"android":"levelo://app?vid=5a2aeac5-8336-4155-b8ff-794734499844","ios":"levelo://app?vid=5a2aeac5-8336-4155-b8ff-794734499844"},"vehicle_type_id":"4","last_reported":1747318253,"current_range_meters":10000,"station_id":"ce4bhih2rcd13ifvqfs0","pricing_plan_id":"cebpf4jnsgd1na2vs0mg"},{"bike_id":"0048cc7b-4c6a-4981-b9a4-fdd70265e5fb","system_id":"levelo_inurba_marseille","lat":43.25813,"lon":5.39453,"is_reserved":false,"is_disabled":false,"rental_uris":{"android":"levelo://app?vid=0048cc7b-4c6a-4981-b9a4-fdd70265e5fb","ios":"levelo://app?vid=0048cc7b-4c6a-4981-b9a4-fdd70265e5fb"},"vehicle_type_id":"4","last_reported":1747318253,"current_range_meters":10000,"station_id":"ce4bhip2rcd13ifvqft0","pricing_plan_id":"cebpf4jnsgd1na2vs0mg"},{"bike_id":"170dde4d-c2df-49cf-a5af-acf3cf1dcba5","system_id":"levelo_inurba_marseille","lat":43.23155,"lon":5.43712,"is_reserved":false,"is_disabled":false,"rental_uris":{"android":"levelo://app?vid=170dde4d-c2df-49cf-a5af-acf3cf1dcba5","ios":"levelo://app?vid=170dde4d-c2df-49cf-a5af-acf3cf1dcba5"},"vehicle_type_id":"4","last_reported":1747318253,"current_range_meters":10000,"station_id":"ce4bhmp2rcd13ifvqgog","pricing_plan_id":"cebpf4jnsgd1na2vs0mg"},{"bike_id":"53d8fb71-f19e-44ab-8f5f-f17a90cbe5dc","system_id":"levelo_inurba_marseille","lat":43.28697,"lon":5.39984,"is_reserved":false,"is_disabled":false,"rental_uris":{"android":"levelo://app?vid=53d8fb71-f19e-44ab-8f5f-f17a90cbe5dc","ios":"levelo://app?vid=53d8fb71-f19e-44ab-8f5f-f17a90cbe5dc"},"vehicle_type_id":"4","last_reported":1747318253,"current_range_meters":10000,"station_id":"ce4bho92rcd13ifvqh3g","pricing_plan_id":"cebpf4jnsgd1na2vs0mg"},{"bike_id":"3961dd37-2a97-41a8-85af-1fd7468a063c","system_id":"levelo_inurba_marseille","lat":43.24169,"lon":5.36399,"is_reserved":false,"is_disabled":false,"rental_uris":{"android":"levelo://app?vid=3961dd37-2a97-41a8-85af-1fd7468a063c","ios":"levelo://app?vid=3961dd37-2a97-41a8-85af-1fd7468a063c"},"vehicle_type_id":"4","last_reported":1747318253,"current_range_meters":10000,"station_id":"cpo36qri1sfpv3e86is0","pricing_plan_id":"cebpf4jnsgd1na2vs0mg"},{"bike_id":"dec5007b-b8ec-4e93-8c2e-28de3bead79a","system_id":"levelo_inurba_marseille","lat":43.243956,"lon":5.370616,"is_reserved":false,"is_disabled":false,"rental_uris":{"android":"levelo://app?vid=dec5007b-b8ec-4e93-8c2e-28de3bead79a","ios":"levelo://app?vid=dec5007b-b8ec-4e93-8c2e-28de3bead79a"},"vehicle_type_id":"4","last_reported":1747318253,"current_range_meters":10800,"station_id":"ce4bhhh2rcd13ifvqfk0","pricing_plan_id":"cebpf4jnsgd1na2vs0mg"},{"bike_id":"c820a01c-8e8b-417e-b122-834dcacf3b25","system_id":"levelo_inurba_marseille","lat":43.27211,"lon":5.39182,"is_reserved":false,"is_disabled":false,"rental_uris":{"android":"levelo://app?vid=c820a01c-8e8b-417e-b122-834dcacf3b25","ios":"levelo://app?vid=c820a01c-8e8b-417e-b122-834dcacf3b25"},"vehicle_type_id":"4","last_reported":1747318253,"current_range_meters":10800,"station_id":"ce4bhhp2rcd13ifvqfm0","pricing_plan_id":"cebpf4jnsgd1na2vs0mg"},{"bike_id":"c0a7e0fe-21a8-4cf2-8136-764757666895","system_id":"levelo_inurba_marseille","lat":43.25583,"lon":5.38232,"is_reserved":false,"is_disabled":false,"rental_uris":{"android":"levelo://app?vid=c0a7e0fe-21a8-4cf2-8136-764757666895","ios":"levelo://app?vid=c0a7e0fe-21a8-4cf2-8136-764757666895"},"vehicle_type_id":"4","last_reported":1747318253,"current_range_meters":10800,"station_id":"ce4bhih2rcd13ifvqfs0","pricing_plan_id":"cebpf4jnsgd1na2vs0mg"},{"bike_id":"8c7308bf-84fd-4edb-9b86-07fbeaf5e51b","system_id":"levelo_inurba_marseille","lat":43.31719,"lon":5.4242,"is_reserved":false,"is_disabled":false,"rental_uris":{"android":"levelo://app?vid=8c7308bf-84fd-4edb-9b86-07fbeaf5e51b","ios":"levelo://app?vid=8c7308bf-84fd-4edb-9b86-07fbeaf5e51b"},"vehicle_type_id":"4","last_reported":1747318253,"current_range_meters":10800,"station_id":"ce4bhp92rcd13ifvqhbg","pricing_plan_id":"cebpf4jnsgd1na2vs0mg"},{"bike_id":"902c3167-105b-4699-b317-e21c74fee998","system_id":"levelo_inurba_marseille","lat":43.29551,"lon":5.42285,"is_reserved":false,"is_disabled":false,"rental_uris":{"android":"levelo://app?vid=902c3167-105b-4699-b317-e21c74fee998","ios":"levelo://app?vid=902c3167-105b-4699-b317-e21c74fee998"},"vehicle_type_id":"4","last_reported":1747318253,"current_range_meters":10800,"station_id":"ce4bhph2rcd13ifvqhdg","pricing_plan_id":"cebpf4jnsgd1na2vs0mg"},{"bike_id":"0f3d78b5-d474-45ec-974c-32fc1c93c162","system_id":"levelo_inurba_marseille","lat":43.32367,"lon":5.38881,"is_reserved":false,"is_disabled":false,"rental_uris":{"android":"levelo://app?vid=0f3d78b5-d474-45ec-974c-32fc1c93c162","ios":"levelo://app?vid=0f3d78b5-d474-45ec-974c-32fc1c93c162"},"vehicle_type_id":"4","last_reported":1747318253,"current_range_meters":10800,"station_id":"ce4bhqp2rcd13ifvqhog","pricing_plan_id":"cebpf4jnsgd1na2vs0mg"},{"bike_id":"f5081e1f-0079-464e-9927-520f776a4e6d","system_id":"levelo_inurba_marseille","lat":43.29642,"lon":5.37158,"is_reserved":false,"is_disabled":false,"rental_uris":{"android":"levelo://app?vid=f5081e1f-0079-464e-9927-520f776a4e6d","ios":"levelo://app?vid=f5081e1f-0079-464e-9927-520f776a4e6d"},"vehicle_type_id":"4","last_reported":1747318253,"current_range_meters":11200,"station_id":"ce4bgnh2rcd13ifvqc0g","pricing_plan_id":"cebpf4jnsgd1na2vs0mg"},{"bike_id":"9d42199c-cef3-4d13-b81b-2ce2aad9c778","system_id":"levelo_inurba_marseille","lat":43.31325,"lon":5.39688,"is_reserved":false,"is_disabled":false,"rental_uris":{"android":"levelo://app?vid=9d42199c-cef3-4d13-b81b-2ce2aad9c778","ios":"levelo://app?vid=9d42199c-cef3-4d13-b81b-2ce2aad9c778"},"vehicle_type_id":"4","last_reported":1747318253,"current_range_meters":11200,"station_id":"ce4bgvp2rcd13ifvqcu0","pricing_plan_id":"cebpf4jnsgd1na2vs0mg"},{"bike_id":"7a5426de-a02a-46c3-a1ec-4eaaa28c631c","system_id":"levelo_inurba_marseille","lat":43.28269,"lon":5.35088,"is_reserved":false,"is_disabled":false,"rental_uris":{"android":"levelo://app?vid=7a5426de-a02a-46c3-a1ec-4eaaa28c631c","ios":"levelo://app?vid=7a5426de-a02a-46c3-a1ec-4eaaa28c631c"},"vehicle_type_id":"4","last_reported":1747318253,"current_range_meters":11200,"station_id":"ce4bhbp2rcd13ifvqerg","pricing_plan_id":"cebpf4jnsgd1na2vs0mg"},{"bike_id":"bee35244-ec95-4b3d-8fae-96abe913294a","system_id":"levelo_inurba_marseille","lat":43.28635,"lon":5.35096,"is_reserved":false,"is_disabled":false,"rental_uris":{"android":"levelo://app?vid=bee35244-ec95-4b3d-8fae-96abe913294a","ios":"levelo://app?vid=bee35244-ec95-4b3d-8fae-96abe913294a"},"vehicle_type_id":"4","last_reported":1747318253,"current_range_meters":11200,"station_id":"ce4bhch2rcd13ifvqeug","pricing_plan_id":"cebpf4jnsgd1na2vs0mg"},{"bike_id":"d8dc0a73-8bf0-49a4-947b-f3958723355d","system_id":"levelo_inurba_marseille","lat":43.28623,"lon":5.35118,"is_reserved":false,"is_disabled":false,"rental_uris":{"android":"levelo://app?vid=d8dc0a73-8bf0-49a4-947b-f3958723355d","ios":"levelo://app?vid=d8dc0a73-8bf0-49a4-947b-f3958723355d"},"vehicle_type_id":"4","last_reported":1747318253,"current_range_meters":11200,"station_id":"ce4bhch2rcd13ifvqeug","pricing_plan_id":"cebpf4jnsgd1na2vs0mg"},{"bike_id":"bbfd3c35-ddaa-44e6-9cb1-c430263d73d9","system_id":"levelo_inurba_marseille","lat":43.26554,"lon":5.37296,"is_reserved":false,"is_disabled":false,"rental_uris":{"android":"levelo://app?vid=bbfd3c35-ddaa-44e6-9cb1-c430263d73d9","ios":"levelo://app?vid=bbfd3c35-ddaa-44e6-9cb1-c430263d73d9"},"vehicle_type_id":"4","last_reported":1747318253,"current_range_meters":11200,"station_id":"ce4bhg12rcd13ifvqf70","pricing_plan_id":"cebpf4jnsgd1na2vs0mg"},{"bike_id":"a6083d34-e66a-4824-b164-ef0a4090c517","system_id":"levelo_inurba_marseille","lat":43.265568,"lon":5.372847,"is_reserved":false,"is_disabled":false,"rental_uris":{"android":"levelo://app?vid=a6083d34-e66a-4824-b164-ef0a4090c517","ios":"levelo://app?vid=a6083d34-e66a-4824-b164-ef0a4090c517"},"vehicle_type_id":"4","last_reported":1747318253,"current_range_meters":11200,"station_id":"ce4bhg12rcd13ifvqf70","pricing_plan_id":"cebpf4jnsgd1na2vs0mg"},{"bike_id":"be279fe8-4744-40f5-aa38-6405fbd29524","system_id":"levelo_inurba_marseille","lat":43.25006,"lon":5.38922,"is_reserved":false,"is_disabled":false,"rental_uris":{"android":"levelo://app?vid=be279fe8-4744-40f5-aa38-6405fbd29524","ios":"levelo://app?vid=be279fe8-4744-40f5-aa38-6405fbd29524"},"vehicle_type_id":"4","last_reported":1747318253,"current_range_meters":11200,"station_id":"ce4bhgp2rcd13ifvqfd0","pricing_plan_id":"cebpf4jnsgd1na2vs0mg"},{"bike_id":"0fb0535b-6147-4478-ab18-22abe54a21b2","system_id":"levelo_inurba_marseille","lat":43.28469,"lon":5.38422,"is_reserved":false,"is_disabled":false,"rental_uris":{"android":"levelo://app?vid=0fb0535b-6147-4478-ab18-22abe54a21b2","ios":"levelo://app?vid=0fb0535b-6147-4478-ab18-22abe54a21b2"},"vehicle_type_id":"4","last_reported":1747318253,"current_range_meters":11600,"station_id":"ce4bh512rcd13ifvqe3g","pricing_plan_id":"cebpf4jnsgd1na2vs0mg"},{"bike_id":"da094370-d5e1-469a-acf6-c99dbb6627b8","system_id":"levelo_inurba_marseille","lat":43.27376,"lon":5.36256,"is_reserved":false,"is_disabled":false,"rental_uris":{"android":"levelo://app?vid=da094370-d5e1-469a-acf6-c99dbb6627b8","ios":"levelo://app?vid=da094370-d5e1-469a-acf6-c99dbb6627b8"},"vehicle_type_id":"4","last_reported":1747318253,"current_range_meters":11600,"station_id":"ce4bhbh2rcd13ifvqeo0","pricing_plan_id":"cebpf4jnsgd1na2vs0mg"},{"bike_id":"f7b25ce1-a89d-4c0c-8bc4-c0f867e52f74","system_id":"levelo_inurba_marseille","lat":43.26598,"lon":5.37287,"is_reserved":false,"is_disabled":false,"rental_uris":{"android":"levelo://app?vid=f7b25ce1-a89d-4c0c-8bc4-c0f867e52f74","ios":"levelo://app?vid=f7b25ce1-a89d-4c0c-8bc4-c0f867e52f74"},"vehicle_type_id":"4","last_reported":1747318253,"current_range_meters":11600,"station_id":"ce4bhg12rcd13ifvqf70","pricing_plan_id":"cebpf4jnsgd1na2vs0mg"},{"bike_id":"286021db-5e30-45b6-a266-8ed86805a2c6","system_id":"levelo_inurba_marseille","lat":43.28728,"lon":5.36088,"is_reserved":false,"is_disabled":false,"rental_uris":{"android":"levelo://app?vid=286021db-5e30-45b6-a266-8ed86805a2c6","ios":"levelo://app?vid=286021db-5e30-45b6-a266-8ed86805a2c6"},"vehicle_type_id":"4","last_reported":1747318253,"current_range_meters":11600,"station_id":"cki0cbj6b192h4jlfktg","pricing_plan_id":"cebpf4jnsgd1na2vs0mg"},{"bike_id":"009875bc-4fd5-4b3e-ae40-0a56471efd32","system_id":"levelo_inurba_marseille","lat":43.29667,"lon":5.37287,"is_reserved":false,"is_disabled":false,"rental_uris":{"android":"levelo://app?vid=009875bc-4fd5-4b3e-ae40-0a56471efd32","ios":"levelo://app?vid=009875bc-4fd5-4b3e-ae40-0a56471efd32"},"vehicle_type_id":"4","last_reported":1747318253,"current_range_meters":12000,"station_id":"ce4bgk12rcd13ifvqbj0","pricing_plan_id":"cebpf4jnsgd1na2vs0mg"},{"bike_id":"e22cf00f-c048-40e0-852e-65548618780c","system_id":"levelo_inurba_marseille","lat":43.30898,"lon":5.37213,"is_reserved":false,"is_disabled":false,"rental_uris":{"android":"levelo://app?vid=e22cf00f-c048-40e0-852e-65548618780c","ios":"levelo://app?vid=e22cf00f-c048-40e0-852e-65548618780c"},"vehicle_type_id":"4","last_reported":1747318253,"current_range_meters":12000,"station_id":"ce4bguh2rcd13ifvqckg","pricing_plan_id":"cebpf4jnsgd1na2vs0mg"},{"bike_id":"0bb0016c-2ebe-4f18-8b1f-712ba21750b6","system_id":"levelo_inurba_marseille","lat":43.28476,"lon":5.385696,"is_reserved":false,"is_disabled":false,"rental_uris":{"android":"levelo://app?vid=0bb0016c-2ebe-4f18-8b1f-712ba21750b6","ios":"levelo://app?vid=0bb0016c-2ebe-4f18-8b1f-712ba21750b6"},"vehicle_type_id":"4","last_reported":1747318253,"current_range_meters":12000,"station_id":"ce4bh8p2rcd13ifvqeb0","pricing_plan_id":"cebpf4jnsgd1na2vs0mg"},{"bike_id":"a22e2323-ee2c-422c-87a7-85dba7c01d54","system_id":"levelo_inurba_marseille","lat":43.26504,"lon":5.39535,"is_reserved":false,"is_disabled":false,"rental_uris":{"android":"levelo://app?vid=a22e2323-ee2c-422c-87a7-85dba7c01d54","ios":"levelo://app?vid=a22e2323-ee2c-422c-87a7-85dba7c01d54"},"vehicle_type_id":"4","last_reported":1747318253,"current_range_meters":12000,"station_id":"ce4bhi12rcd13ifvqfq0","pricing_plan_id":"cebpf4jnsgd1na2vs0mg"},{"bike_id":"24c5a5c1-d9b7-46bb-8047-16602b2fa56a","system_id":"levelo_inurba_marseille","lat":43.23185,"lon":5.39982,"is_reserved":false,"is_disabled":false,"rental_uris":{"android":"levelo://app?vid=24c5a5c1-d9b7-46bb-8047-16602b2fa56a","ios":"levelo://app?vid=24c5a5c1-d9b7-46bb-8047-16602b2fa56a"},"vehicle_type_id":"4","last_reported":1747318253,"current_range_meters":12000,"station_id":"ce4bhn12rcd13ifvqgqg","pricing_plan_id":"cebpf4jnsgd1na2vs0mg"},{"bike_id":"94425245-09df-4108-9a30-610dbcaf2585","system_id":"levelo_inurba_marseille","lat":43.317239,"lon":5.42401,"is_reserved":false,"is_disabled":false,"rental_uris":{"android":"levelo://app?vid=94425245-09df-4108-9a30-610dbcaf2585","ios":"levelo://app?vid=94425245-09df-4108-9a30-610dbcaf2585"},"vehicle_type_id":"4","last_reported":1747318253,"current_range_meters":12000,"station_id":"ce4bhp92rcd13ifvqhbg","pricing_plan_id":"cebpf4jnsgd1na2vs0mg"},{"bike_id":"7f3855bb-a282-4095-8d09-2e7c2e3838e5","system_id":"levelo_inurba_marseille","lat":43.30528,"lon":5.36526,"is_reserved":false,"is_disabled":false,"rental_uris":{"android":"levelo://app?vid=7f3855bb-a282-4095-8d09-2e7c2e3838e5","ios":"levelo://app?vid=7f3855bb-a282-4095-8d09-2e7c2e3838e5"},"vehicle_type_id":"4","last_reported":1747318253,"current_range_meters":12400,"station_id":"ce4bgs12rcd13ifvqcag","pricing_plan_id":"cebpf4jnsgd1na2vs0mg"},{"bike_id":"5d143fa7-3fcc-4f6d-b56e-46a9140a5e84","system_id":"levelo_inurba_marseille","lat":43.29556,"lon":5.42293,"is_reserved":false,"is_disabled":false,"rental_uris":{"android":"levelo://app?vid=5d143fa7-3fcc-4f6d-b56e-46a9140a5e84","ios":"levelo://app?vid=5d143fa7-3fcc-4f6d-b56e-46a9140a5e84"},"vehicle_type_id":"4","last_reported":1747318253,"current_range_meters":12400,"station_id":"ce4bhph2rcd13ifvqhdg","pricing_plan_id":"cebpf4jnsgd1na2vs0mg"},{"bike_id":"187fd29f-0dcb-40b2-9307-28004178e013","system_id":"levelo_inurba_marseille","lat":43.30555,"lon":5.36528,"is_reserved":false,"is_disabled":false,"rental_uris":{"android":"levelo://app?vid=187fd29f-0dcb-40b2-9307-28004178e013","ios":"levelo://app?vid=187fd29f-0dcb-40b2-9307-28004178e013"},"vehicle_type_id":"4","last_reported":1747318253,"current_range_meters":12800,"station_id":"ce4bgs12rcd13ifvqcag","pricing_plan_id":"cebpf4jnsgd1na2vs0mg"},{"bike_id":"ed9b3afc-5877-4e8c-835f-612bf2b9a2fd","system_id":"levelo_inurba_marseille","lat":43.31493,"lon":5.37305,"is_reserved":false,"is_disabled":false,"rental_uris":{"android":"levelo://app?vid=ed9b3afc-5877-4e8c-835f-612bf2b9a2fd","ios":"levelo://app?vid=ed9b3afc-5877-4e8c-835f-612bf2b9a2fd"},"vehicle_type_id":"4","last_reported":1747318253,"current_range_meters":12800,"station_id":"ce4bgt12rcd13ifvqcd0","pricing_plan_id":"cebpf4jnsgd1na2vs0mg"},{"bike_id":"3f841ff8-be3c-4868-b26a-f87179e99895","system_id":"levelo_inurba_marseille","lat":43.3136,"lon":5.3849,"is_reserved":false,"is_disabled":false,"rental_uris":{"android":"levelo://app?vid=3f841ff8-be3c-4868-b26a-f87179e99895","ios":"levelo://app?vid=3f841ff8-be3c-4868-b26a-f87179e99895"},"vehicle_type_id":"4","last_reported":1747318253,"current_range_meters":12800,"station_id":"ce4bgt92rcd13ifvqcf0","pricing_plan_id":"cebpf4jnsgd1na2vs0mg"},{"bike_id":"34e00ae5-abab-4cf3-8865-f3ce326d98b4","system_id":"levelo_inurba_marseille","lat":43.30267,"lon":5.37732,"is_reserved":false,"is_disabled":false,"rental_uris":{"android":"levelo://app?vid=34e00ae5-abab-4cf3-8865-f3ce326d98b4","ios":"levelo://app?vid=34e00ae5-abab-4cf3-8865-f3ce326d98b4"},"vehicle_type_id":"4","last_reported":1747318253,"current_range_meters":12800,"station_id":"ce4bguh2rcd13ifvqcj0","pricing_plan_id":"cebpf4jnsgd1na2vs0mg"},{"bike_id":"c92edd87-5d00-48f0-93dd-63f0949546dd","system_id":"levelo_inurba_marseille","lat":43.28114,"lon":5.37834,"is_reserved":false,"is_disabled":false,"rental_uris":{"android":"levelo://app?vid=c92edd87-5d00-48f0-93dd-63f0949546dd","ios":"levelo://app?vid=c92edd87-5d00-48f0-93dd-63f0949546dd"},"vehicle_type_id":"4","last_reported":1747318253,"current_range_meters":12800,"station_id":"ce4bha12rcd13ifvqee0","pricing_plan_id":"cebpf4jnsgd1na2vs0mg"},{"bike_id":"ad6fbd15-9e18-4a67-aba5-84da0e66e9af","system_id":"levelo_inurba_marseille","lat":43.29008,"lon":5.35607,"is_reserved":false,"is_disabled":false,"rental_uris":{"android":"levelo://app?vid=ad6fbd15-9e18-4a67-aba5-84da0e66e9af","ios":"levelo://app?vid=ad6fbd15-9e18-4a67-aba5-84da0e66e9af"},"vehicle_type_id":"4","last_reported":1747318253,"current_range_meters":12800,"station_id":"ce4bhb92rcd13ifvqen0","pricing_plan_id":"cebpf4jnsgd1na2vs0mg"},{"bike_id":"e52494ed-992f-4886-99d5-0a13de980004","system_id":"levelo_inurba_marseille","lat":43.28427,"lon":5.34997,"is_reserved":false,"is_disabled":false,"rental_uris":{"android":"levelo://app?vid=e52494ed-992f-4886-99d5-0a13de980004","ios":"levelo://app?vid=e52494ed-992f-4886-99d5-0a13de980004"},"vehicle_type_id":"4","last_reported":1747318253,"current_range_meters":12800,"station_id":"ce4bhbh2rcd13ifvqepg","pricing_plan_id":"cebpf4jnsgd1na2vs0mg"},{"bike_id":"1ca372b2-144c-48a2-ac1f-4e82f694691e","system_id":"levelo_inurba_marseille","lat":43.2862,"lon":5.35115,"is_reserved":false,"is_disabled":false,"rental_uris":{"android":"levelo://app?vid=1ca372b2-144c-48a2-ac1f-4e82f694691e","ios":"levelo://app?vid=1ca372b2-144c-48a2-ac1f-4e82f694691e"},"vehicle_type_id":"4","last_reported":1747318253,"current_range_meters":12800,"station_id":"ce4bhch2rcd13ifvqeug","pricing_plan_id":"cebpf4jnsgd1na2vs0mg"},{"bike_id":"dc643886-ab96-41da-96d1-bd674f19bfdb","system_id":"levelo_inurba_marseille","lat":43.286177,"lon":5.350991,"is_reserved":false,"is_disabled":false,"rental_uris":{"android":"levelo://app?vid=dc643886-ab96-41da-96d1-bd674f19bfdb","ios":"levelo://app?vid=dc643886-ab96-41da-96d1-bd674f19bfdb"},"vehicle_type_id":"4","last_reported":1747318253,"current_range_meters":12800,"station_id":"ce4bhch2rcd13ifvqeug","pricing_plan_id":"cebpf4jnsgd1na2vs0mg"},{"bike_id":"7b349fa1-f9a2-4db0-b8d6-cf36567cac48","system_id":"levelo_inurba_marseille","lat":43.29534,"lon":5.38546,"is_reserved":false,"is_disabled":false,"rental_uris":{"android":"levelo://app?vid=7b349fa1-f9a2-4db0-b8d6-cf36567cac48","ios":"levelo://app?vid=7b349fa1-f9a2-4db0-b8d6-cf36567cac48"},"vehicle_type_id":"4","last_reported":1747318253,"current_range_meters":13600,"station_id":"ce4bgih2rcd13ifvqba0","pricing_plan_id":"cebpf4jnsgd1na2vs0mg"},{"bike_id":"29bfbd6d-353f-4675-92f2-1a076833bb0d","system_id":"levelo_inurba_marseille","lat":43.2957,"lon":5.39969,"is_reserved":false,"is_disabled":false,"rental_uris":{"android":"levelo://app?vid=29bfbd6d-353f-4675-92f2-1a076833bb0d","ios":"levelo://app?vid=29bfbd6d-353f-4675-92f2-1a076833bb0d"},"vehicle_type_id":"4","last_reported":1747318253,"current_range_meters":13600,"station_id":"ce4bh312rcd13ifvqdj0","pricing_plan_id":"cebpf4jnsgd1na2vs0mg"},{"bike_id":"aafd9813-2a6b-45bc-a2c2-3eaec8c1ed3a","system_id":"levelo_inurba_marseille","lat":43.2796,"lon":5.38707,"is_reserved":false,"is_disabled":false,"rental_uris":{"android":"levelo://app?vid=aafd9813-2a6b-45bc-a2c2-3eaec8c1ed3a","ios":"levelo://app?vid=aafd9813-2a6b-45bc-a2c2-3eaec8c1ed3a"},"vehicle_type_id":"4","last_reported":1747318253,"current_range_meters":13600,"station_id":"ce4bhg12rcd13ifvqf80","pricing_plan_id":"cebpf4jnsgd1na2vs0mg"},{"bike_id":"f2edfce7-1c9e-4558-8648-4edeedeca6c2","system_id":"levelo_inurba_marseille","lat":43.24408,"lon":5.37066,"is_reserved":false,"is_disabled":false,"rental_uris":{"android":"levelo://app?vid=f2edfce7-1c9e-4558-8648-4edeedeca6c2","ios":"levelo://app?vid=f2edfce7-1c9e-4558-8648-4edeedeca6c2"},"vehicle_type_id":"4","last_reported":1747318253,"current_range_meters":13600,"station_id":"ce4bhhh2rcd13ifvqfk0","pricing_plan_id":"cebpf4jnsgd1na2vs0mg"},{"bike_id":"f3d9f634-ae2a-4b28-8599-ad19a6b08b3b","system_id":"levelo_inurba_marseille","lat":43.23156,"lon":5.43704,"is_reserved":false,"is_disabled":false,"rental_uris":{"android":"levelo://app?vid=f3d9f634-ae2a-4b28-8599-ad19a6b08b3b","ios":"levelo://app?vid=f3d9f634-ae2a-4b28-8599-ad19a6b08b3b"},"vehicle_type_id":"4","last_reported":1747318253,"current_range_meters":13600,"station_id":"ce4bhmp2rcd13ifvqgog","pricing_plan_id":"cebpf4jnsgd1na2vs0mg"},{"bike_id":"24db4cee-c84f-4675-9250-c8dbae4d875d","system_id":"levelo_inurba_marseille","lat":43.27812,"lon":5.40737,"is_reserved":false,"is_disabled":false,"rental_uris":{"android":"levelo://app?vid=24db4cee-c84f-4675-9250-c8dbae4d875d","ios":"levelo://app?vid=24db4cee-c84f-4675-9250-c8dbae4d875d"},"vehicle_type_id":"4","last_reported":1747318253,"current_range_meters":13600,"station_id":"ce4bhnh2rcd13ifvqgtg","pricing_plan_id":"cebpf4jnsgd1na2vs0mg"},{"bike_id":"3f12ee05-0ded-40ff-a85a-21403a669324","system_id":"levelo_inurba_marseille","lat":43.302823,"lon":5.400699,"is_reserved":false,"is_disabled":false,"rental_uris":{"android":"levelo://app?vid=3f12ee05-0ded-40ff-a85a-21403a669324","ios":"levelo://app?vid=3f12ee05-0ded-40ff-a85a-21403a669324"},"vehicle_type_id":"4","last_reported":1747318253,"current_range_meters":14000,"station_id":"ce4bh012rcd13ifvqd10","pricing_plan_id":"cebpf4jnsgd1na2vs0mg"},{"bike_id":"b5c27aad-4126-454c-b0c1-6d6666321633","system_id":"levelo_inurba_marseille","lat":43.28044,"lon":5.36949,"is_reserved":false,"is_disabled":false,"rental_uris":{"android":"levelo://app?vid=b5c27aad-4126-454c-b0c1-6d6666321633","ios":"levelo://app?vid=b5c27aad-4126-454c-b0c1-6d6666321633"},"vehicle_type_id":"4","last_reported":1747318253,"current_range_meters":14000,"station_id":"ce4bha12rcd13ifvqef0","pricing_plan_id":"cebpf4jnsgd1na2vs0mg"},{"bike_id":"188ba4e8-d653-4788-8bd0-fa0e59b9fc23","system_id":"levelo_inurba_marseille","lat":43.26028,"lon":5.37549,"is_reserved":false,"is_disabled":false,"rental_uris":{"android":"levelo://app?vid=188ba4e8-d653-4788-8bd0-fa0e59b9fc23","ios":"levelo://app?vid=188ba4e8-d653-4788-8bd0-fa0e59b9fc23"},"vehicle_type_id":"4","last_reported":1747318253,"current_range_meters":14000,"station_id":"ce4bhgh2rcd13ifvqfa0","pricing_plan_id":"cebpf4jnsgd1na2vs0mg"},{"bike_id":"c1bba433-9a42-4334-9ed4-d3d41ee062fa","system_id":"levelo_inurba_marseille","lat":43.23191,"lon":5.39985,"is_reserved":false,"is_disabled":false,"rental_uris":{"android":"levelo://app?vid=c1bba433-9a42-4334-9ed4-d3d41ee062fa","ios":"levelo://app?vid=c1bba433-9a42-4334-9ed4-d3d41ee062fa"},"vehicle_type_id":"4","last_reported":1747318253,"current_range_meters":14000,"station_id":"ce4bhn12rcd13ifvqgqg","pricing_plan_id":"cebpf4jnsgd1na2vs0mg"},{"bike_id":"a949b9e7-5481-4332-a4e1-0b6f34f3838d","system_id":"levelo_inurba_marseille","lat":43.2862,"lon":5.37054,"is_reserved":false,"is_disabled":false,"rental_uris":{"android":"levelo://app?vid=a949b9e7-5481-4332-a4e1-0b6f34f3838d","ios":"levelo://app?vid=a949b9e7-5481-4332-a4e1-0b6f34f3838d"},"vehicle_type_id":"4","last_reported":1747318253,"current_range_meters":14000,"station_id":"ce4bht12rcd13ifvqi60","pricing_plan_id":"cebpf4jnsgd1na2vs0mg"},{"bike_id":"027f72d8-88c3-409a-9f83-3afde0954f18","system_id":"levelo_inurba_marseille","lat":43.30256,"lon":5.39685,"is_reserved":false,"is_disabled":false,"rental_uris":{"android":"levelo://app?vid=027f72d8-88c3-409a-9f83-3afde0954f18","ios":"levelo://app?vid=027f72d8-88c3-409a-9f83-3afde0954f18"},"vehicle_type_id":"4","last_reported":1747318253,"current_range_meters":14400,"station_id":"","pricing_plan_id":"cebpf4jnsgd1na2vs0mg"},{"bike_id":"692ce017-c926-4a97-8035-dbe48f0dc334","system_id":"levelo_inurba_marseille","lat":43.3108,"lon":5.38352,"is_reserved":false,"is_disabled":false,"rental_uris":{"android":"levelo://app?vid=692ce017-c926-4a97-8035-dbe48f0dc334","ios":"levelo://app?vid=692ce017-c926-4a97-8035-dbe48f0dc334"},"vehicle_type_id":"4","last_reported":1747318253,"current_range_meters":14400,"station_id":"ce4bgv92rcd13ifvqcr0","pricing_plan_id":"cebpf4jnsgd1na2vs0mg"},{"bike_id":"59576e81-0f19-4514-a47d-f8c875761719","system_id":"levelo_inurba_marseille","lat":43.28626,"lon":5.35098,"is_reserved":false,"is_disabled":false,"rental_uris":{"android":"levelo://app?vid=59576e81-0f19-4514-a47d-f8c875761719","ios":"levelo://app?vid=59576e81-0f19-4514-a47d-f8c875761719"},"vehicle_type_id":"4","last_reported":1747318253,"current_range_meters":14400,"station_id":"ce4bhch2rcd13ifvqeug","pricing_plan_id":"cebpf4jnsgd1na2vs0mg"},{"bike_id":"7dfac0e7-f231-47a1-a71f-c24c9cef445b","system_id":"levelo_inurba_marseille","lat":43.25582,"lon":5.38223,"is_reserved":false,"is_disabled":false,"rental_uris":{"android":"levelo://app?vid=7dfac0e7-f231-47a1-a71f-c24c9cef445b","ios":"levelo://app?vid=7dfac0e7-f231-47a1-a71f-c24c9cef445b"},"vehicle_type_id":"4","last_reported":1747318253,"current_range_meters":14400,"station_id":"ce4bhih2rcd13ifvqfs0","pricing_plan_id":"cebpf4jnsgd1na2vs0mg"},{"bike_id":"e2554f31-0f24-4054-affd-98c6ef92eb66","system_id":"levelo_inurba_marseille","lat":43.27836,"lon":5.39214,"is_reserved":false,"is_disabled":false,"rental_uris":{"android":"levelo://app?vid=e2554f31-0f24-4054-affd-98c6ef92eb66","ios":"levelo://app?vid=e2554f31-0f24-4054-affd-98c6ef92eb66"},"vehicle_type_id":"4","last_reported":1747318253,"current_range_meters":14400,"station_id":"ce4bhjp2rcd13ifvqga0","pricing_plan_id":"cebpf4jnsgd1na2vs0mg"},{"bike_id":"c3acc1e9-c036-4520-87a3-7e8466cee4e3","system_id":"levelo_inurba_marseille","lat":43.32471,"lon":5.36559,"is_reserved":false,"is_disabled":false,"rental_uris":{"android":"levelo://app?vid=c3acc1e9-c036-4520-87a3-7e8466cee4e3","ios":"levelo://app?vid=c3acc1e9-c036-4520-87a3-7e8466cee4e3"},"vehicle_type_id":"4","last_reported":1747318253,"current_range_meters":14400,"station_id":"ce4bhs12rcd13ifvqhvg","pricing_plan_id":"cebpf4jnsgd1na2vs0mg"},{"bike_id":"46eb5262-253e-493e-a508-3f8a71521800","system_id":"levelo_inurba_marseille","lat":43.28722,"lon":5.36095,"is_reserved":false,"is_disabled":false,"rental_uris":{"android":"levelo://app?vid=46eb5262-253e-493e-a508-3f8a71521800","ios":"levelo://app?vid=46eb5262-253e-493e-a508-3f8a71521800"},"vehicle_type_id":"4","last_reported":1747318253,"current_range_meters":14400,"station_id":"cki0cbj6b192h4jlfktg","pricing_plan_id":"cebpf4jnsgd1na2vs0mg"},{"bike_id":"e017b0ba-e27c-4a1b-a656-47af5e53b953","system_id":"levelo_inurba_marseille","lat":43.312201,"lon":5.368532,"is_reserved":false,"is_disabled":false,"rental_uris":{"android":"levelo://app?vid=e017b0ba-e27c-4a1b-a656-47af5e53b953","ios":"levelo://app?vid=e017b0ba-e27c-4a1b-a656-47af5e53b953"},"vehicle_type_id":"4","last_reported":1747318253,"current_range_meters":14800,"station_id":"ce4bgl92rcd13ifvqbq0","pricing_plan_id":"cebpf4jnsgd1na2vs0mg"},{"bike_id":"722c4ca1-cda2-4acb-b921-7ff705a166f1","system_id":"levelo_inurba_marseille","lat":43.29634,"lon":5.37164,"is_reserved":false,"is_disabled":false,"rental_uris":{"android":"levelo://app?vid=722c4ca1-cda2-4acb-b921-7ff705a166f1","ios":"levelo://app?vid=722c4ca1-cda2-4acb-b921-7ff705a166f1"},"vehicle_type_id":"4","last_reported":1747318253,"current_range_meters":14800,"station_id":"ce4bgnh2rcd13ifvqc0g","pricing_plan_id":"cebpf4jnsgd1na2vs0mg"},{"bike_id":"99e98fc7-a1e3-4b5e-8693-329cd94ced3a","system_id":"levelo_inurba_marseille","lat":43.30217,"lon":5.39475,"is_reserved":false,"is_disabled":false,"rental_uris":{"android":"levelo://app?vid=99e98fc7-a1e3-4b5e-8693-329cd94ced3a","ios":"levelo://app?vid=99e98fc7-a1e3-4b5e-8693-329cd94ced3a"},"vehicle_type_id":"4","last_reported":1747318253,"current_range_meters":14800,"station_id":"ce4bh0p2rcd13ifvqd70","pricing_plan_id":"cebpf4jnsgd1na2vs0mg"},{"bike_id":"f86bff49-f428-42a7-96af-ace44757dd4a","system_id":"levelo_inurba_marseille","lat":43.28423,"lon":5.34978,"is_reserved":false,"is_disabled":false,"rental_uris":{"android":"levelo://app?vid=f86bff49-f428-42a7-96af-ace44757dd4a","ios":"levelo://app?vid=f86bff49-f428-42a7-96af-ace44757dd4a"},"vehicle_type_id":"4","last_reported":1747318253,"current_range_meters":15200,"station_id":"","pricing_plan_id":"cebpf4jnsgd1na2vs0mg"},{"bike_id":"dd5422d6-53cb-49fb-8efb-b898f8501e90","system_id":"levelo_inurba_marseille","lat":43.27627,"lon":5.36125,"is_reserved":false,"is_disabled":false,"rental_uris":{"android":"levelo://app?vid=dd5422d6-53cb-49fb-8efb-b898f8501e90","ios":"levelo://app?vid=dd5422d6-53cb-49fb-8efb-b898f8501e90"},"vehicle_type_id":"4","last_reported":1747318253,"current_range_meters":15200,"station_id":"ce4bgj92rcd13ifvqbe0","pricing_plan_id":"cebpf4jnsgd1na2vs0mg"},{"bike_id":"b5c60298-27a5-4391-a64b-4c0c74f1e6b9","system_id":"levelo_inurba_marseille","lat":43.28494,"lon":5.38573,"is_reserved":false,"is_disabled":false,"rental_uris":{"android":"levelo://app?vid=b5c60298-27a5-4391-a64b-4c0c74f1e6b9","ios":"levelo://app?vid=b5c60298-27a5-4391-a64b-4c0c74f1e6b9"},"vehicle_type_id":"4","last_reported":1747318253,"current_range_meters":15200,"station_id":"ce4bh8p2rcd13ifvqeb0","pricing_plan_id":"cebpf4jnsgd1na2vs0mg"},{"bike_id":"57d11794-83e4-4d3f-918e-67334f06abb8","system_id":"levelo_inurba_marseille","lat":43.3254,"lon":5.41442,"is_reserved":false,"is_disabled":false,"rental_uris":{"android":"levelo://app?vid=57d11794-83e4-4d3f-918e-67334f06abb8","ios":"levelo://app?vid=57d11794-83e4-4d3f-918e-67334f06abb8"},"vehicle_type_id":"4","last_reported":1747318253,"current_range_meters":15200,"station_id":"ce4bhq12rcd13ifvqhhg","pricing_plan_id":"cebpf4jnsgd1na2vs0mg"},{"bike_id":"dfe9b575-db6b-45f1-a67e-07f7d2c4264b","system_id":"levelo_inurba_marseille","lat":43.30393,"lon":5.38892,"is_reserved":false,"is_disabled":false,"rental_uris":{"android":"levelo://app?vid=dfe9b575-db6b-45f1-a67e-07f7d2c4264b","ios":"levelo://app?vid=dfe9b575-db6b-45f1-a67e-07f7d2c4264b"},"vehicle_type_id":"4","last_reported":1747318253,"current_range_meters":16000,"station_id":"ce4bgk12rcd13ifvqbi0","pricing_plan_id":"cebpf4jnsgd1na2vs0mg"},{"bike_id":"9eb47228-acf7-4394-8e70-c0ebcfbb51fb","system_id":"levelo_inurba_marseille","lat":43.29714,"lon":5.36617,"is_reserved":false,"is_disabled":false,"rental_uris":{"android":"levelo://app?vid=9eb47228-acf7-4394-8e70-c0ebcfbb51fb","ios":"levelo://app?vid=9eb47228-acf7-4394-8e70-c0ebcfbb51fb"},"vehicle_type_id":"4","last_reported":1747318253,"current_range_meters":16000,"station_id":"ce4bgn12rcd13ifvqbt0","pricing_plan_id":"cebpf4jnsgd1na2vs0mg"},{"bike_id":"cd52ee78-b5e2-4f85-8c42-df67b71386c5","system_id":"levelo_inurba_marseille","lat":43.30873,"lon":5.36885,"is_reserved":false,"is_disabled":false,"rental_uris":{"android":"levelo://app?vid=cd52ee78-b5e2-4f85-8c42-df67b71386c5","ios":"levelo://app?vid=cd52ee78-b5e2-4f85-8c42-df67b71386c5"},"vehicle_type_id":"4","last_reported":1747318253,"current_range_meters":16000,"station_id":"ce4bgn92rcd13ifvqbvg","pricing_plan_id":"cebpf4jnsgd1na2vs0mg"},{"bike_id":"a994feca-e4db-49bd-8581-2ef0aac95cde","system_id":"levelo_inurba_marseille","lat":43.2869,"lon":5.37415,"is_reserved":false,"is_disabled":false,"rental_uris":{"android":"levelo://app?vid=a994feca-e4db-49bd-8581-2ef0aac95cde","ios":"levelo://app?vid=a994feca-e4db-49bd-8581-2ef0aac95cde"},"vehicle_type_id":"4","last_reported":1747318253,"current_range_meters":16000,"station_id":"ce4bh3p2rcd13ifvqdq0","pricing_plan_id":"cebpf4jnsgd1na2vs0mg"},{"bike_id":"0457c267-db07-4388-90c8-58a3104a3670","system_id":"levelo_inurba_marseille","lat":43.26787,"lon":5.39412,"is_reserved":false,"is_disabled":false,"rental_uris":{"android":"levelo://app?vid=0457c267-db07-4388-90c8-58a3104a3670","ios":"levelo://app?vid=0457c267-db07-4388-90c8-58a3104a3670"},"vehicle_type_id":"4","last_reported":1747318253,"current_range_meters":16000,"station_id":"ce4bhh12rcd13ifvqfg0","pricing_plan_id":"cebpf4jnsgd1na2vs0mg"},{"bike_id":"cdbd2e7d-fad9-4041-953e-6837aa2fd2b5","system_id":"levelo_inurba_marseille","lat":43.32365,"lon":5.38895,"is_reserved":false,"is_disabled":false,"rental_uris":{"android":"levelo://app?vid=cdbd2e7d-fad9-4041-953e-6837aa2fd2b5","ios":"levelo://app?vid=cdbd2e7d-fad9-4041-953e-6837aa2fd2b5"},"vehicle_type_id":"4","last_reported":1747318253,"current_range_meters":16000,"station_id":"ce4bhqp2rcd13ifvqhog","pricing_plan_id":"cebpf4jnsgd1na2vs0mg"},{"bike_id":"385c5680-aa17-4953-8596-7f0cb64e8bcd","system_id":"levelo_inurba_marseille","lat":43.32502,"lon":5.3657,"is_reserved":false,"is_disabled":false,"rental_uris":{"android":"levelo://app?vid=385c5680-aa17-4953-8596-7f0cb64e8bcd","ios":"levelo://app?vid=385c5680-aa17-4953-8596-7f0cb64e8bcd"},"vehicle_type_id":"4","last_reported":1747318253,"current_range_meters":16000,"station_id":"ce4bhs12rcd13ifvqhvg","pricing_plan_id":"cebpf4jnsgd1na2vs0mg"},{"bike_id":"00035553-d07b-4345-8427-d785e0554cb0","system_id":"levelo_inurba_marseille","lat":43.30653,"lon":5.40096,"is_reserved":false,"is_disabled":false,"rental_uris":{"android":"levelo://app?vid=00035553-d07b-4345-8427-d785e0554cb0","ios":"levelo://app?vid=00035553-d07b-4345-8427-d785e0554cb0"},"vehicle_type_id":"4","last_reported":1747318253,"current_range_meters":16400,"station_id":"ce4bh112rcd13ifvqda0","pricing_plan_id":"cebpf4jnsgd1na2vs0mg"},{"bike_id":"6a5ca72e-51de-4905-96e1-5bd7c7c37213","system_id":"levelo_inurba_marseille","lat":43.27374,"lon":5.36258,"is_reserved":false,"is_disabled":false,"rental_uris":{"android":"levelo://app?vid=6a5ca72e-51de-4905-96e1-5bd7c7c37213","ios":"levelo://app?vid=6a5ca72e-51de-4905-96e1-5bd7c7c37213"},"vehicle_type_id":"4","last_reported":1747318253,"current_range_meters":16400,"station_id":"ce4bhbh2rcd13ifvqeo0","pricing_plan_id":"cebpf4jnsgd1na2vs0mg"},{"bike_id":"f1a29317-f6c1-489f-afc4-4aea3a589d74","system_id":"levelo_inurba_marseille","lat":43.2861,"lon":5.351,"is_reserved":false,"is_disabled":false,"rental_uris":{"android":"levelo://app?vid=f1a29317-f6c1-489f-afc4-4aea3a589d74","ios":"levelo://app?vid=f1a29317-f6c1-489f-afc4-4aea3a589d74"},"vehicle_type_id":"4","last_reported":1747318253,"current_range_meters":16400,"station_id":"ce4bhch2rcd13ifvqeug","pricing_plan_id":"cebpf4jnsgd1na2vs0mg"},{"bike_id":"6d9f4590-c6fd-459b-97df-0ee4e11aedf8","system_id":"levelo_inurba_marseille","lat":43.32096,"lon":5.36801,"is_reserved":false,"is_disabled":false,"rental_uris":{"android":"levelo://app?vid=6d9f4590-c6fd-459b-97df-0ee4e11aedf8","ios":"levelo://app?vid=6d9f4590-c6fd-459b-97df-0ee4e11aedf8"},"vehicle_type_id":"4","last_reported":1747318253,"current_range_meters":16400,"station_id":"ce4bhrh2rcd13ifvqhug","pricing_plan_id":"cebpf4jnsgd1na2vs0mg"},{"bike_id":"389955d0-920a-4330-b358-0dafad8fd845","system_id":"levelo_inurba_marseille","lat":43.31273,"lon":5.36821,"is_reserved":false,"is_disabled":false,"rental_uris":{"android":"levelo://app?vid=389955d0-920a-4330-b358-0dafad8fd845","ios":"levelo://app?vid=389955d0-920a-4330-b358-0dafad8fd845"},"vehicle_type_id":"4","last_reported":1747318253,"current_range_meters":16800,"station_id":"","pricing_plan_id":"cebpf4jnsgd1na2vs0mg"},{"bike_id":"024fbeb4-79b0-4f9f-a1d2-5edc8a7a32d4","system_id":"levelo_inurba_marseille","lat":43.28857,"lon":5.35844,"is_reserved":false,"is_disabled":false,"rental_uris":{"android":"levelo://app?vid=024fbeb4-79b0-4f9f-a1d2-5edc8a7a32d4","ios":"levelo://app?vid=024fbeb4-79b0-4f9f-a1d2-5edc8a7a32d4"},"vehicle_type_id":"4","last_reported":1747318253,"current_range_meters":16800,"station_id":"ce4bhb12rcd13ifvqem0","pricing_plan_id":"cebpf4jnsgd1na2vs0mg"},{"bike_id":"6414c6d0-c577-4b00-8541-05cb008ccfad","system_id":"levelo_inurba_marseille","lat":43.28418,"lon":5.34993,"is_reserved":false,"is_disabled":false,"rental_uris":{"android":"levelo://app?vid=6414c6d0-c577-4b00-8541-05cb008ccfad","ios":"levelo://app?vid=6414c6d0-c577-4b00-8541-05cb008ccfad"},"vehicle_type_id":"4","last_reported":1747318253,"current_range_meters":16800,"station_id":"ce4bhbh2rcd13ifvqepg","pricing_plan_id":"cebpf4jnsgd1na2vs0mg"},{"bike_id":"0c37318f-eea0-4a4e-8e26-1d414a0bd7a2","system_id":"levelo_inurba_marseille","lat":43.24653,"lon":5.38912,"is_reserved":false,"is_disabled":false,"rental_uris":{"android":"levelo://app?vid=0c37318f-eea0-4a4e-8e26-1d414a0bd7a2","ios":"levelo://app?vid=0c37318f-eea0-4a4e-8e26-1d414a0bd7a2"},"vehicle_type_id":"4","last_reported":1747318253,"current_range_meters":16800,"station_id":"ce4bhg12rcd13ifvqf60","pricing_plan_id":"cebpf4jnsgd1na2vs0mg"},{"bike_id":"52d1638d-c01c-4b93-af74-56246a94d3de","system_id":"levelo_inurba_marseille","lat":43.27072,"lon":5.422747,"is_reserved":false,"is_disabled":false,"rental_uris":{"android":"levelo://app?vid=52d1638d-c01c-4b93-af74-56246a94d3de","ios":"levelo://app?vid=52d1638d-c01c-4b93-af74-56246a94d3de"},"vehicle_type_id":"4","last_reported":1747318253,"current_range_meters":16800,"station_id":"ce4bhk92rcd13ifvqgb0","pricing_plan_id":"cebpf4jnsgd1na2vs0mg"},{"bike_id":"7eabcfe4-4418-4b9d-b76d-5930654da7d6","system_id":"levelo_inurba_marseille","lat":43.26248,"lon":5.40486,"is_reserved":false,"is_disabled":false,"rental_uris":{"android":"levelo://app?vid=7eabcfe4-4418-4b9d-b76d-5930654da7d6","ios":"levelo://app?vid=7eabcfe4-4418-4b9d-b76d-5930654da7d6"},"vehicle_type_id":"4","last_reported":1747318253,"current_range_meters":16800,"station_id":"ce4bhmh2rcd13ifvqgmg","pricing_plan_id":"cebpf4jnsgd1na2vs0mg"},{"bike_id":"6d886103-344e-431a-ac80-7f62879d2f7c","system_id":"levelo_inurba_marseille","lat":43.22929,"lon":5.35377,"is_reserved":false,"is_disabled":false,"rental_uris":{"android":"levelo://app?vid=6d886103-344e-431a-ac80-7f62879d2f7c","ios":"levelo://app?vid=6d886103-344e-431a-ac80-7f62879d2f7c"},"vehicle_type_id":"4","last_reported":1747318253,"current_range_meters":16800,"station_id":"cpo3532slgdg3j2ikp40","pricing_plan_id":"cebpf4jnsgd1na2vs0mg"},{"bike_id":"24662577-69c7-4d84-a260-f2892b169180","system_id":"levelo_inurba_marseille","lat":43.21754,"lon":5.34601,"is_reserved":false,"is_disabled":false,"rental_uris":{"android":"levelo://app?vid=24662577-69c7-4d84-a260-f2892b169180","ios":"levelo://app?vid=24662577-69c7-4d84-a260-f2892b169180"},"vehicle_type_id":"4","last_reported":1747318253,"current_range_meters":16800,"station_id":"st_cvj6r9ubvosntc0bgbag","pricing_plan_id":"cebpf4jnsgd1na2vs0mg"},{"bike_id":"fd186cc3-1422-41bd-9ad5-a1f2df15ca6e","system_id":"levelo_inurba_marseille","lat":43.29518,"lon":5.39053,"is_reserved":false,"is_disabled":false,"rental_uris":{"android":"levelo://app?vid=fd186cc3-1422-41bd-9ad5-a1f2df15ca6e","ios":"levelo://app?vid=fd186cc3-1422-41bd-9ad5-a1f2df15ca6e"},"vehicle_type_id":"4","last_reported":1747318253,"current_range_meters":17200,"station_id":"ce4bh3p2rcd13ifvqdp0","pricing_plan_id":"cebpf4jnsgd1na2vs0mg"},{"bike_id":"8ad2880b-7c5e-411e-8966-eb6783f2031e","system_id":"levelo_inurba_marseille","lat":43.29034,"lon":5.38649,"is_reserved":false,"is_disabled":false,"rental_uris":{"android":"levelo://app?vid=8ad2880b-7c5e-411e-8966-eb6783f2031e","ios":"levelo://app?vid=8ad2880b-7c5e-411e-8966-eb6783f2031e"},"vehicle_type_id":"4","last_reported":1747318253,"current_range_meters":17200,"station_id":"ce4bh4p2rcd13ifvqe0g","pricing_plan_id":"cebpf4jnsgd1na2vs0mg"},{"bike_id":"5ff4d1f0-fd6c-490f-90cb-b565e4cf7abb","system_id":"levelo_inurba_marseille","lat":43.28868,"lon":5.35832,"is_reserved":false,"is_disabled":false,"rental_uris":{"android":"levelo://app?vid=5ff4d1f0-fd6c-490f-90cb-b565e4cf7abb","ios":"levelo://app?vid=5ff4d1f0-fd6c-490f-90cb-b565e4cf7abb"},"vehicle_type_id":"4","last_reported":1747318253,"current_range_meters":17200,"station_id":"ce4bhb12rcd13ifvqem0","pricing_plan_id":"cebpf4jnsgd1na2vs0mg"},{"bike_id":"7731b498-76fa-4e9d-a1cd-7f449dc33184","system_id":"levelo_inurba_marseille","lat":43.28621,"lon":5.35111,"is_reserved":false,"is_disabled":false,"rental_uris":{"android":"levelo://app?vid=7731b498-76fa-4e9d-a1cd-7f449dc33184","ios":"levelo://app?vid=7731b498-76fa-4e9d-a1cd-7f449dc33184"},"vehicle_type_id":"4","last_reported":1747318253,"current_range_meters":17200,"station_id":"ce4bhch2rcd13ifvqeug","pricing_plan_id":"cebpf4jnsgd1na2vs0mg"},{"bike_id":"dfc581cb-2c1c-4e0a-b581-051fb4a8c8a7","system_id":"levelo_inurba_marseille","lat":43.28109,"lon":5.37839,"is_reserved":false,"is_disabled":false,"rental_uris":{"android":"levelo://app?vid=dfc581cb-2c1c-4e0a-b581-051fb4a8c8a7","ios":"levelo://app?vid=dfc581cb-2c1c-4e0a-b581-051fb4a8c8a7"},"vehicle_type_id":"4","last_reported":1747318253,"current_range_meters":17600,"station_id":"ce4bha12rcd13ifvqee0","pricing_plan_id":"cebpf4jnsgd1na2vs0mg"},{"bike_id":"abe20812-6160-4ad4-a114-89bc6cb2bc23","system_id":"levelo_inurba_marseille","lat":43.25494,"lon":5.37668,"is_reserved":false,"is_disabled":false,"rental_uris":{"android":"levelo://app?vid=abe20812-6160-4ad4-a114-89bc6cb2bc23","ios":"levelo://app?vid=abe20812-6160-4ad4-a114-89bc6cb2bc23"},"vehicle_type_id":"4","last_reported":1747318253,"current_range_meters":17600,"station_id":"ce4bhh12rcd13ifvqff0","pricing_plan_id":"cebpf4jnsgd1na2vs0mg"},{"bike_id":"422a51ad-bcbc-41e5-a5aa-af5b15a22506","system_id":"levelo_inurba_marseille","lat":43.23963,"lon":5.36629,"is_reserved":false,"is_disabled":false,"rental_uris":{"android":"levelo://app?vid=422a51ad-bcbc-41e5-a5aa-af5b15a22506","ios":"levelo://app?vid=422a51ad-bcbc-41e5-a5aa-af5b15a22506"},"vehicle_type_id":"4","last_reported":1747318253,"current_range_meters":17600,"station_id":"ce4bhi12rcd13ifvqfp0","pricing_plan_id":"cebpf4jnsgd1na2vs0mg"},{"bike_id":"9c69e55b-3827-4551-aa71-02fc928cda04","system_id":"levelo_inurba_marseille","lat":43.32368,"lon":5.38884,"is_reserved":false,"is_disabled":false,"rental_uris":{"android":"levelo://app?vid=9c69e55b-3827-4551-aa71-02fc928cda04","ios":"levelo://app?vid=9c69e55b-3827-4551-aa71-02fc928cda04"},"vehicle_type_id":"4","last_reported":1747318253,"current_range_meters":17600,"station_id":"ce4bhqp2rcd13ifvqhog","pricing_plan_id":"cebpf4jnsgd1na2vs0mg"},{"bike_id":"27dab60f-6acc-4f1f-8ced-7ae492d0f387","system_id":"levelo_inurba_marseille","lat":43.30514,"lon":5.36556,"is_reserved":false,"is_disabled":false,"rental_uris":{"android":"levelo://app?vid=27dab60f-6acc-4f1f-8ced-7ae492d0f387","ios":"levelo://app?vid=27dab60f-6acc-4f1f-8ced-7ae492d0f387"},"vehicle_type_id":"4","last_reported":1747318253,"current_range_meters":18000,"station_id":"","pricing_plan_id":"cebpf4jnsgd1na2vs0mg"},{"bike_id":"bcc3f58e-bd68-4fa2-b219-a2c6acdf8f97","system_id":"levelo_inurba_marseille","lat":43.29628,"lon":5.37711,"is_reserved":false,"is_disabled":false,"rental_uris":{"android":"levelo://app?vid=bcc3f58e-bd68-4fa2-b219-a2c6acdf8f97","ios":"levelo://app?vid=bcc3f58e-bd68-4fa2-b219-a2c6acdf8f97"},"vehicle_type_id":"4","last_reported":1747318253,"current_range_meters":18000,"station_id":"ce4bgi92rcd13ifvqb90","pricing_plan_id":"cebpf4jnsgd1na2vs0mg"},{"bike_id":"228e4d6a-e038-4298-91d7-ef0db8977f42","system_id":"levelo_inurba_marseille","lat":43.27631,"lon":5.36108,"is_reserved":false,"is_disabled":false,"rental_uris":{"android":"levelo://app?vid=228e4d6a-e038-4298-91d7-ef0db8977f42","ios":"levelo://app?vid=228e4d6a-e038-4298-91d7-ef0db8977f42"},"vehicle_type_id":"4","last_reported":1747318253,"current_range_meters":18000,"station_id":"ce4bgj92rcd13ifvqbe0","pricing_plan_id":"cebpf4jnsgd1na2vs0mg"},{"bike_id":"44f8de94-69ad-4727-b41f-494cb8bac861","system_id":"levelo_inurba_marseille","lat":43.302778,"lon":5.37703,"is_reserved":false,"is_disabled":false,"rental_uris":{"android":"levelo://app?vid=44f8de94-69ad-4727-b41f-494cb8bac861","ios":"levelo://app?vid=44f8de94-69ad-4727-b41f-494cb8bac861"},"vehicle_type_id":"4","last_reported":1747318253,"current_range_meters":18000,"station_id":"ce4bguh2rcd13ifvqcj0","pricing_plan_id":"cebpf4jnsgd1na2vs0mg"},{"bike_id":"5b47fc8c-3496-4566-be9a-c62694c429be","system_id":"levelo_inurba_marseille","lat":43.27376,"lon":5.36259,"is_reserved":false,"is_disabled":false,"rental_uris":{"android":"levelo://app?vid=5b47fc8c-3496-4566-be9a-c62694c429be","ios":"levelo://app?vid=5b47fc8c-3496-4566-be9a-c62694c429be"},"vehicle_type_id":"4","last_reported":1747318253,"current_range_meters":18000,"station_id":"ce4bhbh2rcd13ifvqeo0","pricing_plan_id":"cebpf4jnsgd1na2vs0mg"},{"bike_id":"8937e58a-82bd-4181-b426-25cf9717cf13","system_id":"levelo_inurba_marseille","lat":43.28418,"lon":5.35,"is_reserved":false,"is_disabled":false,"rental_uris":{"android":"levelo://app?vid=8937e58a-82bd-4181-b426-25cf9717cf13","ios":"levelo://app?vid=8937e58a-82bd-4181-b426-25cf9717cf13"},"vehicle_type_id":"4","last_reported":1747318253,"current_range_meters":18000,"station_id":"ce4bhbh2rcd13ifvqepg","pricing_plan_id":"cebpf4jnsgd1na2vs0mg"},{"bike_id":"8c801b9f-3818-4ceb-9573-4499ff41234b","system_id":"levelo_inurba_marseille","lat":43.28424,"lon":5.34984,"is_reserved":false,"is_disabled":false,"rental_uris":{"android":"levelo://app?vid=8c801b9f-3818-4ceb-9573-4499ff41234b","ios":"levelo://app?vid=8c801b9f-3818-4ceb-9573-4499ff41234b"},"vehicle_type_id":"4","last_reported":1747318253,"current_range_meters":18000,"station_id":"ce4bhbh2rcd13ifvqepg","pricing_plan_id":"cebpf4jnsgd1na2vs0mg"},{"bike_id":"10e0193d-8711-4319-9e2c-a6efb8e6265f","system_id":"levelo_inurba_marseille","lat":43.308938,"lon":5.368552,"is_reserved":false,"is_disabled":false,"rental_uris":{"android":"levelo://app?vid=10e0193d-8711-4319-9e2c-a6efb8e6265f","ios":"levelo://app?vid=10e0193d-8711-4319-9e2c-a6efb8e6265f"},"vehicle_type_id":"4","last_reported":1747318253,"current_range_meters":18000,"station_id":"ce4bhbp2rcd13ifvqerg","pricing_plan_id":"cebpf4jnsgd1na2vs0mg"},{"bike_id":"5204b69c-6151-4857-a197-42c3958c07e1","system_id":"levelo_inurba_marseille","lat":43.24174,"lon":5.36396,"is_reserved":false,"is_disabled":false,"rental_uris":{"android":"levelo://app?vid=5204b69c-6151-4857-a197-42c3958c07e1","ios":"levelo://app?vid=5204b69c-6151-4857-a197-42c3958c07e1"},"vehicle_type_id":"4","last_reported":1747318253,"current_range_meters":18000,"station_id":"cpo36qri1sfpv3e86is0","pricing_plan_id":"cebpf4jnsgd1na2vs0mg"},{"bike_id":"2fcc4300-9147-4a4b-a12c-17076499c238","system_id":"levelo_inurba_marseille","lat":43.32574,"lon":5.41467,"is_reserved":false,"is_disabled":false,"rental_uris":{"android":"levelo://app?vid=2fcc4300-9147-4a4b-a12c-17076499c238","ios":"levelo://app?vid=2fcc4300-9147-4a4b-a12c-17076499c238"},"vehicle_type_id":"4","last_reported":1747318253,"current_range_meters":18800,"station_id":"","pricing_plan_id":"cebpf4jnsgd1na2vs0mg"},{"bike_id":"85ac1e09-a547-4368-b9c8-7d9e82f91ae0","system_id":"levelo_inurba_marseille","lat":43.2465,"lon":5.38888,"is_reserved":false,"is_disabled":false,"rental_uris":{"android":"levelo://app?vid=85ac1e09-a547-4368-b9c8-7d9e82f91ae0","ios":"levelo://app?vid=85ac1e09-a547-4368-b9c8-7d9e82f91ae0"},"vehicle_type_id":"4","last_reported":1747318253,"current_range_meters":18800,"station_id":"ce4bhg12rcd13ifvqf60","pricing_plan_id":"cebpf4jnsgd1na2vs0mg"},{"bike_id":"71061298-85e7-45bc-993b-630ac66b913f","system_id":"levelo_inurba_marseille","lat":43.26557,"lon":5.37285,"is_reserved":false,"is_disabled":false,"rental_uris":{"android":"levelo://app?vid=71061298-85e7-45bc-993b-630ac66b913f","ios":"levelo://app?vid=71061298-85e7-45bc-993b-630ac66b913f"},"vehicle_type_id":"4","last_reported":1747318253,"current_range_meters":18800,"station_id":"ce4bhg12rcd13ifvqf70","pricing_plan_id":"cebpf4jnsgd1na2vs0mg"},{"bike_id":"56b281eb-56cb-460f-8b8f-cf004e7b133c","system_id":"levelo_inurba_marseille","lat":43.26223,"lon":5.40458,"is_reserved":false,"is_disabled":false,"rental_uris":{"android":"levelo://app?vid=56b281eb-56cb-460f-8b8f-cf004e7b133c","ios":"levelo://app?vid=56b281eb-56cb-460f-8b8f-cf004e7b133c"},"vehicle_type_id":"4","last_reported":1747318253,"current_range_meters":18800,"station_id":"ce4bhmh2rcd13ifvqgmg","pricing_plan_id":"cebpf4jnsgd1na2vs0mg"},{"bike_id":"db77887e-0d96-4823-9d7a-29dcd7da204d","system_id":"levelo_inurba_marseille","lat":43.26243,"lon":5.40498,"is_reserved":false,"is_disabled":false,"rental_uris":{"android":"levelo://app?vid=db77887e-0d96-4823-9d7a-29dcd7da204d","ios":"levelo://app?vid=db77887e-0d96-4823-9d7a-29dcd7da204d"},"vehicle_type_id":"4","last_reported":1747318253,"current_range_meters":18800,"station_id":"ce4bhmh2rcd13ifvqgmg","pricing_plan_id":"cebpf4jnsgd1na2vs0mg"},{"bike_id":"180e10a7-ba2a-44a0-95b4-4567b94c2920","system_id":"levelo_inurba_marseille","lat":43.21762,"lon":5.34584,"is_reserved":false,"is_disabled":false,"rental_uris":{"android":"levelo://app?vid=180e10a7-ba2a-44a0-95b4-4567b94c2920","ios":"levelo://app?vid=180e10a7-ba2a-44a0-95b4-4567b94c2920"},"vehicle_type_id":"4","last_reported":1747318253,"current_range_meters":18800,"station_id":"st_cvj6r9ubvosntc0bgbag","pricing_plan_id":"cebpf4jnsgd1na2vs0mg"},{"bike_id":"c41e55e2-219f-4e4d-a7e9-f8432add1fee","system_id":"levelo_inurba_marseille","lat":43.30217,"lon":5.39466,"is_reserved":false,"is_disabled":false,"rental_uris":{"android":"levelo://app?vid=c41e55e2-219f-4e4d-a7e9-f8432add1fee","ios":"levelo://app?vid=c41e55e2-219f-4e4d-a7e9-f8432add1fee"},"vehicle_type_id":"4","last_reported":1747318253,"current_range_meters":19200,"station_id":"ce4bh0p2rcd13ifvqd70","pricing_plan_id":"cebpf4jnsgd1na2vs0mg"},{"bike_id":"1be4e196-8e72-442c-97d1-20912f272688","system_id":"levelo_inurba_marseille","lat":43.28714,"lon":5.3738,"is_reserved":false,"is_disabled":false,"rental_uris":{"android":"levelo://app?vid=1be4e196-8e72-442c-97d1-20912f272688","ios":"levelo://app?vid=1be4e196-8e72-442c-97d1-20912f272688"},"vehicle_type_id":"4","last_reported":1747318253,"current_range_meters":19200,"station_id":"ce4bh3p2rcd13ifvqdq0","pricing_plan_id":"cebpf4jnsgd1na2vs0mg"},{"bike_id":"1785bbb9-bc50-4115-94de-e51085438c6b","system_id":"levelo_inurba_marseille","lat":43.29009,"lon":5.356,"is_reserved":false,"is_disabled":false,"rental_uris":{"android":"levelo://app?vid=1785bbb9-bc50-4115-94de-e51085438c6b","ios":"levelo://app?vid=1785bbb9-bc50-4115-94de-e51085438c6b"},"vehicle_type_id":"4","last_reported":1747318253,"current_range_meters":19200,"station_id":"ce4bhb92rcd13ifvqen0","pricing_plan_id":"cebpf4jnsgd1na2vs0mg"},{"bike_id":"d8bd5318-7e58-4ee1-a3b5-5e611e957641","system_id":"levelo_inurba_marseille","lat":43.284119,"lon":5.349788,"is_reserved":false,"is_disabled":false,"rental_uris":{"android":"levelo://app?vid=d8bd5318-7e58-4ee1-a3b5-5e611e957641","ios":"levelo://app?vid=d8bd5318-7e58-4ee1-a3b5-5e611e957641"},"vehicle_type_id":"4","last_reported":1747318253,"current_range_meters":19200,"station_id":"ce4bhbh2rcd13ifvqepg","pricing_plan_id":"cebpf4jnsgd1na2vs0mg"},{"bike_id":"ae3e7447-8c6e-4add-b122-29bd45d83774","system_id":"levelo_inurba_marseille","lat":43.28272,"lon":5.35067,"is_reserved":false,"is_disabled":false,"rental_uris":{"android":"levelo://app?vid=ae3e7447-8c6e-4add-b122-29bd45d83774","ios":"levelo://app?vid=ae3e7447-8c6e-4add-b122-29bd45d83774"},"vehicle_type_id":"4","last_reported":1747318253,"current_range_meters":19200,"station_id":"ce4bhbp2rcd13ifvqerg","pricing_plan_id":"cebpf4jnsgd1na2vs0mg"},{"bike_id":"444a83ab-8534-4782-ba69-20c25ccaa8b0","system_id":"levelo_inurba_marseille","lat":43.26588,"lon":5.37305,"is_reserved":false,"is_disabled":false,"rental_uris":{"android":"levelo://app?vid=444a83ab-8534-4782-ba69-20c25ccaa8b0","ios":"levelo://app?vid=444a83ab-8534-4782-ba69-20c25ccaa8b0"},