{"last_updated":1683479087,"ttl":30,"version":"2.2","data":{"bikes":[{"bike_id":"bf750163-ed4e-4a3d-a2d5-faf9ba47780f","system_id":"levelo_inurba_marseille","lat":43.312239,"lon":5.368562,"is_reserved":false,"is_disabled":false,"rental_uris":{"android":"levelo://app?vid=bf750163-ed4e-4a3d-a2d5-faf9ba47780f","ios":"levelo://app?vid=bf750163-ed4e-4a3d-a2d5-faf9ba47780f"},"vehicle_type_id":"4","last_reported":1683479087,"current_range_meters":18400,"station_id":"ce4bgl92rcd13ifvqbq0","pricing_plan_id":"free"},{"bike_id":"6aa70344-77d6-4f5d-afa4-7ed704a0eff3","system_id":"levelo_inurba_marseille","lat":43.30929,"lon":5.37176,"is_reserved":false,"is_disabled":false,"rental_uris":{"android":"levelo://app?vid=6aa70344-77d6-4f5d-afa4-7ed704a0eff3","ios":"levelo://app?vid=6aa70344-77d6-4f5d-afa4-7ed704a0eff3"},"vehicle_type_id":"4","last_reported":1683479087,"current_range_meters":27600,"station_id":"","pricing_plan_id":"free"},{"bike_id":"06ed38b1-0f89-40b0-bcb9-615752f59dbf","system_id":"levelo_inurba_marseille","lat":43.314811,"lon":5.373103,"is_reserved":false,"is_disabled":false,"rental_uris":{"android":"levelo://app?vid=06ed38b1-0f89-40b0-bcb9-615752f59dbf","ios":"levelo://app?vid=06ed38b1-0f89-40b0-bcb9-615752f59dbf"},"vehicle_type_id":"4","last_reported":1683479087,"current_range_meters":6000,"station_id":"ce4bgt12rcd13ifvqcd0","pricing_plan_id":"free"},{"bike_id":"b26865df-cfb3-4717-b6d2-34de1182e49d","system_id":"levelo_inurba_marseille","lat":43.31502,"lon":5.373,"is_reserved":false,"is_disabled":false,"rental_uris":{"android":"levelo://app?vid=b26865df-cfb3-4717-b6d2-34de1182e49d","ios":"levelo://app?vid=b26865df-cfb3-4717-b6d2-34de1182e49d"},"vehicle_type_id":"4","last_reported":1683479087,"current_range_meters":0,"station_id":"ce4bgt12rcd13ifvqcd0","pricing_plan_id":"free"},{"bike_id":"58b4aede-57aa-4788-b0cf-88deb1694434","system_id":"levelo_inurba_marseille","lat":43.314811,"lon":5.373104,"is_reserved":false,"is_disabled":false,"rental_uris":{"android":"levelo://app?vid=58b4aede-57aa-4788-b0cf-88deb1694434","ios":"levelo://app?vid=58b4aede-57aa-4788-b0cf-88deb1694434"},"vehicle_type_id":"4","last_reported":1683479087,"current_range_meters":13200,"station_id":"ce4bgt12rcd13ifvqcd0","pricing_plan_id":"free"},{"bike_id":"92bb22a8-1114-4e04-9d71-5171dae5bb9d","system_id":"levelo_inurba_marseille","lat":43.30557,"lon":5.36528,"is_reserved":false,"is_disabled":false,"rental_uris":{"android":"levelo://app?vid=92bb22a8-1114-4e04-9d71-5171dae5bb9d","ios":"levelo://app?vid=92bb22a8-1114-4e04-9d71-5171dae5bb9d"},"vehicle_type_id":"4","last_reported":1683479087,"current_range_meters":9600,"station_id":"","pricing_plan_id":"free"},{"bike_id":"45a358dd-2884-4e04-9407-6aaa0418d7ce","system_id":"levelo_inurba_marseille","lat":43.305368,"lon":5.367343,"is_reserved":false,"is_disabled":false,"rental_uris":{"android":"levelo://app?vid=45a358dd-2884-4e04-9407-6aaa0418d7ce","ios":"levelo://app?vid=45a358dd-2884-4e04-9407-6aaa0418d7ce"},"vehicle_type_id":"4","last_reported":1683479087,"current_range_meters":9200,"station_id":"ce4bgrp2rcd13ifvqc9g","pricing_plan_id":"free"},{"bike_id":"5158e5d2-cdda-478b-93d0-0be2e52b934b","system_id":"levelo_inurba_marseille","lat":43.30539,"lon":5.36556,"is_reserved":false,"is_disabled":false,"rental_uris":{"android":"levelo://app?vid=5158e5d2-cdda-478b-93d0-0be2e52b934b","ios":"levelo://app?vid=5158e5d2-cdda-478b-93d0-0be2e52b934b"},"vehicle_type_id":"4","last_reported":1683479087,"current_range_meters":24000,"station_id":"","pricing_plan_id":"free"},{"bike_id":"7728ed04-474c-48e0-b016-0abf7b243898","system_id":"levelo_inurba_marseille","lat":43.30537,"lon":5.367345,"is_reserved":false,"is_disabled":false,"rental_uris":{"android":"levelo://app?vid=7728ed04-474c-48e0-b016-0abf7b243898","ios":"levelo://app?vid=7728ed04-474c-48e0-b016-0abf7b243898"},"vehicle_type_id":"4","last_reported":1683479087,"current_range_meters":16000,"station_id":"ce4bgrp2rcd13ifvqc9g","pricing_plan_id":"free"},{"bike_id":"c4e422e1-0871-492e-acf9-f1822d6017c4","system_id":"levelo_inurba_marseille","lat":43.30537,"lon":5.36554,"is_reserved":false,"is_disabled":false,"rental_uris":{"android":"levelo://app?vid=c4e422e1-0871-492e-acf9-f1822d6017c4","ios":"levelo://app?vid=c4e422e1-0871-492e-acf9-f1822d6017c4"},"vehicle_type_id":"4","last_reported":1683479087,"current_range_meters":17200,"station_id":"","pricing_plan_id":"free"},{"bike_id":"d6ebe701-7b76-4745-be6b-ae839b6e3533","system_id":"levelo_inurba_marseille","lat":43.317075,"lon":5.377367,"is_reserved":false,"is_disabled":false,"rental_uris":{"android":"levelo://app?vid=d6ebe701-7b76-4745-be6b-ae839b6e3533","ios":"levelo://app?vid=d6ebe701-7b76-4745-be6b-ae839b6e3533"},"vehicle_type_id":"4","last_reported":1683479087,"current_range_meters":11200,"station_id":"ce4bgth2rcd13ifvqch0","pricing_plan_id":"free"},{"bike_id":"8fe93a71-3044-4672-9c31-ed30f8faffb3","system_id":"levelo_inurba_marseille","lat":43.317075,"lon":5.377367,"is_reserved":false,"is_disabled":false,"rental_uris":{"android":"levelo://app?vid=8fe93a71-3044-4672-9c31-ed30f8faffb3","ios":"levelo://app?vid=8fe93a71-3044-4672-9c31-ed30f8faffb3"},"vehicle_type_id":"4","last_reported":1683479087,"current_range_meters":31200,"station_id":"ce4bgth2rcd13ifvqch0","pricing_plan_id":"free"},{"bike_id":"243d58c6-677a-4ef5-ac10-1ca5621449fc","system_id":"levelo_inurba_marseille","lat":43.30316,"lon":5.36453,"is_reserved":false,"is_disabled":false,"rental_uris":{"android":"levelo://app?vid=243d58c6-677a-4ef5-ac10-1ca5621449fc","ios":"levelo://app?vid=243d58c6-677a-4ef5-ac10-1ca5621449fc"},"vehicle_type_id":"4","last_reported":1683479087,"current_range_meters":13600,"station_id":"","pricing_plan_id":"free"},{"bike_id":"692000ec-1c47-4f61-8295-ce4843d14735","system_id":"levelo_inurba_marseille","lat":43.30195,"lon":5.36645,"is_reserved":false,"is_disabled":false,"rental_uris":{"android":"levelo://app?vid=692000ec-1c47-4f61-8295-ce4843d14735","ios":"levelo://app?vid=692000ec-1c47-4f61-8295-ce4843d14735"},"vehicle_type_id":"4","last_reported":1683479087,"current_range_meters":30400,"station_id":"ce4bgrh2rcd13ifvqc8g","pricing_plan_id":"free"},{"bike_id":"035a2b0a-a8a2-4479-8d2e-5d9516213b51","system_id":"levelo_inurba_marseille","lat":43.31602,"lon":5.38184,"is_reserved":false,"is_disabled":false,"rental_uris":{"android":"levelo://app?vid=035a2b0a-a8a2-4479-8d2e-5d9516213b51","ios":"levelo://app?vid=035a2b0a-a8a2-4479-8d2e-5d9516213b51"},"vehicle_type_id":"4","last_reported":1683479087,"current_range_meters":9200,"station_id":"","pricing_plan_id":"free"},{"bike_id":"f1fa1cb9-b53b-464a-becd-a8a316658b88","system_id":"levelo_inurba_marseille","lat":43.313571,"lon":5.384829,"is_reserved":false,"is_disabled":false,"rental_uris":{"android":"levelo://app?vid=f1fa1cb9-b53b-464a-becd-a8a316658b88","ios":"levelo://app?vid=f1fa1cb9-b53b-464a-becd-a8a316658b88"},"vehicle_type_id":"4","last_reported":1683479087,"current_range_meters":5600,"station_id":"ce4bgt92rcd13ifvqcf0","pricing_plan_id":"free"},{"bike_id":"d7bf14f4-dbf3-4c4e-99f9-b62e9ae98b8e","system_id":"levelo_inurba_marseille","lat":43.31371,"lon":5.38519,"is_reserved":false,"is_disabled":false,"rental_uris":{"android":"levelo://app?vid=d7bf14f4-dbf3-4c4e-99f9-b62e9ae98b8e","ios":"levelo://app?vid=d7bf14f4-dbf3-4c4e-99f9-b62e9ae98b8e"},"vehicle_type_id":"4","last_reported":1683479087,"current_range_meters":20800,"station_id":"","pricing_plan_id":"free"},{"bike_id":"46362dec-2c07-4448-8962-917bbc5c8ab8","system_id":"levelo_inurba_marseille","lat":43.299222,"lon":5.365554,"is_reserved":false,"is_disabled":false,"rental_uris":{"android":"levelo://app?vid=46362dec-2c07-4448-8962-917bbc5c8ab8","ios":"levelo://app?vid=46362dec-2c07-4448-8962-917bbc5c8ab8"},"vehicle_type_id":"4","last_reported":1683479087,"current_range_meters":2800,"station_id":"ce4bgm92rcd13ifvqbr0","pricing_plan_id":"free"},{"bike_id":"274adced-8962-4e60-b3b5-ca9001d8c715","system_id":"levelo_inurba_marseille","lat":43.299222,"lon":5.365554,"is_reserved":false,"is_disabled":false,"rental_uris":{"android":"levelo://app?vid=274adced-8962-4e60-b3b5-ca9001d8c715","ios":"levelo://app?vid=274adced-8962-4e60-b3b5-ca9001d8c715"},"vehicle_type_id":"4","last_reported":1683479087,"current_range_meters":4800,"station_id":"ce4bgm92rcd13ifvqbr0","pricing_plan_id":"free"},{"bike_id":"6f88a1d8-9f44-4802-b70e-ae60589b82fe","system_id":"levelo_inurba_marseille","lat":43.299222,"lon":5.365554,"is_reserved":false,"is_disabled":false,"rental_uris":{"android":"levelo://app?vid=6f88a1d8-9f44-4802-b70e-ae60589b82fe","ios":"levelo://app?vid=6f88a1d8-9f44-4802-b70e-ae60589b82fe"},"vehicle_type_id":"4","last_reported":1683479087,"current_range_meters":12800,"station_id":"ce4bgm92rcd13ifvqbr0","pricing_plan_id":"free"},{"bike_id":"31381510-ad68-4226-aa10-5feb2cd8bb2b","system_id":"levelo_inurba_marseille","lat":43.29857,"lon":5.36284,"is_reserved":false,"is_disabled":false,"rental_uris":{"android":"levelo://app?vid=31381510-ad68-4226-aa10-5feb2cd8bb2b","ios":"levelo://app?vid=31381510-ad68-4226-aa10-5feb2cd8bb2b"},"vehicle_type_id":"4","last_reported":1683479087,"current_range_meters":4800,"station_id":"ce4bgpp2rcd13ifvqc3g","pricing_plan_id":"free"},{"bike_id":"e1a17a44-fc19-4f6b-be06-5ed07149bb6b","system_id":"levelo_inurba_marseille","lat":43.298433,"lon":5.362774,"is_reserved":false,"is_disabled":false,"rental_uris":{"android":"levelo://app?vid=e1a17a44-fc19-4f6b-be06-5ed07149bb6b","ios":"levelo://app?vid=e1a17a44-fc19-4f6b-be06-5ed07149bb6b"},"vehicle_type_id":"4","last_reported":1683479087,"current_range_meters":8000,"station_id":"ce4bgpp2rcd13ifvqc3g","pricing_plan_id":"free"},{"bike_id":"6b7b907e-0637-485a-b522-7d98610fba15","system_id":"levelo_inurba_marseille","lat":43.298433,"lon":5.362774,"is_reserved":false,"is_disabled":false,"rental_uris":{"android":"levelo://app?vid=6b7b907e-0637-485a-b522-7d98610fba15","ios":"levelo://app?vid=6b7b907e-0637-485a-b522-7d98610fba15"},"vehicle_type_id":"4","last_reported":1683479087,"current_range_meters":25200,"station_id":"ce4bgpp2rcd13ifvqc3g","pricing_plan_id":"free"},{"bike_id":"eb8fd943-b2f7-4059-93e0-661d265d371a","system_id":"levelo_inurba_marseille","lat":43.298433,"lon":5.362774,"is_reserved":false,"is_disabled":false,"rental_uris":{"android":"levelo://app?vid=eb8fd943-b2f7-4059-93e0-661d265d371a","ios":"levelo://app?vid=eb8fd943-b2f7-4059-93e0-661d265d371a"},"vehicle_type_id":"4","last_reported":1683479087,"current_range_meters":27200,"station_id":"ce4bgpp2rcd13ifvqc3g","pricing_plan_id":"free"},{"bike_id":"a2469274-11fe-4c3f-825a-b4f3f5570162","system_id":"levelo_inurba_marseille","lat":43.299243,"lon":5.374807,"is_reserved":false,"is_disabled":false,"rental_uris":{"android":"levelo://app?vid=a2469274-11fe-4c3f-825a-b4f3f5570162","ios":"levelo://app?vid=a2469274-11fe-4c3f-825a-b4f3f5570162"},"vehicle_type_id":"4","last_reported":1683479087,"current_range_meters":2000,"station_id":"ce4bgjh2rcd13ifvqbg0","pricing_plan_id":"free"},{"bike_id":"2d414d74-2528-407c-95bc-0a3ae1999ea7","system_id":"levelo_inurba_marseille","lat":43.299243,"lon":5.37481,"is_reserved":false,"is_disabled":false,"rental_uris":{"android":"levelo://app?vid=2d414d74-2528-407c-95bc-0a3ae1999ea7","ios":"levelo://app?vid=2d414d74-2528-407c-95bc-0a3ae1999ea7"},"vehicle_type_id":"4","last_reported":1683479087,"current_range_meters":0,"station_id":"ce4bgjh2rcd13ifvqbg0","pricing_plan_id":"free"},{"bike_id":"85f72d0e-9e59-474f-899f-ef26c3b782ce","system_id":"levelo_inurba_marseille","lat":43.297794,"lon":5.370888,"is_reserved":false,"is_disabled":false,"rental_uris":{"android":"levelo://app?vid=85f72d0e-9e59-474f-899f-ef26c3b782ce","ios":"levelo://app?vid=85f72d0e-9e59-474f-899f-ef26c3b782ce"},"vehicle_type_id":"4","last_reported":1683479087,"current_range_meters":2400,"station_id":"ce4bgop2rcd13ifvqc1g","pricing_plan_id":"free"},{"bike_id":"aafcc005-5e38-4c52-a10d-6d0f89f0012b","system_id":"levelo_inurba_marseille","lat":43.302008,"lon":5.394694,"is_reserved":false,"is_disabled":false,"rental_uris":{"android":"levelo://app?vid=aafcc005-5e38-4c52-a10d-6d0f89f0012b","ios":"levelo://app?vid=aafcc005-5e38-4c52-a10d-6d0f89f0012b"},"vehicle_type_id":"4","last_reported":1683479087,"current_range_meters":0,"station_id":"ce4bh0p2rcd13ifvqd70","pricing_plan_id":"free"},{"bike_id":"c6957428-286f-46b4-9280-e91069644499","system_id":"levelo_inurba_marseille","lat":43.29623,"lon":5.37164,"is_reserved":false,"is_disabled":false,"rental_uris":{"android":"levelo://app?vid=c6957428-286f-46b4-9280-e91069644499","ios":"levelo://app?vid=c6957428-286f-46b4-9280-e91069644499"},"vehicle_type_id":"4","last_reported":1683479087,"current_range_meters":2400,"station_id":"","pricing_plan_id":"free"},{"bike_id":"3cd658ea-b86d-4709-ab76-f6a825f3a270","system_id":"levelo_inurba_marseille","lat":43.29622,"lon":5.37172,"is_reserved":false,"is_disabled":false,"rental_uris":{"android":"levelo://app?vid=3cd658ea-b86d-4709-ab76-f6a825f3a270","ios":"levelo://app?vid=3cd658ea-b86d-4709-ab76-f6a825f3a270"},"vehicle_type_id":"4","last_reported":1683479087,"current_range_meters":8000,"station_id":"","pricing_plan_id":"free"},{"bike_id":"60eb9779-5c18-45a7-b2fb-cfc6935946f5","system_id":"levelo_inurba_marseille","lat":43.299028,"lon":5.381509,"is_reserved":false,"is_disabled":false,"rental_uris":{"android":"levelo://app?vid=60eb9779-5c18-45a7-b2fb-cfc6935946f5","ios":"levelo://app?vid=60eb9779-5c18-45a7-b2fb-cfc6935946f5"},"vehicle_type_id":"4","last_reported":1683479087,"current_range_meters":19600,"station_id":"ce4bgj12rcd13ifvqbc0","pricing_plan_id":"free"},{"bike_id":"08e01b12-f769-4122-90ac-e11b88e25dde","system_id":"levelo_inurba_marseille","lat":43.299028,"lon":5.381509,"is_reserved":false,"is_disabled":false,"rental_uris":{"android":"levelo://app?vid=08e01b12-f769-4122-90ac-e11b88e25dde","ios":"levelo://app?vid=08e01b12-f769-4122-90ac-e11b88e25dde"},"vehicle_type_id":"4","last_reported":1683479087,"current_range_meters":18400,"station_id":"ce4bgj12rcd13ifvqbc0","pricing_plan_id":"free"},{"bike_id":"1646eeb6-7ee2-48fa-9bfd-5be584d429b3","system_id":"levelo_inurba_marseille","lat":43.299028,"lon":5.381509,"is_reserved":false,"is_disabled":false,"rental_uris":{"android":"levelo://app?vid=1646eeb6-7ee2-48fa-9bfd-5be584d429b3","ios":"levelo://app?vid=1646eeb6-7ee2-48fa-9bfd-5be584d429b3"},"vehicle_type_id":"4","last_reported":1683479087,"current_range_meters":24000,"station_id":"ce4bgj12rcd13ifvqbc0","pricing_plan_id":"free"},{"bike_id":"a09d37b7-041e-4a25-96df-3c574e2b06ba","system_id":"levelo_inurba_marseille","lat":43.296935,"lon":5.376544,"is_reserved":false,"is_disabled":false,"rental_uris":{"android":"levelo://app?vid=a09d37b7-041e-4a25-96df-3c574e2b06ba","ios":"levelo://app?vid=a09d37b7-041e-4a25-96df-3c574e2b06ba"},"vehicle_type_id":"4","last_reported":1683479087,"current_range_meters":16400,"station_id":"ce4bgkh2rcd13ifvqbl0","pricing_plan_id":"free"},{"bike_id":"676eb869-ac70-4b02-9719-40deaaecb4a1","system_id":"levelo_inurba_marseille","lat":43.299028,"lon":5.381509,"is_reserved":false,"is_disabled":false,"rental_uris":{"android":"levelo://app?vid=676eb869-ac70-4b02-9719-40deaaecb4a1","ios":"levelo://app?vid=676eb869-ac70-4b02-9719-40deaaecb4a1"},"vehicle_type_id":"4","last_reported":1683479087,"current_range_meters":14400,"station_id":"ce4bgj12rcd13ifvqbc0","pricing_plan_id":"free"},{"bike_id":"5f0f6171-d9df-4b4f-b01d-a763a8803bbd","system_id":"levelo_inurba_marseille","lat":43.309589,"lon":5.390258,"is_reserved":false,"is_disabled":false,"rental_uris":{"android":"levelo://app?vid=5f0f6171-d9df-4b4f-b01d-a763a8803bbd","ios":"levelo://app?vid=5f0f6171-d9df-4b4f-b01d-a763a8803bbd"},"vehicle_type_id":"4","last_reported":1683479087,"current_range_meters":7200,"station_id":"ce4bgup2rcd13ifvqco0","pricing_plan_id":"free"},{"bike_id":"adf9cf17-0a5b-46de-bc19-8a4ad829a6c3","system_id":"levelo_inurba_marseille","lat":43.309589,"lon":5.390258,"is_reserved":false,"is_disabled":false,"rental_uris":{"android":"levelo://app?vid=adf9cf17-0a5b-46de-bc19-8a4ad829a6c3","ios":"levelo://app?vid=adf9cf17-0a5b-46de-bc19-8a4ad829a6c3"},"vehicle_type_id":"4","last_reported":1683479087,"current_range_meters":6000,"station_id":"ce4bgup2rcd13ifvqco0","pricing_plan_id":"free"},{"bike_id":"24b5fc72-f976-478b-8afa-e5d4083531f2","system_id":"levelo_inurba_marseille","lat":43.296921,"lon":5.376579,"is_reserved":false,"is_disabled":false,"rental_uris":{"android":"levelo://app?vid=24b5fc72-f976-478b-8afa-e5d4083531f2","ios":"levelo://app?vid=24b5fc72-f976-478b-8afa-e5d4083531f2"},"vehicle_type_id":"4","last_reported":1683479087,"current_range_meters":6400,"station_id":"ce4bgkh2rcd13ifvqbl0","pricing_plan_id":"free"},{"bike_id":"52116f25-01c1-4008-b0b4-390a1c0fc736","system_id":"levelo_inurba_marseille","lat":43.309589,"lon":5.390258,"is_reserved":false,"is_disabled":false,"rental_uris":{"android":"levelo://app?vid=52116f25-01c1-4008-b0b4-390a1c0fc736","ios":"levelo://app?vid=52116f25-01c1-4008-b0b4-390a1c0fc736"},"vehicle_type_id":"4","last_reported":1683479087,"current_range_meters":28000,"station_id":"ce4bgup2rcd13ifvqco0","pricing_plan_id":"free"},{"bike_id":"20e691de-7b23-4aeb-913d-d97ee31003b6","system_id":"levelo_inurba_marseille","lat":43.309589,"lon":5.390258,"is_reserved":false,"is_disabled":false,"rental_uris":{"android":"levelo://app?vid=20e691de-7b23-4aeb-913d-d97ee31003b6","ios":"levelo://app?vid=20e691de-7b23-4aeb-913d-d97ee31003b6"},"vehicle_type_id":"4","last_reported":1683479087,"current_range_meters":8000,"station_id":"ce4bgup2rcd13ifvqco0","pricing_plan_id":"free"},{"bike_id":"d3e495e3-ae12-4c3d-bd88-31682144c563","system_id":"levelo_inurba_marseille","lat":43.317557,"lon":5.390173,"is_reserved":false,"is_disabled":false,"rental_uris":{"android":"levelo://app?vid=d3e495e3-ae12-4c3d-bd88-31682144c563","ios":"levelo://app?vid=d3e495e3-ae12-4c3d-bd88-31682144c563"},"vehicle_type_id":"4","last_reported":1683479087,"current_range_meters":30000,"station_id":"ce4bhqp2rcd13ifvqhng","pricing_plan_id":"free"},{"bike_id":"5e26388f-afcc-4ebc-9b1c-d20adac7f39a","system_id":"levelo_inurba_marseille","lat":43.317557,"lon":5.390173,"is_reserved":false,"is_disabled":false,"rental_uris":{"android":"levelo://app?vid=5e26388f-afcc-4ebc-9b1c-d20adac7f39a","ios":"levelo://app?vid=5e26388f-afcc-4ebc-9b1c-d20adac7f39a"},"vehicle_type_id":"4","last_reported":1683479087,"current_range_meters":29200,"station_id":"ce4bhqp2rcd13ifvqhng","pricing_plan_id":"free"},{"bike_id":"f08733ad-a319-4372-a7a6-c6249a61033f","system_id":"levelo_inurba_marseille","lat":43.317557,"lon":5.390173,"is_reserved":false,"is_disabled":false,"rental_uris":{"android":"levelo://app?vid=f08733ad-a319-4372-a7a6-c6249a61033f","ios":"levelo://app?vid=f08733ad-a319-4372-a7a6-c6249a61033f"},"vehicle_type_id":"4","last_reported":1683479087,"current_range_meters":31200,"station_id":"ce4bhqp2rcd13ifvqhng","pricing_plan_id":"free"},{"bike_id":"527d635a-e2d6-4a28-9072-6d43a7adf644","system_id":"levelo_inurba_marseille","lat":43.304278,"lon":5.388868,"is_reserved":false,"is_disabled":false,"rental_uris":{"android":"levelo://app?vid=527d635a-e2d6-4a28-9072-6d43a7adf644","ios":"levelo://app?vid=527d635a-e2d6-4a28-9072-6d43a7adf644"},"vehicle_type_id":"4","last_reported":1683479087,"current_range_meters":16400,"station_id":"ce4bgk12rcd13ifvqbi0","pricing_plan_id":"free"},{"bike_id":"12478e5b-139f-4f8d-b6c0-643c260ca749","system_id":"levelo_inurba_marseille","lat":43.304278,"lon":5.388868,"is_reserved":false,"is_disabled":false,"rental_uris":{"android":"levelo://app?vid=12478e5b-139f-4f8d-b6c0-643c260ca749","ios":"levelo://app?vid=12478e5b-139f-4f8d-b6c0-643c260ca749"},"vehicle_type_id":"4","last_reported":1683479087,"current_range_meters":1200,"station_id":"ce4bgk12rcd13ifvqbi0","pricing_plan_id":"free"},{"bike_id":"45dc6720-6127-4be0-be7a-e5457a868d98","system_id":"levelo_inurba_marseille","lat":43.296277,"lon":5.377108,"is_reserved":false,"is_disabled":false,"rental_uris":{"android":"levelo://app?vid=45dc6720-6127-4be0-be7a-e5457a868d98","ios":"levelo://app?vid=45dc6720-6127-4be0-be7a-e5457a868d98"},"vehicle_type_id":"4","last_reported":1683479087,"current_range_meters":5600,"station_id":"ce4bgi92rcd13ifvqb90","pricing_plan_id":"free"},{"bike_id":"1dd72155-2cd8-430d-aa14-e88fdd35ff9f","system_id":"levelo_inurba_marseille","lat":43.296277,"lon":5.377108,"is_reserved":false,"is_disabled":false,"rental_uris":{"android":"levelo://app?vid=1dd72155-2cd8-430d-aa14-e88fdd35ff9f","ios":"levelo://app?vid=1dd72155-2cd8-430d-aa14-e88fdd35ff9f"},"vehicle_type_id":"4","last_reported":1683479087,"current_range_meters":12000,"station_id":"ce4bgi92rcd13ifvqb90","pricing_plan_id":"free"},{"bike_id":"39e8d073-e542-47ed-90ec-0e3d8e8f77fb","system_id":"levelo_inurba_marseille","lat":43.296263,"lon":5.377094,"is_reserved":false,"is_disabled":false,"rental_uris":{"android":"levelo://app?vid=39e8d073-e542-47ed-90ec-0e3d8e8f77fb","ios":"levelo://app?vid=39e8d073-e542-47ed-90ec-0e3d8e8f77fb"},"vehicle_type_id":"4","last_reported":1683479087,"current_range_meters":0,"station_id":"ce4bgi92rcd13ifvqb90","pricing_plan_id":"free"},{"bike_id":"75c5f722-1935-47a1-9498-b243eb1907ab","system_id":"levelo_inurba_marseille","lat":43.296277,"lon":5.377108,"is_reserved":false,"is_disabled":false,"rental_uris":{"android":"levelo://app?vid=75c5f722-1935-47a1-9498-b243eb1907ab","ios":"levelo://app?vid=75c5f722-1935-47a1-9498-b243eb1907ab"},"vehicle_type_id":"4","last_reported":1683479087,"current_range_meters":15600,"station_id":"ce4bgi92rcd13ifvqb90","pricing_plan_id":"free"},{"bike_id":"f0dc33fc-4160-4f1d-880a-753268c90ffa","system_id":"levelo_inurba_marseille","lat":43.296277,"lon":5.377108,"is_reserved":false,"is_disabled":false,"rental_uris":{"android":"levelo://app?vid=f0dc33fc-4160-4f1d-880a-753268c90ffa","ios":"levelo://app?vid=f0dc33fc-4160-4f1d-880a-753268c90ffa"},"vehicle_type_id":"4","last_reported":1683479087,"current_range_meters":21200,"station_id":"ce4bgi92rcd13ifvqb90","pricing_plan_id":"free"},{"bike_id":"52a8a752-752b-4d18-bc09-4de48fb03167","system_id":"levelo_inurba_marseille","lat":43.29981,"lon":5.385,"is_reserved":false,"is_disabled":false,"rental_uris":{"android":"levelo://app?vid=52a8a752-752b-4d18-bc09-4de48fb03167","ios":"levelo://app?vid=52a8a752-752b-4d18-bc09-4de48fb03167"},"vehicle_type_id":"4","last_reported":1683479087,"current_range_meters":16000,"station_id":"ce4bgj92rcd13ifvqbd0","pricing_plan_id":"free"},{"bike_id":"cb0f6d65-6a7e-42b3-934b-3c69e8c3f2f4","system_id":"levelo_inurba_marseille","lat":43.29972,"lon":5.38494,"is_reserved":false,"is_disabled":false,"rental_uris":{"android":"levelo://app?vid=cb0f6d65-6a7e-42b3-934b-3c69e8c3f2f4","ios":"levelo://app?vid=cb0f6d65-6a7e-42b3-934b-3c69e8c3f2f4"},"vehicle_type_id":"4","last_reported":1683479087,"current_range_meters":1600,"station_id":"ce4bgj92rcd13ifvqbd0","pricing_plan_id":"free"},{"bike_id":"f805d551-f7ac-48c1-a66c-e31b60bb5654","system_id":"levelo_inurba_marseille","lat":43.29974,"lon":5.38498,"is_reserved":false,"is_disabled":false,"rental_uris":{"android":"levelo://app?vid=f805d551-f7ac-48c1-a66c-e31b60bb5654","ios":"levelo://app?vid=f805d551-f7ac-48c1-a66c-e31b60bb5654"},"vehicle_type_id":"4","last_reported":1683479087,"current_range_meters":10000,"station_id":"ce4bgj92rcd13ifvqbd0","pricing_plan_id":"free"},{"bike_id":"7a7953b1-76de-48eb-be98-f9e95ba6338c","system_id":"levelo_inurba_marseille","lat":43.29971,"lon":5.38497,"is_reserved":false,"is_disabled":false,"rental_uris":{"android":"levelo://app?vid=7a7953b1-76de-48eb-be98-f9e95ba6338c","ios":"levelo://app?vid=7a7953b1-76de-48eb-be98-f9e95ba6338c"},"vehicle_type_id":"4","last_reported":1683479087,"current_range_meters":4800,"station_id":"ce4bgj92rcd13ifvqbd0","pricing_plan_id":"free"},{"bike_id":"46cb1d60-f89a-4a20-847b-3fa8e8252ed6","system_id":"levelo_inurba_marseille","lat":43.29518,"lon":5.37504,"is_reserved":false,"is_disabled":false,"rental_uris":{"android":"levelo://app?vid=46cb1d60-f89a-4a20-847b-3fa8e8252ed6","ios":"levelo://app?vid=46cb1d60-f89a-4a20-847b-3fa8e8252ed6"},"vehicle_type_id":"4","last_reported":1683479087,"current_range_meters":10400,"station_id":"ce4bgkp2rcd13ifvqbmg","pricing_plan_id":"free"},{"bike_id":"927332ec-fd73-433d-bbe9-1a356ad4121d","system_id":"levelo_inurba_marseille","lat":43.299717,"lon":5.384845,"is_reserved":false,"is_disabled":false,"rental_uris":{"android":"levelo://app?vid=927332ec-fd73-433d-bbe9-1a356ad4121d","ios":"levelo://app?vid=927332ec-fd73-433d-bbe9-1a356ad4121d"},"vehicle_type_id":"4","last_reported":1683479087,"current_range_meters":1600,"station_id":"ce4bgj92rcd13ifvqbd0","pricing_plan_id":"free"},{"bike_id":"cd79de99-4d0f-4ada-b0b1-f42dbf589bfe","system_id":"levelo_inurba_marseille","lat":43.29962,"lon":5.38503,"is_reserved":false,"is_disabled":false,"rental_uris":{"android":"levelo://app?vid=cd79de99-4d0f-4ada-b0b1-f42dbf589bfe","ios":"levelo://app?vid=cd79de99-4d0f-4ada-b0b1-f42dbf589bfe"},"vehicle_type_id":"4","last_reported":1683479087,"current_range_meters":800,"station_id":"ce4bgj92rcd13ifvqbd0","pricing_plan_id":"free"},{"bike_id":"f0dcfd84-4222-444a-b26d-9f99a892695b","system_id":"levelo_inurba_marseille","lat":43.31456,"lon":5.39267,"is_reserved":false,"is_disabled":false,"rental_uris":{"android":"levelo://app?vid=f0dcfd84-4222-444a-b26d-9f99a892695b","ios":"levelo://app?vid=f0dcfd84-4222-444a-b26d-9f99a892695b"},"vehicle_type_id":"4","last_reported":1683479087,"current_range_meters":1600,"station_id":"","pricing_plan_id":"free"},{"bike_id":"90e6cf9a-2d7c-49ff-bffb-cc442c6b75d4","system_id":"levelo_inurba_marseille","lat":43.29602,"lon":5.381084,"is_reserved":false,"is_disabled":false,"rental_uris":{"android":"levelo://app?vid=90e6cf9a-2d7c-49ff-bffb-cc442c6b75d4","ios":"levelo://app?vid=90e6cf9a-2d7c-49ff-bffb-cc442c6b75d4"},"vehicle_type_id":"4","last_reported":1683479087,"current_range_meters":27200,"station_id":"ce4bgl12rcd13ifvqbo0","pricing_plan_id":"free"},{"bike_id":"da9ec044-83ef-4f5b-b35d-57bd1045c31a","system_id":"levelo_inurba_marseille","lat":43.29602,"lon":5.381084,"is_reserved":false,"is_disabled":false,"rental_uris":{"android":"levelo://app?vid=da9ec044-83ef-4f5b-b35d-57bd1045c31a","ios":"levelo://app?vid=da9ec044-83ef-4f5b-b35d-57bd1045c31a"},"vehicle_type_id":"4","last_reported":1683479087,"current_range_meters":0,"station_id":"ce4bgl12rcd13ifvqbo0","pricing_plan_id":"free"},{"bike_id":"d28ae39b-a2e6-4e1c-9320-0e1ba4362fe3","system_id":"levelo_inurba_marseille","lat":43.29602,"lon":5.381084,"is_reserved":false,"is_disabled":false,"rental_uris":{"android":"levelo://app?vid=d28ae39b-a2e6-4e1c-9320-0e1ba4362fe3","ios":"levelo://app?vid=d28ae39b-a2e6-4e1c-9320-0e1ba4362fe3"},"vehicle_type_id":"4","last_reported":1683479087,"current_range_meters":13600,"station_id":"ce4bgl12rcd13ifvqbo0","pricing_plan_id":"free"},{"bike_id":"b63da707-d645-4ecf-bd74-ecccc6fec0ea","system_id":"levelo_inurba_marseille","lat":43.293249,"lon":5.371578,"is_reserved":false,"is_disabled":false,"rental_uris":{"android":"levelo://app?vid=b63da707-d645-4ecf-bd74-ecccc6fec0ea","ios":"levelo://app?vid=b63da707-d645-4ecf-bd74-ecccc6fec0ea"},"vehicle_type_id":"4","last_reported":1683479087,"current_range_meters":16800,"station_id":"ce4bgh92rcd13ifvqb40","pricing_plan_id":"free"},{"bike_id":"3186cc94-1ba1-4147-b03a-7bdc3ef05bb1","system_id":"levelo_inurba_marseille","lat":43.29303,"lon":5.37154,"is_reserved":false,"is_disabled":false,"rental_uris":{"android":"levelo://app?vid=3186cc94-1ba1-4147-b03a-7bdc3ef05bb1","ios":"levelo://app?vid=3186cc94-1ba1-4147-b03a-7bdc3ef05bb1"},"vehicle_type_id":"4","last_reported":1683479087,"current_range_meters":0,"station_id":"ce4bgh92rcd13ifvqb40","pricing_plan_id":"free"},{"bike_id":"1d767174-e635-4d52-a0ce-9cfffbbdb47a","system_id":"levelo_inurba_marseille","lat":43.29276,"lon":5.36849,"is_reserved":false,"is_disabled":false,"rental_uris":{"android":"levelo://app?vid=1d767174-e635-4d52-a0ce-9cfffbbdb47a","ios":"levelo://app?vid=1d767174-e635-4d52-a0ce-9cfffbbdb47a"},"vehicle_type_id":"4","last_reported":1683479087,"current_range_meters":4800,"station_id":"ce4bhbp2rcd13ifvqesg","pricing_plan_id":"free"},{"bike_id":"9df24608-168d-4526-b0fc-3da29659145b","system_id":"levelo_inurba_marseille","lat":43.292749,"lon":5.368402,"is_reserved":false,"is_disabled":false,"rental_uris":{"android":"levelo://app?vid=9df24608-168d-4526-b0fc-3da29659145b","ios":"levelo://app?vid=9df24608-168d-4526-b0fc-3da29659145b"},"vehicle_type_id":"4","last_reported":1683479087,"current_range_meters":12000,"station_id":"ce4bhbp2rcd13ifvqesg","pricing_plan_id":"free"},{"bike_id":"46477a3c-113e-4bc1-a51d-f9c10b18fc08","system_id":"levelo_inurba_marseille","lat":43.292749,"lon":5.368402,"is_reserved":false,"is_disabled":false,"rental_uris":{"android":"levelo://app?vid=46477a3c-113e-4bc1-a51d-f9c10b18fc08","ios":"levelo://app?vid=46477a3c-113e-4bc1-a51d-f9c10b18fc08"},"vehicle_type_id":"4","last_reported":1683479087,"current_range_meters":6000,"station_id":"ce4bhbp2rcd13ifvqesg","pricing_plan_id":"free"},{"bike_id":"3d462db1-6813-4e99-82fa-e8256c19392b","system_id":"levelo_inurba_marseille","lat":43.290104,"lon":5.356111,"is_reserved":false,"is_disabled":false,"rental_uris":{"android":"levelo://app?vid=3d462db1-6813-4e99-82fa-e8256c19392b","ios":"levelo://app?vid=3d462db1-6813-4e99-82fa-e8256c19392b"},"vehicle_type_id":"4","last_reported":1683479087,"current_range_meters":9200,"station_id":"ce4bhb92rcd13ifvqen0","pricing_plan_id":"free"},{"bike_id":"5c62366a-023f-488e-8cd0-5e4fc006a83d","system_id":"levelo_inurba_marseille","lat":43.293009,"lon":5.374584,"is_reserved":false,"is_disabled":false,"rental_uris":{"android":"levelo://app?vid=5c62366a-023f-488e-8cd0-5e4fc006a83d","ios":"levelo://app?vid=5c62366a-023f-488e-8cd0-5e4fc006a83d"},"vehicle_type_id":"4","last_reported":1683479087,"current_range_meters":0,"station_id":"ce4bgi12rcd13ifvqb70","pricing_plan_id":"free"},{"bike_id":"77e3d801-9509-48b8-b74a-1cf9d6cfba18","system_id":"levelo_inurba_marseille","lat":43.293009,"lon":5.374584,"is_reserved":false,"is_disabled":false,"rental_uris":{"android":"levelo://app?vid=77e3d801-9509-48b8-b74a-1cf9d6cfba18","ios":"levelo://app?vid=77e3d801-9509-48b8-b74a-1cf9d6cfba18"},"vehicle_type_id":"4","last_reported":1683479087,"current_range_meters":400,"station_id":"ce4bgi12rcd13ifvqb70","pricing_plan_id":"free"},{"bike_id":"d0a63334-b7a8-4999-999c-acc8a0831402","system_id":"levelo_inurba_marseille","lat":43.305994,"lon":5.393687,"is_reserved":false,"is_disabled":false,"rental_uris":{"android":"levelo://app?vid=d0a63334-b7a8-4999-999c-acc8a0831402","ios":"levelo://app?vid=d0a63334-b7a8-4999-999c-acc8a0831402"},"vehicle_type_id":"4","last_reported":1683479087,"current_range_meters":1200,"station_id":"ce4bh0p2rcd13ifvqd80","pricing_plan_id":"free"},{"bike_id":"f5034e49-4ae9-4109-820a-a9cc281d6502","system_id":"levelo_inurba_marseille","lat":43.305994,"lon":5.393687,"is_reserved":false,"is_disabled":false,"rental_uris":{"android":"levelo://app?vid=f5034e49-4ae9-4109-820a-a9cc281d6502","ios":"levelo://app?vid=f5034e49-4ae9-4109-820a-a9cc281d6502"},"vehicle_type_id":"4","last_reported":1683479087,"current_range_meters":6400,"station_id":"ce4bh0p2rcd13ifvqd80","pricing_plan_id":"free"},{"bike_id":"f3c4b148-241e-49a6-82bf-aa0c8031f4c4","system_id":"levelo_inurba_marseille","lat":43.293009,"lon":5.374584,"is_reserved":false,"is_disabled":false,"rental_uris":{"android":"levelo://app?vid=f3c4b148-241e-49a6-82bf-aa0c8031f4c4","ios":"levelo://app?vid=f3c4b148-241e-49a6-82bf-aa0c8031f4c4"},"vehicle_type_id":"4","last_reported":1683479087,"current_range_meters":17200,"station_id":"ce4bgi12rcd13ifvqb70","pricing_plan_id":"free"},{"bike_id":"187159f8-9911-483c-990e-5c29b8746216","system_id":"levelo_inurba_marseille","lat":43.303002,"lon":5.392142,"is_reserved":false,"is_disabled":false,"rental_uris":{"android":"levelo://app?vid=187159f8-9911-483c-990e-5c29b8746216","ios":"levelo://app?vid=187159f8-9911-483c-990e-5c29b8746216"},"vehicle_type_id":"4","last_reported":1683479087,"current_range_meters":9600,"station_id":"ce4bgkh2rcd13ifvqbk0","pricing_plan_id":"free"},{"bike_id":"bd34846e-4d59-4614-93f6-621439354a24","system_id":"levelo_inurba_marseille","lat":43.303002,"lon":5.392142,"is_reserved":false,"is_disabled":false,"rental_uris":{"android":"levelo://app?vid=bd34846e-4d59-4614-93f6-621439354a24","ios":"levelo://app?vid=bd34846e-4d59-4614-93f6-621439354a24"},"vehicle_type_id":"4","last_reported":1683479087,"current_range_meters":5600,"station_id":"ce4bgkh2rcd13ifvqbk0","pricing_plan_id":"free"},{"bike_id":"9d73a982-8667-4235-b236-de95f723c3f7","system_id":"levelo_inurba_marseille","lat":43.302992,"lon":5.392136,"is_reserved":false,"is_disabled":false,"rental_uris":{"android":"levelo://app?vid=9d73a982-8667-4235-b236-de95f723c3f7","ios":"levelo://app?vid=9d73a982-8667-4235-b236-de95f723c3f7"},"vehicle_type_id":"4","last_reported":1683479087,"current_range_meters":16800,"station_id":"ce4bgkh2rcd13ifvqbk0","pricing_plan_id":"free"},{"bike_id":"cc0cd2bb-5b3f-41ff-8226-4e03d3c6ac6f","system_id":"levelo_inurba_marseille","lat":43.302992,"lon":5.392136,"is_reserved":false,"is_disabled":false,"rental_uris":{"android":"levelo://app?vid=cc0cd2bb-5b3f-41ff-8226-4e03d3c6ac6f","ios":"levelo://app?vid=cc0cd2bb-5b3f-41ff-8226-4e03d3c6ac6f"},"vehicle_type_id":"4","last_reported":1683479087,"current_range_meters":0,"station_id":"ce4bgkh2rcd13ifvqbk0","pricing_plan_id":"free"},{"bike_id":"ee206716-4460-492f-ae99-7c7adcc4d091","system_id":"levelo_inurba_marseille","lat":43.292663,"lon":5.376394,"is_reserved":false,"is_disabled":false,"rental_uris":{"android":"levelo://app?vid=ee206716-4460-492f-ae99-7c7adcc4d091","ios":"levelo://app?vid=ee206716-4460-492f-ae99-7c7adcc4d091"},"vehicle_type_id":"4","last_reported":1683479087,"current_range_meters":1200,"station_id":"ce4bgi12rcd13ifvqb80","pricing_plan_id":"free"},{"bike_id":"978de744-534e-4271-ab15-076dcefb6006","system_id":"levelo_inurba_marseille","lat":43.298764,"lon":5.388973,"is_reserved":false,"is_disabled":false,"rental_uris":{"android":"levelo://app?vid=978de744-534e-4271-ab15-076dcefb6006","ios":"levelo://app?vid=978de744-534e-4271-ab15-076dcefb6006"},"vehicle_type_id":"4","last_reported":1683479087,"current_range_meters":2400,"station_id":"ce4bh392rcd13ifvqdl0","pricing_plan_id":"free"},{"bike_id":"e70e65d9-d19f-4446-b631-e3d3cb83ecd6","system_id":"levelo_inurba_marseille","lat":43.298764,"lon":5.388973,"is_reserved":false,"is_disabled":false,"rental_uris":{"android":"levelo://app?vid=e70e65d9-d19f-4446-b631-e3d3cb83ecd6","ios":"levelo://app?vid=e70e65d9-d19f-4446-b631-e3d3cb83ecd6"},"vehicle_type_id":"4","last_reported":1683479087,"current_range_meters":5200,"station_id":"ce4bh392rcd13ifvqdl0","pricing_plan_id":"free"},{"bike_id":"58fbc62d-41c6-4aaa-bd6f-0499dd4d6cbe","system_id":"levelo_inurba_marseille","lat":43.296277,"lon":5.377108,"is_reserved":false,"is_disabled":false,"rental_uris":{"android":"levelo://app?vid=58fbc62d-41c6-4aaa-bd6f-0499dd4d6cbe","ios":"levelo://app?vid=58fbc62d-41c6-4aaa-bd6f-0499dd4d6cbe"},"vehicle_type_id":"4","last_reported":1683479087,"current_range_meters":22000,"station_id":"ce4bgi92rcd13ifvqb90","pricing_plan_id":"free"},{"bike_id":"ebdbc5d1-ce80-46c9-801b-324179188b80","system_id":"levelo_inurba_marseille","lat":43.29201,"lon":5.35894,"is_reserved":false,"is_disabled":false,"rental_uris":{"android":"levelo://app?vid=ebdbc5d1-ce80-46c9-801b-324179188b80","ios":"levelo://app?vid=ebdbc5d1-ce80-46c9-801b-324179188b80"},"vehicle_type_id":"4","last_reported":1683479087,"current_range_meters":24000,"station_id":"ce4bhbh2rcd13ifvqepg","pricing_plan_id":"free"},{"bike_id":"b23799ae-80da-453a-b6d0-ea69ab0eb955","system_id":"levelo_inurba_marseille","lat":43.30881,"lon":5.3963,"is_reserved":false,"is_disabled":false,"rental_uris":{"android":"levelo://app?vid=b23799ae-80da-453a-b6d0-ea69ab0eb955","ios":"levelo://app?vid=b23799ae-80da-453a-b6d0-ea69ab0eb955"},"vehicle_type_id":"4","last_reported":1683479087,"current_range_meters":4000,"station_id":"ce4bh012rcd13ifvqcv0","pricing_plan_id":"free"},{"bike_id":"53eef16f-201c-4fea-b6b9-ab6b8088ea06","system_id":"levelo_inurba_marseille","lat":43.309038,"lon":5.396546,"is_reserved":false,"is_disabled":false,"rental_uris":{"android":"levelo://app?vid=53eef16f-201c-4fea-b6b9-ab6b8088ea06","ios":"levelo://app?vid=53eef16f-201c-4fea-b6b9-ab6b8088ea06"},"vehicle_type_id":"4","last_reported":1683479087,"current_range_meters":0,"station_id":"ce4bh012rcd13ifvqcv0","pricing_plan_id":"free"},{"bike_id":"fee5c498-6478-4cb9-addd-4452f3165fc5","system_id":"levelo_inurba_marseille","lat":43.313291,"lon":5.396838,"is_reserved":false,"is_disabled":false,"rental_uris":{"android":"levelo://app?vid=fee5c498-6478-4cb9-addd-4452f3165fc5","ios":"levelo://app?vid=fee5c498-6478-4cb9-addd-4452f3165fc5"},"vehicle_type_id":"4","last_reported":1683479087,"current_range_meters":23600,"station_id":"ce4bgvp2rcd13ifvqcu0","pricing_plan_id":"free"},{"bike_id":"90cc782d-be20-41fa-9baa-2dfb851cd186","system_id":"levelo_inurba_marseille","lat":43.309038,"lon":5.396546,"is_reserved":false,"is_disabled":false,"rental_uris":{"android":"levelo://app?vid=90cc782d-be20-41fa-9baa-2dfb851cd186","ios":"levelo://app?vid=90cc782d-be20-41fa-9baa-2dfb851cd186"},"vehicle_type_id":"4","last_reported":1683479087,"current_range_meters":27200,"station_id":"ce4bh012rcd13ifvqcv0","pricing_plan_id":"free"},{"bike_id":"fdec5ea6-0fe2-4cef-9b7b-4c8363207ffb","system_id":"levelo_inurba_marseille","lat":43.313291,"lon":5.396838,"is_reserved":false,"is_disabled":false,"rental_uris":{"android":"levelo://app?vid=fdec5ea6-0fe2-4cef-9b7b-4c8363207ffb","ios":"levelo://app?vid=fdec5ea6-0fe2-4cef-9b7b-4c8363207ffb"},"vehicle_type_id":"4","last_reported":1683479087,"current_range_meters":6400,"station_id":"ce4bgvp2rcd13ifvqcu0","pricing_plan_id":"free"},{"bike_id":"4e1d0a0c-3a83-4600-8d34-ea4aa2786d73","system_id":"levelo_inurba_marseille","lat":43.313291,"lon":5.396838,"is_reserved":false,"is_disabled":false,"rental_uris":{"android":"levelo://app?vid=4e1d0a0c-3a83-4600-8d34-ea4aa2786d73","ios":"levelo://app?vid=4e1d0a0c-3a83-4600-8d34-ea4aa2786d73"},"vehicle_type_id":"4","last_reported":1683479087,"current_range_meters":9200,"station_id":"ce4bgvp2rcd13ifvqcu0","pricing_plan_id":"free"},{"bike_id":"fa8d454d-5fc3-48b8-8e6e-519cb57b3338","system_id":"levelo_inurba_marseille","lat":43.313291,"lon":5.396838,"is_reserved":false,"is_disabled":false,"rental_uris":{"android":"levelo://app?vid=fa8d454d-5fc3-48b8-8e6e-519cb57b3338","ios":"levelo://app?vid=fa8d454d-5fc3-48b8-8e6e-519cb57b3338"},"vehicle_type_id":"4","last_reported":1683479087,"current_range_meters":0,"station_id":"ce4bgvp2rcd13ifvqcu0","pricing_plan_id":"free"},{"bike_id":"9dde32f9-8ea7-49f5-b67b-06078026dfcb","system_id":"levelo_inurba_marseille","lat":43.313291,"lon":5.396838,"is_reserved":false,"is_disabled":false,"rental_uris":{"android":"levelo://app?vid=9dde32f9-8ea7-49f5-b67b-06078026dfcb","ios":"levelo://app?vid=9dde32f9-8ea7-49f5-b67b-06078026dfcb"},"vehicle_type_id":"4","last_reported":1683479087,"current_range_meters":20400,"station_id":"ce4bgvp2rcd13ifvqcu0","pricing_plan_id":"free"},{"bike_id":"2c2affb1-3fb9-4644-8bea-1b95a0e995da","system_id":"levelo_inurba_marseille","lat":43.29529,"lon":5.385581,"is_reserved":false,"is_disabled":false,"rental_uris":{"android":"levelo://app?vid=2c2affb1-3fb9-4644-8bea-1b95a0e995da","ios":"levelo://app?vid=2c2affb1-3fb9-4644-8bea-1b95a0e995da"},"vehicle_type_id":"4","last_reported":1683479087,"current_range_meters":12000,"station_id":"ce4bgih2rcd13ifvqba0","pricing_plan_id":"free"},{"bike_id":"be199605-96f1-41e3-ac9d-cde200b6f07c","system_id":"levelo_inurba_marseille","lat":43.29532,"lon":5.38538,"is_reserved":false,"is_disabled":false,"rental_uris":{"android":"levelo://app?vid=be199605-96f1-41e3-ac9d-cde200b6f07c","ios":"levelo://app?vid=be199605-96f1-41e3-ac9d-cde200b6f07c"},"vehicle_type_id":"4","last_reported":1683479087,"current_range_meters":0,"station_id":"ce4bgih2rcd13ifvqba0","pricing_plan_id":"free"},{"bike_id":"158d0f8b-1594-4f06-b8d2-1a6b26e5025a","system_id":"levelo_inurba_marseille","lat":43.29529,"lon":5.385581,"is_reserved":false,"is_disabled":false,"rental_uris":{"android":"levelo://app?vid=158d0f8b-1594-4f06-b8d2-1a6b26e5025a","ios":"levelo://app?vid=158d0f8b-1594-4f06-b8d2-1a6b26e5025a"},"vehicle_type_id":"4","last_reported":1683479087,"current_range_meters":21200,"station_id":"ce4bgih2rcd13ifvqba0","pricing_plan_id":"free"},{"bike_id":"b8967884-9b72-46bc-9e19-a2316efd0900","system_id":"levelo_inurba_marseille","lat":43.29529,"lon":5.385581,"is_reserved":false,"is_disabled":false,"rental_uris":{"android":"levelo://app?vid=b8967884-9b72-46bc-9e19-a2316efd0900","ios":"levelo://app?vid=b8967884-9b72-46bc-9e19-a2316efd0900"},"vehicle_type_id":"4","last_reported":1683479087,"current_range_meters":13600,"station_id":"ce4bgih2rcd13ifvqba0","pricing_plan_id":"free"},{"bike_id":"138ea9bd-3f18-4420-8d60-830cb3e8402e","system_id":"levelo_inurba_marseille","lat":43.290779,"lon":5.371482,"is_reserved":false,"is_disabled":false,"rental_uris":{"android":"levelo://app?vid=138ea9bd-3f18-4420-8d60-830cb3e8402e","ios":"levelo://app?vid=138ea9bd-3f18-4420-8d60-830cb3e8402e"},"vehicle_type_id":"4","last_reported":1683479087,"current_range_meters":3600,"station_id":"ce4bh5p2rcd13ifvqe4g","pricing_plan_id":"free"},{"bike_id":"49652c9f-f4b4-4ff1-89c8-d1a3d9024c18","system_id":"levelo_inurba_marseille","lat":43.290779,"lon":5.371482,"is_reserved":false,"is_disabled":false,"rental_uris":{"android":"levelo://app?vid=49652c9f-f4b4-4ff1-89c8-d1a3d9024c18","ios":"levelo://app?vid=49652c9f-f4b4-4ff1-89c8-d1a3d9024c18"},"vehicle_type_id":"4","last_reported":1683479087,"current_range_meters":24800,"station_id":"ce4bh5p2rcd13ifvqe4g","pricing_plan_id":"free"},{"bike_id":"5e87e3e0-5360-41dd-9227-50df019cc376","system_id":"levelo_inurba_marseille","lat":43.290779,"lon":5.371482,"is_reserved":false,"is_disabled":false,"rental_uris":{"android":"levelo://app?vid=5e87e3e0-5360-41dd-9227-50df019cc376","ios":"levelo://app?vid=5e87e3e0-5360-41dd-9227-50df019cc376"},"vehicle_type_id":"4","last_reported":1683479087,"current_range_meters":16400,"station_id":"ce4bh5p2rcd13ifvqe4g","pricing_plan_id":"free"},{"bike_id":"4e937655-f334-4688-846b-c90497f8b806","system_id":"levelo_inurba_marseille","lat":43.302008,"lon":5.394694,"is_reserved":false,"is_disabled":false,"rental_uris":{"android":"levelo://app?vid=4e937655-f334-4688-846b-c90497f8b806","ios":"levelo://app?vid=4e937655-f334-4688-846b-c90497f8b806"},"vehicle_type_id":"4","last_reported":1683479087,"current_range_meters":800,"station_id":"ce4bh0p2rcd13ifvqd70","pricing_plan_id":"free"},{"bike_id":"451eedc0-96f3-4022-933e-42a546213e31","system_id":"levelo_inurba_marseille","lat":43.302008,"lon":5.394694,"is_reserved":false,"is_disabled":false,"rental_uris":{"android":"levelo://app?vid=451eedc0-96f3-4022-933e-42a546213e31","ios":"levelo://app?vid=451eedc0-96f3-4022-933e-42a546213e31"},"vehicle_type_id":"4","last_reported":1683479087,"current_range_meters":4400,"station_id":"ce4bh0p2rcd13ifvqd70","pricing_plan_id":"free"},{"bike_id":"5b418ea0-f619-4b84-b8cf-79ec84326bcc","system_id":"levelo_inurba_marseille","lat":43.302008,"lon":5.394694,"is_reserved":false,"is_disabled":false,"rental_uris":{"android":"levelo://app?vid=5b418ea0-f619-4b84-b8cf-79ec84326bcc","ios":"levelo://app?vid=5b418ea0-f619-4b84-b8cf-79ec84326bcc"},"vehicle_type_id":"4","last_reported":1683479087,"current_range_meters":20000,"station_id":"ce4bh0p2rcd13ifvqd70","pricing_plan_id":"free"},{"bike_id":"91d6518a-72de-4f3a-acd0-f82652507fdd","system_id":"levelo_inurba_marseille","lat":43.302008,"lon":5.394694,"is_reserved":false,"is_disabled":false,"rental_uris":{"android":"levelo://app?vid=91d6518a-72de-4f3a-acd0-f82652507fdd","ios":"levelo://app?vid=91d6518a-72de-4f3a-acd0-f82652507fdd"},"vehicle_type_id":"4","last_reported":1683479087,"current_range_meters":14000,"station_id":"ce4bh0p2rcd13ifvqd70","pricing_plan_id":"free"},{"bike_id":"b7e8e391-bdcc-44d3-a5c2-4390324ae917","system_id":"levelo_inurba_marseille","lat":43.294153,"lon":5.386305,"is_reserved":false,"is_disabled":false,"rental_uris":{"android":"levelo://app?vid=b7e8e391-bdcc-44d3-a5c2-4390324ae917","ios":"levelo://app?vid=b7e8e391-bdcc-44d3-a5c2-4390324ae917"},"vehicle_type_id":"4","last_reported":1683479087,"current_range_meters":7200,"station_id":"ce4bh2h2rcd13ifvqdh0","pricing_plan_id":"free"},{"bike_id":"584b0744-0d71-43ba-95cb-dd985379b45e","system_id":"levelo_inurba_marseille","lat":43.294153,"lon":5.386305,"is_reserved":false,"is_disabled":false,"rental_uris":{"android":"levelo://app?vid=584b0744-0d71-43ba-95cb-dd985379b45e","ios":"levelo://app?vid=584b0744-0d71-43ba-95cb-dd985379b45e"},"vehicle_type_id":"4","last_reported":1683479087,"current_range_meters":0,"station_id":"ce4bh2h2rcd13ifvqdh0","pricing_plan_id":"free"},{"bike_id":"fa4331d7-d17b-4a70-89fb-a876b5119a81","system_id":"levelo_inurba_marseille","lat":43.290319,"lon":5.375732,"is_reserved":false,"is_disabled":false,"rental_uris":{"android":"levelo://app?vid=fa4331d7-d17b-4a70-89fb-a876b5119a81","ios":"levelo://app?vid=fa4331d7-d17b-4a70-89fb-a876b5119a81"},"vehicle_type_id":"4","last_reported":1683479087,"current_range_meters":4000,"station_id":"ce4bh692rcd13ifvqe90","pricing_plan_id":"free"},{"bike_id":"2b5d59cf-a2b2-45e9-8096-252fe1911461","system_id":"levelo_inurba_marseille","lat":43.294162,"lon":5.386292,"is_reserved":false,"is_disabled":false,"rental_uris":{"android":"levelo://app?vid=2b5d59cf-a2b2-45e9-8096-252fe1911461","ios":"levelo://app?vid=2b5d59cf-a2b2-45e9-8096-252fe1911461"},"vehicle_type_id":"4","last_reported":1683479087,"current_range_meters":6000,"station_id":"ce4bh2h2rcd13ifvqdh0","pricing_plan_id":"free"},{"bike_id":"a1879e30-bdb7-4651-9e27-5b84c84b4449","system_id":"levelo_inurba_marseille","lat":43.294162,"lon":5.386292,"is_reserved":false,"is_disabled":false,"rental_uris":{"android":"levelo://app?vid=a1879e30-bdb7-4651-9e27-5b84c84b4449","ios":"levelo://app?vid=a1879e30-bdb7-4651-9e27-5b84c84b4449"},"vehicle_type_id":"4","last_reported":1683479087,"current_range_meters":7200,"station_id":"ce4bh2h2rcd13ifvqdh0","pricing_plan_id":"free"},{"bike_id":"8133b684-1288-4ba6-992d-f491fd084348","system_id":"levelo_inurba_marseille","lat":43.294162,"lon":5.386292,"is_reserved":false,"is_disabled":false,"rental_uris":{"android":"levelo://app?vid=8133b684-1288-4ba6-992d-f491fd084348","ios":"levelo://app?vid=8133b684-1288-4ba6-992d-f491fd084348"},"vehicle_type_id":"4","last_reported":1683479087,"current_range_meters":400,"station_id":"ce4bh2h2rcd13ifvqdh0","pricing_plan_id":"free"},{"bike_id":"f117bfb3-8788-4458-8b01-38297ca29567","system_id":"levelo_inurba_marseille","lat":43.292644,"lon":5.384257,"is_reserved":false,"is_disabled":false,"rental_uris":{"android":"levelo://app?vid=f117bfb3-8788-4458-8b01-38297ca29567","ios":"levelo://app?vid=f117bfb3-8788-4458-8b01-38297ca29567"},"vehicle_type_id":"4","last_reported":1683479087,"current_range_meters":14800,"station_id":"ce4bh692rcd13ifvqea0","pricing_plan_id":"free"},{"bike_id":"d644d30e-6972-4368-b777-059267d67ed9","system_id":"levelo_inurba_marseille","lat":43.292644,"lon":5.384257,"is_reserved":false,"is_disabled":false,"rental_uris":{"android":"levelo://app?vid=d644d30e-6972-4368-b777-059267d67ed9","ios":"levelo://app?vid=d644d30e-6972-4368-b777-059267d67ed9"},"vehicle_type_id":"4","last_reported":1683479087,"current_range_meters":16000,"station_id":"ce4bh692rcd13ifvqea0","pricing_plan_id":"free"},{"bike_id":"0ec6f3b8-d560-47dc-b3e5-b42ba654447d","system_id":"levelo_inurba_marseille","lat":43.292642,"lon":5.384254,"is_reserved":false,"is_disabled":false,"rental_uris":{"android":"levelo://app?vid=0ec6f3b8-d560-47dc-b3e5-b42ba654447d","ios":"levelo://app?vid=0ec6f3b8-d560-47dc-b3e5-b42ba654447d"},"vehicle_type_id":"4","last_reported":1683479087,"current_range_meters":1600,"station_id":"ce4bh692rcd13ifvqea0","pricing_plan_id":"free"},{"bike_id":"001716b3-4110-4cc6-a2d8-a052298aeb5e","system_id":"levelo_inurba_marseille","lat":43.292644,"lon":5.384257,"is_reserved":false,"is_disabled":false,"rental_uris":{"android":"levelo://app?vid=001716b3-4110-4cc6-a2d8-a052298aeb5e","ios":"levelo://app?vid=001716b3-4110-4cc6-a2d8-a052298aeb5e"},"vehicle_type_id":"4","last_reported":1683479087,"current_range_meters":14400,"station_id":"ce4bh692rcd13ifvqea0","pricing_plan_id":"free"},{"bike_id":"52c83e2d-3988-405d-9290-3db2c78f5c5e","system_id":"levelo_inurba_marseille","lat":43.292642,"lon":5.384254,"is_reserved":false,"is_disabled":false,"rental_uris":{"android":"levelo://app?vid=52c83e2d-3988-405d-9290-3db2c78f5c5e","ios":"levelo://app?vid=52c83e2d-3988-405d-9290-3db2c78f5c5e"},"vehicle_type_id":"4","last_reported":1683479087,"current_range_meters":2000,"station_id":"ce4bh692rcd13ifvqea0","pricing_plan_id":"free"},{"bike_id":"4ffa5eab-d177-419f-a959-39ffbb932a5b","system_id":"levelo_inurba_marseille","lat":43.292644,"lon":5.384257,"is_reserved":false,"is_disabled":false,"rental_uris":{"android":"levelo://app?vid=4ffa5eab-d177-419f-a959-39ffbb932a5b","ios":"levelo://app?vid=4ffa5eab-d177-419f-a959-39ffbb932a5b"},"vehicle_type_id":"4","last_reported":1683479087,"current_range_meters":0,"station_id":"ce4bh692rcd13ifvqea0","pricing_plan_id":"free"},{"bike_id":"56818d91-8368-4383-a603-d8788204da56","system_id":"levelo_inurba_marseille","lat":43.292644,"lon":5.384257,"is_reserved":false,"is_disabled":false,"rental_uris":{"android":"levelo://app?vid=56818d91-8368-4383-a603-d8788204da56","ios":"levelo://app?vid=56818d91-8368-4383-a603-d8788204da56"},"vehicle_type_id":"4","last_reported":1683479087,"current_range_meters":24400,"station_id":"ce4bh692rcd13ifvqea0","pricing_plan_id":"free"},{"bike_id":"db90c1a8-636b-4390-9ea5-5ed1d0f9ed0a","system_id":"levelo_inurba_marseille","lat":43.304296,"lon":5.397513,"is_reserved":false,"is_disabled":false,"rental_uris":{"android":"levelo://app?vid=db90c1a8-636b-4390-9ea5-5ed1d0f9ed0a","ios":"levelo://app?vid=db90c1a8-636b-4390-9ea5-5ed1d0f9ed0a"},"vehicle_type_id":"4","last_reported":1683479087,"current_range_meters":5200,"station_id":"ce4bh092rcd13ifvqd20","pricing_plan_id":"free"},{"bike_id":"cc5719e1-0cce-4a18-a739-b611b22608f9","system_id":"levelo_inurba_marseille","lat":43.292644,"lon":5.384257,"is_reserved":false,"is_disabled":false,"rental_uris":{"android":"levelo://app?vid=cc5719e1-0cce-4a18-a739-b611b22608f9","ios":"levelo://app?vid=cc5719e1-0cce-4a18-a739-b611b22608f9"},"vehicle_type_id":"4","last_reported":1683479087,"current_range_meters":800,"station_id":"ce4bh692rcd13ifvqea0","pricing_plan_id":"free"},{"bike_id":"5ebc3bbd-3060-4154-8564-6052102868a9","system_id":"levelo_inurba_marseille","lat":43.290104,"lon":5.356111,"is_reserved":false,"is_disabled":false,"rental_uris":{"android":"levelo://app?vid=5ebc3bbd-3060-4154-8564-6052102868a9","ios":"levelo://app?vid=5ebc3bbd-3060-4154-8564-6052102868a9"},"vehicle_type_id":"4","last_reported":1683479087,"current_range_meters":16400,"station_id":"ce4bhb92rcd13ifvqen0","pricing_plan_id":"free"},{"bike_id":"df862157-bb72-415e-9956-696583893066","system_id":"levelo_inurba_marseille","lat":43.33046,"lon":5.38919,"is_reserved":false,"is_disabled":false,"rental_uris":{"android":"levelo://app?vid=df862157-bb72-415e-9956-696583893066","ios":"levelo://app?vid=df862157-bb72-415e-9956-696583893066"},"vehicle_type_id":"4","last_reported":1683479087,"current_range_meters":10400,"station_id":"ce4bhr92rcd13ifvqhrg","pricing_plan_id":"free"},{"bike_id":"55ac16fe-c37b-4b13-adbb-7188e9c9f43c","system_id":"levelo_inurba_marseille","lat":43.290995,"lon":5.381361,"is_reserved":false,"is_disabled":false,"rental_uris":{"android":"levelo://app?vid=55ac16fe-c37b-4b13-adbb-7188e9c9f43c","ios":"levelo://app?vid=55ac16fe-c37b-4b13-adbb-7188e9c9f43c"},"vehicle_type_id":"4","last_reported":1683479087,"current_range_meters":0,"station_id":"ce4bh512rcd13ifvqe2g","pricing_plan_id":"free"},{"bike_id":"af445029-d90c-4a75-8a94-2d4ea8d40401","system_id":"levelo_inurba_marseille","lat":43.29099,"lon":5.38134,"is_reserved":false,"is_disabled":false,"rental_uris":{"android":"levelo://app?vid=af445029-d90c-4a75-8a94-2d4ea8d40401","ios":"levelo://app?vid=af445029-d90c-4a75-8a94-2d4ea8d40401"},"vehicle_type_id":"4","last_reported":1683479087,"current_range_meters":0,"station_id":"ce4bh512rcd13ifvqe2g","pricing_plan_id":"free"},{"bike_id":"bae77c39-b232-4627-b008-6ed39f765c0b","system_id":"levelo_inurba_marseille","lat":43.295169,"lon":5.390426,"is_reserved":false,"is_disabled":false,"rental_uris":{"android":"levelo://app?vid=bae77c39-b232-4627-b008-6ed39f765c0b","ios":"levelo://app?vid=bae77c39-b232-4627-b008-6ed39f765c0b"},"vehicle_type_id":"4","last_reported":1683479087,"current_range_meters":20400,"station_id":"ce4bh3p2rcd13ifvqdp0","pricing_plan_id":"free"},{"bike_id":"ac974924-364e-4fe8-ac88-df7fe581384b","system_id":"levelo_inurba_marseille","lat":43.289743,"lon":5.378304,"is_reserved":false,"is_disabled":false,"rental_uris":{"android":"levelo://app?vid=ac974924-364e-4fe8-ac88-df7fe581384b","ios":"levelo://app?vid=ac974924-364e-4fe8-ac88-df7fe581384b"},"vehicle_type_id":"4","last_reported":1683479087,"current_range_meters":15600,"station_id":"ce4bh9p2rcd13ifvqed0","pricing_plan_id":"free"},{"bike_id":"777f059b-bffb-4e96-ab04-a6c75e3e7bcd","system_id":"levelo_inurba_marseille","lat":43.30922,"lon":5.40042,"is_reserved":false,"is_disabled":false,"rental_uris":{"android":"levelo://app?vid=777f059b-bffb-4e96-ab04-a6c75e3e7bcd","ios":"levelo://app?vid=777f059b-bffb-4e96-ab04-a6c75e3e7bcd"},"vehicle_type_id":"4","last_reported":1683479087,"current_range_meters":2000,"station_id":"","pricing_plan_id":"free"},{"bike_id":"6a178aa4-3084-4230-aab8-24c7a2d1641f","system_id":"levelo_inurba_marseille","lat":43.33139,"lon":5.3894,"is_reserved":false,"is_disabled":false,"rental_uris":{"android":"levelo://app?vid=6a178aa4-3084-4230-aab8-24c7a2d1641f","ios":"levelo://app?vid=6a178aa4-3084-4230-aab8-24c7a2d1641f"},"vehicle_type_id":"4","last_reported":1683479087,"current_range_meters":12400,"station_id":"","pricing_plan_id":"free"},{"bike_id":"20083ae5-f09f-4d10-9758-3cdd331d6a45","system_id":"levelo_inurba_marseille","lat":43.3374,"lon":5.37455,"is_reserved":false,"is_disabled":false,"rental_uris":{"android":"levelo://app?vid=20083ae5-f09f-4d10-9758-3cdd331d6a45","ios":"levelo://app?vid=20083ae5-f09f-4d10-9758-3cdd331d6a45"},"vehicle_type_id":"4","last_reported":1683479087,"current_range_meters":10400,"station_id":"","pricing_plan_id":"free"},{"bike_id":"34320fce-24bb-4291-be42-2c361aed67f0","system_id":"levelo_inurba_marseille","lat":43.33748,"lon":5.37442,"is_reserved":false,"is_disabled":false,"rental_uris":{"android":"levelo://app?vid=34320fce-24bb-4291-be42-2c361aed67f0","ios":"levelo://app?vid=34320fce-24bb-4291-be42-2c361aed67f0"},"vehicle_type_id":"4","last_reported":1683479087,"current_range_meters":18800,"station_id":"ce4rr2p2rcd13i802rgg","pricing_plan_id":"free"},{"bike_id":"610f4cf2-2ffb-4136-95ed-3579f336a8ea","system_id":"levelo_inurba_marseille","lat":43.3375,"lon":5.3743,"is_reserved":false,"is_disabled":false,"rental_uris":{"android":"levelo://app?vid=610f4cf2-2ffb-4136-95ed-3579f336a8ea","ios":"levelo://app?vid=610f4cf2-2ffb-4136-95ed-3579f336a8ea"},"vehicle_type_id":"4","last_reported":1683479087,"current_range_meters":22800,"station_id":"","pricing_plan_id":"free"},{"bike_id":"86b28340-532d-4ab8-ac19-19ffd45b0568","system_id":"levelo_inurba_marseille","lat":43.33744,"lon":5.3749,"is_reserved":false,"is_disabled":false,"rental_uris":{"android":"levelo://app?vid=86b28340-532d-4ab8-ac19-19ffd45b0568","ios":"levelo://app?vid=86b28340-532d-4ab8-ac19-19ffd45b0568"},"vehicle_type_id":"4","last_reported":1683479087,"current_range_meters":30000,"station_id":"","pricing_plan_id":"free"},{"bike_id":"9070207c-ce23-4a97-b89f-da673252f922","system_id":"levelo_inurba_marseille","lat":43.33752,"lon":5.37486,"is_reserved":false,"is_disabled":false,"rental_uris":{"android":"levelo://app?vid=9070207c-ce23-4a97-b89f-da673252f922","ios":"levelo://app?vid=9070207c-ce23-4a97-b89f-da673252f922"},"vehicle_type_id":"4","last_reported":1683479087,"current_range_meters":22000,"station_id":"","pricing_plan_id":"free"},{"bike_id":"43db675c-7e98-4677-8121-67e3e8c23b98","system_id":"levelo_inurba_marseille","lat":43.30647,"lon":5.40089,"is_reserved":false,"is_disabled":false,"rental_uris":{"android":"levelo://app?vid=43db675c-7e98-4677-8121-67e3e8c23b98","ios":"levelo://app?vid=43db675c-7e98-4677-8121-67e3e8c23b98"},"vehicle_type_id":"4","last_reported":1683479087,"current_range_meters":6800,"station_id":"ce4bh112rcd13ifvqda0","pricing_plan_id":"free"},{"bike_id":"0bdee242-3234-4b18-b88f-ca9662834ca3","system_id":"levelo_inurba_marseille","lat":43.301117,"lon":5.398795,"is_reserved":false,"is_disabled":false,"rental_uris":{"android":"levelo://app?vid=0bdee242-3234-4b18-b88f-ca9662834ca3","ios":"levelo://app?vid=0bdee242-3234-4b18-b88f-ca9662834ca3"},"vehicle_type_id":"4","last_reported":1683479087,"current_range_meters":5200,"station_id":"ce4bh0h2rcd13ifvqd40","pricing_plan_id":"free"},{"bike_id":"db84b57a-c242-4d31-93f3-e9f12005c4b3","system_id":"levelo_inurba_marseille","lat":43.33762,"lon":5.37494,"is_reserved":false,"is_disabled":false,"rental_uris":{"android":"levelo://app?vid=db84b57a-c242-4d31-93f3-e9f12005c4b3","ios":"levelo://app?vid=db84b57a-c242-4d31-93f3-e9f12005c4b3"},"vehicle_type_id":"4","last_reported":1683479087,"current_range_meters":22800,"station_id":"","pricing_plan_id":"free"},{"bike_id":"ae04aaaf-a67c-4ab7-a44d-ec0a1d9d0d73","system_id":"levelo_inurba_marseille","lat":43.306412,"lon":5.401035,"is_reserved":false,"is_disabled":false,"rental_uris":{"android":"levelo://app?vid=ae04aaaf-a67c-4ab7-a44d-ec0a1d9d0d73","ios":"levelo://app?vid=ae04aaaf-a67c-4ab7-a44d-ec0a1d9d0d73"},"vehicle_type_id":"4","last_reported":1683479087,"current_range_meters":400,"station_id":"ce4bh112rcd13ifvqda0","pricing_plan_id":"free"},{"bike_id":"89db48ad-a3f5-4364-bb92-5389f4c7e595","system_id":"levelo_inurba_marseille","lat":43.30642,"lon":5.401031,"is_reserved":false,"is_disabled":false,"rental_uris":{"android":"levelo://app?vid=89db48ad-a3f5-4364-bb92-5389f4c7e595","ios":"levelo://app?vid=89db48ad-a3f5-4364-bb92-5389f4c7e595"},"vehicle_type_id":"4","last_reported":1683479087,"current_range_meters":15200,"station_id":"ce4bh112rcd13ifvqda0","pricing_plan_id":"free"},{"bike_id":"c452a78d-8a25-4dac-a034-b406e8dd2a51","system_id":"levelo_inurba_marseille","lat":43.28767,"lon":5.3593,"is_reserved":false,"is_disabled":false,"rental_uris":{"android":"levelo://app?vid=c452a78d-8a25-4dac-a034-b406e8dd2a51","ios":"levelo://app?vid=c452a78d-8a25-4dac-a034-b406e8dd2a51"},"vehicle_type_id":"4","last_reported":1683479087,"current_range_meters":0,"station_id":"","pricing_plan_id":"free"},{"bike_id":"bdfb2aac-de65-4b14-a3fd-a8fff56d38ca","system_id":"levelo_inurba_marseille","lat":43.301117,"lon":5.398795,"is_reserved":false,"is_disabled":false,"rental_uris":{"android":"levelo://app?vid=bdfb2aac-de65-4b14-a3fd-a8fff56d38ca","ios":"levelo://app?vid=bdfb2aac-de65-4b14-a3fd-a8fff56d38ca"},"vehicle_type_id":"4","last_reported":1683479087,"current_range_meters":18000,"station_id":"ce4bh0h2rcd13ifvqd40","pricing_plan_id":"free"},{"bike_id":"0268c6b1-4d66-4545-b50d-af8bef870257","system_id":"levelo_inurba_marseille","lat":43.301117,"lon":5.398795,"is_reserved":false,"is_disabled":false,"rental_uris":{"android":"levelo://app?vid=0268c6b1-4d66-4545-b50d-af8bef870257","ios":"levelo://app?vid=0268c6b1-4d66-4545-b50d-af8bef870257"},"vehicle_type_id":"4","last_reported":1683479087,"current_range_meters":5600,"station_id":"ce4bh0h2rcd13ifvqd40","pricing_plan_id":"free"},{"bike_id":"b3eb6882-112d-479a-8d15-a549a60fb0db","system_id":"levelo_inurba_marseille","lat":43.298681,"lon":5.397225,"is_reserved":false,"is_disabled":false,"rental_uris":{"android":"levelo://app?vid=b3eb6882-112d-479a-8d15-a549a60fb0db","ios":"levelo://app?vid=b3eb6882-112d-479a-8d15-a549a60fb0db"},"vehicle_type_id":"4","last_reported":1683479087,"current_range_meters":8000,"station_id":"ce4bh0h2rcd13ifvqd50","pricing_plan_id":"free"},{"bike_id":"b6b413d3-91cf-4c9e-b3e5-5fa47a9a93b3","system_id":"levelo_inurba_marseille","lat":43.298681,"lon":5.397225,"is_reserved":false,"is_disabled":false,"rental_uris":{"android":"levelo://app?vid=b6b413d3-91cf-4c9e-b3e5-5fa47a9a93b3","ios":"levelo://app?vid=b6b413d3-91cf-4c9e-b3e5-5fa47a9a93b3"},"vehicle_type_id":"4","last_reported":1683479087,"current_range_meters":19600,"station_id":"ce4bh0h2rcd13ifvqd50","pricing_plan_id":"free"},{"bike_id":"7afc3832-9ff1-41a3-accb-a8f0fbe0c847","system_id":"levelo_inurba_marseille","lat":43.298681,"lon":5.397225,"is_reserved":false,"is_disabled":false,"rental_uris":{"android":"levelo://app?vid=7afc3832-9ff1-41a3-accb-a8f0fbe0c847","ios":"levelo://app?vid=7afc3832-9ff1-41a3-accb-a8f0fbe0c847"},"vehicle_type_id":"4","last_reported":1683479087,"current_range_meters":28400,"station_id":"ce4bh0h2rcd13ifvqd50","pricing_plan_id":"free"},{"bike_id":"f18cec5b-d51d-4fc0-8493-28bbbf0c9694","system_id":"levelo_inurba_marseille","lat":43.290336,"lon":5.386425,"is_reserved":false,"is_disabled":false,"rental_uris":{"android":"levelo://app?vid=f18cec5b-d51d-4fc0-8493-28bbbf0c9694","ios":"levelo://app?vid=f18cec5b-d51d-4fc0-8493-28bbbf0c9694"},"vehicle_type_id":"4","last_reported":1683479087,"current_range_meters":23200,"station_id":"ce4bh4p2rcd13ifvqe0g","pricing_plan_id":"free"},{"bike_id":"b6f4f0ec-2983-4d42-ab88-0e6595fb97d4","system_id":"levelo_inurba_marseille","lat":43.302759,"lon":5.400793,"is_reserved":false,"is_disabled":false,"rental_uris":{"android":"levelo://app?vid=b6f4f0ec-2983-4d42-ab88-0e6595fb97d4","ios":"levelo://app?vid=b6f4f0ec-2983-4d42-ab88-0e6595fb97d4"},"vehicle_type_id":"4","last_reported":1683479087,"current_range_meters":10800,"station_id":"ce4bgvh2rcd13ifvqcs0","pricing_plan_id":"free"},{"bike_id":"9c52d56c-4f73-444c-bb80-fc0747e2cedd","system_id":"levelo_inurba_marseille","lat":43.302759,"lon":5.400793,"is_reserved":false,"is_disabled":false,"rental_uris":{"android":"levelo://app?vid=9c52d56c-4f73-444c-bb80-fc0747e2cedd","ios":"levelo://app?vid=9c52d56c-4f73-444c-bb80-fc0747e2cedd"},"vehicle_type_id":"4","last_reported":1683479087,"current_range_meters":7600,"station_id":"ce4bgvh2rcd13ifvqcs0","pricing_plan_id":"free"},{"bike_id":"f1338052-e81d-44ce-8e78-8947dede0194","system_id":"levelo_inurba_marseille","lat":43.290336,"lon":5.386425,"is_reserved":false,"is_disabled":false,"rental_uris":{"android":"levelo://app?vid=f1338052-e81d-44ce-8e78-8947dede0194","ios":"levelo://app?vid=f1338052-e81d-44ce-8e78-8947dede0194"},"vehicle_type_id":"4","last_reported":1683479087,"current_range_meters":22400,"station_id":"ce4bh4p2rcd13ifvqe0g","pricing_plan_id":"free"},{"bike_id":"fef2e59f-b18d-4019-a79c-916c74d6c866","system_id":"levelo_inurba_marseille","lat":43.290336,"lon":5.386425,"is_reserved":false,"is_disabled":false,"rental_uris":{"android":"levelo://app?vid=fef2e59f-b18d-4019-a79c-916c74d6c866","ios":"levelo://app?vid=fef2e59f-b18d-4019-a79c-916c74d6c866"},"vehicle_type_id":"4","last_reported":1683479087,"current_range_meters":4000,"station_id":"ce4bh4p2rcd13ifvqe0g","pricing_plan_id":"free"},{"bike_id":"9c1df898-ff51-4227-ba2e-92a04d457393","system_id":"levelo_inurba_marseille","lat":43.290345,"lon":5.38646,"is_reserved":false,"is_disabled":false,"rental_uris":{"android":"levelo://app?vid=9c1df898-ff51-4227-ba2e-92a04d457393","ios":"levelo://app?vid=9c1df898-ff51-4227-ba2e-92a04d457393"},"vehicle_type_id":"4","last_reported":1683479087,"current_range_meters":6000,"station_id":"ce4bh4p2rcd13ifvqe0g","pricing_plan_id":"free"},{"bike_id":"59a8b1a7-a74c-4792-89a7-f8790ceee87c","system_id":"levelo_inurba_marseille","lat":43.290336,"lon":5.386425,"is_reserved":false,"is_disabled":false,"rental_uris":{"android":"levelo://app?vid=59a8b1a7-a74c-4792-89a7-f8790ceee87c","ios":"levelo://app?vid=59a8b1a7-a74c-4792-89a7-f8790ceee87c"},"vehicle_type_id":"4","last_reported":1683479087,"current_range_meters":0,"station_id":"ce4bh4p2rcd13ifvqe0g","pricing_plan_id":"free"},{"bike_id":"d4c0aedb-ccde-461d-a638-e5d158d0fd83","system_id":"levelo_inurba_marseille","lat":43.290336,"lon":5.386425,"is_reserved":false,"is_disabled":false,"rental_uris":{"android":"levelo://app?vid=d4c0aedb-ccde-461d-a638-e5d158d0fd83","ios":"levelo://app?vid=d4c0aedb-ccde-461d-a638-e5d158d0fd83"},"vehicle_type_id":"4","last_reported":1683479087,"current_range_meters":12400,"station_id":"ce4bh4p2rcd13ifvqe0g","pricing_plan_id":"free"},{"bike_id":"d4a8a3ad-8dba-4437-8d4b-39d039458bf7","system_id":"levelo_inurba_marseille","lat":43.302759,"lon":5.400793,"is_reserved":false,"is_disabled":false,"rental_uris":{"android":"levelo://app?vid=d4a8a3ad-8dba-4437-8d4b-39d039458bf7","ios":"levelo://app?vid=d4a8a3ad-8dba-4437-8d4b-39d039458bf7"},"vehicle_type_id":"4","last_reported":1683479087,"current_range_meters":26400,"station_id":"ce4bgvh2rcd13ifvqcs0","pricing_plan_id":"free"},{"bike_id":"f8b42fcb-c41a-48e0-854e-5863202a7cf0","system_id":"levelo_inurba_marseille","lat":43.290336,"lon":5.386425,"is_reserved":false,"is_disabled":false,"rental_uris":{"android":"levelo://app?vid=f8b42fcb-c41a-48e0-854e-5863202a7cf0","ios":"levelo://app?vid=f8b42fcb-c41a-48e0-854e-5863202a7cf0"},"vehicle_type_id":"4","last_reported":1683479087,"current_range_meters":22000,"station_id":"ce4bh4p2rcd13ifvqe0g","pricing_plan_id":"free"},{"bike_id":"dee2680e-ecc3-42b6-945a-250535770892","system_id":"levelo_inurba_marseille","lat":43.286039,"lon":5.370679,"is_reserved":false,"is_disabled":false,"rental_uris":{"android":"levelo://app?vid=dee2680e-ecc3-42b6-945a-250535770892","ios":"levelo://app?vid=dee2680e-ecc3-42b6-945a-250535770892"},"vehicle_type_id":"4","last_reported":1683479087,"current_range_meters":6000,"station_id":"ce4bht12rcd13ifvqi60","pricing_plan_id":"free"},{"bike_id":"e3764d90-9e78-40e2-afc3-fa2dfadf6fd5","system_id":"levelo_inurba_marseille","lat":43.286039,"lon":5.370679,"is_reserved":false,"is_disabled":false,"rental_uris":{"android":"levelo://app?vid=e3764d90-9e78-40e2-afc3-fa2dfadf6fd5","ios":"levelo://app?vid=e3764d90-9e78-40e2-afc3-fa2dfadf6fd5"},"vehicle_type_id":"4","last_reported":1683479087,"current_range_meters":8800,"station_id":"ce4bht12rcd13ifvqi60","pricing_plan_id":"free"},{"bike_id":"4ef7ff75-2344-4242-bcd4-338cc0a20d34","system_id":"levelo_inurba_marseille","lat":43.286039,"lon":5.370679,"is_reserved":false,"is_disabled":false,"rental_uris":{"android":"levelo://app?vid=4ef7ff75-2344-4242-bcd4-338cc0a20d34","ios":"levelo://app?vid=4ef7ff75-2344-4242-bcd4-338cc0a20d34"},"vehicle_type_id":"4","last_reported":1683479087,"current_range_meters":21200,"station_id":"ce4bht12rcd13ifvqi60","pricing_plan_id":"free"},{"bike_id":"bf078e1e-77f6-4f59-8de3-83f2fd3d65f6","system_id":"levelo_inurba_marseille","lat":43.286039,"lon":5.370681,"is_reserved":false,"is_disabled":false,"rental_uris":{"android":"levelo://app?vid=bf078e1e-77f6-4f59-8de3-83f2fd3d65f6","ios":"levelo://app?vid=bf078e1e-77f6-4f59-8de3-83f2fd3d65f6"},"vehicle_type_id":"4","last_reported":1683479087,"current_range_meters":3600,"station_id":"ce4bht12rcd13ifvqi60","pricing_plan_id":"free"},{"bike_id":"dd7a21df-f1f6-4040-a1ec-b94f838cd37b","system_id":"levelo_inurba_marseille","lat":43.286039,"lon":5.370679,"is_reserved":false,"is_disabled":false,"rental_uris":{"android":"levelo://app?vid=dd7a21df-f1f6-4040-a1ec-b94f838cd37b","ios":"levelo://app?vid=dd7a21df-f1f6-4040-a1ec-b94f838cd37b"},"vehicle_type_id":"4","last_reported":1683479087,"current_range_meters":7200,"station_id":"ce4bht12rcd13ifvqi60","pricing_plan_id":"free"},{"bike_id":"10a2b59d-48d2-4f9f-a838-d31030f5afb3","system_id":"levelo_inurba_marseille","lat":43.290145,"lon":5.386675,"is_reserved":false,"is_disabled":false,"rental_uris":{"android":"levelo://app?vid=10a2b59d-48d2-4f9f-a838-d31030f5afb3","ios":"levelo://app?vid=10a2b59d-48d2-4f9f-a838-d31030f5afb3"},"vehicle_type_id":"4","last_reported":1683479087,"current_range_meters":4400,"station_id":"ce4bh4p2rcd13ifvqe0g","pricing_plan_id":"free"},{"bike_id":"c825ab76-9213-48e0-b886-756c30d3d5a8","system_id":"levelo_inurba_marseille","lat":43.286039,"lon":5.370679,"is_reserved":false,"is_disabled":false,"rental_uris":{"android":"levelo://app?vid=c825ab76-9213-48e0-b886-756c30d3d5a8","ios":"levelo://app?vid=c825ab76-9213-48e0-b886-756c30d3d5a8"},"vehicle_type_id":"4","last_reported":1683479087,"current_range_meters":28400,"station_id":"ce4bht12rcd13ifvqi60","pricing_plan_id":"free"},{"bike_id":"89d931e3-e325-4b5b-b69b-2a1a598b30cc","system_id":"levelo_inurba_marseille","lat":43.287185,"lon":5.379373,"is_reserved":false,"is_disabled":false,"rental_uris":{"android":"levelo://app?vid=89d931e3-e325-4b5b-b69b-2a1a598b30cc","ios":"levelo://app?vid=89d931e3-e325-4b5b-b69b-2a1a598b30cc"},"vehicle_type_id":"4","last_reported":1683479087,"current_range_meters":30800,"station_id":"ce4bh9p2rcd13ifvqec0","pricing_plan_id":"free"},{"bike_id":"18898f7a-ba0a-4a75-84b0-0d92856f7e1f","system_id":"levelo_inurba_marseille","lat":43.287185,"lon":5.379373,"is_reserved":false,"is_disabled":false,"rental_uris":{"android":"levelo://app?vid=18898f7a-ba0a-4a75-84b0-0d92856f7e1f","ios":"levelo://app?vid=18898f7a-ba0a-4a75-84b0-0d92856f7e1f"},"vehicle_type_id":"4","last_reported":1683479087,"current_range_meters":0,"station_id":"ce4bh9p2rcd13ifvqec0","pricing_plan_id":"free"},{"bike_id":"9b58c03a-e056-4d5d-9897-00689f1be5e2","system_id":"levelo_inurba_marseille","lat":43.33473,"lon":5.38999,"is_reserved":false,"is_disabled":false,"rental_uris":{"android":"levelo://app?vid=9b58c03a-e056-4d5d-9897-00689f1be5e2","ios":"levelo://app?vid=9b58c03a-e056-4d5d-9897-00689f1be5e2"},"vehicle_type_id":"4","last_reported":1683479087,"current_range_meters":2800,"station_id":"","pricing_plan_id":"free"},{"bike_id":"27865f6e-c046-4416-9233-48156b6bae2c","system_id":"levelo_inurba_marseille","lat":43.33482,"lon":5.38984,"is_reserved":false,"is_disabled":false,"rental_uris":{"android":"levelo://app?vid=27865f6e-c046-4416-9233-48156b6bae2c","ios":"levelo://app?vid=27865f6e-c046-4416-9233-48156b6bae2c"},"vehicle_type_id":"4","last_reported":1683479087,"current_range_meters":25200,"station_id":"","pricing_plan_id":"free"},{"bike_id":"f072e646-1a5e-4467-90b2-80e71902fadc","system_id":"levelo_inurba_marseille","lat":43.284534,"lon":5.358662,"is_reserved":false,"is_disabled":false,"rental_uris":{"android":"levelo://app?vid=f072e646-1a5e-4467-90b2-80e71902fadc","ios":"levelo://app?vid=f072e646-1a5e-4467-90b2-80e71902fadc"},"vehicle_type_id":"4","last_reported":1683479087,"current_range_meters":12800,"station_id":"ce4bhah2rcd13ifvqei0","pricing_plan_id":"free"},{"bike_id":"213650da-fe63-414d-a41c-0a79a34dc217","system_id":"levelo_inurba_marseille","lat":43.2862,"lon":5.35107,"is_reserved":false,"is_disabled":false,"rental_uris":{"android":"levelo://app?vid=213650da-fe63-414d-a41c-0a79a34dc217","ios":"levelo://app?vid=213650da-fe63-414d-a41c-0a79a34dc217"},"vehicle_type_id":"4","last_reported":1683479087,"current_range_meters":18800,"station_id":"","pricing_plan_id":"free"},{"bike_id":"c26d5605-1f1f-468b-b6ec-85dc3ecfe834","system_id":"levelo_inurba_marseille","lat":43.28614,"lon":5.35102,"is_reserved":false,"is_disabled":false,"rental_uris":{"android":"levelo://app?vid=c26d5605-1f1f-468b-b6ec-85dc3ecfe834","ios":"levelo://app?vid=c26d5605-1f1f-468b-b6ec-85dc3ecfe834"},"vehicle_type_id":"4","last_reported":1683479087,"current_range_meters":17200,"station_id":"","pricing_plan_id":"free"},{"bike_id":"d4d1bef5-f8ff-4f8d-a60a-ebdac5da6018","system_id":"levelo_inurba_marseille","lat":43.28613,"lon":5.351,"is_reserved":false,"is_disabled":false,"rental_uris":{"android":"levelo://app?vid=d4d1bef5-f8ff-4f8d-a60a-ebdac5da6018","ios":"levelo://app?vid=d4d1bef5-f8ff-4f8d-a60a-ebdac5da6018"},"vehicle_type_id":"4","last_reported":1683479087,"current_range_meters":0,"station_id":"","pricing_plan_id":"free"},{"bike_id":"1392ce2f-d930-4efc-832f-119a87f9d5d5","system_id":"levelo_inurba_marseille","lat":43.28611,"lon":5.35106,"is_reserved":false,"is_disabled":false,"rental_uris":{"android":"levelo://app?vid=1392ce2f-d930-4efc-832f-119a87f9d5d5","ios":"levelo://app?vid=1392ce2f-d930-4efc-832f-119a87f9d5d5"},"vehicle_type_id":"4","last_reported":1683479087,"current_range_meters":12400,"station_id":"","pricing_plan_id":"free"},{"bike_id":"30bcb7ce-68ed-44bc-a0d5-2355bad0bf71","system_id":"levelo_inurba_marseille","lat":43.28612,"lon":5.35102,"is_reserved":false,"is_disabled":false,"rental_uris":{"android":"levelo://app?vid=30bcb7ce-68ed-44bc-a0d5-2355bad0bf71","ios":"levelo://app?vid=30bcb7ce-68ed-44bc-a0d5-2355bad0bf71"},"vehicle_type_id":"4","last_reported":1683479087,"current_range_meters":0,"station_id":"","pricing_plan_id":"free"},{"bike_id":"56c6229d-4ffa-4187-a0f5-7399bc4e6201","system_id":"levelo_inurba_marseille","lat":43.295713,"lon":5.399639,"is_reserved":false,"is_disabled":false,"rental_uris":{"android":"levelo://app?vid=56c6229d-4ffa-4187-a0f5-7399bc4e6201","ios":"levelo://app?vid=56c6229d-4ffa-4187-a0f5-7399bc4e6201"},"vehicle_type_id":"4","last_reported":1683479087,"current_range_meters":6000,"station_id":"ce4bh312rcd13ifvqdj0","pricing_plan_id":"free"},{"bike_id":"7b3144b7-d882-4bf9-8a30-6604114a58f8","system_id":"levelo_inurba_marseille","lat":43.295713,"lon":5.399639,"is_reserved":false,"is_disabled":false,"rental_uris":{"android":"levelo://app?vid=7b3144b7-d882-4bf9-8a30-6604114a58f8","ios":"levelo://app?vid=7b3144b7-d882-4bf9-8a30-6604114a58f8"},"vehicle_type_id":"4","last_reported":1683479087,"current_range_meters":1200,"station_id":"ce4bh312rcd13ifvqdj0","pricing_plan_id":"free"},{"bike_id":"61b013a6-2f25-4ada-a402-22219e72ef5e","system_id":"levelo_inurba_marseille","lat":43.295713,"lon":5.399639,"is_reserved":false,"is_disabled":false,"rental_uris":{"android":"levelo://app?vid=61b013a6-2f25-4ada-a402-22219e72ef5e","ios":"levelo://app?vid=61b013a6-2f25-4ada-a402-22219e72ef5e"},"vehicle_type_id":"4","last_reported":1683479087,"current_range_meters":0,"station_id":"ce4bh312rcd13ifvqdj0","pricing_plan_id":"free"},{"bike_id":"1bb0390a-fddb-4e40-9dfb-398e9f747ec2","system_id":"levelo_inurba_marseille","lat":43.286595,"lon":5.386795,"is_reserved":false,"is_disabled":false,"rental_uris":{"android":"levelo://app?vid=1bb0390a-fddb-4e40-9dfb-398e9f747ec2","ios":"levelo://app?vid=1bb0390a-fddb-4e40-9dfb-398e9f747ec2"},"vehicle_type_id":"4","last_reported":1683479087,"current_range_meters":17600,"station_id":"ce4bh492rcd13ifvqdug","pricing_plan_id":"free"},{"bike_id":"a995db19-61ee-4bdd-a5d2-7cf997dafe9d","system_id":"levelo_inurba_marseille","lat":43.286595,"lon":5.386795,"is_reserved":false,"is_disabled":false,"rental_uris":{"android":"levelo://app?vid=a995db19-61ee-4bdd-a5d2-7cf997dafe9d","ios":"levelo://app?vid=a995db19-61ee-4bdd-a5d2-7cf997dafe9d"},"vehicle_type_id":"4","last_reported":1683479087,"current_range_meters":0,"station_id":"ce4bh492rcd13ifvqdug","pricing_plan_id":"free"},{"bike_id":"0b79004f-76ab-4ed9-8a0d-bf6571211f89","system_id":"levelo_inurba_marseille","lat":43.286595,"lon":5.386795,"is_reserved":false,"is_disabled":false,"rental_uris":{"android":"levelo://app?vid=0b79004f-76ab-4ed9-8a0d-bf6571211f89","ios":"levelo://app?vid=0b79004f-76ab-4ed9-8a0d-bf6571211f89"},"vehicle_type_id":"4","last_reported":1683479087,"current_range_meters":16400,"station_id":"ce4bh492rcd13ifvqdug","pricing_plan_id":"free"},{"bike_id":"7cdb1143-1df3-41fc-a179-c2f32ca67ebe","system_id":"levelo_inurba_marseille","lat":43.28514,"lon":5.35117,"is_reserved":false,"is_disabled":false,"rental_uris":{"android":"levelo://app?vid=7cdb1143-1df3-41fc-a179-c2f32ca67ebe","ios":"levelo://app?vid=7cdb1143-1df3-41fc-a179-c2f32ca67ebe"},"vehicle_type_id":"4","last_reported":1683479087,"current_range_meters":3600,"station_id":"","pricing_plan_id":"free"},{"bike_id":"1e8b05a7-42f2-4dbc-b778-2844f62043cc","system_id":"levelo_inurba_marseille","lat":43.337168,"lon":5.391825,"is_reserved":false,"is_disabled":false,"rental_uris":{"android":"levelo://app?vid=1e8b05a7-42f2-4dbc-b778-2844f62043cc","ios":"levelo://app?vid=1e8b05a7-42f2-4dbc-b778-2844f62043cc"},"vehicle_type_id":"4","last_reported":1683479087,"current_range_meters":29200,"station_id":"ce4bhr92rcd13ifvqhsg","pricing_plan_id":"free"},{"bike_id":"137dea30-c75c-4cfd-aacf-511e25baeb57","system_id":"levelo_inurba_marseille","lat":43.3373,"lon":5.39179,"is_reserved":false,"is_disabled":false,"rental_uris":{"android":"levelo://app?vid=137dea30-c75c-4cfd-aacf-511e25baeb57","ios":"levelo://app?vid=137dea30-c75c-4cfd-aacf-511e25baeb57"},"vehicle_type_id":"4","last_reported":1683479087,"current_range_meters":31200,"station_id":"ce4bhr92rcd13ifvqhsg","pricing_plan_id":"free"},{"bike_id":"90fefa4d-bf6c-4e62-8594-ec1e43ae7025","system_id":"levelo_inurba_marseille","lat":43.337168,"lon":5.391825,"is_reserved":false,"is_disabled":false,"rental_uris":{"android":"levelo://app?vid=90fefa4d-bf6c-4e62-8594-ec1e43ae7025","ios":"levelo://app?vid=90fefa4d-bf6c-4e62-8594-ec1e43ae7025"},"vehicle_type_id":"4","last_reported":1683479087,"current_range_meters":26800,"station_id":"ce4bhr92rcd13ifvqhsg","pricing_plan_id":"free"},{"bike_id":"4e216b4e-1450-4376-856e-c589615a8b4e","system_id":"levelo_inurba_marseille","lat":43.28484,"lon":5.38417,"is_reserved":false,"is_disabled":false,"rental_uris":{"android":"levelo://app?vid=4e216b4e-1450-4376-856e-c589615a8b4e","ios":"levelo://app?vid=4e216b4e-1450-4376-856e-c589615a8b4e"},"vehicle_type_id":"4","last_reported":1683479087,"current_range_meters":11200,"station_id":"ce4bh512rcd13ifvqe3g","pricing_plan_id":"free"},{"bike_id":"ad3cdfdb-0864-4cce-8a5d-05a05de94244","system_id":"levelo_inurba_marseille","lat":43.30083,"lon":5.40566,"is_reserved":false,"is_disabled":false,"rental_uris":{"android":"levelo://app?vid=ad3cdfdb-0864-4cce-8a5d-05a05de94244","ios":"levelo://app?vid=ad3cdfdb-0864-4cce-8a5d-05a05de94244"},"vehicle_type_id":"4","last_reported":1683479087,"current_range_meters":14800,"station_id":"","pricing_plan_id":"free"},{"bike_id":"03469f8a-1158-4fc4-9c17-8b9da8297c3a","system_id":"levelo_inurba_marseille","lat":43.284793,"lon":5.384113,"is_reserved":false,"is_disabled":false,"rental_uris":{"android":"levelo://app?vid=03469f8a-1158-4fc4-9c17-8b9da8297c3a","ios":"levelo://app?vid=03469f8a-1158-4fc4-9c17-8b9da8297c3a"},"vehicle_type_id":"4","last_reported":1683479087,"current_range_meters":1600,"station_id":"ce4bh512rcd13ifvqe3g","pricing_plan_id":"free"},{"bike_id":"4e55f1c5-c4c9-4793-a682-b6956065420a","system_id":"levelo_inurba_marseille","lat":43.28485,"lon":5.38434,"is_reserved":false,"is_disabled":false,"rental_uris":{"android":"levelo://app?vid=4e55f1c5-c4c9-4793-a682-b6956065420a","ios":"levelo://app?vid=4e55f1c5-c4c9-4793-a682-b6956065420a"},"vehicle_type_id":"4","last_reported":1683479087,"current_range_meters":2000,"station_id":"ce4bh512rcd13ifvqe3g","pricing_plan_id":"free"},{"bike_id":"9ea631a1-d32a-489e-8c22-9c623c280d3d","system_id":"levelo_inurba_marseille","lat":43.28476,"lon":5.38408,"is_reserved":false,"is_disabled":false,"rental_uris":{"android":"levelo://app?vid=9ea631a1-d32a-489e-8c22-9c623c280d3d","ios":"levelo://app?vid=9ea631a1-d32a-489e-8c22-9c623c280d3d"},"vehicle_type_id":"4","last_reported":1683479087,"current_range_meters":11600,"station_id":"ce4bh512rcd13ifvqe3g","pricing_plan_id":"free"},{"bike_id":"6c0ba448-1fa6-403b-adc7-0feb450b4ab4","system_id":"levelo_inurba_marseille","lat":43.28472,"lon":5.3842,"is_reserved":false,"is_disabled":false,"rental_uris":{"android":"levelo://app?vid=6c0ba448-1fa6-403b-adc7-0feb450b4ab4","ios":"levelo://app?vid=6c0ba448-1fa6-403b-adc7-0feb450b4ab4"},"vehicle_type_id":"4","last_reported":1683479087,"current_range_meters":3600,"station_id":"ce4bh512rcd13ifvqe3g","pricing_plan_id":"free"},{"bike_id":"ddcb2a23-ae04-4c45-80dc-5af4e2693f31","system_id":"levelo_inurba_marseille","lat":43.284793,"lon":5.384119,"is_reserved":false,"is_disabled":false,"rental_uris":{"android":"levelo://app?vid=ddcb2a23-ae04-4c45-80dc-5af4e2693f31","ios":"levelo://app?vid=ddcb2a23-ae04-4c45-80dc-5af4e2693f31"},"vehicle_type_id":"4","last_reported":1683479087,"current_range_meters":10400,"station_id":"ce4bh512rcd13ifvqe3g","pricing_plan_id":"free"},{"bike_id":"c58deb5a-604b-463f-a667-dcdb72a71ae7","system_id":"levelo_inurba_marseille","lat":43.284793,"lon":5.384119,"is_reserved":false,"is_disabled":false,"rental_uris":{"android":"levelo://app?vid=c58deb5a-604b-463f-a667-dcdb72a71ae7","ios":"levelo://app?vid=c58deb5a-604b-463f-a667-dcdb72a71ae7"},"vehicle_type_id":"4","last_reported":1683479087,"current_range_meters":5200,"station_id":"ce4bh512rcd13ifvqe3g","pricing_plan_id":"free"},{"bike_id":"385ca17f-61d7-4d3c-965c-09bab5a141ee","system_id":"levelo_inurba_marseille","lat":43.284787,"lon":5.384116,"is_reserved":false,"is_disabled":false,"rental_uris":{"android":"levelo://app?vid=385ca17f-61d7-4d3c-965c-09bab5a141ee","ios":"levelo://app?vid=385ca17f-61d7-4d3c-965c-09bab5a141ee"},"vehicle_type_id":"4","last_reported":1683479087,"current_range_meters":18800,"station_id":"ce4bh512rcd13ifvqe3g","pricing_plan_id":"free"},{"bike_id":"d55b97ae-282f-4c87-9dc7-3737d2cc2219","system_id":"levelo_inurba_marseille","lat":43.284793,"lon":5.384119,"is_reserved":false,"is_disabled":false,"rental_uris":{"android":"levelo://app?vid=d55b97ae-282f-4c87-9dc7-3737d2cc2219","ios":"levelo://app?vid=d55b97ae-282f-4c87-9dc7-3737d2cc2219"},"vehicle_type_id":"4","last_reported":1683479087,"current_range_meters":400,"station_id":"ce4bh512rcd13ifvqe3g","pricing_plan_id":"free"},{"bike_id":"4bf572a4-de17-4e24-a5f3-ae28571fb356","system_id":"levelo_inurba_marseille","lat":43.288497,"lon":5.393089,"is_reserved":false,"is_disabled":false,"rental_uris":{"android":"levelo://app?vid=4bf572a4-de17-4e24-a5f3-ae28571fb356","ios":"levelo://app?vid=4bf572a4-de17-4e24-a5f3-ae28571fb356"},"vehicle_type_id":"4","last_reported":1683479087,"current_range_meters":18000,"station_id":"ce4bh2p2rcd13ifvqdi0","pricing_plan_id":"free"},{"bike_id":"52f47422-c01f-49b6-800d-e8cc0fbf8b29","system_id":"levelo_inurba_marseille","lat":43.288497,"lon":5.393089,"is_reserved":false,"is_disabled":false,"rental_uris":{"android":"levelo://app?vid=52f47422-c01f-49b6-800d-e8cc0fbf8b29","ios":"levelo://app?vid=52f47422-c01f-49b6-800d-e8cc0fbf8b29"},"vehicle_type_id":"4","last_reported":1683479087,"current_range_meters":18400,"station_id":"ce4bh2p2rcd13ifvqdi0","pricing_plan_id":"free"},{"bike_id":"0f03c138-c899-4997-b882-0f43dc4fdadf","system_id":"levelo_inurba_marseille","lat":43.28344,"lon":5.38109,"is_reserved":false,"is_disabled":false,"rental_uris":{"android":"levelo://app?vid=0f03c138-c899-4997-b882-0f43dc4fdadf","ios":"levelo://app?vid=0f03c138-c899-4997-b882-0f43dc4fdadf"},"vehicle_type_id":"4","last_reported":1683479087,"current_range_meters":13200,"station_id":"ce4bh412rcd13ifvqdr0","pricing_plan_id":"free"},{"bike_id":"831ffae7-514a-43b6-898d-d10833010861","system_id":"levelo_inurba_marseille","lat":43.284219,"lon":5.3497,"is_reserved":false,"is_disabled":false,"rental_uris":{"android":"levelo://app?vid=831ffae7-514a-43b6-898d-d10833010861","ios":"levelo://app?vid=831ffae7-514a-43b6-898d-d10833010861"},"vehicle_type_id":"4","last_reported":1683479087,"current_range_meters":28000,"station_id":"ce4bhbh2rcd13ifvqepg","pricing_plan_id":"free"},{"bike_id":"79808b68-c25e-483f-b899-63372b4a1e02","system_id":"levelo_inurba_marseille","lat":43.284219,"lon":5.3497,"is_reserved":false,"is_disabled":false,"rental_uris":{"android":"levelo://app?vid=79808b68-c25e-483f-b899-63372b4a1e02","ios":"levelo://app?vid=79808b68-c25e-483f-b899-63372b4a1e02"},"vehicle_type_id":"4","last_reported":1683479087,"current_range_meters":24000,"station_id":"ce4bhbh2rcd13ifvqepg","pricing_plan_id":"free"},{"bike_id":"1395175e-fdd7-41f6-aca1-4f75cf6b64b6","system_id":"levelo_inurba_marseille","lat":43.28416,"lon":5.349653,"is_reserved":false,"is_disabled":false,"rental_uris":{"android":"levelo://app?vid=1395175e-fdd7-41f6-aca1-4f75cf6b64b6","ios":"levelo://app?vid=1395175e-fdd7-41f6-aca1-4f75cf6b64b6"},"vehicle_type_id":"4","last_reported":1683479087,"current_range_meters":3200,"station_id":"","pricing_plan_id":"free"},{"bike_id":"46ff224f-bd42-48b4-9550-1ed85b37a96d","system_id":"levelo_inurba_marseille","lat":43.28939,"lon":5.39639,"is_reserved":false,"is_disabled":false,"rental_uris":{"android":"levelo://app?vid=46ff224f-bd42-48b4-9550-1ed85b37a96d","ios":"levelo://app?vid=46ff224f-bd42-48b4-9550-1ed85b37a96d"},"vehicle_type_id":"4","last_reported":1683479087,"current_range_meters":8400,"station_id":"ce4bh3h2rcd13ifvqdn0","pricing_plan_id":"free"},{"bike_id":"2ea09203-e315-4122-99f7-3720df470979","system_id":"levelo_inurba_marseille","lat":43.288497,"lon":5.393089,"is_reserved":false,"is_disabled":false,"rental_uris":{"android":"levelo://app?vid=2ea09203-e315-4122-99f7-3720df470979","ios":"levelo://app?vid=2ea09203-e315-4122-99f7-3720df470979"},"vehicle_type_id":"4","last_reported":1683479087,"current_range_meters":12000,"station_id":"ce4bh2p2rcd13ifvqdi0","pricing_plan_id":"free"},{"bike_id":"ac6359ed-878f-4765-bc7d-b587e2154ff6","system_id":"levelo_inurba_marseille","lat":43.28293,"lon":5.35054,"is_reserved":false,"is_disabled":false,"rental_uris":{"android":"levelo://app?vid=ac6359ed-878f-4765-bc7d-b587e2154ff6","ios":"levelo://app?vid=ac6359ed-878f-4765-bc7d-b587e2154ff6"},"vehicle_type_id":"4","last_reported":1683479087,"current_range_meters":2000,"station_id":"ce4bhbp2rcd13ifvqerg","pricing_plan_id":"free"},{"bike_id":"c59a554f-8860-4667-b3a2-5d6a41b0df58","system_id":"levelo_inurba_marseille","lat":43.283502,"lon":5.386471,"is_reserved":false,"is_disabled":false,"rental_uris":{"android":"levelo://app?vid=c59a554f-8860-4667-b3a2-5d6a41b0df58","ios":"levelo://app?vid=c59a554f-8860-4667-b3a2-5d6a41b0df58"},"vehicle_type_id":"4","last_reported":1683479087,"current_range_meters":19200,"station_id":"ce4bh492rcd13ifvqdvg","pricing_plan_id":"free"},{"bike_id":"80744997-139c-42d4-848e-9183618c6ee4","system_id":"levelo_inurba_marseille","lat":43.283502,"lon":5.386471,"is_reserved":false,"is_disabled":false,"rental_uris":{"android":"levelo://app?vid=80744997-139c-42d4-848e-9183618c6ee4","ios":"levelo://app?vid=80744997-139c-42d4-848e-9183618c6ee4"},"vehicle_type_id":"4","last_reported":1683479087,"current_range_meters":12000,"station_id":"ce4bh492rcd13ifvqdvg","pricing_plan_id":"free"},{"bike_id":"76242f32-c407-44d4-84d7-fa1d50b0f9dc","system_id":"levelo_inurba_marseille","lat":43.32444,"lon":5.40831,"is_reserved":false,"is_disabled":false,"rental_uris":{"android":"levelo://app?vid=76242f32-c407-44d4-84d7-fa1d50b0f9dc","ios":"levelo://app?vid=76242f32-c407-44d4-84d7-fa1d50b0f9dc"},"vehicle_type_id":"4","last_reported":1683479087,"current_range_meters":0,"station_id":"","pricing_plan_id":"free"},{"bike_id":"5185bd0d-2de8-4a73-a569-6ee80a6941d5","system_id":"levelo_inurba_marseille","lat":43.2804,"lon":5.36942,"is_reserved":false,"is_disabled":false,"rental_uris":{"android":"levelo://app?vid=5185bd0d-2de8-4a73-a569-6ee80a6941d5","ios":"levelo://app?vid=5185bd0d-2de8-4a73-a569-6ee80a6941d5"},"vehicle_type_id":"4","last_reported":1683479087,"current_range_meters":0,"station_id":"ce4bha12rcd13ifvqef0","pricing_plan_id":"free"},{"bike_id":"4650dcf0-ae69-4263-95a6-664a7a6be9e9","system_id":"levelo_inurba_marseille","lat":43.283502,"lon":5.386471,"is_reserved":false,"is_disabled":false,"rental_uris":{"android":"levelo://app?vid=4650dcf0-ae69-4263-95a6-664a7a6be9e9","ios":"levelo://app?vid=4650dcf0-ae69-4263-95a6-664a7a6be9e9"},"vehicle_type_id":"4","last_reported":1683479087,"current_range_meters":17200,"station_id":"ce4bh492rcd13ifvqdvg","pricing_plan_id":"free"},{"bike_id":"6a085d93-3481-4453-8ca3-41205a40034a","system_id":"levelo_inurba_marseille","lat":43.29041,"lon":5.39969,"is_reserved":false,"is_disabled":false,"rental_uris":{"android":"levelo://app?vid=6a085d93-3481-4453-8ca3-41205a40034a","ios":"levelo://app?vid=6a085d93-3481-4453-8ca3-41205a40034a"},"vehicle_type_id":"4","last_reported":1683479087,"current_range_meters":19600,"station_id":"ce4bh392rcd13ifvqdm0","pricing_plan_id":"free"},{"bike_id":"3e2d2af5-c20f-4f28-b5e8-dbad39cab1dc","system_id":"levelo_inurba_marseille","lat":43.281044,"lon":5.378308,"is_reserved":false,"is_disabled":false,"rental_uris":{"android":"levelo://app?vid=3e2d2af5-c20f-4f28-b5e8-dbad39cab1dc","ios":"levelo://app?vid=3e2d2af5-c20f-4f28-b5e8-dbad39cab1dc"},"vehicle_type_id":"4","last_reported":1683479087,"current_range_meters":16400,"station_id":"ce4bha12rcd13ifvqee0","pricing_plan_id":"free"},{"bike_id":"5338539b-d7ca-4640-8105-252dbf835c53","system_id":"levelo_inurba_marseille","lat":43.281044,"lon":5.378308,"is_reserved":false,"is_disabled":false,"rental_uris":{"android":"levelo://app?vid=5338539b-d7ca-4640-8105-252dbf835c53","ios":"levelo://app?vid=5338539b-d7ca-4640-8105-252dbf835c53"},"vehicle_type_id":"4","last_reported":1683479087,"current_range_meters":8800,"station_id":"ce4bha12rcd13ifvqee0","pricing_plan_id":"free"},{"bike_id":"18489783-91e2-4b77-a879-ac0816290962","system_id":"levelo_inurba_marseille","lat":43.281044,"lon":5.378308,"is_reserved":false,"is_disabled":false,"rental_uris":{"android":"levelo://app?vid=18489783-91e2-4b77-a879-ac0816290962","ios":"levelo://app?vid=18489783-91e2-4b77-a879-ac0816290962"},"vehicle_type_id":"4","last_reported":1683479087,"current_range_meters":3200,"station_id":"ce4bha12rcd13ifvqee0","pricing_plan_id":"free"},{"bike_id":"a0f80c71-dc4e-4eea-a0fa-0b6665748374","system_id":"levelo_inurba_marseille","lat":43.281044,"lon":5.378308,"is_reserved":false,"is_disabled":false,"rental_uris":{"android":"levelo://app?vid=a0f80c71-dc4e-4eea-a0fa-0b6665748374","ios":"levelo://app?vid=a0f80c71-dc4e-4eea-a0fa-0b6665748374"},"vehicle_type_id":"4","last_reported":1683479087,"current_range_meters":1600,"station_id":"ce4bha12rcd13ifvqee0","pricing_plan_id":"free"},{"bike_id":"6370b81e-dc4b-4dfa-8daf-de9733232342","system_id":"levelo_inurba_marseille","lat":43.281,"lon":5.37833,"is_reserved":false,"is_disabled":false,"rental_uris":{"android":"levelo://app?vid=6370b81e-dc4b-4dfa-8daf-de9733232342","ios":"levelo://app?vid=6370b81e-dc4b-4dfa-8daf-de9733232342"},"vehicle_type_id":"4","last_reported":1683479087,"current_range_meters":23600,"station_id":"ce4bha12rcd13ifvqee0","pricing_plan_id":"free"},{"bike_id":"3fc7a189-df03-487e-85ba-3af7840478c9","system_id":"levelo_inurba_marseille","lat":43.29632,"lon":5.40604,"is_reserved":false,"is_disabled":false,"rental_uris":{"android":"levelo://app?vid=3fc7a189-df03-487e-85ba-3af7840478c9","ios":"levelo://app?vid=3fc7a189-df03-487e-85ba-3af7840478c9"},"vehicle_type_id":"4","last_reported":1683479087,"current_range_meters":0,"station_id":"ce4bh0h2rcd13ifvqd60","pricing_plan_id":"free"},{"bike_id":"41be7395-521f-4f9b-9ca1-f7537e3dd4b8","system_id":"levelo_inurba_marseille","lat":43.28096,"lon":5.37844,"is_reserved":false,"is_disabled":false,"rental_uris":{"android":"levelo://app?vid=41be7395-521f-4f9b-9ca1-f7537e3dd4b8","ios":"levelo://app?vid=41be7395-521f-4f9b-9ca1-f7537e3dd4b8"},"vehicle_type_id":"4","last_reported":1683479087,"current_range_meters":23600,"station_id":"ce4bha12rcd13ifvqee0","pricing_plan_id":"free"},{"bike_id":"0127a6e3-6c68-450b-a696-f15d0b1466b1","system_id":"levelo_inurba_marseille","lat":43.284462,"lon":5.392121,"is_reserved":false,"is_disabled":false,"rental_uris":{"android":"levelo://app?vid=0127a6e3-6c68-450b-a696-f15d0b1466b1","ios":"levelo://app?vid=0127a6e3-6c68-450b-a696-f15d0b1466b1"},"vehicle_type_id":"4","last_reported":1683479087,"current_range_meters":9600,"station_id":"ce4bhoh2rcd13ifvqh5g","pricing_plan_id":"free"},{"bike_id":"4b95ab06-86c9-4f6b-ae89-fb3050c1cbb2","system_id":"levelo_inurba_marseille","lat":43.284462,"lon":5.392121,"is_reserved":false,"is_disabled":false,"rental_uris":{"android":"levelo://app?vid=4b95ab06-86c9-4f6b-ae89-fb3050c1cbb2","ios":"levelo://app?vid=4b95ab06-86c9-4f6b-ae89-fb3050c1cbb2"},"vehicle_type_id":"4","last_reported":1683479087,"current_range_meters":10400,"station_id":"ce4bhoh2rcd13ifvqh5g","pricing_plan_id":"free"},{"bike_id":"dd16920f-9364-4e4a-866c-a6f65382e8cb","system_id":"levelo_inurba_marseille","lat":43.284462,"lon":5.392121,"is_reserved":false,"is_disabled":false,"rental_uris":{"android":"levelo://app?vid=dd16920f-9364-4e4a-866c-a6f65382e8cb","ios":"levelo://app?vid=dd16920f-9364-4e4a-866c-a6f65382e8cb"},"vehicle_type_id":"4","last_reported":1683479087,"current_range_meters":19600,"station_id":"ce4bhoh2rcd13ifvqh5g","pricing_plan_id":"free"},{"bike_id":"dcb8fef7-4bc1-4296-9b70-ac804fa7abb6","system_id":"levelo_inurba_marseille","lat":43.28574,"lon":5.39501,"is_reserved":false,"is_disabled":false,"rental_uris":{"android":"levelo://app?vid=dcb8fef7-4bc1-4296-9b70-ac804fa7abb6","ios":"levelo://app?vid=dcb8fef7-4bc1-4296-9b70-ac804fa7abb6"},"vehicle_type_id":"4","last_reported":1683479087,"current_range_meters":11600,"station_id":"ce4bh292rcd13ifvqdg0","pricing_plan_id":"free"},{"bike_id":"0ae062b6-6286-48e9-b440-0ffa8c90577d","system_id":"levelo_inurba_marseille","lat":43.28567,"lon":5.39499,"is_reserved":false,"is_disabled":false,"rental_uris":{"android":"levelo://app?vid=0ae062b6-6286-48e9-b440-0ffa8c90577d","ios":"levelo://app?vid=0ae062b6-6286-48e9-b440-0ffa8c90577d"},"vehicle_type_id":"4","last_reported":1683479087,"current_range_meters":12800,"station_id":"ce4bh292rcd13ifvqdg0","pricing_plan_id":"free"},{"bike_id":"ef202323-fab0-4d98-a18e-03ea751ea9f8","system_id":"levelo_inurba_marseille","lat":43.28569,"lon":5.39503,"is_reserved":false,"is_disabled":false,"rental_uris":{"android":"levelo://app?vid=ef202323-fab0-4d98-a18e-03ea751ea9f8","ios":"levelo://app?vid=ef202323-fab0-4d98-a18e-03ea751ea9f8"},"vehicle_type_id":"4","last_reported":1683479087,"current_range_meters":0,"station_id":"ce4bh292rcd13ifvqdg0","pricing_plan_id":"free"},{"bike_id":"9b6304f9-9b6f-4c5f-9e6c-6a0d76b11c52","system_id":"levelo_inurba_marseille","lat":43.2857,"lon":5.39508,"is_reserved":false,"is_disabled":false,"rental_uris":{"android":"levelo://app?vid=9b6304f9-9b6f-4c5f-9e6c-6a0d76b11c52","ios":"levelo://app?vid=9b6304f9-9b6f-4c5f-9e6c-6a0d76b11c52"},"vehicle_type_id":"4","last_reported":1683479087,"current_range_meters":9600,"station_id":"ce4bh292rcd13ifvqdg0","pricing_plan_id":"free"},{"bike_id":"caa0b923-0593-4ce4-baf6-2d7474586263","system_id":"levelo_inurba_marseille","lat":43.287154,"lon":5.399979,"is_reserved":false,"is_disabled":false,"rental_uris":{"android":"levelo://app?vid=caa0b923-0593-4ce4-baf6-2d7474586263","ios":"levelo://app?vid=caa0b923-0593-4ce4-baf6-2d7474586263"},"vehicle_type_id":"4","last_reported":1683479087,"current_range_meters":19200,"station_id":"ce4bho92rcd13ifvqh3g","pricing_plan_id":"free"},{"bike_id":"1509d695-cddb-4f0a-a017-3e2edcdfc590","system_id":"levelo_inurba_marseille","lat":43.320045,"lon":5.415048,"is_reserved":false,"is_disabled":false,"rental_uris":{"android":"levelo://app?vid=1509d695-cddb-4f0a-a017-3e2edcdfc590","ios":"levelo://app?vid=1509d695-cddb-4f0a-a017-3e2edcdfc590"},"vehicle_type_id":"4","last_reported":1683479087,"current_range_meters":31200,"station_id":"ce4bhq92rcd13ifvqhkg","pricing_plan_id":"free"},{"bike_id":"bc5b6fdc-374a-4cac-9f90-da80ca788f37","system_id":"levelo_inurba_marseille","lat":43.32034,"lon":5.41533,"is_reserved":false,"is_disabled":false,"rental_uris":{"android":"levelo://app?vid=bc5b6fdc-374a-4cac-9f90-da80ca788f37","ios":"levelo://app?vid=bc5b6fdc-374a-4cac-9f90-da80ca788f37"},"vehicle_type_id":"4","last_reported":1683479087,"current_range_meters":23600,"station_id":"","pricing_plan_id":"free"},{"bike_id":"303b1ae9-fc02-475b-b6b2-012235a175fb","system_id":"levelo_inurba_marseille","lat":43.279742,"lon":5.38744,"is_reserved":false,"is_disabled":false,"rental_uris":{"android":"levelo://app?vid=303b1ae9-fc02-475b-b6b2-012235a175fb","ios":"levelo://app?vid=303b1ae9-fc02-475b-b6b2-012235a175fb"},"vehicle_type_id":"4","last_reported":1683479087,"current_range_meters":2000,"station_id":"ce4bhg12rcd13ifvqf80","pricing_plan_id":"free"},{"bike_id":"7ed34ba3-aabc-4ec1-bb6e-fdd3261b8348","system_id":"levelo_inurba_marseille","lat":43.279742,"lon":5.38744,"is_reserved":false,"is_disabled":false,"rental_uris":{"android":"levelo://app?vid=7ed34ba3-aabc-4ec1-bb6e-fdd3261b8348","ios":"levelo://app?vid=7ed34ba3-aabc-4ec1-bb6e-fdd3261b8348"},"vehicle_type_id":"4","last_reported":1683479087,"current_range_meters":25600,"station_id":"ce4bhg12rcd13ifvqf80","pricing_plan_id":"free"},{"bike_id":"408b262b-8750-4a7f-a0dc-45fed918094f","system_id":"levelo_inurba_marseille","lat":43.279742,"lon":5.38744,"is_reserved":false,"is_disabled":false,"rental_uris":{"android":"levelo://app?vid=408b262b-8750-4a7f-a0dc-45fed918094f","ios":"levelo://app?vid=408b262b-8750-4a7f-a0dc-45fed918094f"},"vehicle_type_id":"4","last_reported":1683479087,"current_range_meters":18000,"station_id":"ce4bhg12rcd13ifvqf80","pricing_plan_id":"free"},{"bike_id":"c10c3bd7-abed-4e7a-b24b-2aa87ff64e6e","system_id":"levelo_inurba_marseille","lat":43.32061,"lon":5.4155,"is_reserved":false,"is_disabled":false,"rental_uris":{"android":"levelo://app?vid=c10c3bd7-abed-4e7a-b24b-2aa87ff64e6e","ios":"levelo://app?vid=c10c3bd7-abed-4e7a-b24b-2aa87ff64e6e"},"vehicle_type_id":"4","last_reported":1683479087,"current_range_meters":23600,"station_id":"","pricing_plan_id":"free"},{"bike_id":"02a63ac2-bc1c-4d64-b42f-f2e53f893af4","system_id":"levelo_inurba_marseille","lat":43.320045,"lon":5.415048,"is_reserved":false,"is_disabled":false,"rental_uris":{"android":"levelo://app?vid=02a63ac2-bc1c-4d64-b42f-f2e53f893af4","ios":"levelo://app?vid=02a63ac2-bc1c-4d64-b42f-f2e53f893af4"},"vehicle_type_id":"4","last_reported":1683479087,"current_range_meters":21200,"station_id":"ce4bhq92rcd13ifvqhkg","pricing_plan_id":"free"},{"bike_id":"f927b1c6-fd23-4d5f-825e-643aa71d5d73","system_id":"levelo_inurba_marseille","lat":43.32544,"lon":5.41427,"is_reserved":false,"is_disabled":false,"rental_uris":{"android":"levelo://app?vid=f927b1c6-fd23-4d5f-825e-643aa71d5d73","ios":"levelo://app?vid=f927b1c6-fd23-4d5f-825e-643aa71d5d73"},"vehicle_type_id":"4","last_reported":1683479087,"current_range_meters":30800,"station_id":"","pricing_plan_id":"free"},{"bike_id":"55c89222-8251-4c48-a9e5-42cc22773dad","system_id":"levelo_inurba_marseille","lat":43.3254,"lon":5.41432,"is_reserved":false,"is_disabled":false,"rental_uris":{"android":"levelo://app?vid=55c89222-8251-4c48-a9e5-42cc22773dad","ios":"levelo://app?vid=55c89222-8251-4c48-a9e5-42cc22773dad"},"vehicle_type_id":"4","last_reported":1683479087,"current_range_meters":26000,"station_id":"ce4bhq12rcd13ifvqhhg","pricing_plan_id":"free"},{"bike_id":"eb4f510a-b4f2-4513-9e9f-c4b14f0b0170","system_id":"levelo_inurba_marseille","lat":43.32545,"lon":5.41437,"is_reserved":false,"is_disabled":false,"rental_uris":{"android":"levelo://app?vid=eb4f510a-b4f2-4513-9e9f-c4b14f0b0170","ios":"levelo://app?vid=eb4f510a-b4f2-4513-9e9f-c4b14f0b0170"},"vehicle_type_id":"4","last_reported":1683479087,"current_range_meters":31200,"station_id":"ce4bhq12rcd13ifvqhhg","pricing_plan_id":"free"},{"bike_id":"e3726f58-bb74-4537-89ef-0fcdd628f6d4","system_id":"levelo_inurba_marseille","lat":43.27618,"lon":5.361009,"is_reserved":false,"is_disabled":false,"rental_uris":{"android":"levelo://app?vid=e3726f58-bb74-4537-89ef-0fcdd628f6d4","ios":"levelo://app?vid=e3726f58-bb74-4537-89ef-0fcdd628f6d4"},"vehicle_type_id":"4","last_reported":1683479087,"current_range_meters":5600,"station_id":"ce4bgj92rcd13ifvqbe0","pricing_plan_id":"free"},{"bike_id":"d527fbd8-fbc7-47be-b441-9c2469662b92","system_id":"levelo_inurba_marseille","lat":43.32538,"lon":5.41444,"is_reserved":false,"is_disabled":false,"rental_uris":{"android":"levelo://app?vid=d527fbd8-fbc7-47be-b441-9c2469662b92","ios":"levelo://app?vid=d527fbd8-fbc7-47be-b441-9c2469662b92"},