{"last_updated":1741036147,"ttl":60,"version":"2.2","data":{"bikes":[{"bike_id":"79dc2886-9457-4956-a315-0a4ca48ce21a","system_id":"levelo_inurba_marseille","lat":43.31251,"lon":5.37977,"is_reserved":false,"is_disabled":true,"rental_uris":{"android":"levelo://app?vid=79dc2886-9457-4956-a315-0a4ca48ce21a","ios":"levelo://app?vid=79dc2886-9457-4956-a315-0a4ca48ce21a"},"vehicle_type_id":"4","last_reported":1741036148,"current_range_meters":0,"station_id":"","pricing_plan_id":"cebpf4jnsgd1na2vs0mg"},{"bike_id":"9eb3cb5d-d9f5-4491-98ca-3b6f02b67afa","system_id":"levelo_inurba_marseille","lat":43.2179,"lon":5.3465,"is_reserved":false,"is_disabled":true,"rental_uris":{"android":"levelo://app?vid=9eb3cb5d-d9f5-4491-98ca-3b6f02b67afa","ios":"levelo://app?vid=9eb3cb5d-d9f5-4491-98ca-3b6f02b67afa"},"vehicle_type_id":"4","last_reported":1741036148,"current_range_meters":0,"station_id":"","pricing_plan_id":"cebpf4jnsgd1na2vs0mg"},{"bike_id":"9a51c5e6-5569-42f3-ad6d-908d1d93d6be","system_id":"levelo_inurba_marseille","lat":43.3126,"lon":5.40724,"is_reserved":false,"is_disabled":true,"rental_uris":{"android":"levelo://app?vid=9a51c5e6-5569-42f3-ad6d-908d1d93d6be","ios":"levelo://app?vid=9a51c5e6-5569-42f3-ad6d-908d1d93d6be"},"vehicle_type_id":"4","last_reported":1741036148,"current_range_meters":0,"station_id":"","pricing_plan_id":"cebpf4jnsgd1na2vs0mg"},{"bike_id":"ffa33cb2-df6e-45f5-bfd7-840bcfbb29b1","system_id":"levelo_inurba_marseille","lat":43.29601,"lon":5.380996,"is_reserved":false,"is_disabled":true,"rental_uris":{"android":"levelo://app?vid=ffa33cb2-df6e-45f5-bfd7-840bcfbb29b1","ios":"levelo://app?vid=ffa33cb2-df6e-45f5-bfd7-840bcfbb29b1"},"vehicle_type_id":"4","last_reported":1741036148,"current_range_meters":0,"station_id":"","pricing_plan_id":"cebpf4jnsgd1na2vs0mg"},{"bike_id":"d8853f37-2b2c-4fe9-9e03-d3b58d84b7c1","system_id":"levelo_inurba_marseille","lat":43.32569,"lon":5.38605,"is_reserved":false,"is_disabled":true,"rental_uris":{"android":"levelo://app?vid=d8853f37-2b2c-4fe9-9e03-d3b58d84b7c1","ios":"levelo://app?vid=d8853f37-2b2c-4fe9-9e03-d3b58d84b7c1"},"vehicle_type_id":"4","last_reported":1741036148,"current_range_meters":0,"station_id":"","pricing_plan_id":"cebpf4jnsgd1na2vs0mg"},{"bike_id":"ba7a3b6b-ffb1-4b7c-85b4-3fc3b13f51e9","system_id":"levelo_inurba_marseille","lat":43.33415,"lon":5.38246,"is_reserved":false,"is_disabled":true,"rental_uris":{"android":"levelo://app?vid=ba7a3b6b-ffb1-4b7c-85b4-3fc3b13f51e9","ios":"levelo://app?vid=ba7a3b6b-ffb1-4b7c-85b4-3fc3b13f51e9"},"vehicle_type_id":"4","last_reported":1741036148,"current_range_meters":0,"station_id":"","pricing_plan_id":"cebpf4jnsgd1na2vs0mg"},{"bike_id":"000df070-cad4-4b66-a2dd-3720c4f363bf","system_id":"levelo_inurba_marseille","lat":43.33301,"lon":5.39893,"is_reserved":false,"is_disabled":true,"rental_uris":{"android":"levelo://app?vid=000df070-cad4-4b66-a2dd-3720c4f363bf","ios":"levelo://app?vid=000df070-cad4-4b66-a2dd-3720c4f363bf"},"vehicle_type_id":"4","last_reported":1741036148,"current_range_meters":0,"station_id":"","pricing_plan_id":"cebpf4jnsgd1na2vs0mg"},{"bike_id":"50d0da4d-e802-4113-9ad6-e12af0a98103","system_id":"levelo_inurba_marseille","lat":43.33541,"lon":5.39967,"is_reserved":false,"is_disabled":true,"rental_uris":{"android":"levelo://app?vid=50d0da4d-e802-4113-9ad6-e12af0a98103","ios":"levelo://app?vid=50d0da4d-e802-4113-9ad6-e12af0a98103"},"vehicle_type_id":"4","last_reported":1741036148,"current_range_meters":0,"station_id":"","pricing_plan_id":"cebpf4jnsgd1na2vs0mg"},{"bike_id":"3d55dcbd-5000-48c9-8288-ad6d2786c206","system_id":"levelo_inurba_marseille","lat":43.30147,"lon":5.38798,"is_reserved":false,"is_disabled":true,"rental_uris":{"android":"levelo://app?vid=3d55dcbd-5000-48c9-8288-ad6d2786c206","ios":"levelo://app?vid=3d55dcbd-5000-48c9-8288-ad6d2786c206"},"vehicle_type_id":"4","last_reported":1741036148,"current_range_meters":0,"station_id":"ce4bghh2rcd13ifvqb60","pricing_plan_id":"cebpf4jnsgd1na2vs0mg"},{"bike_id":"b7aae33d-6003-4ebc-ad63-a32bc50ccb89","system_id":"levelo_inurba_marseille","lat":43.30807,"lon":5.38166,"is_reserved":false,"is_disabled":true,"rental_uris":{"android":"levelo://app?vid=b7aae33d-6003-4ebc-ad63-a32bc50ccb89","ios":"levelo://app?vid=b7aae33d-6003-4ebc-ad63-a32bc50ccb89"},"vehicle_type_id":"4","last_reported":1741036148,"current_range_meters":0,"station_id":"ce4bgt12rcd13ifvqce0","pricing_plan_id":"cebpf4jnsgd1na2vs0mg"},{"bike_id":"20d57e6f-c35e-484f-adab-6cbc78f5349b","system_id":"levelo_inurba_marseille","lat":43.31369,"lon":5.38497,"is_reserved":false,"is_disabled":true,"rental_uris":{"android":"levelo://app?vid=20d57e6f-c35e-484f-adab-6cbc78f5349b","ios":"levelo://app?vid=20d57e6f-c35e-484f-adab-6cbc78f5349b"},"vehicle_type_id":"4","last_reported":1741036148,"current_range_meters":0,"station_id":"ce4bgt92rcd13ifvqcf0","pricing_plan_id":"cebpf4jnsgd1na2vs0mg"},{"bike_id":"d5d94c05-55bf-4576-aad8-da01a27ea721","system_id":"levelo_inurba_marseille","lat":43.300842,"lon":5.390772,"is_reserved":false,"is_disabled":true,"rental_uris":{"android":"levelo://app?vid=d5d94c05-55bf-4576-aad8-da01a27ea721","ios":"levelo://app?vid=d5d94c05-55bf-4576-aad8-da01a27ea721"},"vehicle_type_id":"4","last_reported":1741036148,"current_range_meters":0,"station_id":"ce4bh192rcd13ifvqdb0","pricing_plan_id":"cebpf4jnsgd1na2vs0mg"},{"bike_id":"94d53d70-516e-435b-9877-3d3dbe1f24f0","system_id":"levelo_inurba_marseille","lat":43.28613,"lon":5.35111,"is_reserved":false,"is_disabled":true,"rental_uris":{"android":"levelo://app?vid=94d53d70-516e-435b-9877-3d3dbe1f24f0","ios":"levelo://app?vid=94d53d70-516e-435b-9877-3d3dbe1f24f0"},"vehicle_type_id":"4","last_reported":1741036148,"current_range_meters":0,"station_id":"ce4bhch2rcd13ifvqeug","pricing_plan_id":"cebpf4jnsgd1na2vs0mg"},{"bike_id":"d73740f2-4333-40a5-942b-5330113f3eae","system_id":"levelo_inurba_marseille","lat":43.26963,"lon":5.38647,"is_reserved":false,"is_disabled":true,"rental_uris":{"android":"levelo://app?vid=d73740f2-4333-40a5-942b-5330113f3eae","ios":"levelo://app?vid=d73740f2-4333-40a5-942b-5330113f3eae"},"vehicle_type_id":"4","last_reported":1741036148,"current_range_meters":0,"station_id":"ce4bhh92rcd13ifvqfh0","pricing_plan_id":"cebpf4jnsgd1na2vs0mg"},{"bike_id":"8fa5359c-7e37-4544-92b2-498e5e4ba635","system_id":"levelo_inurba_marseille","lat":43.27067,"lon":5.42283,"is_reserved":false,"is_disabled":true,"rental_uris":{"android":"levelo://app?vid=8fa5359c-7e37-4544-92b2-498e5e4ba635","ios":"levelo://app?vid=8fa5359c-7e37-4544-92b2-498e5e4ba635"},"vehicle_type_id":"4","last_reported":1741036148,"current_range_meters":0,"station_id":"ce4bhk92rcd13ifvqgb0","pricing_plan_id":"cebpf4jnsgd1na2vs0mg"},{"bike_id":"8abe91d1-6076-423c-82ca-00922f96234d","system_id":"levelo_inurba_marseille","lat":43.27061,"lon":5.40255,"is_reserved":false,"is_disabled":true,"rental_uris":{"android":"levelo://app?vid=8abe91d1-6076-423c-82ca-00922f96234d","ios":"levelo://app?vid=8abe91d1-6076-423c-82ca-00922f96234d"},"vehicle_type_id":"4","last_reported":1741036148,"current_range_meters":0,"station_id":"ce4bhk92rcd13ifvqgc0","pricing_plan_id":"cebpf4jnsgd1na2vs0mg"},{"bike_id":"4e776dd8-cb35-41c6-8d1a-93b3681d080b","system_id":"levelo_inurba_marseille","lat":43.32659,"lon":5.40986,"is_reserved":false,"is_disabled":true,"rental_uris":{"android":"levelo://app?vid=4e776dd8-cb35-41c6-8d1a-93b3681d080b","ios":"levelo://app?vid=4e776dd8-cb35-41c6-8d1a-93b3681d080b"},"vehicle_type_id":"4","last_reported":1741036148,"current_range_meters":0,"station_id":"ce4bhpp2rcd13ifvqhgg","pricing_plan_id":"cebpf4jnsgd1na2vs0mg"},{"bike_id":"0050bd2d-ff01-4e9a-b1c8-db1b9342dfb1","system_id":"levelo_inurba_marseille","lat":43.32084,"lon":5.36778,"is_reserved":false,"is_disabled":true,"rental_uris":{"android":"levelo://app?vid=0050bd2d-ff01-4e9a-b1c8-db1b9342dfb1","ios":"levelo://app?vid=0050bd2d-ff01-4e9a-b1c8-db1b9342dfb1"},"vehicle_type_id":"4","last_reported":1741036148,"current_range_meters":0,"station_id":"ce4bhrh2rcd13ifvqhug","pricing_plan_id":"cebpf4jnsgd1na2vs0mg"},{"bike_id":"f7c1635f-1b70-40a9-aeb7-2386808bfba3","system_id":"levelo_inurba_marseille","lat":43.31091,"lon":5.42447,"is_reserved":false,"is_disabled":true,"rental_uris":{"android":"levelo://app?vid=f7c1635f-1b70-40a9-aeb7-2386808bfba3","ios":"levelo://app?vid=f7c1635f-1b70-40a9-aeb7-2386808bfba3"},"vehicle_type_id":"4","last_reported":1741036148,"current_range_meters":400,"station_id":"ce4bhp92rcd13ifvqhag","pricing_plan_id":"cebpf4jnsgd1na2vs0mg"},{"bike_id":"6d6561ce-edea-43b4-b0c4-ad075ad61e69","system_id":"levelo_inurba_marseille","lat":43.32485,"lon":5.36571,"is_reserved":false,"is_disabled":true,"rental_uris":{"android":"levelo://app?vid=6d6561ce-edea-43b4-b0c4-ad075ad61e69","ios":"levelo://app?vid=6d6561ce-edea-43b4-b0c4-ad075ad61e69"},"vehicle_type_id":"4","last_reported":1741036148,"current_range_meters":800,"station_id":"ce4bhs12rcd13ifvqhvg","pricing_plan_id":"cebpf4jnsgd1na2vs0mg"},{"bike_id":"acd2bbe6-44fa-4032-9f45-0dd12cbaa8b0","system_id":"levelo_inurba_marseille","lat":43.3089,"lon":5.3966,"is_reserved":false,"is_disabled":true,"rental_uris":{"android":"levelo://app?vid=acd2bbe6-44fa-4032-9f45-0dd12cbaa8b0","ios":"levelo://app?vid=acd2bbe6-44fa-4032-9f45-0dd12cbaa8b0"},"vehicle_type_id":"4","last_reported":1741036148,"current_range_meters":1200,"station_id":"ce4bh012rcd13ifvqcv0","pricing_plan_id":"cebpf4jnsgd1na2vs0mg"},{"bike_id":"83b497b2-314e-4b20-9e5a-bb5497fdb332","system_id":"levelo_inurba_marseille","lat":43.28456,"lon":5.39197,"is_reserved":false,"is_disabled":true,"rental_uris":{"android":"levelo://app?vid=83b497b2-314e-4b20-9e5a-bb5497fdb332","ios":"levelo://app?vid=83b497b2-314e-4b20-9e5a-bb5497fdb332"},"vehicle_type_id":"4","last_reported":1741036148,"current_range_meters":1200,"station_id":"ce4bhoh2rcd13ifvqh5g","pricing_plan_id":"cebpf4jnsgd1na2vs0mg"},{"bike_id":"4916c642-ea60-4827-a4e4-93088730a2d5","system_id":"levelo_inurba_marseille","lat":43.30426,"lon":5.388654,"is_reserved":false,"is_disabled":true,"rental_uris":{"android":"levelo://app?vid=4916c642-ea60-4827-a4e4-93088730a2d5","ios":"levelo://app?vid=4916c642-ea60-4827-a4e4-93088730a2d5"},"vehicle_type_id":"4","last_reported":1741036148,"current_range_meters":1600,"station_id":"ce4bgk12rcd13ifvqbi0","pricing_plan_id":"cebpf4jnsgd1na2vs0mg"},{"bike_id":"76bfda04-5a5a-40b2-8f05-88b1305e12dc","system_id":"levelo_inurba_marseille","lat":43.29867,"lon":5.39735,"is_reserved":false,"is_disabled":true,"rental_uris":{"android":"levelo://app?vid=76bfda04-5a5a-40b2-8f05-88b1305e12dc","ios":"levelo://app?vid=76bfda04-5a5a-40b2-8f05-88b1305e12dc"},"vehicle_type_id":"4","last_reported":1741036148,"current_range_meters":1600,"station_id":"ce4bh0h2rcd13ifvqd50","pricing_plan_id":"cebpf4jnsgd1na2vs0mg"},{"bike_id":"c1cf74d3-76f9-410f-ad1c-6c036afb276a","system_id":"levelo_inurba_marseille","lat":43.27559,"lon":5.38421,"is_reserved":false,"is_disabled":true,"rental_uris":{"android":"levelo://app?vid=c1cf74d3-76f9-410f-ad1c-6c036afb276a","ios":"levelo://app?vid=c1cf74d3-76f9-410f-ad1c-6c036afb276a"},"vehicle_type_id":"4","last_reported":1741036148,"current_range_meters":1600,"station_id":"ce4bh2h2rcd13ifvqdh0","pricing_plan_id":"cebpf4jnsgd1na2vs0mg"},{"bike_id":"63a8dd61-ac62-4bef-9b10-193f26937a1d","system_id":"levelo_inurba_marseille","lat":43.29575,"lon":5.39992,"is_reserved":false,"is_disabled":true,"rental_uris":{"android":"levelo://app?vid=63a8dd61-ac62-4bef-9b10-193f26937a1d","ios":"levelo://app?vid=63a8dd61-ac62-4bef-9b10-193f26937a1d"},"vehicle_type_id":"4","last_reported":1741036148,"current_range_meters":1600,"station_id":"ce4bh312rcd13ifvqdj0","pricing_plan_id":"cebpf4jnsgd1na2vs0mg"},{"bike_id":"87e52932-c7bb-481f-82ed-e3340dee1335","system_id":"levelo_inurba_marseille","lat":43.28924,"lon":5.38412,"is_reserved":false,"is_disabled":true,"rental_uris":{"android":"levelo://app?vid=87e52932-c7bb-481f-82ed-e3340dee1335","ios":"levelo://app?vid=87e52932-c7bb-481f-82ed-e3340dee1335"},"vehicle_type_id":"4","last_reported":1741036148,"current_range_meters":1600,"station_id":"ce4bh612rcd13ifvqe6g","pricing_plan_id":"cebpf4jnsgd1na2vs0mg"},{"bike_id":"85414c93-3c63-45d7-a0d1-f8ef9f8b5fe5","system_id":"levelo_inurba_marseille","lat":43.286928,"lon":5.373981,"is_reserved":false,"is_disabled":true,"rental_uris":{"android":"levelo://app?vid=85414c93-3c63-45d7-a0d1-f8ef9f8b5fe5","ios":"levelo://app?vid=85414c93-3c63-45d7-a0d1-f8ef9f8b5fe5"},"vehicle_type_id":"4","last_reported":1741036148,"current_range_meters":2000,"station_id":"","pricing_plan_id":"cebpf4jnsgd1na2vs0mg"},{"bike_id":"b6f1cc23-9854-4734-b28b-d72c4a7d7047","system_id":"levelo_inurba_marseille","lat":43.30933,"lon":5.40144,"is_reserved":false,"is_disabled":true,"rental_uris":{"android":"levelo://app?vid=b6f1cc23-9854-4734-b28b-d72c4a7d7047","ios":"levelo://app?vid=b6f1cc23-9854-4734-b28b-d72c4a7d7047"},"vehicle_type_id":"4","last_reported":1741036148,"current_range_meters":2000,"station_id":"ce4bgvp2rcd13ifvqct0","pricing_plan_id":"cebpf4jnsgd1na2vs0mg"},{"bike_id":"b690fcc5-8d61-4d94-a47b-d8a3a7649f68","system_id":"levelo_inurba_marseille","lat":43.2841,"lon":5.37527,"is_reserved":false,"is_disabled":true,"rental_uris":{"android":"levelo://app?vid=b690fcc5-8d61-4d94-a47b-d8a3a7649f68","ios":"levelo://app?vid=b690fcc5-8d61-4d94-a47b-d8a3a7649f68"},"vehicle_type_id":"4","last_reported":1741036148,"current_range_meters":2000,"station_id":"ce4bh412rcd13ifvqds0","pricing_plan_id":"cebpf4jnsgd1na2vs0mg"},{"bike_id":"5cf485f0-0424-4195-84d9-8609b01e21ea","system_id":"levelo_inurba_marseille","lat":43.29087,"lon":5.36751,"is_reserved":false,"is_disabled":true,"rental_uris":{"android":"levelo://app?vid=5cf485f0-0424-4195-84d9-8609b01e21ea","ios":"levelo://app?vid=5cf485f0-0424-4195-84d9-8609b01e21ea"},"vehicle_type_id":"4","last_reported":1741036148,"current_range_meters":2800,"station_id":"","pricing_plan_id":"cebpf4jnsgd1na2vs0mg"},{"bike_id":"54794e60-ccf1-4295-a0a1-6e9d812aad63","system_id":"levelo_inurba_marseille","lat":43.29598,"lon":5.38095,"is_reserved":false,"is_disabled":false,"rental_uris":{"android":"levelo://app?vid=54794e60-ccf1-4295-a0a1-6e9d812aad63","ios":"levelo://app?vid=54794e60-ccf1-4295-a0a1-6e9d812aad63"},"vehicle_type_id":"4","last_reported":1741036148,"current_range_meters":2800,"station_id":"ce4bgl12rcd13ifvqbo0","pricing_plan_id":"cebpf4jnsgd1na2vs0mg"},{"bike_id":"a3b3ab35-05a6-41ab-8d96-ec9d807a1011","system_id":"levelo_inurba_marseille","lat":43.24196,"lon":5.39728,"is_reserved":false,"is_disabled":false,"rental_uris":{"android":"levelo://app?vid=a3b3ab35-05a6-41ab-8d96-ec9d807a1011","ios":"levelo://app?vid=a3b3ab35-05a6-41ab-8d96-ec9d807a1011"},"vehicle_type_id":"4","last_reported":1741036148,"current_range_meters":2800,"station_id":"ce4bhn12rcd13ifvqgpg","pricing_plan_id":"cebpf4jnsgd1na2vs0mg"},{"bike_id":"f8d75976-6ca8-425e-a13e-38d537cc9d80","system_id":"levelo_inurba_marseille","lat":43.31476,"lon":5.37302,"is_reserved":false,"is_disabled":false,"rental_uris":{"android":"levelo://app?vid=f8d75976-6ca8-425e-a13e-38d537cc9d80","ios":"levelo://app?vid=f8d75976-6ca8-425e-a13e-38d537cc9d80"},"vehicle_type_id":"4","last_reported":1741036148,"current_range_meters":3200,"station_id":"ce4bgt12rcd13ifvqcd0","pricing_plan_id":"cebpf4jnsgd1na2vs0mg"},{"bike_id":"b62cec23-eadf-4c25-86f0-10c5b016511e","system_id":"levelo_inurba_marseille","lat":43.28664,"lon":5.36348,"is_reserved":false,"is_disabled":false,"rental_uris":{"android":"levelo://app?vid=b62cec23-eadf-4c25-86f0-10c5b016511e","ios":"levelo://app?vid=b62cec23-eadf-4c25-86f0-10c5b016511e"},"vehicle_type_id":"4","last_reported":1741036148,"current_range_meters":3200,"station_id":"ce4bhah2rcd13ifvqej0","pricing_plan_id":"cebpf4jnsgd1na2vs0mg"},{"bike_id":"e8a115ad-a4b4-4fcc-8418-22411f786868","system_id":"levelo_inurba_marseille","lat":43.2455,"lon":5.39525,"is_reserved":false,"is_disabled":false,"rental_uris":{"android":"levelo://app?vid=e8a115ad-a4b4-4fcc-8418-22411f786868","ios":"levelo://app?vid=e8a115ad-a4b4-4fcc-8418-22411f786868"},"vehicle_type_id":"4","last_reported":1741036148,"current_range_meters":3200,"station_id":"ce4bhlp2rcd13ifvqgjg","pricing_plan_id":"cebpf4jnsgd1na2vs0mg"},{"bike_id":"7294fa1b-6789-4d34-92da-72d6801cf1aa","system_id":"levelo_inurba_marseille","lat":43.32715,"lon":5.36277,"is_reserved":false,"is_disabled":false,"rental_uris":{"android":"levelo://app?vid=7294fa1b-6789-4d34-92da-72d6801cf1aa","ios":"levelo://app?vid=7294fa1b-6789-4d34-92da-72d6801cf1aa"},"vehicle_type_id":"4","last_reported":1741036148,"current_range_meters":3600,"station_id":"","pricing_plan_id":"cebpf4jnsgd1na2vs0mg"},{"bike_id":"831a1836-9f15-4c24-b5ae-de9e76ee644a","system_id":"levelo_inurba_marseille","lat":43.330234,"lon":5.39033,"is_reserved":false,"is_disabled":false,"rental_uris":{"android":"levelo://app?vid=831a1836-9f15-4c24-b5ae-de9e76ee644a","ios":"levelo://app?vid=831a1836-9f15-4c24-b5ae-de9e76ee644a"},"vehicle_type_id":"4","last_reported":1741036148,"current_range_meters":3600,"station_id":"ce4bhr92rcd13ifvqhrg","pricing_plan_id":"cebpf4jnsgd1na2vs0mg"},{"bike_id":"5d5f85e8-4030-4cb8-8ed9-a1faab49c48f","system_id":"levelo_inurba_marseille","lat":43.3222,"lon":5.39157,"is_reserved":false,"is_disabled":false,"rental_uris":{"android":"levelo://app?vid=5d5f85e8-4030-4cb8-8ed9-a1faab49c48f","ios":"levelo://app?vid=5d5f85e8-4030-4cb8-8ed9-a1faab49c48f"},"vehicle_type_id":"4","last_reported":1741036148,"current_range_meters":4400,"station_id":"","pricing_plan_id":"cebpf4jnsgd1na2vs0mg"},{"bike_id":"b4a958b6-c20a-49d7-b146-1203321285d8","system_id":"levelo_inurba_marseille","lat":43.23185,"lon":5.39983,"is_reserved":false,"is_disabled":false,"rental_uris":{"android":"levelo://app?vid=b4a958b6-c20a-49d7-b146-1203321285d8","ios":"levelo://app?vid=b4a958b6-c20a-49d7-b146-1203321285d8"},"vehicle_type_id":"4","last_reported":1741036148,"current_range_meters":4400,"station_id":"ce4bhn12rcd13ifvqgqg","pricing_plan_id":"cebpf4jnsgd1na2vs0mg"},{"bike_id":"217d65b3-7ceb-462d-9843-88d2f01a5050","system_id":"levelo_inurba_marseille","lat":43.32921,"lon":5.38082,"is_reserved":false,"is_disabled":false,"rental_uris":{"android":"levelo://app?vid=217d65b3-7ceb-462d-9843-88d2f01a5050","ios":"levelo://app?vid=217d65b3-7ceb-462d-9843-88d2f01a5050"},"vehicle_type_id":"4","last_reported":1741036148,"current_range_meters":4800,"station_id":"","pricing_plan_id":"cebpf4jnsgd1na2vs0mg"},{"bike_id":"1eed29b1-8f72-45e6-a949-e9bce569cc22","system_id":"levelo_inurba_marseille","lat":43.29797,"lon":5.40401,"is_reserved":false,"is_disabled":false,"rental_uris":{"android":"levelo://app?vid=1eed29b1-8f72-45e6-a949-e9bce569cc22","ios":"levelo://app?vid=1eed29b1-8f72-45e6-a949-e9bce569cc22"},"vehicle_type_id":"4","last_reported":1741036148,"current_range_meters":4800,"station_id":"ce4bh112rcd13ifvqd90","pricing_plan_id":"cebpf4jnsgd1na2vs0mg"},{"bike_id":"604464c5-97b1-4246-ba0d-281a359fb88c","system_id":"levelo_inurba_marseille","lat":43.28559,"lon":5.39522,"is_reserved":false,"is_disabled":false,"rental_uris":{"android":"levelo://app?vid=604464c5-97b1-4246-ba0d-281a359fb88c","ios":"levelo://app?vid=604464c5-97b1-4246-ba0d-281a359fb88c"},"vehicle_type_id":"4","last_reported":1741036148,"current_range_meters":4800,"station_id":"ce4bh292rcd13ifvqdg0","pricing_plan_id":"cebpf4jnsgd1na2vs0mg"},{"bike_id":"ed66d6d0-2199-4330-a81f-5b8beacb5347","system_id":"levelo_inurba_marseille","lat":43.28413,"lon":5.37513,"is_reserved":false,"is_disabled":false,"rental_uris":{"android":"levelo://app?vid=ed66d6d0-2199-4330-a81f-5b8beacb5347","ios":"levelo://app?vid=ed66d6d0-2199-4330-a81f-5b8beacb5347"},"vehicle_type_id":"4","last_reported":1741036148,"current_range_meters":4800,"station_id":"ce4bh412rcd13ifvqds0","pricing_plan_id":"cebpf4jnsgd1na2vs0mg"},{"bike_id":"8b458597-9639-492e-aa6b-d0a23ffeb280","system_id":"levelo_inurba_marseille","lat":43.2558,"lon":5.38254,"is_reserved":false,"is_disabled":false,"rental_uris":{"android":"levelo://app?vid=8b458597-9639-492e-aa6b-d0a23ffeb280","ios":"levelo://app?vid=8b458597-9639-492e-aa6b-d0a23ffeb280"},"vehicle_type_id":"4","last_reported":1741036148,"current_range_meters":4800,"station_id":"ce4bhih2rcd13ifvqfs0","pricing_plan_id":"cebpf4jnsgd1na2vs0mg"},{"bike_id":"cb08b0ec-6a9d-4912-bad2-304a2911a87a","system_id":"levelo_inurba_marseille","lat":43.29259,"lon":5.37622,"is_reserved":false,"is_disabled":false,"rental_uris":{"android":"levelo://app?vid=cb08b0ec-6a9d-4912-bad2-304a2911a87a","ios":"levelo://app?vid=cb08b0ec-6a9d-4912-bad2-304a2911a87a"},"vehicle_type_id":"4","last_reported":1741036148,"current_range_meters":5600,"station_id":"ce4bgi12rcd13ifvqb80","pricing_plan_id":"cebpf4jnsgd1na2vs0mg"},{"bike_id":"db917d75-2e56-416a-a174-c009ce6c14ea","system_id":"levelo_inurba_marseille","lat":43.289366,"lon":5.364019,"is_reserved":false,"is_disabled":false,"rental_uris":{"android":"levelo://app?vid=db917d75-2e56-416a-a174-c009ce6c14ea","ios":"levelo://app?vid=db917d75-2e56-416a-a174-c009ce6c14ea"},"vehicle_type_id":"4","last_reported":1741036148,"current_range_meters":5600,"station_id":"ce4bhc92rcd13ifvqetg","pricing_plan_id":"cebpf4jnsgd1na2vs0mg"},{"bike_id":"e0fc8d54-7aea-4d6e-8fa8-926448c099ad","system_id":"levelo_inurba_marseille","lat":43.26059,"lon":5.39381,"is_reserved":false,"is_disabled":false,"rental_uris":{"android":"levelo://app?vid=e0fc8d54-7aea-4d6e-8fa8-926448c099ad","ios":"levelo://app?vid=e0fc8d54-7aea-4d6e-8fa8-926448c099ad"},"vehicle_type_id":"4","last_reported":1741036148,"current_range_meters":5600,"station_id":"ce4bhh92rcd13ifvqfj0","pricing_plan_id":"cebpf4jnsgd1na2vs0mg"},{"bike_id":"de12ae88-8a49-4127-a4ae-0c2d4331cb91","system_id":"levelo_inurba_marseille","lat":43.24394,"lon":5.37059,"is_reserved":false,"is_disabled":false,"rental_uris":{"android":"levelo://app?vid=de12ae88-8a49-4127-a4ae-0c2d4331cb91","ios":"levelo://app?vid=de12ae88-8a49-4127-a4ae-0c2d4331cb91"},"vehicle_type_id":"4","last_reported":1741036148,"current_range_meters":6000,"station_id":"ce4bhhh2rcd13ifvqfk0","pricing_plan_id":"cebpf4jnsgd1na2vs0mg"},{"bike_id":"e57e0260-feb2-4d2f-80c2-2fb48b72f9e0","system_id":"levelo_inurba_marseille","lat":43.306,"lon":5.3723,"is_reserved":false,"is_disabled":false,"rental_uris":{"android":"levelo://app?vid=e57e0260-feb2-4d2f-80c2-2fb48b72f9e0","ios":"levelo://app?vid=e57e0260-feb2-4d2f-80c2-2fb48b72f9e0"},"vehicle_type_id":"4","last_reported":1741036148,"current_range_meters":6400,"station_id":"ce4bgqh2rcd13ifvqc4g","pricing_plan_id":"cebpf4jnsgd1na2vs0mg"},{"bike_id":"18dc9bda-e5c5-440d-b60f-d6dbca42063e","system_id":"levelo_inurba_marseille","lat":43.29875,"lon":5.38915,"is_reserved":false,"is_disabled":false,"rental_uris":{"android":"levelo://app?vid=18dc9bda-e5c5-440d-b60f-d6dbca42063e","ios":"levelo://app?vid=18dc9bda-e5c5-440d-b60f-d6dbca42063e"},"vehicle_type_id":"4","last_reported":1741036148,"current_range_meters":6400,"station_id":"ce4bh392rcd13ifvqdl0","pricing_plan_id":"cebpf4jnsgd1na2vs0mg"},{"bike_id":"fd55ec61-ea03-4691-8f74-530e74ea7311","system_id":"levelo_inurba_marseille","lat":43.25019,"lon":5.38927,"is_reserved":false,"is_disabled":false,"rental_uris":{"android":"levelo://app?vid=fd55ec61-ea03-4691-8f74-530e74ea7311","ios":"levelo://app?vid=fd55ec61-ea03-4691-8f74-530e74ea7311"},"vehicle_type_id":"4","last_reported":1741036148,"current_range_meters":6400,"station_id":"ce4bhgp2rcd13ifvqfd0","pricing_plan_id":"cebpf4jnsgd1na2vs0mg"},{"bike_id":"668bcddd-0ac8-402c-b6a2-0e4934644fd6","system_id":"levelo_inurba_marseille","lat":43.30603,"lon":5.39364,"is_reserved":false,"is_disabled":false,"rental_uris":{"android":"levelo://app?vid=668bcddd-0ac8-402c-b6a2-0e4934644fd6","ios":"levelo://app?vid=668bcddd-0ac8-402c-b6a2-0e4934644fd6"},"vehicle_type_id":"4","last_reported":1741036148,"current_range_meters":6800,"station_id":"ce4bh0p2rcd13ifvqd80","pricing_plan_id":"cebpf4jnsgd1na2vs0mg"},{"bike_id":"9db49163-1bcf-4cb4-975b-b1e9ddf4e6d9","system_id":"levelo_inurba_marseille","lat":43.27172,"lon":5.40988,"is_reserved":false,"is_disabled":false,"rental_uris":{"android":"levelo://app?vid=9db49163-1bcf-4cb4-975b-b1e9ddf4e6d9","ios":"levelo://app?vid=9db49163-1bcf-4cb4-975b-b1e9ddf4e6d9"},"vehicle_type_id":"4","last_reported":1741036148,"current_range_meters":6800,"station_id":"ce4bhl12rcd13ifvqgf0","pricing_plan_id":"cebpf4jnsgd1na2vs0mg"},{"bike_id":"23c20c41-e8a4-4dc6-b7b9-05b6d6793f3e","system_id":"levelo_inurba_marseille","lat":43.27837,"lon":5.40697,"is_reserved":false,"is_disabled":false,"rental_uris":{"android":"levelo://app?vid=23c20c41-e8a4-4dc6-b7b9-05b6d6793f3e","ios":"levelo://app?vid=23c20c41-e8a4-4dc6-b7b9-05b6d6793f3e"},"vehicle_type_id":"4","last_reported":1741036148,"current_range_meters":6800,"station_id":"ce4bhnh2rcd13ifvqgtg","pricing_plan_id":"cebpf4jnsgd1na2vs0mg"},{"bike_id":"5cd0c11b-f9d6-428f-9f34-0abc9c264bfe","system_id":"levelo_inurba_marseille","lat":43.28037,"lon":5.41688,"is_reserved":false,"is_disabled":false,"rental_uris":{"android":"levelo://app?vid=5cd0c11b-f9d6-428f-9f34-0abc9c264bfe","ios":"levelo://app?vid=5cd0c11b-f9d6-428f-9f34-0abc9c264bfe"},"vehicle_type_id":"4","last_reported":1741036148,"current_range_meters":6800,"station_id":"ce4bho12rcd13ifvqh1g","pricing_plan_id":"cebpf4jnsgd1na2vs0mg"},{"bike_id":"1e33d31b-25a3-4cc0-86cd-02144e12ea43","system_id":"levelo_inurba_marseille","lat":43.30142,"lon":5.39873,"is_reserved":false,"is_disabled":false,"rental_uris":{"android":"levelo://app?vid=1e33d31b-25a3-4cc0-86cd-02144e12ea43","ios":"levelo://app?vid=1e33d31b-25a3-4cc0-86cd-02144e12ea43"},"vehicle_type_id":"4","last_reported":1741036148,"current_range_meters":7200,"station_id":"ce4bh0h2rcd13ifvqd40","pricing_plan_id":"cebpf4jnsgd1na2vs0mg"},{"bike_id":"3ea4eed1-15d4-4fc3-ac79-8960a628997e","system_id":"levelo_inurba_marseille","lat":43.24629,"lon":5.38878,"is_reserved":false,"is_disabled":false,"rental_uris":{"android":"levelo://app?vid=3ea4eed1-15d4-4fc3-ac79-8960a628997e","ios":"levelo://app?vid=3ea4eed1-15d4-4fc3-ac79-8960a628997e"},"vehicle_type_id":"4","last_reported":1741036148,"current_range_meters":7200,"station_id":"ce4bhg12rcd13ifvqf60","pricing_plan_id":"cebpf4jnsgd1na2vs0mg"},{"bike_id":"6229b5e8-8d17-4294-a915-b97f6de0103d","system_id":"levelo_inurba_marseille","lat":43.25575,"lon":5.38224,"is_reserved":false,"is_disabled":false,"rental_uris":{"android":"levelo://app?vid=6229b5e8-8d17-4294-a915-b97f6de0103d","ios":"levelo://app?vid=6229b5e8-8d17-4294-a915-b97f6de0103d"},"vehicle_type_id":"4","last_reported":1741036148,"current_range_meters":7200,"station_id":"ce4bhih2rcd13ifvqfs0","pricing_plan_id":"cebpf4jnsgd1na2vs0mg"},{"bike_id":"0a42b506-aec3-4369-808c-c91f0f7eb197","system_id":"levelo_inurba_marseille","lat":43.25571,"lon":5.38235,"is_reserved":false,"is_disabled":false,"rental_uris":{"android":"levelo://app?vid=0a42b506-aec3-4369-808c-c91f0f7eb197","ios":"levelo://app?vid=0a42b506-aec3-4369-808c-c91f0f7eb197"},"vehicle_type_id":"4","last_reported":1741036148,"current_range_meters":7200,"station_id":"ce4bhih2rcd13ifvqfs0","pricing_plan_id":"cebpf4jnsgd1na2vs0mg"},{"bike_id":"3df256a4-3af2-4e09-ac29-246774d99c68","system_id":"levelo_inurba_marseille","lat":43.23178,"lon":5.39975,"is_reserved":false,"is_disabled":false,"rental_uris":{"android":"levelo://app?vid=3df256a4-3af2-4e09-ac29-246774d99c68","ios":"levelo://app?vid=3df256a4-3af2-4e09-ac29-246774d99c68"},"vehicle_type_id":"4","last_reported":1741036148,"current_range_meters":7200,"station_id":"ce4bhn12rcd13ifvqgqg","pricing_plan_id":"cebpf4jnsgd1na2vs0mg"},{"bike_id":"2daa11be-071f-479c-9bd0-92101cc53d8c","system_id":"levelo_inurba_marseille","lat":43.28079,"lon":5.39631,"is_reserved":false,"is_disabled":false,"rental_uris":{"android":"levelo://app?vid=2daa11be-071f-479c-9bd0-92101cc53d8c","ios":"levelo://app?vid=2daa11be-071f-479c-9bd0-92101cc53d8c"},"vehicle_type_id":"4","last_reported":1741036148,"current_range_meters":7200,"station_id":"ce4bho12rcd13ifvqh2g","pricing_plan_id":"cebpf4jnsgd1na2vs0mg"},{"bike_id":"c4445bc0-5f30-4d66-8d13-5a5b5ff7eb7c","system_id":"levelo_inurba_marseille","lat":43.30605,"lon":5.39356,"is_reserved":false,"is_disabled":false,"rental_uris":{"android":"levelo://app?vid=c4445bc0-5f30-4d66-8d13-5a5b5ff7eb7c","ios":"levelo://app?vid=c4445bc0-5f30-4d66-8d13-5a5b5ff7eb7c"},"vehicle_type_id":"4","last_reported":1741036148,"current_range_meters":8000,"station_id":"ce4bh0p2rcd13ifvqd80","pricing_plan_id":"cebpf4jnsgd1na2vs0mg"},{"bike_id":"9aa030fc-75b6-46d2-bc65-2c1c00869ae1","system_id":"levelo_inurba_marseille","lat":43.25091,"lon":5.39522,"is_reserved":false,"is_disabled":false,"rental_uris":{"android":"levelo://app?vid=9aa030fc-75b6-46d2-bc65-2c1c00869ae1","ios":"levelo://app?vid=9aa030fc-75b6-46d2-bc65-2c1c00869ae1"},"vehicle_type_id":"4","last_reported":1741036148,"current_range_meters":8000,"station_id":"ce4bhm12rcd13ifvqgkg","pricing_plan_id":"cebpf4jnsgd1na2vs0mg"},{"bike_id":"2ab11bbe-a968-4ea2-8a15-b47f3045ae38","system_id":"levelo_inurba_marseille","lat":43.2318,"lon":5.40007,"is_reserved":false,"is_disabled":false,"rental_uris":{"android":"levelo://app?vid=2ab11bbe-a968-4ea2-8a15-b47f3045ae38","ios":"levelo://app?vid=2ab11bbe-a968-4ea2-8a15-b47f3045ae38"},"vehicle_type_id":"4","last_reported":1741036148,"current_range_meters":8000,"station_id":"ce4bhn12rcd13ifvqgqg","pricing_plan_id":"cebpf4jnsgd1na2vs0mg"},{"bike_id":"901934c1-859a-461c-ba7e-3af826871fe8","system_id":"levelo_inurba_marseille","lat":43.27494,"lon":5.42448,"is_reserved":false,"is_disabled":false,"rental_uris":{"android":"levelo://app?vid=901934c1-859a-461c-ba7e-3af826871fe8","ios":"levelo://app?vid=901934c1-859a-461c-ba7e-3af826871fe8"},"vehicle_type_id":"4","last_reported":1741036148,"current_range_meters":8000,"station_id":"ce4bhn92rcd13ifvqgrg","pricing_plan_id":"cebpf4jnsgd1na2vs0mg"},{"bike_id":"5da70b26-5045-4fcf-85cf-7f68a925e135","system_id":"levelo_inurba_marseille","lat":43.28021,"lon":5.4166,"is_reserved":false,"is_disabled":false,"rental_uris":{"android":"levelo://app?vid=5da70b26-5045-4fcf-85cf-7f68a925e135","ios":"levelo://app?vid=5da70b26-5045-4fcf-85cf-7f68a925e135"},"vehicle_type_id":"4","last_reported":1741036148,"current_range_meters":8000,"station_id":"ce4bho12rcd13ifvqh1g","pricing_plan_id":"cebpf4jnsgd1na2vs0mg"},{"bike_id":"f381c9bd-14fa-41ab-b589-3ecebd6dfe48","system_id":"levelo_inurba_marseille","lat":43.32358,"lon":5.36749,"is_reserved":false,"is_disabled":false,"rental_uris":{"android":"levelo://app?vid=f381c9bd-14fa-41ab-b589-3ecebd6dfe48","ios":"levelo://app?vid=f381c9bd-14fa-41ab-b589-3ecebd6dfe48"},"vehicle_type_id":"4","last_reported":1741036148,"current_range_meters":8000,"station_id":"ce4bhsh2rcd13ifvqi2g","pricing_plan_id":"cebpf4jnsgd1na2vs0mg"},{"bike_id":"6d179f19-88b8-4e27-9211-90e1bfa6d2cb","system_id":"levelo_inurba_marseille","lat":43.32977,"lon":5.39322,"is_reserved":false,"is_disabled":false,"rental_uris":{"android":"levelo://app?vid=6d179f19-88b8-4e27-9211-90e1bfa6d2cb","ios":"levelo://app?vid=6d179f19-88b8-4e27-9211-90e1bfa6d2cb"},"vehicle_type_id":"4","last_reported":1741036148,"current_range_meters":8400,"station_id":"","pricing_plan_id":"cebpf4jnsgd1na2vs0mg"},{"bike_id":"cc33fbb4-9af6-4003-b965-a7312e3c1cb7","system_id":"levelo_inurba_marseille","lat":43.29719,"lon":5.37908,"is_reserved":false,"is_disabled":false,"rental_uris":{"android":"levelo://app?vid=cc33fbb4-9af6-4003-b965-a7312e3c1cb7","ios":"levelo://app?vid=cc33fbb4-9af6-4003-b965-a7312e3c1cb7"},"vehicle_type_id":"4","last_reported":1741036148,"current_range_meters":8400,"station_id":"","pricing_plan_id":"cebpf4jnsgd1na2vs0mg"},{"bike_id":"d7ce44cc-3af2-4647-93ca-8a6f7b44c256","system_id":"levelo_inurba_marseille","lat":43.32804,"lon":5.39156,"is_reserved":false,"is_disabled":false,"rental_uris":{"android":"levelo://app?vid=d7ce44cc-3af2-4647-93ca-8a6f7b44c256","ios":"levelo://app?vid=d7ce44cc-3af2-4647-93ca-8a6f7b44c256"},"vehicle_type_id":"4","last_reported":1741036148,"current_range_meters":8400,"station_id":"","pricing_plan_id":"cebpf4jnsgd1na2vs0mg"},{"bike_id":"76d154d9-de45-47c4-aa4e-ebc4dd631146","system_id":"levelo_inurba_marseille","lat":43.29277,"lon":5.37616,"is_reserved":false,"is_disabled":false,"rental_uris":{"android":"levelo://app?vid=76d154d9-de45-47c4-aa4e-ebc4dd631146","ios":"levelo://app?vid=76d154d9-de45-47c4-aa4e-ebc4dd631146"},"vehicle_type_id":"4","last_reported":1741036148,"current_range_meters":8400,"station_id":"ce4bgi12rcd13ifvqb80","pricing_plan_id":"cebpf4jnsgd1na2vs0mg"},{"bike_id":"40ca4642-0bbb-4379-bb0e-e0c8c5f1f77b","system_id":"levelo_inurba_marseille","lat":43.29277,"lon":5.40113,"is_reserved":false,"is_disabled":false,"rental_uris":{"android":"levelo://app?vid=40ca4642-0bbb-4379-bb0e-e0c8c5f1f77b","ios":"levelo://app?vid=40ca4642-0bbb-4379-bb0e-e0c8c5f1f77b"},"vehicle_type_id":"4","last_reported":1741036148,"current_range_meters":8400,"station_id":"ce4bh312rcd13ifvqdk0","pricing_plan_id":"cebpf4jnsgd1na2vs0mg"},{"bike_id":"27d79748-37ff-44a9-9b3c-91da3ce4c1f0","system_id":"levelo_inurba_marseille","lat":43.28951,"lon":5.36395,"is_reserved":false,"is_disabled":false,"rental_uris":{"android":"levelo://app?vid=27d79748-37ff-44a9-9b3c-91da3ce4c1f0","ios":"levelo://app?vid=27d79748-37ff-44a9-9b3c-91da3ce4c1f0"},"vehicle_type_id":"4","last_reported":1741036148,"current_range_meters":8400,"station_id":"ce4bhc92rcd13ifvqetg","pricing_plan_id":"cebpf4jnsgd1na2vs0mg"},{"bike_id":"69539ccb-ca63-4555-bd43-968ddad5c3c6","system_id":"levelo_inurba_marseille","lat":43.25007,"lon":5.38917,"is_reserved":false,"is_disabled":false,"rental_uris":{"android":"levelo://app?vid=69539ccb-ca63-4555-bd43-968ddad5c3c6","ios":"levelo://app?vid=69539ccb-ca63-4555-bd43-968ddad5c3c6"},"vehicle_type_id":"4","last_reported":1741036148,"current_range_meters":8400,"station_id":"ce4bhgp2rcd13ifvqfd0","pricing_plan_id":"cebpf4jnsgd1na2vs0mg"},{"bike_id":"40323d2b-7fa4-44fa-8afd-3105efa74518","system_id":"levelo_inurba_marseille","lat":43.24201,"lon":5.39745,"is_reserved":false,"is_disabled":false,"rental_uris":{"android":"levelo://app?vid=40323d2b-7fa4-44fa-8afd-3105efa74518","ios":"levelo://app?vid=40323d2b-7fa4-44fa-8afd-3105efa74518"},"vehicle_type_id":"4","last_reported":1741036148,"current_range_meters":8400,"station_id":"ce4bhn12rcd13ifvqgpg","pricing_plan_id":"cebpf4jnsgd1na2vs0mg"},{"bike_id":"9ee3d017-a864-4e85-a47f-e27d4c7b327f","system_id":"levelo_inurba_marseille","lat":43.27811,"lon":5.40728,"is_reserved":false,"is_disabled":false,"rental_uris":{"android":"levelo://app?vid=9ee3d017-a864-4e85-a47f-e27d4c7b327f","ios":"levelo://app?vid=9ee3d017-a864-4e85-a47f-e27d4c7b327f"},"vehicle_type_id":"4","last_reported":1741036148,"current_range_meters":8400,"station_id":"ce4bhnh2rcd13ifvqgtg","pricing_plan_id":"cebpf4jnsgd1na2vs0mg"},{"bike_id":"89cb348e-b4f6-4810-b86f-98d924074122","system_id":"levelo_inurba_marseille","lat":43.323656,"lon":5.38885,"is_reserved":false,"is_disabled":false,"rental_uris":{"android":"levelo://app?vid=89cb348e-b4f6-4810-b86f-98d924074122","ios":"levelo://app?vid=89cb348e-b4f6-4810-b86f-98d924074122"},"vehicle_type_id":"4","last_reported":1741036148,"current_range_meters":8400,"station_id":"ce4bhqp2rcd13ifvqhog","pricing_plan_id":"cebpf4jnsgd1na2vs0mg"},{"bike_id":"8ade5181-cd88-4ece-8534-46a6372826ef","system_id":"levelo_inurba_marseille","lat":43.27716,"lon":5.4154,"is_reserved":false,"is_disabled":false,"rental_uris":{"android":"levelo://app?vid=8ade5181-cd88-4ece-8534-46a6372826ef","ios":"levelo://app?vid=8ade5181-cd88-4ece-8534-46a6372826ef"},"vehicle_type_id":"4","last_reported":1741036148,"current_range_meters":8800,"station_id":"","pricing_plan_id":"cebpf4jnsgd1na2vs0mg"},{"bike_id":"b21e25bd-5fe3-4b4c-9515-724946c2cde8","system_id":"levelo_inurba_marseille","lat":43.28461,"lon":5.35886,"is_reserved":false,"is_disabled":false,"rental_uris":{"android":"levelo://app?vid=b21e25bd-5fe3-4b4c-9515-724946c2cde8","ios":"levelo://app?vid=b21e25bd-5fe3-4b4c-9515-724946c2cde8"},"vehicle_type_id":"4","last_reported":1741036148,"current_range_meters":8800,"station_id":"ce4bhah2rcd13ifvqei0","pricing_plan_id":"cebpf4jnsgd1na2vs0mg"},{"bike_id":"2353c1f8-5019-4228-8ea1-65b8a96eed88","system_id":"levelo_inurba_marseille","lat":43.28636,"lon":5.35095,"is_reserved":false,"is_disabled":false,"rental_uris":{"android":"levelo://app?vid=2353c1f8-5019-4228-8ea1-65b8a96eed88","ios":"levelo://app?vid=2353c1f8-5019-4228-8ea1-65b8a96eed88"},"vehicle_type_id":"4","last_reported":1741036148,"current_range_meters":8800,"station_id":"ce4bhch2rcd13ifvqeug","pricing_plan_id":"cebpf4jnsgd1na2vs0mg"},{"bike_id":"07f56688-c23f-4b0c-8af0-19bac8f9d72c","system_id":"levelo_inurba_marseille","lat":43.26198,"lon":5.37927,"is_reserved":false,"is_disabled":false,"rental_uris":{"android":"levelo://app?vid=07f56688-c23f-4b0c-8af0-19bac8f9d72c","ios":"levelo://app?vid=07f56688-c23f-4b0c-8af0-19bac8f9d72c"},"vehicle_type_id":"4","last_reported":1741036148,"current_range_meters":8800,"station_id":"ce4bhjp2rcd13ifvqg90","pricing_plan_id":"cebpf4jnsgd1na2vs0mg"},{"bike_id":"31b2184d-2679-404d-b959-56eaf43114d2","system_id":"levelo_inurba_marseille","lat":43.2623,"lon":5.40482,"is_reserved":false,"is_disabled":false,"rental_uris":{"android":"levelo://app?vid=31b2184d-2679-404d-b959-56eaf43114d2","ios":"levelo://app?vid=31b2184d-2679-404d-b959-56eaf43114d2"},"vehicle_type_id":"4","last_reported":1741036148,"current_range_meters":8800,"station_id":"ce4bhmh2rcd13ifvqgmg","pricing_plan_id":"cebpf4jnsgd1na2vs0mg"},{"bike_id":"e41e0bb8-6c1c-4ce2-b18d-069e130ca183","system_id":"levelo_inurba_marseille","lat":43.23062,"lon":5.355,"is_reserved":false,"is_disabled":false,"rental_uris":{"android":"levelo://app?vid=e41e0bb8-6c1c-4ce2-b18d-069e130ca183","ios":"levelo://app?vid=e41e0bb8-6c1c-4ce2-b18d-069e130ca183"},"vehicle_type_id":"4","last_reported":1741036148,"current_range_meters":8800,"station_id":"cpo3342slgdg3j2ifvpg","pricing_plan_id":"cebpf4jnsgd1na2vs0mg"},{"bike_id":"f17ea63a-db17-447a-a811-21a7bc82155d","system_id":"levelo_inurba_marseille","lat":43.2927,"lon":5.37619,"is_reserved":false,"is_disabled":false,"rental_uris":{"android":"levelo://app?vid=f17ea63a-db17-447a-a811-21a7bc82155d","ios":"levelo://app?vid=f17ea63a-db17-447a-a811-21a7bc82155d"},"vehicle_type_id":"4","last_reported":1741036148,"current_range_meters":9200,"station_id":"ce4bgi12rcd13ifvqb80","pricing_plan_id":"cebpf4jnsgd1na2vs0mg"},{"bike_id":"a4c3698b-40cd-4d33-a9d9-689474fbe572","system_id":"levelo_inurba_marseille","lat":43.30942,"lon":5.39064,"is_reserved":false,"is_disabled":false,"rental_uris":{"android":"levelo://app?vid=a4c3698b-40cd-4d33-a9d9-689474fbe572","ios":"levelo://app?vid=a4c3698b-40cd-4d33-a9d9-689474fbe572"},"vehicle_type_id":"4","last_reported":1741036148,"current_range_meters":9200,"station_id":"ce4bgup2rcd13ifvqco0","pricing_plan_id":"cebpf4jnsgd1na2vs0mg"},{"bike_id":"a195e6bc-b894-442a-bea7-6f9808515ae7","system_id":"levelo_inurba_marseille","lat":43.30889,"lon":5.39641,"is_reserved":false,"is_disabled":false,"rental_uris":{"android":"levelo://app?vid=a195e6bc-b894-442a-bea7-6f9808515ae7","ios":"levelo://app?vid=a195e6bc-b894-442a-bea7-6f9808515ae7"},"vehicle_type_id":"4","last_reported":1741036148,"current_range_meters":9200,"station_id":"ce4bh012rcd13ifvqcv0","pricing_plan_id":"cebpf4jnsgd1na2vs0mg"},{"bike_id":"af0aaf03-ec78-4d32-ab25-3f1a45002eb8","system_id":"levelo_inurba_marseille","lat":43.30599,"lon":5.39343,"is_reserved":false,"is_disabled":false,"rental_uris":{"android":"levelo://app?vid=af0aaf03-ec78-4d32-ab25-3f1a45002eb8","ios":"levelo://app?vid=af0aaf03-ec78-4d32-ab25-3f1a45002eb8"},"vehicle_type_id":"4","last_reported":1741036148,"current_range_meters":9200,"station_id":"ce4bh0p2rcd13ifvqd80","pricing_plan_id":"cebpf4jnsgd1na2vs0mg"},{"bike_id":"ad4e362b-2285-4463-9b2d-deac46bd2dca","system_id":"levelo_inurba_marseille","lat":43.28099,"lon":5.3787,"is_reserved":false,"is_disabled":false,"rental_uris":{"android":"levelo://app?vid=ad4e362b-2285-4463-9b2d-deac46bd2dca","ios":"levelo://app?vid=ad4e362b-2285-4463-9b2d-deac46bd2dca"},"vehicle_type_id":"4","last_reported":1741036148,"current_range_meters":9200,"station_id":"ce4bha12rcd13ifvqee0","pricing_plan_id":"cebpf4jnsgd1na2vs0mg"},{"bike_id":"6d4c1863-5b62-4c5a-885f-92e7721e779d","system_id":"levelo_inurba_marseille","lat":43.28454,"lon":5.35901,"is_reserved":false,"is_disabled":false,"rental_uris":{"android":"levelo://app?vid=6d4c1863-5b62-4c5a-885f-92e7721e779d","ios":"levelo://app?vid=6d4c1863-5b62-4c5a-885f-92e7721e779d"},"vehicle_type_id":"4","last_reported":1741036148,"current_range_meters":9200,"station_id":"ce4bhah2rcd13ifvqei0","pricing_plan_id":"cebpf4jnsgd1na2vs0mg"},{"bike_id":"b240d511-138a-48c0-af7a-005b95321099","system_id":"levelo_inurba_marseille","lat":43.2792,"lon":5.39609,"is_reserved":false,"is_disabled":false,"rental_uris":{"android":"levelo://app?vid=b240d511-138a-48c0-af7a-005b95321099","ios":"levelo://app?vid=b240d511-138a-48c0-af7a-005b95321099"},"vehicle_type_id":"4","last_reported":1741036148,"current_range_meters":9200,"station_id":"ce4bhf92rcd13ifvqf40","pricing_plan_id":"cebpf4jnsgd1na2vs0mg"},{"bike_id":"e5af46d8-756e-4b29-887f-202b12c3baa0","system_id":"levelo_inurba_marseille","lat":43.30404,"lon":5.41278,"is_reserved":false,"is_disabled":false,"rental_uris":{"android":"levelo://app?vid=e5af46d8-756e-4b29-887f-202b12c3baa0","ios":"levelo://app?vid=e5af46d8-756e-4b29-887f-202b12c3baa0"},"vehicle_type_id":"4","last_reported":1741036148,"current_range_meters":9200,"station_id":"ce4bhop2rcd13ifvqh8g","pricing_plan_id":"cebpf4jnsgd1na2vs0mg"},{"bike_id":"ce8ef3d2-07e3-4512-8813-bcde53a01429","system_id":"levelo_inurba_marseille","lat":43.24166,"lon":5.36396,"is_reserved":false,"is_disabled":false,"rental_uris":{"android":"levelo://app?vid=ce8ef3d2-07e3-4512-8813-bcde53a01429","ios":"levelo://app?vid=ce8ef3d2-07e3-4512-8813-bcde53a01429"},"vehicle_type_id":"4","last_reported":1741036148,"current_range_meters":9200,"station_id":"cpo36qri1sfpv3e86is0","pricing_plan_id":"cebpf4jnsgd1na2vs0mg"},{"bike_id":"c8c30254-af6a-4a88-b0b6-9a3a52022bea","system_id":"levelo_inurba_marseille","lat":43.32426,"lon":5.4268,"is_reserved":false,"is_disabled":false,"rental_uris":{"android":"levelo://app?vid=c8c30254-af6a-4a88-b0b6-9a3a52022bea","ios":"levelo://app?vid=c8c30254-af6a-4a88-b0b6-9a3a52022bea"},"vehicle_type_id":"4","last_reported":1741036148,"current_range_meters":9600,"station_id":"","pricing_plan_id":"cebpf4jnsgd1na2vs0mg"},{"bike_id":"71cd5d9d-c4a9-4d7f-b25c-bd7ceef0b27e","system_id":"levelo_inurba_marseille","lat":43.31266,"lon":5.37745,"is_reserved":false,"is_disabled":false,"rental_uris":{"android":"levelo://app?vid=71cd5d9d-c4a9-4d7f-b25c-bd7ceef0b27e","ios":"levelo://app?vid=71cd5d9d-c4a9-4d7f-b25c-bd7ceef0b27e"},"vehicle_type_id":"4","last_reported":1741036148,"current_range_meters":9600,"station_id":"","pricing_plan_id":"cebpf4jnsgd1na2vs0mg"},{"bike_id":"fcc1e2d7-d27d-4efa-925e-da5eb0b689fc","system_id":"levelo_inurba_marseille","lat":43.28105,"lon":5.37858,"is_reserved":false,"is_disabled":false,"rental_uris":{"android":"levelo://app?vid=fcc1e2d7-d27d-4efa-925e-da5eb0b689fc","ios":"levelo://app?vid=fcc1e2d7-d27d-4efa-925e-da5eb0b689fc"},"vehicle_type_id":"4","last_reported":1741036148,"current_range_meters":9600,"station_id":"ce4bha12rcd13ifvqee0","pricing_plan_id":"cebpf4jnsgd1na2vs0mg"},{"bike_id":"5b69c928-069c-4522-8a93-8676e4f351de","system_id":"levelo_inurba_marseille","lat":43.28456,"lon":5.35905,"is_reserved":false,"is_disabled":false,"rental_uris":{"android":"levelo://app?vid=5b69c928-069c-4522-8a93-8676e4f351de","ios":"levelo://app?vid=5b69c928-069c-4522-8a93-8676e4f351de"},"vehicle_type_id":"4","last_reported":1741036148,"current_range_meters":9600,"station_id":"ce4bhah2rcd13ifvqei0","pricing_plan_id":"cebpf4jnsgd1na2vs0mg"},{"bike_id":"ca5480bb-53a6-4ee4-a068-0e6478df7749","system_id":"levelo_inurba_marseille","lat":43.27971,"lon":5.41657,"is_reserved":false,"is_disabled":false,"rental_uris":{"android":"levelo://app?vid=ca5480bb-53a6-4ee4-a068-0e6478df7749","ios":"levelo://app?vid=ca5480bb-53a6-4ee4-a068-0e6478df7749"},"vehicle_type_id":"4","last_reported":1741036148,"current_range_meters":9600,"station_id":"ce4bho12rcd13ifvqh1g","pricing_plan_id":"cebpf4jnsgd1na2vs0mg"},{"bike_id":"4586ca83-2f5e-4b63-b2a9-29ed75f9f1db","system_id":"levelo_inurba_marseille","lat":43.28734,"lon":5.36093,"is_reserved":false,"is_disabled":false,"rental_uris":{"android":"levelo://app?vid=4586ca83-2f5e-4b63-b2a9-29ed75f9f1db","ios":"levelo://app?vid=4586ca83-2f5e-4b63-b2a9-29ed75f9f1db"},"vehicle_type_id":"4","last_reported":1741036148,"current_range_meters":9600,"station_id":"cki0cbj6b192h4jlfktg","pricing_plan_id":"cebpf4jnsgd1na2vs0mg"},{"bike_id":"7145967b-9c34-4188-804f-c15fb0045d6f","system_id":"levelo_inurba_marseille","lat":43.290124,"lon":5.373341,"is_reserved":false,"is_disabled":false,"rental_uris":{"android":"levelo://app?vid=7145967b-9c34-4188-804f-c15fb0045d6f","ios":"levelo://app?vid=7145967b-9c34-4188-804f-c15fb0045d6f"},"vehicle_type_id":"4","last_reported":1741036148,"current_range_meters":9600,"station_id":"cki0cbj6b192h4jlfktg","pricing_plan_id":"cebpf4jnsgd1na2vs0mg"},{"bike_id":"f71f9016-cd7a-4d2f-a244-6b67297b159e","system_id":"levelo_inurba_marseille","lat":43.27925,"lon":5.41641,"is_reserved":false,"is_disabled":false,"rental_uris":{"android":"levelo://app?vid=f71f9016-cd7a-4d2f-a244-6b67297b159e","ios":"levelo://app?vid=f71f9016-cd7a-4d2f-a244-6b67297b159e"},"vehicle_type_id":"4","last_reported":1741036148,"current_range_meters":10000,"station_id":"","pricing_plan_id":"cebpf4jnsgd1na2vs0mg"},{"bike_id":"18365966-3b5c-4697-a5ad-c6294f71d5a4","system_id":"levelo_inurba_marseille","lat":43.2988,"lon":5.39732,"is_reserved":false,"is_disabled":false,"rental_uris":{"android":"levelo://app?vid=18365966-3b5c-4697-a5ad-c6294f71d5a4","ios":"levelo://app?vid=18365966-3b5c-4697-a5ad-c6294f71d5a4"},"vehicle_type_id":"4","last_reported":1741036148,"current_range_meters":10000,"station_id":"ce4bh0h2rcd13ifvqd50","pricing_plan_id":"cebpf4jnsgd1na2vs0mg"},{"bike_id":"cc66162e-c040-46f0-9796-a97ccd483033","system_id":"levelo_inurba_marseille","lat":43.28667,"lon":5.38681,"is_reserved":false,"is_disabled":false,"rental_uris":{"android":"levelo://app?vid=cc66162e-c040-46f0-9796-a97ccd483033","ios":"levelo://app?vid=cc66162e-c040-46f0-9796-a97ccd483033"},"vehicle_type_id":"4","last_reported":1741036148,"current_range_meters":10000,"station_id":"ce4bh492rcd13ifvqdug","pricing_plan_id":"cebpf4jnsgd1na2vs0mg"},{"bike_id":"74515a19-ec15-47e3-b352-c1441bf694f2","system_id":"levelo_inurba_marseille","lat":43.26791,"lon":5.39418,"is_reserved":false,"is_disabled":false,"rental_uris":{"android":"levelo://app?vid=74515a19-ec15-47e3-b352-c1441bf694f2","ios":"levelo://app?vid=74515a19-ec15-47e3-b352-c1441bf694f2"},"vehicle_type_id":"4","last_reported":1741036148,"current_range_meters":10000,"station_id":"ce4bhh12rcd13ifvqfg0","pricing_plan_id":"cebpf4jnsgd1na2vs0mg"},{"bike_id":"b5ca7ce4-d4a1-472c-a0ee-4880fa6b65bd","system_id":"levelo_inurba_marseille","lat":43.27175,"lon":5.40997,"is_reserved":false,"is_disabled":false,"rental_uris":{"android":"levelo://app?vid=b5ca7ce4-d4a1-472c-a0ee-4880fa6b65bd","ios":"levelo://app?vid=b5ca7ce4-d4a1-472c-a0ee-4880fa6b65bd"},"vehicle_type_id":"4","last_reported":1741036148,"current_range_meters":10000,"station_id":"ce4bhl12rcd13ifvqgf0","pricing_plan_id":"cebpf4jnsgd1na2vs0mg"},{"bike_id":"b9314492-a56a-4787-bda8-bd2f48e84ce6","system_id":"levelo_inurba_marseille","lat":43.26235,"lon":5.40476,"is_reserved":false,"is_disabled":false,"rental_uris":{"android":"levelo://app?vid=b9314492-a56a-4787-bda8-bd2f48e84ce6","ios":"levelo://app?vid=b9314492-a56a-4787-bda8-bd2f48e84ce6"},"vehicle_type_id":"4","last_reported":1741036148,"current_range_meters":10000,"station_id":"ce4bhmh2rcd13ifvqgmg","pricing_plan_id":"cebpf4jnsgd1na2vs0mg"},{"bike_id":"caedf473-9313-4874-87c8-230b4a1efdb8","system_id":"levelo_inurba_marseille","lat":43.32485,"lon":5.36592,"is_reserved":false,"is_disabled":false,"rental_uris":{"android":"levelo://app?vid=caedf473-9313-4874-87c8-230b4a1efdb8","ios":"levelo://app?vid=caedf473-9313-4874-87c8-230b4a1efdb8"},"vehicle_type_id":"4","last_reported":1741036148,"current_range_meters":10000,"station_id":"ce4bhs12rcd13ifvqhvg","pricing_plan_id":"cebpf4jnsgd1na2vs0mg"},{"bike_id":"35af5cdd-93fc-40ab-8fad-3ee3d5572abe","system_id":"levelo_inurba_marseille","lat":43.26809,"lon":5.4025,"is_reserved":false,"is_disabled":false,"rental_uris":{"android":"levelo://app?vid=35af5cdd-93fc-40ab-8fad-3ee3d5572abe","ios":"levelo://app?vid=35af5cdd-93fc-40ab-8fad-3ee3d5572abe"},"vehicle_type_id":"4","last_reported":1741036148,"current_range_meters":10000,"station_id":"ce501612rcd8frsf0b60","pricing_plan_id":"cebpf4jnsgd1na2vs0mg"},{"bike_id":"20f28f92-adf9-48e3-a33b-83ded65127c5","system_id":"levelo_inurba_marseille","lat":43.23065,"lon":5.35503,"is_reserved":false,"is_disabled":false,"rental_uris":{"android":"levelo://app?vid=20f28f92-adf9-48e3-a33b-83ded65127c5","ios":"levelo://app?vid=20f28f92-adf9-48e3-a33b-83ded65127c5"},"vehicle_type_id":"4","last_reported":1741036148,"current_range_meters":10000,"station_id":"cpo3342slgdg3j2ifvpg","pricing_plan_id":"cebpf4jnsgd1na2vs0mg"},{"bike_id":"1901130a-ffd5-42a0-b994-e2aa42548e35","system_id":"levelo_inurba_marseille","lat":43.26141,"lon":5.41499,"is_reserved":false,"is_disabled":false,"rental_uris":{"android":"levelo://app?vid=1901130a-ffd5-42a0-b994-e2aa42548e35","ios":"levelo://app?vid=1901130a-ffd5-42a0-b994-e2aa42548e35"},"vehicle_type_id":"4","last_reported":1741036148,"current_range_meters":10800,"station_id":"","pricing_plan_id":"cebpf4jnsgd1na2vs0mg"},{"bike_id":"41ed89d3-77cd-4311-8513-748a0ca63c4f","system_id":"levelo_inurba_marseille","lat":43.21274,"lon":5.35321,"is_reserved":false,"is_disabled":false,"rental_uris":{"android":"levelo://app?vid=41ed89d3-77cd-4311-8513-748a0ca63c4f","ios":"levelo://app?vid=41ed89d3-77cd-4311-8513-748a0ca63c4f"},"vehicle_type_id":"4","last_reported":1741036148,"current_range_meters":10800,"station_id":"","pricing_plan_id":"cebpf4jnsgd1na2vs0mg"},{"bike_id":"64953142-7637-42b4-b0d1-c449e63f1db7","system_id":"levelo_inurba_marseille","lat":43.29641,"lon":5.36027,"is_reserved":false,"is_disabled":false,"rental_uris":{"android":"levelo://app?vid=64953142-7637-42b4-b0d1-c449e63f1db7","ios":"levelo://app?vid=64953142-7637-42b4-b0d1-c449e63f1db7"},"vehicle_type_id":"4","last_reported":1741036148,"current_range_meters":10800,"station_id":"","pricing_plan_id":"cebpf4jnsgd1na2vs0mg"},{"bike_id":"362b2e41-0f7d-42ca-85b4-447baad17196","system_id":"levelo_inurba_marseille","lat":43.27198,"lon":5.41913,"is_reserved":false,"is_disabled":false,"rental_uris":{"android":"levelo://app?vid=362b2e41-0f7d-42ca-85b4-447baad17196","ios":"levelo://app?vid=362b2e41-0f7d-42ca-85b4-447baad17196"},"vehicle_type_id":"4","last_reported":1741036148,"current_range_meters":10800,"station_id":"","pricing_plan_id":"cebpf4jnsgd1na2vs0mg"},{"bike_id":"fca2a568-edef-4fc6-8679-8593a288b07a","system_id":"levelo_inurba_marseille","lat":43.30528,"lon":5.38428,"is_reserved":false,"is_disabled":false,"rental_uris":{"android":"levelo://app?vid=fca2a568-edef-4fc6-8679-8593a288b07a","ios":"levelo://app?vid=fca2a568-edef-4fc6-8679-8593a288b07a"},"vehicle_type_id":"4","last_reported":1741036148,"current_range_meters":10800,"station_id":"ce4bgg92rcd13ifvqb30","pricing_plan_id":"cebpf4jnsgd1na2vs0mg"},{"bike_id":"6f575320-0666-41e9-bdb0-fc8dacfb507e","system_id":"levelo_inurba_marseille","lat":43.29701,"lon":5.36602,"is_reserved":false,"is_disabled":false,"rental_uris":{"android":"levelo://app?vid=6f575320-0666-41e9-bdb0-fc8dacfb507e","ios":"levelo://app?vid=6f575320-0666-41e9-bdb0-fc8dacfb507e"},"vehicle_type_id":"4","last_reported":1741036148,"current_range_meters":10800,"station_id":"ce4bgn12rcd13ifvqbt0","pricing_plan_id":"cebpf4jnsgd1na2vs0mg"},{"bike_id":"84d59691-2fe2-40f5-99af-d69b01f1f4e5","system_id":"levelo_inurba_marseille","lat":43.29205,"lon":5.39352,"is_reserved":false,"is_disabled":false,"rental_uris":{"android":"levelo://app?vid=84d59691-2fe2-40f5-99af-d69b01f1f4e5","ios":"levelo://app?vid=84d59691-2fe2-40f5-99af-d69b01f1f4e5"},"vehicle_type_id":"4","last_reported":1741036148,"current_range_meters":10800,"station_id":"ce4bh192rcd13ifvqdd0","pricing_plan_id":"cebpf4jnsgd1na2vs0mg"},{"bike_id":"442e17cf-9700-477c-a555-09fc8cf0081c","system_id":"levelo_inurba_marseille","lat":43.2845,"lon":5.35899,"is_reserved":false,"is_disabled":false,"rental_uris":{"android":"levelo://app?vid=442e17cf-9700-477c-a555-09fc8cf0081c","ios":"levelo://app?vid=442e17cf-9700-477c-a555-09fc8cf0081c"},"vehicle_type_id":"4","last_reported":1741036148,"current_range_meters":10800,"station_id":"ce4bhah2rcd13ifvqei0","pricing_plan_id":"cebpf4jnsgd1na2vs0mg"},{"bike_id":"9a386038-9cc6-4b52-b406-e6a33e3dcf23","system_id":"levelo_inurba_marseille","lat":43.28472,"lon":5.35902,"is_reserved":false,"is_disabled":false,"rental_uris":{"android":"levelo://app?vid=9a386038-9cc6-4b52-b406-e6a33e3dcf23","ios":"levelo://app?vid=9a386038-9cc6-4b52-b406-e6a33e3dcf23"},"vehicle_type_id":"4","last_reported":1741036148,"current_range_meters":10800,"station_id":"ce4bhah2rcd13ifvqei0","pricing_plan_id":"cebpf4jnsgd1na2vs0mg"},{"bike_id":"83ed66f8-02e2-4018-b9ef-9016056fb6bc","system_id":"levelo_inurba_marseille","lat":43.24551,"lon":5.39551,"is_reserved":false,"is_disabled":false,"rental_uris":{"android":"levelo://app?vid=83ed66f8-02e2-4018-b9ef-9016056fb6bc","ios":"levelo://app?vid=83ed66f8-02e2-4018-b9ef-9016056fb6bc"},"vehicle_type_id":"4","last_reported":1741036148,"current_range_meters":10800,"station_id":"ce4bhlp2rcd13ifvqgjg","pricing_plan_id":"cebpf4jnsgd1na2vs0mg"},{"bike_id":"e29f86e8-2c96-484f-9c1f-a6eb3cd7348e","system_id":"levelo_inurba_marseille","lat":43.28018,"lon":5.41694,"is_reserved":false,"is_disabled":false,"rental_uris":{"android":"levelo://app?vid=e29f86e8-2c96-484f-9c1f-a6eb3cd7348e","ios":"levelo://app?vid=e29f86e8-2c96-484f-9c1f-a6eb3cd7348e"},"vehicle_type_id":"4","last_reported":1741036148,"current_range_meters":10800,"station_id":"ce4bho12rcd13ifvqh1g","pricing_plan_id":"cebpf4jnsgd1na2vs0mg"},{"bike_id":"fd02f3a8-dea7-4cf3-80b4-23d80305c13b","system_id":"levelo_inurba_marseille","lat":43.29862,"lon":5.38894,"is_reserved":false,"is_disabled":false,"rental_uris":{"android":"levelo://app?vid=fd02f3a8-dea7-4cf3-80b4-23d80305c13b","ios":"levelo://app?vid=fd02f3a8-dea7-4cf3-80b4-23d80305c13b"},"vehicle_type_id":"4","last_reported":1741036148,"current_range_meters":11200,"station_id":"ce4bh392rcd13ifvqdl0","pricing_plan_id":"cebpf4jnsgd1na2vs0mg"},{"bike_id":"a79a4d71-63ff-485b-bdb8-cab5a2ad8255","system_id":"levelo_inurba_marseille","lat":43.29886,"lon":5.38899,"is_reserved":false,"is_disabled":false,"rental_uris":{"android":"levelo://app?vid=a79a4d71-63ff-485b-bdb8-cab5a2ad8255","ios":"levelo://app?vid=a79a4d71-63ff-485b-bdb8-cab5a2ad8255"},"vehicle_type_id":"4","last_reported":1741036148,"current_range_meters":11200,"station_id":"ce4bh392rcd13ifvqdl0","pricing_plan_id":"cebpf4jnsgd1na2vs0mg"},{"bike_id":"4b8bcc6a-b1ee-4044-9ae8-7c00efea0717","system_id":"levelo_inurba_marseille","lat":43.28426,"lon":5.37519,"is_reserved":false,"is_disabled":false,"rental_uris":{"android":"levelo://app?vid=4b8bcc6a-b1ee-4044-9ae8-7c00efea0717","ios":"levelo://app?vid=4b8bcc6a-b1ee-4044-9ae8-7c00efea0717"},"vehicle_type_id":"4","last_reported":1741036148,"current_range_meters":11200,"station_id":"ce4bh412rcd13ifvqds0","pricing_plan_id":"cebpf4jnsgd1na2vs0mg"},{"bike_id":"b8c5cd8d-ca3b-41d4-8f16-89bc4107002f","system_id":"levelo_inurba_marseille","lat":43.23962,"lon":5.36625,"is_reserved":false,"is_disabled":false,"rental_uris":{"android":"levelo://app?vid=b8c5cd8d-ca3b-41d4-8f16-89bc4107002f","ios":"levelo://app?vid=b8c5cd8d-ca3b-41d4-8f16-89bc4107002f"},"vehicle_type_id":"4","last_reported":1741036148,"current_range_meters":11200,"station_id":"ce4bhi12rcd13ifvqfp0","pricing_plan_id":"cebpf4jnsgd1na2vs0mg"},{"bike_id":"9463366e-522d-4127-840d-efbf9c7cebdc","system_id":"levelo_inurba_marseille","lat":43.31166,"lon":5.38724,"is_reserved":false,"is_disabled":false,"rental_uris":{"android":"levelo://app?vid=9463366e-522d-4127-840d-efbf9c7cebdc","ios":"levelo://app?vid=9463366e-522d-4127-840d-efbf9c7cebdc"},"vehicle_type_id":"4","last_reported":1741036148,"current_range_meters":11600,"station_id":"ce4bgv12rcd13ifvqcp0","pricing_plan_id":"cebpf4jnsgd1na2vs0mg"},{"bike_id":"e61fc92c-066a-469c-967f-4f066588d4e6","system_id":"levelo_inurba_marseille","lat":43.23196,"lon":5.35561,"is_reserved":false,"is_disabled":false,"rental_uris":{"android":"levelo://app?vid=e61fc92c-066a-469c-967f-4f066588d4e6","ios":"levelo://app?vid=e61fc92c-066a-469c-967f-4f066588d4e6"},"vehicle_type_id":"4","last_reported":1741036148,"current_range_meters":11600,"station_id":"ce4bhu92rcd13ifvqi70","pricing_plan_id":"cebpf4jnsgd1na2vs0mg"},{"bike_id":"102de46f-1f3d-42c6-b125-cb45380886c0","system_id":"levelo_inurba_marseille","lat":43.28484,"lon":5.35898,"is_reserved":false,"is_disabled":false,"rental_uris":{"android":"levelo://app?vid=102de46f-1f3d-42c6-b125-cb45380886c0","ios":"levelo://app?vid=102de46f-1f3d-42c6-b125-cb45380886c0"},"vehicle_type_id":"4","last_reported":1741036148,"current_range_meters":12000,"station_id":"ce4bhah2rcd13ifvqei0","pricing_plan_id":"cebpf4jnsgd1na2vs0mg"},{"bike_id":"26dee533-297d-4941-9468-845a2f6d1880","system_id":"levelo_inurba_marseille","lat":43.260608,"lon":5.39401,"is_reserved":false,"is_disabled":false,"rental_uris":{"android":"levelo://app?vid=26dee533-297d-4941-9468-845a2f6d1880","ios":"levelo://app?vid=26dee533-297d-4941-9468-845a2f6d1880"},"vehicle_type_id":"4","last_reported":1741036148,"current_range_meters":12000,"station_id":"ce4bhh92rcd13ifvqfj0","pricing_plan_id":"cebpf4jnsgd1na2vs0mg"},{"bike_id":"bce611a7-5044-470a-9dc2-ccdbc1151c5c","system_id":"levelo_inurba_marseille","lat":43.32499,"lon":5.36567,"is_reserved":false,"is_disabled":false,"rental_uris":{"android":"levelo://app?vid=bce611a7-5044-470a-9dc2-ccdbc1151c5c","ios":"levelo://app?vid=bce611a7-5044-470a-9dc2-ccdbc1151c5c"},"vehicle_type_id":"4","last_reported":1741036148,"current_range_meters":12000,"station_id":"ce4bhs12rcd13ifvqhvg","pricing_plan_id":"cebpf4jnsgd1na2vs0mg"},{"bike_id":"9de42f25-f760-4086-9a08-2934eee1b520","system_id":"levelo_inurba_marseille","lat":43.21269,"lon":5.35344,"is_reserved":false,"is_disabled":false,"rental_uris":{"android":"levelo://app?vid=9de42f25-f760-4086-9a08-2934eee1b520","ios":"levelo://app?vid=9de42f25-f760-4086-9a08-2934eee1b520"},"vehicle_type_id":"4","last_reported":1741036148,"current_range_meters":12400,"station_id":"","pricing_plan_id":"cebpf4jnsgd1na2vs0mg"},{"bike_id":"9a633337-6129-4042-810b-abbb21f0b063","system_id":"levelo_inurba_marseille","lat":43.29517,"lon":5.39399,"is_reserved":false,"is_disabled":false,"rental_uris":{"android":"levelo://app?vid=9a633337-6129-4042-810b-abbb21f0b063","ios":"levelo://app?vid=9a633337-6129-4042-810b-abbb21f0b063"},"vehicle_type_id":"4","last_reported":1741036148,"current_range_meters":12400,"station_id":"ce4bh292rcd13ifvqdf0","pricing_plan_id":"cebpf4jnsgd1na2vs0mg"},{"bike_id":"32cac79a-bb75-480e-9e14-d7497b0ae56e","system_id":"levelo_inurba_marseille","lat":43.25016,"lon":5.3893,"is_reserved":false,"is_disabled":false,"rental_uris":{"android":"levelo://app?vid=32cac79a-bb75-480e-9e14-d7497b0ae56e","ios":"levelo://app?vid=32cac79a-bb75-480e-9e14-d7497b0ae56e"},"vehicle_type_id":"4","last_reported":1741036148,"current_range_meters":12400,"station_id":"ce4bhgp2rcd13ifvqfd0","pricing_plan_id":"cebpf4jnsgd1na2vs0mg"},{"bike_id":"15440c1e-dc9d-4ba3-a5c0-8f3f317b9319","system_id":"levelo_inurba_marseille","lat":43.30132,"lon":5.38786,"is_reserved":false,"is_disabled":false,"rental_uris":{"android":"levelo://app?vid=15440c1e-dc9d-4ba3-a5c0-8f3f317b9319","ios":"levelo://app?vid=15440c1e-dc9d-4ba3-a5c0-8f3f317b9319"},"vehicle_type_id":"4","last_reported":1741036148,"current_range_meters":12800,"station_id":"ce4bghh2rcd13ifvqb60","pricing_plan_id":"cebpf4jnsgd1na2vs0mg"},{"bike_id":"49ff0a36-2db2-49fc-adb2-7997ee55172b","system_id":"levelo_inurba_marseille","lat":43.30787,"lon":5.37645,"is_reserved":false,"is_disabled":false,"rental_uris":{"android":"levelo://app?vid=49ff0a36-2db2-49fc-adb2-7997ee55172b","ios":"levelo://app?vid=49ff0a36-2db2-49fc-adb2-7997ee55172b"},"vehicle_type_id":"4","last_reported":1741036148,"current_range_meters":12800,"station_id":"ce4bgv92rcd13ifvqcq0","pricing_plan_id":"cebpf4jnsgd1na2vs0mg"},{"bike_id":"d1b38336-63c7-4d2d-a2d6-75d4567269de","system_id":"levelo_inurba_marseille","lat":43.30934,"lon":5.40175,"is_reserved":false,"is_disabled":false,"rental_uris":{"android":"levelo://app?vid=d1b38336-63c7-4d2d-a2d6-75d4567269de","ios":"levelo://app?vid=d1b38336-63c7-4d2d-a2d6-75d4567269de"},"vehicle_type_id":"4","last_reported":1741036148,"current_range_meters":12800,"station_id":"ce4bgvp2rcd13ifvqct0","pricing_plan_id":"cebpf4jnsgd1na2vs0mg"},{"bike_id":"37879935-4cf9-468e-9cee-d7233264c869","system_id":"levelo_inurba_marseille","lat":43.3045,"lon":5.39762,"is_reserved":false,"is_disabled":false,"rental_uris":{"android":"levelo://app?vid=37879935-4cf9-468e-9cee-d7233264c869","ios":"levelo://app?vid=37879935-4cf9-468e-9cee-d7233264c869"},"vehicle_type_id":"4","last_reported":1741036148,"current_range_meters":12800,"station_id":"ce4bh092rcd13ifvqd20","pricing_plan_id":"cebpf4jnsgd1na2vs0mg"},{"bike_id":"6001f80d-83eb-404a-b39d-bf989e915810","system_id":"levelo_inurba_marseille","lat":43.28854,"lon":5.39321,"is_reserved":false,"is_disabled":false,"rental_uris":{"android":"levelo://app?vid=6001f80d-83eb-404a-b39d-bf989e915810","ios":"levelo://app?vid=6001f80d-83eb-404a-b39d-bf989e915810"},"vehicle_type_id":"4","last_reported":1741036148,"current_range_meters":12800,"station_id":"ce4bh2p2rcd13ifvqdi0","pricing_plan_id":"cebpf4jnsgd1na2vs0mg"},{"bike_id":"fc538172-abdb-42d0-9e73-20cebfb49ebf","system_id":"levelo_inurba_marseille","lat":43.28414,"lon":5.37522,"is_reserved":false,"is_disabled":false,"rental_uris":{"android":"levelo://app?vid=fc538172-abdb-42d0-9e73-20cebfb49ebf","ios":"levelo://app?vid=fc538172-abdb-42d0-9e73-20cebfb49ebf"},"vehicle_type_id":"4","last_reported":1741036148,"current_range_meters":12800,"station_id":"ce4bh412rcd13ifvqds0","pricing_plan_id":"cebpf4jnsgd1na2vs0mg"},{"bike_id":"09e4a186-5878-4788-9d97-8c4dac66bb36","system_id":"levelo_inurba_marseille","lat":43.28472,"lon":5.35896,"is_reserved":false,"is_disabled":false,"rental_uris":{"android":"levelo://app?vid=09e4a186-5878-4788-9d97-8c4dac66bb36","ios":"levelo://app?vid=09e4a186-5878-4788-9d97-8c4dac66bb36"},"vehicle_type_id":"4","last_reported":1741036148,"current_range_meters":12800,"station_id":"ce4bhah2rcd13ifvqei0","pricing_plan_id":"cebpf4jnsgd1na2vs0mg"},{"bike_id":"d749ca5c-d506-43ea-8c3f-c819b06b7f2f","system_id":"levelo_inurba_marseille","lat":43.28666,"lon":5.36368,"is_reserved":false,"is_disabled":false,"rental_uris":{"android":"levelo://app?vid=d749ca5c-d506-43ea-8c3f-c819b06b7f2f","ios":"levelo://app?vid=d749ca5c-d506-43ea-8c3f-c819b06b7f2f"},"vehicle_type_id":"4","last_reported":1741036148,"current_range_meters":12800,"station_id":"ce4bhah2rcd13ifvqej0","pricing_plan_id":"cebpf4jnsgd1na2vs0mg"},{"bike_id":"e7ec1ac1-2323-47bd-a2b5-7cd3afb282cf","system_id":"levelo_inurba_marseille","lat":43.26575,"lon":5.3734,"is_reserved":false,"is_disabled":false,"rental_uris":{"android":"levelo://app?vid=e7ec1ac1-2323-47bd-a2b5-7cd3afb282cf","ios":"levelo://app?vid=e7ec1ac1-2323-47bd-a2b5-7cd3afb282cf"},"vehicle_type_id":"4","last_reported":1741036148,"current_range_meters":12800,"station_id":"ce4bhg12rcd13ifvqf70","pricing_plan_id":"cebpf4jnsgd1na2vs0mg"},{"bike_id":"cb014a6b-6553-43cb-90ee-c6d22cf5883f","system_id":"levelo_inurba_marseille","lat":43.26056,"lon":5.39404,"is_reserved":false,"is_disabled":false,"rental_uris":{"android":"levelo://app?vid=cb014a6b-6553-43cb-90ee-c6d22cf5883f","ios":"levelo://app?vid=cb014a6b-6553-43cb-90ee-c6d22cf5883f"},"vehicle_type_id":"4","last_reported":1741036148,"current_range_meters":12800,"station_id":"ce4bhh92rcd13ifvqfj0","pricing_plan_id":"cebpf4jnsgd1na2vs0mg"},{"bike_id":"cb813df4-3836-4634-974a-d02d99a32d8a","system_id":"levelo_inurba_marseille","lat":43.32705,"lon":5.39232,"is_reserved":false,"is_disabled":false,"rental_uris":{"android":"levelo://app?vid=cb813df4-3836-4634-974a-d02d99a32d8a","ios":"levelo://app?vid=cb813df4-3836-4634-974a-d02d99a32d8a"},"vehicle_type_id":"4","last_reported":1741036148,"current_range_meters":13600,"station_id":"","pricing_plan_id":"cebpf4jnsgd1na2vs0mg"},{"bike_id":"33d78023-4d5b-48ce-9665-2809bebb67ae","system_id":"levelo_inurba_marseille","lat":43.28484,"lon":5.35901,"is_reserved":false,"is_disabled":false,"rental_uris":{"android":"levelo://app?vid=33d78023-4d5b-48ce-9665-2809bebb67ae","ios":"levelo://app?vid=33d78023-4d5b-48ce-9665-2809bebb67ae"},"vehicle_type_id":"4","last_reported":1741036148,"current_range_meters":13600,"station_id":"ce4bhah2rcd13ifvqei0","pricing_plan_id":"cebpf4jnsgd1na2vs0mg"},{"bike_id":"e5136b97-99d8-49fc-aff2-faca0326e8ae","system_id":"levelo_inurba_marseille","lat":43.27967,"lon":5.4103,"is_reserved":false,"is_disabled":false,"rental_uris":{"android":"levelo://app?vid=e5136b97-99d8-49fc-aff2-faca0326e8ae","ios":"levelo://app?vid=e5136b97-99d8-49fc-aff2-faca0326e8ae"},"vehicle_type_id":"4","last_reported":1741036148,"current_range_meters":13600,"station_id":"ce4bhnp2rcd13ifvqh0g","pricing_plan_id":"cebpf4jnsgd1na2vs0mg"},{"bike_id":"ebbd4f86-95f7-4930-93b2-18816dc5a84d","system_id":"levelo_inurba_marseille","lat":43.29289,"lon":5.37485,"is_reserved":false,"is_disabled":false,"rental_uris":{"android":"levelo://app?vid=ebbd4f86-95f7-4930-93b2-18816dc5a84d","ios":"levelo://app?vid=ebbd4f86-95f7-4930-93b2-18816dc5a84d"},"vehicle_type_id":"4","last_reported":1741036148,"current_range_meters":14000,"station_id":"ce4bgi12rcd13ifvqb70","pricing_plan_id":"cebpf4jnsgd1na2vs0mg"},{"bike_id":"355e1532-21c7-4584-bd3e-0af4695c627f","system_id":"levelo_inurba_marseille","lat":43.28415,"lon":5.34996,"is_reserved":false,"is_disabled":false,"rental_uris":{"android":"levelo://app?vid=355e1532-21c7-4584-bd3e-0af4695c627f","ios":"levelo://app?vid=355e1532-21c7-4584-bd3e-0af4695c627f"},"vehicle_type_id":"4","last_reported":1741036148,"current_range_meters":14000,"station_id":"ce4bhbh2rcd13ifvqepg","pricing_plan_id":"cebpf4jnsgd1na2vs0mg"},{"bike_id":"44a7153b-0fd7-4509-836b-676bbf84fb06","system_id":"levelo_inurba_marseille","lat":43.23186,"lon":5.35561,"is_reserved":false,"is_disabled":false,"rental_uris":{"android":"levelo://app?vid=44a7153b-0fd7-4509-836b-676bbf84fb06","ios":"levelo://app?vid=44a7153b-0fd7-4509-836b-676bbf84fb06"},"vehicle_type_id":"4","last_reported":1741036148,"current_range_meters":14000,"station_id":"ce4bhu92rcd13ifvqi70","pricing_plan_id":"cebpf4jnsgd1na2vs0mg"},{"bike_id":"c9b6ebcc-7cc0-4609-bdd7-67eaaed88636","system_id":"levelo_inurba_marseille","lat":43.30433,"lon":5.39744,"is_reserved":false,"is_disabled":false,"rental_uris":{"android":"levelo://app?vid=c9b6ebcc-7cc0-4609-bdd7-67eaaed88636","ios":"levelo://app?vid=c9b6ebcc-7cc0-4609-bdd7-67eaaed88636"},"vehicle_type_id":"4","last_reported":1741036148,"current_range_meters":14400,"station_id":"","pricing_plan_id":"cebpf4jnsgd1na2vs0mg"},{"bike_id":"089251b4-101d-44dd-a4b2-0e114c7f8e04","system_id":"levelo_inurba_marseille","lat":43.30421,"lon":5.39745,"is_reserved":false,"is_disabled":false,"rental_uris":{"android":"levelo://app?vid=089251b4-101d-44dd-a4b2-0e114c7f8e04","ios":"levelo://app?vid=089251b4-101d-44dd-a4b2-0e114c7f8e04"},"vehicle_type_id":"4","last_reported":1741036148,"current_range_meters":14400,"station_id":"ce4bh092rcd13ifvqd20","pricing_plan_id":"cebpf4jnsgd1na2vs0mg"},{"bike_id":"ee1d2ad1-36ca-49dd-a328-f2a9a9994ecb","system_id":"levelo_inurba_marseille","lat":43.31087,"lon":5.38149,"is_reserved":false,"is_disabled":false,"rental_uris":{"android":"levelo://app?vid=ee1d2ad1-36ca-49dd-a328-f2a9a9994ecb","ios":"levelo://app?vid=ee1d2ad1-36ca-49dd-a328-f2a9a9994ecb"},"vehicle_type_id":"4","last_reported":1741036148,"current_range_meters":14800,"station_id":"","pricing_plan_id":"cebpf4jnsgd1na2vs0mg"},{"bike_id":"474b314c-3a52-4e17-bbda-10f41385b1a6","system_id":"levelo_inurba_marseille","lat":43.30584,"lon":5.37199,"is_reserved":false,"is_disabled":false,"rental_uris":{"android":"levelo://app?vid=474b314c-3a52-4e17-bbda-10f41385b1a6","ios":"levelo://app?vid=474b314c-3a52-4e17-bbda-10f41385b1a6"},"vehicle_type_id":"4","last_reported":1741036148,"current_range_meters":14800,"station_id":"ce4bgqh2rcd13ifvqc4g","pricing_plan_id":"cebpf4jnsgd1na2vs0mg"},{"bike_id":"a672a65c-d1fc-4716-9934-f7368b43bb6f","system_id":"levelo_inurba_marseille","lat":43.28414,"lon":5.37517,"is_reserved":false,"is_disabled":false,"rental_uris":{"android":"levelo://app?vid=a672a65c-d1fc-4716-9934-f7368b43bb6f","ios":"levelo://app?vid=a672a65c-d1fc-4716-9934-f7368b43bb6f"},"vehicle_type_id":"4","last_reported":1741036148,"current_range_meters":14800,"station_id":"ce4bh412rcd13ifvqds0","pricing_plan_id":"cebpf4jnsgd1na2vs0mg"},{"bike_id":"3c9dafd4-57aa-4ec7-be16-270c3cf389ac","system_id":"levelo_inurba_marseille","lat":43.3043,"lon":5.41296,"is_reserved":false,"is_disabled":false,"rental_uris":{"android":"levelo://app?vid=3c9dafd4-57aa-4ec7-be16-270c3cf389ac","ios":"levelo://app?vid=3c9dafd4-57aa-4ec7-be16-270c3cf389ac"},"vehicle_type_id":"4","last_reported":1741036148,"current_range_meters":14800,"station_id":"ce4bhop2rcd13ifvqh8g","pricing_plan_id":"cebpf4jnsgd1na2vs0mg"},{"bike_id":"938f08ad-b3c2-4eec-9728-0c2196707d8d","system_id":"levelo_inurba_marseille","lat":43.28422,"lon":5.41037,"is_reserved":false,"is_disabled":false,"rental_uris":{"android":"levelo://app?vid=938f08ad-b3c2-4eec-9728-0c2196707d8d","ios":"levelo://app?vid=938f08ad-b3c2-4eec-9728-0c2196707d8d"},"vehicle_type_id":"4","last_reported":1741036148,"current_range_meters":15200,"station_id":"","pricing_plan_id":"cebpf4jnsgd1na2vs0mg"},{"bike_id":"be332849-5e3d-42be-9107-ef85fb20c572","system_id":"levelo_inurba_marseille","lat":43.28011,"lon":5.36947,"is_reserved":false,"is_disabled":false,"rental_uris":{"android":"levelo://app?vid=be332849-5e3d-42be-9107-ef85fb20c572","ios":"levelo://app?vid=be332849-5e3d-42be-9107-ef85fb20c572"},"vehicle_type_id":"4","last_reported":1741036148,"current_range_meters":15200,"station_id":"ce4bha12rcd13ifvqef0","pricing_plan_id":"cebpf4jnsgd1na2vs0mg"},{"bike_id":"0bfe6821-f058-4a92-8b26-054cd83ecaea","system_id":"levelo_inurba_marseille","lat":43.28706,"lon":5.3999,"is_reserved":false,"is_disabled":false,"rental_uris":{"android":"levelo://app?vid=0bfe6821-f058-4a92-8b26-054cd83ecaea","ios":"levelo://app?vid=0bfe6821-f058-4a92-8b26-054cd83ecaea"},"vehicle_type_id":"4","last_reported":1741036148,"current_range_meters":15200,"station_id":"ce4bho92rcd13ifvqh3g","pricing_plan_id":"cebpf4jnsgd1na2vs0mg"},{"bike_id":"b388f542-63b9-443e-a414-897e0ce91452","system_id":"levelo_inurba_marseille","lat":43.3176,"lon":5.38921,"is_reserved":false,"is_disabled":false,"rental_uris":{"android":"levelo://app?vid=b388f542-63b9-443e-a414-897e0ce91452","ios":"levelo://app?vid=b388f542-63b9-443e-a414-897e0ce91452"},"vehicle_type_id":"4","last_reported":1741036148,"current_range_meters":16000,"station_id":"","pricing_plan_id":"cebpf4jnsgd1na2vs0mg"},{"bike_id":"fe65d165-e4f8-45e4-b0cc-6ba4a385c0db","system_id":"levelo_inurba_marseille","lat":43.29263,"lon":5.37625,"is_reserved":false,"is_disabled":false,"rental_uris":{"android":"levelo://app?vid=fe65d165-e4f8-45e4-b0cc-6ba4a385c0db","ios":"levelo://app?vid=fe65d165-e4f8-45e4-b0cc-6ba4a385c0db"},"vehicle_type_id":"4","last_reported":1741036148,"current_range_meters":16000,"station_id":"ce4bgi12rcd13ifvqb80","pricing_plan_id":"cebpf4jnsgd1na2vs0mg"},{"bike_id":"bc75cfc3-f80a-4a7e-b501-75a9486feb21","system_id":"levelo_inurba_marseille","lat":43.31698,"lon":5.37737,"is_reserved":false,"is_disabled":false,"rental_uris":{"android":"levelo://app?vid=bc75cfc3-f80a-4a7e-b501-75a9486feb21","ios":"levelo://app?vid=bc75cfc3-f80a-4a7e-b501-75a9486feb21"},"vehicle_type_id":"4","last_reported":1741036148,"current_range_meters":16000,"station_id":"ce4bgth2rcd13ifvqch0","pricing_plan_id":"cebpf4jnsgd1na2vs0mg"},{"bike_id":"3a602469-293d-4f74-ad8d-bd9dde2887dd","system_id":"levelo_inurba_marseille","lat":43.30325,"lon":5.40436,"is_reserved":false,"is_disabled":false,"rental_uris":{"android":"levelo://app?vid=3a602469-293d-4f74-ad8d-bd9dde2887dd","ios":"levelo://app?vid=3a602469-293d-4f74-ad8d-bd9dde2887dd"},"vehicle_type_id":"4","last_reported":1741036148,"current_range_meters":16000,"station_id":"ce4bh012rcd13ifvqd10","pricing_plan_id":"cebpf4jnsgd1na2vs0mg"},{"bike_id":"8d22382f-7229-42e4-836b-32e453766b51","system_id":"levelo_inurba_marseille","lat":43.29518,"lon":5.39045,"is_reserved":false,"is_disabled":false,"rental_uris":{"android":"levelo://app?vid=8d22382f-7229-42e4-836b-32e453766b51","ios":"levelo://app?vid=8d22382f-7229-42e4-836b-32e453766b51"},"vehicle_type_id":"4","last_reported":1741036148,"current_range_meters":16000,"station_id":"ce4bh3p2rcd13ifvqdp0","pricing_plan_id":"cebpf4jnsgd1na2vs0mg"},{"bike_id":"443a506e-3487-4634-8f70-3912280dd197","system_id":"levelo_inurba_marseille","lat":43.28417,"lon":5.37529,"is_reserved":false,"is_disabled":false,"rental_uris":{"android":"levelo://app?vid=443a506e-3487-4634-8f70-3912280dd197","ios":"levelo://app?vid=443a506e-3487-4634-8f70-3912280dd197"},"vehicle_type_id":"4","last_reported":1741036148,"current_range_meters":16000,"station_id":"ce4bh412rcd13ifvqds0","pricing_plan_id":"cebpf4jnsgd1na2vs0mg"},{"bike_id":"d08d378c-fb72-4398-a06e-228d657e4335","system_id":"levelo_inurba_marseille","lat":43.28862,"lon":5.35872,"is_reserved":false,"is_disabled":false,"rental_uris":{"android":"levelo://app?vid=d08d378c-fb72-4398-a06e-228d657e4335","ios":"levelo://app?vid=d08d378c-fb72-4398-a06e-228d657e4335"},"vehicle_type_id":"4","last_reported":1741036148,"current_range_meters":16000,"station_id":"ce4bhb12rcd13ifvqem0","pricing_plan_id":"cebpf4jnsgd1na2vs0mg"},{"bike_id":"4630baf1-4845-450c-8cd3-3a3ab55f7dbd","system_id":"levelo_inurba_marseille","lat":43.28845,"lon":5.3587,"is_reserved":false,"is_disabled":false,"rental_uris":{"android":"levelo://app?vid=4630baf1-4845-450c-8cd3-3a3ab55f7dbd","ios":"levelo://app?vid=4630baf1-4845-450c-8cd3-3a3ab55f7dbd"},"vehicle_type_id":"4","last_reported":1741036148,"current_range_meters":16000,"station_id":"ce4bhb12rcd13ifvqem0","pricing_plan_id":"cebpf4jnsgd1na2vs0mg"},{"bike_id":"6a2f443b-bc7f-4630-b851-1b63f59abf78","system_id":"levelo_inurba_marseille","lat":43.26058,"lon":5.3939,"is_reserved":false,"is_disabled":false,"rental_uris":{"android":"levelo://app?vid=6a2f443b-bc7f-4630-b851-1b63f59abf78","ios":"levelo://app?vid=6a2f443b-bc7f-4630-b851-1b63f59abf78"},"vehicle_type_id":"4","last_reported":1741036148,"current_range_meters":16000,"station_id":"ce4bhh92rcd13ifvqfj0","pricing_plan_id":"cebpf4jnsgd1na2vs0mg"},{"bike_id":"9e4f53fe-e434-44c9-a146-29f149bf6c3f","system_id":"levelo_inurba_marseille","lat":43.24169,"lon":5.39737,"is_reserved":false,"is_disabled":false,"rental_uris":{"android":"levelo://app?vid=9e4f53fe-e434-44c9-a146-29f149bf6c3f","ios":"levelo://app?vid=9e4f53fe-e434-44c9-a146-29f149bf6c3f"},"vehicle_type_id":"4","last_reported":1741036148,"current_range_meters":16000,"station_id":"ce4bhn12rcd13ifvqgpg","pricing_plan_id":"cebpf4jnsgd1na2vs0mg"},{"bike_id":"9895a4e0-8fee-4225-a704-f6dbb59f9c29","system_id":"levelo_inurba_marseille","lat":43.27811,"lon":5.40718,"is_reserved":false,"is_disabled":false,"rental_uris":{"android":"levelo://app?vid=9895a4e0-8fee-4225-a704-f6dbb59f9c29","ios":"levelo://app?vid=9895a4e0-8fee-4225-a704-f6dbb59f9c29"},"vehicle_type_id":"4","last_reported":1741036148,"current_range_meters":16000,"station_id":"ce4bhnh2rcd13ifvqgtg","pricing_plan_id":"cebpf4jnsgd1na2vs0mg"},{"bike_id":"4f6a53e2-adc0-4f21-a484-100d8eb7192f","system_id":"levelo_inurba_marseille","lat":43.27806,"lon":5.40712,"is_reserved":false,"is_disabled":false,"rental_uris":{"android":"levelo://app?vid=4f6a53e2-adc0-4f21-a484-100d8eb7192f","ios":"levelo://app?vid=4f6a53e2-adc0-4f21-a484-100d8eb7192f"},"vehicle_type_id":"4","last_reported":1741036148,"current_range_meters":16000,"station_id":"ce4bhnh2rcd13ifvqgtg","pricing_plan_id":"cebpf4jnsgd1na2vs0mg"},{"bike_id":"bc389614-a1bd-4bd1-ae6c-15acadf8db1a","system_id":"levelo_inurba_marseille","lat":43.283179,"lon":5.432481,"is_reserved":false,"is_disabled":false,"rental_uris":{"android":"levelo://app?vid=bc389614-a1bd-4bd1-ae6c-15acadf8db1a","ios":"levelo://app?vid=bc389614-a1bd-4bd1-ae6c-15acadf8db1a"},"vehicle_type_id":"4","last_reported":1741036148,"current_range_meters":16400,"station_id":"","pricing_plan_id":"cebpf4jnsgd1na2vs0mg"},{"bike_id":"442bfba6-bd18-40c4-a34b-7d774854ee17","system_id":"levelo_inurba_marseille","lat":43.29266,"lon":5.37632,"is_reserved":false,"is_disabled":false,"rental_uris":{"android":"levelo://app?vid=442bfba6-bd18-40c4-a34b-7d774854ee17","ios":"levelo://app?vid=442bfba6-bd18-40c4-a34b-7d774854ee17"},"vehicle_type_id":"4","last_reported":1741036148,"current_range_meters":16400,"station_id":"ce4bgi12rcd13ifvqb80","pricing_plan_id":"cebpf4jnsgd1na2vs0mg"},{"bike_id":"8b32da12-9f30-41aa-a1b7-5a3b479a6f8d","system_id":"levelo_inurba_marseille","lat":43.29596,"lon":5.38098,"is_reserved":false,"is_disabled":false,"rental_uris":{"android":"levelo://app?vid=8b32da12-9f30-41aa-a1b7-5a3b479a6f8d","ios":"levelo://app?vid=8b32da12-9f30-41aa-a1b7-5a3b479a6f8d"},"vehicle_type_id":"4","last_reported":1741036148,"current_range_meters":16400,"station_id":"ce4bgl12rcd13ifvqbo0","pricing_plan_id":"cebpf4jnsgd1na2vs0mg"},{"bike_id":"9fec91bd-d7aa-4149-bd43-cd46ffb8d0a9","system_id":"levelo_inurba_marseille","lat":43.29194,"lon":5.3933,"is_reserved":false,"is_disabled":false,"rental_uris":{"android":"levelo://app?vid=9fec91bd-d7aa-4149-bd43-cd46ffb8d0a9","ios":"levelo://app?vid=9fec91bd-d7aa-4149-bd43-cd46ffb8d0a9"},"vehicle_type_id":"4","last_reported":1741036148,"current_range_meters":16400,"station_id":"ce4bh192rcd13ifvqdd0","pricing_plan_id":"cebpf4jnsgd1na2vs0mg"},{"bike_id":"f014ac7a-7483-494c-96a6-149db3600d89","system_id":"levelo_inurba_marseille","lat":43.29038,"lon":5.37566,"is_reserved":false,"is_disabled":false,"rental_uris":{"android":"levelo://app?vid=f014ac7a-7483-494c-96a6-149db3600d89","ios":"levelo://app?vid=f014ac7a-7483-494c-96a6-149db3600d89"},"vehicle_type_id":"4","last_reported":1741036148,"current_range_meters":16400,"station_id":"ce4bh692rcd13ifvqe90","pricing_plan_id":"cebpf4jnsgd1na2vs0mg"},{"bike_id":"996a630c-dadf-4c61-84f0-7746113a0ce3","system_id":"levelo_inurba_marseille","lat":43.28595,"lon":5.37048,"is_reserved":false,"is_disabled":false,"rental_uris":{"android":"levelo://app?vid=996a630c-dadf-4c61-84f0-7746113a0ce3","ios":"levelo://app?vid=996a630c-dadf-4c61-84f0-7746113a0ce3"},"vehicle_type_id":"4","last_reported":1741036148,"current_range_meters":16400,"station_id":"ce4bht12rcd13ifvqi60","pricing_plan_id":"cebpf4jnsgd1na2vs0mg"},{"bike_id":"e0bbd19f-dbed-424f-998c-e43cb85c9ec3","system_id":"levelo_inurba_marseille","lat":43.24162,"lon":5.36406,"is_reserved":false,"is_disabled":false,"rental_uris":{"android":"levelo://app?vid=e0bbd19f-dbed-424f-998c-e43cb85c9ec3","ios":"levelo://app?vid=e0bbd19f-dbed-424f-998c-e43cb85c9ec3"},"vehicle_type_id":"4","last_reported":1741036148,"current_range_meters":16400,"station_id":"cpo36qri1sfpv3e86is0","pricing_plan_id":"cebpf4jnsgd1na2vs0mg"},{"bike_id":"21d576ee-ad99-4344-99a6-48a7647dc728","system_id":"levelo_inurba_marseille","lat":43.32927,"lon":5.43004,"is_reserved":false,"is_disabled":false,"rental_uris":{"android":"levelo://app?vid=21d576ee-ad99-4344-99a6-48a7647dc728","ios":"levelo://app?vid=21d576ee-ad99-4344-99a6-48a7647dc728"},"vehicle_type_id":"4","last_reported":1741036148,"current_range_meters":16800,"station_id":"","pricing_plan_id":"cebpf4jnsgd1na2vs0mg"},{"bike_id":"d7ef5145-0bca-4f45-a0cf-6b1d49f6690d","system_id":"levelo_inurba_marseille","lat":43.31412,"lon":5.39216,"is_reserved":false,"is_disabled":false,"rental_uris":{"android":"levelo://app?vid=d7ef5145-0bca-4f45-a0cf-6b1d49f6690d","ios":"levelo://app?vid=d7ef5145-0bca-4f45-a0cf-6b1d49f6690d"},"vehicle_type_id":"4","last_reported":1741036148,"current_range_meters":16800,"station_id":"","pricing_plan_id":"cebpf4jnsgd1na2vs0mg"},{"bike_id":"f83a09a1-05e9-4f34-b3b0-a301d7d23141","system_id":"levelo_inurba_marseille","lat":43.29301,"lon":5.42708,"is_reserved":false,"is_disabled":false,"rental_uris":{"android":"levelo://app?vid=f83a09a1-05e9-4f34-b3b0-a301d7d23141","ios":"levelo://app?vid=f83a09a1-05e9-4f34-b3b0-a301d7d23141"},"vehicle_type_id":"4","last_reported":1741036148,"current_range_meters":16800,"station_id":"","pricing_plan_id":"cebpf4jnsgd1na2vs0mg"},{"bike_id":"811bf25c-9b41-4fd0-9c9f-36e1e5f39574","system_id":"levelo_inurba_marseille","lat":43.28454,"lon":5.35903,"is_reserved":false,"is_disabled":false,"rental_uris":{"android":"levelo://app?vid=811bf25c-9b41-4fd0-9c9f-36e1e5f39574","ios":"levelo://app?vid=811bf25c-9b41-4fd0-9c9f-36e1e5f39574"},"vehicle_type_id":"4","last_reported":1741036148,"current_range_meters":16800,"station_id":"ce4bhah2rcd13ifvqei0","pricing_plan_id":"cebpf4jnsgd1na2vs0mg"},{"bike_id":"642c7792-3e94-4263-87b3-9666d4f3535e","system_id":"levelo_inurba_marseille","lat":43.25497,"lon":5.37646,"is_reserved":false,"is_disabled":false,"rental_uris":{"android":"levelo://app?vid=642c7792-3e94-4263-87b3-9666d4f3535e","ios":"levelo://app?vid=642c7792-3e94-4263-87b3-9666d4f3535e"},"vehicle_type_id":"4","last_reported":1741036148,"current_range_meters":16800,"station_id":"ce4bhh12rcd13ifvqff0","pricing_plan_id":"cebpf4jnsgd1na2vs0mg"},{"bike_id":"19435cef-43f3-41d8-ba02-44456575a9d7","system_id":"levelo_inurba_marseille","lat":43.278368,"lon":5.392058,"is_reserved":false,"is_disabled":false,"rental_uris":{"android":"levelo://app?vid=19435cef-43f3-41d8-ba02-44456575a9d7","ios":"levelo://app?vid=19435cef-43f3-41d8-ba02-44456575a9d7"},"vehicle_type_id":"4","last_reported":1741036148,"current_range_meters":16800,"station_id":"ce4bhjp2rcd13ifvqga0","pricing_plan_id":"cebpf4jnsgd1na2vs0mg"},{"bike_id":"92322e13-cd31-4284-9dfd-c7ac166c272d","system_id":"levelo_inurba_marseille","lat":43.27991,"lon":5.41671,"is_reserved":false,"is_disabled":false,"rental_uris":{"android":"levelo://app?vid=92322e13-cd31-4284-9dfd-c7ac166c272d","ios":"levelo://app?vid=92322e13-cd31-4284-9dfd-c7ac166c272d"},"vehicle_type_id":"4","last_reported":1741036148,"current_range_meters":16800,"station_id":"ce4bho12rcd13ifvqh1g","pricing_plan_id":"cebpf4jnsgd1na2vs0mg"},{"bike_id":"52bab40a-54e3-4878-a2e6-3fdb41f97120","system_id":"levelo_inurba_marseille","lat":43.32617,"lon":5.37632,"is_reserved":false,"is_disabled":false,"rental_uris":{"android":"levelo://app?vid=52bab40a-54e3-4878-a2e6-3fdb41f97120","ios":"levelo://app?vid=52bab40a-54e3-4878-a2e6-3fdb41f97120"},"vehicle_type_id":"4","last_reported":1741036148,"current_range_meters":17200,"station_id":"","pricing_plan_id":"cebpf4jnsgd1na2vs0mg"},{"bike_id":"31b1445f-c7ad-40ed-bd63-5cfde2d4e07b","system_id":"levelo_inurba_marseille","lat":43.32785,"lon":5.3915,"is_reserved":false,"is_disabled":false,"rental_uris":{"android":"levelo://app?vid=31b1445f-c7ad-40ed-bd63-5cfde2d4e07b","ios":"levelo://app?vid=31b1445f-c7ad-40ed-bd63-5cfde2d4e07b"},"vehicle_type_id":"4","last_reported":1741036148,"current_range_meters":17200,"station_id":"","pricing_plan_id":"cebpf4jnsgd1na2vs0mg"},{"bike_id":"ae1a4ad9-5737-46cd-b0dd-f88873b1a808","system_id":"levelo_inurba_marseille","lat":43.30131,"lon":5.39857,"is_reserved":false,"is_disabled":false,"rental_uris":{"android":"levelo://app?vid=ae1a4ad9-5737-46cd-b0dd-f88873b1a808","ios":"levelo://app?vid=ae1a4ad9-5737-46cd-b0dd-f88873b1a808"},"vehicle_type_id":"4","last_reported":1741036148,"current_range_meters":17200,"station_id":"ce4bh0h2rcd13ifvqd40","pricing_plan_id":"cebpf4jnsgd1na2vs0mg"},{"bike_id":"d5debced-2b81-4e17-9b50-d781ba86435e","system_id":"levelo_inurba_marseille","lat":43.29516,"lon":5.39422,"is_reserved":false,"is_disabled":false,"rental_uris":{"android":"levelo://app?vid=d5debced-2b81-4e17-9b50-d781ba86435e","ios":"levelo://app?vid=d5debced-2b81-4e17-9b50-d781ba86435e"},"vehicle_type_id":"4","last_reported":1741036148,"current_range_meters":17200,"station_id":"ce4bh292rcd13ifvqdf0","pricing_plan_id":"cebpf4jnsgd1na2vs0mg"},{"bike_id":"aecf1166-ee28-48ea-b738-13b6af630d89","system_id":"levelo_inurba_marseille","lat":43.28922,"lon":5.36388,"is_reserved":false,"is_disabled":false,"rental_uris":{"android":"levelo://app?vid=aecf1166-ee28-48ea-b738-13b6af630d89","ios":"levelo://app?vid=aecf1166-ee28-48ea-b738-13b6af630d89"},"vehicle_type_id":"4","last_reported":1741036148,"current_range_meters":17200,"station_id":"ce4bhc92rcd13ifvqetg","pricing_plan_id":"cebpf4jnsgd1na2vs0mg"},{"bike_id":"954be03c-bedc-4d79-b23c-ddf297b60e57","system_id":"levelo_inurba_marseille","lat":43.25082,"lon":5.39537,"is_reserved":false,"is_disabled":false,"rental_uris":{"android":"levelo://app?vid=954be03c-bedc-4d79-b23c-ddf297b60e57","ios":"levelo://app?vid=954be03c-bedc-4d79-b23c-ddf297b60e57"},"vehicle_type_id":"4","last_reported":1741036148,"current_range_meters":17200,"station_id":"ce4bhm12rcd13ifvqgkg","pricing_plan_id":"cebpf4jnsgd1na2vs0mg"},{"bike_id":"985d2fa7-01f5-44f0-8aae-9e1fc7712f86","system_id":"levelo_inurba_marseille","lat":43.29261,"lon":5.37606,"is_reserved":false,"is_disabled":false,"rental_uris":{"android":"levelo://app?vid=985d2fa7-01f5-44f0-8aae-9e1fc7712f86","ios":"levelo://app?vid=985d2fa7-01f5-44f0-8aae-9e1fc7712f86"},"vehicle_type_id":"4","last_reported":1741036148,"current_range_meters":17600,"station_id":"ce4bgi12rcd13ifvqb80","pricing_plan_id":"cebpf4jnsgd1na2vs0mg"},{"bike_id":"b61de86e-763a-4c41-8050-2a3cc34c0988","system_id":"levelo_inurba_marseille","lat":43.30605,"lon":5.37233,"is_reserved":false,"is_disabled":false,"rental_uris":{"android":"levelo://app?vid=b61de86e-763a-4c41-8050-2a3cc34c0988","ios":"levelo://app?vid=b61de86e-763a-4c41-8050-2a3cc34c0988"},"vehicle_type_id":"4","last_reported":1741036148,"current_range_meters":17600,"station_id":"ce4bgqh2rcd13ifvqc4g","pricing_plan_id":"cebpf4jnsgd1na2vs0mg"},{"bike_id":"0f921424-afa4-4686-90b3-7f97a03d67ae","system_id":"levelo_inurba_marseille","lat":43.31077,"lon":5.38357,"is_reserved":false,"is_disabled":false,"rental_uris":{"android":"levelo://app?vid=0f921424-afa4-4686-90b3-7f97a03d67ae","ios":"levelo://app?vid=0f921424-afa4-4686-90b3-7f97a03d67ae"},"vehicle_type_id":"4","last_reported":1741036148,"current_range_meters":17600,"station_id":"ce4bgv92rcd13ifvqcr0","pricing_plan_id":"cebpf4jnsgd1na2vs0mg"},{"bike_id":"2d874c5e-182d-451e-a14f-2936f1e1d544","system_id":"levelo_inurba_marseille","lat":43.292469,"lon":5.408834,"is_reserved":false,"is_disabled":false,"rental_uris":{"android":"levelo://app?vid=2d874c5e-182d-451e-a14f-2936f1e1d544","ios":"levelo://app?vid=2d874c5e-182d-451e-a14f-2936f1e1d544"},"vehicle_type_id":"4","last_reported":1741036148,"current_range_meters":17600,"station_id":"ce4bh192rcd13ifvqdc0","pricing_plan_id":"cebpf4jnsgd1na2vs0mg"},{"bike_id":"c9cd9d3d-c1cb-40d2-9adf-0031344b5635","system_id":"levelo_inurba_marseille","lat":43.29518,"lon":5.39055,"is_reserved":false,"is_disabled":false,"rental_uris":{"android":"levelo://app?vid=c9cd9d3d-c1cb-40d2-9adf-0031344b5635","ios":"levelo://app?vid=c9cd9d3d-c1cb-40d2-9adf-0031344b5635"},"vehicle_type_id":"4","last_reported":1741036148,"current_range_meters":17600,"station_id":"ce4bh3p2rcd13ifvqdp0","pricing_plan_id":"cebpf4jnsgd1na2vs0mg"},{"bike_id":"fb442df0-4591-499a-ab4c-321abd668e0e","system_id":"levelo_inurba_marseille","lat":43.28271,"lon":5.35076,"is_reserved":false,"is_disabled":false,"rental_uris":{"android":"levelo://app?vid=fb442df0-4591-499a-ab4c-321abd668e0e","ios":"levelo://app?vid=fb442df0-4591-499a-ab4c-321abd668e0e"},"vehicle_type_id":"4","last_reported":1741036148,"current_range_meters":17600,"station_id":"ce4bhbp2rcd13ifvqerg","pricing_plan_id":"cebpf4jnsgd1na2vs0mg"},{"bike_id":"cfb79c28-2385-459b-9ebc-a306ff70636d","system_id":"levelo_inurba_marseille","lat":43.27076,"lon":5.42282,"is_reserved":false,"is_disabled":false,"rental_uris":{"android":"levelo://app?vid=cfb79c28-2385-459b-9ebc-a306ff70636d","ios":"levelo://app?vid=cfb79c28-2385-459b-9ebc-a306ff70636d"},"vehicle_type_id":"4","last_reported":1741036148,"current_range_meters":17600,"station_id":"ce4bhk92rcd13ifvqgb0","pricing_plan_id":"cebpf4jnsgd1na2vs0mg"},{"bike_id":"bb82e375-4fd0-464e-a323-eb7e249015f1","system_id":"levelo_inurba_marseille","lat":43.33608,"lon":5.41022,"is_reserved":false,"is_disabled":false,"rental_uris":{"android":"levelo://app?vid=bb82e375-4fd0-464e-a323-eb7e249015f1","ios":"levelo://app?vid=bb82e375-4fd0-464e-a323-eb7e249015f1"},"vehicle_type_id":"4","last_reported":1741036148,"current_range_meters":17600,"station_id":"ce4bhqh2rcd13ifvqhmg","pricing_plan_id":"cebpf4jnsgd1na2vs0mg"},{"bike_id":"cf947015-5435-411e-b787-33b824bbdfb2","system_id":"levelo_inurba_marseille","lat":43.32348,"lon":5.38867,"is_reserved":false,"is_disabled":false,"rental_uris":{"android":"levelo://app?vid=cf947015-5435-411e-b787-33b824bbdfb2","ios":"levelo://app?vid=cf947015-5435-411e-b787-33b824bbdfb2"},"vehicle_type_id":"4","last_reported":1741036148,"current_range_meters":17600,"station_id":"ce4bhqp2rcd13ifvqhog","pricing_plan_id":"cebpf4jnsgd1na2vs0mg"},{"bike_id":"47ca7176-dcba-4b9e-8dbb-e2bb239319ab","system_id":"levelo_inurba_marseille","lat":43.3142,"lon":5.38549,"is_reserved":false,"is_disabled":false,"rental_uris":{"android":"levelo://app?vid=47ca7176-dcba-4b9e-8dbb-e2bb239319ab","ios":"levelo://app?vid=47ca7176-dcba-4b9e-8dbb-e2bb239319ab"},"vehicle_type_id":"4","last_reported":1741036148,"current_range_meters":18000,"station_id":"","pricing_plan_id":"cebpf4jnsgd1na2vs0mg"},{"bike_id":"97076f36-e188-4001-a2c5-72f5c88af3d7","system_id":"levelo_inurba_marseille","lat":43.29043,"lon":5.39963,"is_reserved":false,"is_disabled":false,"rental_uris":{"android":"levelo://app?vid=97076f36-e188-4001-a2c5-72f5c88af3d7","ios":"levelo://app?vid=97076f36-e188-4001-a2c5-72f5c88af3d7"},"vehicle_type_id":"4","last_reported":1741036148,"current_range_meters":18000,"station_id":"ce4bh392rcd13ifvqdm0","pricing_plan_id":"cebpf4jnsgd1na2vs0mg"},{"bike_id":"a2b9d686-216a-4f50-ae4b-e7710a444cd6","system_id":"levelo_inurba_marseille","lat":43.25011,"lon":5.38912,"is_reserved":false,"is_disabled":false,"rental_uris":{"android":"levelo://app?vid=a2b9d686-216a-4f50-ae4b-e7710a444cd6","ios":"levelo://app?vid=a2b9d686-216a-4f50-ae4b-e7710a444cd6"},"vehicle_type_id":"4","last_reported":1741036148,"current_range_meters":18000,"station_id":"ce4bhgp2rcd13ifvqfd0","pricing_plan_id":"cebpf4jnsgd1na2vs0mg"},{"bike_id":"e83fe1b4-c043-431b-bbbb-a67a412ce328","system_id":"levelo_inurba_marseille","lat":43.31989,"lon":5.3813,"is_reserved":false,"is_disabled":false,"rental_uris":{"android":"levelo://app?vid=e83fe1b4-c043-431b-bbbb-a67a412ce328","ios":"levelo://app?vid=e83fe1b4-c043-431b-bbbb-a67a412ce328"},"vehicle_type_id":"4","last_reported":1741036148,"current_range_meters":18000,"station_id":"ce4bhr12rcd13ifvqhpg","pricing_plan_id":"cebpf4jnsgd1na2vs0mg"},{"bike_id":"f9556fbd-53f8-4d42-82ab-5e5f47121791","system_id":"levelo_inurba_marseille","lat":43.28599,"lon":5.37007,"is_reserved":false,"is_disabled":false,"rental_uris":{"android":"levelo://app?vid=f9556fbd-53f8-4d42-82ab-5e5f47121791","ios":"levelo://app?vid=f9556fbd-53f8-4d42-82ab-5e5f47121791"},"vehicle_type_id":"4","last_reported":1741036148,"current_range_meters":18000,"station_id":"ce4bht12rcd13ifvqi60","pricing_plan_id":"cebpf4jnsgd1na2vs0mg"},{"bike_id":"7cd5e07c-ad2a-4af8-99d9-77c41335ce79","system_id":"levelo_inurba_marseille","lat":43.24166,"lon":5.36393,"is_reserved":false,"is_disabled":false,"rental_uris":{"android":"levelo://app?vid=7cd5e07c-ad2a-4af8-99d9-77c41335ce79","ios":"levelo://app?vid=7cd5e07c-ad2a-4af8-99d9-77c41335ce79"},"vehicle_type_id":"4","last_reported":1741036148,"current_range_meters":18000,"station_id":"cpo36qri1sfpv3e86is0","pricing_plan_id":"cebpf4jnsgd1na2vs0mg"},{"bike_id":"4f22ed03-3f01-49f0-87ec-77cf8c324e7e","system_id":"levelo_inurba_marseille","lat":43.31018,"lon":5.3846,"is_reserved":false,"is_disabled":false,"rental_uris":{"android":"levelo://app?vid=4f22ed03-3f01-49f0-87ec-77cf8c324e7e","ios":"levelo://app?vid=4f22ed03-3f01-49f0-87ec-77cf8c324e7e"},"vehicle_type_id":"4","last_reported":1741036148,"current_range_meters":18800,"station_id":"","pricing_plan_id":"cebpf4jnsgd1na2vs0mg"},{"bike_id":"9d6ae744-9288-4326-8270-799cddf96cc1","system_id":"levelo_inurba_marseille","lat":43.29592,"lon":5.38086,"is_reserved":false,"is_disabled":false,"rental_uris":{"android":"levelo://app?vid=9d6ae744-9288-4326-8270-799cddf96cc1","ios":"levelo://app?vid=9d6ae744-9288-4326-8270-799cddf96cc1"},"vehicle_type_id":"4","last_reported":1741036148,"current_range_meters":18800,"station_id":"ce4bgl12rcd13ifvqbo0","pricing_plan_id":"cebpf4jnsgd1na2vs0mg"},{"bike_id":"13b1630c-5e74-4cfd-83cc-1cf9628086bc","system_id":"levelo_inurba_marseille","lat":43.28475,"lon":5.35925,"is_reserved":false,"is_disabled":false,"rental_uris":{"android":"levelo://app?vid=13b1630c-5e74-4cfd-83cc-1cf9628086bc","ios":"levelo://app?vid=13b1630c-5e74-4cfd-83cc-1cf9628086bc"},"vehicle_type_id":"4","last_reported":1741036148,"current_range_meters":18800,"station_id":"ce4bhah2rcd13ifvqei0","pricing_plan_id":"cebpf4jnsgd1na2vs0mg"},{"bike_id":"f1da2154-ea2e-4a57-8e20-4482c5dd9b8a","system_id":"levelo_inurba_marseille","lat":43.25582,"lon":5.38238,"is_reserved":false,"is_disabled":false,"rental_uris":{"android":"levelo://app?vid=f1da2154-ea2e-4a57-8e20-4482c5dd9b8a","ios":"levelo://app?vid=f1da2154-ea2e-4a57-8e20-4482c5dd9b8a"},"vehicle_type_id":"4","last_reported":1741036148,"current_range_meters":18800,"station_id":"ce4bhih2rcd13ifvqfs0","pricing_plan_id":"cebpf4jnsgd1na2vs0mg"},{"bike_id":"0ec27d6f-b876-4c34-ba71-7d1aea070692","system_id":"levelo_inurba_marseille","lat":43.28098,"lon":5.39652,"is_reserved":false,"is_disabled":false,"rental_uris":{"android":"levelo://app?vid=0ec27d6f-b876-4c34-ba71-7d1aea070692","ios":"levelo://app?vid=0ec27d6f-b876-4c34-ba71-7d1aea070692"},"vehicle_type_id":"4","last_reported":1741036148,"current_range_meters":18800,"station_id":"ce4bho12rcd13ifvqh2g","pricing_plan_id":"cebpf4jnsgd1na2vs0mg"},{"bike_id":"d170468f-c190-4434-8e4e-ee1b40595363","system_id":"levelo_inurba_marseille","lat":43.30419,"lon":5.41294,"is_reserved":false,"is_disabled":false,"rental_uris":{"android":"levelo://app?vid=d170468f-c190-4434-8e4e-ee1b40595363","ios":"levelo://app?vid=d170468f-c190-4434-8e4e-ee1b40595363"},"vehicle_type_id":"4","last_reported":1741036148,"current_range_meters":18800,"station_id":"ce4bhop2rcd13ifvqh8g","pricing_plan_id":"cebpf4jnsgd1na2vs0mg"},{"bike_id":"e96e0c5f-d0e5-478b-b4aa-43a39d7ff26e","system_id":"levelo_inurba_marseille","lat":43.3235,"lon":5.36752,"is_reserved":false,"is_disabled":false,"rental_uris":{"android":"levelo://app?vid=e96e0c5f-d0e5-478b-b4aa-43a39d7ff26e","ios":"levelo://app?vid=e96e0c5f-d0e5-478b-b4aa-43a39d7ff26e"},"vehicle_type_id":"4","last_reported":1741036148,"current_range_meters":18800,"station_id":"ce4bhsh2rcd13ifvqi2g","pricing_plan_id":"cebpf4jnsgd1na2vs0mg"},{"bike_id":"d0c1d623-11ab-4348-95de-20d490237449","system_id":"levelo_inurba_marseille","lat":43.30959,"lon":5.39042,"is_reserved":false,"is_disabled":false,"rental_uris":{"android":"levelo://app?vid=d0c1d623-11ab-4348-95de-20d490237449","ios":"levelo://app?vid=d0c1d623-11ab-4348-95de-20d490237449"},"vehicle_type_id":"4","last_reported":1741036148,"current_range_meters":19200,"station_id":"ce4bgup2rcd13ifvqco0","pricing_plan_id":"cebpf4jnsgd1na2vs0mg"},{"bike_id":"dfe0f8e4-f5d4-4a79-9b64-260d70e4c2be","system_id":"levelo_inurba_marseille","lat":43.31335,"lon":5.39695,"is_reserved":false,"is_disabled":false,"rental_uris":{"android":"levelo://app?vid=dfe0f8e4-f5d4-4a79-9b64-260d70e4c2be","ios":"levelo://app?vid=dfe0f8e4-f5d4-4a79-9b64-260d70e4c2be"},"vehicle_type_id":"4","last_reported":1741036148,"current_range_meters":19200,"station_id":"ce4bgvp2rcd13ifvqcu0","pricing_plan_id":"cebpf4jnsgd1na2vs0mg"},{"bike_id":"7ad449bc-99c2-472f-b781-ad26766d1190","system_id":"levelo_inurba_marseille","lat":43.26066,"lon":5.39397,"is_reserved":false,"is_disabled":false,"rental_uris":{"android":"levelo://app?vid=7ad449bc-99c2-472f-b781-ad26766d1190","ios":"levelo://app?vid=7ad449bc-99c2-472f-b781-ad26766d1190"},"vehicle_type_id":"4","last_reported":1741036148,"current_range_meters":19200,"station_id":"ce4bhh92rcd13ifvqfj0","pricing_plan_id":"cebpf4jnsgd1na2vs0mg"},{"bike_id":"3e925b0e-6733-433e-a32e-494b1720606b","system_id":"levelo_inurba_marseille","lat":43.30801,"lon":5.38162,"is_reserved":false,"is_disabled":false,"rental_uris":{"android":"levelo://app?vid=3e925b0e-6733-433e-a32e-494b1720606b","ios":"levelo://app?vid=3e925b0e-6733-433e-a32e-494b1720606b"},"vehicle_type_id":"4","last_reported":1741036148,"current_range_meters":19600,"station_id":"ce4bgt12rcd13ifvqce0","pricing_plan_id":"cebpf4jnsgd1na2vs0mg"},{"bike_id":"4e9dbc68-b5fa-4d45-868f-80acbe8f19fd","system_id":"levelo_inurba_marseille","lat":43.30892,"lon":5.3965,"is_reserved":false,"is_disabled":false,"rental_uris":{"android":"levelo://app?vid=4e9dbc68-b5fa-4d45-868f-80acbe8f19fd","ios":"levelo://app?vid=4e9dbc68-b5fa-4d45-868f-80acbe8f19fd"},"vehicle_type_id":"4","last_reported":1741036148,"current_range_meters":19600,"station_id":"ce4bh012rcd13ifvqcv0","pricing_plan_id":"cebpf4jnsgd1na2vs0mg"},{"bike_id":"899f4df3-bdcf-466c-99fb-3b530feb294a","system_id":"levelo_inurba_marseille","lat":43.29508,"lon":5.39048,"is_reserved":false,"is_disabled":false,"rental_uris":{"android":"levelo://app?vid=899f4df3-bdcf-466c-99fb-3b530feb294a","ios":"levelo://app?vid=899f4df3-bdcf-466c-99fb-3b530feb294a"},"vehicle_type_id":"4","last_reported":1741036148,"current_range_meters":19600,"station_id":"ce4bh3p2rcd13ifvqdp0","pricing_plan_id":"cebpf4jnsgd1na2vs0mg"},{"bike_id":"6c98bd2b-8bb5-47a5-9ee0-da34c339f97f","system_id":"levelo_inurba_marseille","lat":43.28457,"lon":5.35901,"is_reserved":false,"is_disabled":false,"rental_uris":{"android":"levelo://app?vid=6c98bd2b-8bb5-47a5-9ee0-da34c339f97f","ios":"levelo://app?vid=6c98bd2b-8bb5-47a5-9ee0-da34c339f97f"},"vehicle_type_id":"4","last_reported":1741036148,"current_range_meters":19600,"station_id":"ce4bhah2rcd13ifvqei0","pricing_plan_id":"cebpf4jnsgd1na2vs0mg"},{"bike_id":"8cf3faf5-293b-458a-b935-d795dbaeba5e","system_id":"levelo_inurba_marseille","lat":43.25116,"lon":5.40317,"is_reserved":false,"is_disabled":false,"rental_uris":{"android":"levelo://app?vid=8cf3faf5-293b-458a-b935-d795dbaeba5e","ios":"levelo://app?vid=8cf3faf5-293b-458a-b935-d795dbaeba5e"},"vehicle_type_id":"4","last_reported":1741036148,"current_range_meters":19600,"station_id":"ce4bhlh2rcd13ifvqgig","pricing_plan_id":"cebpf4jnsgd1na2vs0mg"},{"bike_id":"7d670a6d-df6e-4d88-b983-142fe7cee3e2","system_id":"levelo_inurba_marseille","lat":43.27938,"lon":5.41056,"is_reserved":false,"is_disabled":false,"rental_uris":{"android":"levelo://app?vid=7d670a6d-df6e-4d88-b983-142fe7cee3e2","ios":"levelo://app?vid=7d670a6d-df6e-4d88-b983-142fe7cee3e2"},"vehicle_type_id":"4","last_reported":1741036148,"current_range_meters":19600,"station_id":"ce4bhnp2rcd13ifvqh0g","pricing_plan_id":"cebpf4jnsgd1na2vs0mg"},{"bike_id":"f587eca0-3c84-43be-bf0b-92ceb8a8daab","system_id":"levelo_inurba_marseille","lat":43.30606,"lon":5.37226,"is_reserved":false,"is_disabled":false,"rental_uris":{"android":"levelo://app?vid=f587eca0-3c84-43be-bf0b-92ceb8a8daab","ios":"levelo://app?vid=f587eca0-3c84-43be-bf0b-92ceb8a8daab"},