{"last_updated":1703118912,"ttl":30,"version":"2.2","data":{"bikes":[{"bike_id":"b6cb0808-4276-411f-b1a9-769199a384c5","system_id":"levelo_inurba_marseille","lat":43.313391,"lon":5.36706,"is_reserved":false,"is_disabled":false,"rental_uris":{"android":"levelo://app?vid=b6cb0808-4276-411f-b1a9-769199a384c5","ios":"levelo://app?vid=b6cb0808-4276-411f-b1a9-769199a384c5"},"vehicle_type_id":"4","last_reported":1703118912,"current_range_meters":30400,"station_id":"ce4bgr92rcd13ifvqc6g","pricing_plan_id":"free"},{"bike_id":"63e20fad-1285-4b66-bd8f-d3605b03361b","system_id":"levelo_inurba_marseille","lat":43.31341,"lon":5.367098,"is_reserved":false,"is_disabled":false,"rental_uris":{"android":"levelo://app?vid=63e20fad-1285-4b66-bd8f-d3605b03361b","ios":"levelo://app?vid=63e20fad-1285-4b66-bd8f-d3605b03361b"},"vehicle_type_id":"4","last_reported":1703118912,"current_range_meters":27200,"station_id":"ce4bgr92rcd13ifvqc6g","pricing_plan_id":"free"},{"bike_id":"77e57ab8-d7f9-4534-b540-8a90c6ca91b9","system_id":"levelo_inurba_marseille","lat":43.314811,"lon":5.373104,"is_reserved":false,"is_disabled":false,"rental_uris":{"android":"levelo://app?vid=77e57ab8-d7f9-4534-b540-8a90c6ca91b9","ios":"levelo://app?vid=77e57ab8-d7f9-4534-b540-8a90c6ca91b9"},"vehicle_type_id":"4","last_reported":1703118912,"current_range_meters":20800,"station_id":"ce4bgt12rcd13ifvqcd0","pricing_plan_id":"free"},{"bike_id":"935b3241-2df6-4187-8ce9-fa9a431453f4","system_id":"levelo_inurba_marseille","lat":43.309039,"lon":5.371797,"is_reserved":false,"is_disabled":false,"rental_uris":{"android":"levelo://app?vid=935b3241-2df6-4187-8ce9-fa9a431453f4","ios":"levelo://app?vid=935b3241-2df6-4187-8ce9-fa9a431453f4"},"vehicle_type_id":"4","last_reported":1703118912,"current_range_meters":12000,"station_id":"ce4bguh2rcd13ifvqckg","pricing_plan_id":"free"},{"bike_id":"044fb60b-41f1-4d45-ac78-a005f4ffd2d1","system_id":"levelo_inurba_marseille","lat":43.309039,"lon":5.371797,"is_reserved":false,"is_disabled":false,"rental_uris":{"android":"levelo://app?vid=044fb60b-41f1-4d45-ac78-a005f4ffd2d1","ios":"levelo://app?vid=044fb60b-41f1-4d45-ac78-a005f4ffd2d1"},"vehicle_type_id":"4","last_reported":1703118912,"current_range_meters":21600,"station_id":"ce4bguh2rcd13ifvqckg","pricing_plan_id":"free"},{"bike_id":"98d0b434-bb66-4081-993e-7cb3cbef7ec5","system_id":"levelo_inurba_marseille","lat":43.309039,"lon":5.371797,"is_reserved":false,"is_disabled":false,"rental_uris":{"android":"levelo://app?vid=98d0b434-bb66-4081-993e-7cb3cbef7ec5","ios":"levelo://app?vid=98d0b434-bb66-4081-993e-7cb3cbef7ec5"},"vehicle_type_id":"4","last_reported":1703118912,"current_range_meters":20000,"station_id":"ce4bguh2rcd13ifvqckg","pricing_plan_id":"free"},{"bike_id":"3cf12d02-5c13-435d-8950-6f18202f760d","system_id":"levelo_inurba_marseille","lat":43.309039,"lon":5.371797,"is_reserved":false,"is_disabled":false,"rental_uris":{"android":"levelo://app?vid=3cf12d02-5c13-435d-8950-6f18202f760d","ios":"levelo://app?vid=3cf12d02-5c13-435d-8950-6f18202f760d"},"vehicle_type_id":"4","last_reported":1703118912,"current_range_meters":30800,"station_id":"ce4bguh2rcd13ifvqckg","pricing_plan_id":"free"},{"bike_id":"c30439e2-ba2b-4272-a77c-54b57d043782","system_id":"levelo_inurba_marseille","lat":43.309039,"lon":5.371797,"is_reserved":false,"is_disabled":false,"rental_uris":{"android":"levelo://app?vid=c30439e2-ba2b-4272-a77c-54b57d043782","ios":"levelo://app?vid=c30439e2-ba2b-4272-a77c-54b57d043782"},"vehicle_type_id":"4","last_reported":1703118912,"current_range_meters":18000,"station_id":"ce4bguh2rcd13ifvqckg","pricing_plan_id":"free"},{"bike_id":"d69523e9-1f4d-40a6-80a5-0ce038134c46","system_id":"levelo_inurba_marseille","lat":43.305989,"lon":5.37225,"is_reserved":false,"is_disabled":false,"rental_uris":{"android":"levelo://app?vid=d69523e9-1f4d-40a6-80a5-0ce038134c46","ios":"levelo://app?vid=d69523e9-1f4d-40a6-80a5-0ce038134c46"},"vehicle_type_id":"4","last_reported":1703118912,"current_range_meters":26400,"station_id":"ce4bgqh2rcd13ifvqc4g","pricing_plan_id":"free"},{"bike_id":"8dacd88d-5d2e-4032-bff0-8bd342fe8c46","system_id":"levelo_inurba_marseille","lat":43.311125,"lon":5.377624,"is_reserved":false,"is_disabled":false,"rental_uris":{"android":"levelo://app?vid=8dacd88d-5d2e-4032-bff0-8bd342fe8c46","ios":"levelo://app?vid=8dacd88d-5d2e-4032-bff0-8bd342fe8c46"},"vehicle_type_id":"4","last_reported":1703118912,"current_range_meters":2800,"station_id":"ce4bgt92rcd13ifvqcg0","pricing_plan_id":"free"},{"bike_id":"3da917b8-2eea-4060-a456-39506305cc35","system_id":"levelo_inurba_marseille","lat":43.311131,"lon":5.377651,"is_reserved":false,"is_disabled":false,"rental_uris":{"android":"levelo://app?vid=3da917b8-2eea-4060-a456-39506305cc35","ios":"levelo://app?vid=3da917b8-2eea-4060-a456-39506305cc35"},"vehicle_type_id":"4","last_reported":1703118912,"current_range_meters":0,"station_id":"ce4bgt92rcd13ifvqcg0","pricing_plan_id":"free"},{"bike_id":"dba0ba2f-08c6-407d-b894-e43d3d350931","system_id":"levelo_inurba_marseille","lat":43.311131,"lon":5.377651,"is_reserved":false,"is_disabled":false,"rental_uris":{"android":"levelo://app?vid=dba0ba2f-08c6-407d-b894-e43d3d350931","ios":"levelo://app?vid=dba0ba2f-08c6-407d-b894-e43d3d350931"},"vehicle_type_id":"4","last_reported":1703118912,"current_range_meters":15200,"station_id":"ce4bgt92rcd13ifvqcg0","pricing_plan_id":"free"},{"bike_id":"b2e1a199-f4da-4d5f-87a0-089bee0c6255","system_id":"levelo_inurba_marseille","lat":43.307945,"lon":5.376487,"is_reserved":false,"is_disabled":false,"rental_uris":{"android":"levelo://app?vid=b2e1a199-f4da-4d5f-87a0-089bee0c6255","ios":"levelo://app?vid=b2e1a199-f4da-4d5f-87a0-089bee0c6255"},"vehicle_type_id":"4","last_reported":1703118912,"current_range_meters":19200,"station_id":"ce4bgv92rcd13ifvqcq0","pricing_plan_id":"free"},{"bike_id":"a1209e15-3224-42ac-a892-60ed6e96467f","system_id":"levelo_inurba_marseille","lat":43.307945,"lon":5.376487,"is_reserved":false,"is_disabled":false,"rental_uris":{"android":"levelo://app?vid=a1209e15-3224-42ac-a892-60ed6e96467f","ios":"levelo://app?vid=a1209e15-3224-42ac-a892-60ed6e96467f"},"vehicle_type_id":"4","last_reported":1703118912,"current_range_meters":29600,"station_id":"ce4bgv92rcd13ifvqcq0","pricing_plan_id":"free"},{"bike_id":"2b31283f-dc49-40eb-9032-b11b2c1daf8d","system_id":"levelo_inurba_marseille","lat":43.317075,"lon":5.377367,"is_reserved":false,"is_disabled":false,"rental_uris":{"android":"levelo://app?vid=2b31283f-dc49-40eb-9032-b11b2c1daf8d","ios":"levelo://app?vid=2b31283f-dc49-40eb-9032-b11b2c1daf8d"},"vehicle_type_id":"4","last_reported":1703118912,"current_range_meters":30000,"station_id":"ce4bgth2rcd13ifvqch0","pricing_plan_id":"free"},{"bike_id":"bca58c44-13fe-40ed-add1-9184d79ebab7","system_id":"levelo_inurba_marseille","lat":43.303046,"lon":5.368981,"is_reserved":false,"is_disabled":false,"rental_uris":{"android":"levelo://app?vid=bca58c44-13fe-40ed-add1-9184d79ebab7","ios":"levelo://app?vid=bca58c44-13fe-40ed-add1-9184d79ebab7"},"vehicle_type_id":"4","last_reported":1703118912,"current_range_meters":25600,"station_id":"ce4bgqh2rcd13ifvqc5g","pricing_plan_id":"free"},{"bike_id":"d9390021-7d97-4d95-83f9-8332d33df089","system_id":"levelo_inurba_marseille","lat":43.308012,"lon":5.381511,"is_reserved":false,"is_disabled":false,"rental_uris":{"android":"levelo://app?vid=d9390021-7d97-4d95-83f9-8332d33df089","ios":"levelo://app?vid=d9390021-7d97-4d95-83f9-8332d33df089"},"vehicle_type_id":"4","last_reported":1703118912,"current_range_meters":20000,"station_id":"ce4bgt12rcd13ifvqce0","pricing_plan_id":"free"},{"bike_id":"85053aad-3b46-48d3-9ed1-74f81dc23d1a","system_id":"levelo_inurba_marseille","lat":43.302784,"lon":5.377158,"is_reserved":false,"is_disabled":false,"rental_uris":{"android":"levelo://app?vid=85053aad-3b46-48d3-9ed1-74f81dc23d1a","ios":"levelo://app?vid=85053aad-3b46-48d3-9ed1-74f81dc23d1a"},"vehicle_type_id":"4","last_reported":1703118912,"current_range_meters":21600,"station_id":"ce4bguh2rcd13ifvqcj0","pricing_plan_id":"free"},{"bike_id":"953d5feb-48a7-427e-a3e1-b62f811507e8","system_id":"levelo_inurba_marseille","lat":43.319935,"lon":5.381699,"is_reserved":false,"is_disabled":false,"rental_uris":{"android":"levelo://app?vid=953d5feb-48a7-427e-a3e1-b62f811507e8","ios":"levelo://app?vid=953d5feb-48a7-427e-a3e1-b62f811507e8"},"vehicle_type_id":"4","last_reported":1703118912,"current_range_meters":3200,"station_id":"ce4bhr12rcd13ifvqhpg","pricing_plan_id":"free"},{"bike_id":"6bd330e5-be91-4c6a-bd12-6b4c0748505e","system_id":"levelo_inurba_marseille","lat":43.320005,"lon":5.381603,"is_reserved":false,"is_disabled":false,"rental_uris":{"android":"levelo://app?vid=6bd330e5-be91-4c6a-bd12-6b4c0748505e","ios":"levelo://app?vid=6bd330e5-be91-4c6a-bd12-6b4c0748505e"},"vehicle_type_id":"4","last_reported":1703118912,"current_range_meters":10400,"station_id":"ce4bhr12rcd13ifvqhpg","pricing_plan_id":"free"},{"bike_id":"938ed73c-eefd-41a3-b2e9-cb10e3da8e0b","system_id":"levelo_inurba_marseille","lat":43.313571,"lon":5.384829,"is_reserved":false,"is_disabled":false,"rental_uris":{"android":"levelo://app?vid=938ed73c-eefd-41a3-b2e9-cb10e3da8e0b","ios":"levelo://app?vid=938ed73c-eefd-41a3-b2e9-cb10e3da8e0b"},"vehicle_type_id":"4","last_reported":1703118912,"current_range_meters":0,"station_id":"ce4bgt92rcd13ifvqcf0","pricing_plan_id":"free"},{"bike_id":"a532531c-1386-4f72-8f85-ec0e658263e1","system_id":"levelo_inurba_marseille","lat":43.313571,"lon":5.384829,"is_reserved":false,"is_disabled":false,"rental_uris":{"android":"levelo://app?vid=a532531c-1386-4f72-8f85-ec0e658263e1","ios":"levelo://app?vid=a532531c-1386-4f72-8f85-ec0e658263e1"},"vehicle_type_id":"4","last_reported":1703118912,"current_range_meters":5200,"station_id":"ce4bgt92rcd13ifvqcf0","pricing_plan_id":"free"},{"bike_id":"97ee561f-6180-4767-bffc-2d24db068c82","system_id":"levelo_inurba_marseille","lat":43.313571,"lon":5.384829,"is_reserved":false,"is_disabled":false,"rental_uris":{"android":"levelo://app?vid=97ee561f-6180-4767-bffc-2d24db068c82","ios":"levelo://app?vid=97ee561f-6180-4767-bffc-2d24db068c82"},"vehicle_type_id":"4","last_reported":1703118912,"current_range_meters":30400,"station_id":"ce4bgt92rcd13ifvqcf0","pricing_plan_id":"free"},{"bike_id":"257d7a13-be48-46e9-abf1-6513a04c2a98","system_id":"levelo_inurba_marseille","lat":43.313571,"lon":5.384829,"is_reserved":false,"is_disabled":false,"rental_uris":{"android":"levelo://app?vid=257d7a13-be48-46e9-abf1-6513a04c2a98","ios":"levelo://app?vid=257d7a13-be48-46e9-abf1-6513a04c2a98"},"vehicle_type_id":"4","last_reported":1703118912,"current_range_meters":30000,"station_id":"ce4bgt92rcd13ifvqcf0","pricing_plan_id":"free"},{"bike_id":"ed91d5aa-99cc-4c7d-a060-e99494993703","system_id":"levelo_inurba_marseille","lat":43.313571,"lon":5.384829,"is_reserved":false,"is_disabled":false,"rental_uris":{"android":"levelo://app?vid=ed91d5aa-99cc-4c7d-a060-e99494993703","ios":"levelo://app?vid=ed91d5aa-99cc-4c7d-a060-e99494993703"},"vehicle_type_id":"4","last_reported":1703118912,"current_range_meters":27600,"station_id":"ce4bgt92rcd13ifvqcf0","pricing_plan_id":"free"},{"bike_id":"f1f0042a-0e0a-4a69-b7ee-26da2b50d186","system_id":"levelo_inurba_marseille","lat":43.299724,"lon":5.371829,"is_reserved":false,"is_disabled":false,"rental_uris":{"android":"levelo://app?vid=f1f0042a-0e0a-4a69-b7ee-26da2b50d186","ios":"levelo://app?vid=f1f0042a-0e0a-4a69-b7ee-26da2b50d186"},"vehicle_type_id":"4","last_reported":1703118912,"current_range_meters":29200,"station_id":"ce4bgr92rcd13ifvqc7g","pricing_plan_id":"free"},{"bike_id":"d55fa505-f348-4911-853a-3dc645b78632","system_id":"levelo_inurba_marseille","lat":43.311722,"lon":5.387247,"is_reserved":false,"is_disabled":false,"rental_uris":{"android":"levelo://app?vid=d55fa505-f348-4911-853a-3dc645b78632","ios":"levelo://app?vid=d55fa505-f348-4911-853a-3dc645b78632"},"vehicle_type_id":"4","last_reported":1703118912,"current_range_meters":28800,"station_id":"ce4bgv12rcd13ifvqcp0","pricing_plan_id":"free"},{"bike_id":"59f78105-95b0-49b7-9ec6-adaeaf9784cb","system_id":"levelo_inurba_marseille","lat":43.311722,"lon":5.387247,"is_reserved":false,"is_disabled":false,"rental_uris":{"android":"levelo://app?vid=59f78105-95b0-49b7-9ec6-adaeaf9784cb","ios":"levelo://app?vid=59f78105-95b0-49b7-9ec6-adaeaf9784cb"},"vehicle_type_id":"4","last_reported":1703118912,"current_range_meters":31600,"station_id":"ce4bgv12rcd13ifvqcp0","pricing_plan_id":"free"},{"bike_id":"e3a096a9-0e6e-4a62-bd9d-9bba124181e0","system_id":"levelo_inurba_marseille","lat":43.311722,"lon":5.387247,"is_reserved":false,"is_disabled":false,"rental_uris":{"android":"levelo://app?vid=e3a096a9-0e6e-4a62-bd9d-9bba124181e0","ios":"levelo://app?vid=e3a096a9-0e6e-4a62-bd9d-9bba124181e0"},"vehicle_type_id":"4","last_reported":1703118912,"current_range_meters":15200,"station_id":"ce4bgv12rcd13ifvqcp0","pricing_plan_id":"free"},{"bike_id":"1b77dd70-b491-4da0-8f7e-06bdc7d43dbf","system_id":"levelo_inurba_marseille","lat":43.311722,"lon":5.387247,"is_reserved":false,"is_disabled":false,"rental_uris":{"android":"levelo://app?vid=1b77dd70-b491-4da0-8f7e-06bdc7d43dbf","ios":"levelo://app?vid=1b77dd70-b491-4da0-8f7e-06bdc7d43dbf"},"vehicle_type_id":"4","last_reported":1703118912,"current_range_meters":31600,"station_id":"ce4bgv12rcd13ifvqcp0","pricing_plan_id":"free"},{"bike_id":"291ee45d-9f2a-4ff9-acdd-5ea4c6264613","system_id":"levelo_inurba_marseille","lat":43.311722,"lon":5.387247,"is_reserved":false,"is_disabled":false,"rental_uris":{"android":"levelo://app?vid=291ee45d-9f2a-4ff9-acdd-5ea4c6264613","ios":"levelo://app?vid=291ee45d-9f2a-4ff9-acdd-5ea4c6264613"},"vehicle_type_id":"4","last_reported":1703118912,"current_range_meters":22800,"station_id":"ce4bgv12rcd13ifvqcp0","pricing_plan_id":"free"},{"bike_id":"4b2d9bb1-5fa8-4bdf-92e9-6c6338df3907","system_id":"levelo_inurba_marseille","lat":43.311722,"lon":5.387247,"is_reserved":false,"is_disabled":false,"rental_uris":{"android":"levelo://app?vid=4b2d9bb1-5fa8-4bdf-92e9-6c6338df3907","ios":"levelo://app?vid=4b2d9bb1-5fa8-4bdf-92e9-6c6338df3907"},"vehicle_type_id":"4","last_reported":1703118912,"current_range_meters":31600,"station_id":"ce4bgv12rcd13ifvqcp0","pricing_plan_id":"free"},{"bike_id":"fcc1f58e-b4e8-4ef8-99d5-9fb78a4126ec","system_id":"levelo_inurba_marseille","lat":43.311722,"lon":5.387247,"is_reserved":false,"is_disabled":false,"rental_uris":{"android":"levelo://app?vid=fcc1f58e-b4e8-4ef8-99d5-9fb78a4126ec","ios":"levelo://app?vid=fcc1f58e-b4e8-4ef8-99d5-9fb78a4126ec"},"vehicle_type_id":"4","last_reported":1703118912,"current_range_meters":4800,"station_id":"ce4bgv12rcd13ifvqcp0","pricing_plan_id":"free"},{"bike_id":"76644617-8f77-4f52-b47c-c67ec66e22f9","system_id":"levelo_inurba_marseille","lat":43.311722,"lon":5.387247,"is_reserved":false,"is_disabled":false,"rental_uris":{"android":"levelo://app?vid=76644617-8f77-4f52-b47c-c67ec66e22f9","ios":"levelo://app?vid=76644617-8f77-4f52-b47c-c67ec66e22f9"},"vehicle_type_id":"4","last_reported":1703118912,"current_range_meters":31600,"station_id":"ce4bgv12rcd13ifvqcp0","pricing_plan_id":"free"},{"bike_id":"f75574c7-4b9f-4d54-bec2-4fe5197acad8","system_id":"levelo_inurba_marseille","lat":43.311722,"lon":5.387247,"is_reserved":false,"is_disabled":false,"rental_uris":{"android":"levelo://app?vid=f75574c7-4b9f-4d54-bec2-4fe5197acad8","ios":"levelo://app?vid=f75574c7-4b9f-4d54-bec2-4fe5197acad8"},"vehicle_type_id":"4","last_reported":1703118912,"current_range_meters":31600,"station_id":"ce4bgv12rcd13ifvqcp0","pricing_plan_id":"free"},{"bike_id":"6e1a1d7a-48d9-46ce-beb8-d648a2cc5663","system_id":"levelo_inurba_marseille","lat":43.311722,"lon":5.387247,"is_reserved":false,"is_disabled":false,"rental_uris":{"android":"levelo://app?vid=6e1a1d7a-48d9-46ce-beb8-d648a2cc5663","ios":"levelo://app?vid=6e1a1d7a-48d9-46ce-beb8-d648a2cc5663"},"vehicle_type_id":"4","last_reported":1703118912,"current_range_meters":31200,"station_id":"ce4bgv12rcd13ifvqcp0","pricing_plan_id":"free"},{"bike_id":"51834b79-2505-42ce-82c2-a9eeab440251","system_id":"levelo_inurba_marseille","lat":43.297794,"lon":5.370888,"is_reserved":false,"is_disabled":false,"rental_uris":{"android":"levelo://app?vid=51834b79-2505-42ce-82c2-a9eeab440251","ios":"levelo://app?vid=51834b79-2505-42ce-82c2-a9eeab440251"},"vehicle_type_id":"4","last_reported":1703118912,"current_range_meters":27200,"station_id":"ce4bgop2rcd13ifvqc1g","pricing_plan_id":"free"},{"bike_id":"b209b91e-f95c-4c8a-b85c-6c83d55c8c8c","system_id":"levelo_inurba_marseille","lat":43.322872,"lon":5.382756,"is_reserved":false,"is_disabled":false,"rental_uris":{"android":"levelo://app?vid=b209b91e-f95c-4c8a-b85c-6c83d55c8c8c","ios":"levelo://app?vid=b209b91e-f95c-4c8a-b85c-6c83d55c8c8c"},"vehicle_type_id":"4","last_reported":1703118912,"current_range_meters":3200,"station_id":"ce4bhr12rcd13ifvqhqg","pricing_plan_id":"free"},{"bike_id":"b8d2d249-a3a6-4543-b1c7-6b3650de13c5","system_id":"levelo_inurba_marseille","lat":43.322872,"lon":5.382756,"is_reserved":false,"is_disabled":false,"rental_uris":{"android":"levelo://app?vid=b8d2d249-a3a6-4543-b1c7-6b3650de13c5","ios":"levelo://app?vid=b8d2d249-a3a6-4543-b1c7-6b3650de13c5"},"vehicle_type_id":"4","last_reported":1703118912,"current_range_meters":31200,"station_id":"ce4bhr12rcd13ifvqhqg","pricing_plan_id":"free"},{"bike_id":"59581a9c-f177-4a96-aea6-b7baaa49a6a3","system_id":"levelo_inurba_marseille","lat":43.328258,"lon":5.366803,"is_reserved":false,"is_disabled":false,"rental_uris":{"android":"levelo://app?vid=59581a9c-f177-4a96-aea6-b7baaa49a6a3","ios":"levelo://app?vid=59581a9c-f177-4a96-aea6-b7baaa49a6a3"},"vehicle_type_id":"4","last_reported":1703118912,"current_range_meters":28000,"station_id":"ce4bhs92rcd13ifvqi0g","pricing_plan_id":"free"},{"bike_id":"2a8a59a2-86cc-48a9-8714-ae0edcb4d489","system_id":"levelo_inurba_marseille","lat":43.328371,"lon":5.366909,"is_reserved":false,"is_disabled":false,"rental_uris":{"android":"levelo://app?vid=2a8a59a2-86cc-48a9-8714-ae0edcb4d489","ios":"levelo://app?vid=2a8a59a2-86cc-48a9-8714-ae0edcb4d489"},"vehicle_type_id":"4","last_reported":1703118912,"current_range_meters":0,"station_id":"ce4bhs92rcd13ifvqi0g","pricing_plan_id":"free"},{"bike_id":"cb97846c-9508-4ec4-82fd-1a637ef7dd90","system_id":"levelo_inurba_marseille","lat":43.328371,"lon":5.366909,"is_reserved":false,"is_disabled":false,"rental_uris":{"android":"levelo://app?vid=cb97846c-9508-4ec4-82fd-1a637ef7dd90","ios":"levelo://app?vid=cb97846c-9508-4ec4-82fd-1a637ef7dd90"},"vehicle_type_id":"4","last_reported":1703118912,"current_range_meters":0,"station_id":"ce4bhs92rcd13ifvqi0g","pricing_plan_id":"free"},{"bike_id":"c22e4b9f-ba20-4a7c-a7c8-fd0a73d903e0","system_id":"levelo_inurba_marseille","lat":43.328371,"lon":5.366909,"is_reserved":false,"is_disabled":false,"rental_uris":{"android":"levelo://app?vid=c22e4b9f-ba20-4a7c-a7c8-fd0a73d903e0","ios":"levelo://app?vid=c22e4b9f-ba20-4a7c-a7c8-fd0a73d903e0"},"vehicle_type_id":"4","last_reported":1703118912,"current_range_meters":21200,"station_id":"ce4bhs92rcd13ifvqi0g","pricing_plan_id":"free"},{"bike_id":"c12df297-168e-4ca3-95d9-a300ff1ffbd9","system_id":"levelo_inurba_marseille","lat":43.328371,"lon":5.366909,"is_reserved":false,"is_disabled":false,"rental_uris":{"android":"levelo://app?vid=c12df297-168e-4ca3-95d9-a300ff1ffbd9","ios":"levelo://app?vid=c12df297-168e-4ca3-95d9-a300ff1ffbd9"},"vehicle_type_id":"4","last_reported":1703118912,"current_range_meters":28000,"station_id":"ce4bhs92rcd13ifvqi0g","pricing_plan_id":"free"},{"bike_id":"eb8ebe7d-6983-4780-997c-9447c3c0c6e2","system_id":"levelo_inurba_marseille","lat":43.328371,"lon":5.366909,"is_reserved":false,"is_disabled":false,"rental_uris":{"android":"levelo://app?vid=eb8ebe7d-6983-4780-997c-9447c3c0c6e2","ios":"levelo://app?vid=eb8ebe7d-6983-4780-997c-9447c3c0c6e2"},"vehicle_type_id":"4","last_reported":1703118912,"current_range_meters":26800,"station_id":"ce4bhs92rcd13ifvqi0g","pricing_plan_id":"free"},{"bike_id":"62d69973-e2e6-4040-bb41-797c830bcaf7","system_id":"levelo_inurba_marseille","lat":43.2968,"lon":5.37291,"is_reserved":false,"is_disabled":false,"rental_uris":{"android":"levelo://app?vid=62d69973-e2e6-4040-bb41-797c830bcaf7","ios":"levelo://app?vid=62d69973-e2e6-4040-bb41-797c830bcaf7"},"vehicle_type_id":"4","last_reported":1703118912,"current_range_meters":25600,"station_id":"ce4bgk12rcd13ifvqbj0","pricing_plan_id":"free"},{"bike_id":"cb7ed076-dd47-4eb3-8e54-84931d5fd772","system_id":"levelo_inurba_marseille","lat":43.309589,"lon":5.390258,"is_reserved":false,"is_disabled":false,"rental_uris":{"android":"levelo://app?vid=cb7ed076-dd47-4eb3-8e54-84931d5fd772","ios":"levelo://app?vid=cb7ed076-dd47-4eb3-8e54-84931d5fd772"},"vehicle_type_id":"4","last_reported":1703118912,"current_range_meters":30000,"station_id":"ce4bgup2rcd13ifvqco0","pricing_plan_id":"free"},{"bike_id":"c4c1f64a-485a-4c35-b278-a49cef644f05","system_id":"levelo_inurba_marseille","lat":43.317557,"lon":5.390173,"is_reserved":false,"is_disabled":false,"rental_uris":{"android":"levelo://app?vid=c4c1f64a-485a-4c35-b278-a49cef644f05","ios":"levelo://app?vid=c4c1f64a-485a-4c35-b278-a49cef644f05"},"vehicle_type_id":"4","last_reported":1703118912,"current_range_meters":11600,"station_id":"ce4bhqp2rcd13ifvqhng","pricing_plan_id":"free"},{"bike_id":"0b302c3a-0edd-4d80-b6a2-0e41892114c5","system_id":"levelo_inurba_marseille","lat":43.317557,"lon":5.390173,"is_reserved":false,"is_disabled":false,"rental_uris":{"android":"levelo://app?vid=0b302c3a-0edd-4d80-b6a2-0e41892114c5","ios":"levelo://app?vid=0b302c3a-0edd-4d80-b6a2-0e41892114c5"},"vehicle_type_id":"4","last_reported":1703118912,"current_range_meters":7600,"station_id":"ce4bhqp2rcd13ifvqhng","pricing_plan_id":"free"},{"bike_id":"a3b5723f-773e-4907-9274-da75f1e24c14","system_id":"levelo_inurba_marseille","lat":43.317557,"lon":5.390173,"is_reserved":false,"is_disabled":false,"rental_uris":{"android":"levelo://app?vid=a3b5723f-773e-4907-9274-da75f1e24c14","ios":"levelo://app?vid=a3b5723f-773e-4907-9274-da75f1e24c14"},"vehicle_type_id":"4","last_reported":1703118912,"current_range_meters":28000,"station_id":"ce4bhqp2rcd13ifvqhng","pricing_plan_id":"free"},{"bike_id":"4f38d01e-a9dc-4948-96e6-532e757e7360","system_id":"levelo_inurba_marseille","lat":43.298037,"lon":5.381066,"is_reserved":false,"is_disabled":false,"rental_uris":{"android":"levelo://app?vid=4f38d01e-a9dc-4948-96e6-532e757e7360","ios":"levelo://app?vid=4f38d01e-a9dc-4948-96e6-532e757e7360"},"vehicle_type_id":"4","last_reported":1703118912,"current_range_meters":800,"station_id":"ce4bgip2rcd13ifvqbb0","pricing_plan_id":"free"},{"bike_id":"30e94e1f-7f09-4da3-9456-25504c53ac97","system_id":"levelo_inurba_marseille","lat":43.304278,"lon":5.388868,"is_reserved":false,"is_disabled":false,"rental_uris":{"android":"levelo://app?vid=30e94e1f-7f09-4da3-9456-25504c53ac97","ios":"levelo://app?vid=30e94e1f-7f09-4da3-9456-25504c53ac97"},"vehicle_type_id":"4","last_reported":1703118912,"current_range_meters":29200,"station_id":"ce4bgk12rcd13ifvqbi0","pricing_plan_id":"free"},{"bike_id":"04f86ffc-494a-4e29-b8f5-c810b596589a","system_id":"levelo_inurba_marseille","lat":43.32367,"lon":5.388836,"is_reserved":false,"is_disabled":false,"rental_uris":{"android":"levelo://app?vid=04f86ffc-494a-4e29-b8f5-c810b596589a","ios":"levelo://app?vid=04f86ffc-494a-4e29-b8f5-c810b596589a"},"vehicle_type_id":"4","last_reported":1703118912,"current_range_meters":5200,"station_id":"ce4bhqp2rcd13ifvqhog","pricing_plan_id":"free"},{"bike_id":"d89a6a0f-5ebb-492a-bb7f-450b4e71a42c","system_id":"levelo_inurba_marseille","lat":43.32367,"lon":5.388836,"is_reserved":false,"is_disabled":false,"rental_uris":{"android":"levelo://app?vid=d89a6a0f-5ebb-492a-bb7f-450b4e71a42c","ios":"levelo://app?vid=d89a6a0f-5ebb-492a-bb7f-450b4e71a42c"},"vehicle_type_id":"4","last_reported":1703118912,"current_range_meters":15600,"station_id":"ce4bhqp2rcd13ifvqhog","pricing_plan_id":"free"},{"bike_id":"39a5a7f1-613e-4ce9-85dc-bf406e7675c4","system_id":"levelo_inurba_marseille","lat":43.32367,"lon":5.388836,"is_reserved":false,"is_disabled":false,"rental_uris":{"android":"levelo://app?vid=39a5a7f1-613e-4ce9-85dc-bf406e7675c4","ios":"levelo://app?vid=39a5a7f1-613e-4ce9-85dc-bf406e7675c4"},"vehicle_type_id":"4","last_reported":1703118912,"current_range_meters":2000,"station_id":"ce4bhqp2rcd13ifvqhog","pricing_plan_id":"free"},{"bike_id":"67dbc710-e248-4701-92da-b94e6f063a32","system_id":"levelo_inurba_marseille","lat":43.322955,"lon":5.392416,"is_reserved":false,"is_disabled":false,"rental_uris":{"android":"levelo://app?vid=67dbc710-e248-4701-92da-b94e6f063a32","ios":"levelo://app?vid=67dbc710-e248-4701-92da-b94e6f063a32"},"vehicle_type_id":"4","last_reported":1703118912,"current_range_meters":2000,"station_id":"","pricing_plan_id":"free"},{"bike_id":"d80aacb1-1de2-4c97-bfa7-d79fbffbe39f","system_id":"levelo_inurba_marseille","lat":43.29872,"lon":5.38896,"is_reserved":false,"is_disabled":false,"rental_uris":{"android":"levelo://app?vid=d80aacb1-1de2-4c97-bfa7-d79fbffbe39f","ios":"levelo://app?vid=d80aacb1-1de2-4c97-bfa7-d79fbffbe39f"},"vehicle_type_id":"4","last_reported":1703118912,"current_range_meters":15600,"station_id":"","pricing_plan_id":"free"},{"bike_id":"e5eca80e-f16a-41ee-b5ac-f2f5e49f023b","system_id":"levelo_inurba_marseille","lat":43.29872,"lon":5.38901,"is_reserved":false,"is_disabled":false,"rental_uris":{"android":"levelo://app?vid=e5eca80e-f16a-41ee-b5ac-f2f5e49f023b","ios":"levelo://app?vid=e5eca80e-f16a-41ee-b5ac-f2f5e49f023b"},"vehicle_type_id":"4","last_reported":1703118912,"current_range_meters":16400,"station_id":"","pricing_plan_id":"free"},{"bike_id":"df478808-8bcb-44d9-b175-88738a5453c3","system_id":"levelo_inurba_marseille","lat":43.2987,"lon":5.38911,"is_reserved":false,"is_disabled":false,"rental_uris":{"android":"levelo://app?vid=df478808-8bcb-44d9-b175-88738a5453c3","ios":"levelo://app?vid=df478808-8bcb-44d9-b175-88738a5453c3"},"vehicle_type_id":"4","last_reported":1703118912,"current_range_meters":0,"station_id":"","pricing_plan_id":"free"},{"bike_id":"b12c4c92-f773-4247-aa29-9b7c9af28b87","system_id":"levelo_inurba_marseille","lat":43.309047,"lon":5.396551,"is_reserved":false,"is_disabled":false,"rental_uris":{"android":"levelo://app?vid=b12c4c92-f773-4247-aa29-9b7c9af28b87","ios":"levelo://app?vid=b12c4c92-f773-4247-aa29-9b7c9af28b87"},"vehicle_type_id":"4","last_reported":1703118912,"current_range_meters":6400,"station_id":"ce4bh012rcd13ifvqcv0","pricing_plan_id":"free"},{"bike_id":"5a534caa-4f7f-44d4-8e13-15c91f85da2b","system_id":"levelo_inurba_marseille","lat":43.30883,"lon":5.3964,"is_reserved":false,"is_disabled":false,"rental_uris":{"android":"levelo://app?vid=5a534caa-4f7f-44d4-8e13-15c91f85da2b","ios":"levelo://app?vid=5a534caa-4f7f-44d4-8e13-15c91f85da2b"},"vehicle_type_id":"4","last_reported":1703118912,"current_range_meters":11600,"station_id":"ce4bh012rcd13ifvqcv0","pricing_plan_id":"free"},{"bike_id":"26793a9c-6557-4b95-96b3-389f495ea9d5","system_id":"levelo_inurba_marseille","lat":43.313291,"lon":5.396838,"is_reserved":false,"is_disabled":false,"rental_uris":{"android":"levelo://app?vid=26793a9c-6557-4b95-96b3-389f495ea9d5","ios":"levelo://app?vid=26793a9c-6557-4b95-96b3-389f495ea9d5"},"vehicle_type_id":"4","last_reported":1703118912,"current_range_meters":24000,"station_id":"ce4bgvp2rcd13ifvqcu0","pricing_plan_id":"free"},{"bike_id":"bc5087d5-62a9-4806-a730-22faa212f157","system_id":"levelo_inurba_marseille","lat":43.313291,"lon":5.396838,"is_reserved":false,"is_disabled":false,"rental_uris":{"android":"levelo://app?vid=bc5087d5-62a9-4806-a730-22faa212f157","ios":"levelo://app?vid=bc5087d5-62a9-4806-a730-22faa212f157"},"vehicle_type_id":"4","last_reported":1703118912,"current_range_meters":18000,"station_id":"ce4bgvp2rcd13ifvqcu0","pricing_plan_id":"free"},{"bike_id":"56a98a6c-de4b-4d97-acaa-2403ddd6f9b0","system_id":"levelo_inurba_marseille","lat":43.313291,"lon":5.396838,"is_reserved":false,"is_disabled":false,"rental_uris":{"android":"levelo://app?vid=56a98a6c-de4b-4d97-acaa-2403ddd6f9b0","ios":"levelo://app?vid=56a98a6c-de4b-4d97-acaa-2403ddd6f9b0"},"vehicle_type_id":"4","last_reported":1703118912,"current_range_meters":28800,"station_id":"ce4bgvp2rcd13ifvqcu0","pricing_plan_id":"free"},{"bike_id":"93ef3bba-e74b-4954-965d-bb27c87b80df","system_id":"levelo_inurba_marseille","lat":43.30886,"lon":5.396447,"is_reserved":false,"is_disabled":false,"rental_uris":{"android":"levelo://app?vid=93ef3bba-e74b-4954-965d-bb27c87b80df","ios":"levelo://app?vid=93ef3bba-e74b-4954-965d-bb27c87b80df"},"vehicle_type_id":"4","last_reported":1703118912,"current_range_meters":29600,"station_id":"ce4bh012rcd13ifvqcv0","pricing_plan_id":"free"},{"bike_id":"2f9fa2a4-a0da-4386-a54c-2b6c8ff80cf3","system_id":"levelo_inurba_marseille","lat":43.313291,"lon":5.396838,"is_reserved":false,"is_disabled":false,"rental_uris":{"android":"levelo://app?vid=2f9fa2a4-a0da-4386-a54c-2b6c8ff80cf3","ios":"levelo://app?vid=2f9fa2a4-a0da-4386-a54c-2b6c8ff80cf3"},"vehicle_type_id":"4","last_reported":1703118912,"current_range_meters":8000,"station_id":"ce4bgvp2rcd13ifvqcu0","pricing_plan_id":"free"},{"bike_id":"0793d523-0527-455c-b490-7d7b86f76fdf","system_id":"levelo_inurba_marseille","lat":43.313291,"lon":5.396838,"is_reserved":false,"is_disabled":false,"rental_uris":{"android":"levelo://app?vid=0793d523-0527-455c-b490-7d7b86f76fdf","ios":"levelo://app?vid=0793d523-0527-455c-b490-7d7b86f76fdf"},"vehicle_type_id":"4","last_reported":1703118912,"current_range_meters":16800,"station_id":"ce4bgvp2rcd13ifvqcu0","pricing_plan_id":"free"},{"bike_id":"76388e6f-75f8-4ffd-8a50-785c2b9ec8d3","system_id":"levelo_inurba_marseille","lat":43.309047,"lon":5.396551,"is_reserved":false,"is_disabled":false,"rental_uris":{"android":"levelo://app?vid=76388e6f-75f8-4ffd-8a50-785c2b9ec8d3","ios":"levelo://app?vid=76388e6f-75f8-4ffd-8a50-785c2b9ec8d3"},"vehicle_type_id":"4","last_reported":1703118912,"current_range_meters":21200,"station_id":"ce4bh012rcd13ifvqcv0","pricing_plan_id":"free"},{"bike_id":"02bb9aa9-e478-493b-adb1-05be03c7a42e","system_id":"levelo_inurba_marseille","lat":43.313291,"lon":5.396838,"is_reserved":false,"is_disabled":false,"rental_uris":{"android":"levelo://app?vid=02bb9aa9-e478-493b-adb1-05be03c7a42e","ios":"levelo://app?vid=02bb9aa9-e478-493b-adb1-05be03c7a42e"},"vehicle_type_id":"4","last_reported":1703118912,"current_range_meters":8000,"station_id":"ce4bgvp2rcd13ifvqcu0","pricing_plan_id":"free"},{"bike_id":"d14f2dbb-08ba-4540-8476-e184e249f2cd","system_id":"levelo_inurba_marseille","lat":43.309047,"lon":5.396551,"is_reserved":false,"is_disabled":false,"rental_uris":{"android":"levelo://app?vid=d14f2dbb-08ba-4540-8476-e184e249f2cd","ios":"levelo://app?vid=d14f2dbb-08ba-4540-8476-e184e249f2cd"},"vehicle_type_id":"4","last_reported":1703118912,"current_range_meters":12800,"station_id":"ce4bh012rcd13ifvqcv0","pricing_plan_id":"free"},{"bike_id":"ddc64240-3438-4df3-b47e-8e744cbcd6aa","system_id":"levelo_inurba_marseille","lat":43.308799,"lon":5.396456,"is_reserved":false,"is_disabled":false,"rental_uris":{"android":"levelo://app?vid=ddc64240-3438-4df3-b47e-8e744cbcd6aa","ios":"levelo://app?vid=ddc64240-3438-4df3-b47e-8e744cbcd6aa"},"vehicle_type_id":"4","last_reported":1703118912,"current_range_meters":5200,"station_id":"ce4bh012rcd13ifvqcv0","pricing_plan_id":"free"},{"bike_id":"dabee216-f5da-4ca6-8839-3134bf6a42ce","system_id":"levelo_inurba_marseille","lat":43.308848,"lon":5.396468,"is_reserved":false,"is_disabled":false,"rental_uris":{"android":"levelo://app?vid=dabee216-f5da-4ca6-8839-3134bf6a42ce","ios":"levelo://app?vid=dabee216-f5da-4ca6-8839-3134bf6a42ce"},"vehicle_type_id":"4","last_reported":1703118912,"current_range_meters":23200,"station_id":"ce4bh012rcd13ifvqcv0","pricing_plan_id":"free"},{"bike_id":"2b7d92fb-a275-4c79-b06d-20ae4470ba42","system_id":"levelo_inurba_marseille","lat":43.313291,"lon":5.396838,"is_reserved":false,"is_disabled":false,"rental_uris":{"android":"levelo://app?vid=2b7d92fb-a275-4c79-b06d-20ae4470ba42","ios":"levelo://app?vid=2b7d92fb-a275-4c79-b06d-20ae4470ba42"},"vehicle_type_id":"4","last_reported":1703118912,"current_range_meters":31200,"station_id":"ce4bgvp2rcd13ifvqcu0","pricing_plan_id":"free"},{"bike_id":"f2dcb67a-1877-4e6c-aa41-296e995ddd0f","system_id":"levelo_inurba_marseille","lat":43.313291,"lon":5.396838,"is_reserved":false,"is_disabled":false,"rental_uris":{"android":"levelo://app?vid=f2dcb67a-1877-4e6c-aa41-296e995ddd0f","ios":"levelo://app?vid=f2dcb67a-1877-4e6c-aa41-296e995ddd0f"},"vehicle_type_id":"4","last_reported":1703118912,"current_range_meters":4400,"station_id":"ce4bgvp2rcd13ifvqcu0","pricing_plan_id":"free"},{"bike_id":"cd2f8020-b9fa-4a8b-8bed-666409960f90","system_id":"levelo_inurba_marseille","lat":43.309047,"lon":5.396551,"is_reserved":false,"is_disabled":false,"rental_uris":{"android":"levelo://app?vid=cd2f8020-b9fa-4a8b-8bed-666409960f90","ios":"levelo://app?vid=cd2f8020-b9fa-4a8b-8bed-666409960f90"},"vehicle_type_id":"4","last_reported":1703118912,"current_range_meters":17200,"station_id":"ce4bh012rcd13ifvqcv0","pricing_plan_id":"free"},{"bike_id":"dbe34c3d-36ef-49cb-b11f-cf7f97e7053f","system_id":"levelo_inurba_marseille","lat":43.313291,"lon":5.396838,"is_reserved":false,"is_disabled":false,"rental_uris":{"android":"levelo://app?vid=dbe34c3d-36ef-49cb-b11f-cf7f97e7053f","ios":"levelo://app?vid=dbe34c3d-36ef-49cb-b11f-cf7f97e7053f"},"vehicle_type_id":"4","last_reported":1703118912,"current_range_meters":31600,"station_id":"ce4bgvp2rcd13ifvqcu0","pricing_plan_id":"free"},{"bike_id":"30ff75dd-2b7b-43ad-b90f-c604db6aa4a1","system_id":"levelo_inurba_marseille","lat":43.309047,"lon":5.396551,"is_reserved":false,"is_disabled":false,"rental_uris":{"android":"levelo://app?vid=30ff75dd-2b7b-43ad-b90f-c604db6aa4a1","ios":"levelo://app?vid=30ff75dd-2b7b-43ad-b90f-c604db6aa4a1"},"vehicle_type_id":"4","last_reported":1703118912,"current_range_meters":30800,"station_id":"ce4bh012rcd13ifvqcv0","pricing_plan_id":"free"},{"bike_id":"c9ffd03a-206e-4241-be83-2d30e7b89ed3","system_id":"levelo_inurba_marseille","lat":43.313291,"lon":5.396838,"is_reserved":false,"is_disabled":false,"rental_uris":{"android":"levelo://app?vid=c9ffd03a-206e-4241-be83-2d30e7b89ed3","ios":"levelo://app?vid=c9ffd03a-206e-4241-be83-2d30e7b89ed3"},"vehicle_type_id":"4","last_reported":1703118912,"current_range_meters":18800,"station_id":"ce4bgvp2rcd13ifvqcu0","pricing_plan_id":"free"},{"bike_id":"ad293b0a-1786-4d2f-a84f-5d3c96e0c51b","system_id":"levelo_inurba_marseille","lat":43.309038,"lon":5.396546,"is_reserved":false,"is_disabled":false,"rental_uris":{"android":"levelo://app?vid=ad293b0a-1786-4d2f-a84f-5d3c96e0c51b","ios":"levelo://app?vid=ad293b0a-1786-4d2f-a84f-5d3c96e0c51b"},"vehicle_type_id":"4","last_reported":1703118912,"current_range_meters":10000,"station_id":"ce4bh012rcd13ifvqcv0","pricing_plan_id":"free"},{"bike_id":"b72dc1c2-29a7-4dab-89cb-bcbf056f7c9a","system_id":"levelo_inurba_marseille","lat":43.30884,"lon":5.39654,"is_reserved":false,"is_disabled":false,"rental_uris":{"android":"levelo://app?vid=b72dc1c2-29a7-4dab-89cb-bcbf056f7c9a","ios":"levelo://app?vid=b72dc1c2-29a7-4dab-89cb-bcbf056f7c9a"},"vehicle_type_id":"4","last_reported":1703118912,"current_range_meters":16800,"station_id":"ce4bh012rcd13ifvqcv0","pricing_plan_id":"free"},{"bike_id":"7547ae72-b4be-4235-bcb9-82fe844852a3","system_id":"levelo_inurba_marseille","lat":43.30886,"lon":5.39656,"is_reserved":false,"is_disabled":false,"rental_uris":{"android":"levelo://app?vid=7547ae72-b4be-4235-bcb9-82fe844852a3","ios":"levelo://app?vid=7547ae72-b4be-4235-bcb9-82fe844852a3"},"vehicle_type_id":"4","last_reported":1703118912,"current_range_meters":30800,"station_id":"ce4bh012rcd13ifvqcv0","pricing_plan_id":"free"},{"bike_id":"02e0c64c-2264-400a-be03-4cd604a715a3","system_id":"levelo_inurba_marseille","lat":43.302008,"lon":5.394694,"is_reserved":false,"is_disabled":false,"rental_uris":{"android":"levelo://app?vid=02e0c64c-2264-400a-be03-4cd604a715a3","ios":"levelo://app?vid=02e0c64c-2264-400a-be03-4cd604a715a3"},"vehicle_type_id":"4","last_reported":1703118912,"current_range_meters":0,"station_id":"ce4bh0p2rcd13ifvqd70","pricing_plan_id":"free"},{"bike_id":"b2338dfa-e1b8-4120-954c-ccd9367f2a36","system_id":"levelo_inurba_marseille","lat":43.290624,"lon":5.359245,"is_reserved":false,"is_disabled":false,"rental_uris":{"android":"levelo://app?vid=b2338dfa-e1b8-4120-954c-ccd9367f2a36","ios":"levelo://app?vid=b2338dfa-e1b8-4120-954c-ccd9367f2a36"},"vehicle_type_id":"4","last_reported":1703118912,"current_range_meters":10400,"station_id":"ce4bha92rcd13ifvqeg0","pricing_plan_id":"free"},{"bike_id":"3dc161c8-6b83-483a-a981-3f5a90a49d83","system_id":"levelo_inurba_marseille","lat":43.290624,"lon":5.359245,"is_reserved":false,"is_disabled":false,"rental_uris":{"android":"levelo://app?vid=3dc161c8-6b83-483a-a981-3f5a90a49d83","ios":"levelo://app?vid=3dc161c8-6b83-483a-a981-3f5a90a49d83"},"vehicle_type_id":"4","last_reported":1703118912,"current_range_meters":31200,"station_id":"ce4bha92rcd13ifvqeg0","pricing_plan_id":"free"},{"bike_id":"3aeb91f9-2751-4389-8c63-94e0a8bbe42a","system_id":"levelo_inurba_marseille","lat":43.290631,"lon":5.359244,"is_reserved":false,"is_disabled":false,"rental_uris":{"android":"levelo://app?vid=3aeb91f9-2751-4389-8c63-94e0a8bbe42a","ios":"levelo://app?vid=3aeb91f9-2751-4389-8c63-94e0a8bbe42a"},"vehicle_type_id":"4","last_reported":1703118912,"current_range_meters":16800,"station_id":"ce4bha92rcd13ifvqeg0","pricing_plan_id":"free"},{"bike_id":"a41b89b6-577f-44ca-8a4a-3394cdd79ea7","system_id":"levelo_inurba_marseille","lat":43.289468,"lon":5.363719,"is_reserved":false,"is_disabled":false,"rental_uris":{"android":"levelo://app?vid=a41b89b6-577f-44ca-8a4a-3394cdd79ea7","ios":"levelo://app?vid=a41b89b6-577f-44ca-8a4a-3394cdd79ea7"},"vehicle_type_id":"4","last_reported":1703118912,"current_range_meters":20800,"station_id":"ce4bhc92rcd13ifvqetg","pricing_plan_id":"free"},{"bike_id":"34c65641-4bc1-4197-b217-a76243cd6c9c","system_id":"levelo_inurba_marseille","lat":43.33041,"lon":5.38921,"is_reserved":false,"is_disabled":false,"rental_uris":{"android":"levelo://app?vid=34c65641-4bc1-4197-b217-a76243cd6c9c","ios":"levelo://app?vid=34c65641-4bc1-4197-b217-a76243cd6c9c"},"vehicle_type_id":"4","last_reported":1703118912,"current_range_meters":22400,"station_id":"ce4bhr92rcd13ifvqhrg","pricing_plan_id":"free"},{"bike_id":"90536312-f14b-4c7d-9b1a-bee06a58535e","system_id":"levelo_inurba_marseille","lat":43.290103,"lon":5.356114,"is_reserved":false,"is_disabled":false,"rental_uris":{"android":"levelo://app?vid=90536312-f14b-4c7d-9b1a-bee06a58535e","ios":"levelo://app?vid=90536312-f14b-4c7d-9b1a-bee06a58535e"},"vehicle_type_id":"4","last_reported":1703118912,"current_range_meters":31200,"station_id":"ce4bhb92rcd13ifvqen0","pricing_plan_id":"free"},{"bike_id":"8cb42004-ca05-454f-962f-2c921be4ebbb","system_id":"levelo_inurba_marseille","lat":43.290103,"lon":5.356114,"is_reserved":false,"is_disabled":false,"rental_uris":{"android":"levelo://app?vid=8cb42004-ca05-454f-962f-2c921be4ebbb","ios":"levelo://app?vid=8cb42004-ca05-454f-962f-2c921be4ebbb"},"vehicle_type_id":"4","last_reported":1703118912,"current_range_meters":22000,"station_id":"ce4bhb92rcd13ifvqen0","pricing_plan_id":"free"},{"bike_id":"03792874-86d9-468e-be10-3c6851108053","system_id":"levelo_inurba_marseille","lat":43.33041,"lon":5.38924,"is_reserved":false,"is_disabled":false,"rental_uris":{"android":"levelo://app?vid=03792874-86d9-468e-be10-3c6851108053","ios":"levelo://app?vid=03792874-86d9-468e-be10-3c6851108053"},"vehicle_type_id":"4","last_reported":1703118912,"current_range_meters":16400,"station_id":"ce4bhr92rcd13ifvqhrg","pricing_plan_id":"free"},{"bike_id":"a44c4c9a-083e-42e6-8e6d-8958a860af21","system_id":"levelo_inurba_marseille","lat":43.33042,"lon":5.38925,"is_reserved":false,"is_disabled":false,"rental_uris":{"android":"levelo://app?vid=a44c4c9a-083e-42e6-8e6d-8958a860af21","ios":"levelo://app?vid=a44c4c9a-083e-42e6-8e6d-8958a860af21"},"vehicle_type_id":"4","last_reported":1703118912,"current_range_meters":18000,"station_id":"ce4bhr92rcd13ifvqhrg","pricing_plan_id":"free"},{"bike_id":"51c9cb55-b1ab-4caa-b6c3-cf2afe06ea07","system_id":"levelo_inurba_marseille","lat":43.290104,"lon":5.356111,"is_reserved":false,"is_disabled":false,"rental_uris":{"android":"levelo://app?vid=51c9cb55-b1ab-4caa-b6c3-cf2afe06ea07","ios":"levelo://app?vid=51c9cb55-b1ab-4caa-b6c3-cf2afe06ea07"},"vehicle_type_id":"4","last_reported":1703118912,"current_range_meters":30000,"station_id":"ce4bhb92rcd13ifvqen0","pricing_plan_id":"free"},{"bike_id":"37fa0d28-2748-4cbf-8b44-04ed7630e253","system_id":"levelo_inurba_marseille","lat":43.29787,"lon":5.39335,"is_reserved":false,"is_disabled":false,"rental_uris":{"android":"levelo://app?vid=37fa0d28-2748-4cbf-8b44-04ed7630e253","ios":"levelo://app?vid=37fa0d28-2748-4cbf-8b44-04ed7630e253"},"vehicle_type_id":"4","last_reported":1703118912,"current_range_meters":2800,"station_id":"chh1huq6cuj3fo74tm60","pricing_plan_id":"free"},{"bike_id":"e2dba495-8bf5-4a1a-9386-ec00aed74abb","system_id":"levelo_inurba_marseille","lat":43.28856,"lon":5.358371,"is_reserved":false,"is_disabled":false,"rental_uris":{"android":"levelo://app?vid=e2dba495-8bf5-4a1a-9386-ec00aed74abb","ios":"levelo://app?vid=e2dba495-8bf5-4a1a-9386-ec00aed74abb"},"vehicle_type_id":"4","last_reported":1703118912,"current_range_meters":3600,"station_id":"ce4bhb12rcd13ifvqem0","pricing_plan_id":"free"},{"bike_id":"f089f015-03b7-49f4-805d-04fc8fb65dce","system_id":"levelo_inurba_marseille","lat":43.28856,"lon":5.358371,"is_reserved":false,"is_disabled":false,"rental_uris":{"android":"levelo://app?vid=f089f015-03b7-49f4-805d-04fc8fb65dce","ios":"levelo://app?vid=f089f015-03b7-49f4-805d-04fc8fb65dce"},"vehicle_type_id":"4","last_reported":1703118912,"current_range_meters":0,"station_id":"ce4bhb12rcd13ifvqem0","pricing_plan_id":"free"},{"bike_id":"efc8b483-666b-48da-afa0-0447382868fd","system_id":"levelo_inurba_marseille","lat":43.337448,"lon":5.374743,"is_reserved":false,"is_disabled":false,"rental_uris":{"android":"levelo://app?vid=efc8b483-666b-48da-afa0-0447382868fd","ios":"levelo://app?vid=efc8b483-666b-48da-afa0-0447382868fd"},"vehicle_type_id":"4","last_reported":1703118912,"current_range_meters":25200,"station_id":"","pricing_plan_id":"free"},{"bike_id":"2ffc7dc1-eb3c-4f1e-85a6-b805479eac01","system_id":"levelo_inurba_marseille","lat":43.306412,"lon":5.401035,"is_reserved":false,"is_disabled":false,"rental_uris":{"android":"levelo://app?vid=2ffc7dc1-eb3c-4f1e-85a6-b805479eac01","ios":"levelo://app?vid=2ffc7dc1-eb3c-4f1e-85a6-b805479eac01"},"vehicle_type_id":"4","last_reported":1703118912,"current_range_meters":31200,"station_id":"ce4bh112rcd13ifvqda0","pricing_plan_id":"free"},{"bike_id":"25685e7f-8ace-4149-b7a9-784c6f7799ed","system_id":"levelo_inurba_marseille","lat":43.30642,"lon":5.401031,"is_reserved":false,"is_disabled":false,"rental_uris":{"android":"levelo://app?vid=25685e7f-8ace-4149-b7a9-784c6f7799ed","ios":"levelo://app?vid=25685e7f-8ace-4149-b7a9-784c6f7799ed"},"vehicle_type_id":"4","last_reported":1703118912,"current_range_meters":23200,"station_id":"ce4bh112rcd13ifvqda0","pricing_plan_id":"free"},{"bike_id":"59987085-6fb4-48d3-aa4f-2e8deb09b8c7","system_id":"levelo_inurba_marseille","lat":43.30642,"lon":5.401031,"is_reserved":false,"is_disabled":false,"rental_uris":{"android":"levelo://app?vid=59987085-6fb4-48d3-aa4f-2e8deb09b8c7","ios":"levelo://app?vid=59987085-6fb4-48d3-aa4f-2e8deb09b8c7"},"vehicle_type_id":"4","last_reported":1703118912,"current_range_meters":22800,"station_id":"ce4bh112rcd13ifvqda0","pricing_plan_id":"free"},{"bike_id":"49cd9255-05a6-472c-b1a4-a0d4ff1e81c9","system_id":"levelo_inurba_marseille","lat":43.28727,"lon":5.36078,"is_reserved":false,"is_disabled":false,"rental_uris":{"android":"levelo://app?vid=49cd9255-05a6-472c-b1a4-a0d4ff1e81c9","ios":"levelo://app?vid=49cd9255-05a6-472c-b1a4-a0d4ff1e81c9"},"vehicle_type_id":"4","last_reported":1703118912,"current_range_meters":13200,"station_id":"cki0cbj6b192h4jlfktg","pricing_plan_id":"free"},{"bike_id":"687acaf7-b84c-4c80-ac64-88b01684f341","system_id":"levelo_inurba_marseille","lat":43.28727,"lon":5.36078,"is_reserved":false,"is_disabled":false,"rental_uris":{"android":"levelo://app?vid=687acaf7-b84c-4c80-ac64-88b01684f341","ios":"levelo://app?vid=687acaf7-b84c-4c80-ac64-88b01684f341"},"vehicle_type_id":"4","last_reported":1703118912,"current_range_meters":25200,"station_id":"cki0cbj6b192h4jlfktg","pricing_plan_id":"free"},{"bike_id":"b44d00f5-284f-45ea-8d94-d8f22c00560e","system_id":"levelo_inurba_marseille","lat":43.28727,"lon":5.36078,"is_reserved":false,"is_disabled":false,"rental_uris":{"android":"levelo://app?vid=b44d00f5-284f-45ea-8d94-d8f22c00560e","ios":"levelo://app?vid=b44d00f5-284f-45ea-8d94-d8f22c00560e"},"vehicle_type_id":"4","last_reported":1703118912,"current_range_meters":31200,"station_id":"cki0cbj6b192h4jlfktg","pricing_plan_id":"free"},{"bike_id":"478682f9-5374-45db-a636-a72b07022bbc","system_id":"levelo_inurba_marseille","lat":43.28727,"lon":5.36078,"is_reserved":false,"is_disabled":false,"rental_uris":{"android":"levelo://app?vid=478682f9-5374-45db-a636-a72b07022bbc","ios":"levelo://app?vid=478682f9-5374-45db-a636-a72b07022bbc"},"vehicle_type_id":"4","last_reported":1703118912,"current_range_meters":28000,"station_id":"cki0cbj6b192h4jlfktg","pricing_plan_id":"free"},{"bike_id":"a809d7bb-9bc6-4f6b-9d33-03fe0bf36565","system_id":"levelo_inurba_marseille","lat":43.301117,"lon":5.398795,"is_reserved":false,"is_disabled":false,"rental_uris":{"android":"levelo://app?vid=a809d7bb-9bc6-4f6b-9d33-03fe0bf36565","ios":"levelo://app?vid=a809d7bb-9bc6-4f6b-9d33-03fe0bf36565"},"vehicle_type_id":"4","last_reported":1703118912,"current_range_meters":0,"station_id":"ce4bh0h2rcd13ifvqd40","pricing_plan_id":"free"},{"bike_id":"71535928-72ce-4d5e-a63b-ff479592c2c6","system_id":"levelo_inurba_marseille","lat":43.286961,"lon":5.373785,"is_reserved":false,"is_disabled":false,"rental_uris":{"android":"levelo://app?vid=71535928-72ce-4d5e-a63b-ff479592c2c6","ios":"levelo://app?vid=71535928-72ce-4d5e-a63b-ff479592c2c6"},"vehicle_type_id":"4","last_reported":1703118912,"current_range_meters":2400,"station_id":"ce4bh3p2rcd13ifvqdq0","pricing_plan_id":"free"},{"bike_id":"b4c47720-8650-4535-9299-3ccfd25ed9e8","system_id":"levelo_inurba_marseille","lat":43.286961,"lon":5.373785,"is_reserved":false,"is_disabled":false,"rental_uris":{"android":"levelo://app?vid=b4c47720-8650-4535-9299-3ccfd25ed9e8","ios":"levelo://app?vid=b4c47720-8650-4535-9299-3ccfd25ed9e8"},"vehicle_type_id":"4","last_reported":1703118912,"current_range_meters":22000,"station_id":"ce4bh3p2rcd13ifvqdq0","pricing_plan_id":"free"},{"bike_id":"2adea18e-aae5-4c51-9c1f-a55438aaccc9","system_id":"levelo_inurba_marseille","lat":43.286591,"lon":5.363346,"is_reserved":false,"is_disabled":false,"rental_uris":{"android":"levelo://app?vid=2adea18e-aae5-4c51-9c1f-a55438aaccc9","ios":"levelo://app?vid=2adea18e-aae5-4c51-9c1f-a55438aaccc9"},"vehicle_type_id":"4","last_reported":1703118912,"current_range_meters":28000,"station_id":"ce4bhah2rcd13ifvqej0","pricing_plan_id":"free"},{"bike_id":"4ad97437-24ee-40a7-9e22-5cf183b38621","system_id":"levelo_inurba_marseille","lat":43.286961,"lon":5.373785,"is_reserved":false,"is_disabled":false,"rental_uris":{"android":"levelo://app?vid=4ad97437-24ee-40a7-9e22-5cf183b38621","ios":"levelo://app?vid=4ad97437-24ee-40a7-9e22-5cf183b38621"},"vehicle_type_id":"4","last_reported":1703118912,"current_range_meters":25200,"station_id":"ce4bh3p2rcd13ifvqdq0","pricing_plan_id":"free"},{"bike_id":"e3bbdbc8-628a-4f63-8fe7-848c56adde6d","system_id":"levelo_inurba_marseille","lat":43.286961,"lon":5.373785,"is_reserved":false,"is_disabled":false,"rental_uris":{"android":"levelo://app?vid=e3bbdbc8-628a-4f63-8fe7-848c56adde6d","ios":"levelo://app?vid=e3bbdbc8-628a-4f63-8fe7-848c56adde6d"},"vehicle_type_id":"4","last_reported":1703118912,"current_range_meters":29200,"station_id":"ce4bh3p2rcd13ifvqdq0","pricing_plan_id":"free"},{"bike_id":"7d87b8dd-8e91-440a-8751-812ab7a4b07b","system_id":"levelo_inurba_marseille","lat":43.286593,"lon":5.363346,"is_reserved":false,"is_disabled":false,"rental_uris":{"android":"levelo://app?vid=7d87b8dd-8e91-440a-8751-812ab7a4b07b","ios":"levelo://app?vid=7d87b8dd-8e91-440a-8751-812ab7a4b07b"},"vehicle_type_id":"4","last_reported":1703118912,"current_range_meters":31200,"station_id":"ce4bhah2rcd13ifvqej0","pricing_plan_id":"free"},{"bike_id":"4b213099-f84e-4cb6-b5af-675c3c7ff77b","system_id":"levelo_inurba_marseille","lat":43.295196,"lon":5.39397,"is_reserved":false,"is_disabled":false,"rental_uris":{"android":"levelo://app?vid=4b213099-f84e-4cb6-b5af-675c3c7ff77b","ios":"levelo://app?vid=4b213099-f84e-4cb6-b5af-675c3c7ff77b"},"vehicle_type_id":"4","last_reported":1703118912,"current_range_meters":17200,"station_id":"ce4bh292rcd13ifvqdf0","pricing_plan_id":"free"},{"bike_id":"b8223d9c-418b-4f35-8f4b-864636ea4a48","system_id":"levelo_inurba_marseille","lat":43.295235,"lon":5.394007,"is_reserved":false,"is_disabled":false,"rental_uris":{"android":"levelo://app?vid=b8223d9c-418b-4f35-8f4b-864636ea4a48","ios":"levelo://app?vid=b8223d9c-418b-4f35-8f4b-864636ea4a48"},"vehicle_type_id":"4","last_reported":1703118912,"current_range_meters":2800,"station_id":"","pricing_plan_id":"free"},{"bike_id":"1f09d18c-d141-4bb2-8efc-59b95bb99139","system_id":"levelo_inurba_marseille","lat":43.302759,"lon":5.400793,"is_reserved":false,"is_disabled":false,"rental_uris":{"android":"levelo://app?vid=1f09d18c-d141-4bb2-8efc-59b95bb99139","ios":"levelo://app?vid=1f09d18c-d141-4bb2-8efc-59b95bb99139"},"vehicle_type_id":"4","last_reported":1703118912,"current_range_meters":12800,"station_id":"ce4bgvh2rcd13ifvqcs0","pricing_plan_id":"free"},{"bike_id":"6282d94f-0963-443c-add7-381338df5d8c","system_id":"levelo_inurba_marseille","lat":43.291994,"lon":5.392907,"is_reserved":false,"is_disabled":false,"rental_uris":{"android":"levelo://app?vid=6282d94f-0963-443c-add7-381338df5d8c","ios":"levelo://app?vid=6282d94f-0963-443c-add7-381338df5d8c"},"vehicle_type_id":"4","last_reported":1703118912,"current_range_meters":16000,"station_id":"ce4bh192rcd13ifvqdd0","pricing_plan_id":"free"},{"bike_id":"4a30d842-4df4-4dde-b884-f33e6933ebca","system_id":"levelo_inurba_marseille","lat":43.291994,"lon":5.392907,"is_reserved":false,"is_disabled":false,"rental_uris":{"android":"levelo://app?vid=4a30d842-4df4-4dde-b884-f33e6933ebca","ios":"levelo://app?vid=4a30d842-4df4-4dde-b884-f33e6933ebca"},"vehicle_type_id":"4","last_reported":1703118912,"current_range_meters":800,"station_id":"ce4bh192rcd13ifvqdd0","pricing_plan_id":"free"},{"bike_id":"33d292ec-1db9-4ffc-ab79-c8df16ead417","system_id":"levelo_inurba_marseille","lat":43.28465,"lon":5.35892,"is_reserved":false,"is_disabled":false,"rental_uris":{"android":"levelo://app?vid=33d292ec-1db9-4ffc-ab79-c8df16ead417","ios":"levelo://app?vid=33d292ec-1db9-4ffc-ab79-c8df16ead417"},"vehicle_type_id":"4","last_reported":1703118912,"current_range_meters":9200,"station_id":"ce4bhah2rcd13ifvqei0","pricing_plan_id":"free"},{"bike_id":"2583ad30-71c3-413e-8290-653525fadef3","system_id":"levelo_inurba_marseille","lat":43.284534,"lon":5.358662,"is_reserved":false,"is_disabled":false,"rental_uris":{"android":"levelo://app?vid=2583ad30-71c3-413e-8290-653525fadef3","ios":"levelo://app?vid=2583ad30-71c3-413e-8290-653525fadef3"},"vehicle_type_id":"4","last_reported":1703118912,"current_range_meters":12000,"station_id":"ce4bhah2rcd13ifvqei0","pricing_plan_id":"free"},{"bike_id":"89216e79-3cbd-4003-990b-c120bbe8ba20","system_id":"levelo_inurba_marseille","lat":43.284619,"lon":5.358924,"is_reserved":false,"is_disabled":false,"rental_uris":{"android":"levelo://app?vid=89216e79-3cbd-4003-990b-c120bbe8ba20","ios":"levelo://app?vid=89216e79-3cbd-4003-990b-c120bbe8ba20"},"vehicle_type_id":"4","last_reported":1703118912,"current_range_meters":22000,"station_id":"ce4bhah2rcd13ifvqei0","pricing_plan_id":"free"},{"bike_id":"400e5b1a-306a-4672-8fba-8fbd5ee124e8","system_id":"levelo_inurba_marseille","lat":43.284624,"lon":5.358884,"is_reserved":false,"is_disabled":false,"rental_uris":{"android":"levelo://app?vid=400e5b1a-306a-4672-8fba-8fbd5ee124e8","ios":"levelo://app?vid=400e5b1a-306a-4672-8fba-8fbd5ee124e8"},"vehicle_type_id":"4","last_reported":1703118912,"current_range_meters":15600,"station_id":"ce4bhah2rcd13ifvqei0","pricing_plan_id":"free"},{"bike_id":"d3df26d2-b56b-43ab-962d-c5837af0f437","system_id":"levelo_inurba_marseille","lat":43.284624,"lon":5.358823,"is_reserved":false,"is_disabled":false,"rental_uris":{"android":"levelo://app?vid=d3df26d2-b56b-43ab-962d-c5837af0f437","ios":"levelo://app?vid=d3df26d2-b56b-43ab-962d-c5837af0f437"},"vehicle_type_id":"4","last_reported":1703118912,"current_range_meters":4400,"station_id":"ce4bhah2rcd13ifvqei0","pricing_plan_id":"free"},{"bike_id":"ea9d8d3b-a4cb-4d35-bd0d-2d1d14185e72","system_id":"levelo_inurba_marseille","lat":43.284534,"lon":5.358662,"is_reserved":false,"is_disabled":false,"rental_uris":{"android":"levelo://app?vid=ea9d8d3b-a4cb-4d35-bd0d-2d1d14185e72","ios":"levelo://app?vid=ea9d8d3b-a4cb-4d35-bd0d-2d1d14185e72"},"vehicle_type_id":"4","last_reported":1703118912,"current_range_meters":15600,"station_id":"ce4bhah2rcd13ifvqei0","pricing_plan_id":"free"},{"bike_id":"a8255ee0-2895-4e29-9071-e0d41c2bc138","system_id":"levelo_inurba_marseille","lat":43.28457,"lon":5.35895,"is_reserved":false,"is_disabled":false,"rental_uris":{"android":"levelo://app?vid=a8255ee0-2895-4e29-9071-e0d41c2bc138","ios":"levelo://app?vid=a8255ee0-2895-4e29-9071-e0d41c2bc138"},"vehicle_type_id":"4","last_reported":1703118912,"current_range_meters":12800,"station_id":"ce4bhah2rcd13ifvqei0","pricing_plan_id":"free"},{"bike_id":"aea07f3f-bb43-4267-b015-5c6ee34703fd","system_id":"levelo_inurba_marseille","lat":43.28458,"lon":5.358877,"is_reserved":false,"is_disabled":false,"rental_uris":{"android":"levelo://app?vid=aea07f3f-bb43-4267-b015-5c6ee34703fd","ios":"levelo://app?vid=aea07f3f-bb43-4267-b015-5c6ee34703fd"},"vehicle_type_id":"4","last_reported":1703118912,"current_range_meters":9600,"station_id":"ce4bhah2rcd13ifvqei0","pricing_plan_id":"free"},{"bike_id":"2ab43db5-7ab0-4ceb-8a58-4ebe74fec8b1","system_id":"levelo_inurba_marseille","lat":43.28457,"lon":5.35893,"is_reserved":false,"is_disabled":false,"rental_uris":{"android":"levelo://app?vid=2ab43db5-7ab0-4ceb-8a58-4ebe74fec8b1","ios":"levelo://app?vid=2ab43db5-7ab0-4ceb-8a58-4ebe74fec8b1"},"vehicle_type_id":"4","last_reported":1703118912,"current_range_meters":2000,"station_id":"ce4bhah2rcd13ifvqei0","pricing_plan_id":"free"},{"bike_id":"a9d595c3-6bdf-4999-88b4-7eeac5ab5e34","system_id":"levelo_inurba_marseille","lat":43.28456,"lon":5.358936,"is_reserved":false,"is_disabled":false,"rental_uris":{"android":"levelo://app?vid=a9d595c3-6bdf-4999-88b4-7eeac5ab5e34","ios":"levelo://app?vid=a9d595c3-6bdf-4999-88b4-7eeac5ab5e34"},"vehicle_type_id":"4","last_reported":1703118912,"current_range_meters":21600,"station_id":"ce4bhah2rcd13ifvqei0","pricing_plan_id":"free"},{"bike_id":"deb03d56-a258-4061-ade4-4c6def17ebc6","system_id":"levelo_inurba_marseille","lat":43.284559,"lon":5.358871,"is_reserved":false,"is_disabled":false,"rental_uris":{"android":"levelo://app?vid=deb03d56-a258-4061-ade4-4c6def17ebc6","ios":"levelo://app?vid=deb03d56-a258-4061-ade4-4c6def17ebc6"},"vehicle_type_id":"4","last_reported":1703118912,"current_range_meters":22400,"station_id":"ce4bhah2rcd13ifvqei0","pricing_plan_id":"free"},{"bike_id":"2d916ed0-891d-40f0-9aa8-07018c3e2d67","system_id":"levelo_inurba_marseille","lat":43.28455,"lon":5.35882,"is_reserved":false,"is_disabled":false,"rental_uris":{"android":"levelo://app?vid=2d916ed0-891d-40f0-9aa8-07018c3e2d67","ios":"levelo://app?vid=2d916ed0-891d-40f0-9aa8-07018c3e2d67"},"vehicle_type_id":"4","last_reported":1703118912,"current_range_meters":22800,"station_id":"ce4bhah2rcd13ifvqei0","pricing_plan_id":"free"},{"bike_id":"36a26668-777b-46b2-a429-6671a5520a5c","system_id":"levelo_inurba_marseille","lat":43.294314,"lon":5.397498,"is_reserved":false,"is_disabled":false,"rental_uris":{"android":"levelo://app?vid=36a26668-777b-46b2-a429-6671a5520a5c","ios":"levelo://app?vid=36a26668-777b-46b2-a429-6671a5520a5c"},"vehicle_type_id":"4","last_reported":1703118912,"current_range_meters":13200,"station_id":"ce4bh3h2rcd13ifvqdo0","pricing_plan_id":"free"},{"bike_id":"9ebb4a1d-78c2-40c0-ae1e-d1ffd7e11a1d","system_id":"levelo_inurba_marseille","lat":43.294314,"lon":5.397498,"is_reserved":false,"is_disabled":false,"rental_uris":{"android":"levelo://app?vid=9ebb4a1d-78c2-40c0-ae1e-d1ffd7e11a1d","ios":"levelo://app?vid=9ebb4a1d-78c2-40c0-ae1e-d1ffd7e11a1d"},"vehicle_type_id":"4","last_reported":1703118912,"current_range_meters":7200,"station_id":"ce4bh3h2rcd13ifvqdo0","pricing_plan_id":"free"},{"bike_id":"1b3a1bfa-53df-497a-bfad-ce2d79692a26","system_id":"levelo_inurba_marseille","lat":43.284534,"lon":5.358662,"is_reserved":false,"is_disabled":false,"rental_uris":{"android":"levelo://app?vid=1b3a1bfa-53df-497a-bfad-ce2d79692a26","ios":"levelo://app?vid=1b3a1bfa-53df-497a-bfad-ce2d79692a26"},"vehicle_type_id":"4","last_reported":1703118912,"current_range_meters":26400,"station_id":"ce4bhah2rcd13ifvqei0","pricing_plan_id":"free"},{"bike_id":"cd0c99aa-0b49-422c-882e-cd7d21d05d95","system_id":"levelo_inurba_marseille","lat":43.2862,"lon":5.35105,"is_reserved":false,"is_disabled":false,"rental_uris":{"android":"levelo://app?vid=cd0c99aa-0b49-422c-882e-cd7d21d05d95","ios":"levelo://app?vid=cd0c99aa-0b49-422c-882e-cd7d21d05d95"},"vehicle_type_id":"4","last_reported":1703118912,"current_range_meters":11200,"station_id":"ce4bhch2rcd13ifvqeug","pricing_plan_id":"free"},{"bike_id":"3607bbd7-8c28-40d5-ab33-27f97d60d555","system_id":"levelo_inurba_marseille","lat":43.28618,"lon":5.35104,"is_reserved":false,"is_disabled":false,"rental_uris":{"android":"levelo://app?vid=3607bbd7-8c28-40d5-ab33-27f97d60d555","ios":"levelo://app?vid=3607bbd7-8c28-40d5-ab33-27f97d60d555"},"vehicle_type_id":"4","last_reported":1703118912,"current_range_meters":0,"station_id":"ce4bhch2rcd13ifvqeug","pricing_plan_id":"free"},{"bike_id":"4ea381ba-f5ca-4402-a8ad-56297ca58f6f","system_id":"levelo_inurba_marseille","lat":43.28618,"lon":5.35104,"is_reserved":false,"is_disabled":false,"rental_uris":{"android":"levelo://app?vid=4ea381ba-f5ca-4402-a8ad-56297ca58f6f","ios":"levelo://app?vid=4ea381ba-f5ca-4402-a8ad-56297ca58f6f"},"vehicle_type_id":"4","last_reported":1703118912,"current_range_meters":20000,"station_id":"ce4bhch2rcd13ifvqeug","pricing_plan_id":"free"},{"bike_id":"4005d67c-e580-47a4-893b-53bd0a817d88","system_id":"levelo_inurba_marseille","lat":43.285856,"lon":5.350771,"is_reserved":false,"is_disabled":false,"rental_uris":{"android":"levelo://app?vid=4005d67c-e580-47a4-893b-53bd0a817d88","ios":"levelo://app?vid=4005d67c-e580-47a4-893b-53bd0a817d88"},"vehicle_type_id":"4","last_reported":1703118912,"current_range_meters":12000,"station_id":"ce4bhch2rcd13ifvqeug","pricing_plan_id":"free"},{"bike_id":"fa99c2cb-7c88-4c8a-8106-0f27aa3b4e09","system_id":"levelo_inurba_marseille","lat":43.283998,"lon":5.375062,"is_reserved":false,"is_disabled":false,"rental_uris":{"android":"levelo://app?vid=fa99c2cb-7c88-4c8a-8106-0f27aa3b4e09","ios":"levelo://app?vid=fa99c2cb-7c88-4c8a-8106-0f27aa3b4e09"},"vehicle_type_id":"4","last_reported":1703118912,"current_range_meters":0,"station_id":"ce4bh412rcd13ifvqds0","pricing_plan_id":"free"},{"bike_id":"3b2f16e9-efbc-4e7d-a67d-bd6bd2757485","system_id":"levelo_inurba_marseille","lat":43.283998,"lon":5.375062,"is_reserved":false,"is_disabled":false,"rental_uris":{"android":"levelo://app?vid=3b2f16e9-efbc-4e7d-a67d-bd6bd2757485","ios":"levelo://app?vid=3b2f16e9-efbc-4e7d-a67d-bd6bd2757485"},"vehicle_type_id":"4","last_reported":1703118912,"current_range_meters":21600,"station_id":"ce4bh412rcd13ifvqds0","pricing_plan_id":"free"},{"bike_id":"d392b2e5-a5ef-42fd-95f3-8edf7fb9d869","system_id":"levelo_inurba_marseille","lat":43.284109,"lon":5.3752,"is_reserved":false,"is_disabled":false,"rental_uris":{"android":"levelo://app?vid=d392b2e5-a5ef-42fd-95f3-8edf7fb9d869","ios":"levelo://app?vid=d392b2e5-a5ef-42fd-95f3-8edf7fb9d869"},"vehicle_type_id":"4","last_reported":1703118912,"current_range_meters":25600,"station_id":"ce4bh412rcd13ifvqds0","pricing_plan_id":"free"},{"bike_id":"ac944d3a-e1fd-4b1d-ad40-4052b61bd0e9","system_id":"levelo_inurba_marseille","lat":43.2841,"lon":5.37515,"is_reserved":false,"is_disabled":false,"rental_uris":{"android":"levelo://app?vid=ac944d3a-e1fd-4b1d-ad40-4052b61bd0e9","ios":"levelo://app?vid=ac944d3a-e1fd-4b1d-ad40-4052b61bd0e9"},"vehicle_type_id":"4","last_reported":1703118912,"current_range_meters":20400,"station_id":"ce4bh412rcd13ifvqds0","pricing_plan_id":"free"},{"bike_id":"6927178c-f2c5-4e8a-9c91-316a04fca8c9","system_id":"levelo_inurba_marseille","lat":43.283998,"lon":5.375062,"is_reserved":false,"is_disabled":false,"rental_uris":{"android":"levelo://app?vid=6927178c-f2c5-4e8a-9c91-316a04fca8c9","ios":"levelo://app?vid=6927178c-f2c5-4e8a-9c91-316a04fca8c9"},"vehicle_type_id":"4","last_reported":1703118912,"current_range_meters":15200,"station_id":"ce4bh412rcd13ifvqds0","pricing_plan_id":"free"},{"bike_id":"de37c518-6907-407b-a4d5-e8ada3f86abe","system_id":"levelo_inurba_marseille","lat":43.284067,"lon":5.375153,"is_reserved":false,"is_disabled":false,"rental_uris":{"android":"levelo://app?vid=de37c518-6907-407b-a4d5-e8ada3f86abe","ios":"levelo://app?vid=de37c518-6907-407b-a4d5-e8ada3f86abe"},"vehicle_type_id":"4","last_reported":1703118912,"current_range_meters":2000,"station_id":"ce4bh412rcd13ifvqds0","pricing_plan_id":"free"},{"bike_id":"8538e6dd-dbef-4a5a-a119-9a857fd021ad","system_id":"levelo_inurba_marseille","lat":43.33218,"lon":5.397067,"is_reserved":false,"is_disabled":false,"rental_uris":{"android":"levelo://app?vid=8538e6dd-dbef-4a5a-a119-9a857fd021ad","ios":"levelo://app?vid=8538e6dd-dbef-4a5a-a119-9a857fd021ad"},"vehicle_type_id":"4","last_reported":1703118912,"current_range_meters":0,"station_id":"","pricing_plan_id":"free"},{"bike_id":"941799b5-6c53-4161-ac6b-be3b6b6b457e","system_id":"levelo_inurba_marseille","lat":43.295713,"lon":5.399639,"is_reserved":false,"is_disabled":false,"rental_uris":{"android":"levelo://app?vid=941799b5-6c53-4161-ac6b-be3b6b6b457e","ios":"levelo://app?vid=941799b5-6c53-4161-ac6b-be3b6b6b457e"},"vehicle_type_id":"4","last_reported":1703118912,"current_range_meters":24000,"station_id":"ce4bh312rcd13ifvqdj0","pricing_plan_id":"free"},{"bike_id":"29eb60f9-5983-4f87-968f-90edc6c8d299","system_id":"levelo_inurba_marseille","lat":43.31889,"lon":5.4072,"is_reserved":false,"is_disabled":false,"rental_uris":{"android":"levelo://app?vid=29eb60f9-5983-4f87-968f-90edc6c8d299","ios":"levelo://app?vid=29eb60f9-5983-4f87-968f-90edc6c8d299"},"vehicle_type_id":"4","last_reported":1703118912,"current_range_meters":31200,"station_id":"ce4bhq12rcd13ifvqhig","pricing_plan_id":"free"},{"bike_id":"cc5c3b7a-bc5b-424d-80cd-dd6548e8f3c4","system_id":"levelo_inurba_marseille","lat":43.31891,"lon":5.40729,"is_reserved":false,"is_disabled":false,"rental_uris":{"android":"levelo://app?vid=cc5c3b7a-bc5b-424d-80cd-dd6548e8f3c4","ios":"levelo://app?vid=cc5c3b7a-bc5b-424d-80cd-dd6548e8f3c4"},"vehicle_type_id":"4","last_reported":1703118912,"current_range_meters":14800,"station_id":"ce4bhq12rcd13ifvqhig","pricing_plan_id":"free"},{"bike_id":"909e1a7f-15e6-497e-9280-8565b98f6d8c","system_id":"levelo_inurba_marseille","lat":43.319179,"lon":5.407725,"is_reserved":false,"is_disabled":false,"rental_uris":{"android":"levelo://app?vid=909e1a7f-15e6-497e-9280-8565b98f6d8c","ios":"levelo://app?vid=909e1a7f-15e6-497e-9280-8565b98f6d8c"},"vehicle_type_id":"4","last_reported":1703118912,"current_range_meters":29600,"station_id":"ce4bhq12rcd13ifvqhig","pricing_plan_id":"free"},{"bike_id":"0e6bbc92-cec6-497f-ad89-d75d7e889db3","system_id":"levelo_inurba_marseille","lat":43.33717,"lon":5.391857,"is_reserved":false,"is_disabled":false,"rental_uris":{"android":"levelo://app?vid=0e6bbc92-cec6-497f-ad89-d75d7e889db3","ios":"levelo://app?vid=0e6bbc92-cec6-497f-ad89-d75d7e889db3"},"vehicle_type_id":"4","last_reported":1703118912,"current_range_meters":32000,"station_id":"ce4bhr92rcd13ifvqhsg","pricing_plan_id":"free"},{"bike_id":"dfb799e0-6b52-4b93-891e-f427333dec88","system_id":"levelo_inurba_marseille","lat":43.33717,"lon":5.391857,"is_reserved":false,"is_disabled":false,"rental_uris":{"android":"levelo://app?vid=dfb799e0-6b52-4b93-891e-f427333dec88","ios":"levelo://app?vid=dfb799e0-6b52-4b93-891e-f427333dec88"},"vehicle_type_id":"4","last_reported":1703118912,"current_range_meters":24400,"station_id":"ce4bhr92rcd13ifvqhsg","pricing_plan_id":"free"},{"bike_id":"0f42eedd-bd33-445f-91fc-4e7504a96eb4","system_id":"levelo_inurba_marseille","lat":43.323464,"lon":5.406297,"is_reserved":false,"is_disabled":false,"rental_uris":{"android":"levelo://app?vid=0f42eedd-bd33-445f-91fc-4e7504a96eb4","ios":"levelo://app?vid=0f42eedd-bd33-445f-91fc-4e7504a96eb4"},"vehicle_type_id":"4","last_reported":1703118912,"current_range_meters":19600,"station_id":"ce4bhq92rcd13ifvqhjg","pricing_plan_id":"free"},{"bike_id":"b20f92a2-3c96-49ba-89c0-763dc511f158","system_id":"levelo_inurba_marseille","lat":43.284219,"lon":5.3497,"is_reserved":false,"is_disabled":false,"rental_uris":{"android":"levelo://app?vid=b20f92a2-3c96-49ba-89c0-763dc511f158","ios":"levelo://app?vid=b20f92a2-3c96-49ba-89c0-763dc511f158"},"vehicle_type_id":"4","last_reported":1703118912,"current_range_meters":25600,"station_id":"ce4bhbh2rcd13ifvqepg","pricing_plan_id":"free"},{"bike_id":"25acf729-0c15-45f0-8053-2c35b0919b50","system_id":"levelo_inurba_marseille","lat":43.284219,"lon":5.3497,"is_reserved":false,"is_disabled":false,"rental_uris":{"android":"levelo://app?vid=25acf729-0c15-45f0-8053-2c35b0919b50","ios":"levelo://app?vid=25acf729-0c15-45f0-8053-2c35b0919b50"},"vehicle_type_id":"4","last_reported":1703118912,"current_range_meters":28800,"station_id":"ce4bhbh2rcd13ifvqepg","pricing_plan_id":"free"},{"bike_id":"e68ad7a3-9f73-42da-8e90-59adcc6ccfbd","system_id":"levelo_inurba_marseille","lat":43.284219,"lon":5.3497,"is_reserved":false,"is_disabled":false,"rental_uris":{"android":"levelo://app?vid=e68ad7a3-9f73-42da-8e90-59adcc6ccfbd","ios":"levelo://app?vid=e68ad7a3-9f73-42da-8e90-59adcc6ccfbd"},"vehicle_type_id":"4","last_reported":1703118912,"current_range_meters":30400,"station_id":"ce4bhbh2rcd13ifvqepg","pricing_plan_id":"free"},{"bike_id":"5ffab216-92f9-478c-a9f0-e415d36eb89c","system_id":"levelo_inurba_marseille","lat":43.284217,"lon":5.349697,"is_reserved":false,"is_disabled":false,"rental_uris":{"android":"levelo://app?vid=5ffab216-92f9-478c-a9f0-e415d36eb89c","ios":"levelo://app?vid=5ffab216-92f9-478c-a9f0-e415d36eb89c"},"vehicle_type_id":"4","last_reported":1703118912,"current_range_meters":27600,"station_id":"ce4bhbh2rcd13ifvqepg","pricing_plan_id":"free"},{"bike_id":"0d366dcc-b5a0-4233-bc5e-21424a8a8d7a","system_id":"levelo_inurba_marseille","lat":43.283498,"lon":5.380948,"is_reserved":false,"is_disabled":false,"rental_uris":{"android":"levelo://app?vid=0d366dcc-b5a0-4233-bc5e-21424a8a8d7a","ios":"levelo://app?vid=0d366dcc-b5a0-4233-bc5e-21424a8a8d7a"},"vehicle_type_id":"4","last_reported":1703118912,"current_range_meters":30800,"station_id":"ce4bh412rcd13ifvqdr0","pricing_plan_id":"free"},{"bike_id":"5e3666e1-86ec-4715-881e-97fbe8493bb9","system_id":"levelo_inurba_marseille","lat":43.284217,"lon":5.349697,"is_reserved":false,"is_disabled":false,"rental_uris":{"android":"levelo://app?vid=5e3666e1-86ec-4715-881e-97fbe8493bb9","ios":"levelo://app?vid=5e3666e1-86ec-4715-881e-97fbe8493bb9"},"vehicle_type_id":"4","last_reported":1703118912,"current_range_meters":31200,"station_id":"ce4bhbh2rcd13ifvqepg","pricing_plan_id":"free"},{"bike_id":"b85df6e5-946f-4ca9-b02b-bc3a9e578ef6","system_id":"levelo_inurba_marseille","lat":43.304188,"lon":5.412904,"is_reserved":false,"is_disabled":false,"rental_uris":{"android":"levelo://app?vid=b85df6e5-946f-4ca9-b02b-bc3a9e578ef6","ios":"levelo://app?vid=b85df6e5-946f-4ca9-b02b-bc3a9e578ef6"},"vehicle_type_id":"4","last_reported":1703118912,"current_range_meters":20800,"station_id":"ce4bhop2rcd13ifvqh8g","pricing_plan_id":"free"},{"bike_id":"338c9ba4-b725-4a51-8cf5-7a87fdf968de","system_id":"levelo_inurba_marseille","lat":43.284214,"lon":5.349706,"is_reserved":false,"is_disabled":false,"rental_uris":{"android":"levelo://app?vid=338c9ba4-b725-4a51-8cf5-7a87fdf968de","ios":"levelo://app?vid=338c9ba4-b725-4a51-8cf5-7a87fdf968de"},"vehicle_type_id":"4","last_reported":1703118912,"current_range_meters":28800,"station_id":"ce4bhbh2rcd13ifvqepg","pricing_plan_id":"free"},{"bike_id":"99c0c118-61e8-4cea-80ff-9be3c4ac7cf7","system_id":"levelo_inurba_marseille","lat":43.284224,"lon":5.349766,"is_reserved":false,"is_disabled":false,"rental_uris":{"android":"levelo://app?vid=99c0c118-61e8-4cea-80ff-9be3c4ac7cf7","ios":"levelo://app?vid=99c0c118-61e8-4cea-80ff-9be3c4ac7cf7"},"vehicle_type_id":"4","last_reported":1703118912,"current_range_meters":400,"station_id":"ce4bhbh2rcd13ifvqepg","pricing_plan_id":"free"},{"bike_id":"30b41aed-b375-4cfa-b849-c47f4e650fc0","system_id":"levelo_inurba_marseille","lat":43.28199,"lon":5.3587,"is_reserved":false,"is_disabled":false,"rental_uris":{"android":"levelo://app?vid=30b41aed-b375-4cfa-b849-c47f4e650fc0","ios":"levelo://app?vid=30b41aed-b375-4cfa-b849-c47f4e650fc0"},"vehicle_type_id":"4","last_reported":1703118912,"current_range_meters":9200,"station_id":"","pricing_plan_id":"free"},{"bike_id":"18b2783a-893d-4ce6-8d72-7858e55410d2","system_id":"levelo_inurba_marseille","lat":43.289363,"lon":5.396322,"is_reserved":false,"is_disabled":false,"rental_uris":{"android":"levelo://app?vid=18b2783a-893d-4ce6-8d72-7858e55410d2","ios":"levelo://app?vid=18b2783a-893d-4ce6-8d72-7858e55410d2"},"vehicle_type_id":"4","last_reported":1703118912,"current_range_meters":26800,"station_id":"ce4bh3h2rcd13ifvqdn0","pricing_plan_id":"free"},{"bike_id":"0977946d-e22a-47e3-98ad-faae6fdf2317","system_id":"levelo_inurba_marseille","lat":43.292724,"lon":5.401131,"is_reserved":false,"is_disabled":false,"rental_uris":{"android":"levelo://app?vid=0977946d-e22a-47e3-98ad-faae6fdf2317","ios":"levelo://app?vid=0977946d-e22a-47e3-98ad-faae6fdf2317"},"vehicle_type_id":"4","last_reported":1703118912,"current_range_meters":26400,"station_id":"ce4bh312rcd13ifvqdk0","pricing_plan_id":"free"},{"bike_id":"cb5e4ae5-d99b-460e-aebb-633896656037","system_id":"levelo_inurba_marseille","lat":43.283502,"lon":5.386471,"is_reserved":false,"is_disabled":false,"rental_uris":{"android":"levelo://app?vid=cb5e4ae5-d99b-460e-aebb-633896656037","ios":"levelo://app?vid=cb5e4ae5-d99b-460e-aebb-633896656037"},"vehicle_type_id":"4","last_reported":1703118912,"current_range_meters":18400,"station_id":"ce4bh492rcd13ifvqdvg","pricing_plan_id":"free"},{"bike_id":"65911451-d618-4117-9c6d-16e5727fc1ab","system_id":"levelo_inurba_marseille","lat":43.280382,"lon":5.369291,"is_reserved":false,"is_disabled":false,"rental_uris":{"android":"levelo://app?vid=65911451-d618-4117-9c6d-16e5727fc1ab","ios":"levelo://app?vid=65911451-d618-4117-9c6d-16e5727fc1ab"},"vehicle_type_id":"4","last_reported":1703118912,"current_range_meters":22400,"station_id":"ce4bha12rcd13ifvqef0","pricing_plan_id":"free"},{"bike_id":"ea67ddc1-9ea5-4df4-8eee-f9c6528c949d","system_id":"levelo_inurba_marseille","lat":43.281044,"lon":5.378308,"is_reserved":false,"is_disabled":false,"rental_uris":{"android":"levelo://app?vid=ea67ddc1-9ea5-4df4-8eee-f9c6528c949d","ios":"levelo://app?vid=ea67ddc1-9ea5-4df4-8eee-f9c6528c949d"},"vehicle_type_id":"4","last_reported":1703118912,"current_range_meters":17200,"station_id":"ce4bha12rcd13ifvqee0","pricing_plan_id":"free"},{"bike_id":"e5c9b0e5-6537-4f71-8861-ad1e56ab0c41","system_id":"levelo_inurba_marseille","lat":43.281044,"lon":5.378308,"is_reserved":false,"is_disabled":false,"rental_uris":{"android":"levelo://app?vid=e5c9b0e5-6537-4f71-8861-ad1e56ab0c41","ios":"levelo://app?vid=e5c9b0e5-6537-4f71-8861-ad1e56ab0c41"},"vehicle_type_id":"4","last_reported":1703118912,"current_range_meters":14800,"station_id":"ce4bha12rcd13ifvqee0","pricing_plan_id":"free"},{"bike_id":"5cb55586-3eab-4c0f-8076-c0bab6235fcd","system_id":"levelo_inurba_marseille","lat":43.284462,"lon":5.392121,"is_reserved":false,"is_disabled":false,"rental_uris":{"android":"levelo://app?vid=5cb55586-3eab-4c0f-8076-c0bab6235fcd","ios":"levelo://app?vid=5cb55586-3eab-4c0f-8076-c0bab6235fcd"},"vehicle_type_id":"4","last_reported":1703118912,"current_range_meters":14000,"station_id":"ce4bhoh2rcd13ifvqh5g","pricing_plan_id":"free"},{"bike_id":"1ecc3bc0-df6d-4126-ad46-9c7f683a27b6","system_id":"levelo_inurba_marseille","lat":43.284462,"lon":5.392121,"is_reserved":false,"is_disabled":false,"rental_uris":{"android":"levelo://app?vid=1ecc3bc0-df6d-4126-ad46-9c7f683a27b6","ios":"levelo://app?vid=1ecc3bc0-df6d-4126-ad46-9c7f683a27b6"},"vehicle_type_id":"4","last_reported":1703118912,"current_range_meters":20000,"station_id":"ce4bhoh2rcd13ifvqh5g","pricing_plan_id":"free"},{"bike_id":"a65bc548-b9cd-4a09-99de-6a7cf1b6ce3e","system_id":"levelo_inurba_marseille","lat":43.304188,"lon":5.412904,"is_reserved":false,"is_disabled":false,"rental_uris":{"android":"levelo://app?vid=a65bc548-b9cd-4a09-99de-6a7cf1b6ce3e","ios":"levelo://app?vid=a65bc548-b9cd-4a09-99de-6a7cf1b6ce3e"},"vehicle_type_id":"4","last_reported":1703118912,"current_range_meters":20400,"station_id":"ce4bhop2rcd13ifvqh8g","pricing_plan_id":"free"},{"bike_id":"b273a386-d7a2-4d92-bf22-79fa7823766f","system_id":"levelo_inurba_marseille","lat":43.304188,"lon":5.412904,"is_reserved":false,"is_disabled":false,"rental_uris":{"android":"levelo://app?vid=b273a386-d7a2-4d92-bf22-79fa7823766f","ios":"levelo://app?vid=b273a386-d7a2-4d92-bf22-79fa7823766f"},"vehicle_type_id":"4","last_reported":1703118912,"current_range_meters":14000,"station_id":"ce4bhop2rcd13ifvqh8g","pricing_plan_id":"free"},{"bike_id":"03547510-361e-43f2-83e1-2236b799d50b","system_id":"levelo_inurba_marseille","lat":43.304188,"lon":5.412904,"is_reserved":false,"is_disabled":false,"rental_uris":{"android":"levelo://app?vid=03547510-361e-43f2-83e1-2236b799d50b","ios":"levelo://app?vid=03547510-361e-43f2-83e1-2236b799d50b"},"vehicle_type_id":"4","last_reported":1703118912,"current_range_meters":15200,"station_id":"ce4bhop2rcd13ifvqh8g","pricing_plan_id":"free"},{"bike_id":"c9ccc1b6-eff8-41ad-b5b1-88555cb07424","system_id":"levelo_inurba_marseille","lat":43.304188,"lon":5.412904,"is_reserved":false,"is_disabled":false,"rental_uris":{"android":"levelo://app?vid=c9ccc1b6-eff8-41ad-b5b1-88555cb07424","ios":"levelo://app?vid=c9ccc1b6-eff8-41ad-b5b1-88555cb07424"},"vehicle_type_id":"4","last_reported":1703118912,"current_range_meters":10400,"station_id":"ce4bhop2rcd13ifvqh8g","pricing_plan_id":"free"},{"bike_id":"2a5cd02d-c677-406b-ad35-528e2719fc98","system_id":"levelo_inurba_marseille","lat":43.304188,"lon":5.412904,"is_reserved":false,"is_disabled":false,"rental_uris":{"android":"levelo://app?vid=2a5cd02d-c677-406b-ad35-528e2719fc98","ios":"levelo://app?vid=2a5cd02d-c677-406b-ad35-528e2719fc98"},"vehicle_type_id":"4","last_reported":1703118912,"current_range_meters":5200,"station_id":"ce4bhop2rcd13ifvqh8g","pricing_plan_id":"free"},{"bike_id":"1d1555b5-648a-49b4-90c5-eeac61d8c337","system_id":"levelo_inurba_marseille","lat":43.304188,"lon":5.412904,"is_reserved":false,"is_disabled":false,"rental_uris":{"android":"levelo://app?vid=1d1555b5-648a-49b4-90c5-eeac61d8c337","ios":"levelo://app?vid=1d1555b5-648a-49b4-90c5-eeac61d8c337"},"vehicle_type_id":"4","last_reported":1703118912,"current_range_meters":7200,"station_id":"ce4bhop2rcd13ifvqh8g","pricing_plan_id":"free"},{"bike_id":"12fefae8-717b-44a5-a2d1-1e6661d789ab","system_id":"levelo_inurba_marseille","lat":43.27907,"lon":5.380149,"is_reserved":false,"is_disabled":false,"rental_uris":{"android":"levelo://app?vid=12fefae8-717b-44a5-a2d1-1e6661d789ab","ios":"levelo://app?vid=12fefae8-717b-44a5-a2d1-1e6661d789ab"},"vehicle_type_id":"4","last_reported":1703118912,"current_range_meters":24400,"station_id":"ce4bhf92rcd13ifvqf50","pricing_plan_id":"free"},{"bike_id":"80178320-029b-4cd1-880f-a171e61c3687","system_id":"levelo_inurba_marseille","lat":43.28715,"lon":5.3998,"is_reserved":false,"is_disabled":false,"rental_uris":{"android":"levelo://app?vid=80178320-029b-4cd1-880f-a171e61c3687","ios":"levelo://app?vid=80178320-029b-4cd1-880f-a171e61c3687"},"vehicle_type_id":"4","last_reported":1703118912,"current_range_meters":22000,"station_id":"ce4bho92rcd13ifvqh3g","pricing_plan_id":"free"},{"bike_id":"bcba839c-a11d-4f81-b619-c5948a4b7143","system_id":"levelo_inurba_marseille","lat":43.28712,"lon":5.399765,"is_reserved":false,"is_disabled":false,"rental_uris":{"android":"levelo://app?vid=bcba839c-a11d-4f81-b619-c5948a4b7143","ios":"levelo://app?vid=bcba839c-a11d-4f81-b619-c5948a4b7143"},"vehicle_type_id":"4","last_reported":1703118912,"current_range_meters":10800,"station_id":"ce4bho92rcd13ifvqh3g","pricing_plan_id":"free"},{"bike_id":"43e5f732-0f3e-4e65-b171-c12232045b42","system_id":"levelo_inurba_marseille","lat":43.27813,"lon":5.37451,"is_reserved":false,"is_disabled":false,"rental_uris":{"android":"levelo://app?vid=43e5f732-0f3e-4e65-b171-c12232045b42","ios":"levelo://app?vid=43e5f732-0f3e-4e65-b171-c12232045b42"},"vehicle_type_id":"4","last_reported":1703118912,"current_range_meters":5200,"station_id":"","pricing_plan_id":"free"},{"bike_id":"ea288ed0-2353-4e46-ad6a-3996d641e872","system_id":"levelo_inurba_marseille","lat":43.28708,"lon":5.39979,"is_reserved":false,"is_disabled":false,"rental_uris":{"android":"levelo://app?vid=ea288ed0-2353-4e46-ad6a-3996d641e872","ios":"levelo://app?vid=ea288ed0-2353-4e46-ad6a-3996d641e872"},"vehicle_type_id":"4","last_reported":1703118912,"current_range_meters":22800,"station_id":"ce4bho92rcd13ifvqh3g","pricing_plan_id":"free"},{"bike_id":"1e1701d2-7b62-43c0-b7bc-4d8e94edd73f","system_id":"levelo_inurba_marseille","lat":43.279087,"lon":5.380114,"is_reserved":false,"is_disabled":false,"rental_uris":{"android":"levelo://app?vid=1e1701d2-7b62-43c0-b7bc-4d8e94edd73f","ios":"levelo://app?vid=1e1701d2-7b62-43c0-b7bc-4d8e94edd73f"},"vehicle_type_id":"4","last_reported":1703118912,"current_range_meters":24400,"station_id":"ce4bhf92rcd13ifvqf50","pricing_plan_id":"free"},{"bike_id":"a0c3522f-ac3d-48d5-b61c-d0d7137a303c","system_id":"levelo_inurba_marseille","lat":43.28711,"lon":5.3999,"is_reserved":false,"is_disabled":false,"rental_uris":{"android":"levelo://app?vid=a0c3522f-ac3d-48d5-b61c-d0d7137a303c","ios":"levelo://app?vid=a0c3522f-ac3d-48d5-b61c-d0d7137a303c"},"vehicle_type_id":"4","last_reported":1703118912,"current_range_meters":19600,"station_id":"ce4bho92rcd13ifvqh3g","pricing_plan_id":"free"},{"bike_id":"5fb1f64a-c325-4ebc-bab1-5ee60fe9bcbd","system_id":"levelo_inurba_marseille","lat":43.28702,"lon":5.39984,"is_reserved":false,"is_disabled":false,"rental_uris":{"android":"levelo://app?vid=5fb1f64a-c325-4ebc-bab1-5ee60fe9bcbd","ios":"levelo://app?vid=5fb1f64a-c325-4ebc-bab1-5ee60fe9bcbd"},"vehicle_type_id":"4","last_reported":1703118912,"current_range_meters":5600,"station_id":"ce4bho92rcd13ifvqh3g","pricing_plan_id":"free"},{"bike_id":"cb0668d4-d46c-4efe-a7e0-185ebe495ab4","system_id":"levelo_inurba_marseille","lat":43.280536,"lon":5.389274,"is_reserved":false,"is_disabled":false,"rental_uris":{"android":"levelo://app?vid=cb0668d4-d46c-4efe-a7e0-185ebe495ab4","ios":"levelo://app?vid=cb0668d4-d46c-4efe-a7e0-185ebe495ab4"},"vehicle_type_id":"4","last_reported":1703118912,"current_range_meters":5200,"station_id":"","pricing_plan_id":"free"},{"bike_id":"8950d456-2cfd-4ebe-abdb-0ad2d9ae91f8","system_id":"levelo_inurba_marseille","lat":43.279742,"lon":5.38744,"is_reserved":false,"is_disabled":false,"rental_uris":{"android":"levelo://app?vid=8950d456-2cfd-4ebe-abdb-0ad2d9ae91f8","ios":"levelo://app?vid=8950d456-2cfd-4ebe-abdb-0ad2d9ae91f8"},"vehicle_type_id":"4","last_reported":1703118912,"current_range_meters":16000,"station_id":"ce4bhg12rcd13ifvqf80","pricing_plan_id":"free"},{"bike_id":"bbfa7862-ad7b-4daf-90d7-d0e1affb562a","system_id":"levelo_inurba_marseille","lat":43.29257,"lon":5.40895,"is_reserved":false,"is_disabled":false,"rental_uris":{"android":"levelo://app?vid=bbfa7862-ad7b-4daf-90d7-d0e1affb562a","ios":"levelo://app?vid=bbfa7862-ad7b-4daf-90d7-d0e1affb562a"},"vehicle_type_id":"4","last_reported":1703118912,"current_range_meters":21200,"station_id":"ce4bh192rcd13ifvqdc0","pricing_plan_id":"free"},{"bike_id":"e313c7ca-82d7-4c67-bbb0-05955bdaa152","system_id":"levelo_inurba_marseille","lat":43.292571,"lon":5.409107,"is_reserved":false,"is_disabled":false,"rental_uris":{"android":"levelo://app?vid=e313c7ca-82d7-4c67-bbb0-05955bdaa152","ios":"levelo://app?vid=e313c7ca-82d7-4c67-bbb0-05955bdaa152"},"vehicle_type_id":"4","last_reported":1703118912,"current_range_meters":30400,"station_id":"ce4bh192rcd13ifvqdc0","pricing_plan_id":"free"},{"bike_id":"36618b10-9408-49a9-8b9b-381c57b48ff1","system_id":"levelo_inurba_marseille","lat":43.292569,"lon":5.409107,"is_reserved":false,"is_disabled":false,"rental_uris":{"android":"levelo://app?vid=36618b10-9408-49a9-8b9b-381c57b48ff1","ios":"levelo://app?vid=36618b10-9408-49a9-8b9b-381c57b48ff1"},"vehicle_type_id":"4","last_reported":1703118912,"current_range_meters":4800,"station_id":"ce4bh192rcd13ifvqdc0","pricing_plan_id":"free"},{"bike_id":"e574f4b5-6580-4ea2-8e4c-8f428f83289e","system_id":"levelo_inurba_marseille","lat":43.292569,"lon":5.409107,"is_reserved":false,"is_disabled":false,"rental_uris":{"android":"levelo://app?vid=e574f4b5-6580-4ea2-8e4c-8f428f83289e","ios":"levelo://app?vid=e574f4b5-6580-4ea2-8e4c-8f428f83289e"},"vehicle_type_id":"4","last_reported":1703118912,"current_range_meters":25200,"station_id":"ce4bh192rcd13ifvqdc0","pricing_plan_id":"free"},{"bike_id":"f27be2f9-9ea6-4d97-ba32-1dbbbb836c8d","system_id":"levelo_inurba_marseille","lat":43.292571,"lon":5.409107,"is_reserved":false,"is_disabled":false,"rental_uris":{"android":"levelo://app?vid=f27be2f9-9ea6-4d97-ba32-1dbbbb836c8d","ios":"levelo://app?vid=f27be2f9-9ea6-4d97-ba32-1dbbbb836c8d"},"vehicle_type_id":"4","last_reported":1703118912,"current_range_meters":31200,"station_id":"ce4bh192rcd13ifvqdc0","pricing_plan_id":"free"},{"bike_id":"5e341de4-c67d-4b6c-8212-01b2b2ae70f5","system_id":"levelo_inurba_marseille","lat":43.292569,"lon":5.409107,"is_reserved":false,"is_disabled":false,"rental_uris":{"android":"levelo://app?vid=5e341de4-c67d-4b6c-8212-01b2b2ae70f5","ios":"levelo://app?vid=5e341de4-c67d-4b6c-8212-01b2b2ae70f5"},"vehicle_type_id":"4","last_reported":1703118912,"current_range_meters":26800,"station_id":"ce4bh192rcd13ifvqdc0","pricing_plan_id":"free"},{"bike_id":"30c6d6bd-8d42-4a1c-9104-08488cbddeb4","system_id":"levelo_inurba_marseille","lat":43.303837,"lon":5.418724,"is_reserved":false,"is_disabled":false,"rental_uris":{"android":"levelo://app?vid=30c6d6bd-8d42-4a1c-9104-08488cbddeb4","ios":"levelo://app?vid=30c6d6bd-8d42-4a1c-9104-08488cbddeb4"},"vehicle_type_id":"4","last_reported":1703118912,"current_range_meters":4400,"station_id":"ce4bhop2rcd13ifvqh7g","pricing_plan_id":"free"},{"bike_id":"a7899e80-f097-4070-b8cb-e3ee4322ca43","system_id":"levelo_inurba_marseille","lat":43.278401,"lon":5.392152,"is_reserved":false,"is_disabled":false,"rental_uris":{"android":"levelo://app?vid=a7899e80-f097-4070-b8cb-e3ee4322ca43","ios":"levelo://app?vid=a7899e80-f097-4070-b8cb-e3ee4322ca43"},"vehicle_type_id":"4","last_reported":1703118912,"current_range_meters":30800,"station_id":"ce4bhjp2rcd13ifvqga0","pricing_plan_id":"free"},{"bike_id":"8620807d-e7d9-49bd-a224-36b8c79adb00","system_id":"levelo_inurba_marseille","lat":43.303837,"lon":5.418724,"is_reserved":false,"is_disabled":false,"rental_uris":{"android":"levelo://app?vid=8620807d-e7d9-49bd-a224-36b8c79adb00","ios":"levelo://app?vid=8620807d-e7d9-49bd-a224-36b8c79adb00"},"vehicle_type_id":"4","last_reported":1703118912,"current_range_meters":28000,"station_id":"ce4bhop2rcd13ifvqh7g","pricing_plan_id":"free"},{"bike_id":"88c45a7b-32d4-407d-8de1-bf84911614d0","system_id":"levelo_inurba_marseille","lat":43.278399,"lon":5.392139,"is_reserved":false,"is_disabled":false,"rental_uris":{"android":"levelo://app?vid=88c45a7b-32d4-407d-8de1-bf84911614d0","ios":"levelo://app?vid=88c45a7b-32d4-407d-8de1-bf84911614d0"},"vehicle_type_id":"4","last_reported":1703118912,"current_range_meters":6800,"station_id":"ce4bhjp2rcd13ifvqga0","pricing_plan_id":"free"},{"bike_id":"208ce436-c5f8-4920-b450-fdffc97da53b","system_id":"levelo_inurba_marseille","lat":43.278401,"lon":5.392152,"is_reserved":false,"is_disabled":false,"rental_uris":{"android":"levelo://app?vid=208ce436-c5f8-4920-b450-fdffc97da53b","ios":"levelo://app?vid=208ce436-c5f8-4920-b450-fdffc97da53b"},"vehicle_type_id":"4","last_reported":1703118912,"current_range_meters":22800,"station_id":"ce4bhjp2rcd13ifvqga0","pricing_plan_id":"free"},{"bike_id":"c138d646-fc1c-4e57-96ae-86b4f5e59051","system_id":"levelo_inurba_marseille","lat":43.278399,"lon":5.392139,"is_reserved":false,"is_disabled":false,"rental_uris":{"android":"levelo://app?vid=c138d646-fc1c-4e57-96ae-86b4f5e59051","ios":"levelo://app?vid=c138d646-fc1c-4e57-96ae-86b4f5e59051"},"vehicle_type_id":"4","last_reported":1703118912,"current_range_meters":17200,"station_id":"ce4bhjp2rcd13ifvqga0","pricing_plan_id":"free"},{"bike_id":"cbc8db6e-b7c8-4d73-a26d-df7e35eaa78e","system_id":"levelo_inurba_marseille","lat":43.336134,"lon":5.410341,"is_reserved":false,"is_disabled":false,"rental_uris":{"android":"levelo://app?vid=cbc8db6e-b7c8-4d73-a26d-df7e35eaa78e","ios":"levelo://app?vid=cbc8db6e-b7c8-4d73-a26d-df7e35eaa78e"},"vehicle_type_id":"4","last_reported":1703118912,"current_range_meters":12000,"station_id":"ce4bhqh2rcd13ifvqhmg","pricing_plan_id":"free"},{"bike_id":"36923820-449a-47bb-8907-3f8db7243c5b","system_id":"levelo_inurba_marseille","lat":43.336134,"lon":5.410341,"is_reserved":false,"is_disabled":false,"rental_uris":{"android":"levelo://app?vid=36923820-449a-47bb-8907-3f8db7243c5b","ios":"levelo://app?vid=36923820-449a-47bb-8907-3f8db7243c5b"},"vehicle_type_id":"4","last_reported":1703118912,"current_range_meters":21200,"station_id":"ce4bhqh2rcd13ifvqhmg","pricing_plan_id":"free"},{"bike_id":"4a0911b4-ebce-4462-b949-8a4ad3514d45","system_id":"levelo_inurba_marseille","lat":43.336134,"lon":5.410341,"is_reserved":false,"is_disabled":false,"rental_uris":{"android":"levelo://app?vid=4a0911b4-ebce-4462-b949-8a4ad3514d45","ios":"levelo://app?vid=4a0911b4-ebce-4462-b949-8a4ad3514d45"},"vehicle_type_id":"4","last_reported":1703118912,"current_range_meters":23600,"station_id":"ce4bhqh2rcd13ifvqhmg","pricing_plan_id":"free"},{"bike_id":"c1f42430-601a-4dd5-9cde-e0506b6dcf3a","system_id":"levelo_inurba_marseille","lat":43.276769,"lon":5.388787,"is_reserved":false,"is_disabled":false,"rental_uris":{"android":"levelo://app?vid=c1f42430-601a-4dd5-9cde-e0506b6dcf3a","ios":"levelo://app?vid=c1f42430-601a-4dd5-9cde-e0506b6dcf3a"},"vehicle_type_id":"4","last_reported":1703118912,"current_range_meters":26000,"station_id":"ce4bhi12rcd13ifvqfo0","pricing_plan_id":"free"},{"bike_id":"d04c46a2-68b4-4f99-b96a-186b6aa7a02e","system_id":"levelo_inurba_marseille","lat":43.317121,"lon":5.423936,"is_reserved":false,"is_disabled":false,"rental_uris":{"android":"levelo://app?vid=d04c46a2-68b4-4f99-b96a-186b6aa7a02e","ios":"levelo://app?vid=d04c46a2-68b4-4f99-b96a-186b6aa7a02e"},"vehicle_type_id":"4","last_reported":1703118912,"current_range_meters":28000,"station_id":"ce4bhp92rcd13ifvqhbg","pricing_plan_id":"free"},{"bike_id":"21f4a169-6e35-4a8e-94ba-dad1b033815c","system_id":"levelo_inurba_marseille","lat":43.310773,"lon":5.424279,"is_reserved":false,"is_disabled":false,"rental_uris":{"android":"levelo://app?vid=21f4a169-6e35-4a8e-94ba-dad1b033815c","ios":"levelo://app?vid=21f4a169-6e35-4a8e-94ba-dad1b033815c"},"vehicle_type_id":"4","last_reported":1703118912,"current_range_meters":3600,"station_id":"ce4bhp92rcd13ifvqhag","pricing_plan_id":"free"},{"bike_id":"6e68da4c-e104-449b-b675-1a0f7da0547c","system_id":"levelo_inurba_marseille","lat":43.310785,"lon":5.424305,"is_reserved":false,"is_disabled":false,"rental_uris":{"android":"levelo://app?vid=6e68da4c-e104-449b-b675-1a0f7da0547c","ios":"levelo://app?vid=6e68da4c-e104-449b-b675-1a0f7da0547c"},"vehicle_type_id":"4","last_reported":1703118912,"current_range_meters":27600,"station_id":"ce4bhp92rcd13ifvqhag","pricing_plan_id":"free"},{"bike_id":"f528da9a-1eb6-4d93-a267-7f75ce4161f8","system_id":"levelo_inurba_marseille","lat":43.340804,"lon":5.410219,"is_reserved":false,"is_disabled":false,"rental_uris":{"android":"levelo://app?vid=f528da9a-1eb6-4d93-a267-7f75ce4161f8","ios":"levelo://app?vid=f528da9a-1eb6-4d93-a267-7f75ce4161f8"},"vehicle_type_id":"4","last_reported":1703118912,"current_range_meters":19200,"station_id":"ce4bhqh2rcd13ifvqhlg","pricing_plan_id":"free"},{"bike_id":"974dc7db-ff3c-4554-8964-132f9db52d9b","system_id":"levelo_inurba_marseille","lat":43.276092,"lon":5.395289,"is_reserved":false,"is_disabled":false,"rental_uris":{"android":"levelo://app?vid=974dc7db-ff3c-4554-8964-132f9db52d9b","ios":"levelo://app?vid=974dc7db-ff3c-4554-8964-132f9db52d9b"},"vehicle_type_id":"4","last_reported":1703118912,"current_range_meters":1600,"station_id":"","pricing_plan_id":"free"},{"bike_id":"e373d999-397c-4d53-bf19-2a65a6442de3","system_id":"levelo_inurba_marseille","lat":43.274103,"lon":5.394016,"is_reserved":false,"is_disabled":false,"rental_uris":{"android":"levelo://app?vid=e373d999-397c-4d53-bf19-2a65a6442de3","ios":"levelo://app?vid=e373d999-397c-4d53-bf19-2a65a6442de3"},"vehicle_type_id":"4","last_reported":1703118912,"current_range_meters":22800,"station_id":"ce4bhdp2rcd13ifvqf20","pricing_plan_id":"free"},{"bike_id":"bdbd26e9-63d2-40ce-ba51-0d1a49a3bbca","system_id":"levelo_inurba_marseille","lat":43.273125,"lon":5.390731,"is_reserved":false,"is_disabled":false,"rental_uris":{"android":"levelo://app?vid=bdbd26e9-63d2-40ce-ba51-0d1a49a3bbca","ios":"levelo://app?vid=bdbd26e9-63d2-40ce-ba51-0d1a49a3bbca"},"vehicle_type_id":"4","last_reported":1703118912,"current_range_meters":6400,"station_id":"ce4bhgp2rcd13ifvqfe0","pricing_plan_id":"free"},{"bike_id":"83737df5-c160-4a79-8010-333b911649c1","system_id":"levelo_inurba_marseille","lat":43.273125,"lon":5.390731,"is_reserved":false,"is_disabled":false,"rental_uris":{"android":"levelo://app?vid=83737df5-c160-4a79-8010-333b911649c1","ios":"levelo://app?vid=83737df5-c160-4a79-8010-333b911649c1"},"vehicle_type_id":"4","last_reported":1703118912,"current_range_meters":14000,"station_id":"ce4bhgp2rcd13ifvqfe0","pricing_plan_id":"free"},{"bike_id":"46ff99bc-ea7c-44a9-9898-8644e7dbb9b0","system_id":"levelo_inurba_marseille","lat":43.274103,"lon":5.394016,"is_reserved":false,"is_disabled":false,"rental_uris":{"android":"levelo://app?vid=46ff99bc-ea7c-44a9-9898-8644e7dbb9b0","ios":"levelo://app?vid=46ff99bc-ea7c-44a9-9898-8644e7dbb9b0"},"vehicle_type_id":"4","last_reported":1703118912,"current_range_meters":30800,"station_id":"ce4bhdp2rcd13ifvqf20","pricing_plan_id":"free"},{"bike_id":"0930d870-cae6-479a-9006-cfcf1490442c","system_id":"levelo_inurba_marseille","lat":43.274099,"lon":5.394019,"is_reserved":false,"is_disabled":false,"rental_uris":{"android":"levelo://app?vid=0930d870-cae6-479a-9006-cfcf1490442c","ios":"levelo://app?vid=0930d870-cae6-479a-9006-cfcf1490442c"},"vehicle_type_id":"4","last_reported":1703118912,"current_range_meters":22400,"station_id":"ce4bhdp2rcd13ifvqf20","pricing_plan_id":"free"},{"bike_id":"98a340da-f753-4516-9884-ebd83f943ec7","system_id":"levelo_inurba_marseille","lat":43.295523,"lon":5.422926,"is_reserved":false,"is_disabled":false,"rental_uris":{"android":"levelo://app?vid=98a340da-f753-4516-9884-ebd83f943ec7","ios":"levelo://app?vid=98a340da-f753-4516-9884-ebd83f943ec7"},"vehicle_type_id":"4","last_reported":1703118912,"current_range_meters":31200,"station_id":"ce4bhph2rcd13ifvqhdg","pricing_plan_id":"free"},{"bike_id":"b55db1a0-b820-479b-9929-7610c21584c5","system_id":"levelo_inurba_marseille","lat":43.295511,"lon":5.422926,"is_reserved":false,"is_disabled":false,"rental_uris":{"android":"levelo://app?vid=b55db1a0-b820-479b-9929-7610c21584c5","ios":"levelo://app?vid=b55db1a0-b820-479b-9929-7610c21584c5"},"vehicle_type_id":"4","last_reported":1703118912,"current_range_meters":20800,"station_id":"ce4bhph2rcd13ifvqhdg","pricing_plan_id":"free"},{"bike_id":"7c676a95-1db7-4ff9-8d6e-22bd2a2ea320","system_id":"levelo_inurba_marseille","lat":43.278128,"lon":5.407195,"is_reserved":false,"is_disabled":false,"rental_uris":{"android":"levelo://app?vid=7c676a95-1db7-4ff9-8d6e-22bd2a2ea320","ios":"levelo://app?vid=7c676a95-1db7-4ff9-8d6e-22bd2a2ea320"},"vehicle_type_id":"4","last_reported":1703118912,"current_range_meters":26000,"station_id":"ce4bhnh2rcd13ifvqgtg","pricing_plan_id":"free"},{"bike_id":"d0eda7a8-6590-4df2-9cf0-0465bef86fe9","system_id":"levelo_inurba_marseille","lat":43.278128,"lon":5.407195,"is_reserved":false,"is_disabled":false,"rental_uris":{"android":"levelo://app?vid=d0eda7a8-6590-4df2-9cf0-0465bef86fe9","ios":"levelo://app?vid=d0eda7a8-6590-4df2-9cf0-0465bef86fe9"},"vehicle_type_id":"4","last_reported":1703118912,"current_range_meters":9600,"station_id":"ce4bhnh2rcd13ifvqgtg","pricing_plan_id":"free"},{"bike_id":"21a34569-8594-42a0-8533-00e3a5db301d","system_id":"levelo_inurba_marseille","lat":43.278128,"lon":5.407195,"is_reserved":false,"is_disabled":false,"rental_uris":{"android":"levelo://app?vid=21a34569-8594-42a0-8533-00e3a5db301d","ios":"levelo://app?vid=21a34569-8594-42a0-8533-00e3a5db301d"},"vehicle_type_id":"4","last_reported":1703118912,"current_range_meters":24000,"station_id":"ce4bhnh2rcd13ifvqgtg","pricing_plan_id":"free"},{"bike_id":"35d387df-82f5-4f2c-9bff-40eba01fd9e9","system_id":"levelo_inurba_marseille","lat":43.278128,"lon":5.407195,"is_reserved":false,"is_disabled":false,"rental_uris":{"android":"levelo://app?vid=35d387df-82f5-4f2c-9bff-40eba01fd9e9","ios":"levelo://app?vid=35d387df-82f5-4f2c-9bff-40eba01fd9e9"},"vehicle_type_id":"4","last_reported":1703118912,"current_range_meters":22800,"station_id":"ce4bhnh2rcd13ifvqgtg","pricing_plan_id":"free"},{"bike_id":"facac6ea-f55a-40f5-a017-daab9dfeeaca","system_id":"levelo_inurba_marseille","lat":43.278128,"lon":5.407195,"is_reserved":false,"is_disabled":false,"rental_uris":{"android":"levelo://app?vid=facac6ea-f55a-40f5-a017-daab9dfeeaca","ios":"levelo://app?vid=facac6ea-f55a-40f5-a017-daab9dfeeaca"},"vehicle_type_id":"4","last_reported":1703118912,"current_range_meters":20400,"station_id":"ce4bhnh2rcd13ifvqgtg","pricing_plan_id":"free"},{"bike_id":"1cf29c8c-3aa7-45da-9151-6233028e2361","system_id":"levelo_inurba_marseille","lat":43.278128,"lon":5.407195,"is_reserved":false,"is_disabled":false,"rental_uris":{"android":"levelo://app?vid=1cf29c8c-3aa7-45da-9151-6233028e2361","ios":"levelo://app?vid=1cf29c8c-3aa7-45da-9151-6233028e2361"},"vehicle_type_id":"4","last_reported":1703118912,"current_range_meters":31200,"station_id":"ce4bhnh2rcd13ifvqgtg","pricing_plan_id":"free"},{"bike_id":"74943036-25cd-4db1-9d64-a6233819c22c","system_id":"levelo_inurba_marseille","lat":43.278128,"lon":5.407195,"is_reserved":false,"is_disabled":false,"rental_uris":{"android":"levelo://app?vid=74943036-25cd-4db1-9d64-a6233819c22c","ios":"levelo://app?vid=74943036-25cd-4db1-9d64-a6233819c22c"},"vehicle_type_id":"4","last_reported":1703118912,"current_range_meters":31200,"station_id":"ce4bhnh2rcd13ifvqgtg","pricing_plan_id":"free"},{"bike_id":"b5256d90-edcd-4464-ba20-d3a39a54a145","system_id":"levelo_inurba_marseille","lat":43.278128,"lon":5.407195,"is_reserved":false,"is_disabled":false,"rental_uris":{"android":"levelo://app?vid=b5256d90-edcd-4464-ba20-d3a39a54a145","ios":"levelo://app?vid=b5256d90-edcd-4464-ba20-d3a39a54a145"},"vehicle_type_id":"4","last_reported":1703118912,"current_range_meters":23200,"station_id":"ce4bhnh2rcd13ifvqgtg","pricing_plan_id":"free"},{"bike_id":"5b36257d-ef41-46f7-b3c8-9b89497d0d40","system_id":"levelo_inurba_marseille","lat":43.269467,"lon":5.386439,"is_reserved":false,"is_disabled":false,"rental_uris":{"android":"levelo://app?vid=5b36257d-ef41-46f7-b3c8-9b89497d0d40","ios":"levelo://app?vid=5b36257d-ef41-46f7-b3c8-9b89497d0d40"},"vehicle_type_id":"4","last_reported":1703118912,"current_range_meters":22400,"station_id":"ce4bhh92rcd13ifvqfh0","pricing_plan_id":"free"},{"bike_id":"15e97754-3170-45f7-876f-aac75b656ea9","system_id":"levelo_inurba_marseille","lat":43.279465,"lon":5.410561,"is_reserved":false,"is_disabled":false,"rental_uris":{"android":"levelo://app?vid=15e97754-3170-45f7-876f-aac75b656ea9","ios":"levelo://app?vid=15e97754-3170-45f7-876f-aac75b656ea9"},"vehicle_type_id":"4","last_reported":1703118912,"current_range_meters":4000,"station_id":"ce4bhnp2rcd13ifvqh0g","pricing_plan_id":"free"},{"bike_id":"f7e08b9a-88d2-4651-96e8-a7dd52992655","system_id":"levelo_inurba_marseille","lat":43.279482,"lon":5.410522,"is_reserved":false,"is_disabled":false,"rental_uris":{"android":"levelo://app?vid=f7e08b9a-88d2-4651-96e8-a7dd52992655","ios":"levelo://app?vid=f7e08b9a-88d2-4651-96e8-a7dd52992655"},"vehicle_type_id":"4","last_reported":1703118912,"current_range_meters":5200,"station_id":"ce4bhnp2rcd13ifvqh0g","pricing_plan_id":"free"},{"bike_id":"8e1585b9-7f04-4bd0-9a19-87d13533922c","system_id":"levelo_inurba_marseille","lat":43.26681,"lon":5.382694,"is_reserved":false,"is_disabled":false,"rental_uris":{"android":"levelo://app?vid=8e1585b9-7f04-4bd0-9a19-87d13533922c","ios":"levelo://app?vid=8e1585b9-7f04-4bd0-9a19-87d13533922c"},"vehicle_type_id":"4","last_reported":1703118912,"current_range_meters":29200,"station_id":"ce4bhg92rcd13ifvqf90","pricing_plan_id":"free"},{"bike_id":"28409cfa-9604-442b-9a4d-7f70005b036e","system_id":"levelo_inurba_marseille","lat":43.26681,"lon":5.382694,"is_reserved":false,"is_disabled":false,"rental_uris":{"android":"levelo://app?vid=28409cfa-9604-442b-9a4d-7f70005b036e","ios":"levelo://app?vid=28409cfa-9604-442b-9a4d-7f70005b036e"},"vehicle_type_id":"4","last_reported":1703118912,"current_range_meters":4000,"station_id":"ce4bhg92rcd13ifvqf90","pricing_plan_id":"free"},{"bike_id":"3a70e7f8-3b22-4487-b0ed-f7fe858cc0e5","system_id":"levelo_inurba_marseille","lat":43.265714,"lon":5.372891,"is_reserved":false,"is_disabled":false,"rental_uris":{"android":"levelo://app?vid=3a70e7f8-3b22-4487-b0ed-f7fe858cc0e5","ios":"levelo://app?vid=3a70e7f8-3b22-4487-b0ed-f7fe858cc0e5"},"vehicle_type_id":"4","last_reported":1703118912,"current_range_meters":23200,"station_id":"ce4bhg12rcd13ifvqf70","pricing_plan_id":"free"},{"bike_id":"6ae8773f-81f8-4a7f-9658-397efcbaff7f","system_id":"levelo_inurba_marseille","lat":43.26681,"lon":5.382694,"is_reserved":false,"is_disabled":false,"rental_uris":{"android":"levelo://app?vid=6ae8773f-81f8-4a7f-9658-397efcbaff7f","ios":"levelo://app?vid=6ae8773f-81f8-4a7f-9658-397efcbaff7f"},"vehicle_type_id":"4","last_reported":1703118912,"current_range_meters":30800,"station_id":"ce4bhg92rcd13ifvqf90","pricing_plan_id":"free"},{"bike_id":"21e6a405-cb82-4fef-b028-74de116858bd","system_id":"levelo_inurba_marseille","lat":43.27996,"lon":5.416624,"is_reserved":false,"is_disabled":false,"rental_uris":{"android":"levelo://app?vid=21e6a405-cb82-4fef-b028-74de116858bd","ios":"levelo://app?vid=21e6a405-cb82-4fef-b028-74de116858bd"},"vehicle_type_id":"4","last_reported":1703118912,"current_range_meters":27200,"station_id":"ce4bho12rcd13ifvqh1g","pricing_plan_id":"free"},