{"last_updated":1725916054,"ttl":30,"version":"2.2","data":{"bikes":[{"bike_id":"d36cd616-1929-46bf-906b-a397ba881043","system_id":"levelo_inurba_marseille","lat":43.31229,"lon":5.36815,"is_reserved":false,"is_disabled":false,"rental_uris":{"android":"levelo://app?vid=d36cd616-1929-46bf-906b-a397ba881043","ios":"levelo://app?vid=d36cd616-1929-46bf-906b-a397ba881043"},"vehicle_type_id":"4","last_reported":1725916054,"current_range_meters":31200,"station_id":"ce4bgl92rcd13ifvqbq0","pricing_plan_id":"cebpf4jnsgd1na2vs0mg"},{"bike_id":"62fbf3f9-acda-4c94-813f-38d728689d5a","system_id":"levelo_inurba_marseille","lat":43.31246,"lon":5.368577,"is_reserved":false,"is_disabled":false,"rental_uris":{"android":"levelo://app?vid=62fbf3f9-acda-4c94-813f-38d728689d5a","ios":"levelo://app?vid=62fbf3f9-acda-4c94-813f-38d728689d5a"},"vehicle_type_id":"4","last_reported":1725916054,"current_range_meters":17200,"station_id":"ce4bgl92rcd13ifvqbq0","pricing_plan_id":"cebpf4jnsgd1na2vs0mg"},{"bike_id":"12a26661-4891-4c3c-9605-78b89cadbe41","system_id":"levelo_inurba_marseille","lat":43.312239,"lon":5.368562,"is_reserved":false,"is_disabled":false,"rental_uris":{"android":"levelo://app?vid=12a26661-4891-4c3c-9605-78b89cadbe41","ios":"levelo://app?vid=12a26661-4891-4c3c-9605-78b89cadbe41"},"vehicle_type_id":"4","last_reported":1725916054,"current_range_meters":12800,"station_id":"ce4bgl92rcd13ifvqbq0","pricing_plan_id":"cebpf4jnsgd1na2vs0mg"},{"bike_id":"07ad0880-444c-4adb-8726-8c335f915e4a","system_id":"levelo_inurba_marseille","lat":43.31229,"lon":5.36866,"is_reserved":false,"is_disabled":false,"rental_uris":{"android":"levelo://app?vid=07ad0880-444c-4adb-8726-8c335f915e4a","ios":"levelo://app?vid=07ad0880-444c-4adb-8726-8c335f915e4a"},"vehicle_type_id":"4","last_reported":1725916054,"current_range_meters":26000,"station_id":"ce4bgl92rcd13ifvqbq0","pricing_plan_id":"cebpf4jnsgd1na2vs0mg"},{"bike_id":"8f9afda2-acfd-4040-827b-63fb0312e1db","system_id":"levelo_inurba_marseille","lat":43.312239,"lon":5.368562,"is_reserved":false,"is_disabled":false,"rental_uris":{"android":"levelo://app?vid=8f9afda2-acfd-4040-827b-63fb0312e1db","ios":"levelo://app?vid=8f9afda2-acfd-4040-827b-63fb0312e1db"},"vehicle_type_id":"4","last_reported":1725916054,"current_range_meters":14000,"station_id":"ce4bgl92rcd13ifvqbq0","pricing_plan_id":"cebpf4jnsgd1na2vs0mg"},{"bike_id":"cd9c5480-d96e-4ed5-9680-bf6c22cae76a","system_id":"levelo_inurba_marseille","lat":43.312239,"lon":5.368562,"is_reserved":false,"is_disabled":false,"rental_uris":{"android":"levelo://app?vid=cd9c5480-d96e-4ed5-9680-bf6c22cae76a","ios":"levelo://app?vid=cd9c5480-d96e-4ed5-9680-bf6c22cae76a"},"vehicle_type_id":"4","last_reported":1725916054,"current_range_meters":31200,"station_id":"ce4bgl92rcd13ifvqbq0","pricing_plan_id":"cebpf4jnsgd1na2vs0mg"},{"bike_id":"0325b390-b481-4f60-b611-7c46888adbc0","system_id":"levelo_inurba_marseille","lat":43.30904,"lon":5.36845,"is_reserved":false,"is_disabled":false,"rental_uris":{"android":"levelo://app?vid=0325b390-b481-4f60-b611-7c46888adbc0","ios":"levelo://app?vid=0325b390-b481-4f60-b611-7c46888adbc0"},"vehicle_type_id":"4","last_reported":1725916054,"current_range_meters":9600,"station_id":"ce4bgn92rcd13ifvqbvg","pricing_plan_id":"cebpf4jnsgd1na2vs0mg"},{"bike_id":"1e0d14eb-678c-4618-a48c-760976de4df6","system_id":"levelo_inurba_marseille","lat":43.314811,"lon":5.373103,"is_reserved":false,"is_disabled":false,"rental_uris":{"android":"levelo://app?vid=1e0d14eb-678c-4618-a48c-760976de4df6","ios":"levelo://app?vid=1e0d14eb-678c-4618-a48c-760976de4df6"},"vehicle_type_id":"4","last_reported":1725916054,"current_range_meters":21200,"station_id":"ce4bgt12rcd13ifvqcd0","pricing_plan_id":"cebpf4jnsgd1na2vs0mg"},{"bike_id":"4b832ec0-9cef-492b-be4a-e7031e5196a0","system_id":"levelo_inurba_marseille","lat":43.314811,"lon":5.373104,"is_reserved":false,"is_disabled":false,"rental_uris":{"android":"levelo://app?vid=4b832ec0-9cef-492b-be4a-e7031e5196a0","ios":"levelo://app?vid=4b832ec0-9cef-492b-be4a-e7031e5196a0"},"vehicle_type_id":"4","last_reported":1725916054,"current_range_meters":26800,"station_id":"ce4bgt12rcd13ifvqcd0","pricing_plan_id":"cebpf4jnsgd1na2vs0mg"},{"bike_id":"b5b7c1b8-03e1-4047-9b4c-4168fc73093f","system_id":"levelo_inurba_marseille","lat":43.314811,"lon":5.373103,"is_reserved":false,"is_disabled":false,"rental_uris":{"android":"levelo://app?vid=b5b7c1b8-03e1-4047-9b4c-4168fc73093f","ios":"levelo://app?vid=b5b7c1b8-03e1-4047-9b4c-4168fc73093f"},"vehicle_type_id":"4","last_reported":1725916054,"current_range_meters":31200,"station_id":"ce4bgt12rcd13ifvqcd0","pricing_plan_id":"cebpf4jnsgd1na2vs0mg"},{"bike_id":"e54bcf0b-b926-4011-9fe2-86f8ca22f7ca","system_id":"levelo_inurba_marseille","lat":43.314811,"lon":5.373103,"is_reserved":false,"is_disabled":false,"rental_uris":{"android":"levelo://app?vid=e54bcf0b-b926-4011-9fe2-86f8ca22f7ca","ios":"levelo://app?vid=e54bcf0b-b926-4011-9fe2-86f8ca22f7ca"},"vehicle_type_id":"4","last_reported":1725916054,"current_range_meters":9600,"station_id":"ce4bgt12rcd13ifvqcd0","pricing_plan_id":"cebpf4jnsgd1na2vs0mg"},{"bike_id":"9b06b34c-8d55-48da-bea3-355e3b9cdc72","system_id":"levelo_inurba_marseille","lat":43.31499,"lon":5.373069,"is_reserved":false,"is_disabled":false,"rental_uris":{"android":"levelo://app?vid=9b06b34c-8d55-48da-bea3-355e3b9cdc72","ios":"levelo://app?vid=9b06b34c-8d55-48da-bea3-355e3b9cdc72"},"vehicle_type_id":"4","last_reported":1725916054,"current_range_meters":31200,"station_id":"ce4bgt12rcd13ifvqcd0","pricing_plan_id":"cebpf4jnsgd1na2vs0mg"},{"bike_id":"4dae85f6-c23d-4976-ab21-804ad9bb0737","system_id":"levelo_inurba_marseille","lat":43.314811,"lon":5.373104,"is_reserved":false,"is_disabled":false,"rental_uris":{"android":"levelo://app?vid=4dae85f6-c23d-4976-ab21-804ad9bb0737","ios":"levelo://app?vid=4dae85f6-c23d-4976-ab21-804ad9bb0737"},"vehicle_type_id":"4","last_reported":1725916054,"current_range_meters":29200,"station_id":"ce4bgt12rcd13ifvqcd0","pricing_plan_id":"cebpf4jnsgd1na2vs0mg"},{"bike_id":"2220ae40-b7e6-471c-8858-3aaf3bc43da0","system_id":"levelo_inurba_marseille","lat":43.314811,"lon":5.373104,"is_reserved":false,"is_disabled":false,"rental_uris":{"android":"levelo://app?vid=2220ae40-b7e6-471c-8858-3aaf3bc43da0","ios":"levelo://app?vid=2220ae40-b7e6-471c-8858-3aaf3bc43da0"},"vehicle_type_id":"4","last_reported":1725916054,"current_range_meters":29200,"station_id":"ce4bgt12rcd13ifvqcd0","pricing_plan_id":"cebpf4jnsgd1na2vs0mg"},{"bike_id":"2f691c98-e96b-4c91-9dbc-3efebfde51ca","system_id":"levelo_inurba_marseille","lat":43.31501,"lon":5.37312,"is_reserved":false,"is_disabled":false,"rental_uris":{"android":"levelo://app?vid=2f691c98-e96b-4c91-9dbc-3efebfde51ca","ios":"levelo://app?vid=2f691c98-e96b-4c91-9dbc-3efebfde51ca"},"vehicle_type_id":"4","last_reported":1725916054,"current_range_meters":30800,"station_id":"ce4bgt12rcd13ifvqcd0","pricing_plan_id":"cebpf4jnsgd1na2vs0mg"},{"bike_id":"86750fd1-c979-431c-8f1d-c6158b6a0578","system_id":"levelo_inurba_marseille","lat":43.309039,"lon":5.371797,"is_reserved":false,"is_disabled":false,"rental_uris":{"android":"levelo://app?vid=86750fd1-c979-431c-8f1d-c6158b6a0578","ios":"levelo://app?vid=86750fd1-c979-431c-8f1d-c6158b6a0578"},"vehicle_type_id":"4","last_reported":1725916054,"current_range_meters":31200,"station_id":"ce4bguh2rcd13ifvqckg","pricing_plan_id":"cebpf4jnsgd1na2vs0mg"},{"bike_id":"1ee9573f-56a6-45bd-9f05-8b653f40e172","system_id":"levelo_inurba_marseille","lat":43.309039,"lon":5.371797,"is_reserved":false,"is_disabled":false,"rental_uris":{"android":"levelo://app?vid=1ee9573f-56a6-45bd-9f05-8b653f40e172","ios":"levelo://app?vid=1ee9573f-56a6-45bd-9f05-8b653f40e172"},"vehicle_type_id":"4","last_reported":1725916054,"current_range_meters":29200,"station_id":"ce4bguh2rcd13ifvqckg","pricing_plan_id":"cebpf4jnsgd1na2vs0mg"},{"bike_id":"a0938e7d-d174-45dc-9e5e-9e5eea76923d","system_id":"levelo_inurba_marseille","lat":43.309034,"lon":5.371783,"is_reserved":false,"is_disabled":false,"rental_uris":{"android":"levelo://app?vid=a0938e7d-d174-45dc-9e5e-9e5eea76923d","ios":"levelo://app?vid=a0938e7d-d174-45dc-9e5e-9e5eea76923d"},"vehicle_type_id":"4","last_reported":1725916054,"current_range_meters":26400,"station_id":"ce4bguh2rcd13ifvqckg","pricing_plan_id":"cebpf4jnsgd1na2vs0mg"},{"bike_id":"271028dc-10ab-4dd0-8f84-c17acd5bcb03","system_id":"levelo_inurba_marseille","lat":43.309039,"lon":5.371797,"is_reserved":false,"is_disabled":false,"rental_uris":{"android":"levelo://app?vid=271028dc-10ab-4dd0-8f84-c17acd5bcb03","ios":"levelo://app?vid=271028dc-10ab-4dd0-8f84-c17acd5bcb03"},"vehicle_type_id":"4","last_reported":1725916054,"current_range_meters":30000,"station_id":"ce4bguh2rcd13ifvqckg","pricing_plan_id":"cebpf4jnsgd1na2vs0mg"},{"bike_id":"88b5af2c-7070-4f41-ad28-5521830b7059","system_id":"levelo_inurba_marseille","lat":43.309039,"lon":5.371797,"is_reserved":false,"is_disabled":false,"rental_uris":{"android":"levelo://app?vid=88b5af2c-7070-4f41-ad28-5521830b7059","ios":"levelo://app?vid=88b5af2c-7070-4f41-ad28-5521830b7059"},"vehicle_type_id":"4","last_reported":1725916054,"current_range_meters":14000,"station_id":"ce4bguh2rcd13ifvqckg","pricing_plan_id":"cebpf4jnsgd1na2vs0mg"},{"bike_id":"7c183008-cfe3-44f4-8228-f7ac693cf7fa","system_id":"levelo_inurba_marseille","lat":43.305989,"lon":5.37225,"is_reserved":false,"is_disabled":false,"rental_uris":{"android":"levelo://app?vid=7c183008-cfe3-44f4-8228-f7ac693cf7fa","ios":"levelo://app?vid=7c183008-cfe3-44f4-8228-f7ac693cf7fa"},"vehicle_type_id":"4","last_reported":1725916054,"current_range_meters":30400,"station_id":"ce4bgqh2rcd13ifvqc4g","pricing_plan_id":"cebpf4jnsgd1na2vs0mg"},{"bike_id":"f7b0b166-7572-46c7-a59f-75a8cccdceac","system_id":"levelo_inurba_marseille","lat":43.305989,"lon":5.37225,"is_reserved":false,"is_disabled":false,"rental_uris":{"android":"levelo://app?vid=f7b0b166-7572-46c7-a59f-75a8cccdceac","ios":"levelo://app?vid=f7b0b166-7572-46c7-a59f-75a8cccdceac"},"vehicle_type_id":"4","last_reported":1725916054,"current_range_meters":12800,"station_id":"ce4bgqh2rcd13ifvqc4g","pricing_plan_id":"cebpf4jnsgd1na2vs0mg"},{"bike_id":"f316f96c-0a31-443a-bda9-9385d9c547ad","system_id":"levelo_inurba_marseille","lat":43.305989,"lon":5.37225,"is_reserved":false,"is_disabled":false,"rental_uris":{"android":"levelo://app?vid=f316f96c-0a31-443a-bda9-9385d9c547ad","ios":"levelo://app?vid=f316f96c-0a31-443a-bda9-9385d9c547ad"},"vehicle_type_id":"4","last_reported":1725916054,"current_range_meters":10800,"station_id":"ce4bgqh2rcd13ifvqc4g","pricing_plan_id":"cebpf4jnsgd1na2vs0mg"},{"bike_id":"ee226df9-9498-4aa6-9498-e898c87a5043","system_id":"levelo_inurba_marseille","lat":43.305989,"lon":5.37225,"is_reserved":false,"is_disabled":false,"rental_uris":{"android":"levelo://app?vid=ee226df9-9498-4aa6-9498-e898c87a5043","ios":"levelo://app?vid=ee226df9-9498-4aa6-9498-e898c87a5043"},"vehicle_type_id":"4","last_reported":1725916054,"current_range_meters":11200,"station_id":"ce4bgqh2rcd13ifvqc4g","pricing_plan_id":"cebpf4jnsgd1na2vs0mg"},{"bike_id":"a7728941-1f67-43c9-bc95-d2f59a52da02","system_id":"levelo_inurba_marseille","lat":43.305989,"lon":5.37225,"is_reserved":false,"is_disabled":false,"rental_uris":{"android":"levelo://app?vid=a7728941-1f67-43c9-bc95-d2f59a52da02","ios":"levelo://app?vid=a7728941-1f67-43c9-bc95-d2f59a52da02"},"vehicle_type_id":"4","last_reported":1725916054,"current_range_meters":30000,"station_id":"ce4bgqh2rcd13ifvqc4g","pricing_plan_id":"cebpf4jnsgd1na2vs0mg"},{"bike_id":"87bad489-35a9-4060-9555-4c0528537eec","system_id":"levelo_inurba_marseille","lat":43.305989,"lon":5.37225,"is_reserved":false,"is_disabled":false,"rental_uris":{"android":"levelo://app?vid=87bad489-35a9-4060-9555-4c0528537eec","ios":"levelo://app?vid=87bad489-35a9-4060-9555-4c0528537eec"},"vehicle_type_id":"4","last_reported":1725916054,"current_range_meters":21600,"station_id":"ce4bgqh2rcd13ifvqc4g","pricing_plan_id":"cebpf4jnsgd1na2vs0mg"},{"bike_id":"4b5112f3-aaf4-418b-a8f5-2632b8bdfc23","system_id":"levelo_inurba_marseille","lat":43.309589,"lon":5.390258,"is_reserved":false,"is_disabled":false,"rental_uris":{"android":"levelo://app?vid=4b5112f3-aaf4-418b-a8f5-2632b8bdfc23","ios":"levelo://app?vid=4b5112f3-aaf4-418b-a8f5-2632b8bdfc23"},"vehicle_type_id":"4","last_reported":1725916054,"current_range_meters":14800,"station_id":"ce4bgup2rcd13ifvqco0","pricing_plan_id":"cebpf4jnsgd1na2vs0mg"},{"bike_id":"b11a97d2-854a-461b-92c9-44fa8afc32a4","system_id":"levelo_inurba_marseille","lat":43.311151,"lon":5.377625,"is_reserved":false,"is_disabled":false,"rental_uris":{"android":"levelo://app?vid=b11a97d2-854a-461b-92c9-44fa8afc32a4","ios":"levelo://app?vid=b11a97d2-854a-461b-92c9-44fa8afc32a4"},"vehicle_type_id":"4","last_reported":1725916054,"current_range_meters":31200,"station_id":"ce4bgt92rcd13ifvqcg0","pricing_plan_id":"cebpf4jnsgd1na2vs0mg"},{"bike_id":"f27eaf5b-714a-4650-bcbc-ddc1b779af73","system_id":"levelo_inurba_marseille","lat":43.311131,"lon":5.377651,"is_reserved":false,"is_disabled":false,"rental_uris":{"android":"levelo://app?vid=f27eaf5b-714a-4650-bcbc-ddc1b779af73","ios":"levelo://app?vid=f27eaf5b-714a-4650-bcbc-ddc1b779af73"},"vehicle_type_id":"4","last_reported":1725916054,"current_range_meters":0,"station_id":"ce4bgt92rcd13ifvqcg0","pricing_plan_id":"cebpf4jnsgd1na2vs0mg"},{"bike_id":"85fcc773-046a-4fe1-9049-c6123b989d40","system_id":"levelo_inurba_marseille","lat":43.311131,"lon":5.377651,"is_reserved":false,"is_disabled":false,"rental_uris":{"android":"levelo://app?vid=85fcc773-046a-4fe1-9049-c6123b989d40","ios":"levelo://app?vid=85fcc773-046a-4fe1-9049-c6123b989d40"},"vehicle_type_id":"4","last_reported":1725916054,"current_range_meters":31200,"station_id":"ce4bgt92rcd13ifvqcg0","pricing_plan_id":"cebpf4jnsgd1na2vs0mg"},{"bike_id":"4661730b-3e7f-4ee2-93e5-b127a5bc69bc","system_id":"levelo_inurba_marseille","lat":43.311131,"lon":5.377651,"is_reserved":false,"is_disabled":false,"rental_uris":{"android":"levelo://app?vid=4661730b-3e7f-4ee2-93e5-b127a5bc69bc","ios":"levelo://app?vid=4661730b-3e7f-4ee2-93e5-b127a5bc69bc"},"vehicle_type_id":"4","last_reported":1725916054,"current_range_meters":22800,"station_id":"ce4bgt92rcd13ifvqcg0","pricing_plan_id":"cebpf4jnsgd1na2vs0mg"},{"bike_id":"a0213e85-b868-4138-bb44-ed76578e9038","system_id":"levelo_inurba_marseille","lat":43.311131,"lon":5.377651,"is_reserved":false,"is_disabled":false,"rental_uris":{"android":"levelo://app?vid=a0213e85-b868-4138-bb44-ed76578e9038","ios":"levelo://app?vid=a0213e85-b868-4138-bb44-ed76578e9038"},"vehicle_type_id":"4","last_reported":1725916054,"current_range_meters":30800,"station_id":"ce4bgt92rcd13ifvqcg0","pricing_plan_id":"cebpf4jnsgd1na2vs0mg"},{"bike_id":"9ea91b20-dc2b-4028-b9a8-15304bcfd07b","system_id":"levelo_inurba_marseille","lat":43.311131,"lon":5.377651,"is_reserved":false,"is_disabled":false,"rental_uris":{"android":"levelo://app?vid=9ea91b20-dc2b-4028-b9a8-15304bcfd07b","ios":"levelo://app?vid=9ea91b20-dc2b-4028-b9a8-15304bcfd07b"},"vehicle_type_id":"4","last_reported":1725916054,"current_range_meters":22000,"station_id":"ce4bgt92rcd13ifvqcg0","pricing_plan_id":"cebpf4jnsgd1na2vs0mg"},{"bike_id":"8d314902-ccfe-49cc-a97c-c6d8a57bbaa2","system_id":"levelo_inurba_marseille","lat":43.30788,"lon":5.37634,"is_reserved":false,"is_disabled":false,"rental_uris":{"android":"levelo://app?vid=8d314902-ccfe-49cc-a97c-c6d8a57bbaa2","ios":"levelo://app?vid=8d314902-ccfe-49cc-a97c-c6d8a57bbaa2"},"vehicle_type_id":"4","last_reported":1725916054,"current_range_meters":14400,"station_id":"ce4bgv92rcd13ifvqcq0","pricing_plan_id":"cebpf4jnsgd1na2vs0mg"},{"bike_id":"8d0c7e40-6e2c-41cf-af94-7818bd476cb2","system_id":"levelo_inurba_marseille","lat":43.30799,"lon":5.37648,"is_reserved":false,"is_disabled":false,"rental_uris":{"android":"levelo://app?vid=8d0c7e40-6e2c-41cf-af94-7818bd476cb2","ios":"levelo://app?vid=8d0c7e40-6e2c-41cf-af94-7818bd476cb2"},"vehicle_type_id":"4","last_reported":1725916054,"current_range_meters":31200,"station_id":"ce4bgv92rcd13ifvqcq0","pricing_plan_id":"cebpf4jnsgd1na2vs0mg"},{"bike_id":"cbcc2ebd-8c85-4db5-90db-a5c4bb41b28e","system_id":"levelo_inurba_marseille","lat":43.30787,"lon":5.37643,"is_reserved":false,"is_disabled":false,"rental_uris":{"android":"levelo://app?vid=cbcc2ebd-8c85-4db5-90db-a5c4bb41b28e","ios":"levelo://app?vid=cbcc2ebd-8c85-4db5-90db-a5c4bb41b28e"},"vehicle_type_id":"4","last_reported":1725916054,"current_range_meters":11600,"station_id":"ce4bgv92rcd13ifvqcq0","pricing_plan_id":"cebpf4jnsgd1na2vs0mg"},{"bike_id":"80468165-cb77-415b-8f75-c32eda03cc95","system_id":"levelo_inurba_marseille","lat":43.30796,"lon":5.37653,"is_reserved":false,"is_disabled":false,"rental_uris":{"android":"levelo://app?vid=80468165-cb77-415b-8f75-c32eda03cc95","ios":"levelo://app?vid=80468165-cb77-415b-8f75-c32eda03cc95"},"vehicle_type_id":"4","last_reported":1725916054,"current_range_meters":31200,"station_id":"ce4bgv92rcd13ifvqcq0","pricing_plan_id":"cebpf4jnsgd1na2vs0mg"},{"bike_id":"74d320a2-1c48-4ff8-8969-e4bfb9e3fe78","system_id":"levelo_inurba_marseille","lat":43.30784,"lon":5.37642,"is_reserved":false,"is_disabled":false,"rental_uris":{"android":"levelo://app?vid=74d320a2-1c48-4ff8-8969-e4bfb9e3fe78","ios":"levelo://app?vid=74d320a2-1c48-4ff8-8969-e4bfb9e3fe78"},"vehicle_type_id":"4","last_reported":1725916054,"current_range_meters":23200,"station_id":"ce4bgv92rcd13ifvqcq0","pricing_plan_id":"cebpf4jnsgd1na2vs0mg"},{"bike_id":"b93353dd-d9ae-4359-8c12-31633ae86b6e","system_id":"levelo_inurba_marseille","lat":43.307945,"lon":5.376487,"is_reserved":false,"is_disabled":false,"rental_uris":{"android":"levelo://app?vid=b93353dd-d9ae-4359-8c12-31633ae86b6e","ios":"levelo://app?vid=b93353dd-d9ae-4359-8c12-31633ae86b6e"},"vehicle_type_id":"4","last_reported":1725916054,"current_range_meters":8800,"station_id":"ce4bgv92rcd13ifvqcq0","pricing_plan_id":"cebpf4jnsgd1na2vs0mg"},{"bike_id":"a8d1e5f4-0e81-40b1-bdeb-59bc3c52bddb","system_id":"levelo_inurba_marseille","lat":43.307945,"lon":5.376487,"is_reserved":false,"is_disabled":false,"rental_uris":{"android":"levelo://app?vid=a8d1e5f4-0e81-40b1-bdeb-59bc3c52bddb","ios":"levelo://app?vid=a8d1e5f4-0e81-40b1-bdeb-59bc3c52bddb"},"vehicle_type_id":"4","last_reported":1725916054,"current_range_meters":29200,"station_id":"ce4bgv92rcd13ifvqcq0","pricing_plan_id":"cebpf4jnsgd1na2vs0mg"},{"bike_id":"ccd25afa-4b72-418d-90c3-3a34b636d073","system_id":"levelo_inurba_marseille","lat":43.30784,"lon":5.37651,"is_reserved":false,"is_disabled":false,"rental_uris":{"android":"levelo://app?vid=ccd25afa-4b72-418d-90c3-3a34b636d073","ios":"levelo://app?vid=ccd25afa-4b72-418d-90c3-3a34b636d073"},"vehicle_type_id":"4","last_reported":1725916054,"current_range_meters":5600,"station_id":"ce4bgv92rcd13ifvqcq0","pricing_plan_id":"cebpf4jnsgd1na2vs0mg"},{"bike_id":"0cdc1616-ac07-417c-843b-3d2b82dee010","system_id":"levelo_inurba_marseille","lat":43.30787,"lon":5.3766,"is_reserved":false,"is_disabled":false,"rental_uris":{"android":"levelo://app?vid=0cdc1616-ac07-417c-843b-3d2b82dee010","ios":"levelo://app?vid=0cdc1616-ac07-417c-843b-3d2b82dee010"},"vehicle_type_id":"4","last_reported":1725916054,"current_range_meters":25200,"station_id":"ce4bgv92rcd13ifvqcq0","pricing_plan_id":"cebpf4jnsgd1na2vs0mg"},{"bike_id":"6a577c9d-9785-4d7b-9e4f-4da119c9c7db","system_id":"levelo_inurba_marseille","lat":43.30784,"lon":5.37659,"is_reserved":false,"is_disabled":false,"rental_uris":{"android":"levelo://app?vid=6a577c9d-9785-4d7b-9e4f-4da119c9c7db","ios":"levelo://app?vid=6a577c9d-9785-4d7b-9e4f-4da119c9c7db"},"vehicle_type_id":"4","last_reported":1725916054,"current_range_meters":23200,"station_id":"ce4bgv92rcd13ifvqcq0","pricing_plan_id":"cebpf4jnsgd1na2vs0mg"},{"bike_id":"54d5a1b0-dbcb-4c20-8ea2-5d1a25e56c9a","system_id":"levelo_inurba_marseille","lat":43.317075,"lon":5.377367,"is_reserved":false,"is_disabled":false,"rental_uris":{"android":"levelo://app?vid=54d5a1b0-dbcb-4c20-8ea2-5d1a25e56c9a","ios":"levelo://app?vid=54d5a1b0-dbcb-4c20-8ea2-5d1a25e56c9a"},"vehicle_type_id":"4","last_reported":1725916054,"current_range_meters":16800,"station_id":"ce4bgth2rcd13ifvqch0","pricing_plan_id":"cebpf4jnsgd1na2vs0mg"},{"bike_id":"9628780e-be4d-4271-bc8e-a6042aa16a30","system_id":"levelo_inurba_marseille","lat":43.317075,"lon":5.377367,"is_reserved":false,"is_disabled":false,"rental_uris":{"android":"levelo://app?vid=9628780e-be4d-4271-bc8e-a6042aa16a30","ios":"levelo://app?vid=9628780e-be4d-4271-bc8e-a6042aa16a30"},"vehicle_type_id":"4","last_reported":1725916054,"current_range_meters":31200,"station_id":"ce4bgth2rcd13ifvqch0","pricing_plan_id":"cebpf4jnsgd1na2vs0mg"},{"bike_id":"2b385870-66c4-4049-86d7-99cd9fcc9a45","system_id":"levelo_inurba_marseille","lat":43.303046,"lon":5.368981,"is_reserved":false,"is_disabled":false,"rental_uris":{"android":"levelo://app?vid=2b385870-66c4-4049-86d7-99cd9fcc9a45","ios":"levelo://app?vid=2b385870-66c4-4049-86d7-99cd9fcc9a45"},"vehicle_type_id":"4","last_reported":1725916054,"current_range_meters":31200,"station_id":"ce4bgqh2rcd13ifvqc5g","pricing_plan_id":"cebpf4jnsgd1na2vs0mg"},{"bike_id":"82137479-f57d-4654-b62c-bce447ca0b65","system_id":"levelo_inurba_marseille","lat":43.308012,"lon":5.381511,"is_reserved":false,"is_disabled":false,"rental_uris":{"android":"levelo://app?vid=82137479-f57d-4654-b62c-bce447ca0b65","ios":"levelo://app?vid=82137479-f57d-4654-b62c-bce447ca0b65"},"vehicle_type_id":"4","last_reported":1725916054,"current_range_meters":31200,"station_id":"ce4bgt12rcd13ifvqce0","pricing_plan_id":"cebpf4jnsgd1na2vs0mg"},{"bike_id":"90faba15-25b4-4b05-96f2-6048ac5bd097","system_id":"levelo_inurba_marseille","lat":43.308012,"lon":5.381511,"is_reserved":false,"is_disabled":false,"rental_uris":{"android":"levelo://app?vid=90faba15-25b4-4b05-96f2-6048ac5bd097","ios":"levelo://app?vid=90faba15-25b4-4b05-96f2-6048ac5bd097"},"vehicle_type_id":"4","last_reported":1725916054,"current_range_meters":26000,"station_id":"ce4bgt12rcd13ifvqce0","pricing_plan_id":"cebpf4jnsgd1na2vs0mg"},{"bike_id":"55dae35c-eda4-4552-9f84-d63ef5b2bda6","system_id":"levelo_inurba_marseille","lat":43.308012,"lon":5.381511,"is_reserved":false,"is_disabled":false,"rental_uris":{"android":"levelo://app?vid=55dae35c-eda4-4552-9f84-d63ef5b2bda6","ios":"levelo://app?vid=55dae35c-eda4-4552-9f84-d63ef5b2bda6"},"vehicle_type_id":"4","last_reported":1725916054,"current_range_meters":10800,"station_id":"ce4bgt12rcd13ifvqce0","pricing_plan_id":"cebpf4jnsgd1na2vs0mg"},{"bike_id":"74ec9d99-8cc2-47bb-9734-4dcd5c114107","system_id":"levelo_inurba_marseille","lat":43.308012,"lon":5.381511,"is_reserved":false,"is_disabled":false,"rental_uris":{"android":"levelo://app?vid=74ec9d99-8cc2-47bb-9734-4dcd5c114107","ios":"levelo://app?vid=74ec9d99-8cc2-47bb-9734-4dcd5c114107"},"vehicle_type_id":"4","last_reported":1725916054,"current_range_meters":16800,"station_id":"ce4bgt12rcd13ifvqce0","pricing_plan_id":"cebpf4jnsgd1na2vs0mg"},{"bike_id":"8dfe3b0e-0c3c-41c5-9cb0-01a9c69a57bb","system_id":"levelo_inurba_marseille","lat":43.324771,"lon":5.36557,"is_reserved":false,"is_disabled":false,"rental_uris":{"android":"levelo://app?vid=8dfe3b0e-0c3c-41c5-9cb0-01a9c69a57bb","ios":"levelo://app?vid=8dfe3b0e-0c3c-41c5-9cb0-01a9c69a57bb"},"vehicle_type_id":"4","last_reported":1725916054,"current_range_meters":31600,"station_id":"ce4bhs12rcd13ifvqhvg","pricing_plan_id":"cebpf4jnsgd1na2vs0mg"},{"bike_id":"564e9bdd-d478-4b2f-a2ba-abee0966efb8","system_id":"levelo_inurba_marseille","lat":43.311722,"lon":5.387247,"is_reserved":false,"is_disabled":false,"rental_uris":{"android":"levelo://app?vid=564e9bdd-d478-4b2f-a2ba-abee0966efb8","ios":"levelo://app?vid=564e9bdd-d478-4b2f-a2ba-abee0966efb8"},"vehicle_type_id":"4","last_reported":1725916054,"current_range_meters":18400,"station_id":"ce4bgv12rcd13ifvqcp0","pricing_plan_id":"cebpf4jnsgd1na2vs0mg"},{"bike_id":"e111efea-8d92-4c09-a389-ec03a71311c6","system_id":"levelo_inurba_marseille","lat":43.324771,"lon":5.36557,"is_reserved":false,"is_disabled":false,"rental_uris":{"android":"levelo://app?vid=e111efea-8d92-4c09-a389-ec03a71311c6","ios":"levelo://app?vid=e111efea-8d92-4c09-a389-ec03a71311c6"},"vehicle_type_id":"4","last_reported":1725916054,"current_range_meters":11200,"station_id":"ce4bhs12rcd13ifvqhvg","pricing_plan_id":"cebpf4jnsgd1na2vs0mg"},{"bike_id":"6f82a0cd-370f-4a2c-a728-d27d7130658e","system_id":"levelo_inurba_marseille","lat":43.324771,"lon":5.36557,"is_reserved":false,"is_disabled":false,"rental_uris":{"android":"levelo://app?vid=6f82a0cd-370f-4a2c-a728-d27d7130658e","ios":"levelo://app?vid=6f82a0cd-370f-4a2c-a728-d27d7130658e"},"vehicle_type_id":"4","last_reported":1725916054,"current_range_meters":23200,"station_id":"ce4bhs12rcd13ifvqhvg","pricing_plan_id":"cebpf4jnsgd1na2vs0mg"},{"bike_id":"3604c87c-125f-4996-8cb5-597d1ebb23a0","system_id":"levelo_inurba_marseille","lat":43.324771,"lon":5.36557,"is_reserved":false,"is_disabled":false,"rental_uris":{"android":"levelo://app?vid=3604c87c-125f-4996-8cb5-597d1ebb23a0","ios":"levelo://app?vid=3604c87c-125f-4996-8cb5-597d1ebb23a0"},"vehicle_type_id":"4","last_reported":1725916054,"current_range_meters":13200,"station_id":"ce4bhs12rcd13ifvqhvg","pricing_plan_id":"cebpf4jnsgd1na2vs0mg"},{"bike_id":"345072db-5654-4b50-97ed-56fc611e299e","system_id":"levelo_inurba_marseille","lat":43.310804,"lon":5.38359,"is_reserved":false,"is_disabled":false,"rental_uris":{"android":"levelo://app?vid=345072db-5654-4b50-97ed-56fc611e299e","ios":"levelo://app?vid=345072db-5654-4b50-97ed-56fc611e299e"},"vehicle_type_id":"4","last_reported":1725916054,"current_range_meters":28800,"station_id":"ce4bgv92rcd13ifvqcr0","pricing_plan_id":"cebpf4jnsgd1na2vs0mg"},{"bike_id":"0982326a-f501-4dc9-8c88-7b6c3fda15e6","system_id":"levelo_inurba_marseille","lat":43.310804,"lon":5.38359,"is_reserved":false,"is_disabled":false,"rental_uris":{"android":"levelo://app?vid=0982326a-f501-4dc9-8c88-7b6c3fda15e6","ios":"levelo://app?vid=0982326a-f501-4dc9-8c88-7b6c3fda15e6"},"vehicle_type_id":"4","last_reported":1725916054,"current_range_meters":800,"station_id":"ce4bgv92rcd13ifvqcr0","pricing_plan_id":"cebpf4jnsgd1na2vs0mg"},{"bike_id":"3dfbb8a9-0f6a-4b87-b1c3-56f830375232","system_id":"levelo_inurba_marseille","lat":43.310804,"lon":5.38359,"is_reserved":false,"is_disabled":false,"rental_uris":{"android":"levelo://app?vid=3dfbb8a9-0f6a-4b87-b1c3-56f830375232","ios":"levelo://app?vid=3dfbb8a9-0f6a-4b87-b1c3-56f830375232"},"vehicle_type_id":"4","last_reported":1725916054,"current_range_meters":16000,"station_id":"ce4bgv92rcd13ifvqcr0","pricing_plan_id":"cebpf4jnsgd1na2vs0mg"},{"bike_id":"40249059-e883-4f54-92fe-bcfdca50c61d","system_id":"levelo_inurba_marseille","lat":43.310804,"lon":5.38359,"is_reserved":false,"is_disabled":false,"rental_uris":{"android":"levelo://app?vid=40249059-e883-4f54-92fe-bcfdca50c61d","ios":"levelo://app?vid=40249059-e883-4f54-92fe-bcfdca50c61d"},"vehicle_type_id":"4","last_reported":1725916054,"current_range_meters":21600,"station_id":"ce4bgv92rcd13ifvqcr0","pricing_plan_id":"cebpf4jnsgd1na2vs0mg"},{"bike_id":"e97c7353-9807-486f-a3fa-07af709b8401","system_id":"levelo_inurba_marseille","lat":43.310804,"lon":5.38359,"is_reserved":false,"is_disabled":false,"rental_uris":{"android":"levelo://app?vid=e97c7353-9807-486f-a3fa-07af709b8401","ios":"levelo://app?vid=e97c7353-9807-486f-a3fa-07af709b8401"},"vehicle_type_id":"4","last_reported":1725916054,"current_range_meters":3600,"station_id":"ce4bgv92rcd13ifvqcr0","pricing_plan_id":"cebpf4jnsgd1na2vs0mg"},{"bike_id":"e4e98d70-5757-45b2-89bf-d0d9d18a6792","system_id":"levelo_inurba_marseille","lat":43.310804,"lon":5.38359,"is_reserved":false,"is_disabled":false,"rental_uris":{"android":"levelo://app?vid=e4e98d70-5757-45b2-89bf-d0d9d18a6792","ios":"levelo://app?vid=e4e98d70-5757-45b2-89bf-d0d9d18a6792"},"vehicle_type_id":"4","last_reported":1725916054,"current_range_meters":23600,"station_id":"ce4bgv92rcd13ifvqcr0","pricing_plan_id":"cebpf4jnsgd1na2vs0mg"},{"bike_id":"d45cdb34-981b-4044-88f6-09045dc25c51","system_id":"levelo_inurba_marseille","lat":43.310804,"lon":5.38359,"is_reserved":false,"is_disabled":false,"rental_uris":{"android":"levelo://app?vid=d45cdb34-981b-4044-88f6-09045dc25c51","ios":"levelo://app?vid=d45cdb34-981b-4044-88f6-09045dc25c51"},"vehicle_type_id":"4","last_reported":1725916054,"current_range_meters":800,"station_id":"ce4bgv92rcd13ifvqcr0","pricing_plan_id":"cebpf4jnsgd1na2vs0mg"},{"bike_id":"df91cdf1-c97a-4f2a-bb37-6780eb5bf2b4","system_id":"levelo_inurba_marseille","lat":43.319935,"lon":5.381699,"is_reserved":false,"is_disabled":false,"rental_uris":{"android":"levelo://app?vid=df91cdf1-c97a-4f2a-bb37-6780eb5bf2b4","ios":"levelo://app?vid=df91cdf1-c97a-4f2a-bb37-6780eb5bf2b4"},"vehicle_type_id":"4","last_reported":1725916054,"current_range_meters":24400,"station_id":"ce4bhr12rcd13ifvqhpg","pricing_plan_id":"cebpf4jnsgd1na2vs0mg"},{"bike_id":"52e98e2e-e1b9-4379-a018-6a51295701f1","system_id":"levelo_inurba_marseille","lat":43.319935,"lon":5.381699,"is_reserved":false,"is_disabled":false,"rental_uris":{"android":"levelo://app?vid=52e98e2e-e1b9-4379-a018-6a51295701f1","ios":"levelo://app?vid=52e98e2e-e1b9-4379-a018-6a51295701f1"},"vehicle_type_id":"4","last_reported":1725916054,"current_range_meters":16800,"station_id":"ce4bhr12rcd13ifvqhpg","pricing_plan_id":"cebpf4jnsgd1na2vs0mg"},{"bike_id":"a86740ff-1fca-4a6f-997a-9947df6d0b19","system_id":"levelo_inurba_marseille","lat":43.319935,"lon":5.381699,"is_reserved":false,"is_disabled":false,"rental_uris":{"android":"levelo://app?vid=a86740ff-1fca-4a6f-997a-9947df6d0b19","ios":"levelo://app?vid=a86740ff-1fca-4a6f-997a-9947df6d0b19"},"vehicle_type_id":"4","last_reported":1725916054,"current_range_meters":10800,"station_id":"ce4bhr12rcd13ifvqhpg","pricing_plan_id":"cebpf4jnsgd1na2vs0mg"},{"bike_id":"d2ba8850-03eb-4714-afa0-1a722696ce30","system_id":"levelo_inurba_marseille","lat":43.319935,"lon":5.381699,"is_reserved":false,"is_disabled":false,"rental_uris":{"android":"levelo://app?vid=d2ba8850-03eb-4714-afa0-1a722696ce30","ios":"levelo://app?vid=d2ba8850-03eb-4714-afa0-1a722696ce30"},"vehicle_type_id":"4","last_reported":1725916054,"current_range_meters":14000,"station_id":"ce4bhr12rcd13ifvqhpg","pricing_plan_id":"cebpf4jnsgd1na2vs0mg"},{"bike_id":"e1c8c7e8-4eb1-4716-8f5e-78ad541742c5","system_id":"levelo_inurba_marseille","lat":43.319935,"lon":5.381699,"is_reserved":false,"is_disabled":false,"rental_uris":{"android":"levelo://app?vid=e1c8c7e8-4eb1-4716-8f5e-78ad541742c5","ios":"levelo://app?vid=e1c8c7e8-4eb1-4716-8f5e-78ad541742c5"},"vehicle_type_id":"4","last_reported":1725916054,"current_range_meters":3200,"station_id":"ce4bhr12rcd13ifvqhpg","pricing_plan_id":"cebpf4jnsgd1na2vs0mg"},{"bike_id":"0f192903-1e42-4e0a-8a59-44c280495867","system_id":"levelo_inurba_marseille","lat":43.319935,"lon":5.381699,"is_reserved":false,"is_disabled":false,"rental_uris":{"android":"levelo://app?vid=0f192903-1e42-4e0a-8a59-44c280495867","ios":"levelo://app?vid=0f192903-1e42-4e0a-8a59-44c280495867"},"vehicle_type_id":"4","last_reported":1725916054,"current_range_meters":10400,"station_id":"ce4bhr12rcd13ifvqhpg","pricing_plan_id":"cebpf4jnsgd1na2vs0mg"},{"bike_id":"0ee3f110-3fd1-4360-8b53-b1234b784cc4","system_id":"levelo_inurba_marseille","lat":43.3137,"lon":5.38489,"is_reserved":false,"is_disabled":false,"rental_uris":{"android":"levelo://app?vid=0ee3f110-3fd1-4360-8b53-b1234b784cc4","ios":"levelo://app?vid=0ee3f110-3fd1-4360-8b53-b1234b784cc4"},"vehicle_type_id":"4","last_reported":1725916054,"current_range_meters":9200,"station_id":"ce4bgt92rcd13ifvqcf0","pricing_plan_id":"cebpf4jnsgd1na2vs0mg"},{"bike_id":"2307e09c-6f89-4ddd-ab5d-89a7b9fda983","system_id":"levelo_inurba_marseille","lat":43.313571,"lon":5.384829,"is_reserved":false,"is_disabled":false,"rental_uris":{"android":"levelo://app?vid=2307e09c-6f89-4ddd-ab5d-89a7b9fda983","ios":"levelo://app?vid=2307e09c-6f89-4ddd-ab5d-89a7b9fda983"},"vehicle_type_id":"4","last_reported":1725916054,"current_range_meters":30000,"station_id":"ce4bgt92rcd13ifvqcf0","pricing_plan_id":"cebpf4jnsgd1na2vs0mg"},{"bike_id":"c0aad959-2c7a-4023-a5ca-e6a4fd8fd51a","system_id":"levelo_inurba_marseille","lat":43.313571,"lon":5.384829,"is_reserved":false,"is_disabled":false,"rental_uris":{"android":"levelo://app?vid=c0aad959-2c7a-4023-a5ca-e6a4fd8fd51a","ios":"levelo://app?vid=c0aad959-2c7a-4023-a5ca-e6a4fd8fd51a"},"vehicle_type_id":"4","last_reported":1725916054,"current_range_meters":28800,"station_id":"ce4bgt92rcd13ifvqcf0","pricing_plan_id":"cebpf4jnsgd1na2vs0mg"},{"bike_id":"f7954e08-e32b-46e9-8913-53afa9c08879","system_id":"levelo_inurba_marseille","lat":43.313571,"lon":5.384829,"is_reserved":false,"is_disabled":false,"rental_uris":{"android":"levelo://app?vid=f7954e08-e32b-46e9-8913-53afa9c08879","ios":"levelo://app?vid=f7954e08-e32b-46e9-8913-53afa9c08879"},"vehicle_type_id":"4","last_reported":1725916054,"current_range_meters":30800,"station_id":"ce4bgt92rcd13ifvqcf0","pricing_plan_id":"cebpf4jnsgd1na2vs0mg"},{"bike_id":"67f7ab40-1959-4c72-a469-0d730973ff31","system_id":"levelo_inurba_marseille","lat":43.313571,"lon":5.384829,"is_reserved":false,"is_disabled":false,"rental_uris":{"android":"levelo://app?vid=67f7ab40-1959-4c72-a469-0d730973ff31","ios":"levelo://app?vid=67f7ab40-1959-4c72-a469-0d730973ff31"},"vehicle_type_id":"4","last_reported":1725916054,"current_range_meters":16800,"station_id":"ce4bgt92rcd13ifvqcf0","pricing_plan_id":"cebpf4jnsgd1na2vs0mg"},{"bike_id":"103d0d07-8c08-4ec2-96dd-7d84ade0ca86","system_id":"levelo_inurba_marseille","lat":43.313571,"lon":5.384829,"is_reserved":false,"is_disabled":false,"rental_uris":{"android":"levelo://app?vid=103d0d07-8c08-4ec2-96dd-7d84ade0ca86","ios":"levelo://app?vid=103d0d07-8c08-4ec2-96dd-7d84ade0ca86"},"vehicle_type_id":"4","last_reported":1725916054,"current_range_meters":10000,"station_id":"ce4bgt92rcd13ifvqcf0","pricing_plan_id":"cebpf4jnsgd1na2vs0mg"},{"bike_id":"67ccaaa8-1833-47f4-bd86-2293caa49151","system_id":"levelo_inurba_marseille","lat":43.299222,"lon":5.365554,"is_reserved":false,"is_disabled":false,"rental_uris":{"android":"levelo://app?vid=67ccaaa8-1833-47f4-bd86-2293caa49151","ios":"levelo://app?vid=67ccaaa8-1833-47f4-bd86-2293caa49151"},"vehicle_type_id":"4","last_reported":1725916054,"current_range_meters":12800,"station_id":"ce4bgm92rcd13ifvqbr0","pricing_plan_id":"cebpf4jnsgd1na2vs0mg"},{"bike_id":"eca7f9f7-9e56-49fd-8e94-379d1985864c","system_id":"levelo_inurba_marseille","lat":43.299222,"lon":5.365554,"is_reserved":false,"is_disabled":false,"rental_uris":{"android":"levelo://app?vid=eca7f9f7-9e56-49fd-8e94-379d1985864c","ios":"levelo://app?vid=eca7f9f7-9e56-49fd-8e94-379d1985864c"},"vehicle_type_id":"4","last_reported":1725916054,"current_range_meters":30000,"station_id":"ce4bgm92rcd13ifvqbr0","pricing_plan_id":"cebpf4jnsgd1na2vs0mg"},{"bike_id":"75b64c58-38e6-471b-a1dc-3e5e36953b3c","system_id":"levelo_inurba_marseille","lat":43.311722,"lon":5.387247,"is_reserved":false,"is_disabled":false,"rental_uris":{"android":"levelo://app?vid=75b64c58-38e6-471b-a1dc-3e5e36953b3c","ios":"levelo://app?vid=75b64c58-38e6-471b-a1dc-3e5e36953b3c"},"vehicle_type_id":"4","last_reported":1725916054,"current_range_meters":21600,"station_id":"ce4bgv12rcd13ifvqcp0","pricing_plan_id":"cebpf4jnsgd1na2vs0mg"},{"bike_id":"0cd3accb-8994-4393-97b3-aeefa64a6c3b","system_id":"levelo_inurba_marseille","lat":43.31177,"lon":5.38721,"is_reserved":false,"is_disabled":false,"rental_uris":{"android":"levelo://app?vid=0cd3accb-8994-4393-97b3-aeefa64a6c3b","ios":"levelo://app?vid=0cd3accb-8994-4393-97b3-aeefa64a6c3b"},"vehicle_type_id":"4","last_reported":1725916054,"current_range_meters":30000,"station_id":"ce4bgv12rcd13ifvqcp0","pricing_plan_id":"cebpf4jnsgd1na2vs0mg"},{"bike_id":"31ddb5d3-78dd-4529-9266-9785da7147b0","system_id":"levelo_inurba_marseille","lat":43.311722,"lon":5.387247,"is_reserved":false,"is_disabled":false,"rental_uris":{"android":"levelo://app?vid=31ddb5d3-78dd-4529-9266-9785da7147b0","ios":"levelo://app?vid=31ddb5d3-78dd-4529-9266-9785da7147b0"},"vehicle_type_id":"4","last_reported":1725916054,"current_range_meters":31600,"station_id":"ce4bgv12rcd13ifvqcp0","pricing_plan_id":"cebpf4jnsgd1na2vs0mg"},{"bike_id":"f6a3c218-12ae-4ae4-b66e-ec4c0b2ebb1e","system_id":"levelo_inurba_marseille","lat":43.311722,"lon":5.387247,"is_reserved":false,"is_disabled":false,"rental_uris":{"android":"levelo://app?vid=f6a3c218-12ae-4ae4-b66e-ec4c0b2ebb1e","ios":"levelo://app?vid=f6a3c218-12ae-4ae4-b66e-ec4c0b2ebb1e"},"vehicle_type_id":"4","last_reported":1725916054,"current_range_meters":29600,"station_id":"ce4bgv12rcd13ifvqcp0","pricing_plan_id":"cebpf4jnsgd1na2vs0mg"},{"bike_id":"0ec2cd90-39b4-4f3c-a6c7-6b9f1456d60d","system_id":"levelo_inurba_marseille","lat":43.311722,"lon":5.387247,"is_reserved":false,"is_disabled":false,"rental_uris":{"android":"levelo://app?vid=0ec2cd90-39b4-4f3c-a6c7-6b9f1456d60d","ios":"levelo://app?vid=0ec2cd90-39b4-4f3c-a6c7-6b9f1456d60d"},"vehicle_type_id":"4","last_reported":1725916054,"current_range_meters":6400,"station_id":"ce4bgv12rcd13ifvqcp0","pricing_plan_id":"cebpf4jnsgd1na2vs0mg"},{"bike_id":"d2a84a23-a8e8-449b-a8d1-23bbd98e4b78","system_id":"levelo_inurba_marseille","lat":43.311722,"lon":5.387247,"is_reserved":false,"is_disabled":false,"rental_uris":{"android":"levelo://app?vid=d2a84a23-a8e8-449b-a8d1-23bbd98e4b78","ios":"levelo://app?vid=d2a84a23-a8e8-449b-a8d1-23bbd98e4b78"},"vehicle_type_id":"4","last_reported":1725916054,"current_range_meters":8400,"station_id":"ce4bgv12rcd13ifvqcp0","pricing_plan_id":"cebpf4jnsgd1na2vs0mg"},{"bike_id":"c2e9a6b5-3a1a-44b8-bffc-688540018827","system_id":"levelo_inurba_marseille","lat":43.299243,"lon":5.374807,"is_reserved":false,"is_disabled":false,"rental_uris":{"android":"levelo://app?vid=c2e9a6b5-3a1a-44b8-bffc-688540018827","ios":"levelo://app?vid=c2e9a6b5-3a1a-44b8-bffc-688540018827"},"vehicle_type_id":"4","last_reported":1725916054,"current_range_meters":28800,"station_id":"ce4bgjh2rcd13ifvqbg0","pricing_plan_id":"cebpf4jnsgd1na2vs0mg"},{"bike_id":"94ca8f28-c56f-4f45-a82c-501de0eb2682","system_id":"levelo_inurba_marseille","lat":43.311286,"lon":5.387444,"is_reserved":false,"is_disabled":false,"rental_uris":{"android":"levelo://app?vid=94ca8f28-c56f-4f45-a82c-501de0eb2682","ios":"levelo://app?vid=94ca8f28-c56f-4f45-a82c-501de0eb2682"},"vehicle_type_id":"4","last_reported":1725916054,"current_range_meters":16400,"station_id":"","pricing_plan_id":"cebpf4jnsgd1na2vs0mg"},{"bike_id":"99c4f1f1-b2eb-4d51-9b56-316eaa291f8a","system_id":"levelo_inurba_marseille","lat":43.29782,"lon":5.37109,"is_reserved":false,"is_disabled":false,"rental_uris":{"android":"levelo://app?vid=99c4f1f1-b2eb-4d51-9b56-316eaa291f8a","ios":"levelo://app?vid=99c4f1f1-b2eb-4d51-9b56-316eaa291f8a"},"vehicle_type_id":"4","last_reported":1725916054,"current_range_meters":15600,"station_id":"ce4bgop2rcd13ifvqc1g","pricing_plan_id":"cebpf4jnsgd1na2vs0mg"},{"bike_id":"bc7d9694-6beb-4661-9598-ebb278f83b4b","system_id":"levelo_inurba_marseille","lat":43.32285,"lon":5.38258,"is_reserved":false,"is_disabled":false,"rental_uris":{"android":"levelo://app?vid=bc7d9694-6beb-4661-9598-ebb278f83b4b","ios":"levelo://app?vid=bc7d9694-6beb-4661-9598-ebb278f83b4b"},"vehicle_type_id":"4","last_reported":1725916054,"current_range_meters":30000,"station_id":"ce4bhr12rcd13ifvqhqg","pricing_plan_id":"cebpf4jnsgd1na2vs0mg"},{"bike_id":"756a6557-69c3-4543-a670-f9d9a51b68d2","system_id":"levelo_inurba_marseille","lat":43.297774,"lon":5.370875,"is_reserved":false,"is_disabled":false,"rental_uris":{"android":"levelo://app?vid=756a6557-69c3-4543-a670-f9d9a51b68d2","ios":"levelo://app?vid=756a6557-69c3-4543-a670-f9d9a51b68d2"},"vehicle_type_id":"4","last_reported":1725916054,"current_range_meters":27200,"station_id":"ce4bgop2rcd13ifvqc1g","pricing_plan_id":"cebpf4jnsgd1na2vs0mg"},{"bike_id":"cce2cbc3-b0de-444c-b3af-a67a62d9c011","system_id":"levelo_inurba_marseille","lat":43.32299,"lon":5.38249,"is_reserved":false,"is_disabled":false,"rental_uris":{"android":"levelo://app?vid=cce2cbc3-b0de-444c-b3af-a67a62d9c011","ios":"levelo://app?vid=cce2cbc3-b0de-444c-b3af-a67a62d9c011"},"vehicle_type_id":"4","last_reported":1725916054,"current_range_meters":28800,"station_id":"ce4bhr12rcd13ifvqhqg","pricing_plan_id":"cebpf4jnsgd1na2vs0mg"},{"bike_id":"e92128e1-9c4e-4b5e-8475-f4834ef1ca90","system_id":"levelo_inurba_marseille","lat":43.322911,"lon":5.382635,"is_reserved":false,"is_disabled":false,"rental_uris":{"android":"levelo://app?vid=e92128e1-9c4e-4b5e-8475-f4834ef1ca90","ios":"levelo://app?vid=e92128e1-9c4e-4b5e-8475-f4834ef1ca90"},"vehicle_type_id":"4","last_reported":1725916054,"current_range_meters":24000,"station_id":"ce4bhr12rcd13ifvqhqg","pricing_plan_id":"cebpf4jnsgd1na2vs0mg"},{"bike_id":"c883b54a-09a8-4c3b-ad3f-9dbdd1429f8c","system_id":"levelo_inurba_marseille","lat":43.322872,"lon":5.382756,"is_reserved":false,"is_disabled":false,"rental_uris":{"android":"levelo://app?vid=c883b54a-09a8-4c3b-ad3f-9dbdd1429f8c","ios":"levelo://app?vid=c883b54a-09a8-4c3b-ad3f-9dbdd1429f8c"},"vehicle_type_id":"4","last_reported":1725916054,"current_range_meters":27200,"station_id":"ce4bhr12rcd13ifvqhqg","pricing_plan_id":"cebpf4jnsgd1na2vs0mg"},{"bike_id":"1d92197a-0bcd-41a9-a9c2-ff08e48b6482","system_id":"levelo_inurba_marseille","lat":43.322872,"lon":5.382756,"is_reserved":false,"is_disabled":false,"rental_uris":{"android":"levelo://app?vid=1d92197a-0bcd-41a9-a9c2-ff08e48b6482","ios":"levelo://app?vid=1d92197a-0bcd-41a9-a9c2-ff08e48b6482"},"vehicle_type_id":"4","last_reported":1725916054,"current_range_meters":29600,"station_id":"ce4bhr12rcd13ifvqhqg","pricing_plan_id":"cebpf4jnsgd1na2vs0mg"},{"bike_id":"34813d65-4aaa-40d7-9ccb-c4aa0b5d199f","system_id":"levelo_inurba_marseille","lat":43.322872,"lon":5.382756,"is_reserved":false,"is_disabled":false,"rental_uris":{"android":"levelo://app?vid=34813d65-4aaa-40d7-9ccb-c4aa0b5d199f","ios":"levelo://app?vid=34813d65-4aaa-40d7-9ccb-c4aa0b5d199f"},"vehicle_type_id":"4","last_reported":1725916054,"current_range_meters":31600,"station_id":"ce4bhr12rcd13ifvqhqg","pricing_plan_id":"cebpf4jnsgd1na2vs0mg"},{"bike_id":"83a17ab0-8e75-4386-be72-e04fb515cf54","system_id":"levelo_inurba_marseille","lat":43.322872,"lon":5.382756,"is_reserved":false,"is_disabled":false,"rental_uris":{"android":"levelo://app?vid=83a17ab0-8e75-4386-be72-e04fb515cf54","ios":"levelo://app?vid=83a17ab0-8e75-4386-be72-e04fb515cf54"},"vehicle_type_id":"4","last_reported":1725916054,"current_range_meters":14400,"station_id":"ce4bhr12rcd13ifvqhqg","pricing_plan_id":"cebpf4jnsgd1na2vs0mg"},{"bike_id":"fedb6f27-1de1-4f22-89cc-18a3690d200b","system_id":"levelo_inurba_marseille","lat":43.322872,"lon":5.382756,"is_reserved":false,"is_disabled":false,"rental_uris":{"android":"levelo://app?vid=fedb6f27-1de1-4f22-89cc-18a3690d200b","ios":"levelo://app?vid=fedb6f27-1de1-4f22-89cc-18a3690d200b"},"vehicle_type_id":"4","last_reported":1725916054,"current_range_meters":30800,"station_id":"ce4bhr12rcd13ifvqhqg","pricing_plan_id":"cebpf4jnsgd1na2vs0mg"},{"bike_id":"e57c6050-55dd-4a7b-a30f-05f7abef2f6b","system_id":"levelo_inurba_marseille","lat":43.322872,"lon":5.382756,"is_reserved":false,"is_disabled":false,"rental_uris":{"android":"levelo://app?vid=e57c6050-55dd-4a7b-a30f-05f7abef2f6b","ios":"levelo://app?vid=e57c6050-55dd-4a7b-a30f-05f7abef2f6b"},"vehicle_type_id":"4","last_reported":1725916054,"current_range_meters":30000,"station_id":"ce4bhr12rcd13ifvqhqg","pricing_plan_id":"cebpf4jnsgd1na2vs0mg"},{"bike_id":"e8dbf825-2423-4190-abfa-7d8cec3f4a72","system_id":"levelo_inurba_marseille","lat":43.322872,"lon":5.382756,"is_reserved":false,"is_disabled":false,"rental_uris":{"android":"levelo://app?vid=e8dbf825-2423-4190-abfa-7d8cec3f4a72","ios":"levelo://app?vid=e8dbf825-2423-4190-abfa-7d8cec3f4a72"},"vehicle_type_id":"4","last_reported":1725916054,"current_range_meters":31600,"station_id":"ce4bhr12rcd13ifvqhqg","pricing_plan_id":"cebpf4jnsgd1na2vs0mg"},{"bike_id":"3d96f58d-148a-4dae-ac34-ed96f64bee81","system_id":"levelo_inurba_marseille","lat":43.32292,"lon":5.38274,"is_reserved":false,"is_disabled":false,"rental_uris":{"android":"levelo://app?vid=3d96f58d-148a-4dae-ac34-ed96f64bee81","ios":"levelo://app?vid=3d96f58d-148a-4dae-ac34-ed96f64bee81"},"vehicle_type_id":"4","last_reported":1725916054,"current_range_meters":7200,"station_id":"ce4bhr12rcd13ifvqhqg","pricing_plan_id":"cebpf4jnsgd1na2vs0mg"},{"bike_id":"7965264e-d548-4a1e-b464-82432833ab8e","system_id":"levelo_inurba_marseille","lat":43.32295,"lon":5.38272,"is_reserved":false,"is_disabled":false,"rental_uris":{"android":"levelo://app?vid=7965264e-d548-4a1e-b464-82432833ab8e","ios":"levelo://app?vid=7965264e-d548-4a1e-b464-82432833ab8e"},"vehicle_type_id":"4","last_reported":1725916054,"current_range_meters":1200,"station_id":"ce4bhr12rcd13ifvqhqg","pricing_plan_id":"cebpf4jnsgd1na2vs0mg"},{"bike_id":"e4930539-5ad1-4783-b899-4835c60d34cd","system_id":"levelo_inurba_marseille","lat":43.322872,"lon":5.382756,"is_reserved":false,"is_disabled":false,"rental_uris":{"android":"levelo://app?vid=e4930539-5ad1-4783-b899-4835c60d34cd","ios":"levelo://app?vid=e4930539-5ad1-4783-b899-4835c60d34cd"},"vehicle_type_id":"4","last_reported":1725916054,"current_range_meters":27200,"station_id":"ce4bhr12rcd13ifvqhqg","pricing_plan_id":"cebpf4jnsgd1na2vs0mg"},{"bike_id":"bd5ae5e0-5564-4541-94fc-ca0a05fd7fbd","system_id":"levelo_inurba_marseille","lat":43.322872,"lon":5.382756,"is_reserved":false,"is_disabled":false,"rental_uris":{"android":"levelo://app?vid=bd5ae5e0-5564-4541-94fc-ca0a05fd7fbd","ios":"levelo://app?vid=bd5ae5e0-5564-4541-94fc-ca0a05fd7fbd"},"vehicle_type_id":"4","last_reported":1725916054,"current_range_meters":31600,"station_id":"ce4bhr12rcd13ifvqhqg","pricing_plan_id":"cebpf4jnsgd1na2vs0mg"},{"bike_id":"2d02dad4-3e34-45f0-94a3-e39341d6e288","system_id":"levelo_inurba_marseille","lat":43.297163,"lon":5.365866,"is_reserved":false,"is_disabled":false,"rental_uris":{"android":"levelo://app?vid=2d02dad4-3e34-45f0-94a3-e39341d6e288","ios":"levelo://app?vid=2d02dad4-3e34-45f0-94a3-e39341d6e288"},"vehicle_type_id":"4","last_reported":1725916054,"current_range_meters":0,"station_id":"ce4bgn12rcd13ifvqbt0","pricing_plan_id":"cebpf4jnsgd1na2vs0mg"},{"bike_id":"bc838d5b-cd5d-4283-8a33-be5a6e4c4a56","system_id":"levelo_inurba_marseille","lat":43.2968,"lon":5.37291,"is_reserved":false,"is_disabled":false,"rental_uris":{"android":"levelo://app?vid=bc838d5b-cd5d-4283-8a33-be5a6e4c4a56","ios":"levelo://app?vid=bc838d5b-cd5d-4283-8a33-be5a6e4c4a56"},"vehicle_type_id":"4","last_reported":1725916054,"current_range_meters":29200,"station_id":"ce4bgk12rcd13ifvqbj0","pricing_plan_id":"cebpf4jnsgd1na2vs0mg"},{"bike_id":"ac21c0ca-f5ca-4b37-90b4-bc4a9076b693","system_id":"levelo_inurba_marseille","lat":43.296131,"lon":5.370791,"is_reserved":false,"is_disabled":false,"rental_uris":{"android":"levelo://app?vid=ac21c0ca-f5ca-4b37-90b4-bc4a9076b693","ios":"levelo://app?vid=ac21c0ca-f5ca-4b37-90b4-bc4a9076b693"},"vehicle_type_id":"4","last_reported":1725916054,"current_range_meters":4400,"station_id":"ce4bgnh2rcd13ifvqc0g","pricing_plan_id":"cebpf4jnsgd1na2vs0mg"},{"bike_id":"a573b637-dcfc-4e44-a068-7b44df18a84a","system_id":"levelo_inurba_marseille","lat":43.309589,"lon":5.390258,"is_reserved":false,"is_disabled":false,"rental_uris":{"android":"levelo://app?vid=a573b637-dcfc-4e44-a068-7b44df18a84a","ios":"levelo://app?vid=a573b637-dcfc-4e44-a068-7b44df18a84a"},"vehicle_type_id":"4","last_reported":1725916054,"current_range_meters":17200,"station_id":"ce4bgup2rcd13ifvqco0","pricing_plan_id":"cebpf4jnsgd1na2vs0mg"},{"bike_id":"2fea26d9-73f7-4f1d-af0f-b707f149d4f0","system_id":"levelo_inurba_marseille","lat":43.296935,"lon":5.376544,"is_reserved":false,"is_disabled":false,"rental_uris":{"android":"levelo://app?vid=2fea26d9-73f7-4f1d-af0f-b707f149d4f0","ios":"levelo://app?vid=2fea26d9-73f7-4f1d-af0f-b707f149d4f0"},"vehicle_type_id":"4","last_reported":1725916054,"current_range_meters":25600,"station_id":"ce4bgkh2rcd13ifvqbl0","pricing_plan_id":"cebpf4jnsgd1na2vs0mg"},{"bike_id":"ab72f8eb-f125-4051-82b7-864f0f592733","system_id":"levelo_inurba_marseille","lat":43.309589,"lon":5.390258,"is_reserved":false,"is_disabled":false,"rental_uris":{"android":"levelo://app?vid=ab72f8eb-f125-4051-82b7-864f0f592733","ios":"levelo://app?vid=ab72f8eb-f125-4051-82b7-864f0f592733"},"vehicle_type_id":"4","last_reported":1725916054,"current_range_meters":29200,"station_id":"ce4bgup2rcd13ifvqco0","pricing_plan_id":"cebpf4jnsgd1na2vs0mg"},{"bike_id":"ef68b171-477c-457f-9c28-cc98b0d0d996","system_id":"levelo_inurba_marseille","lat":43.309589,"lon":5.390258,"is_reserved":false,"is_disabled":false,"rental_uris":{"android":"levelo://app?vid=ef68b171-477c-457f-9c28-cc98b0d0d996","ios":"levelo://app?vid=ef68b171-477c-457f-9c28-cc98b0d0d996"},"vehicle_type_id":"4","last_reported":1725916054,"current_range_meters":24800,"station_id":"ce4bgup2rcd13ifvqco0","pricing_plan_id":"cebpf4jnsgd1na2vs0mg"},{"bike_id":"6d1dcbe3-8e12-479a-abf6-ac578ae18ade","system_id":"levelo_inurba_marseille","lat":43.309589,"lon":5.390258,"is_reserved":false,"is_disabled":false,"rental_uris":{"android":"levelo://app?vid=6d1dcbe3-8e12-479a-abf6-ac578ae18ade","ios":"levelo://app?vid=6d1dcbe3-8e12-479a-abf6-ac578ae18ade"},"vehicle_type_id":"4","last_reported":1725916054,"current_range_meters":16800,"station_id":"ce4bgup2rcd13ifvqco0","pricing_plan_id":"cebpf4jnsgd1na2vs0mg"},{"bike_id":"9669370c-adfc-4da6-9efa-0dfdcc451d4a","system_id":"levelo_inurba_marseille","lat":43.309589,"lon":5.390258,"is_reserved":false,"is_disabled":false,"rental_uris":{"android":"levelo://app?vid=9669370c-adfc-4da6-9efa-0dfdcc451d4a","ios":"levelo://app?vid=9669370c-adfc-4da6-9efa-0dfdcc451d4a"},"vehicle_type_id":"4","last_reported":1725916054,"current_range_meters":10000,"station_id":"ce4bgup2rcd13ifvqco0","pricing_plan_id":"cebpf4jnsgd1na2vs0mg"},{"bike_id":"77e29f3a-7f38-46ad-ab7f-41a818fc50a8","system_id":"levelo_inurba_marseille","lat":43.30958,"lon":5.39043,"is_reserved":false,"is_disabled":false,"rental_uris":{"android":"levelo://app?vid=77e29f3a-7f38-46ad-ab7f-41a818fc50a8","ios":"levelo://app?vid=77e29f3a-7f38-46ad-ab7f-41a818fc50a8"},"vehicle_type_id":"4","last_reported":1725916054,"current_range_meters":29200,"station_id":"ce4bgup2rcd13ifvqco0","pricing_plan_id":"cebpf4jnsgd1na2vs0mg"},{"bike_id":"d9ff599a-9d73-4a3d-816c-06cee8cc6867","system_id":"levelo_inurba_marseille","lat":43.309589,"lon":5.390258,"is_reserved":false,"is_disabled":false,"rental_uris":{"android":"levelo://app?vid=d9ff599a-9d73-4a3d-816c-06cee8cc6867","ios":"levelo://app?vid=d9ff599a-9d73-4a3d-816c-06cee8cc6867"},"vehicle_type_id":"4","last_reported":1725916054,"current_range_meters":6400,"station_id":"ce4bgup2rcd13ifvqco0","pricing_plan_id":"cebpf4jnsgd1na2vs0mg"},{"bike_id":"bfb70a11-9c63-424a-8059-a165ea2da443","system_id":"levelo_inurba_marseille","lat":43.31758,"lon":5.39011,"is_reserved":false,"is_disabled":false,"rental_uris":{"android":"levelo://app?vid=bfb70a11-9c63-424a-8059-a165ea2da443","ios":"levelo://app?vid=bfb70a11-9c63-424a-8059-a165ea2da443"},"vehicle_type_id":"4","last_reported":1725916054,"current_range_meters":20000,"station_id":"ce4bhqp2rcd13ifvqhng","pricing_plan_id":"cebpf4jnsgd1na2vs0mg"},{"bike_id":"263c2588-11f9-471e-858b-858e74c330bf","system_id":"levelo_inurba_marseille","lat":43.31764,"lon":5.3901,"is_reserved":false,"is_disabled":false,"rental_uris":{"android":"levelo://app?vid=263c2588-11f9-471e-858b-858e74c330bf","ios":"levelo://app?vid=263c2588-11f9-471e-858b-858e74c330bf"},"vehicle_type_id":"4","last_reported":1725916054,"current_range_meters":16000,"station_id":"ce4bhqp2rcd13ifvqhng","pricing_plan_id":"cebpf4jnsgd1na2vs0mg"},{"bike_id":"071d5887-132e-4401-8ffb-8567f8b67c31","system_id":"levelo_inurba_marseille","lat":43.317557,"lon":5.390173,"is_reserved":false,"is_disabled":false,"rental_uris":{"android":"levelo://app?vid=071d5887-132e-4401-8ffb-8567f8b67c31","ios":"levelo://app?vid=071d5887-132e-4401-8ffb-8567f8b67c31"},"vehicle_type_id":"4","last_reported":1725916054,"current_range_meters":8800,"station_id":"ce4bhqp2rcd13ifvqhng","pricing_plan_id":"cebpf4jnsgd1na2vs0mg"},{"bike_id":"469f3b55-d927-45a9-af43-27e44ef3cacc","system_id":"levelo_inurba_marseille","lat":43.31755,"lon":5.39016,"is_reserved":false,"is_disabled":false,"rental_uris":{"android":"levelo://app?vid=469f3b55-d927-45a9-af43-27e44ef3cacc","ios":"levelo://app?vid=469f3b55-d927-45a9-af43-27e44ef3cacc"},"vehicle_type_id":"4","last_reported":1725916054,"current_range_meters":9200,"station_id":"ce4bhqp2rcd13ifvqhng","pricing_plan_id":"cebpf4jnsgd1na2vs0mg"},{"bike_id":"964e4a45-8764-4cc6-995a-a25fb2c66f48","system_id":"levelo_inurba_marseille","lat":43.317557,"lon":5.390173,"is_reserved":false,"is_disabled":false,"rental_uris":{"android":"levelo://app?vid=964e4a45-8764-4cc6-995a-a25fb2c66f48","ios":"levelo://app?vid=964e4a45-8764-4cc6-995a-a25fb2c66f48"},"vehicle_type_id":"4","last_reported":1725916054,"current_range_meters":27600,"station_id":"ce4bhqp2rcd13ifvqhng","pricing_plan_id":"cebpf4jnsgd1na2vs0mg"},{"bike_id":"962fc77d-e054-4dec-b79e-7600e522b672","system_id":"levelo_inurba_marseille","lat":43.317557,"lon":5.390173,"is_reserved":false,"is_disabled":false,"rental_uris":{"android":"levelo://app?vid=962fc77d-e054-4dec-b79e-7600e522b672","ios":"levelo://app?vid=962fc77d-e054-4dec-b79e-7600e522b672"},"vehicle_type_id":"4","last_reported":1725916054,"current_range_meters":19200,"station_id":"ce4bhqp2rcd13ifvqhng","pricing_plan_id":"cebpf4jnsgd1na2vs0mg"},{"bike_id":"7476f0b2-7d0b-4a02-ae90-0af681a15c54","system_id":"levelo_inurba_marseille","lat":43.317623,"lon":5.390133,"is_reserved":false,"is_disabled":false,"rental_uris":{"android":"levelo://app?vid=7476f0b2-7d0b-4a02-ae90-0af681a15c54","ios":"levelo://app?vid=7476f0b2-7d0b-4a02-ae90-0af681a15c54"},"vehicle_type_id":"4","last_reported":1725916054,"current_range_meters":18800,"station_id":"ce4bhqp2rcd13ifvqhng","pricing_plan_id":"cebpf4jnsgd1na2vs0mg"},{"bike_id":"4d43ce63-2f86-4521-b911-0b32c647877d","system_id":"levelo_inurba_marseille","lat":43.317557,"lon":5.390173,"is_reserved":false,"is_disabled":false,"rental_uris":{"android":"levelo://app?vid=4d43ce63-2f86-4521-b911-0b32c647877d","ios":"levelo://app?vid=4d43ce63-2f86-4521-b911-0b32c647877d"},"vehicle_type_id":"4","last_reported":1725916054,"current_range_meters":25600,"station_id":"ce4bhqp2rcd13ifvqhng","pricing_plan_id":"cebpf4jnsgd1na2vs0mg"},{"bike_id":"1859df57-cb64-40ba-a99b-0252eadc8088","system_id":"levelo_inurba_marseille","lat":43.3176,"lon":5.39016,"is_reserved":false,"is_disabled":false,"rental_uris":{"android":"levelo://app?vid=1859df57-cb64-40ba-a99b-0252eadc8088","ios":"levelo://app?vid=1859df57-cb64-40ba-a99b-0252eadc8088"},"vehicle_type_id":"4","last_reported":1725916054,"current_range_meters":23600,"station_id":"ce4bhqp2rcd13ifvqhng","pricing_plan_id":"cebpf4jnsgd1na2vs0mg"},{"bike_id":"b373180a-b008-4691-9ef0-2c6db09e87b1","system_id":"levelo_inurba_marseille","lat":43.317557,"lon":5.390173,"is_reserved":false,"is_disabled":false,"rental_uris":{"android":"levelo://app?vid=b373180a-b008-4691-9ef0-2c6db09e87b1","ios":"levelo://app?vid=b373180a-b008-4691-9ef0-2c6db09e87b1"},"vehicle_type_id":"4","last_reported":1725916054,"current_range_meters":15200,"station_id":"ce4bhqp2rcd13ifvqhng","pricing_plan_id":"cebpf4jnsgd1na2vs0mg"},{"bike_id":"2cf98790-26f6-4aa9-82d0-f0e6c290738a","system_id":"levelo_inurba_marseille","lat":43.317557,"lon":5.390173,"is_reserved":false,"is_disabled":false,"rental_uris":{"android":"levelo://app?vid=2cf98790-26f6-4aa9-82d0-f0e6c290738a","ios":"levelo://app?vid=2cf98790-26f6-4aa9-82d0-f0e6c290738a"},"vehicle_type_id":"4","last_reported":1725916054,"current_range_meters":0,"station_id":"ce4bhqp2rcd13ifvqhng","pricing_plan_id":"cebpf4jnsgd1na2vs0mg"},{"bike_id":"01cc83f9-9650-4e9d-8a3b-a55632f27eca","system_id":"levelo_inurba_marseille","lat":43.317557,"lon":5.390173,"is_reserved":false,"is_disabled":false,"rental_uris":{"android":"levelo://app?vid=01cc83f9-9650-4e9d-8a3b-a55632f27eca","ios":"levelo://app?vid=01cc83f9-9650-4e9d-8a3b-a55632f27eca"},"vehicle_type_id":"4","last_reported":1725916054,"current_range_meters":14400,"station_id":"ce4bhqp2rcd13ifvqhng","pricing_plan_id":"cebpf4jnsgd1na2vs0mg"},{"bike_id":"ff50a1b3-e84d-4e81-b7e8-122b6fd58d91","system_id":"levelo_inurba_marseille","lat":43.317557,"lon":5.390173,"is_reserved":false,"is_disabled":false,"rental_uris":{"android":"levelo://app?vid=ff50a1b3-e84d-4e81-b7e8-122b6fd58d91","ios":"levelo://app?vid=ff50a1b3-e84d-4e81-b7e8-122b6fd58d91"},"vehicle_type_id":"4","last_reported":1725916054,"current_range_meters":6400,"station_id":"ce4bhqp2rcd13ifvqhng","pricing_plan_id":"cebpf4jnsgd1na2vs0mg"},{"bike_id":"c2651ea8-46f7-44cd-925f-b4e44c9318e7","system_id":"levelo_inurba_marseille","lat":43.31762,"lon":5.39019,"is_reserved":false,"is_disabled":false,"rental_uris":{"android":"levelo://app?vid=c2651ea8-46f7-44cd-925f-b4e44c9318e7","ios":"levelo://app?vid=c2651ea8-46f7-44cd-925f-b4e44c9318e7"},"vehicle_type_id":"4","last_reported":1725916054,"current_range_meters":14800,"station_id":"ce4bhqp2rcd13ifvqhng","pricing_plan_id":"cebpf4jnsgd1na2vs0mg"},{"bike_id":"82b8d6a9-34d6-4add-b029-1fc2325ea092","system_id":"levelo_inurba_marseille","lat":43.317557,"lon":5.390173,"is_reserved":false,"is_disabled":false,"rental_uris":{"android":"levelo://app?vid=82b8d6a9-34d6-4add-b029-1fc2325ea092","ios":"levelo://app?vid=82b8d6a9-34d6-4add-b029-1fc2325ea092"},"vehicle_type_id":"4","last_reported":1725916054,"current_range_meters":10000,"station_id":"ce4bhqp2rcd13ifvqhng","pricing_plan_id":"cebpf4jnsgd1na2vs0mg"},{"bike_id":"7da48e77-1a22-4c7e-a9dc-6f60aefa4f34","system_id":"levelo_inurba_marseille","lat":43.317557,"lon":5.390173,"is_reserved":false,"is_disabled":false,"rental_uris":{"android":"levelo://app?vid=7da48e77-1a22-4c7e-a9dc-6f60aefa4f34","ios":"levelo://app?vid=7da48e77-1a22-4c7e-a9dc-6f60aefa4f34"},"vehicle_type_id":"4","last_reported":1725916054,"current_range_meters":31200,"station_id":"ce4bhqp2rcd13ifvqhng","pricing_plan_id":"cebpf4jnsgd1na2vs0mg"},{"bike_id":"726b5e0a-f6df-45ed-8c82-e10efd5fe19b","system_id":"levelo_inurba_marseille","lat":43.317557,"lon":5.390173,"is_reserved":false,"is_disabled":false,"rental_uris":{"android":"levelo://app?vid=726b5e0a-f6df-45ed-8c82-e10efd5fe19b","ios":"levelo://app?vid=726b5e0a-f6df-45ed-8c82-e10efd5fe19b"},"vehicle_type_id":"4","last_reported":1725916054,"current_range_meters":17200,"station_id":"ce4bhqp2rcd13ifvqhng","pricing_plan_id":"cebpf4jnsgd1na2vs0mg"},{"bike_id":"c1720d9a-96a0-468a-976b-f5a413c4466f","system_id":"levelo_inurba_marseille","lat":43.317557,"lon":5.390173,"is_reserved":false,"is_disabled":false,"rental_uris":{"android":"levelo://app?vid=c1720d9a-96a0-468a-976b-f5a413c4466f","ios":"levelo://app?vid=c1720d9a-96a0-468a-976b-f5a413c4466f"},"vehicle_type_id":"4","last_reported":1725916054,"current_range_meters":8800,"station_id":"ce4bhqp2rcd13ifvqhng","pricing_plan_id":"cebpf4jnsgd1na2vs0mg"},{"bike_id":"9bfc7f83-9a3b-48db-89bc-7ba54061be6c","system_id":"levelo_inurba_marseille","lat":43.317557,"lon":5.390173,"is_reserved":false,"is_disabled":false,"rental_uris":{"android":"levelo://app?vid=9bfc7f83-9a3b-48db-89bc-7ba54061be6c","ios":"levelo://app?vid=9bfc7f83-9a3b-48db-89bc-7ba54061be6c"},"vehicle_type_id":"4","last_reported":1725916054,"current_range_meters":30800,"station_id":"ce4bhqp2rcd13ifvqhng","pricing_plan_id":"cebpf4jnsgd1na2vs0mg"},{"bike_id":"dc8ad681-5422-4715-9281-8cff8da8cbe7","system_id":"levelo_inurba_marseille","lat":43.304278,"lon":5.388868,"is_reserved":false,"is_disabled":false,"rental_uris":{"android":"levelo://app?vid=dc8ad681-5422-4715-9281-8cff8da8cbe7","ios":"levelo://app?vid=dc8ad681-5422-4715-9281-8cff8da8cbe7"},"vehicle_type_id":"4","last_reported":1725916054,"current_range_meters":4000,"station_id":"ce4bgk12rcd13ifvqbi0","pricing_plan_id":"cebpf4jnsgd1na2vs0mg"},{"bike_id":"32736c7e-8d0b-4a1a-9b2d-b0060b431607","system_id":"levelo_inurba_marseille","lat":43.297942,"lon":5.381203,"is_reserved":false,"is_disabled":false,"rental_uris":{"android":"levelo://app?vid=32736c7e-8d0b-4a1a-9b2d-b0060b431607","ios":"levelo://app?vid=32736c7e-8d0b-4a1a-9b2d-b0060b431607"},"vehicle_type_id":"4","last_reported":1725916054,"current_range_meters":0,"station_id":"ce4bgip2rcd13ifvqbb0","pricing_plan_id":"cebpf4jnsgd1na2vs0mg"},{"bike_id":"2bc3310b-dacd-42e8-a66d-09471e0599f7","system_id":"levelo_inurba_marseille","lat":43.304278,"lon":5.388868,"is_reserved":false,"is_disabled":false,"rental_uris":{"android":"levelo://app?vid=2bc3310b-dacd-42e8-a66d-09471e0599f7","ios":"levelo://app?vid=2bc3310b-dacd-42e8-a66d-09471e0599f7"},"vehicle_type_id":"4","last_reported":1725916054,"current_range_meters":30400,"station_id":"ce4bgk12rcd13ifvqbi0","pricing_plan_id":"cebpf4jnsgd1na2vs0mg"},{"bike_id":"e1865e16-dfa0-4e27-94b3-a79d09edd87c","system_id":"levelo_inurba_marseille","lat":43.30424,"lon":5.388938,"is_reserved":false,"is_disabled":false,"rental_uris":{"android":"levelo://app?vid=e1865e16-dfa0-4e27-94b3-a79d09edd87c","ios":"levelo://app?vid=e1865e16-dfa0-4e27-94b3-a79d09edd87c"},"vehicle_type_id":"4","last_reported":1725916054,"current_range_meters":23200,"station_id":"ce4bgk12rcd13ifvqbi0","pricing_plan_id":"cebpf4jnsgd1na2vs0mg"},{"bike_id":"f145dfa7-d439-44cf-8ab3-8dcfa171290e","system_id":"levelo_inurba_marseille","lat":43.30407,"lon":5.388967,"is_reserved":false,"is_disabled":false,"rental_uris":{"android":"levelo://app?vid=f145dfa7-d439-44cf-8ab3-8dcfa171290e","ios":"levelo://app?vid=f145dfa7-d439-44cf-8ab3-8dcfa171290e"},"vehicle_type_id":"4","last_reported":1725916054,"current_range_meters":400,"station_id":"ce4bgk12rcd13ifvqbi0","pricing_plan_id":"cebpf4jnsgd1na2vs0mg"},{"bike_id":"9c64bc8a-78a0-42f4-a2ab-fcc07548e340","system_id":"levelo_inurba_marseille","lat":43.29753,"lon":5.38096,"is_reserved":false,"is_disabled":false,"rental_uris":{"android":"levelo://app?vid=9c64bc8a-78a0-42f4-a2ab-fcc07548e340","ios":"levelo://app?vid=9c64bc8a-78a0-42f4-a2ab-fcc07548e340"},"vehicle_type_id":"4","last_reported":1725916054,"current_range_meters":0,"station_id":"","pricing_plan_id":"cebpf4jnsgd1na2vs0mg"},{"bike_id":"cab21659-4edf-47a7-834b-96262daf74b7","system_id":"levelo_inurba_marseille","lat":43.299673,"lon":5.384917,"is_reserved":false,"is_disabled":false,"rental_uris":{"android":"levelo://app?vid=cab21659-4edf-47a7-834b-96262daf74b7","ios":"levelo://app?vid=cab21659-4edf-47a7-834b-96262daf74b7"},"vehicle_type_id":"4","last_reported":1725916054,"current_range_meters":0,"station_id":"ce4bgj92rcd13ifvqbd0","pricing_plan_id":"cebpf4jnsgd1na2vs0mg"},{"bike_id":"7a3f827a-fa3b-4368-ba78-4f2c6cb96ad2","system_id":"levelo_inurba_marseille","lat":43.299717,"lon":5.384845,"is_reserved":false,"is_disabled":false,"rental_uris":{"android":"levelo://app?vid=7a3f827a-fa3b-4368-ba78-4f2c6cb96ad2","ios":"levelo://app?vid=7a3f827a-fa3b-4368-ba78-4f2c6cb96ad2"},"vehicle_type_id":"4","last_reported":1725916054,"current_range_meters":6000,"station_id":"ce4bgj92rcd13ifvqbd0","pricing_plan_id":"cebpf4jnsgd1na2vs0mg"},{"bike_id":"b65f6edd-1a13-457f-ae38-827d6a7efcc6","system_id":"levelo_inurba_marseille","lat":43.301396,"lon":5.387812,"is_reserved":false,"is_disabled":false,"rental_uris":{"android":"levelo://app?vid=b65f6edd-1a13-457f-ae38-827d6a7efcc6","ios":"levelo://app?vid=b65f6edd-1a13-457f-ae38-827d6a7efcc6"},"vehicle_type_id":"4","last_reported":1725916054,"current_range_meters":0,"station_id":"ce4bghh2rcd13ifvqb60","pricing_plan_id":"cebpf4jnsgd1na2vs0mg"},{"bike_id":"0f1aee4e-0433-4b9b-8256-139bdfd970eb","system_id":"levelo_inurba_marseille","lat":43.32367,"lon":5.38878,"is_reserved":false,"is_disabled":false,"rental_uris":{"android":"levelo://app?vid=0f1aee4e-0433-4b9b-8256-139bdfd970eb","ios":"levelo://app?vid=0f1aee4e-0433-4b9b-8256-139bdfd970eb"},"vehicle_type_id":"4","last_reported":1725916054,"current_range_meters":24000,"station_id":"ce4bhqp2rcd13ifvqhog","pricing_plan_id":"cebpf4jnsgd1na2vs0mg"},{"bike_id":"0a7cfa17-d7c4-4d24-979d-9c6062a81b39","system_id":"levelo_inurba_marseille","lat":43.32371,"lon":5.38876,"is_reserved":false,"is_disabled":false,"rental_uris":{"android":"levelo://app?vid=0a7cfa17-d7c4-4d24-979d-9c6062a81b39","ios":"levelo://app?vid=0a7cfa17-d7c4-4d24-979d-9c6062a81b39"},"vehicle_type_id":"4","last_reported":1725916054,"current_range_meters":19600,"station_id":"ce4bhqp2rcd13ifvqhog","pricing_plan_id":"cebpf4jnsgd1na2vs0mg"},{"bike_id":"b975319d-6416-4db1-9e62-7e7fbac1d44e","system_id":"levelo_inurba_marseille","lat":43.323543,"lon":5.388924,"is_reserved":false,"is_disabled":false,"rental_uris":{"android":"levelo://app?vid=b975319d-6416-4db1-9e62-7e7fbac1d44e","ios":"levelo://app?vid=b975319d-6416-4db1-9e62-7e7fbac1d44e"},"vehicle_type_id":"4","last_reported":1725916054,"current_range_meters":800,"station_id":"ce4bhqp2rcd13ifvqhog","pricing_plan_id":"cebpf4jnsgd1na2vs0mg"},{"bike_id":"d46255ba-c505-4d65-9a11-b745c4469e04","system_id":"levelo_inurba_marseille","lat":43.32367,"lon":5.388836,"is_reserved":false,"is_disabled":false,"rental_uris":{"android":"levelo://app?vid=d46255ba-c505-4d65-9a11-b745c4469e04","ios":"levelo://app?vid=d46255ba-c505-4d65-9a11-b745c4469e04"},"vehicle_type_id":"4","last_reported":1725916054,"current_range_meters":0,"station_id":"ce4bhqp2rcd13ifvqhog","pricing_plan_id":"cebpf4jnsgd1na2vs0mg"},{"bike_id":"e70ee1bb-a26e-4052-9540-28721896adb2","system_id":"levelo_inurba_marseille","lat":43.32366,"lon":5.38885,"is_reserved":false,"is_disabled":false,"rental_uris":{"android":"levelo://app?vid=e70ee1bb-a26e-4052-9540-28721896adb2","ios":"levelo://app?vid=e70ee1bb-a26e-4052-9540-28721896adb2"},"vehicle_type_id":"4","last_reported":1725916054,"current_range_meters":4000,"station_id":"ce4bhqp2rcd13ifvqhog","pricing_plan_id":"cebpf4jnsgd1na2vs0mg"},{"bike_id":"2c86e902-eca6-4fe5-88cf-41ff27469b4d","system_id":"levelo_inurba_marseille","lat":43.323693,"lon":5.38884,"is_reserved":false,"is_disabled":false,"rental_uris":{"android":"levelo://app?vid=2c86e902-eca6-4fe5-88cf-41ff27469b4d","ios":"levelo://app?vid=2c86e902-eca6-4fe5-88cf-41ff27469b4d"},"vehicle_type_id":"4","last_reported":1725916054,"current_range_meters":27600,"station_id":"ce4bhqp2rcd13ifvqhog","pricing_plan_id":"cebpf4jnsgd1na2vs0mg"},{"bike_id":"19925d1e-e182-41c6-b5c7-a118e779ff7b","system_id":"levelo_inurba_marseille","lat":43.32369,"lon":5.38885,"is_reserved":false,"is_disabled":false,"rental_uris":{"android":"levelo://app?vid=19925d1e-e182-41c6-b5c7-a118e779ff7b","ios":"levelo://app?vid=19925d1e-e182-41c6-b5c7-a118e779ff7b"},"vehicle_type_id":"4","last_reported":1725916054,"current_range_meters":22800,"station_id":"ce4bhqp2rcd13ifvqhog","pricing_plan_id":"cebpf4jnsgd1na2vs0mg"},{"bike_id":"956c348e-0be6-48da-adfd-089f36ca5259","system_id":"levelo_inurba_marseille","lat":43.32371,"lon":5.38884,"is_reserved":false,"is_disabled":false,"rental_uris":{"android":"levelo://app?vid=956c348e-0be6-48da-adfd-089f36ca5259","ios":"levelo://app?vid=956c348e-0be6-48da-adfd-089f36ca5259"},"vehicle_type_id":"4","last_reported":1725916054,"current_range_meters":21600,"station_id":"ce4bhqp2rcd13ifvqhog","pricing_plan_id":"cebpf4jnsgd1na2vs0mg"},{"bike_id":"7b3be378-99cc-485f-beb1-ad89c32e25ab","system_id":"levelo_inurba_marseille","lat":43.3237,"lon":5.38886,"is_reserved":false,"is_disabled":false,"rental_uris":{"android":"levelo://app?vid=7b3be378-99cc-485f-beb1-ad89c32e25ab","ios":"levelo://app?vid=7b3be378-99cc-485f-beb1-ad89c32e25ab"},"vehicle_type_id":"4","last_reported":1725916054,"current_range_meters":8000,"station_id":"ce4bhqp2rcd13ifvqhog","pricing_plan_id":"cebpf4jnsgd1na2vs0mg"},{"bike_id":"393a23e2-a248-4a81-8d18-99f86620f075","system_id":"levelo_inurba_marseille","lat":43.32367,"lon":5.388836,"is_reserved":false,"is_disabled":false,"rental_uris":{"android":"levelo://app?vid=393a23e2-a248-4a81-8d18-99f86620f075","ios":"levelo://app?vid=393a23e2-a248-4a81-8d18-99f86620f075"},"vehicle_type_id":"4","last_reported":1725916054,"current_range_meters":30800,"station_id":"ce4bhqp2rcd13ifvqhog","pricing_plan_id":"cebpf4jnsgd1na2vs0mg"},{"bike_id":"35edce4e-d766-46a4-8225-dbd1585f3b66","system_id":"levelo_inurba_marseille","lat":43.323658,"lon":5.388924,"is_reserved":false,"is_disabled":false,"rental_uris":{"android":"levelo://app?vid=35edce4e-d766-46a4-8225-dbd1585f3b66","ios":"levelo://app?vid=35edce4e-d766-46a4-8225-dbd1585f3b66"},"vehicle_type_id":"4","last_reported":1725916054,"current_range_meters":16000,"station_id":"ce4bhqp2rcd13ifvqhog","pricing_plan_id":"cebpf4jnsgd1na2vs0mg"},{"bike_id":"5ad86fd0-de56-4da1-8eff-844e8c9eeb22","system_id":"levelo_inurba_marseille","lat":43.3237,"lon":5.38926,"is_reserved":false,"is_disabled":false,"rental_uris":{"android":"levelo://app?vid=5ad86fd0-de56-4da1-8eff-844e8c9eeb22","ios":"levelo://app?vid=5ad86fd0-de56-4da1-8eff-844e8c9eeb22"},"vehicle_type_id":"4","last_reported":1725916054,"current_range_meters":16400,"station_id":"","pricing_plan_id":"cebpf4jnsgd1na2vs0mg"},{"bike_id":"2d0f460c-162d-4bcb-9328-3a76a174cfa6","system_id":"levelo_inurba_marseille","lat":43.30374,"lon":5.39092,"is_reserved":false,"is_disabled":false,"rental_uris":{"android":"levelo://app?vid=2d0f460c-162d-4bcb-9328-3a76a174cfa6","ios":"levelo://app?vid=2d0f460c-162d-4bcb-9328-3a76a174cfa6"},"vehicle_type_id":"4","last_reported":1725916054,"current_range_meters":27200,"station_id":"ce4bh0p2rcd13ifvqd80","pricing_plan_id":"cebpf4jnsgd1na2vs0mg"},{"bike_id":"47ac4cab-ed6f-4ede-9d60-864bb2013f95","system_id":"levelo_inurba_marseille","lat":43.293259,"lon":5.371586,"is_reserved":false,"is_disabled":false,"rental_uris":{"android":"levelo://app?vid=47ac4cab-ed6f-4ede-9d60-864bb2013f95","ios":"levelo://app?vid=47ac4cab-ed6f-4ede-9d60-864bb2013f95"},"vehicle_type_id":"4","last_reported":1725916054,"current_range_meters":30800,"station_id":"ce4bgh92rcd13ifvqb40","pricing_plan_id":"cebpf4jnsgd1na2vs0mg"},{"bike_id":"8e447e97-f646-44e8-bbd4-fb9e8872b9c6","system_id":"levelo_inurba_marseille","lat":43.29274,"lon":5.36858,"is_reserved":false,"is_disabled":false,"rental_uris":{"android":"levelo://app?vid=8e447e97-f646-44e8-bbd4-fb9e8872b9c6","ios":"levelo://app?vid=8e447e97-f646-44e8-bbd4-fb9e8872b9c6"},"vehicle_type_id":"4","last_reported":1725916054,"current_range_meters":0,"station_id":"ce4bhbp2rcd13ifvqesg","pricing_plan_id":"cebpf4jnsgd1na2vs0mg"},{"bike_id":"8260cd38-cc13-4038-8052-98e6fd0680d3","system_id":"levelo_inurba_marseille","lat":43.29301,"lon":5.37175,"is_reserved":false,"is_disabled":false,"rental_uris":{"android":"levelo://app?vid=8260cd38-cc13-4038-8052-98e6fd0680d3","ios":"levelo://app?vid=8260cd38-cc13-4038-8052-98e6fd0680d3"},"vehicle_type_id":"4","last_reported":1725916054,"current_range_meters":0,"station_id":"ce4bgh92rcd13ifvqb40","pricing_plan_id":"cebpf4jnsgd1na2vs0mg"},{"bike_id":"cd1fa421-4222-4f96-b495-2da0b057096f","system_id":"levelo_inurba_marseille","lat":43.305994,"lon":5.393687,"is_reserved":false,"is_disabled":false,"rental_uris":{"android":"levelo://app?vid=cd1fa421-4222-4f96-b495-2da0b057096f","ios":"levelo://app?vid=cd1fa421-4222-4f96-b495-2da0b057096f"},"vehicle_type_id":"4","last_reported":1725916054,"current_range_meters":12400,"station_id":"ce4bh0p2rcd13ifvqd80","pricing_plan_id":"cebpf4jnsgd1na2vs0mg"},{"bike_id":"bdd3a71b-b3f5-4372-9950-1c95d0a8562b","system_id":"levelo_inurba_marseille","lat":43.30593,"lon":5.39355,"is_reserved":false,"is_disabled":false,"rental_uris":{"android":"levelo://app?vid=bdd3a71b-b3f5-4372-9950-1c95d0a8562b","ios":"levelo://app?vid=bdd3a71b-b3f5-4372-9950-1c95d0a8562b"},"vehicle_type_id":"4","last_reported":1725916054,"current_range_meters":27600,"station_id":"ce4bh0p2rcd13ifvqd80","pricing_plan_id":"cebpf4jnsgd1na2vs0mg"},{"bike_id":"c03f28a3-cc47-4b46-bb1d-47d88ca274ea","system_id":"levelo_inurba_marseille","lat":43.305994,"lon":5.393687,"is_reserved":false,"is_disabled":false,"rental_uris":{"android":"levelo://app?vid=c03f28a3-cc47-4b46-bb1d-47d88ca274ea","ios":"levelo://app?vid=c03f28a3-cc47-4b46-bb1d-47d88ca274ea"},"vehicle_type_id":"4","last_reported":1725916054,"current_range_meters":12400,"station_id":"ce4bh0p2rcd13ifvqd80","pricing_plan_id":"cebpf4jnsgd1na2vs0mg"},{"bike_id":"b01401ab-651f-46f7-83ad-6a48a3816623","system_id":"levelo_inurba_marseille","lat":43.305994,"lon":5.393687,"is_reserved":false,"is_disabled":false,"rental_uris":{"android":"levelo://app?vid=b01401ab-651f-46f7-83ad-6a48a3816623","ios":"levelo://app?vid=b01401ab-651f-46f7-83ad-6a48a3816623"},"vehicle_type_id":"4","last_reported":1725916054,"current_range_meters":23600,"station_id":"ce4bh0p2rcd13ifvqd80","pricing_plan_id":"cebpf4jnsgd1na2vs0mg"},{"bike_id":"321df28f-9918-464b-91ef-d0b3cfa5e3d0","system_id":"levelo_inurba_marseille","lat":43.30606,"lon":5.39366,"is_reserved":false,"is_disabled":false,"rental_uris":{"android":"levelo://app?vid=321df28f-9918-464b-91ef-d0b3cfa5e3d0","ios":"levelo://app?vid=321df28f-9918-464b-91ef-d0b3cfa5e3d0"},"vehicle_type_id":"4","last_reported":1725916054,"current_range_meters":22000,"station_id":"ce4bh0p2rcd13ifvqd80","pricing_plan_id":"cebpf4jnsgd1na2vs0mg"},{"bike_id":"9ff691f6-4cca-452f-9d41-fc1ba17f855e","system_id":"levelo_inurba_marseille","lat":43.305994,"lon":5.393687,"is_reserved":false,"is_disabled":false,"rental_uris":{"android":"levelo://app?vid=9ff691f6-4cca-452f-9d41-fc1ba17f855e","ios":"levelo://app?vid=9ff691f6-4cca-452f-9d41-fc1ba17f855e"},"vehicle_type_id":"4","last_reported":1725916054,"current_range_meters":30400,"station_id":"ce4bh0p2rcd13ifvqd80","pricing_plan_id":"cebpf4jnsgd1na2vs0mg"},{"bike_id":"f4420fa5-256a-4df5-a96b-0490e28d5006","system_id":"levelo_inurba_marseille","lat":43.305994,"lon":5.393687,"is_reserved":false,"is_disabled":false,"rental_uris":{"android":"levelo://app?vid=f4420fa5-256a-4df5-a96b-0490e28d5006","ios":"levelo://app?vid=f4420fa5-256a-4df5-a96b-0490e28d5006"},"vehicle_type_id":"4","last_reported":1725916054,"current_range_meters":14000,"station_id":"ce4bh0p2rcd13ifvqd80","pricing_plan_id":"cebpf4jnsgd1na2vs0mg"},{"bike_id":"5ea343c1-6d26-4c6e-800f-714fa3c1e2de","system_id":"levelo_inurba_marseille","lat":43.305994,"lon":5.393687,"is_reserved":false,"is_disabled":false,"rental_uris":{"android":"levelo://app?vid=5ea343c1-6d26-4c6e-800f-714fa3c1e2de","ios":"levelo://app?vid=5ea343c1-6d26-4c6e-800f-714fa3c1e2de"},"vehicle_type_id":"4","last_reported":1725916054,"current_range_meters":3600,"station_id":"ce4bh0p2rcd13ifvqd80","pricing_plan_id":"cebpf4jnsgd1na2vs0mg"},{"bike_id":"8d66c462-af30-4e3c-a37b-aadccd3f1e33","system_id":"levelo_inurba_marseille","lat":43.305994,"lon":5.393687,"is_reserved":false,"is_disabled":false,"rental_uris":{"android":"levelo://app?vid=8d66c462-af30-4e3c-a37b-aadccd3f1e33","ios":"levelo://app?vid=8d66c462-af30-4e3c-a37b-aadccd3f1e33"},"vehicle_type_id":"4","last_reported":1725916054,"current_range_meters":31200,"station_id":"ce4bh0p2rcd13ifvqd80","pricing_plan_id":"cebpf4jnsgd1na2vs0mg"},{"bike_id":"5016f290-0801-4809-9733-b557f738a8cd","system_id":"levelo_inurba_marseille","lat":43.305994,"lon":5.393687,"is_reserved":false,"is_disabled":false,"rental_uris":{"android":"levelo://app?vid=5016f290-0801-4809-9733-b557f738a8cd","ios":"levelo://app?vid=5016f290-0801-4809-9733-b557f738a8cd"},"vehicle_type_id":"4","last_reported":1725916054,"current_range_meters":25200,"station_id":"ce4bh0p2rcd13ifvqd80","pricing_plan_id":"cebpf4jnsgd1na2vs0mg"},{"bike_id":"bd06ee13-ca1f-494f-851a-59e2a4e98fc9","system_id":"levelo_inurba_marseille","lat":43.303002,"lon":5.392142,"is_reserved":false,"is_disabled":false,"rental_uris":{"android":"levelo://app?vid=bd06ee13-ca1f-494f-851a-59e2a4e98fc9","ios":"levelo://app?vid=bd06ee13-ca1f-494f-851a-59e2a4e98fc9"},"vehicle_type_id":"4","last_reported":1725916054,"current_range_meters":31200,"station_id":"ce4bgkh2rcd13ifvqbk0","pricing_plan_id":"cebpf4jnsgd1na2vs0mg"},{"bike_id":"1be8ea6f-80a4-41c4-8c14-5db061d7d96c","system_id":"levelo_inurba_marseille","lat":43.302992,"lon":5.392136,"is_reserved":false,"is_disabled":false,"rental_uris":{"android":"levelo://app?vid=1be8ea6f-80a4-41c4-8c14-5db061d7d96c","ios":"levelo://app?vid=1be8ea6f-80a4-41c4-8c14-5db061d7d96c"},"vehicle_type_id":"4","last_reported":1725916054,"current_range_meters":28800,"station_id":"ce4bgkh2rcd13ifvqbk0","pricing_plan_id":"cebpf4jnsgd1na2vs0mg"},{"bike_id":"fcb07c7e-4d42-4e05-b6b3-35085be8b9b9","system_id":"levelo_inurba_marseille","lat":43.2936,"lon":5.37835,"is_reserved":false,"is_disabled":false,"rental_uris":{"android":"levelo://app?vid=fcb07c7e-4d42-4e05-b6b3-35085be8b9b9","ios":"levelo://app?vid=fcb07c7e-4d42-4e05-b6b3-35085be8b9b9"},"vehicle_type_id":"4","last_reported":1725916054,"current_range_meters":800,"station_id":"ce4bgjh2rcd13ifvqbf0","pricing_plan_id":"cebpf4jnsgd1na2vs0mg"},{"bike_id":"d177a8bf-cc95-4590-87a3-c0852e8c6060","system_id":"levelo_inurba_marseille","lat":43.3029,"lon":5.39221,"is_reserved":false,"is_disabled":false,"rental_uris":{"android":"levelo://app?vid=d177a8bf-cc95-4590-87a3-c0852e8c6060","ios":"levelo://app?vid=d177a8bf-cc95-4590-87a3-c0852e8c6060"},"vehicle_type_id":"4","last_reported":1725916054,"current_range_meters":20000,"station_id":"ce4bgkh2rcd13ifvqbk0","pricing_plan_id":"cebpf4jnsgd1na2vs0mg"},{"bike_id":"80d661c7-0ae4-4d1c-a908-05d3945f4dc6","system_id":"levelo_inurba_marseille","lat":43.30085,"lon":5.390856,"is_reserved":false,"is_disabled":false,"rental_uris":{"android":"levelo://app?vid=80d661c7-0ae4-4d1c-a908-05d3945f4dc6","ios":"levelo://app?vid=80d661c7-0ae4-4d1c-a908-05d3945f4dc6"},"vehicle_type_id":"4","last_reported":1725916054,"current_range_meters":25600,"station_id":"ce4bh192rcd13ifvqdb0","pricing_plan_id":"cebpf4jnsgd1na2vs0mg"},{"bike_id":"4285f39c-1f4b-48df-8453-ddf0b83cc374","system_id":"levelo_inurba_marseille","lat":43.298764,"lon":5.388973,"is_reserved":false,"is_disabled":false,"rental_uris":{"android":"levelo://app?vid=4285f39c-1f4b-48df-8453-ddf0b83cc374","ios":"levelo://app?vid=4285f39c-1f4b-48df-8453-ddf0b83cc374"},"vehicle_type_id":"4","last_reported":1725916054,"current_range_meters":17600,"station_id":"ce4bh392rcd13ifvqdl0","pricing_plan_id":"cebpf4jnsgd1na2vs0mg"},{"bike_id":"9eda2226-f9f5-426f-888b-b7c8447d9ae0","system_id":"levelo_inurba_marseille","lat":43.298764,"lon":5.388973,"is_reserved":false,"is_disabled":false,"rental_uris":{"android":"levelo://app?vid=9eda2226-f9f5-426f-888b-b7c8447d9ae0","ios":"levelo://app?vid=9eda2226-f9f5-426f-888b-b7c8447d9ae0"},"vehicle_type_id":"4","last_reported":1725916054,"current_range_meters":30400,"station_id":"ce4bh392rcd13ifvqdl0","pricing_plan_id":"cebpf4jnsgd1na2vs0mg"},{"bike_id":"847c1e10-15a2-4d9d-a440-b8b84b7e04c9","system_id":"levelo_inurba_marseille","lat":43.29878,"lon":5.38912,"is_reserved":false,"is_disabled":false,"rental_uris":{"android":"levelo://app?vid=847c1e10-15a2-4d9d-a440-b8b84b7e04c9","ios":"levelo://app?vid=847c1e10-15a2-4d9d-a440-b8b84b7e04c9"},"vehicle_type_id":"4","last_reported":1725916054,"current_range_meters":5600,"station_id":"ce4bh392rcd13ifvqdl0","pricing_plan_id":"cebpf4jnsgd1na2vs0mg"},{"bike_id":"21f6cb3c-01fd-436d-88ba-802488b93b50","system_id":"levelo_inurba_marseille","lat":43.293,"lon":5.35573,"is_reserved":false,"is_disabled":false,"rental_uris":{"android":"levelo://app?vid=21f6cb3c-01fd-436d-88ba-802488b93b50","ios":"levelo://app?vid=21f6cb3c-01fd-436d-88ba-802488b93b50"},"vehicle_type_id":"4","last_reported":1725916054,"current_range_meters":17600,"station_id":"","pricing_plan_id":"cebpf4jnsgd1na2vs0mg"},{"bike_id":"2a264f81-3f80-4f2d-9dff-0f2a8ca137ea","system_id":"levelo_inurba_marseille","lat":43.313291,"lon":5.396838,"is_reserved":false,"is_disabled":false,"rental_uris":{"android":"levelo://app?vid=2a264f81-3f80-4f2d-9dff-0f2a8ca137ea","ios":"levelo://app?vid=2a264f81-3f80-4f2d-9dff-0f2a8ca137ea"},"vehicle_type_id":"4","last_reported":1725916054,"current_range_meters":15600,"station_id":"ce4bgvp2rcd13ifvqcu0","pricing_plan_id":"cebpf4jnsgd1na2vs0mg"},{"bike_id":"db734087-5944-4cf6-b9fa-4aeaaffe103f","system_id":"levelo_inurba_marseille","lat":43.313291,"lon":5.396838,"is_reserved":false,"is_disabled":false,"rental_uris":{"android":"levelo://app?vid=db734087-5944-4cf6-b9fa-4aeaaffe103f","ios":"levelo://app?vid=db734087-5944-4cf6-b9fa-4aeaaffe103f"},"vehicle_type_id":"4","last_reported":1725916054,"current_range_meters":17600,"station_id":"ce4bgvp2rcd13ifvqcu0","pricing_plan_id":"cebpf4jnsgd1na2vs0mg"},{"bike_id":"1cf9f304-b46f-4d91-b14e-2255fc0c224a","system_id":"levelo_inurba_marseille","lat":43.309047,"lon":5.396551,"is_reserved":false,"is_disabled":false,"rental_uris":{"android":"levelo://app?vid=1cf9f304-b46f-4d91-b14e-2255fc0c224a","ios":"levelo://app?vid=1cf9f304-b46f-4d91-b14e-2255fc0c224a"},"vehicle_type_id":"4","last_reported":1725916054,"current_range_meters":30800,"station_id":"ce4bh012rcd13ifvqcv0","pricing_plan_id":"cebpf4jnsgd1na2vs0mg"},{"bike_id":"e995ec6a-14bd-4c6a-86ad-c20cb9cc27d7","system_id":"levelo_inurba_marseille","lat":43.292005,"lon":5.357875,"is_reserved":false,"is_disabled":false,"rental_uris":{"android":"levelo://app?vid=e995ec6a-14bd-4c6a-86ad-c20cb9cc27d7","ios":"levelo://app?vid=e995ec6a-14bd-4c6a-86ad-c20cb9cc27d7"},"vehicle_type_id":"4","last_reported":1725916054,"current_range_meters":17600,"station_id":"ce4bhb12rcd13ifvqel0","pricing_plan_id":"cebpf4jnsgd1na2vs0mg"},{"bike_id":"df2d1d96-20bb-40cc-9b65-1de511b7bf7e","system_id":"levelo_inurba_marseille","lat":43.30889,"lon":5.39638,"is_reserved":false,"is_disabled":false,"rental_uris":{"android":"levelo://app?vid=df2d1d96-20bb-40cc-9b65-1de511b7bf7e","ios":"levelo://app?vid=df2d1d96-20bb-40cc-9b65-1de511b7bf7e"},"vehicle_type_id":"4","last_reported":1725916054,"current_range_meters":20400,"station_id":"ce4bh012rcd13ifvqcv0","pricing_plan_id":"cebpf4jnsgd1na2vs0mg"},{"bike_id":"90928642-0e3d-45e0-8382-b0848f39fe5d","system_id":"levelo_inurba_marseille","lat":43.313291,"lon":5.396838,"is_reserved":false,"is_disabled":false,"rental_uris":{"android":"levelo://app?vid=90928642-0e3d-45e0-8382-b0848f39fe5d","ios":"levelo://app?vid=90928642-0e3d-45e0-8382-b0848f39fe5d"},"vehicle_type_id":"4","last_reported":1725916054,"current_range_meters":24800,"station_id":"ce4bgvp2rcd13ifvqcu0","pricing_plan_id":"cebpf4jnsgd1na2vs0mg"},{"bike_id":"ff1a965d-6587-4016-a665-057a8c9bbb45","system_id":"levelo_inurba_marseille","lat":43.309047,"lon":5.396551,"is_reserved":false,"is_disabled":false,"rental_uris":{"android":"levelo://app?vid=ff1a965d-6587-4016-a665-057a8c9bbb45","ios":"levelo://app?vid=ff1a965d-6587-4016-a665-057a8c9bbb45"},"vehicle_type_id":"4","last_reported":1725916054,"current_range_meters":31200,"station_id":"ce4bh012rcd13ifvqcv0","pricing_plan_id":"cebpf4jnsgd1na2vs0mg"},{"bike_id":"e700b35d-072a-44bf-8ab9-2ca3259ba856","system_id":"levelo_inurba_marseille","lat":43.292005,"lon":5.357875,"is_reserved":false,"is_disabled":false,"rental_uris":{"android":"levelo://app?vid=e700b35d-072a-44bf-8ab9-2ca3259ba856","ios":"levelo://app?vid=e700b35d-072a-44bf-8ab9-2ca3259ba856"},"vehicle_type_id":"4","last_reported":1725916054,"current_range_meters":26000,"station_id":"ce4bhb12rcd13ifvqel0","pricing_plan_id":"cebpf4jnsgd1na2vs0mg"},{"bike_id":"f7f4158c-3d5d-4920-83a5-46cbbb65794c","system_id":"levelo_inurba_marseille","lat":43.30884,"lon":5.39642,"is_reserved":false,"is_disabled":false,"rental_uris":{"android":"levelo://app?vid=f7f4158c-3d5d-4920-83a5-46cbbb65794c","ios":"levelo://app?vid=f7f4158c-3d5d-4920-83a5-46cbbb65794c"},"vehicle_type_id":"4","last_reported":1725916054,"current_range_meters":26400,"station_id":"ce4bh012rcd13ifvqcv0","pricing_plan_id":"cebpf4jnsgd1na2vs0mg"},{"bike_id":"7cbd1407-c6f7-4951-94bf-8ad0a6c8d1b3","system_id":"levelo_inurba_marseille","lat":43.313291,"lon":5.396838,"is_reserved":false,"is_disabled":false,"rental_uris":{"android":"levelo://app?vid=7cbd1407-c6f7-4951-94bf-8ad0a6c8d1b3","ios":"levelo://app?vid=7cbd1407-c6f7-4951-94bf-8ad0a6c8d1b3"},"vehicle_type_id":"4","last_reported":1725916054,"current_range_meters":28400,"station_id":"ce4bgvp2rcd13ifvqcu0","pricing_plan_id":"cebpf4jnsgd1na2vs0mg"},{"bike_id":"f3855b64-0c74-4705-b2fe-da4a1a97ecd1","system_id":"levelo_inurba_marseille","lat":43.313291,"lon":5.396838,"is_reserved":false,"is_disabled":false,"rental_uris":{"android":"levelo://app?vid=f3855b64-0c74-4705-b2fe-da4a1a97ecd1","ios":"levelo://app?vid=f3855b64-0c74-4705-b2fe-da4a1a97ecd1"},"vehicle_type_id":"4","last_reported":1725916054,"current_range_meters":8800,"station_id":"ce4bgvp2rcd13ifvqcu0","pricing_plan_id":"cebpf4jnsgd1na2vs0mg"},{"bike_id":"c1d51d78-f465-4098-8312-390947159d68","system_id":"levelo_inurba_marseille","lat":43.309047,"lon":5.396551,"is_reserved":false,"is_disabled":false,"rental_uris":{"android":"levelo://app?vid=c1d51d78-f465-4098-8312-390947159d68","ios":"levelo://app?vid=c1d51d78-f465-4098-8312-390947159d68"},"vehicle_type_id":"4","last_reported":1725916054,"current_range_meters":23200,"station_id":"ce4bh012rcd13ifvqcv0","pricing_plan_id":"cebpf4jnsgd1na2vs0mg"},{"bike_id":"685fb47c-ff8b-4162-bd1a-eaec108e954f","system_id":"levelo_inurba_marseille","lat":43.30893,"lon":5.39646,"is_reserved":false,"is_disabled":false,"rental_uris":{"android":"levelo://app?vid=685fb47c-ff8b-4162-bd1a-eaec108e954f","ios":"levelo://app?vid=685fb47c-ff8b-4162-bd1a-eaec108e954f"},"vehicle_type_id":"4","last_reported":1725916054,"current_range_meters":27600,"station_id":"ce4bh012rcd13ifvqcv0","pricing_plan_id":"cebpf4jnsgd1na2vs0mg"},{"bike_id":"e58acf24-c1c1-4c2b-8846-c0727f103224","system_id":"levelo_inurba_marseille","lat":43.313291,"lon":5.396838,"is_reserved":false,"is_disabled":false,"rental_uris":{"android":"levelo://app?vid=e58acf24-c1c1-4c2b-8846-c0727f103224","ios":"levelo://app?vid=e58acf24-c1c1-4c2b-8846-c0727f103224"},"vehicle_type_id":"4","last_reported":1725916054,"current_range_meters":31200,"station_id":"ce4bgvp2rcd13ifvqcu0","pricing_plan_id":"cebpf4jnsgd1na2vs0mg"},{"bike_id":"17122fb1-14c8-4cfe-a08d-8ba98d09f8d6","system_id":"levelo_inurba_marseille","lat":43.309038,"lon":5.396546,"is_reserved":false,"is_disabled":false,"rental_uris":{"android":"levelo://app?vid=17122fb1-14c8-4cfe-a08d-8ba98d09f8d6","ios":"levelo://app?vid=17122fb1-14c8-4cfe-a08d-8ba98d09f8d6"},"vehicle_type_id":"4","last_reported":1725916054,"current_range_meters":31200,"station_id":"ce4bh012rcd13ifvqcv0","pricing_plan_id":"cebpf4jnsgd1na2vs0mg"},{"bike_id":"9e4057cf-78ae-4aa1-a17e-51eb8e02a639","system_id":"levelo_inurba_marseille","lat":43.30879,"lon":5.39643,"is_reserved":false,"is_disabled":false,"rental_uris":{"android":"levelo://app?vid=9e4057cf-78ae-4aa1-a17e-51eb8e02a639","ios":"levelo://app?vid=9e4057cf-78ae-4aa1-a17e-51eb8e02a639"},"vehicle_type_id":"4","last_reported":1725916054,"current_range_meters":31200,"station_id":"ce4bh012rcd13ifvqcv0","pricing_plan_id":"cebpf4jnsgd1na2vs0mg"},{"bike_id":"ddc3d42e-dc49-4e9b-ad87-79e3bc124803","system_id":"levelo_inurba_marseille","lat":43.313291,"lon":5.396838,"is_reserved":false,"is_disabled":false,"rental_uris":{"android":"levelo://app?vid=ddc3d42e-dc49-4e9b-ad87-79e3bc124803","ios":"levelo://app?vid=ddc3d42e-dc49-4e9b-ad87-79e3bc124803"},"vehicle_type_id":"4","last_reported":1725916054,"current_range_meters":21600,"station_id":"ce4bgvp2rcd13ifvqcu0","pricing_plan_id":"cebpf4jnsgd1na2vs0mg"},{"bike_id":"ae38d343-e73a-492e-81ae-76bfbfaa197b","system_id":"levelo_inurba_marseille","lat":43.313291,"lon":5.396838,"is_reserved":false,"is_disabled":false,"rental_uris":{"android":"levelo://app?vid=ae38d343-e73a-492e-81ae-76bfbfaa197b","ios":"levelo://app?vid=ae38d343-e73a-492e-81ae-76bfbfaa197b"},"vehicle_type_id":"4","last_reported":1725916054,"current_range_meters":6400,"station_id":"ce4bgvp2rcd13ifvqcu0","pricing_plan_id":"cebpf4jnsgd1na2vs0mg"},{"bike_id":"4d5f3b2b-633e-49d2-9c87-1108f233e1f7","system_id":"levelo_inurba_marseille","lat":43.313291,"lon":5.396838,"is_reserved":false,"is_disabled":false,"rental_uris":{"android":"levelo://app?vid=4d5f3b2b-633e-49d2-9c87-1108f233e1f7","ios":"levelo://app?vid=4d5f3b2b-633e-49d2-9c87-1108f233e1f7"},"vehicle_type_id":"4","last_reported":1725916054,"current_range_meters":7200,"station_id":"ce4bgvp2rcd13ifvqcu0","pricing_plan_id":"cebpf4jnsgd1na2vs0mg"},{"bike_id":"9f73c277-f893-4f91-8000-7042e46ea863","system_id":"levelo_inurba_marseille","lat":43.309038,"lon":5.396546,"is_reserved":false,"is_disabled":false,"rental_uris":{"android":"levelo://app?vid=9f73c277-f893-4f91-8000-7042e46ea863","ios":"levelo://app?vid=9f73c277-f893-4f91-8000-7042e46ea863"},"vehicle_type_id":"4","last_reported":1725916054,"current_range_meters":31200,"station_id":"ce4bh012rcd13ifvqcv0","pricing_plan_id":"cebpf4jnsgd1na2vs0mg"},{"bike_id":"abd94e29-e652-463e-a7a4-4d460cfcdfd6","system_id":"levelo_inurba_marseille","lat":43.313291,"lon":5.396838,"is_reserved":false,"is_disabled":false,"rental_uris":{"android":"levelo://app?vid=abd94e29-e652-463e-a7a4-4d460cfcdfd6","ios":"levelo://app?vid=abd94e29-e652-463e-a7a4-4d460cfcdfd6"},"vehicle_type_id":"4","last_reported":1725916054,"current_range_meters":9200,"station_id":"ce4bgvp2rcd13ifvqcu0","pricing_plan_id":"cebpf4jnsgd1na2vs0mg"},{"bike_id":"162dd85d-dbd8-4faf-b657-a5ecea3bfe6f","system_id":"levelo_inurba_marseille","lat":43.30881,"lon":5.39647,"is_reserved":false,"is_disabled":false,"rental_uris":{"android":"levelo://app?vid=162dd85d-dbd8-4faf-b657-a5ecea3bfe6f","ios":"levelo://app?vid=162dd85d-dbd8-4faf-b657-a5ecea3bfe6f"},"vehicle_type_id":"4","last_reported":1725916054,"current_range_meters":31200,"station_id":"ce4bh012rcd13ifvqcv0","pricing_plan_id":"cebpf4jnsgd1na2vs0mg"},{"bike_id":"640ad60d-f3cb-4bfd-b25f-c03decfdf717","system_id":"levelo_inurba_marseille","lat":43.313291,"lon":5.396838,"is_reserved":false,"is_disabled":false,"rental_uris":{"android":"levelo://app?vid=640ad60d-f3cb-4bfd-b25f-c03decfdf717","ios":"levelo://app?vid=640ad60d-f3cb-4bfd-b25f-c03decfdf717"},"vehicle_type_id":"4","last_reported":1725916054,"current_range_meters":12000,"station_id":"ce4bgvp2rcd13ifvqcu0","pricing_plan_id":"cebpf4jnsgd1na2vs0mg"},{"bike_id":"00d45466-de37-462d-90a1-c2507bb28324","system_id":"levelo_inurba_marseille","lat":43.30893,"lon":5.39651,"is_reserved":false,"is_disabled":false,"rental_uris":{"android":"levelo://app?vid=00d45466-de37-462d-90a1-c2507bb28324","ios":"levelo://app?vid=00d45466-de37-462d-90a1-c2507bb28324"},"vehicle_type_id":"4","last_reported":1725916054,"current_range_meters":31200,"station_id":"ce4bh012rcd13ifvqcv0","pricing_plan_id":"cebpf4jnsgd1na2vs0mg"},{"bike_id":"ab237a72-d593-4889-85b9-6e4917923528","system_id":"levelo_inurba_marseille","lat":43.308845,"lon":5.396499,"is_reserved":false,"is_disabled":false,"rental_uris":{"android":"levelo://app?vid=ab237a72-d593-4889-85b9-6e4917923528","ios":"levelo://app?vid=ab237a72-d593-4889-85b9-6e4917923528"},"vehicle_type_id":"4","last_reported":1725916054,"current_range_meters":8800,"station_id":"ce4bh012rcd13ifvqcv0","pricing_plan_id":"cebpf4jnsgd1na2vs0mg"},{"bike_id":"130869cc-0de2-4a0d-bb4c-7eca4a5c7cfc","system_id":"levelo_inurba_marseille","lat":43.31323,"lon":5.396976,"is_reserved":false,"is_disabled":false,"rental_uris":{"android":"levelo://app?vid=130869cc-0de2-4a0d-bb4c-7eca4a5c7cfc","ios":"levelo://app?vid=130869cc-0de2-4a0d-bb4c-7eca4a5c7cfc"},"vehicle_type_id":"4","last_reported":1725916054,"current_range_meters":31200,"station_id":"ce4bgvp2rcd13ifvqcu0","pricing_plan_id":"cebpf4jnsgd1na2vs0mg"},{"bike_id":"3935a055-cd34-4527-8271-2e75fde337a6","system_id":"levelo_inurba_marseille","lat":43.313291,"lon":5.396838,"is_reserved":false,"is_disabled":false,"rental_uris":{"android":"levelo://app?vid=3935a055-cd34-4527-8271-2e75fde337a6","ios":"levelo://app?vid=3935a055-cd34-4527-8271-2e75fde337a6"},"vehicle_type_id":"4","last_reported":1725916054,"current_range_meters":27200,"station_id":"ce4bgvp2rcd13ifvqcu0","pricing_plan_id":"cebpf4jnsgd1na2vs0mg"},{"bike_id":"ae88a741-7eec-4997-bb37-9da9c056f683","system_id":"levelo_inurba_marseille","lat":43.313291,"lon":5.396838,"is_reserved":false,"is_disabled":false,"rental_uris":{"android":"levelo://app?vid=ae88a741-7eec-4997-bb37-9da9c056f683","ios":"levelo://app?vid=ae88a741-7eec-4997-bb37-9da9c056f683"},"vehicle_type_id":"4","last_reported":1725916054,"current_range_meters":31600,"station_id":"ce4bgvp2rcd13ifvqcu0","pricing_plan_id":"cebpf4jnsgd1na2vs0mg"},{"bike_id":"7ed9dbc4-9c3a-471b-b586-c758edb2b10c","system_id":"levelo_inurba_marseille","lat":43.313291,"lon":5.396838,"is_reserved":false,"is_disabled":false,"rental_uris":{"android":"levelo://app?vid=7ed9dbc4-9c3a-471b-b586-c758edb2b10c","ios":"levelo://app?vid=7ed9dbc4-9c3a-471b-b586-c758edb2b10c"},"vehicle_type_id":"4","last_reported":1725916054,"current_range_meters":28800,"station_id":"ce4bgvp2rcd13ifvqcu0","pricing_plan_id":"cebpf4jnsgd1na2vs0mg"},{"bike_id":"a68cc047-b987-4541-b2aa-8d17469bbe14","system_id":"levelo_inurba_marseille","lat":43.313291,"lon":5.396838,"is_reserved":false,"is_disabled":false,"rental_uris":{"android":"levelo://app?vid=a68cc047-b987-4541-b2aa-8d17469bbe14","ios":"levelo://app?vid=a68cc047-b987-4541-b2aa-8d17469bbe14"},"vehicle_type_id":"4","last_reported":1725916054,"current_range_meters":12800,"station_id":"ce4bgvp2rcd13ifvqcu0","pricing_plan_id":"cebpf4jnsgd1na2vs0mg"},{"bike_id":"d20b5c66-11fe-4bd4-8752-d5345677bf8f","system_id":"levelo_inurba_marseille","lat":43.30885,"lon":5.39652,"is_reserved":false,"is_disabled":false,"rental_uris":{"android":"levelo://app?vid=d20b5c66-11fe-4bd4-8752-d5345677bf8f","ios":"levelo://app?vid=d20b5c66-11fe-4bd4-8752-d5345677bf8f"},"vehicle_type_id":"4","last_reported":1725916054,"current_range_meters":31200,"station_id":"ce4bh012rcd13ifvqcv0","pricing_plan_id":"cebpf4jnsgd1na2vs0mg"},{"bike_id":"90388a16-6d7f-46d9-a024-0464b92ab1fe","system_id":"levelo_inurba_marseille","lat":43.309047,"lon":5.396551,"is_reserved":false,"is_disabled":false,"rental_uris":{"android":"levelo://app?vid=90388a16-6d7f-46d9-a024-0464b92ab1fe","ios":"levelo://app?vid=90388a16-6d7f-46d9-a024-0464b92ab1fe"},"vehicle_type_id":"4","last_reported":1725916054,"current_range_meters":26800,"station_id":"ce4bh012rcd13ifvqcv0","pricing_plan_id":"cebpf4jnsgd1na2vs0mg"},{"bike_id":"a35a54f7-96d6-44cb-9b58-abc5105e4f92","system_id":"levelo_inurba_marseille","lat":43.30895,"lon":5.39655,"is_reserved":false,"is_disabled":false,"rental_uris":{"android":"levelo://app?vid=a35a54f7-96d6-44cb-9b58-abc5105e4f92","ios":"levelo://app?vid=a35a54f7-96d6-44cb-9b58-abc5105e4f92"},"vehicle_type_id":"4","last_reported":1725916054,"current_range_meters":23200,"station_id":"ce4bh012rcd13ifvqcv0","pricing_plan_id":"cebpf4jnsgd1na2vs0mg"},{"bike_id":"791f4561-108f-4d13-9764-c7432cf54566","system_id":"levelo_inurba_marseille","lat":43.309047,"lon":5.396551,"is_reserved":false,"is_disabled":false,"rental_uris":{"android":"levelo://app?vid=791f4561-108f-4d13-9764-c7432cf54566","ios":"levelo://app?vid=791f4561-108f-4d13-9764-c7432cf54566"},"vehicle_type_id":"4","last_reported":1725916054,"current_range_meters":31200,"station_id":"ce4bh012rcd13ifvqcv0","pricing_plan_id":"cebpf4jnsgd1na2vs0mg"},{"bike_id":"c1617392-1e76-455e-a2a7-7e6950424f02","system_id":"levelo_inurba_marseille","lat":43.309038,"lon":5.396546,"is_reserved":false,"is_disabled":false,"rental_uris":{"android":"levelo://app?vid=c1617392-1e76-455e-a2a7-7e6950424f02","ios":"levelo://app?vid=c1617392-1e76-455e-a2a7-7e6950424f02"},"vehicle_type_id":"4","last_reported":1725916054,"current_range_meters":31200,"station_id":"ce4bh012rcd13ifvqcv0","pricing_plan_id":"cebpf4jnsgd1na2vs0mg"},{"bike_id":"3f13a087-7031-41ca-a8cc-1cbc18f3bba3","system_id":"levelo_inurba_marseille","lat":43.313291,"lon":5.396838,"is_reserved":false,"is_disabled":false,"rental_uris":{"android":"levelo://app?vid=3f13a087-7031-41ca-a8cc-1cbc18f3bba3","ios":"levelo://app?vid=3f13a087-7031-41ca-a8cc-1cbc18f3bba3"},"vehicle_type_id":"4","last_reported":1725916054,"current_range_meters":18000,"station_id":"ce4bgvp2rcd13ifvqcu0","pricing_plan_id":"cebpf4jnsgd1na2vs0mg"},{"bike_id":"36cdca5d-cc27-4d58-b187-0a45c3de789b","system_id":"levelo_inurba_marseille","lat":43.308847,"lon":5.396552,"is_reserved":false,"is_disabled":false,"rental_uris":{"android":"levelo://app?vid=36cdca5d-cc27-4d58-b187-0a45c3de789b","ios":"levelo://app?vid=36cdca5d-cc27-4d58-b187-0a45c3de789b"},"vehicle_type_id":"4","last_reported":1725916054,"current_range_meters":6000,"station_id":"","pricing_plan_id":"cebpf4jnsgd1na2vs0mg"},{"bike_id":"8476d9d4-e4e4-4d57-bbfc-f67fab4fbf59","system_id":"levelo_inurba_marseille","lat":43.309038,"lon":5.396546,"is_reserved":false,"is_disabled":false,"rental_uris":{"android":"levelo://app?vid=8476d9d4-e4e4-4d57-bbfc-f67fab4fbf59","ios":"levelo://app?vid=8476d9d4-e4e4-4d57-bbfc-f67fab4fbf59"},"vehicle_type_id":"4","last_reported":1725916054,"current_range_meters":16400,"station_id":"ce4bh012rcd13ifvqcv0","pricing_plan_id":"cebpf4jnsgd1na2vs0mg"},{"bike_id":"95a715e6-e9ba-4639-b3a5-a552eafda4ad","system_id":"levelo_inurba_marseille","lat":43.308782,"lon":5.396548,"is_reserved":false,"is_disabled":false,"rental_uris":{"android":"levelo://app?vid=95a715e6-e9ba-4639-b3a5-a552eafda4ad","ios":"levelo://app?vid=95a715e6-e9ba-4639-b3a5-a552eafda4ad"},"vehicle_type_id":"4","last_reported":1725916054,"current_range_meters":7600,"station_id":"ce4bh012rcd13ifvqcv0","pricing_plan_id":"cebpf4jnsgd1na2vs0mg"},{"bike_id":"e686f240-fe01-4d3e-a00d-0d4ccd78f9b1","system_id":"levelo_inurba_marseille","lat":43.309038,"lon":5.396546,"is_reserved":false,"is_disabled":false,"rental_uris":{"android":"levelo://app?vid=e686f240-fe01-4d3e-a00d-0d4ccd78f9b1","ios":"levelo://app?vid=e686f240-fe01-4d3e-a00d-0d4ccd78f9b1"},"vehicle_type_id":"4","last_reported":1725916054,"current_range_meters":28400,"station_id":"ce4bh012rcd13ifvqcv0","pricing_plan_id":"cebpf4jnsgd1na2vs0mg"},{"bike_id":"bd0d60c4-6807-4cc7-8b4f-a6119e3969ec","system_id":"levelo_inurba_marseille","lat":43.309038,"lon":5.396546,"is_reserved":false,"is_disabled":false,"rental_uris":{"android":"levelo://app?vid=bd0d60c4-6807-4cc7-8b4f-a6119e3969ec","ios":"levelo://app?vid=bd0d60c4-6807-4cc7-8b4f-a6119e3969ec"},"vehicle_type_id":"4","last_reported":1725916054,"current_range_meters":22400,"station_id":"ce4bh012rcd13ifvqcv0","pricing_plan_id":"cebpf4jnsgd1na2vs0mg"},{"bike_id":"f95d1eeb-cb7b-45ae-9d97-0db8e4b8b902","system_id":"levelo_inurba_marseille","lat":43.313291,"lon":5.396838,"is_reserved":false,"is_disabled":false,"rental_uris":{"android":"levelo://app?vid=f95d1eeb-cb7b-45ae-9d97-0db8e4b8b902","ios":"levelo://app?vid=f95d1eeb-cb7b-45ae-9d97-0db8e4b8b902"},"vehicle_type_id":"4","last_reported":1725916054,"current_range_meters":30400,"station_id":"ce4bgvp2rcd13ifvqcu0","pricing_plan_id":"cebpf4jnsgd1na2vs0mg"},{"bike_id":"ccf5f123-415a-4562-b3f6-32d78ee464c6","system_id":"levelo_inurba_marseille","lat":43.3088,"lon":5.39661,"is_reserved":false,"is_disabled":false,"rental_uris":{"android":"levelo://app?vid=ccf5f123-415a-4562-b3f6-32d78ee464c6","ios":"levelo://app?vid=ccf5f123-415a-4562-b3f6-32d78ee464c6"},"vehicle_type_id":"4","last_reported":1725916054,"current_range_meters":28000,"station_id":"ce4bh012rcd13ifvqcv0","pricing_plan_id":"cebpf4jnsgd1na2vs0mg"},{"bike_id":"1613ced0-0a00-4dde-866b-eeca24781426","system_id":"levelo_inurba_marseille","lat":43.30885,"lon":5.39663,"is_reserved":false,"is_disabled":false,"rental_uris":{"android":"levelo://app?vid=1613ced0-0a00-4dde-866b-eeca24781426","ios":"levelo://app?vid=1613ced0-0a00-4dde-866b-eeca24781426"},"vehicle_type_id":"4","last_reported":1725916054,"current_range_meters":23200,"station_id":"ce4bh012rcd13ifvqcv0","pricing_plan_id":"cebpf4jnsgd1na2vs0mg"},