{"last_updated":1741979260,"ttl":60,"version":"2.2","data":{"bikes":[{"bike_id":"1ee51659-2a76-4471-9f01-e328f155d763","system_id":"levelo_inurba_marseille","lat":43.2925,"lon":5.38436,"is_reserved":false,"is_disabled":true,"rental_uris":{"android":"levelo://app?vid=1ee51659-2a76-4471-9f01-e328f155d763","ios":"levelo://app?vid=1ee51659-2a76-4471-9f01-e328f155d763"},"vehicle_type_id":"4","last_reported":1741979260,"current_range_meters":2000,"station_id":"ce4bh692rcd13ifvqea0","pricing_plan_id":"cebpf4jnsgd1na2vs0mg"},{"bike_id":"8afb5136-4438-4a68-97f3-78f03718ed3b","system_id":"levelo_inurba_marseille","lat":43.31082,"lon":5.42432,"is_reserved":false,"is_disabled":false,"rental_uris":{"android":"levelo://app?vid=8afb5136-4438-4a68-97f3-78f03718ed3b","ios":"levelo://app?vid=8afb5136-4438-4a68-97f3-78f03718ed3b"},"vehicle_type_id":"4","last_reported":1741979260,"current_range_meters":3200,"station_id":"ce4bhp92rcd13ifvqhag","pricing_plan_id":"cebpf4jnsgd1na2vs0mg"},{"bike_id":"9aeee8f7-dc67-4c00-b922-d0828f062273","system_id":"levelo_inurba_marseille","lat":43.29302,"lon":5.37153,"is_reserved":false,"is_disabled":false,"rental_uris":{"android":"levelo://app?vid=9aeee8f7-dc67-4c00-b922-d0828f062273","ios":"levelo://app?vid=9aeee8f7-dc67-4c00-b922-d0828f062273"},"vehicle_type_id":"4","last_reported":1741979260,"current_range_meters":3200,"station_id":"ce4bgh92rcd13ifvqb40","pricing_plan_id":"cebpf4jnsgd1na2vs0mg"},{"bike_id":"7ede5137-2e1f-44e6-ac4e-62e726d08520","system_id":"levelo_inurba_marseille","lat":43.26559,"lon":5.39049,"is_reserved":false,"is_disabled":true,"rental_uris":{"android":"levelo://app?vid=7ede5137-2e1f-44e6-ac4e-62e726d08520","ios":"levelo://app?vid=7ede5137-2e1f-44e6-ac4e-62e726d08520"},"vehicle_type_id":"4","last_reported":1741979260,"current_range_meters":3200,"station_id":"","pricing_plan_id":"cebpf4jnsgd1na2vs0mg"},{"bike_id":"86d5d0c6-37a5-41c0-a1d6-867a566b4d1c","system_id":"levelo_inurba_marseille","lat":43.25869,"lon":5.39899,"is_reserved":false,"is_disabled":false,"rental_uris":{"android":"levelo://app?vid=86d5d0c6-37a5-41c0-a1d6-867a566b4d1c","ios":"levelo://app?vid=86d5d0c6-37a5-41c0-a1d6-867a566b4d1c"},"vehicle_type_id":"4","last_reported":1741979260,"current_range_meters":3600,"station_id":"ce4bhl92rcd13ifvqghg","pricing_plan_id":"cebpf4jnsgd1na2vs0mg"},{"bike_id":"ef45c613-b1c4-4d30-9423-36997fdc968b","system_id":"levelo_inurba_marseille","lat":43.269177,"lon":5.402625,"is_reserved":false,"is_disabled":false,"rental_uris":{"android":"levelo://app?vid=ef45c613-b1c4-4d30-9423-36997fdc968b","ios":"levelo://app?vid=ef45c613-b1c4-4d30-9423-36997fdc968b"},"vehicle_type_id":"4","last_reported":1741979260,"current_range_meters":3600,"station_id":"cjm6bp8fraef2m0cb0m0","pricing_plan_id":"cebpf4jnsgd1na2vs0mg"},{"bike_id":"f538778a-9729-465e-9eb6-1dbba9c52281","system_id":"levelo_inurba_marseille","lat":43.32672,"lon":5.41014,"is_reserved":false,"is_disabled":false,"rental_uris":{"android":"levelo://app?vid=f538778a-9729-465e-9eb6-1dbba9c52281","ios":"levelo://app?vid=f538778a-9729-465e-9eb6-1dbba9c52281"},"vehicle_type_id":"4","last_reported":1741979260,"current_range_meters":3600,"station_id":"ce4bhpp2rcd13ifvqhgg","pricing_plan_id":"cebpf4jnsgd1na2vs0mg"},{"bike_id":"c8191912-9d81-4a05-a76a-33f95f4fbdb4","system_id":"levelo_inurba_marseille","lat":43.24181,"lon":5.39724,"is_reserved":false,"is_disabled":false,"rental_uris":{"android":"levelo://app?vid=c8191912-9d81-4a05-a76a-33f95f4fbdb4","ios":"levelo://app?vid=c8191912-9d81-4a05-a76a-33f95f4fbdb4"},"vehicle_type_id":"4","last_reported":1741979260,"current_range_meters":4000,"station_id":"ce4bhn12rcd13ifvqgpg","pricing_plan_id":"cebpf4jnsgd1na2vs0mg"},{"bike_id":"e91ad161-6a51-43cc-83ae-68a8e87f323a","system_id":"levelo_inurba_marseille","lat":43.30648,"lon":5.40085,"is_reserved":false,"is_disabled":false,"rental_uris":{"android":"levelo://app?vid=e91ad161-6a51-43cc-83ae-68a8e87f323a","ios":"levelo://app?vid=e91ad161-6a51-43cc-83ae-68a8e87f323a"},"vehicle_type_id":"4","last_reported":1741979260,"current_range_meters":4000,"station_id":"ce4bh112rcd13ifvqda0","pricing_plan_id":"cebpf4jnsgd1na2vs0mg"},{"bike_id":"154d0f4a-7cf1-4b4a-8919-807104d462e1","system_id":"levelo_inurba_marseille","lat":43.26664,"lon":5.38633,"is_reserved":false,"is_disabled":false,"rental_uris":{"android":"levelo://app?vid=154d0f4a-7cf1-4b4a-8919-807104d462e1","ios":"levelo://app?vid=154d0f4a-7cf1-4b4a-8919-807104d462e1"},"vehicle_type_id":"4","last_reported":1741979260,"current_range_meters":4000,"station_id":"","pricing_plan_id":"cebpf4jnsgd1na2vs0mg"},{"bike_id":"c58c5b4f-79a8-4e42-b474-7c362ec50915","system_id":"levelo_inurba_marseille","lat":43.30546,"lon":5.36715,"is_reserved":false,"is_disabled":false,"rental_uris":{"android":"levelo://app?vid=c58c5b4f-79a8-4e42-b474-7c362ec50915","ios":"levelo://app?vid=c58c5b4f-79a8-4e42-b474-7c362ec50915"},"vehicle_type_id":"4","last_reported":1741979260,"current_range_meters":4400,"station_id":"ce4bgrp2rcd13ifvqc9g","pricing_plan_id":"cebpf4jnsgd1na2vs0mg"},{"bike_id":"f084b66d-41e8-4d6e-8d07-bb94d47c60e4","system_id":"levelo_inurba_marseille","lat":43.29277,"lon":5.38421,"is_reserved":false,"is_disabled":false,"rental_uris":{"android":"levelo://app?vid=f084b66d-41e8-4d6e-8d07-bb94d47c60e4","ios":"levelo://app?vid=f084b66d-41e8-4d6e-8d07-bb94d47c60e4"},"vehicle_type_id":"4","last_reported":1741979260,"current_range_meters":4800,"station_id":"ce4bh692rcd13ifvqea0","pricing_plan_id":"cebpf4jnsgd1na2vs0mg"},{"bike_id":"7b35ad81-591c-4cc8-b125-1210315faf0d","system_id":"levelo_inurba_marseille","lat":43.2318,"lon":5.43675,"is_reserved":false,"is_disabled":false,"rental_uris":{"android":"levelo://app?vid=7b35ad81-591c-4cc8-b125-1210315faf0d","ios":"levelo://app?vid=7b35ad81-591c-4cc8-b125-1210315faf0d"},"vehicle_type_id":"4","last_reported":1741979260,"current_range_meters":5600,"station_id":"ce4bhmp2rcd13ifvqgog","pricing_plan_id":"cebpf4jnsgd1na2vs0mg"},{"bike_id":"8f203dfc-37af-45f9-92dd-9b9221f43f73","system_id":"levelo_inurba_marseille","lat":43.31287,"lon":5.40178,"is_reserved":false,"is_disabled":false,"rental_uris":{"android":"levelo://app?vid=8f203dfc-37af-45f9-92dd-9b9221f43f73","ios":"levelo://app?vid=8f203dfc-37af-45f9-92dd-9b9221f43f73"},"vehicle_type_id":"4","last_reported":1741979260,"current_range_meters":5600,"station_id":"ce4bh092rcd13ifvqd30","pricing_plan_id":"cebpf4jnsgd1na2vs0mg"},{"bike_id":"e350ce66-a995-469c-b4d1-ba6658fe49e2","system_id":"levelo_inurba_marseille","lat":43.27823,"lon":5.40704,"is_reserved":false,"is_disabled":false,"rental_uris":{"android":"levelo://app?vid=e350ce66-a995-469c-b4d1-ba6658fe49e2","ios":"levelo://app?vid=e350ce66-a995-469c-b4d1-ba6658fe49e2"},"vehicle_type_id":"4","last_reported":1741979260,"current_range_meters":5600,"station_id":"ce4bhnh2rcd13ifvqgtg","pricing_plan_id":"cebpf4jnsgd1na2vs0mg"},{"bike_id":"39df283f-35a5-4c44-9f0d-6dd6923a19a4","system_id":"levelo_inurba_marseille","lat":43.32092,"lon":5.3682,"is_reserved":false,"is_disabled":false,"rental_uris":{"android":"levelo://app?vid=39df283f-35a5-4c44-9f0d-6dd6923a19a4","ios":"levelo://app?vid=39df283f-35a5-4c44-9f0d-6dd6923a19a4"},"vehicle_type_id":"4","last_reported":1741979260,"current_range_meters":5600,"station_id":"ce4bhrh2rcd13ifvqhug","pricing_plan_id":"cebpf4jnsgd1na2vs0mg"},{"bike_id":"3d9e39bf-75b0-4a73-94ca-502beeb48e7b","system_id":"levelo_inurba_marseille","lat":43.29263,"lon":5.3844,"is_reserved":false,"is_disabled":false,"rental_uris":{"android":"levelo://app?vid=3d9e39bf-75b0-4a73-94ca-502beeb48e7b","ios":"levelo://app?vid=3d9e39bf-75b0-4a73-94ca-502beeb48e7b"},"vehicle_type_id":"4","last_reported":1741979260,"current_range_meters":6000,"station_id":"ce4bh692rcd13ifvqea0","pricing_plan_id":"cebpf4jnsgd1na2vs0mg"},{"bike_id":"83aa7ab2-d352-459f-bd36-67e70fb4a7aa","system_id":"levelo_inurba_marseille","lat":43.25949,"lon":5.40869,"is_reserved":false,"is_disabled":false,"rental_uris":{"android":"levelo://app?vid=83aa7ab2-d352-459f-bd36-67e70fb4a7aa","ios":"levelo://app?vid=83aa7ab2-d352-459f-bd36-67e70fb4a7aa"},"vehicle_type_id":"4","last_reported":1741979260,"current_range_meters":6000,"station_id":"ce4bhm92rcd13ifvqglg","pricing_plan_id":"cebpf4jnsgd1na2vs0mg"},{"bike_id":"ab3b3273-086b-4458-b5bf-fb61a149b41e","system_id":"levelo_inurba_marseille","lat":43.26225,"lon":5.40482,"is_reserved":false,"is_disabled":false,"rental_uris":{"android":"levelo://app?vid=ab3b3273-086b-4458-b5bf-fb61a149b41e","ios":"levelo://app?vid=ab3b3273-086b-4458-b5bf-fb61a149b41e"},"vehicle_type_id":"4","last_reported":1741979260,"current_range_meters":6000,"station_id":"ce4bhmh2rcd13ifvqgmg","pricing_plan_id":"cebpf4jnsgd1na2vs0mg"},{"bike_id":"af5df027-9916-41a5-8ab7-db2182f63a1a","system_id":"levelo_inurba_marseille","lat":43.29289,"lon":5.37443,"is_reserved":false,"is_disabled":false,"rental_uris":{"android":"levelo://app?vid=af5df027-9916-41a5-8ab7-db2182f63a1a","ios":"levelo://app?vid=af5df027-9916-41a5-8ab7-db2182f63a1a"},"vehicle_type_id":"4","last_reported":1741979260,"current_range_meters":6000,"station_id":"ce4bgi12rcd13ifvqb70","pricing_plan_id":"cebpf4jnsgd1na2vs0mg"},{"bike_id":"bf48c47a-62e4-4cf1-8bef-197b6f14e28f","system_id":"levelo_inurba_marseille","lat":43.31288,"lon":5.40164,"is_reserved":false,"is_disabled":false,"rental_uris":{"android":"levelo://app?vid=bf48c47a-62e4-4cf1-8bef-197b6f14e28f","ios":"levelo://app?vid=bf48c47a-62e4-4cf1-8bef-197b6f14e28f"},"vehicle_type_id":"4","last_reported":1741979260,"current_range_meters":6000,"station_id":"ce4bh092rcd13ifvqd30","pricing_plan_id":"cebpf4jnsgd1na2vs0mg"},{"bike_id":"1cbeb49c-8d51-46f2-ad03-8af78ea79d9a","system_id":"levelo_inurba_marseille","lat":43.24185,"lon":5.39689,"is_reserved":false,"is_disabled":false,"rental_uris":{"android":"levelo://app?vid=1cbeb49c-8d51-46f2-ad03-8af78ea79d9a","ios":"levelo://app?vid=1cbeb49c-8d51-46f2-ad03-8af78ea79d9a"},"vehicle_type_id":"4","last_reported":1741979260,"current_range_meters":6000,"station_id":"ce4bhn12rcd13ifvqgpg","pricing_plan_id":"cebpf4jnsgd1na2vs0mg"},{"bike_id":"b5e2320f-23da-4aa9-bc5e-32ed180a9249","system_id":"levelo_inurba_marseille","lat":43.28724,"lon":5.36104,"is_reserved":false,"is_disabled":false,"rental_uris":{"android":"levelo://app?vid=b5e2320f-23da-4aa9-bc5e-32ed180a9249","ios":"levelo://app?vid=b5e2320f-23da-4aa9-bc5e-32ed180a9249"},"vehicle_type_id":"4","last_reported":1741979260,"current_range_meters":6400,"station_id":"cki0cbj6b192h4jlfktg","pricing_plan_id":"cebpf4jnsgd1na2vs0mg"},{"bike_id":"ae38b678-c859-4b06-a525-6b6f5865d4c7","system_id":"levelo_inurba_marseille","lat":43.29529,"lon":5.38551,"is_reserved":false,"is_disabled":false,"rental_uris":{"android":"levelo://app?vid=ae38b678-c859-4b06-a525-6b6f5865d4c7","ios":"levelo://app?vid=ae38b678-c859-4b06-a525-6b6f5865d4c7"},"vehicle_type_id":"4","last_reported":1741979260,"current_range_meters":6400,"station_id":"ce4bgih2rcd13ifvqba0","pricing_plan_id":"cebpf4jnsgd1na2vs0mg"},{"bike_id":"9660dc48-862d-4b47-b820-fb425a6ad2ce","system_id":"levelo_inurba_marseille","lat":43.31234,"lon":5.36898,"is_reserved":false,"is_disabled":false,"rental_uris":{"android":"levelo://app?vid=9660dc48-862d-4b47-b820-fb425a6ad2ce","ios":"levelo://app?vid=9660dc48-862d-4b47-b820-fb425a6ad2ce"},"vehicle_type_id":"4","last_reported":1741979260,"current_range_meters":6400,"station_id":"ce4bgl92rcd13ifvqbq0","pricing_plan_id":"cebpf4jnsgd1na2vs0mg"},{"bike_id":"45dce5d6-fdd9-43b7-8cb1-c7832923b7a4","system_id":"levelo_inurba_marseille","lat":43.27072,"lon":5.40252,"is_reserved":false,"is_disabled":false,"rental_uris":{"android":"levelo://app?vid=45dce5d6-fdd9-43b7-8cb1-c7832923b7a4","ios":"levelo://app?vid=45dce5d6-fdd9-43b7-8cb1-c7832923b7a4"},"vehicle_type_id":"4","last_reported":1741979260,"current_range_meters":6400,"station_id":"ce4bhk92rcd13ifvqgc0","pricing_plan_id":"cebpf4jnsgd1na2vs0mg"},{"bike_id":"381e5960-baed-48f8-8dab-1969090eacff","system_id":"levelo_inurba_marseille","lat":43.29282,"lon":5.38438,"is_reserved":false,"is_disabled":false,"rental_uris":{"android":"levelo://app?vid=381e5960-baed-48f8-8dab-1969090eacff","ios":"levelo://app?vid=381e5960-baed-48f8-8dab-1969090eacff"},"vehicle_type_id":"4","last_reported":1741979260,"current_range_meters":6400,"station_id":"ce4bh692rcd13ifvqea0","pricing_plan_id":"cebpf4jnsgd1na2vs0mg"},{"bike_id":"2f90961e-57fe-42d8-b464-c09ab6000762","system_id":"levelo_inurba_marseille","lat":43.29784,"lon":5.3934,"is_reserved":false,"is_disabled":false,"rental_uris":{"android":"levelo://app?vid=2f90961e-57fe-42d8-b464-c09ab6000762","ios":"levelo://app?vid=2f90961e-57fe-42d8-b464-c09ab6000762"},"vehicle_type_id":"4","last_reported":1741979260,"current_range_meters":6400,"station_id":"chh1huq6cuj3fo74tm60","pricing_plan_id":"cebpf4jnsgd1na2vs0mg"},{"bike_id":"34419613-555b-4a7e-89c4-cf8a91ec83b7","system_id":"levelo_inurba_marseille","lat":43.27061,"lon":5.4027,"is_reserved":false,"is_disabled":false,"rental_uris":{"android":"levelo://app?vid=34419613-555b-4a7e-89c4-cf8a91ec83b7","ios":"levelo://app?vid=34419613-555b-4a7e-89c4-cf8a91ec83b7"},"vehicle_type_id":"4","last_reported":1741979260,"current_range_meters":6800,"station_id":"ce4bhk92rcd13ifvqgc0","pricing_plan_id":"cebpf4jnsgd1na2vs0mg"},{"bike_id":"9fb1c228-a1b8-4539-a4b7-479576b779f7","system_id":"levelo_inurba_marseille","lat":43.28972,"lon":5.37845,"is_reserved":false,"is_disabled":false,"rental_uris":{"android":"levelo://app?vid=9fb1c228-a1b8-4539-a4b7-479576b779f7","ios":"levelo://app?vid=9fb1c228-a1b8-4539-a4b7-479576b779f7"},"vehicle_type_id":"4","last_reported":1741979260,"current_range_meters":6800,"station_id":"ce4bh9p2rcd13ifvqed0","pricing_plan_id":"cebpf4jnsgd1na2vs0mg"},{"bike_id":"90f263ed-f955-44be-aa34-2a284417f95a","system_id":"levelo_inurba_marseille","lat":43.33023,"lon":5.39057,"is_reserved":false,"is_disabled":false,"rental_uris":{"android":"levelo://app?vid=90f263ed-f955-44be-aa34-2a284417f95a","ios":"levelo://app?vid=90f263ed-f955-44be-aa34-2a284417f95a"},"vehicle_type_id":"4","last_reported":1741979260,"current_range_meters":6800,"station_id":"ce4bhr92rcd13ifvqhrg","pricing_plan_id":"cebpf4jnsgd1na2vs0mg"},{"bike_id":"aa3c5349-766e-4992-8e95-c670f1f543fb","system_id":"levelo_inurba_marseille","lat":43.22905,"lon":5.40178,"is_reserved":false,"is_disabled":false,"rental_uris":{"android":"levelo://app?vid=aa3c5349-766e-4992-8e95-c670f1f543fb","ios":"levelo://app?vid=aa3c5349-766e-4992-8e95-c670f1f543fb"},"vehicle_type_id":"4","last_reported":1741979260,"current_range_meters":6800,"station_id":"","pricing_plan_id":"cebpf4jnsgd1na2vs0mg"},{"bike_id":"38680f11-7522-45a4-aa4c-fe09709812e3","system_id":"levelo_inurba_marseille","lat":43.2315,"lon":5.43677,"is_reserved":false,"is_disabled":false,"rental_uris":{"android":"levelo://app?vid=38680f11-7522-45a4-aa4c-fe09709812e3","ios":"levelo://app?vid=38680f11-7522-45a4-aa4c-fe09709812e3"},"vehicle_type_id":"4","last_reported":1741979260,"current_range_meters":6800,"station_id":"ce4bhmp2rcd13ifvqgog","pricing_plan_id":"cebpf4jnsgd1na2vs0mg"},{"bike_id":"103c7a06-db86-48e4-8c78-cb7bd34356de","system_id":"levelo_inurba_marseille","lat":43.29792,"lon":5.39358,"is_reserved":false,"is_disabled":false,"rental_uris":{"android":"levelo://app?vid=103c7a06-db86-48e4-8c78-cb7bd34356de","ios":"levelo://app?vid=103c7a06-db86-48e4-8c78-cb7bd34356de"},"vehicle_type_id":"4","last_reported":1741979260,"current_range_meters":6800,"station_id":"chh1huq6cuj3fo74tm60","pricing_plan_id":"cebpf4jnsgd1na2vs0mg"},{"bike_id":"65b768e3-c1cf-4501-87a4-b791bbbb018a","system_id":"levelo_inurba_marseille","lat":43.3032,"lon":5.40442,"is_reserved":false,"is_disabled":false,"rental_uris":{"android":"levelo://app?vid=65b768e3-c1cf-4501-87a4-b791bbbb018a","ios":"levelo://app?vid=65b768e3-c1cf-4501-87a4-b791bbbb018a"},"vehicle_type_id":"4","last_reported":1741979260,"current_range_meters":7200,"station_id":"ce4bh012rcd13ifvqd10","pricing_plan_id":"cebpf4jnsgd1na2vs0mg"},{"bike_id":"8939fbba-2fc8-450a-9027-04db4f4e697a","system_id":"levelo_inurba_marseille","lat":43.31443,"lon":5.40447,"is_reserved":false,"is_disabled":false,"rental_uris":{"android":"levelo://app?vid=8939fbba-2fc8-450a-9027-04db4f4e697a","ios":"levelo://app?vid=8939fbba-2fc8-450a-9027-04db4f4e697a"},"vehicle_type_id":"4","last_reported":1741979260,"current_range_meters":7200,"station_id":"","pricing_plan_id":"cebpf4jnsgd1na2vs0mg"},{"bike_id":"062c77f5-04bb-45b5-adec-40850e0e68d7","system_id":"levelo_inurba_marseille","lat":43.2931,"lon":5.37429,"is_reserved":false,"is_disabled":false,"rental_uris":{"android":"levelo://app?vid=062c77f5-04bb-45b5-adec-40850e0e68d7","ios":"levelo://app?vid=062c77f5-04bb-45b5-adec-40850e0e68d7"},"vehicle_type_id":"4","last_reported":1741979260,"current_range_meters":7200,"station_id":"ce4bgi12rcd13ifvqb70","pricing_plan_id":"cebpf4jnsgd1na2vs0mg"},{"bike_id":"49099df4-e910-4d19-bac8-b601dd8a9d8e","system_id":"levelo_inurba_marseille","lat":43.2721,"lon":5.39189,"is_reserved":false,"is_disabled":false,"rental_uris":{"android":"levelo://app?vid=49099df4-e910-4d19-bac8-b601dd8a9d8e","ios":"levelo://app?vid=49099df4-e910-4d19-bac8-b601dd8a9d8e"},"vehicle_type_id":"4","last_reported":1741979260,"current_range_meters":7200,"station_id":"ce4bhhp2rcd13ifvqfm0","pricing_plan_id":"cebpf4jnsgd1na2vs0mg"},{"bike_id":"8600e973-6bae-49e6-a541-074b0686e3d2","system_id":"levelo_inurba_marseille","lat":43.32367,"lon":5.38876,"is_reserved":false,"is_disabled":false,"rental_uris":{"android":"levelo://app?vid=8600e973-6bae-49e6-a541-074b0686e3d2","ios":"levelo://app?vid=8600e973-6bae-49e6-a541-074b0686e3d2"},"vehicle_type_id":"4","last_reported":1741979260,"current_range_meters":7200,"station_id":"ce4bhqp2rcd13ifvqhog","pricing_plan_id":"cebpf4jnsgd1na2vs0mg"},{"bike_id":"1179ea35-4831-4438-984a-d67269a5255b","system_id":"levelo_inurba_marseille","lat":43.23216,"lon":5.35552,"is_reserved":false,"is_disabled":false,"rental_uris":{"android":"levelo://app?vid=1179ea35-4831-4438-984a-d67269a5255b","ios":"levelo://app?vid=1179ea35-4831-4438-984a-d67269a5255b"},"vehicle_type_id":"4","last_reported":1741979260,"current_range_meters":7200,"station_id":"ce4bhu92rcd13ifvqi70","pricing_plan_id":"cebpf4jnsgd1na2vs0mg"},{"bike_id":"036d1bf1-ac2f-4d2c-8323-d3e5b9c9b6ad","system_id":"levelo_inurba_marseille","lat":43.30806,"lon":5.38158,"is_reserved":false,"is_disabled":false,"rental_uris":{"android":"levelo://app?vid=036d1bf1-ac2f-4d2c-8323-d3e5b9c9b6ad","ios":"levelo://app?vid=036d1bf1-ac2f-4d2c-8323-d3e5b9c9b6ad"},"vehicle_type_id":"4","last_reported":1741979260,"current_range_meters":7200,"station_id":"ce4bgt12rcd13ifvqce0","pricing_plan_id":"cebpf4jnsgd1na2vs0mg"},{"bike_id":"6944bb06-8a8c-4cf4-86a1-ca9561cf4ee4","system_id":"levelo_inurba_marseille","lat":43.23068,"lon":5.35536,"is_reserved":false,"is_disabled":false,"rental_uris":{"android":"levelo://app?vid=6944bb06-8a8c-4cf4-86a1-ca9561cf4ee4","ios":"levelo://app?vid=6944bb06-8a8c-4cf4-86a1-ca9561cf4ee4"},"vehicle_type_id":"4","last_reported":1741979260,"current_range_meters":7200,"station_id":"cpo3342slgdg3j2ifvpg","pricing_plan_id":"cebpf4jnsgd1na2vs0mg"},{"bike_id":"b88b244a-1dbc-4f6b-94dd-514dee297746","system_id":"levelo_inurba_marseille","lat":43.29844,"lon":5.36277,"is_reserved":false,"is_disabled":false,"rental_uris":{"android":"levelo://app?vid=b88b244a-1dbc-4f6b-94dd-514dee297746","ios":"levelo://app?vid=b88b244a-1dbc-4f6b-94dd-514dee297746"},"vehicle_type_id":"4","last_reported":1741979260,"current_range_meters":7200,"station_id":"ce4bgpp2rcd13ifvqc3g","pricing_plan_id":"cebpf4jnsgd1na2vs0mg"},{"bike_id":"d2c1304d-c6de-4e19-a363-2c0c4bdd9fb1","system_id":"levelo_inurba_marseille","lat":43.24653,"lon":5.38898,"is_reserved":false,"is_disabled":false,"rental_uris":{"android":"levelo://app?vid=d2c1304d-c6de-4e19-a363-2c0c4bdd9fb1","ios":"levelo://app?vid=d2c1304d-c6de-4e19-a363-2c0c4bdd9fb1"},"vehicle_type_id":"4","last_reported":1741979260,"current_range_meters":7200,"station_id":"ce4bhg12rcd13ifvqf60","pricing_plan_id":"cebpf4jnsgd1na2vs0mg"},{"bike_id":"fb25c0f6-5882-4734-a76a-2aeb0b117f9b","system_id":"levelo_inurba_marseille","lat":43.31752,"lon":5.39024,"is_reserved":false,"is_disabled":true,"rental_uris":{"android":"levelo://app?vid=fb25c0f6-5882-4734-a76a-2aeb0b117f9b","ios":"levelo://app?vid=fb25c0f6-5882-4734-a76a-2aeb0b117f9b"},"vehicle_type_id":"4","last_reported":1741979260,"current_range_meters":8000,"station_id":"ce4bhqp2rcd13ifvqhng","pricing_plan_id":"cebpf4jnsgd1na2vs0mg"},{"bike_id":"e48b5189-9d09-49fd-bc00-62268902f308","system_id":"levelo_inurba_marseille","lat":43.25035,"lon":5.38917,"is_reserved":false,"is_disabled":true,"rental_uris":{"android":"levelo://app?vid=e48b5189-9d09-49fd-bc00-62268902f308","ios":"levelo://app?vid=e48b5189-9d09-49fd-bc00-62268902f308"},"vehicle_type_id":"4","last_reported":1741979260,"current_range_meters":8000,"station_id":"ce4bhgp2rcd13ifvqfd0","pricing_plan_id":"cebpf4jnsgd1na2vs0mg"},{"bike_id":"e44ca467-607c-4889-9948-d0d6db6ee40c","system_id":"levelo_inurba_marseille","lat":43.241827,"lon":5.397096,"is_reserved":false,"is_disabled":false,"rental_uris":{"android":"levelo://app?vid=e44ca467-607c-4889-9948-d0d6db6ee40c","ios":"levelo://app?vid=e44ca467-607c-4889-9948-d0d6db6ee40c"},"vehicle_type_id":"4","last_reported":1741979260,"current_range_meters":8000,"station_id":"ce4bgkh2rcd13ifvqbk0","pricing_plan_id":"cebpf4jnsgd1na2vs0mg"},{"bike_id":"03317a15-545d-410f-8ecc-317af478f11d","system_id":"levelo_inurba_marseille","lat":43.24177,"lon":5.39737,"is_reserved":false,"is_disabled":false,"rental_uris":{"android":"levelo://app?vid=03317a15-545d-410f-8ecc-317af478f11d","ios":"levelo://app?vid=03317a15-545d-410f-8ecc-317af478f11d"},"vehicle_type_id":"4","last_reported":1741979260,"current_range_meters":8000,"station_id":"ce4bhn12rcd13ifvqgpg","pricing_plan_id":"cebpf4jnsgd1na2vs0mg"},{"bike_id":"6cec560f-8635-4801-8462-637e6f2c72c5","system_id":"levelo_inurba_marseille","lat":43.23207,"lon":5.35556,"is_reserved":false,"is_disabled":false,"rental_uris":{"android":"levelo://app?vid=6cec560f-8635-4801-8462-637e6f2c72c5","ios":"levelo://app?vid=6cec560f-8635-4801-8462-637e6f2c72c5"},"vehicle_type_id":"4","last_reported":1741979260,"current_range_meters":7200,"station_id":"ce4bhu92rcd13ifvqi70","pricing_plan_id":"cebpf4jnsgd1na2vs0mg"},{"bike_id":"de27148c-9139-4b87-b73a-06e43af57146","system_id":"levelo_inurba_marseille","lat":43.30899,"lon":5.36855,"is_reserved":false,"is_disabled":false,"rental_uris":{"android":"levelo://app?vid=de27148c-9139-4b87-b73a-06e43af57146","ios":"levelo://app?vid=de27148c-9139-4b87-b73a-06e43af57146"},"vehicle_type_id":"4","last_reported":1741979260,"current_range_meters":8000,"station_id":"ce4bgn92rcd13ifvqbvg","pricing_plan_id":"cebpf4jnsgd1na2vs0mg"},{"bike_id":"eaacf235-8450-47cf-be42-cfd7f836e00b","system_id":"levelo_inurba_marseille","lat":43.2931,"lon":5.37181,"is_reserved":false,"is_disabled":false,"rental_uris":{"android":"levelo://app?vid=eaacf235-8450-47cf-be42-cfd7f836e00b","ios":"levelo://app?vid=eaacf235-8450-47cf-be42-cfd7f836e00b"},"vehicle_type_id":"4","last_reported":1741979260,"current_range_meters":8000,"station_id":"ce4bgh92rcd13ifvqb40","pricing_plan_id":"cebpf4jnsgd1na2vs0mg"},{"bike_id":"cfbfae81-2b5a-4512-adc5-3545d5eb48ff","system_id":"levelo_inurba_marseille","lat":43.32365,"lon":5.38899,"is_reserved":false,"is_disabled":false,"rental_uris":{"android":"levelo://app?vid=cfbfae81-2b5a-4512-adc5-3545d5eb48ff","ios":"levelo://app?vid=cfbfae81-2b5a-4512-adc5-3545d5eb48ff"},"vehicle_type_id":"4","last_reported":1741979260,"current_range_meters":8000,"station_id":"ce4bhqp2rcd13ifvqhog","pricing_plan_id":"cebpf4jnsgd1na2vs0mg"},{"bike_id":"36ec5a15-215b-4367-a3ca-336aadd9a251","system_id":"levelo_inurba_marseille","lat":43.33746,"lon":5.3745,"is_reserved":false,"is_disabled":false,"rental_uris":{"android":"levelo://app?vid=36ec5a15-215b-4367-a3ca-336aadd9a251","ios":"levelo://app?vid=36ec5a15-215b-4367-a3ca-336aadd9a251"},"vehicle_type_id":"4","last_reported":1741979260,"current_range_meters":8000,"station_id":"","pricing_plan_id":"cebpf4jnsgd1na2vs0mg"},{"bike_id":"436bf6fd-98f0-4c70-968c-7fcac8f398a5","system_id":"levelo_inurba_marseille","lat":43.25076,"lon":5.41088,"is_reserved":false,"is_disabled":false,"rental_uris":{"android":"levelo://app?vid=436bf6fd-98f0-4c70-968c-7fcac8f398a5","ios":"levelo://app?vid=436bf6fd-98f0-4c70-968c-7fcac8f398a5"},"vehicle_type_id":"4","last_reported":1741979260,"current_range_meters":8400,"station_id":"","pricing_plan_id":"cebpf4jnsgd1na2vs0mg"},{"bike_id":"c9bd92af-ffb5-4eb1-a755-cb523ab505a3","system_id":"levelo_inurba_marseille","lat":43.29859,"lon":5.36278,"is_reserved":false,"is_disabled":false,"rental_uris":{"android":"levelo://app?vid=c9bd92af-ffb5-4eb1-a755-cb523ab505a3","ios":"levelo://app?vid=c9bd92af-ffb5-4eb1-a755-cb523ab505a3"},"vehicle_type_id":"4","last_reported":1741979260,"current_range_meters":8400,"station_id":"ce4bgpp2rcd13ifvqc3g","pricing_plan_id":"cebpf4jnsgd1na2vs0mg"},{"bike_id":"7121d818-13e2-43ed-b445-7134fefdd64f","system_id":"levelo_inurba_marseille","lat":43.23202,"lon":5.3556,"is_reserved":false,"is_disabled":false,"rental_uris":{"android":"levelo://app?vid=7121d818-13e2-43ed-b445-7134fefdd64f","ios":"levelo://app?vid=7121d818-13e2-43ed-b445-7134fefdd64f"},"vehicle_type_id":"4","last_reported":1741979260,"current_range_meters":8400,"station_id":"ce4bhu92rcd13ifvqi70","pricing_plan_id":"cebpf4jnsgd1na2vs0mg"},{"bike_id":"e680d681-5451-4e79-9861-5f89e81b6e1f","system_id":"levelo_inurba_marseille","lat":43.29037,"lon":5.38106,"is_reserved":false,"is_disabled":true,"rental_uris":{"android":"levelo://app?vid=e680d681-5451-4e79-9861-5f89e81b6e1f","ios":"levelo://app?vid=e680d681-5451-4e79-9861-5f89e81b6e1f"},"vehicle_type_id":"4","last_reported":1741979260,"current_range_meters":8400,"station_id":"ce4bh4p2rcd13ifvqe1g","pricing_plan_id":"cebpf4jnsgd1na2vs0mg"},{"bike_id":"2d8050c3-2e9a-46d5-8a98-55d399ba1d01","system_id":"levelo_inurba_marseille","lat":43.27815,"lon":5.40716,"is_reserved":false,"is_disabled":false,"rental_uris":{"android":"levelo://app?vid=2d8050c3-2e9a-46d5-8a98-55d399ba1d01","ios":"levelo://app?vid=2d8050c3-2e9a-46d5-8a98-55d399ba1d01"},"vehicle_type_id":"4","last_reported":1741979260,"current_range_meters":8400,"station_id":"ce4bhnh2rcd13ifvqgtg","pricing_plan_id":"cebpf4jnsgd1na2vs0mg"},{"bike_id":"7ae7b069-5937-401d-8084-f4c9d553767b","system_id":"levelo_inurba_marseille","lat":43.27949,"lon":5.41056,"is_reserved":false,"is_disabled":false,"rental_uris":{"android":"levelo://app?vid=7ae7b069-5937-401d-8084-f4c9d553767b","ios":"levelo://app?vid=7ae7b069-5937-401d-8084-f4c9d553767b"},"vehicle_type_id":"4","last_reported":1741979260,"current_range_meters":8400,"station_id":"ce4bhnp2rcd13ifvqh0g","pricing_plan_id":"cebpf4jnsgd1na2vs0mg"},{"bike_id":"515603ef-90e7-4219-aa8a-d28b97e06146","system_id":"levelo_inurba_marseille","lat":43.29176,"lon":5.37167,"is_reserved":false,"is_disabled":false,"rental_uris":{"android":"levelo://app?vid=515603ef-90e7-4219-aa8a-d28b97e06146","ios":"levelo://app?vid=515603ef-90e7-4219-aa8a-d28b97e06146"},"vehicle_type_id":"4","last_reported":1741979260,"current_range_meters":8400,"station_id":"ce4bha92rcd13ifvqeh0","pricing_plan_id":"cebpf4jnsgd1na2vs0mg"},{"bike_id":"703a27ab-78c1-4da2-9977-9c24f54834c8","system_id":"levelo_inurba_marseille","lat":43.32454,"lon":5.36589,"is_reserved":false,"is_disabled":false,"rental_uris":{"android":"levelo://app?vid=703a27ab-78c1-4da2-9977-9c24f54834c8","ios":"levelo://app?vid=703a27ab-78c1-4da2-9977-9c24f54834c8"},"vehicle_type_id":"4","last_reported":1741979260,"current_range_meters":8400,"station_id":"ce4bhs12rcd13ifvqhvg","pricing_plan_id":"cebpf4jnsgd1na2vs0mg"},{"bike_id":"b634fcd7-4303-4fed-a2f8-fcd04ed2a4dd","system_id":"levelo_inurba_marseille","lat":43.23071,"lon":5.35483,"is_reserved":false,"is_disabled":false,"rental_uris":{"android":"levelo://app?vid=b634fcd7-4303-4fed-a2f8-fcd04ed2a4dd","ios":"levelo://app?vid=b634fcd7-4303-4fed-a2f8-fcd04ed2a4dd"},"vehicle_type_id":"4","last_reported":1741979260,"current_range_meters":8400,"station_id":"cpo3342slgdg3j2ifvpg","pricing_plan_id":"cebpf4jnsgd1na2vs0mg"},{"bike_id":"3363e5ed-aafd-4c83-9f97-12270e6ffcf4","system_id":"levelo_inurba_marseille","lat":43.24864,"lon":5.40656,"is_reserved":false,"is_disabled":false,"rental_uris":{"android":"levelo://app?vid=3363e5ed-aafd-4c83-9f97-12270e6ffcf4","ios":"levelo://app?vid=3363e5ed-aafd-4c83-9f97-12270e6ffcf4"},"vehicle_type_id":"4","last_reported":1741979260,"current_range_meters":8400,"station_id":"","pricing_plan_id":"cebpf4jnsgd1na2vs0mg"},{"bike_id":"22eef8e9-28d0-4055-9740-16ced5bd43fc","system_id":"levelo_inurba_marseille","lat":43.24694,"lon":5.38199,"is_reserved":false,"is_disabled":false,"rental_uris":{"android":"levelo://app?vid=22eef8e9-28d0-4055-9740-16ced5bd43fc","ios":"levelo://app?vid=22eef8e9-28d0-4055-9740-16ced5bd43fc"},"vehicle_type_id":"4","last_reported":1741979260,"current_range_meters":8400,"station_id":"ce4bhih2rcd13ifvqfr0","pricing_plan_id":"cebpf4jnsgd1na2vs0mg"},{"bike_id":"05b19951-05c7-4551-b80d-21c23f5b8eea","system_id":"levelo_inurba_marseille","lat":43.29905,"lon":5.38139,"is_reserved":false,"is_disabled":false,"rental_uris":{"android":"levelo://app?vid=05b19951-05c7-4551-b80d-21c23f5b8eea","ios":"levelo://app?vid=05b19951-05c7-4551-b80d-21c23f5b8eea"},"vehicle_type_id":"4","last_reported":1741979260,"current_range_meters":8800,"station_id":"ce4bgj12rcd13ifvqbc0","pricing_plan_id":"cebpf4jnsgd1na2vs0mg"},{"bike_id":"6d69bcb3-9f1f-47de-bcf3-40d0e4d7bc71","system_id":"levelo_inurba_marseille","lat":43.27807,"lon":5.407144,"is_reserved":false,"is_disabled":false,"rental_uris":{"android":"levelo://app?vid=6d69bcb3-9f1f-47de-bcf3-40d0e4d7bc71","ios":"levelo://app?vid=6d69bcb3-9f1f-47de-bcf3-40d0e4d7bc71"},"vehicle_type_id":"4","last_reported":1741979260,"current_range_meters":8800,"station_id":"ce4bhnh2rcd13ifvqgtg","pricing_plan_id":"cebpf4jnsgd1na2vs0mg"},{"bike_id":"855b3a5b-edbd-40b3-aaa6-cc3025217d5d","system_id":"levelo_inurba_marseille","lat":43.2987,"lon":5.39752,"is_reserved":false,"is_disabled":false,"rental_uris":{"android":"levelo://app?vid=855b3a5b-edbd-40b3-aaa6-cc3025217d5d","ios":"levelo://app?vid=855b3a5b-edbd-40b3-aaa6-cc3025217d5d"},"vehicle_type_id":"4","last_reported":1741979260,"current_range_meters":8800,"station_id":"ce4bh0h2rcd13ifvqd50","pricing_plan_id":"cebpf4jnsgd1na2vs0mg"},{"bike_id":"cbddc5c5-7ab1-465c-8280-c37e86aaf257","system_id":"levelo_inurba_marseille","lat":43.280396,"lon":5.408185,"is_reserved":false,"is_disabled":false,"rental_uris":{"android":"levelo://app?vid=cbddc5c5-7ab1-465c-8280-c37e86aaf257","ios":"levelo://app?vid=cbddc5c5-7ab1-465c-8280-c37e86aaf257"},"vehicle_type_id":"4","last_reported":1741979260,"current_range_meters":8800,"station_id":"ce4bh012rcd13ifvqd10","pricing_plan_id":"cebpf4jnsgd1na2vs0mg"},{"bike_id":"07236262-3c87-4de4-99f1-96b5d4ba740c","system_id":"levelo_inurba_marseille","lat":43.29427,"lon":5.38625,"is_reserved":false,"is_disabled":false,"rental_uris":{"android":"levelo://app?vid=07236262-3c87-4de4-99f1-96b5d4ba740c","ios":"levelo://app?vid=07236262-3c87-4de4-99f1-96b5d4ba740c"},"vehicle_type_id":"4","last_reported":1741979260,"current_range_meters":8800,"station_id":"ce4bh2h2rcd13ifvqdh0","pricing_plan_id":"cebpf4jnsgd1na2vs0mg"},{"bike_id":"07b574c7-4187-4b54-b652-2727b8ee53b7","system_id":"levelo_inurba_marseille","lat":43.292236,"lon":5.360736,"is_reserved":false,"is_disabled":false,"rental_uris":{"android":"levelo://app?vid=07b574c7-4187-4b54-b652-2727b8ee53b7","ios":"levelo://app?vid=07b574c7-4187-4b54-b652-2727b8ee53b7"},"vehicle_type_id":"4","last_reported":1741979260,"current_range_meters":8800,"station_id":"ce4bhah2rcd13ifvqej0","pricing_plan_id":"cebpf4jnsgd1na2vs0mg"},{"bike_id":"594a33ea-5c85-49b0-893b-48b1f5e1011a","system_id":"levelo_inurba_marseille","lat":43.30843,"lon":5.40267,"is_reserved":false,"is_disabled":true,"rental_uris":{"android":"levelo://app?vid=594a33ea-5c85-49b0-893b-48b1f5e1011a","ios":"levelo://app?vid=594a33ea-5c85-49b0-893b-48b1f5e1011a"},"vehicle_type_id":"4","last_reported":1741979260,"current_range_meters":8800,"station_id":"ce4bgvp2rcd13ifvqct0","pricing_plan_id":"cebpf4jnsgd1na2vs0mg"},{"bike_id":"38728733-26e0-4cc5-b04d-99d7a3ef894e","system_id":"levelo_inurba_marseille","lat":43.31421,"lon":5.37341,"is_reserved":false,"is_disabled":false,"rental_uris":{"android":"levelo://app?vid=38728733-26e0-4cc5-b04d-99d7a3ef894e","ios":"levelo://app?vid=38728733-26e0-4cc5-b04d-99d7a3ef894e"},"vehicle_type_id":"4","last_reported":1741979260,"current_range_meters":8800,"station_id":"","pricing_plan_id":"cebpf4jnsgd1na2vs0mg"},{"bike_id":"e0e30bde-b3cd-401c-8471-106ddd42662e","system_id":"levelo_inurba_marseille","lat":43.31424,"lon":5.38437,"is_reserved":false,"is_disabled":false,"rental_uris":{"android":"levelo://app?vid=e0e30bde-b3cd-401c-8471-106ddd42662e","ios":"levelo://app?vid=e0e30bde-b3cd-401c-8471-106ddd42662e"},"vehicle_type_id":"4","last_reported":1741979260,"current_range_meters":8800,"station_id":"","pricing_plan_id":"cebpf4jnsgd1na2vs0mg"},{"bike_id":"48f968e9-2670-450c-9a50-b12a7ac1907f","system_id":"levelo_inurba_marseille","lat":43.257225,"lon":5.411145,"is_reserved":false,"is_disabled":false,"rental_uris":{"android":"levelo://app?vid=48f968e9-2670-450c-9a50-b12a7ac1907f","ios":"levelo://app?vid=48f968e9-2670-450c-9a50-b12a7ac1907f"},"vehicle_type_id":"4","last_reported":1741979260,"current_range_meters":9200,"station_id":"ce4bhkp2rcd13ifvqgd0","pricing_plan_id":"cebpf4jnsgd1na2vs0mg"},{"bike_id":"91b12a37-f477-4c10-ad1a-c6fc1ad2db69","system_id":"levelo_inurba_marseille","lat":43.27995,"lon":5.42469,"is_reserved":false,"is_disabled":false,"rental_uris":{"android":"levelo://app?vid=91b12a37-f477-4c10-ad1a-c6fc1ad2db69","ios":"levelo://app?vid=91b12a37-f477-4c10-ad1a-c6fc1ad2db69"},"vehicle_type_id":"4","last_reported":1741979260,"current_range_meters":9200,"station_id":"","pricing_plan_id":"cebpf4jnsgd1na2vs0mg"},{"bike_id":"904f3f0b-4dba-406e-8b6a-d20c60bd09ce","system_id":"levelo_inurba_marseille","lat":43.29308,"lon":5.37174,"is_reserved":false,"is_disabled":false,"rental_uris":{"android":"levelo://app?vid=904f3f0b-4dba-406e-8b6a-d20c60bd09ce","ios":"levelo://app?vid=904f3f0b-4dba-406e-8b6a-d20c60bd09ce"},"vehicle_type_id":"4","last_reported":1741979260,"current_range_meters":9200,"station_id":"ce4bgh92rcd13ifvqb40","pricing_plan_id":"cebpf4jnsgd1na2vs0mg"},{"bike_id":"e6710280-bd86-46cd-80e3-b715c7f5659b","system_id":"levelo_inurba_marseille","lat":43.24401,"lon":5.37063,"is_reserved":false,"is_disabled":false,"rental_uris":{"android":"levelo://app?vid=e6710280-bd86-46cd-80e3-b715c7f5659b","ios":"levelo://app?vid=e6710280-bd86-46cd-80e3-b715c7f5659b"},"vehicle_type_id":"4","last_reported":1741979260,"current_range_meters":9200,"station_id":"ce4bhhh2rcd13ifvqfk0","pricing_plan_id":"cebpf4jnsgd1na2vs0mg"},{"bike_id":"e212c6ee-127e-48a1-bc80-715d52ad33e6","system_id":"levelo_inurba_marseille","lat":43.26183,"lon":5.37926,"is_reserved":false,"is_disabled":false,"rental_uris":{"android":"levelo://app?vid=e212c6ee-127e-48a1-bc80-715d52ad33e6","ios":"levelo://app?vid=e212c6ee-127e-48a1-bc80-715d52ad33e6"},"vehicle_type_id":"4","last_reported":1741979260,"current_range_meters":9600,"station_id":"","pricing_plan_id":"cebpf4jnsgd1na2vs0mg"},{"bike_id":"848cd55d-5275-458e-9a9a-4328d4767fa9","system_id":"levelo_inurba_marseille","lat":43.24184,"lon":5.39703,"is_reserved":false,"is_disabled":false,"rental_uris":{"android":"levelo://app?vid=848cd55d-5275-458e-9a9a-4328d4767fa9","ios":"levelo://app?vid=848cd55d-5275-458e-9a9a-4328d4767fa9"},"vehicle_type_id":"4","last_reported":1741979260,"current_range_meters":9600,"station_id":"ce4bhn12rcd13ifvqgpg","pricing_plan_id":"cebpf4jnsgd1na2vs0mg"},{"bike_id":"d19d132d-5c9b-40d9-b653-007845d6953b","system_id":"levelo_inurba_marseille","lat":43.27911,"lon":5.39575,"is_reserved":false,"is_disabled":false,"rental_uris":{"android":"levelo://app?vid=d19d132d-5c9b-40d9-b653-007845d6953b","ios":"levelo://app?vid=d19d132d-5c9b-40d9-b653-007845d6953b"},"vehicle_type_id":"4","last_reported":1741979260,"current_range_meters":9600,"station_id":"ce4bhf92rcd13ifvqf40","pricing_plan_id":"cebpf4jnsgd1na2vs0mg"},{"bike_id":"92a4b2de-1a40-47de-8941-8583c8b587d4","system_id":"levelo_inurba_marseille","lat":43.27665,"lon":5.38916,"is_reserved":false,"is_disabled":true,"rental_uris":{"android":"levelo://app?vid=92a4b2de-1a40-47de-8941-8583c8b587d4","ios":"levelo://app?vid=92a4b2de-1a40-47de-8941-8583c8b587d4"},"vehicle_type_id":"4","last_reported":1741979260,"current_range_meters":9600,"station_id":"ce4bhi12rcd13ifvqfo0","pricing_plan_id":"cebpf4jnsgd1na2vs0mg"},{"bike_id":"9d2d752e-416c-49e5-a687-1caacbda7dcb","system_id":"levelo_inurba_marseille","lat":43.28122,"lon":5.39654,"is_reserved":false,"is_disabled":true,"rental_uris":{"android":"levelo://app?vid=9d2d752e-416c-49e5-a687-1caacbda7dcb","ios":"levelo://app?vid=9d2d752e-416c-49e5-a687-1caacbda7dcb"},"vehicle_type_id":"4","last_reported":1741979260,"current_range_meters":9600,"station_id":"ce4bho12rcd13ifvqh2g","pricing_plan_id":"cebpf4jnsgd1na2vs0mg"},{"bike_id":"2ec0f046-4e68-4150-a618-5c892d6b2cb5","system_id":"levelo_inurba_marseille","lat":43.26253,"lon":5.40442,"is_reserved":false,"is_disabled":false,"rental_uris":{"android":"levelo://app?vid=2ec0f046-4e68-4150-a618-5c892d6b2cb5","ios":"levelo://app?vid=2ec0f046-4e68-4150-a618-5c892d6b2cb5"},"vehicle_type_id":"4","last_reported":1741979260,"current_range_meters":9600,"station_id":"ce4bhmh2rcd13ifvqgmg","pricing_plan_id":"cebpf4jnsgd1na2vs0mg"},{"bike_id":"e790eff3-7f50-4096-8be0-586a448cabf2","system_id":"levelo_inurba_marseille","lat":43.27954,"lon":5.41049,"is_reserved":false,"is_disabled":false,"rental_uris":{"android":"levelo://app?vid=e790eff3-7f50-4096-8be0-586a448cabf2","ios":"levelo://app?vid=e790eff3-7f50-4096-8be0-586a448cabf2"},"vehicle_type_id":"4","last_reported":1741979260,"current_range_meters":10000,"station_id":"ce4bhnp2rcd13ifvqh0g","pricing_plan_id":"cebpf4jnsgd1na2vs0mg"},{"bike_id":"9ea3937d-e792-4a95-ba75-e31f7b2f071d","system_id":"levelo_inurba_marseille","lat":43.30135,"lon":5.38774,"is_reserved":false,"is_disabled":false,"rental_uris":{"android":"levelo://app?vid=9ea3937d-e792-4a95-ba75-e31f7b2f071d","ios":"levelo://app?vid=9ea3937d-e792-4a95-ba75-e31f7b2f071d"},"vehicle_type_id":"4","last_reported":1741979260,"current_range_meters":10000,"station_id":"ce4bghh2rcd13ifvqb60","pricing_plan_id":"cebpf4jnsgd1na2vs0mg"},{"bike_id":"dc2dc920-7061-4611-9ad3-02d4898aaa15","system_id":"levelo_inurba_marseille","lat":43.23172,"lon":5.40008,"is_reserved":false,"is_disabled":false,"rental_uris":{"android":"levelo://app?vid=dc2dc920-7061-4611-9ad3-02d4898aaa15","ios":"levelo://app?vid=dc2dc920-7061-4611-9ad3-02d4898aaa15"},"vehicle_type_id":"4","last_reported":1741979260,"current_range_meters":10000,"station_id":"ce4bhn12rcd13ifvqgqg","pricing_plan_id":"cebpf4jnsgd1na2vs0mg"},{"bike_id":"48f3a40e-658c-443b-8908-cf181e5627b0","system_id":"levelo_inurba_marseille","lat":43.30126,"lon":5.3733,"is_reserved":false,"is_disabled":false,"rental_uris":{"android":"levelo://app?vid=48f3a40e-658c-443b-8908-cf181e5627b0","ios":"levelo://app?vid=48f3a40e-658c-443b-8908-cf181e5627b0"},"vehicle_type_id":"4","last_reported":1741979260,"current_range_meters":10000,"station_id":"","pricing_plan_id":"cebpf4jnsgd1na2vs0mg"},{"bike_id":"accb5d03-5b4c-4725-aab6-b7db83936d09","system_id":"levelo_inurba_marseille","lat":43.28582,"lon":5.39484,"is_reserved":false,"is_disabled":false,"rental_uris":{"android":"levelo://app?vid=accb5d03-5b4c-4725-aab6-b7db83936d09","ios":"levelo://app?vid=accb5d03-5b4c-4725-aab6-b7db83936d09"},"vehicle_type_id":"4","last_reported":1741979260,"current_range_meters":10800,"station_id":"ce4bh292rcd13ifvqdg0","pricing_plan_id":"cebpf4jnsgd1na2vs0mg"},{"bike_id":"97a33746-5370-4d96-9a94-9c9d4ba754f2","system_id":"levelo_inurba_marseille","lat":43.32276,"lon":5.38278,"is_reserved":false,"is_disabled":false,"rental_uris":{"android":"levelo://app?vid=97a33746-5370-4d96-9a94-9c9d4ba754f2","ios":"levelo://app?vid=97a33746-5370-4d96-9a94-9c9d4ba754f2"},"vehicle_type_id":"4","last_reported":1741979260,"current_range_meters":10800,"station_id":"ce4bhr12rcd13ifvqhqg","pricing_plan_id":"cebpf4jnsgd1na2vs0mg"},{"bike_id":"6d3d3704-cff4-46a1-8ed6-f8aa1cd4a81a","system_id":"levelo_inurba_marseille","lat":43.2998,"lon":5.385,"is_reserved":false,"is_disabled":false,"rental_uris":{"android":"levelo://app?vid=6d3d3704-cff4-46a1-8ed6-f8aa1cd4a81a","ios":"levelo://app?vid=6d3d3704-cff4-46a1-8ed6-f8aa1cd4a81a"},"vehicle_type_id":"4","last_reported":1741979260,"current_range_meters":10800,"station_id":"ce4bgj92rcd13ifvqbd0","pricing_plan_id":"cebpf4jnsgd1na2vs0mg"},{"bike_id":"23338175-915e-43cb-a56e-4a1497c3630c","system_id":"levelo_inurba_marseille","lat":43.24182,"lon":5.39728,"is_reserved":false,"is_disabled":false,"rental_uris":{"android":"levelo://app?vid=23338175-915e-43cb-a56e-4a1497c3630c","ios":"levelo://app?vid=23338175-915e-43cb-a56e-4a1497c3630c"},"vehicle_type_id":"4","last_reported":1741979260,"current_range_meters":10800,"station_id":"ce4bhn12rcd13ifvqgpg","pricing_plan_id":"cebpf4jnsgd1na2vs0mg"},{"bike_id":"59822710-2d10-4517-868b-42cfab329759","system_id":"levelo_inurba_marseille","lat":43.23187,"lon":5.35568,"is_reserved":false,"is_disabled":false,"rental_uris":{"android":"levelo://app?vid=59822710-2d10-4517-868b-42cfab329759","ios":"levelo://app?vid=59822710-2d10-4517-868b-42cfab329759"},"vehicle_type_id":"4","last_reported":1741979260,"current_range_meters":10800,"station_id":"ce4bhu92rcd13ifvqi70","pricing_plan_id":"cebpf4jnsgd1na2vs0mg"},{"bike_id":"bd7fb638-a561-41df-90ca-f32685780427","system_id":"levelo_inurba_marseille","lat":43.22928,"lon":5.35382,"is_reserved":false,"is_disabled":false,"rental_uris":{"android":"levelo://app?vid=bd7fb638-a561-41df-90ca-f32685780427","ios":"levelo://app?vid=bd7fb638-a561-41df-90ca-f32685780427"},"vehicle_type_id":"4","last_reported":1741979260,"current_range_meters":10800,"station_id":"cpo3532slgdg3j2ikp40","pricing_plan_id":"cebpf4jnsgd1na2vs0mg"},{"bike_id":"ccd31dea-9090-4259-b977-143b30ebefa0","system_id":"levelo_inurba_marseille","lat":43.2617,"lon":5.37488,"is_reserved":false,"is_disabled":false,"rental_uris":{"android":"levelo://app?vid=ccd31dea-9090-4259-b977-143b30ebefa0","ios":"levelo://app?vid=ccd31dea-9090-4259-b977-143b30ebefa0"},"vehicle_type_id":"4","last_reported":1741979260,"current_range_meters":10800,"station_id":"ce4bhgp2rcd13ifvqfc0","pricing_plan_id":"cebpf4jnsgd1na2vs0mg"},{"bike_id":"86fcca85-db7a-48fc-8198-762956d50b68","system_id":"levelo_inurba_marseille","lat":43.29316,"lon":5.3712,"is_reserved":false,"is_disabled":false,"rental_uris":{"android":"levelo://app?vid=86fcca85-db7a-48fc-8198-762956d50b68","ios":"levelo://app?vid=86fcca85-db7a-48fc-8198-762956d50b68"},"vehicle_type_id":"4","last_reported":1741979260,"current_range_meters":10800,"station_id":"ce4bgh92rcd13ifvqb40","pricing_plan_id":"cebpf4jnsgd1na2vs0mg"},{"bike_id":"00b5f516-84b0-41a3-b2de-276bd6882db9","system_id":"levelo_inurba_marseille","lat":43.30186,"lon":5.36612,"is_reserved":false,"is_disabled":false,"rental_uris":{"android":"levelo://app?vid=00b5f516-84b0-41a3-b2de-276bd6882db9","ios":"levelo://app?vid=00b5f516-84b0-41a3-b2de-276bd6882db9"},"vehicle_type_id":"4","last_reported":1741979260,"current_range_meters":11200,"station_id":"ce4bgrh2rcd13ifvqc8g","pricing_plan_id":"cebpf4jnsgd1na2vs0mg"},{"bike_id":"7a4d6a28-e36e-46c5-9eac-a6ac1b26e727","system_id":"levelo_inurba_marseille","lat":43.30959,"lon":5.39037,"is_reserved":false,"is_disabled":false,"rental_uris":{"android":"levelo://app?vid=7a4d6a28-e36e-46c5-9eac-a6ac1b26e727","ios":"levelo://app?vid=7a4d6a28-e36e-46c5-9eac-a6ac1b26e727"},"vehicle_type_id":"4","last_reported":1741979260,"current_range_meters":11200,"station_id":"ce4bgup2rcd13ifvqco0","pricing_plan_id":"cebpf4jnsgd1na2vs0mg"},{"bike_id":"cb256735-523d-45d3-9c1c-b9c7b6320183","system_id":"levelo_inurba_marseille","lat":43.31576,"lon":5.4038,"is_reserved":false,"is_disabled":false,"rental_uris":{"android":"levelo://app?vid=cb256735-523d-45d3-9c1c-b9c7b6320183","ios":"levelo://app?vid=cb256735-523d-45d3-9c1c-b9c7b6320183"},"vehicle_type_id":"4","last_reported":1741979260,"current_range_meters":11200,"station_id":"","pricing_plan_id":"cebpf4jnsgd1na2vs0mg"},{"bike_id":"8a5bd971-61c1-4475-933b-dffdb284dd01","system_id":"levelo_inurba_marseille","lat":43.25023,"lon":5.38921,"is_reserved":false,"is_disabled":false,"rental_uris":{"android":"levelo://app?vid=8a5bd971-61c1-4475-933b-dffdb284dd01","ios":"levelo://app?vid=8a5bd971-61c1-4475-933b-dffdb284dd01"},"vehicle_type_id":"4","last_reported":1741979260,"current_range_meters":11600,"station_id":"ce4bhgp2rcd13ifvqfd0","pricing_plan_id":"cebpf4jnsgd1na2vs0mg"},{"bike_id":"a94019c0-ca42-4ee0-806c-651c2303e1d5","system_id":"levelo_inurba_marseille","lat":43.29248,"lon":5.3844,"is_reserved":false,"is_disabled":false,"rental_uris":{"android":"levelo://app?vid=a94019c0-ca42-4ee0-806c-651c2303e1d5","ios":"levelo://app?vid=a94019c0-ca42-4ee0-806c-651c2303e1d5"},"vehicle_type_id":"4","last_reported":1741979260,"current_range_meters":11600,"station_id":"ce4bh692rcd13ifvqea0","pricing_plan_id":"cebpf4jnsgd1na2vs0mg"},{"bike_id":"626c9af7-fa67-478e-87d6-5f035f5dc6a5","system_id":"levelo_inurba_marseille","lat":43.24075,"lon":5.3776,"is_reserved":false,"is_disabled":false,"rental_uris":{"android":"levelo://app?vid=626c9af7-fa67-478e-87d6-5f035f5dc6a5","ios":"levelo://app?vid=626c9af7-fa67-478e-87d6-5f035f5dc6a5"},"vehicle_type_id":"4","last_reported":1741979260,"current_range_meters":12000,"station_id":"ce4bhnp2rcd13ifvqgvg","pricing_plan_id":"cebpf4jnsgd1na2vs0mg"},{"bike_id":"26b67b0e-0c95-421d-90f8-0f61bb9e4c42","system_id":"levelo_inurba_marseille","lat":43.317459,"lon":5.424,"is_reserved":false,"is_disabled":false,"rental_uris":{"android":"levelo://app?vid=26b67b0e-0c95-421d-90f8-0f61bb9e4c42","ios":"levelo://app?vid=26b67b0e-0c95-421d-90f8-0f61bb9e4c42"},"vehicle_type_id":"4","last_reported":1741979260,"current_range_meters":12000,"station_id":"ce4bhp92rcd13ifvqhbg","pricing_plan_id":"cebpf4jnsgd1na2vs0mg"},{"bike_id":"441146ec-c2e7-45f1-b6bc-e65405bbf9fd","system_id":"levelo_inurba_marseille","lat":43.27611,"lon":5.36138,"is_reserved":false,"is_disabled":false,"rental_uris":{"android":"levelo://app?vid=441146ec-c2e7-45f1-b6bc-e65405bbf9fd","ios":"levelo://app?vid=441146ec-c2e7-45f1-b6bc-e65405bbf9fd"},"vehicle_type_id":"4","last_reported":1741979260,"current_range_meters":12000,"station_id":"ce4bgj92rcd13ifvqbe0","pricing_plan_id":"cebpf4jnsgd1na2vs0mg"},{"bike_id":"a821e79a-66a2-4bc9-8f40-e7aad51c94db","system_id":"levelo_inurba_marseille","lat":43.29569,"lon":5.39669,"is_reserved":false,"is_disabled":false,"rental_uris":{"android":"levelo://app?vid=a821e79a-66a2-4bc9-8f40-e7aad51c94db","ios":"levelo://app?vid=a821e79a-66a2-4bc9-8f40-e7aad51c94db"},"vehicle_type_id":"4","last_reported":1741979260,"current_range_meters":12000,"station_id":"","pricing_plan_id":"cebpf4jnsgd1na2vs0mg"},{"bike_id":"04f149c6-a120-4218-b435-a952d9eb67d0","system_id":"levelo_inurba_marseille","lat":43.24863,"lon":5.40651,"is_reserved":false,"is_disabled":false,"rental_uris":{"android":"levelo://app?vid=04f149c6-a120-4218-b435-a952d9eb67d0","ios":"levelo://app?vid=04f149c6-a120-4218-b435-a952d9eb67d0"},"vehicle_type_id":"4","last_reported":1741979260,"current_range_meters":12000,"station_id":"","pricing_plan_id":"cebpf4jnsgd1na2vs0mg"},{"bike_id":"65bea2c5-78a7-4fbf-92b5-f338edebb748","system_id":"levelo_inurba_marseille","lat":43.26123,"lon":5.41468,"is_reserved":false,"is_disabled":false,"rental_uris":{"android":"levelo://app?vid=65bea2c5-78a7-4fbf-92b5-f338edebb748","ios":"levelo://app?vid=65bea2c5-78a7-4fbf-92b5-f338edebb748"},"vehicle_type_id":"4","last_reported":1741979260,"current_range_meters":12400,"station_id":"","pricing_plan_id":"cebpf4jnsgd1na2vs0mg"},{"bike_id":"5c09fa10-66af-4d08-984a-1d41e4e2c41b","system_id":"levelo_inurba_marseille","lat":43.2318,"lon":5.40004,"is_reserved":false,"is_disabled":false,"rental_uris":{"android":"levelo://app?vid=5c09fa10-66af-4d08-984a-1d41e4e2c41b","ios":"levelo://app?vid=5c09fa10-66af-4d08-984a-1d41e4e2c41b"},"vehicle_type_id":"4","last_reported":1741979260,"current_range_meters":12400,"station_id":"ce4bhn12rcd13ifvqgqg","pricing_plan_id":"cebpf4jnsgd1na2vs0mg"},{"bike_id":"385ae15c-2c3c-4490-a507-5eb20fb883a5","system_id":"levelo_inurba_marseille","lat":43.2594,"lon":5.40905,"is_reserved":false,"is_disabled":false,"rental_uris":{"android":"levelo://app?vid=385ae15c-2c3c-4490-a507-5eb20fb883a5","ios":"levelo://app?vid=385ae15c-2c3c-4490-a507-5eb20fb883a5"},"vehicle_type_id":"4","last_reported":1741979260,"current_range_meters":12400,"station_id":"ce4bhm92rcd13ifvqglg","pricing_plan_id":"cebpf4jnsgd1na2vs0mg"},{"bike_id":"fb43a698-0a33-4b8e-8a82-bd1cca9fe3b4","system_id":"levelo_inurba_marseille","lat":43.29766,"lon":5.39352,"is_reserved":false,"is_disabled":false,"rental_uris":{"android":"levelo://app?vid=fb43a698-0a33-4b8e-8a82-bd1cca9fe3b4","ios":"levelo://app?vid=fb43a698-0a33-4b8e-8a82-bd1cca9fe3b4"},"vehicle_type_id":"4","last_reported":1741979260,"current_range_meters":12400,"station_id":"chh1huq6cuj3fo74tm60","pricing_plan_id":"cebpf4jnsgd1na2vs0mg"},{"bike_id":"176ef32d-a0be-47de-a1ad-608cb5c2f077","system_id":"levelo_inurba_marseille","lat":43.28677,"lon":5.38675,"is_reserved":false,"is_disabled":false,"rental_uris":{"android":"levelo://app?vid=176ef32d-a0be-47de-a1ad-608cb5c2f077","ios":"levelo://app?vid=176ef32d-a0be-47de-a1ad-608cb5c2f077"},"vehicle_type_id":"4","last_reported":1741979260,"current_range_meters":11200,"station_id":"ce4bh492rcd13ifvqdug","pricing_plan_id":"cebpf4jnsgd1na2vs0mg"},{"bike_id":"676e66c6-8e50-404c-b512-5f94c7d6a8fc","system_id":"levelo_inurba_marseille","lat":43.24174,"lon":5.36392,"is_reserved":false,"is_disabled":false,"rental_uris":{"android":"levelo://app?vid=676e66c6-8e50-404c-b512-5f94c7d6a8fc","ios":"levelo://app?vid=676e66c6-8e50-404c-b512-5f94c7d6a8fc"},"vehicle_type_id":"4","last_reported":1741979260,"current_range_meters":12800,"station_id":"cpo36qri1sfpv3e86is0","pricing_plan_id":"cebpf4jnsgd1na2vs0mg"},{"bike_id":"02f19a96-4b4b-4705-b5d6-f4b77d2ee643","system_id":"levelo_inurba_marseille","lat":43.24677,"lon":5.38128,"is_reserved":false,"is_disabled":false,"rental_uris":{"android":"levelo://app?vid=02f19a96-4b4b-4705-b5d6-f4b77d2ee643","ios":"levelo://app?vid=02f19a96-4b4b-4705-b5d6-f4b77d2ee643"},"vehicle_type_id":"4","last_reported":1741979260,"current_range_meters":12800,"station_id":"ce4bhih2rcd13ifvqfr0","pricing_plan_id":"cebpf4jnsgd1na2vs0mg"},{"bike_id":"184492ce-9f5c-47e4-a3e5-d0eccfcef42b","system_id":"levelo_inurba_marseille","lat":43.27621,"lon":5.3611,"is_reserved":false,"is_disabled":false,"rental_uris":{"android":"levelo://app?vid=184492ce-9f5c-47e4-a3e5-d0eccfcef42b","ios":"levelo://app?vid=184492ce-9f5c-47e4-a3e5-d0eccfcef42b"},"vehicle_type_id":"4","last_reported":1741979260,"current_range_meters":12800,"station_id":"ce4bgj92rcd13ifvqbe0","pricing_plan_id":"cebpf4jnsgd1na2vs0mg"},{"bike_id":"d7979ce4-2674-4d92-ac26-406c74df0bbb","system_id":"levelo_inurba_marseille","lat":43.30604,"lon":5.37232,"is_reserved":false,"is_disabled":false,"rental_uris":{"android":"levelo://app?vid=d7979ce4-2674-4d92-ac26-406c74df0bbb","ios":"levelo://app?vid=d7979ce4-2674-4d92-ac26-406c74df0bbb"},"vehicle_type_id":"4","last_reported":1741979260,"current_range_meters":12400,"station_id":"ce4bgqh2rcd13ifvqc4g","pricing_plan_id":"cebpf4jnsgd1na2vs0mg"},{"bike_id":"742c7a9f-732e-4dc6-9fbe-d603f2ddf1bb","system_id":"levelo_inurba_marseille","lat":43.30212,"lon":5.3946,"is_reserved":false,"is_disabled":false,"rental_uris":{"android":"levelo://app?vid=742c7a9f-732e-4dc6-9fbe-d603f2ddf1bb","ios":"levelo://app?vid=742c7a9f-732e-4dc6-9fbe-d603f2ddf1bb"},"vehicle_type_id":"4","last_reported":1741979260,"current_range_meters":12800,"station_id":"ce4bh0p2rcd13ifvqd70","pricing_plan_id":"cebpf4jnsgd1na2vs0mg"},{"bike_id":"e0f00ea1-5190-455d-8f01-943045ce62ae","system_id":"levelo_inurba_marseille","lat":43.31195,"lon":5.37747,"is_reserved":false,"is_disabled":false,"rental_uris":{"android":"levelo://app?vid=e0f00ea1-5190-455d-8f01-943045ce62ae","ios":"levelo://app?vid=e0f00ea1-5190-455d-8f01-943045ce62ae"},"vehicle_type_id":"4","last_reported":1741979260,"current_range_meters":12800,"station_id":"","pricing_plan_id":"cebpf4jnsgd1na2vs0mg"},{"bike_id":"af44b34a-ef1e-45cf-9ec3-d9c292615a7c","system_id":"levelo_inurba_marseille","lat":43.29256,"lon":5.38446,"is_reserved":false,"is_disabled":false,"rental_uris":{"android":"levelo://app?vid=af44b34a-ef1e-45cf-9ec3-d9c292615a7c","ios":"levelo://app?vid=af44b34a-ef1e-45cf-9ec3-d9c292615a7c"},"vehicle_type_id":"4","last_reported":1741979260,"current_range_meters":12800,"station_id":"ce4bh692rcd13ifvqea0","pricing_plan_id":"cebpf4jnsgd1na2vs0mg"},{"bike_id":"a5c03e8d-963a-4cef-ae0b-5196ab18a6c6","system_id":"levelo_inurba_marseille","lat":43.29529,"lon":5.3854,"is_reserved":false,"is_disabled":false,"rental_uris":{"android":"levelo://app?vid=a5c03e8d-963a-4cef-ae0b-5196ab18a6c6","ios":"levelo://app?vid=a5c03e8d-963a-4cef-ae0b-5196ab18a6c6"},"vehicle_type_id":"4","last_reported":1741979260,"current_range_meters":12800,"station_id":"ce4bgih2rcd13ifvqba0","pricing_plan_id":"cebpf4jnsgd1na2vs0mg"},{"bike_id":"cabd3d2d-330e-43b2-8d0b-3e86699f79e1","system_id":"levelo_inurba_marseille","lat":43.241746,"lon":5.363999,"is_reserved":false,"is_disabled":false,"rental_uris":{"android":"levelo://app?vid=cabd3d2d-330e-43b2-8d0b-3e86699f79e1","ios":"levelo://app?vid=cabd3d2d-330e-43b2-8d0b-3e86699f79e1"},"vehicle_type_id":"4","last_reported":1741979260,"current_range_meters":13600,"station_id":"cpo36qri1sfpv3e86is0","pricing_plan_id":"cebpf4jnsgd1na2vs0mg"},{"bike_id":"689f3d2c-4847-4516-a642-86888fc86b8d","system_id":"levelo_inurba_marseille","lat":43.24641,"lon":5.3891,"is_reserved":false,"is_disabled":false,"rental_uris":{"android":"levelo://app?vid=689f3d2c-4847-4516-a642-86888fc86b8d","ios":"levelo://app?vid=689f3d2c-4847-4516-a642-86888fc86b8d"},"vehicle_type_id":"4","last_reported":1741979260,"current_range_meters":13600,"station_id":"ce4bhg12rcd13ifvqf60","pricing_plan_id":"cebpf4jnsgd1na2vs0mg"},{"bike_id":"17cad9d6-1e75-42f6-bf52-ad8456177df6","system_id":"levelo_inurba_marseille","lat":43.24646,"lon":5.38893,"is_reserved":false,"is_disabled":false,"rental_uris":{"android":"levelo://app?vid=17cad9d6-1e75-42f6-bf52-ad8456177df6","ios":"levelo://app?vid=17cad9d6-1e75-42f6-bf52-ad8456177df6"},"vehicle_type_id":"4","last_reported":1741979260,"current_range_meters":11600,"station_id":"ce4bhg12rcd13ifvqf60","pricing_plan_id":"cebpf4jnsgd1na2vs0mg"},{"bike_id":"325eefa4-a32c-45cc-9c99-5ccbb1f77220","system_id":"levelo_inurba_marseille","lat":43.2942,"lon":5.38624,"is_reserved":false,"is_disabled":false,"rental_uris":{"android":"levelo://app?vid=325eefa4-a32c-45cc-9c99-5ccbb1f77220","ios":"levelo://app?vid=325eefa4-a32c-45cc-9c99-5ccbb1f77220"},"vehicle_type_id":"4","last_reported":1741979260,"current_range_meters":14000,"station_id":"ce4bh2h2rcd13ifvqdh0","pricing_plan_id":"cebpf4jnsgd1na2vs0mg"},{"bike_id":"269491db-b98a-49e3-a3b5-e04159ff8cbf","system_id":"levelo_inurba_marseille","lat":43.26942,"lon":5.4025,"is_reserved":false,"is_disabled":false,"rental_uris":{"android":"levelo://app?vid=269491db-b98a-49e3-a3b5-e04159ff8cbf","ios":"levelo://app?vid=269491db-b98a-49e3-a3b5-e04159ff8cbf"},"vehicle_type_id":"4","last_reported":1741979260,"current_range_meters":14000,"station_id":"cjm6bp8fraef2m0cb0m0","pricing_plan_id":"cebpf4jnsgd1na2vs0mg"},{"bike_id":"4ff68ba9-3403-4872-a62b-dc36e75ea973","system_id":"levelo_inurba_marseille","lat":43.29982,"lon":5.38512,"is_reserved":false,"is_disabled":false,"rental_uris":{"android":"levelo://app?vid=4ff68ba9-3403-4872-a62b-dc36e75ea973","ios":"levelo://app?vid=4ff68ba9-3403-4872-a62b-dc36e75ea973"},"vehicle_type_id":"4","last_reported":1741979260,"current_range_meters":14000,"station_id":"ce4bgj92rcd13ifvqbd0","pricing_plan_id":"cebpf4jnsgd1na2vs0mg"},{"bike_id":"33e9f828-cb5a-49de-aa6b-ec3406405fea","system_id":"levelo_inurba_marseille","lat":43.330249,"lon":5.390375,"is_reserved":false,"is_disabled":false,"rental_uris":{"android":"levelo://app?vid=33e9f828-cb5a-49de-aa6b-ec3406405fea","ios":"levelo://app?vid=33e9f828-cb5a-49de-aa6b-ec3406405fea"},"vehicle_type_id":"4","last_reported":1741979260,"current_range_meters":14000,"station_id":"ce4bhr92rcd13ifvqhrg","pricing_plan_id":"cebpf4jnsgd1na2vs0mg"},{"bike_id":"5f79a70a-3a07-4944-8932-96d4b910a939","system_id":"levelo_inurba_marseille","lat":43.30215,"lon":5.3807,"is_reserved":false,"is_disabled":false,"rental_uris":{"android":"levelo://app?vid=5f79a70a-3a07-4944-8932-96d4b910a939","ios":"levelo://app?vid=5f79a70a-3a07-4944-8932-96d4b910a939"},"vehicle_type_id":"4","last_reported":1741979260,"current_range_meters":14000,"station_id":"ce4bgjp2rcd13ifvqbh0","pricing_plan_id":"cebpf4jnsgd1na2vs0mg"},{"bike_id":"41576aa0-8157-44e7-b679-86bb5c689c0f","system_id":"levelo_inurba_marseille","lat":43.29533,"lon":5.38537,"is_reserved":false,"is_disabled":false,"rental_uris":{"android":"levelo://app?vid=41576aa0-8157-44e7-b679-86bb5c689c0f","ios":"levelo://app?vid=41576aa0-8157-44e7-b679-86bb5c689c0f"},"vehicle_type_id":"4","last_reported":1741979260,"current_range_meters":14000,"station_id":"ce4bgih2rcd13ifvqba0","pricing_plan_id":"cebpf4jnsgd1na2vs0mg"},{"bike_id":"64986549-2c9e-4b9f-8464-f74cc2571bf2","system_id":"levelo_inurba_marseille","lat":43.24073,"lon":5.37693,"is_reserved":false,"is_disabled":false,"rental_uris":{"android":"levelo://app?vid=64986549-2c9e-4b9f-8464-f74cc2571bf2","ios":"levelo://app?vid=64986549-2c9e-4b9f-8464-f74cc2571bf2"},"vehicle_type_id":"4","last_reported":1741979260,"current_range_meters":14000,"station_id":"ce4bhnp2rcd13ifvqgvg","pricing_plan_id":"cebpf4jnsgd1na2vs0mg"},{"bike_id":"be1f6405-0198-48a8-8c59-49c1d9c4d69f","system_id":"levelo_inurba_marseille","lat":43.28966,"lon":5.37832,"is_reserved":false,"is_disabled":false,"rental_uris":{"android":"levelo://app?vid=be1f6405-0198-48a8-8c59-49c1d9c4d69f","ios":"levelo://app?vid=be1f6405-0198-48a8-8c59-49c1d9c4d69f"},"vehicle_type_id":"4","last_reported":1741979260,"current_range_meters":14400,"station_id":"ce4bh9p2rcd13ifvqed0","pricing_plan_id":"cebpf4jnsgd1na2vs0mg"},{"bike_id":"08d7ad39-29b9-4d1d-ab44-5a56dd13dd34","system_id":"levelo_inurba_marseille","lat":43.2414,"lon":5.3779,"is_reserved":false,"is_disabled":false,"rental_uris":{"android":"levelo://app?vid=08d7ad39-29b9-4d1d-ab44-5a56dd13dd34","ios":"levelo://app?vid=08d7ad39-29b9-4d1d-ab44-5a56dd13dd34"},"vehicle_type_id":"4","last_reported":1741979260,"current_range_meters":14400,"station_id":"","pricing_plan_id":"cebpf4jnsgd1na2vs0mg"},{"bike_id":"0b7bfdb8-fd03-4687-9225-8085184f929c","system_id":"levelo_inurba_marseille","lat":43.32366,"lon":5.36748,"is_reserved":false,"is_disabled":false,"rental_uris":{"android":"levelo://app?vid=0b7bfdb8-fd03-4687-9225-8085184f929c","ios":"levelo://app?vid=0b7bfdb8-fd03-4687-9225-8085184f929c"},"vehicle_type_id":"4","last_reported":1741979260,"current_range_meters":14400,"station_id":"ce4bhsh2rcd13ifvqi2g","pricing_plan_id":"cebpf4jnsgd1na2vs0mg"},{"bike_id":"0665d59a-7583-48f5-95a3-603a5eec5e3f","system_id":"levelo_inurba_marseille","lat":43.28032,"lon":5.36946,"is_reserved":false,"is_disabled":false,"rental_uris":{"android":"levelo://app?vid=0665d59a-7583-48f5-95a3-603a5eec5e3f","ios":"levelo://app?vid=0665d59a-7583-48f5-95a3-603a5eec5e3f"},"vehicle_type_id":"4","last_reported":1741979260,"current_range_meters":14400,"station_id":"ce4bha12rcd13ifvqef0","pricing_plan_id":"cebpf4jnsgd1na2vs0mg"},{"bike_id":"25228edc-ae2b-41d4-9e7e-87f35203c830","system_id":"levelo_inurba_marseille","lat":43.26684,"lon":5.38271,"is_reserved":false,"is_disabled":false,"rental_uris":{"android":"levelo://app?vid=25228edc-ae2b-41d4-9e7e-87f35203c830","ios":"levelo://app?vid=25228edc-ae2b-41d4-9e7e-87f35203c830"},"vehicle_type_id":"4","last_reported":1741979260,"current_range_meters":14400,"station_id":"ce4bhg92rcd13ifvqf90","pricing_plan_id":"cebpf4jnsgd1na2vs0mg"},{"bike_id":"67cfd2d4-1952-433c-bd65-d8110768981a","system_id":"levelo_inurba_marseille","lat":43.30909,"lon":5.36851,"is_reserved":false,"is_disabled":false,"rental_uris":{"android":"levelo://app?vid=67cfd2d4-1952-433c-bd65-d8110768981a","ios":"levelo://app?vid=67cfd2d4-1952-433c-bd65-d8110768981a"},"vehicle_type_id":"4","last_reported":1741979260,"current_range_meters":14400,"station_id":"ce4bgn92rcd13ifvqbvg","pricing_plan_id":"cebpf4jnsgd1na2vs0mg"},{"bike_id":"b37db8b9-d0d9-421b-85af-469fa613b348","system_id":"levelo_inurba_marseille","lat":43.31293,"lon":5.40172,"is_reserved":false,"is_disabled":false,"rental_uris":{"android":"levelo://app?vid=b37db8b9-d0d9-421b-85af-469fa613b348","ios":"levelo://app?vid=b37db8b9-d0d9-421b-85af-469fa613b348"},"vehicle_type_id":"4","last_reported":1741979260,"current_range_meters":14400,"station_id":"ce4bh092rcd13ifvqd30","pricing_plan_id":"cebpf4jnsgd1na2vs0mg"},{"bike_id":"83783ead-721f-4d82-86e9-a8ac641b2edd","system_id":"levelo_inurba_marseille","lat":43.26226,"lon":5.40438,"is_reserved":false,"is_disabled":false,"rental_uris":{"android":"levelo://app?vid=83783ead-721f-4d82-86e9-a8ac641b2edd","ios":"levelo://app?vid=83783ead-721f-4d82-86e9-a8ac641b2edd"},"vehicle_type_id":"4","last_reported":1741979260,"current_range_meters":14400,"station_id":"ce4bhmh2rcd13ifvqgmg","pricing_plan_id":"cebpf4jnsgd1na2vs0mg"},{"bike_id":"ba2d3041-41d0-46af-a7e9-793a1a878bd3","system_id":"levelo_inurba_marseille","lat":43.28376,"lon":5.38641,"is_reserved":false,"is_disabled":false,"rental_uris":{"android":"levelo://app?vid=ba2d3041-41d0-46af-a7e9-793a1a878bd3","ios":"levelo://app?vid=ba2d3041-41d0-46af-a7e9-793a1a878bd3"},"vehicle_type_id":"4","last_reported":1741979260,"current_range_meters":14800,"station_id":"ce4bh492rcd13ifvqdvg","pricing_plan_id":"cebpf4jnsgd1na2vs0mg"},{"bike_id":"698c326e-b76e-4fd1-8d38-a73ab99ba532","system_id":"levelo_inurba_marseille","lat":43.27435,"lon":5.39417,"is_reserved":false,"is_disabled":false,"rental_uris":{"android":"levelo://app?vid=698c326e-b76e-4fd1-8d38-a73ab99ba532","ios":"levelo://app?vid=698c326e-b76e-4fd1-8d38-a73ab99ba532"},"vehicle_type_id":"4","last_reported":1741979260,"current_range_meters":13600,"station_id":"ce4bhdp2rcd13ifvqf20","pricing_plan_id":"cebpf4jnsgd1na2vs0mg"},{"bike_id":"f7aa1a81-dd32-4a03-a2f0-08b931cfc50e","system_id":"levelo_inurba_marseille","lat":43.32074,"lon":5.41549,"is_reserved":false,"is_disabled":false,"rental_uris":{"android":"levelo://app?vid=f7aa1a81-dd32-4a03-a2f0-08b931cfc50e","ios":"levelo://app?vid=f7aa1a81-dd32-4a03-a2f0-08b931cfc50e"},"vehicle_type_id":"4","last_reported":1741979260,"current_range_meters":14800,"station_id":"ce4bhq92rcd13ifvqhkg","pricing_plan_id":"cebpf4jnsgd1na2vs0mg"},{"bike_id":"3fbdbed3-81eb-4ebd-99e8-fe7ae5272906","system_id":"levelo_inurba_marseille","lat":43.25823,"lon":5.39449,"is_reserved":false,"is_disabled":false,"rental_uris":{"android":"levelo://app?vid=3fbdbed3-81eb-4ebd-99e8-fe7ae5272906","ios":"levelo://app?vid=3fbdbed3-81eb-4ebd-99e8-fe7ae5272906"},"vehicle_type_id":"4","last_reported":1741979260,"current_range_meters":14800,"station_id":"ce4bhip2rcd13ifvqft0","pricing_plan_id":"cebpf4jnsgd1na2vs0mg"},{"bike_id":"9d9bd579-ca4a-49a8-84d8-e0a9c1600b5e","system_id":"levelo_inurba_marseille","lat":43.25088,"lon":5.39531,"is_reserved":false,"is_disabled":false,"rental_uris":{"android":"levelo://app?vid=9d9bd579-ca4a-49a8-84d8-e0a9c1600b5e","ios":"levelo://app?vid=9d9bd579-ca4a-49a8-84d8-e0a9c1600b5e"},"vehicle_type_id":"4","last_reported":1741979260,"current_range_meters":15200,"station_id":"ce4bhm12rcd13ifvqgkg","pricing_plan_id":"cebpf4jnsgd1na2vs0mg"},{"bike_id":"748c1c80-150c-49f8-897a-cfbd0dc2534f","system_id":"levelo_inurba_marseille","lat":43.297873,"lon":5.380863,"is_reserved":false,"is_disabled":false,"rental_uris":{"android":"levelo://app?vid=748c1c80-150c-49f8-897a-cfbd0dc2534f","ios":"levelo://app?vid=748c1c80-150c-49f8-897a-cfbd0dc2534f"},"vehicle_type_id":"4","last_reported":1741979260,"current_range_meters":15200,"station_id":"ce4bgip2rcd13ifvqbb0","pricing_plan_id":"cebpf4jnsgd1na2vs0mg"},{"bike_id":"76b5d343-6624-4366-8e6e-f702d50ae492","system_id":"levelo_inurba_marseille","lat":43.2319,"lon":5.35554,"is_reserved":false,"is_disabled":false,"rental_uris":{"android":"levelo://app?vid=76b5d343-6624-4366-8e6e-f702d50ae492","ios":"levelo://app?vid=76b5d343-6624-4366-8e6e-f702d50ae492"},"vehicle_type_id":"4","last_reported":1741979260,"current_range_meters":15200,"station_id":"ce4bhu92rcd13ifvqi70","pricing_plan_id":"cebpf4jnsgd1na2vs0mg"},{"bike_id":"6243e5aa-935d-4493-a907-ac479fd7b8af","system_id":"levelo_inurba_marseille","lat":43.27058,"lon":5.4026,"is_reserved":false,"is_disabled":false,"rental_uris":{"android":"levelo://app?vid=6243e5aa-935d-4493-a907-ac479fd7b8af","ios":"levelo://app?vid=6243e5aa-935d-4493-a907-ac479fd7b8af"},"vehicle_type_id":"4","last_reported":1741979260,"current_range_meters":15200,"station_id":"ce4bhk92rcd13ifvqgc0","pricing_plan_id":"cebpf4jnsgd1na2vs0mg"},{"bike_id":"e52b41b5-52df-4c67-a85c-3cebb3bf7504","system_id":"levelo_inurba_marseille","lat":43.32368,"lon":5.36771,"is_reserved":false,"is_disabled":false,"rental_uris":{"android":"levelo://app?vid=e52b41b5-52df-4c67-a85c-3cebb3bf7504","ios":"levelo://app?vid=e52b41b5-52df-4c67-a85c-3cebb3bf7504"},"vehicle_type_id":"4","last_reported":1741979260,"current_range_meters":15200,"station_id":"ce4bhsh2rcd13ifvqi2g","pricing_plan_id":"cebpf4jnsgd1na2vs0mg"},{"bike_id":"6c294af0-73e1-45f0-80fe-6c5f79840911","system_id":"levelo_inurba_marseille","lat":43.29567,"lon":5.39974,"is_reserved":false,"is_disabled":false,"rental_uris":{"android":"levelo://app?vid=6c294af0-73e1-45f0-80fe-6c5f79840911","ios":"levelo://app?vid=6c294af0-73e1-45f0-80fe-6c5f79840911"},"vehicle_type_id":"4","last_reported":1741979260,"current_range_meters":15200,"station_id":"ce4bh312rcd13ifvqdj0","pricing_plan_id":"cebpf4jnsgd1na2vs0mg"},{"bike_id":"7275ac19-f926-4d23-9e9d-7142ec2c130c","system_id":"levelo_inurba_marseille","lat":43.31375,"lon":5.38493,"is_reserved":false,"is_disabled":false,"rental_uris":{"android":"levelo://app?vid=7275ac19-f926-4d23-9e9d-7142ec2c130c","ios":"levelo://app?vid=7275ac19-f926-4d23-9e9d-7142ec2c130c"},"vehicle_type_id":"4","last_reported":1741979260,"current_range_meters":15200,"station_id":"ce4bgt92rcd13ifvqcf0","pricing_plan_id":"cebpf4jnsgd1na2vs0mg"},{"bike_id":"f0bca22f-e209-4fd9-b311-4c3b7896a530","system_id":"levelo_inurba_marseille","lat":43.29787,"lon":5.40409,"is_reserved":false,"is_disabled":false,"rental_uris":{"android":"levelo://app?vid=f0bca22f-e209-4fd9-b311-4c3b7896a530","ios":"levelo://app?vid=f0bca22f-e209-4fd9-b311-4c3b7896a530"},"vehicle_type_id":"4","last_reported":1741979260,"current_range_meters":15200,"station_id":"ce4bh112rcd13ifvqd90","pricing_plan_id":"cebpf4jnsgd1na2vs0mg"},{"bike_id":"59022b32-b91d-41a7-ab26-4982ecdc3a27","system_id":"levelo_inurba_marseille","lat":43.24179,"lon":5.39731,"is_reserved":false,"is_disabled":false,"rental_uris":{"android":"levelo://app?vid=59022b32-b91d-41a7-ab26-4982ecdc3a27","ios":"levelo://app?vid=59022b32-b91d-41a7-ab26-4982ecdc3a27"},"vehicle_type_id":"4","last_reported":1741979260,"current_range_meters":16000,"station_id":"ce4bhn12rcd13ifvqgpg","pricing_plan_id":"cebpf4jnsgd1na2vs0mg"},{"bike_id":"11316385-16ff-44f4-9c5b-887b8e41cb3e","system_id":"levelo_inurba_marseille","lat":43.24067,"lon":5.37795,"is_reserved":false,"is_disabled":false,"rental_uris":{"android":"levelo://app?vid=11316385-16ff-44f4-9c5b-887b8e41cb3e","ios":"levelo://app?vid=11316385-16ff-44f4-9c5b-887b8e41cb3e"},"vehicle_type_id":"4","last_reported":1741979260,"current_range_meters":16000,"station_id":"ce4bhnp2rcd13ifvqgvg","pricing_plan_id":"cebpf4jnsgd1na2vs0mg"},{"bike_id":"7e809cf9-4d16-4e10-88b0-f3e27f97828a","system_id":"levelo_inurba_marseille","lat":43.24996,"lon":5.38947,"is_reserved":false,"is_disabled":false,"rental_uris":{"android":"levelo://app?vid=7e809cf9-4d16-4e10-88b0-f3e27f97828a","ios":"levelo://app?vid=7e809cf9-4d16-4e10-88b0-f3e27f97828a"},"vehicle_type_id":"4","last_reported":1741979260,"current_range_meters":16000,"station_id":"ce4bhgp2rcd13ifvqfd0","pricing_plan_id":"cebpf4jnsgd1na2vs0mg"},{"bike_id":"9cedc39a-097b-4baf-9d39-243f1d51b194","system_id":"levelo_inurba_marseille","lat":43.29968,"lon":5.38494,"is_reserved":false,"is_disabled":false,"rental_uris":{"android":"levelo://app?vid=9cedc39a-097b-4baf-9d39-243f1d51b194","ios":"levelo://app?vid=9cedc39a-097b-4baf-9d39-243f1d51b194"},"vehicle_type_id":"4","last_reported":1741979260,"current_range_meters":16000,"station_id":"ce4bgj92rcd13ifvqbd0","pricing_plan_id":"cebpf4jnsgd1na2vs0mg"},{"bike_id":"7d24174d-d10b-414c-be10-a866c2e24646","system_id":"levelo_inurba_marseille","lat":43.30537,"lon":5.36729,"is_reserved":false,"is_disabled":false,"rental_uris":{"android":"levelo://app?vid=7d24174d-d10b-414c-be10-a866c2e24646","ios":"levelo://app?vid=7d24174d-d10b-414c-be10-a866c2e24646"},"vehicle_type_id":"4","last_reported":1741979260,"current_range_meters":16000,"station_id":"ce4bgrp2rcd13ifvqc9g","pricing_plan_id":"cebpf4jnsgd1na2vs0mg"},{"bike_id":"d9a1cca8-ee8b-47f2-9d56-964a9b7f03bf","system_id":"levelo_inurba_marseille","lat":43.31367,"lon":5.39656,"is_reserved":false,"is_disabled":true,"rental_uris":{"android":"levelo://app?vid=d9a1cca8-ee8b-47f2-9d56-964a9b7f03bf","ios":"levelo://app?vid=d9a1cca8-ee8b-47f2-9d56-964a9b7f03bf"},"vehicle_type_id":"4","last_reported":1741979260,"current_range_meters":16000,"station_id":"ce4bgvp2rcd13ifvqcu0","pricing_plan_id":"cebpf4jnsgd1na2vs0mg"},{"bike_id":"3580d4cc-cb5e-4163-bfcb-3b2e81e14dc5","system_id":"levelo_inurba_marseille","lat":43.29282,"lon":5.36835,"is_reserved":false,"is_disabled":false,"rental_uris":{"android":"levelo://app?vid=3580d4cc-cb5e-4163-bfcb-3b2e81e14dc5","ios":"levelo://app?vid=3580d4cc-cb5e-4163-bfcb-3b2e81e14dc5"},"vehicle_type_id":"4","last_reported":1741979260,"current_range_meters":16000,"station_id":"ce4bhbp2rcd13ifvqesg","pricing_plan_id":"cebpf4jnsgd1na2vs0mg"},{"bike_id":"a6c2fbfc-a9fa-4c08-b4da-35f01adc80bd","system_id":"levelo_inurba_marseille","lat":43.27813,"lon":5.40715,"is_reserved":false,"is_disabled":false,"rental_uris":{"android":"levelo://app?vid=a6c2fbfc-a9fa-4c08-b4da-35f01adc80bd","ios":"levelo://app?vid=a6c2fbfc-a9fa-4c08-b4da-35f01adc80bd"},"vehicle_type_id":"4","last_reported":1741979260,"current_range_meters":16000,"station_id":"ce4bhnh2rcd13ifvqgtg","pricing_plan_id":"cebpf4jnsgd1na2vs0mg"},{"bike_id":"d7739f82-e9d4-4226-9976-d2bda19cfc1f","system_id":"levelo_inurba_marseille","lat":43.29288,"lon":5.38449,"is_reserved":false,"is_disabled":false,"rental_uris":{"android":"levelo://app?vid=d7739f82-e9d4-4226-9976-d2bda19cfc1f","ios":"levelo://app?vid=d7739f82-e9d4-4226-9976-d2bda19cfc1f"},"vehicle_type_id":"4","last_reported":1741979260,"current_range_meters":16000,"station_id":"ce4bh692rcd13ifvqea0","pricing_plan_id":"cebpf4jnsgd1na2vs0mg"},{"bike_id":"9413820c-0489-4085-b970-7089f103069b","system_id":"levelo_inurba_marseille","lat":43.25093,"lon":5.395284,"is_reserved":false,"is_disabled":false,"rental_uris":{"android":"levelo://app?vid=9413820c-0489-4085-b970-7089f103069b","ios":"levelo://app?vid=9413820c-0489-4085-b970-7089f103069b"},"vehicle_type_id":"4","last_reported":1741979260,"current_range_meters":16000,"station_id":"ce4bhg12rcd13ifvqf70","pricing_plan_id":"cebpf4jnsgd1na2vs0mg"},{"bike_id":"976a31ad-70b0-4720-b3ce-5fdecc28ad7a","system_id":"levelo_inurba_marseille","lat":43.28417,"lon":5.37524,"is_reserved":false,"is_disabled":false,"rental_uris":{"android":"levelo://app?vid=976a31ad-70b0-4720-b3ce-5fdecc28ad7a","ios":"levelo://app?vid=976a31ad-70b0-4720-b3ce-5fdecc28ad7a"},"vehicle_type_id":"4","last_reported":1741979260,"current_range_meters":16000,"station_id":"ce4bh412rcd13ifvqds0","pricing_plan_id":"cebpf4jnsgd1na2vs0mg"},{"bike_id":"92bec104-bf6e-48de-9f40-3d3a513802a4","system_id":"levelo_inurba_marseille","lat":43.28159,"lon":5.42643,"is_reserved":false,"is_disabled":false,"rental_uris":{"android":"levelo://app?vid=92bec104-bf6e-48de-9f40-3d3a513802a4","ios":"levelo://app?vid=92bec104-bf6e-48de-9f40-3d3a513802a4"},"vehicle_type_id":"4","last_reported":1741979260,"current_range_meters":16400,"station_id":"ce4bhnh2rcd13ifvqgug","pricing_plan_id":"cebpf4jnsgd1na2vs0mg"},{"bike_id":"9263b6cb-c2a9-4ade-a7b8-aa3e2867317d","system_id":"levelo_inurba_marseille","lat":43.273216,"lon":5.391017,"is_reserved":false,"is_disabled":false,"rental_uris":{"android":"levelo://app?vid=9263b6cb-c2a9-4ade-a7b8-aa3e2867317d","ios":"levelo://app?vid=9263b6cb-c2a9-4ade-a7b8-aa3e2867317d"},"vehicle_type_id":"4","last_reported":1741979260,"current_range_meters":16400,"station_id":"ce4bhgp2rcd13ifvqfe0","pricing_plan_id":"cebpf4jnsgd1na2vs0mg"},{"bike_id":"f657fd3c-7d21-46d4-a6bf-c7e61923c1c3","system_id":"levelo_inurba_marseille","lat":43.29965,"lon":5.38496,"is_reserved":false,"is_disabled":false,"rental_uris":{"android":"levelo://app?vid=f657fd3c-7d21-46d4-a6bf-c7e61923c1c3","ios":"levelo://app?vid=f657fd3c-7d21-46d4-a6bf-c7e61923c1c3"},"vehicle_type_id":"4","last_reported":1741979260,"current_range_meters":16400,"station_id":"ce4bgj92rcd13ifvqbd0","pricing_plan_id":"cebpf4jnsgd1na2vs0mg"},{"bike_id":"37bb7fb1-84bf-4d84-8e7f-43c00881e27d","system_id":"levelo_inurba_marseille","lat":43.29252,"lon":5.3844,"is_reserved":false,"is_disabled":false,"rental_uris":{"android":"levelo://app?vid=37bb7fb1-84bf-4d84-8e7f-43c00881e27d","ios":"levelo://app?vid=37bb7fb1-84bf-4d84-8e7f-43c00881e27d"},"vehicle_type_id":"4","last_reported":1741979260,"current_range_meters":16400,"station_id":"ce4bh692rcd13ifvqea0","pricing_plan_id":"cebpf4jnsgd1na2vs0mg"},{"bike_id":"fd56eb3a-93d2-4569-9b5a-6f04eec700d7","system_id":"levelo_inurba_marseille","lat":43.30598,"lon":5.39368,"is_reserved":false,"is_disabled":false,"rental_uris":{"android":"levelo://app?vid=fd56eb3a-93d2-4569-9b5a-6f04eec700d7","ios":"levelo://app?vid=fd56eb3a-93d2-4569-9b5a-6f04eec700d7"},"vehicle_type_id":"4","last_reported":1741979260,"current_range_meters":16400,"station_id":"ce4bh0p2rcd13ifvqd80","pricing_plan_id":"cebpf4jnsgd1na2vs0mg"},{"bike_id":"5887cce2-f89f-4f14-ada3-b6a60568cbe4","system_id":"levelo_inurba_marseille","lat":43.27051,"lon":5.40281,"is_reserved":false,"is_disabled":false,"rental_uris":{"android":"levelo://app?vid=5887cce2-f89f-4f14-ada3-b6a60568cbe4","ios":"levelo://app?vid=5887cce2-f89f-4f14-ada3-b6a60568cbe4"},"vehicle_type_id":"4","last_reported":1741979260,"current_range_meters":16400,"station_id":"ce4bhk92rcd13ifvqgc0","pricing_plan_id":"cebpf4jnsgd1na2vs0mg"},{"bike_id":"87b7f147-0ac2-4b35-8bcc-3f02f503bd7c","system_id":"levelo_inurba_marseille","lat":43.262,"lon":5.37888,"is_reserved":false,"is_disabled":false,"rental_uris":{"android":"levelo://app?vid=87b7f147-0ac2-4b35-8bcc-3f02f503bd7c","ios":"levelo://app?vid=87b7f147-0ac2-4b35-8bcc-3f02f503bd7c"},"vehicle_type_id":"4","last_reported":1741979260,"current_range_meters":16400,"station_id":"ce4bhjp2rcd13ifvqg90","pricing_plan_id":"cebpf4jnsgd1na2vs0mg"},{"bike_id":"cb0af060-da47-428a-ab66-11d58058ee89","system_id":"levelo_inurba_marseille","lat":43.28979,"lon":5.37836,"is_reserved":false,"is_disabled":false,"rental_uris":{"android":"levelo://app?vid=cb0af060-da47-428a-ab66-11d58058ee89","ios":"levelo://app?vid=cb0af060-da47-428a-ab66-11d58058ee89"},"vehicle_type_id":"4","last_reported":1741979260,"current_range_meters":16400,"station_id":"ce4bh9p2rcd13ifvqed0","pricing_plan_id":"cebpf4jnsgd1na2vs0mg"},{"bike_id":"72fe4211-136e-488e-9061-f6d73fb7ebbf","system_id":"levelo_inurba_marseille","lat":43.27943,"lon":5.41022,"is_reserved":false,"is_disabled":false,"rental_uris":{"android":"levelo://app?vid=72fe4211-136e-488e-9061-f6d73fb7ebbf","ios":"levelo://app?vid=72fe4211-136e-488e-9061-f6d73fb7ebbf"},"vehicle_type_id":"4","last_reported":1741979260,"current_range_meters":16800,"station_id":"ce4bhnp2rcd13ifvqh0g","pricing_plan_id":"cebpf4jnsgd1na2vs0mg"},{"bike_id":"e8ceb681-ef67-4d43-92d5-8ea8d50bff55","system_id":"levelo_inurba_marseille","lat":43.27815,"lon":5.40728,"is_reserved":false,"is_disabled":false,"rental_uris":{"android":"levelo://app?vid=e8ceb681-ef67-4d43-92d5-8ea8d50bff55","ios":"levelo://app?vid=e8ceb681-ef67-4d43-92d5-8ea8d50bff55"},"vehicle_type_id":"4","last_reported":1741979260,"current_range_meters":16800,"station_id":"ce4bhnh2rcd13ifvqgtg","pricing_plan_id":"cebpf4jnsgd1na2vs0mg"},{"bike_id":"daf0cefd-6a52-46df-bf42-fa896a57bedf","system_id":"levelo_inurba_marseille","lat":43.2928,"lon":5.3844,"is_reserved":false,"is_disabled":false,"rental_uris":{"android":"levelo://app?vid=daf0cefd-6a52-46df-bf42-fa896a57bedf","ios":"levelo://app?vid=daf0cefd-6a52-46df-bf42-fa896a57bedf"},"vehicle_type_id":"4","last_reported":1741979260,"current_range_meters":16800,"station_id":"ce4bh692rcd13ifvqea0","pricing_plan_id":"cebpf4jnsgd1na2vs0mg"},{"bike_id":"6528949f-81a3-41ad-a3bf-0ac6d373bce6","system_id":"levelo_inurba_marseille","lat":43.31517,"lon":5.37539,"is_reserved":false,"is_disabled":false,"rental_uris":{"android":"levelo://app?vid=6528949f-81a3-41ad-a3bf-0ac6d373bce6","ios":"levelo://app?vid=6528949f-81a3-41ad-a3bf-0ac6d373bce6"},"vehicle_type_id":"4","last_reported":1741979260,"current_range_meters":16800,"station_id":"","pricing_plan_id":"cebpf4jnsgd1na2vs0mg"},{"bike_id":"608f0462-484e-441f-9837-82475dce48ee","system_id":"levelo_inurba_marseille","lat":43.29894,"lon":5.43674,"is_reserved":false,"is_disabled":false,"rental_uris":{"android":"levelo://app?vid=608f0462-484e-441f-9837-82475dce48ee","ios":"levelo://app?vid=608f0462-484e-441f-9837-82475dce48ee"},"vehicle_type_id":"4","last_reported":1741979260,"current_range_meters":16800,"station_id":"ce4bhpp2rcd13ifvqhfg","pricing_plan_id":"cebpf4jnsgd1na2vs0mg"},{"bike_id":"3194aa4e-3980-4f70-ad43-27def2c4be2c","system_id":"levelo_inurba_marseille","lat":43.29808,"lon":5.40411,"is_reserved":false,"is_disabled":false,"rental_uris":{"android":"levelo://app?vid=3194aa4e-3980-4f70-ad43-27def2c4be2c","ios":"levelo://app?vid=3194aa4e-3980-4f70-ad43-27def2c4be2c"},"vehicle_type_id":"4","last_reported":1741979260,"current_range_meters":16800,"station_id":"ce4bh112rcd13ifvqd90","pricing_plan_id":"cebpf4jnsgd1na2vs0mg"},{"bike_id":"dcf42fcb-51d3-452c-b7db-ca4aa6edc4ad","system_id":"levelo_inurba_marseille","lat":43.29268,"lon":5.38457,"is_reserved":false,"is_disabled":false,"rental_uris":{"android":"levelo://app?vid=dcf42fcb-51d3-452c-b7db-ca4aa6edc4ad","ios":"levelo://app?vid=dcf42fcb-51d3-452c-b7db-ca4aa6edc4ad"},"vehicle_type_id":"4","last_reported":1741979260,"current_range_meters":17200,"station_id":"ce4bh692rcd13ifvqea0","pricing_plan_id":"cebpf4jnsgd1na2vs0mg"},{"bike_id":"fc071de1-2cc0-488a-a43e-f8037a5a9a49","system_id":"levelo_inurba_marseille","lat":43.23069,"lon":5.35501,"is_reserved":false,"is_disabled":false,"rental_uris":{"android":"levelo://app?vid=fc071de1-2cc0-488a-a43e-f8037a5a9a49","ios":"levelo://app?vid=fc071de1-2cc0-488a-a43e-f8037a5a9a49"},"vehicle_type_id":"4","last_reported":1741979260,"current_range_meters":17200,"station_id":"cpo3342slgdg3j2ifvpg","pricing_plan_id":"cebpf4jnsgd1na2vs0mg"},{"bike_id":"d751a31e-a518-44cc-8641-315d036d1e06","system_id":"levelo_inurba_marseille","lat":43.29866,"lon":5.39774,"is_reserved":false,"is_disabled":true,"rental_uris":{"android":"levelo://app?vid=d751a31e-a518-44cc-8641-315d036d1e06","ios":"levelo://app?vid=d751a31e-a518-44cc-8641-315d036d1e06"},"vehicle_type_id":"4","last_reported":1741979260,"current_range_meters":17200,"station_id":"ce4bh0h2rcd13ifvqd50","pricing_plan_id":"cebpf4jnsgd1na2vs0mg"},{"bike_id":"67ba5532-a4de-45d0-bd2d-aa06a7264fb6","system_id":"levelo_inurba_marseille","lat":43.30929,"lon":5.37198,"is_reserved":false,"is_disabled":false,"rental_uris":{"android":"levelo://app?vid=67ba5532-a4de-45d0-bd2d-aa06a7264fb6","ios":"levelo://app?vid=67ba5532-a4de-45d0-bd2d-aa06a7264fb6"},"vehicle_type_id":"4","last_reported":1741979260,"current_range_meters":17200,"station_id":"ce4bguh2rcd13ifvqckg","pricing_plan_id":"cebpf4jnsgd1na2vs0mg"},{"bike_id":"c9fcf6ca-eb9a-4745-ae75-0839938c01aa","system_id":"levelo_inurba_marseille","lat":43.23953,"lon":5.36628,"is_reserved":false,"is_disabled":false,"rental_uris":{"android":"levelo://app?vid=c9fcf6ca-eb9a-4745-ae75-0839938c01aa","ios":"levelo://app?vid=c9fcf6ca-eb9a-4745-ae75-0839938c01aa"},"vehicle_type_id":"4","last_reported":1741979260,"current_range_meters":17200,"station_id":"ce4bhi12rcd13ifvqfp0","pricing_plan_id":"cebpf4jnsgd1na2vs0mg"},{"bike_id":"18273079-991e-4789-aba2-843ad269fdc1","system_id":"levelo_inurba_marseille","lat":43.3027,"lon":5.40088,"is_reserved":false,"is_disabled":false,"rental_uris":{"android":"levelo://app?vid=18273079-991e-4789-aba2-843ad269fdc1","ios":"levelo://app?vid=18273079-991e-4789-aba2-843ad269fdc1"},"vehicle_type_id":"4","last_reported":1741979260,"current_range_meters":17200,"station_id":"ce4bgvh2rcd13ifvqcs0","pricing_plan_id":"cebpf4jnsgd1na2vs0mg"},{"bike_id":"7c88e5e6-ab2c-4474-b03d-17818151ba41","system_id":"levelo_inurba_marseille","lat":43.27252,"lon":5.39245,"is_reserved":false,"is_disabled":false,"rental_uris":{"android":"levelo://app?vid=7c88e5e6-ab2c-4474-b03d-17818151ba41","ios":"levelo://app?vid=7c88e5e6-ab2c-4474-b03d-17818151ba41"},"vehicle_type_id":"4","last_reported":1741979260,"current_range_meters":17200,"station_id":"","pricing_plan_id":"cebpf4jnsgd1na2vs0mg"},{"bike_id":"5700f1db-d3d4-43d3-9a29-487d98bf675c","system_id":"levelo_inurba_marseille","lat":43.29575,"lon":5.39975,"is_reserved":false,"is_disabled":false,"rental_uris":{"android":"levelo://app?vid=5700f1db-d3d4-43d3-9a29-487d98bf675c","ios":"levelo://app?vid=5700f1db-d3d4-43d3-9a29-487d98bf675c"},"vehicle_type_id":"4","last_reported":1741979260,"current_range_meters":17200,"station_id":"","pricing_plan_id":"cebpf4jnsgd1na2vs0mg"},{"bike_id":"35170032-9fbd-466b-b080-21388ed7720a","system_id":"levelo_inurba_marseille","lat":43.25095,"lon":5.39508,"is_reserved":false,"is_disabled":false,"rental_uris":{"android":"levelo://app?vid=35170032-9fbd-466b-b080-21388ed7720a","ios":"levelo://app?vid=35170032-9fbd-466b-b080-21388ed7720a"},"vehicle_type_id":"4","last_reported":1741979260,"current_range_meters":17600,"station_id":"ce4bhm12rcd13ifvqgkg","pricing_plan_id":"cebpf4jnsgd1na2vs0mg"},{"bike_id":"56c5e86f-d919-4412-96f3-cbfb7b6ab9dc","system_id":"levelo_inurba_marseille","lat":43.29313,"lon":5.37189,"is_reserved":false,"is_disabled":false,"rental_uris":{"android":"levelo://app?vid=56c5e86f-d919-4412-96f3-cbfb7b6ab9dc","ios":"levelo://app?vid=56c5e86f-d919-4412-96f3-cbfb7b6ab9dc"},"vehicle_type_id":"4","last_reported":1741979260,"current_range_meters":17600,"station_id":"ce4bgh92rcd13ifvqb40","pricing_plan_id":"cebpf4jnsgd1na2vs0mg"},{"bike_id":"1d0d070a-7352-44ba-801c-99aaeb60a394","system_id":"levelo_inurba_marseille","lat":43.29967,"lon":5.38437,"is_reserved":false,"is_disabled":false,"rental_uris":{"android":"levelo://app?vid=1d0d070a-7352-44ba-801c-99aaeb60a394","ios":"levelo://app?vid=1d0d070a-7352-44ba-801c-99aaeb60a394"},"vehicle_type_id":"4","last_reported":1741979260,"current_range_meters":17600,"station_id":"ce4bgj92rcd13ifvqbd0","pricing_plan_id":"cebpf4jnsgd1na2vs0mg"},{"bike_id":"71b342b8-694b-40d5-99e8-310baf77a970","system_id":"levelo_inurba_marseille","lat":43.23052,"lon":5.3551,"is_reserved":false,"is_disabled":false,"rental_uris":{"android":"levelo://app?vid=71b342b8-694b-40d5-99e8-310baf77a970","ios":"levelo://app?vid=71b342b8-694b-40d5-99e8-310baf77a970"},"vehicle_type_id":"4","last_reported":1741979260,"current_range_meters":17600,"station_id":"cpo3342slgdg3j2ifvpg","pricing_plan_id":"cebpf4jnsgd1na2vs0mg"},{"bike_id":"90c707aa-0edc-4e94-a911-252e6bd4d4c2","system_id":"levelo_inurba_marseille","lat":43.28617,"lon":5.35113,"is_reserved":false,"is_disabled":false,"rental_uris":{"android":"levelo://app?vid=90c707aa-0edc-4e94-a911-252e6bd4d4c2","ios":"levelo://app?vid=90c707aa-0edc-4e94-a911-252e6bd4d4c2"},"vehicle_type_id":"4","last_reported":1741979260,"current_range_meters":17600,"station_id":"ce4bhch2rcd13ifvqeug","pricing_plan_id":"cebpf4jnsgd1na2vs0mg"},{"bike_id":"13631438-5c77-460f-bad8-02d30380847c","system_id":"levelo_inurba_marseille","lat":43.24075,"lon":5.3776,"is_reserved":false,"is_disabled":false,"rental_uris":{"android":"levelo://app?vid=13631438-5c77-460f-bad8-02d30380847c","ios":"levelo://app?vid=13631438-5c77-460f-bad8-02d30380847c"},"vehicle_type_id":"4","last_reported":1741979260,"current_range_meters":17600,"station_id":"ce4bhnp2rcd13ifvqgvg","pricing_plan_id":"cebpf4jnsgd1na2vs0mg"},{"bike_id":"680951b3-2648-41fb-b2d3-ecb51b10125c","system_id":"levelo_inurba_marseille","lat":43.30925,"lon":5.40145,"is_reserved":false,"is_disabled":false,"rental_uris":{"android":"levelo://app?vid=680951b3-2648-41fb-b2d3-ecb51b10125c","ios":"levelo://app?vid=680951b3-2648-41fb-b2d3-ecb51b10125c"},"vehicle_type_id":"4","last_reported":1741979260,"current_range_meters":17600,"station_id":"ce4bgvp2rcd13ifvqct0","pricing_plan_id":"cebpf4jnsgd1na2vs0mg"},{"bike_id":"e1bc5517-89cc-4fbd-afdb-e8d3c61b8e55","system_id":"levelo_inurba_marseille","lat":43.32365,"lon":5.36772,"is_reserved":false,"is_disabled":false,"rental_uris":{"android":"levelo://app?vid=e1bc5517-89cc-4fbd-afdb-e8d3c61b8e55","ios":"levelo://app?vid=e1bc5517-89cc-4fbd-afdb-e8d3c61b8e55"},"vehicle_type_id":"4","last_reported":1741979260,"current_range_meters":17600,"station_id":"ce4bhsh2rcd13ifvqi2g","pricing_plan_id":"cebpf4jnsgd1na2vs0mg"},{"bike_id":"be34e346-6cd0-49dc-bc60-f4bbfdaefa50","system_id":"levelo_inurba_marseille","lat":43.27928,"lon":5.39599,"is_reserved":false,"is_disabled":false,"rental_uris":{"android":"levelo://app?vid=be34e346-6cd0-49dc-bc60-f4bbfdaefa50","ios":"levelo://app?vid=be34e346-6cd0-49dc-bc60-f4bbfdaefa50"},"vehicle_type_id":"4","last_reported":1741979260,"current_range_meters":17600,"station_id":"ce4bhf92rcd13ifvqf40","pricing_plan_id":"cebpf4jnsgd1na2vs0mg"},{"bike_id":"3a89315b-62de-4a2c-a0ba-c40dd86a913d","system_id":"levelo_inurba_marseille","lat":43.2704,"lon":5.40307,"is_reserved":false,"is_disabled":false,"rental_uris":{"android":"levelo://app?vid=3a89315b-62de-4a2c-a0ba-c40dd86a913d","ios":"levelo://app?vid=3a89315b-62de-4a2c-a0ba-c40dd86a913d"},"vehicle_type_id":"4","last_reported":1741979260,"current_range_meters":17600,"station_id":"ce4bhk92rcd13ifvqgc0","pricing_plan_id":"cebpf4jnsgd1na2vs0mg"},{"bike_id":"bdd2f238-9497-4e4b-88ed-072fa9e14442","system_id":"levelo_inurba_marseille","lat":43.306,"lon":5.3936,"is_reserved":false,"is_disabled":false,"rental_uris":{"android":"levelo://app?vid=bdd2f238-9497-4e4b-88ed-072fa9e14442","ios":"levelo://app?vid=bdd2f238-9497-4e4b-88ed-072fa9e14442"},"vehicle_type_id":"4","last_reported":1741979260,"current_range_meters":18000,"station_id":"ce4bh0p2rcd13ifvqd80","pricing_plan_id":"cebpf4jnsgd1na2vs0mg"},{"bike_id":"e170723b-c198-4cc2-b7e3-4e3f33ee950e","system_id":"levelo_inurba_marseille","lat":43.303,"lon":5.39219,"is_reserved":false,"is_disabled":false,"rental_uris":{"android":"levelo://app?vid=e170723b-c198-4cc2-b7e3-4e3f33ee950e","ios":"levelo://app?vid=e170723b-c198-4cc2-b7e3-4e3f33ee950e"},"vehicle_type_id":"4","last_reported":1741979260,"current_range_meters":18000,"station_id":"ce4bgvp2rcd13ifvqct0","pricing_plan_id":"cebpf4jnsgd1na2vs0mg"},{"bike_id":"ed968fdb-84da-4c7e-9e7e-2ee0ac6d6123","system_id":"levelo_inurba_marseille","lat":43.28075,"lon":5.39667,"is_reserved":false,"is_disabled":false,"rental_uris":{"android":"levelo://app?vid=ed968fdb-84da-4c7e-9e7e-2ee0ac6d6123","ios":"levelo://app?vid=ed968fdb-84da-4c7e-9e7e-2ee0ac6d6123"},"vehicle_type_id":"4","last_reported":1741979260,"current_range_meters":18000,"station_id":"ce4bho12rcd13ifvqh2g","pricing_plan_id":"cebpf4jnsgd1na2vs0mg"},{"bike_id":"f238c0df-d3c9-4577-a186-a5d3f05e229a","system_id":"levelo_inurba_marseille","lat":43.25838,"lon":5.39428,"is_reserved":false,"is_disabled":false,"rental_uris":{"android":"levelo://app?vid=f238c0df-d3c9-4577-a186-a5d3f05e229a","ios":"levelo://app?vid=f238c0df-d3c9-4577-a186-a5d3f05e229a"},"vehicle_type_id":"4","last_reported":1741979260,"current_range_meters":18000,"station_id":"ce4bhip2rcd13ifvqft0","pricing_plan_id":"cebpf4jnsgd1na2vs0mg"},{"bike_id":"3314a080-d808-4459-b707-180b85895975","system_id":"levelo_inurba_marseille","lat":43.2792,"lon":5.37987,"is_reserved":false,"is_disabled":false,"rental_uris":{"android":"levelo://app?vid=3314a080-d808-4459-b707-180b85895975","ios":"levelo://app?vid=3314a080-d808-4459-b707-180b85895975"},"vehicle_type_id":"4","last_reported":1741979260,"current_range_meters":18000,"station_id":"ce4bhf92rcd13ifvqf50","pricing_plan_id":"cebpf4jnsgd1na2vs0mg"},{"bike_id":"cf074f65-a36e-4f38-b1b9-78bc16980a0d","system_id":"levelo_inurba_marseille","lat":43.27931,"lon":5.41065,"is_reserved":false,"is_disabled":false,"rental_uris":{"android":"levelo://app?vid=cf074f65-a36e-4f38-b1b9-78bc16980a0d","ios":"levelo://app?vid=cf074f65-a36e-4f38-b1b9-78bc16980a0d"},"vehicle_type_id":"4","last_reported":1741979260,"current_range_meters":18000,"station_id":"ce4bhnp2rcd13ifvqh0g","pricing_plan_id":"cebpf4jnsgd1na2vs0mg"},{"bike_id":"5460016b-f2e9-4c73-bc48-bf2cdc54203b","system_id":"levelo_inurba_marseille","lat":43.31623,"lon":5.38341,"is_reserved":false,"is_disabled":false,"rental_uris":{"android":"levelo://app?vid=5460016b-f2e9-4c73-bc48-bf2cdc54203b","ios":"levelo://app?vid=5460016b-f2e9-4c73-bc48-bf2cdc54203b"},"vehicle_type_id":"4","last_reported":1741979260,"current_range_meters":14000,"station_id":"ce4bhsp2rcd13ifvqi50","pricing_plan_id":"cebpf4jnsgd1na2vs0mg"},{"bike_id":"3b259215-3ab5-4136-8d63-cdfeaa53e8de","system_id":"levelo_inurba_marseille","lat":43.31758,"lon":5.39022,"is_reserved":false,"is_disabled":false,"rental_uris":{"android":"levelo://app?vid=3b259215-3ab5-4136-8d63-cdfeaa53e8de","ios":"levelo://app?vid=3b259215-3ab5-4136-8d63-cdfeaa53e8de"},"vehicle_type_id":"4","last_reported":1741979260,"current_range_meters":18000,"station_id":"ce4bhqp2rcd13ifvqhng","pricing_plan_id":"cebpf4jnsgd1na2vs0mg"},{"bike_id":"8dee89b1-f251-449e-a212-f0a0e46943ef","system_id":"levelo_inurba_marseille","lat":43.27622,"lon":5.36116,"is_reserved":false,"is_disabled":false,"rental_uris":{"android":"levelo://app?vid=8dee89b1-f251-449e-a212-f0a0e46943ef","ios":"levelo://app?vid=8dee89b1-f251-449e-a212-f0a0e46943ef"},"vehicle_type_id":"4","last_reported":1741979260,"current_range_meters":18000,"station_id":"ce4bgj92rcd13ifvqbe0","pricing_plan_id":"cebpf4jnsgd1na2vs0mg"},{"bike_id":"72977fa7-7343-4cff-8728-965991106263","system_id":"levelo_inurba_marseille","lat":43.29642,"lon":5.3717,"is_reserved":false,"is_disabled":false,"rental_uris":{"android":"levelo://app?vid=72977fa7-7343-4cff-8728-965991106263","ios":"levelo://app?vid=72977fa7-7343-4cff-8728-965991106263"},"vehicle_type_id":"4","last_reported":1741979260,"current_range_meters":18000,"station_id":"ce4bgnh2rcd13ifvqc0g","pricing_plan_id":"cebpf4jnsgd1na2vs0mg"},{"bike_id":"d20b1ea1-68d8-4d84-b2b2-7af425a1c02d","system_id":"levelo_inurba_marseille","lat":43.26962,"lon":5.40227,"is_reserved":false,"is_disabled":false,"rental_uris":{"android":"levelo://app?vid=d20b1ea1-68d8-4d84-b2b2-7af425a1c02d","ios":"levelo://app?vid=d20b1ea1-68d8-4d84-b2b2-7af425a1c02d"},"vehicle_type_id":"4","last_reported":1741979260,"current_range_meters":18000,"station_id":"cjm6bp8fraef2m0cb0m0","pricing_plan_id":"cebpf4jnsgd1na2vs0mg"},{"bike_id":"a7bf43f3-dbf8-47c3-97b2-b3dfd7ac0119","system_id":"levelo_inurba_marseille","lat":43.30531,"lon":5.36555,"is_reserved":false,"is_disabled":false,"rental_uris":{"android":"levelo://app?vid=a7bf43f3-dbf8-47c3-97b2-b3dfd7ac0119","ios":"levelo://app?vid=a7bf43f3-dbf8-47c3-97b2-b3dfd7ac0119"},"vehicle_type_id":"4","last_reported":1741979260,"current_range_meters":18000,"station_id":"ce4bgs12rcd13ifvqcag","pricing_plan_id":"cebpf4jnsgd1na2vs0mg"},{"bike_id":"78df367a-4264-4241-a94f-f890135b7404","system_id":"levelo_inurba_marseille","lat":43.336087,"lon":5.409954,"is_reserved":false,"is_disabled":false,"rental_uris":{"android":"levelo://app?vid=78df367a-4264-4241-a94f-f890135b7404","ios":"levelo://app?vid=78df367a-4264-4241-a94f-f890135b7404"},"vehicle_type_id":"4","last_reported":1741979260,"current_range_meters":18000,"station_id":"ce4bhqh2rcd13ifvqhmg","pricing_plan_id":"cebpf4jnsgd1na2vs0mg"},{"bike_id":"efa182c5-e8bb-4316-9ac4-4d06270b10d4","system_id":"levelo_inurba_marseille","lat":43.32373,"lon":5.38882,"is_reserved":false,"is_disabled":false,"rental_uris":{"android":"levelo://app?vid=efa182c5-e8bb-4316-9ac4-4d06270b10d4","ios":"levelo://app?vid=efa182c5-e8bb-4316-9ac4-4d06270b10d4"},"vehicle_type_id":"4","last_reported":1741979260,"current_range_meters":18000,"station_id":"ce4bhqp2rcd13ifvqhog","pricing_plan_id":"cebpf4jnsgd1na2vs0mg"},{"bike_id":"538cf22a-9e32-4b58-bbb6-037ac3526cd8","system_id":"levelo_inurba_marseille","lat":43.29572,"lon":5.375,"is_reserved":false,"is_disabled":false,"rental_uris":{"android":"levelo://app?vid=538cf22a-9e32-4b58-bbb6-037ac3526cd8","ios":"levelo://app?vid=538cf22a-9e32-4b58-bbb6-037ac3526cd8"},"vehicle_type_id":"4","last_reported":1741979260,"current_range_meters":18000,"station_id":"ce4bgh92rcd13ifvqb50","pricing_plan_id":"cebpf4jnsgd1na2vs0mg"},{"bike_id":"86ab8f05-f476-4e2e-9579-632e2f9f962b","system_id":"levelo_inurba_marseille","lat":43.27619,"lon":5.36105,"is_reserved":false,"is_disabled":false,"rental_uris":{"android":"levelo://app?vid=86ab8f05-f476-4e2e-9579-632e2f9f962b","ios":"levelo://app?vid=86ab8f05-f476-4e2e-9579-632e2f9f962b"},"vehicle_type_id":"4","last_reported":1741979260,"current_range_meters":18000,"station_id":"ce4bgj92rcd13ifvqbe0","pricing_plan_id":"cebpf4jnsgd1na2vs0mg"},{"bike_id":"c0e185b0-e289-4274-ac1f-4091eeb32a60","system_id":"levelo_inurba_marseille","lat":43.30958,"lon":5.40083,"is_reserved":false,"is_disabled":false,"rental_uris":{"android":"levelo://app?vid=c0e185b0-e289-4274-ac1f-4091eeb32a60","ios":"levelo://app?vid=c0e185b0-e289-4274-ac1f-4091eeb32a60"},"vehicle_type_id":"4","last_reported":1741979260,"current_range_meters":18800,"station_id":"ce4bgvp2rcd13ifvqct0","pricing_plan_id":"cebpf4jnsgd1na2vs0mg"},{"bike_id":"a5028821-6a81-4bbb-94ca-b7ac127e2028","system_id":"levelo_inurba_marseille","lat":43.28623,"lon":5.37039,"is_reserved":false,"is_disabled":false,"rental_uris":{"android":"levelo://app?vid=a5028821-6a81-4bbb-94ca-b7ac127e2028","ios":"levelo://app?vid=a5028821-6a81-4bbb-94ca-b7ac127e2028"},"vehicle_type_id":"4","last_reported":1741979260,"current_range_meters":18800,"station_id":"ce4bht12rcd13ifvqi60","pricing_plan_id":"cebpf4jnsgd1na2vs0mg"},{"bike_id":"14c06552-2844-40f8-963d-3dedffcab250","system_id":"levelo_inurba_marseille","lat":43.29628,"lon":5.37145,"is_reserved":false,"is_disabled":false,"rental_uris":{"android":"levelo://app?vid=14c06552-2844-40f8-963d-3dedffcab250","ios":"levelo://app?vid=14c06552-2844-40f8-963d-3dedffcab250"},"vehicle_type_id":"4","last_reported":1741979260,"current_range_meters":18800,"station_id":"ce4bgnh2rcd13ifvqc0g","pricing_plan_id":"cebpf4jnsgd1na2vs0mg"},{"bike_id":"f709cb7e-4bd4-4503-ab85-447b0bd380b5","system_id":"levelo_inurba_marseille","lat":43.32356,"lon":5.38954,"is_reserved":false,"is_disabled":false,"rental_uris":{"android":"levelo://app?vid=f709cb7e-4bd4-4503-ab85-447b0bd380b5","ios":"levelo://app?vid=f709cb7e-4bd4-4503-ab85-447b0bd380b5"},"vehicle_type_id":"4","last_reported":1741979260,"current_range_meters":18800,"station_id":"ce4bhqp2rcd13ifvqhog","pricing_plan_id":"cebpf4jnsgd1na2vs0mg"},{"bike_id":"e45b485b-2b23-4619-b35b-0ea7416474b1","system_id":"levelo_inurba_marseille","lat":43.29577,"lon":5.36742,"is_reserved":false,"is_disabled":false,"rental_uris":{"android":"levelo://app?vid=e45b485b-2b23-4619-b35b-0ea7416474b1","ios":"levelo://app?vid=e45b485b-2b23-4619-b35b-0ea7416474b1"},"vehicle_type_id":"4","last_reported":1741979260,"current_range_meters":18800,"station_id":"ce4bgph2rcd13ifvqc2g","pricing_plan_id":"cebpf4jnsgd1na2vs0mg"},{"bike_id":"ca2de277-2d95-4f4d-8d56-7e70fca64033","system_id":"levelo_inurba_marseille","lat":43.32052,"lon":5.41537,"is_reserved":false,"is_disabled":false,"rental_uris":{"android":"levelo://app?vid=ca2de277-2d95-4f4d-8d56-7e70fca64033","ios":"levelo://app?vid=ca2de277-2d95-4f4d-8d56-7e70fca64033"},"vehicle_type_id":"4","last_reported":1741979260,"current_range_meters":18800,"station_id":"ce4bhq92rcd13ifvqhkg","pricing_plan_id":"cebpf4jnsgd1na2vs0mg"},{"bike_id":"6ffff0a8-172c-4dc2-8429-0d06f4d6bfed","system_id":"levelo_inurba_marseille","lat":43.29521,"lon":5.37503,"is_reserved":false,"is_disabled":false,"rental_uris":{"android":"levelo://app?vid=6ffff0a8-172c-4dc2-8429-0d06f4d6bfed","ios":"levelo://app?vid=6ffff0a8-172c-4dc2-8429-0d06f4d6bfed"},"vehicle_type_id":"4","last_reported":1741979260,"current_range_meters":18800,"station_id":"ce4bgkp2rcd13ifvqbmg","pricing_plan_id":"cebpf4jnsgd1na2vs0mg"},{"bike_id":"f8a4fd1f-8768-49cb-a929-fdc4f5463ccd","system_id":"levelo_inurba_marseille","lat":43.30147,"lon":5.37414,"is_reserved":false,"is_disabled":false,"rental_uris":{"android":"levelo://app?vid=f8a4fd1f-8768-49cb-a929-fdc4f5463ccd","ios":"levelo://app?vid=f8a4fd1f-8768-49cb-a929-fdc4f5463ccd"},"vehicle_type_id":"4","last_reported":1741979260,"current_range_meters":18800,"station_id":"ce4bgs92rcd13ifvqcc0","pricing_plan_id":"cebpf4jnsgd1na2vs0mg"},{"bike_id":"f30c26ca-804d-4786-9519-dbab41222c3b","system_id":"levelo_inurba_marseille","lat":43.2783,"lon":5.407,"is_reserved":false,"is_disabled":false,"rental_uris":{"android":"levelo://app?vid=f30c26ca-804d-4786-9519-dbab41222c3b","ios":"levelo://app?vid=f30c26ca-804d-4786-9519-dbab41222c3b"},"vehicle_type_id":"4","last_reported":1741979260,"current_range_meters":18800,"station_id":"ce4bhnh2rcd13ifvqgtg","pricing_plan_id":"cebpf4jnsgd1na2vs0mg"},{"bike_id":"ca5f494c-8344-4aa7-b04a-92cb524584b8","system_id":"levelo_inurba_marseille","lat":43.2804,"lon":5.3695,"is_reserved":false,"is_disabled":false,"rental_uris":{"android":"levelo://app?vid=ca5f494c-8344-4aa7-b04a-92cb524584b8","ios":"levelo://app?vid=ca5f494c-8344-4aa7-b04a-92cb524584b8"},"vehicle_type_id":"4","last_reported":1741979260,"current_range_meters":18000,"station_id":"ce4bha12rcd13ifvqef0","pricing_plan_id":"cebpf4jnsgd1na2vs0mg"},{"bike_id":"2e11829c-c539-4249-a99d-d72cb2a8e369","system_id":"levelo_inurba_marseille","lat":43.28846,"lon":5.35862,"is_reserved":false,"is_disabled":false,"rental_uris":{"android":"levelo://app?vid=2e11829c-c539-4249-a99d-d72cb2a8e369","ios":"levelo://app?vid=2e11829c-c539-4249-a99d-d72cb2a8e369"},"vehicle_type_id":"4","last_reported":1741979260,"current_range_meters":19200,"station_id":"ce4bhb12rcd13ifvqem0","pricing_plan_id":"cebpf4jnsgd1na2vs0mg"},{"bike_id":"642d5ba0-f707-4aa5-abbf-944400c409b6","system_id":"levelo_inurba_marseille","lat":43.27615,"lon":5.36117,"is_reserved":false,"is_disabled":false,"rental_uris":{"android":"levelo://app?vid=642d5ba0-f707-4aa5-abbf-944400c409b6","ios":"levelo://app?vid=642d5ba0-f707-4aa5-abbf-944400c409b6"},"vehicle_type_id":"4","last_reported":1741979260,"current_range_meters":19200,"station_id":"ce4bgj92rcd13ifvqbe0","pricing_plan_id":"cebpf4jnsgd1na2vs0mg"},{"bike_id":"4d20b878-6603-4328-ab6e-4a7ae0b08224","system_id":"levelo_inurba_marseille","lat":43.25944,"lon":5.40885,"is_reserved":false,"is_disabled":false,"rental_uris":{"android":"levelo://app?vid=4d20b878-6603-4328-ab6e-4a7ae0b08224","ios":"levelo://app?vid=4d20b878-6603-4328-ab6e-4a7ae0b08224"},