{"last_updated":1738861653,"ttl":60,"version":"2.2","data":{"bikes":[{"bike_id":"59ff7bba-bdd8-4883-9c7b-156bbd8cfa59","system_id":"levelo_inurba_marseille","lat":43.29786,"lon":5.38094,"is_reserved":false,"is_disabled":false,"rental_uris":{"android":"levelo://app?vid=59ff7bba-bdd8-4883-9c7b-156bbd8cfa59","ios":"levelo://app?vid=59ff7bba-bdd8-4883-9c7b-156bbd8cfa59"},"vehicle_type_id":"4","last_reported":1738861653,"current_range_meters":38800,"station_id":"ce4bgip2rcd13ifvqbb0","pricing_plan_id":"cebpf4jnsgd1na2vs0mg"},{"bike_id":"b7afcc04-cb11-440a-a531-4c808c1c4618","system_id":"levelo_inurba_marseille","lat":43.22927,"lon":5.35379,"is_reserved":false,"is_disabled":false,"rental_uris":{"android":"levelo://app?vid=b7afcc04-cb11-440a-a531-4c808c1c4618","ios":"levelo://app?vid=b7afcc04-cb11-440a-a531-4c808c1c4618"},"vehicle_type_id":"4","last_reported":1738861653,"current_range_meters":22800,"station_id":"cpo3532slgdg3j2ikp40","pricing_plan_id":"cebpf4jnsgd1na2vs0mg"},{"bike_id":"43ed1231-0b0d-413f-812b-afb9d05440b2","system_id":"levelo_inurba_marseille","lat":43.3132,"lon":5.39694,"is_reserved":false,"is_disabled":false,"rental_uris":{"android":"levelo://app?vid=43ed1231-0b0d-413f-812b-afb9d05440b2","ios":"levelo://app?vid=43ed1231-0b0d-413f-812b-afb9d05440b2"},"vehicle_type_id":"4","last_reported":1738861653,"current_range_meters":27200,"station_id":"ce4bgvp2rcd13ifvqcu0","pricing_plan_id":"cebpf4jnsgd1na2vs0mg"},{"bike_id":"1396efb7-f96f-4fef-8671-6effad9ac3b9","system_id":"levelo_inurba_marseille","lat":43.29617,"lon":5.37159,"is_reserved":false,"is_disabled":false,"rental_uris":{"android":"levelo://app?vid=1396efb7-f96f-4fef-8671-6effad9ac3b9","ios":"levelo://app?vid=1396efb7-f96f-4fef-8671-6effad9ac3b9"},"vehicle_type_id":"4","last_reported":1738861653,"current_range_meters":38800,"station_id":"ce4bgnh2rcd13ifvqc0g","pricing_plan_id":"cebpf4jnsgd1na2vs0mg"},{"bike_id":"9623debc-317f-480a-9778-41b7c79dc5d2","system_id":"levelo_inurba_marseille","lat":43.29318,"lon":5.37179,"is_reserved":false,"is_disabled":false,"rental_uris":{"android":"levelo://app?vid=9623debc-317f-480a-9778-41b7c79dc5d2","ios":"levelo://app?vid=9623debc-317f-480a-9778-41b7c79dc5d2"},"vehicle_type_id":"4","last_reported":1738861653,"current_range_meters":33600,"station_id":"ce4bgh92rcd13ifvqb40","pricing_plan_id":"cebpf4jnsgd1na2vs0mg"},{"bike_id":"6f1b8212-3f5a-4978-864e-5e174cc6fd25","system_id":"levelo_inurba_marseille","lat":43.29558,"lon":5.42292,"is_reserved":false,"is_disabled":false,"rental_uris":{"android":"levelo://app?vid=6f1b8212-3f5a-4978-864e-5e174cc6fd25","ios":"levelo://app?vid=6f1b8212-3f5a-4978-864e-5e174cc6fd25"},"vehicle_type_id":"4","last_reported":1738861653,"current_range_meters":38800,"station_id":"ce4bhph2rcd13ifvqhdg","pricing_plan_id":"cebpf4jnsgd1na2vs0mg"},{"bike_id":"0b370460-2bdc-4346-a1f4-7aeb9dd2a707","system_id":"levelo_inurba_marseille","lat":43.28632,"lon":5.39138,"is_reserved":false,"is_disabled":true,"rental_uris":{"android":"levelo://app?vid=0b370460-2bdc-4346-a1f4-7aeb9dd2a707","ios":"levelo://app?vid=0b370460-2bdc-4346-a1f4-7aeb9dd2a707"},"vehicle_type_id":"4","last_reported":1738861653,"current_range_meters":18800,"station_id":"","pricing_plan_id":"cebpf4jnsgd1na2vs0mg"},{"bike_id":"cd961c39-a4a4-4744-b3c6-50c57c93b064","system_id":"levelo_inurba_marseille","lat":43.2863,"lon":5.35096,"is_reserved":false,"is_disabled":false,"rental_uris":{"android":"levelo://app?vid=cd961c39-a4a4-4744-b3c6-50c57c93b064","ios":"levelo://app?vid=cd961c39-a4a4-4744-b3c6-50c57c93b064"},"vehicle_type_id":"4","last_reported":1738861653,"current_range_meters":8800,"station_id":"ce4bhch2rcd13ifvqeug","pricing_plan_id":"cebpf4jnsgd1na2vs0mg"},{"bike_id":"9094078c-7c29-411d-8877-ca6848fb2f24","system_id":"levelo_inurba_marseille","lat":43.27905,"lon":5.38023,"is_reserved":false,"is_disabled":false,"rental_uris":{"android":"levelo://app?vid=9094078c-7c29-411d-8877-ca6848fb2f24","ios":"levelo://app?vid=9094078c-7c29-411d-8877-ca6848fb2f24"},"vehicle_type_id":"4","last_reported":1738861653,"current_range_meters":17600,"station_id":"ce4bhf92rcd13ifvqf50","pricing_plan_id":"cebpf4jnsgd1na2vs0mg"},{"bike_id":"e0b2e6e3-cf3f-43ff-a27b-9a7676c8271e","system_id":"levelo_inurba_marseille","lat":43.23181,"lon":5.39986,"is_reserved":false,"is_disabled":false,"rental_uris":{"android":"levelo://app?vid=e0b2e6e3-cf3f-43ff-a27b-9a7676c8271e","ios":"levelo://app?vid=e0b2e6e3-cf3f-43ff-a27b-9a7676c8271e"},"vehicle_type_id":"4","last_reported":1738861653,"current_range_meters":16400,"station_id":"ce4bhn12rcd13ifvqgqg","pricing_plan_id":"cebpf4jnsgd1na2vs0mg"},{"bike_id":"41748c4d-fb7e-4f03-a7ef-71bbf6c5209c","system_id":"levelo_inurba_marseille","lat":43.24808,"lon":5.37458,"is_reserved":false,"is_disabled":false,"rental_uris":{"android":"levelo://app?vid=41748c4d-fb7e-4f03-a7ef-71bbf6c5209c","ios":"levelo://app?vid=41748c4d-fb7e-4f03-a7ef-71bbf6c5209c"},"vehicle_type_id":"4","last_reported":1738861653,"current_range_meters":24000,"station_id":"ce4bhgh2rcd13ifvqfb0","pricing_plan_id":"cebpf4jnsgd1na2vs0mg"},{"bike_id":"add2dc4e-cf09-456b-b2fb-5e0f6c84f097","system_id":"levelo_inurba_marseille","lat":43.26683,"lon":5.38284,"is_reserved":false,"is_disabled":false,"rental_uris":{"android":"levelo://app?vid=add2dc4e-cf09-456b-b2fb-5e0f6c84f097","ios":"levelo://app?vid=add2dc4e-cf09-456b-b2fb-5e0f6c84f097"},"vehicle_type_id":"4","last_reported":1738861653,"current_range_meters":27600,"station_id":"ce4bhg92rcd13ifvqf90","pricing_plan_id":"cebpf4jnsgd1na2vs0mg"},{"bike_id":"af34850e-2eaf-4172-893e-974097f98dda","system_id":"levelo_inurba_marseille","lat":43.27568,"lon":5.38421,"is_reserved":false,"is_disabled":false,"rental_uris":{"android":"levelo://app?vid=af34850e-2eaf-4172-893e-974097f98dda","ios":"levelo://app?vid=af34850e-2eaf-4172-893e-974097f98dda"},"vehicle_type_id":"4","last_reported":1738861653,"current_range_meters":9200,"station_id":"ce4bhh92rcd13ifvqfi0","pricing_plan_id":"cebpf4jnsgd1na2vs0mg"},{"bike_id":"b299b2f0-24f1-4e27-b760-1dab1ff9f84c","system_id":"levelo_inurba_marseille","lat":43.26063,"lon":5.39407,"is_reserved":false,"is_disabled":false,"rental_uris":{"android":"levelo://app?vid=b299b2f0-24f1-4e27-b760-1dab1ff9f84c","ios":"levelo://app?vid=b299b2f0-24f1-4e27-b760-1dab1ff9f84c"},"vehicle_type_id":"4","last_reported":1738861653,"current_range_meters":12800,"station_id":"ce4bhh92rcd13ifvqfj0","pricing_plan_id":"cebpf4jnsgd1na2vs0mg"},{"bike_id":"2dda5f87-17fe-4dae-b95a-729c2b4f05c0","system_id":"levelo_inurba_marseille","lat":43.31304,"lon":5.39678,"is_reserved":false,"is_disabled":false,"rental_uris":{"android":"levelo://app?vid=2dda5f87-17fe-4dae-b95a-729c2b4f05c0","ios":"levelo://app?vid=2dda5f87-17fe-4dae-b95a-729c2b4f05c0"},"vehicle_type_id":"4","last_reported":1738861653,"current_range_meters":25200,"station_id":"ce4bgvp2rcd13ifvqcu0","pricing_plan_id":"cebpf4jnsgd1na2vs0mg"},{"bike_id":"19498607-4f00-490e-bf96-7b50a92ebb31","system_id":"levelo_inurba_marseille","lat":43.26217,"lon":5.37436,"is_reserved":false,"is_disabled":false,"rental_uris":{"android":"levelo://app?vid=19498607-4f00-490e-bf96-7b50a92ebb31","ios":"levelo://app?vid=19498607-4f00-490e-bf96-7b50a92ebb31"},"vehicle_type_id":"4","last_reported":1738861653,"current_range_meters":38000,"station_id":"ce4bhgp2rcd13ifvqfc0","pricing_plan_id":"cebpf4jnsgd1na2vs0mg"},{"bike_id":"f71cfc37-58ac-4619-b554-407a661a0b99","system_id":"levelo_inurba_marseille","lat":43.29876,"lon":5.39713,"is_reserved":false,"is_disabled":false,"rental_uris":{"android":"levelo://app?vid=f71cfc37-58ac-4619-b554-407a661a0b99","ios":"levelo://app?vid=f71cfc37-58ac-4619-b554-407a661a0b99"},"vehicle_type_id":"4","last_reported":1738861653,"current_range_meters":16000,"station_id":"ce4bh0h2rcd13ifvqd50","pricing_plan_id":"cebpf4jnsgd1na2vs0mg"},{"bike_id":"aa874f21-4899-4c94-ac56-d6c355723cbb","system_id":"levelo_inurba_marseille","lat":43.23191,"lon":5.39983,"is_reserved":false,"is_disabled":false,"rental_uris":{"android":"levelo://app?vid=aa874f21-4899-4c94-ac56-d6c355723cbb","ios":"levelo://app?vid=aa874f21-4899-4c94-ac56-d6c355723cbb"},"vehicle_type_id":"4","last_reported":1738861653,"current_range_meters":36800,"station_id":"ce4bhn12rcd13ifvqgqg","pricing_plan_id":"cebpf4jnsgd1na2vs0mg"},{"bike_id":"19b11498-b7da-498a-a065-c091cc335a9f","system_id":"levelo_inurba_marseille","lat":43.23187,"lon":5.39985,"is_reserved":false,"is_disabled":false,"rental_uris":{"android":"levelo://app?vid=19b11498-b7da-498a-a065-c091cc335a9f","ios":"levelo://app?vid=19b11498-b7da-498a-a065-c091cc335a9f"},"vehicle_type_id":"4","last_reported":1738861653,"current_range_meters":36800,"station_id":"ce4bhn12rcd13ifvqgqg","pricing_plan_id":"cebpf4jnsgd1na2vs0mg"},{"bike_id":"7fc725b6-c1ea-4181-8683-476735c31dc5","system_id":"levelo_inurba_marseille","lat":43.27915,"lon":5.39582,"is_reserved":false,"is_disabled":false,"rental_uris":{"android":"levelo://app?vid=7fc725b6-c1ea-4181-8683-476735c31dc5","ios":"levelo://app?vid=7fc725b6-c1ea-4181-8683-476735c31dc5"},"vehicle_type_id":"4","last_reported":1738861653,"current_range_meters":2800,"station_id":"ce4bhf92rcd13ifvqf40","pricing_plan_id":"cebpf4jnsgd1na2vs0mg"},{"bike_id":"830fc339-942c-4f07-acae-989d6eb474e5","system_id":"levelo_inurba_marseille","lat":43.29733,"lon":5.37692,"is_reserved":false,"is_disabled":false,"rental_uris":{"android":"levelo://app?vid=830fc339-942c-4f07-acae-989d6eb474e5","ios":"levelo://app?vid=830fc339-942c-4f07-acae-989d6eb474e5"},"vehicle_type_id":"4","last_reported":1738861653,"current_range_meters":25200,"station_id":"ce4bgkh2rcd13ifvqbl0","pricing_plan_id":"cebpf4jnsgd1na2vs0mg"},{"bike_id":"9e71bc6b-ba40-45d9-acdd-7a2c8b7764bd","system_id":"levelo_inurba_marseille","lat":43.30947,"lon":5.39038,"is_reserved":false,"is_disabled":false,"rental_uris":{"android":"levelo://app?vid=9e71bc6b-ba40-45d9-acdd-7a2c8b7764bd","ios":"levelo://app?vid=9e71bc6b-ba40-45d9-acdd-7a2c8b7764bd"},"vehicle_type_id":"4","last_reported":1738861653,"current_range_meters":30800,"station_id":"ce4bgup2rcd13ifvqco0","pricing_plan_id":"cebpf4jnsgd1na2vs0mg"},{"bike_id":"422d1ae9-3f23-4c23-952d-112dc4aaa449","system_id":"levelo_inurba_marseille","lat":43.29823,"lon":5.37973,"is_reserved":false,"is_disabled":false,"rental_uris":{"android":"levelo://app?vid=422d1ae9-3f23-4c23-952d-112dc4aaa449","ios":"levelo://app?vid=422d1ae9-3f23-4c23-952d-112dc4aaa449"},"vehicle_type_id":"4","last_reported":1738861653,"current_range_meters":12800,"station_id":"","pricing_plan_id":"cebpf4jnsgd1na2vs0mg"},{"bike_id":"fc83fef0-50d4-4cd9-80d9-aa31a5255320","system_id":"levelo_inurba_marseille","lat":43.29543,"lon":5.394,"is_reserved":false,"is_disabled":false,"rental_uris":{"android":"levelo://app?vid=fc83fef0-50d4-4cd9-80d9-aa31a5255320","ios":"levelo://app?vid=fc83fef0-50d4-4cd9-80d9-aa31a5255320"},"vehicle_type_id":"4","last_reported":1738861653,"current_range_meters":6800,"station_id":"ce4bh292rcd13ifvqdf0","pricing_plan_id":"cebpf4jnsgd1na2vs0mg"},{"bike_id":"d327d221-a4ae-4ce7-8941-3960805fc399","system_id":"levelo_inurba_marseille","lat":43.33779,"lon":5.37479,"is_reserved":false,"is_disabled":true,"rental_uris":{"android":"levelo://app?vid=d327d221-a4ae-4ce7-8941-3960805fc399","ios":"levelo://app?vid=d327d221-a4ae-4ce7-8941-3960805fc399"},"vehicle_type_id":"4","last_reported":1738861653,"current_range_meters":33600,"station_id":"","pricing_plan_id":"cebpf4jnsgd1na2vs0mg"},{"bike_id":"b6cd9111-2bcd-463f-8a8d-3be64b63d073","system_id":"levelo_inurba_marseille","lat":43.26682,"lon":5.38273,"is_reserved":false,"is_disabled":false,"rental_uris":{"android":"levelo://app?vid=b6cd9111-2bcd-463f-8a8d-3be64b63d073","ios":"levelo://app?vid=b6cd9111-2bcd-463f-8a8d-3be64b63d073"},"vehicle_type_id":"4","last_reported":1738861653,"current_range_meters":28000,"station_id":"ce4bhg92rcd13ifvqf90","pricing_plan_id":"cebpf4jnsgd1na2vs0mg"},{"bike_id":"098d220b-e449-43ea-8d6d-9fc78e0abad9","system_id":"levelo_inurba_marseille","lat":43.22935,"lon":5.35386,"is_reserved":false,"is_disabled":false,"rental_uris":{"android":"levelo://app?vid=098d220b-e449-43ea-8d6d-9fc78e0abad9","ios":"levelo://app?vid=098d220b-e449-43ea-8d6d-9fc78e0abad9"},"vehicle_type_id":"4","last_reported":1738861653,"current_range_meters":38800,"station_id":"cpo3532slgdg3j2ikp40","pricing_plan_id":"cebpf4jnsgd1na2vs0mg"},{"bike_id":"3de2a62f-ee8b-4633-8581-80f610f7d857","system_id":"levelo_inurba_marseille","lat":43.24543,"lon":5.39534,"is_reserved":false,"is_disabled":true,"rental_uris":{"android":"levelo://app?vid=3de2a62f-ee8b-4633-8581-80f610f7d857","ios":"levelo://app?vid=3de2a62f-ee8b-4633-8581-80f610f7d857"},"vehicle_type_id":"4","last_reported":1738861653,"current_range_meters":800,"station_id":"ce4bhlp2rcd13ifvqgjg","pricing_plan_id":"cebpf4jnsgd1na2vs0mg"},{"bike_id":"e72514e9-9fb0-4cf4-9627-2bdb46835a05","system_id":"levelo_inurba_marseille","lat":43.2873,"lon":5.36099,"is_reserved":false,"is_disabled":false,"rental_uris":{"android":"levelo://app?vid=e72514e9-9fb0-4cf4-9627-2bdb46835a05","ios":"levelo://app?vid=e72514e9-9fb0-4cf4-9627-2bdb46835a05"},"vehicle_type_id":"4","last_reported":1738861653,"current_range_meters":36800,"station_id":"cki0cbj6b192h4jlfktg","pricing_plan_id":"cebpf4jnsgd1na2vs0mg"},{"bike_id":"8134c42b-15c7-43df-91b1-9cea8c89299b","system_id":"levelo_inurba_marseille","lat":43.25864,"lon":5.39901,"is_reserved":false,"is_disabled":true,"rental_uris":{"android":"levelo://app?vid=8134c42b-15c7-43df-91b1-9cea8c89299b","ios":"levelo://app?vid=8134c42b-15c7-43df-91b1-9cea8c89299b"},"vehicle_type_id":"4","last_reported":1738861653,"current_range_meters":32000,"station_id":"ce4bhl92rcd13ifvqghg","pricing_plan_id":"cebpf4jnsgd1na2vs0mg"},{"bike_id":"edaf17a3-9fb8-4281-8efa-d1063bb06377","system_id":"levelo_inurba_marseille","lat":43.27925,"lon":5.39584,"is_reserved":false,"is_disabled":false,"rental_uris":{"android":"levelo://app?vid=edaf17a3-9fb8-4281-8efa-d1063bb06377","ios":"levelo://app?vid=edaf17a3-9fb8-4281-8efa-d1063bb06377"},"vehicle_type_id":"4","last_reported":1738861653,"current_range_meters":4000,"station_id":"ce4bhf92rcd13ifvqf40","pricing_plan_id":"cebpf4jnsgd1na2vs0mg"},{"bike_id":"d7ead273-bf60-49f8-8869-552a00114485","system_id":"levelo_inurba_marseille","lat":43.30809,"lon":5.39213,"is_reserved":false,"is_disabled":true,"rental_uris":{"android":"levelo://app?vid=d7ead273-bf60-49f8-8869-552a00114485","ios":"levelo://app?vid=d7ead273-bf60-49f8-8869-552a00114485"},"vehicle_type_id":"4","last_reported":1738861653,"current_range_meters":0,"station_id":"","pricing_plan_id":"cebpf4jnsgd1na2vs0mg"},{"bike_id":"0002452e-e709-42bb-b579-a6a62a828b87","system_id":"levelo_inurba_marseille","lat":43.29683,"lon":5.37302,"is_reserved":false,"is_disabled":false,"rental_uris":{"android":"levelo://app?vid=0002452e-e709-42bb-b579-a6a62a828b87","ios":"levelo://app?vid=0002452e-e709-42bb-b579-a6a62a828b87"},"vehicle_type_id":"4","last_reported":1738861653,"current_range_meters":25200,"station_id":"ce4bgk12rcd13ifvqbj0","pricing_plan_id":"cebpf4jnsgd1na2vs0mg"},{"bike_id":"12defe7e-c47c-4fa6-8dd3-f6f7f6deca0c","system_id":"levelo_inurba_marseille","lat":43.289478,"lon":5.36409,"is_reserved":false,"is_disabled":false,"rental_uris":{"android":"levelo://app?vid=12defe7e-c47c-4fa6-8dd3-f6f7f6deca0c","ios":"levelo://app?vid=12defe7e-c47c-4fa6-8dd3-f6f7f6deca0c"},"vehicle_type_id":"4","last_reported":1738861653,"current_range_meters":19600,"station_id":"ce4bhc92rcd13ifvqetg","pricing_plan_id":"cebpf4jnsgd1na2vs0mg"},{"bike_id":"55b44667-8631-4d0f-a65c-410f6e9ca7fe","system_id":"levelo_inurba_marseille","lat":43.25497,"lon":5.37647,"is_reserved":false,"is_disabled":false,"rental_uris":{"android":"levelo://app?vid=55b44667-8631-4d0f-a65c-410f6e9ca7fe","ios":"levelo://app?vid=55b44667-8631-4d0f-a65c-410f6e9ca7fe"},"vehicle_type_id":"4","last_reported":1738861653,"current_range_meters":15200,"station_id":"ce4bhh12rcd13ifvqff0","pricing_plan_id":"cebpf4jnsgd1na2vs0mg"},{"bike_id":"4ed068d3-7355-4fe3-983e-d958d680cef4","system_id":"levelo_inurba_marseille","lat":43.30806,"lon":5.43515,"is_reserved":false,"is_disabled":false,"rental_uris":{"android":"levelo://app?vid=4ed068d3-7355-4fe3-983e-d958d680cef4","ios":"levelo://app?vid=4ed068d3-7355-4fe3-983e-d958d680cef4"},"vehicle_type_id":"4","last_reported":1738861653,"current_range_meters":38800,"station_id":"ce4bhph2rcd13ifvqheg","pricing_plan_id":"cebpf4jnsgd1na2vs0mg"},{"bike_id":"c1f6f045-5bdc-477b-a588-3bc18821954c","system_id":"levelo_inurba_marseille","lat":43.28023,"lon":5.39945,"is_reserved":false,"is_disabled":false,"rental_uris":{"android":"levelo://app?vid=c1f6f045-5bdc-477b-a588-3bc18821954c","ios":"levelo://app?vid=c1f6f045-5bdc-477b-a588-3bc18821954c"},"vehicle_type_id":"4","last_reported":1738861653,"current_range_meters":16000,"station_id":"ce4bho92rcd13ifvqh4g","pricing_plan_id":"cebpf4jnsgd1na2vs0mg"},{"bike_id":"3078e8ce-5d59-4082-8b1a-8d753b4f6935","system_id":"levelo_inurba_marseille","lat":43.23187,"lon":5.39982,"is_reserved":false,"is_disabled":false,"rental_uris":{"android":"levelo://app?vid=3078e8ce-5d59-4082-8b1a-8d753b4f6935","ios":"levelo://app?vid=3078e8ce-5d59-4082-8b1a-8d753b4f6935"},"vehicle_type_id":"4","last_reported":1738861653,"current_range_meters":39200,"station_id":"ce4bhn12rcd13ifvqgqg","pricing_plan_id":"cebpf4jnsgd1na2vs0mg"},{"bike_id":"b1e15155-8511-43e5-bd75-fed6364538ed","system_id":"levelo_inurba_marseille","lat":43.33026,"lon":5.3903,"is_reserved":false,"is_disabled":false,"rental_uris":{"android":"levelo://app?vid=b1e15155-8511-43e5-bd75-fed6364538ed","ios":"levelo://app?vid=b1e15155-8511-43e5-bd75-fed6364538ed"},"vehicle_type_id":"4","last_reported":1738861653,"current_range_meters":32800,"station_id":"ce4bhr92rcd13ifvqhrg","pricing_plan_id":"cebpf4jnsgd1na2vs0mg"},{"bike_id":"a8e76632-6d27-4a5d-bcf5-de064ffe9c8a","system_id":"levelo_inurba_marseille","lat":43.33772,"lon":5.37444,"is_reserved":false,"is_disabled":false,"rental_uris":{"android":"levelo://app?vid=a8e76632-6d27-4a5d-bcf5-de064ffe9c8a","ios":"levelo://app?vid=a8e76632-6d27-4a5d-bcf5-de064ffe9c8a"},"vehicle_type_id":"4","last_reported":1738861653,"current_range_meters":16000,"station_id":"","pricing_plan_id":"cebpf4jnsgd1na2vs0mg"},{"bike_id":"19ba1418-665e-44c1-9fd9-f40d6cdfe17b","system_id":"levelo_inurba_marseille","lat":43.29678,"lon":5.36592,"is_reserved":false,"is_disabled":false,"rental_uris":{"android":"levelo://app?vid=19ba1418-665e-44c1-9fd9-f40d6cdfe17b","ios":"levelo://app?vid=19ba1418-665e-44c1-9fd9-f40d6cdfe17b"},"vehicle_type_id":"4","last_reported":1738861653,"current_range_meters":38800,"station_id":"ce4bgn12rcd13ifvqbt0","pricing_plan_id":"cebpf4jnsgd1na2vs0mg"},{"bike_id":"12040d18-1054-4261-b22a-087b2e066e16","system_id":"levelo_inurba_marseille","lat":43.28624,"lon":5.35104,"is_reserved":false,"is_disabled":false,"rental_uris":{"android":"levelo://app?vid=12040d18-1054-4261-b22a-087b2e066e16","ios":"levelo://app?vid=12040d18-1054-4261-b22a-087b2e066e16"},"vehicle_type_id":"4","last_reported":1738861653,"current_range_meters":22800,"station_id":"ce4bhch2rcd13ifvqeug","pricing_plan_id":"cebpf4jnsgd1na2vs0mg"},{"bike_id":"b7170db3-19dc-4a85-8569-b67a5fe155b0","system_id":"levelo_inurba_marseille","lat":43.28715,"lon":5.37943,"is_reserved":false,"is_disabled":false,"rental_uris":{"android":"levelo://app?vid=b7170db3-19dc-4a85-8569-b67a5fe155b0","ios":"levelo://app?vid=b7170db3-19dc-4a85-8569-b67a5fe155b0"},"vehicle_type_id":"4","last_reported":1738861653,"current_range_meters":39200,"station_id":"ce4bh9p2rcd13ifvqec0","pricing_plan_id":"cebpf4jnsgd1na2vs0mg"},{"bike_id":"72933e7f-2bfa-46e1-b4fe-60b7391c3bd3","system_id":"levelo_inurba_marseille","lat":43.27923,"lon":5.39587,"is_reserved":false,"is_disabled":false,"rental_uris":{"android":"levelo://app?vid=72933e7f-2bfa-46e1-b4fe-60b7391c3bd3","ios":"levelo://app?vid=72933e7f-2bfa-46e1-b4fe-60b7391c3bd3"},"vehicle_type_id":"4","last_reported":1738861653,"current_range_meters":31200,"station_id":"ce4bhf92rcd13ifvqf40","pricing_plan_id":"cebpf4jnsgd1na2vs0mg"},{"bike_id":"15d13832-3ae5-42e6-82d9-4929333906d9","system_id":"levelo_inurba_marseille","lat":43.32998,"lon":5.39142,"is_reserved":false,"is_disabled":false,"rental_uris":{"android":"levelo://app?vid=15d13832-3ae5-42e6-82d9-4929333906d9","ios":"levelo://app?vid=15d13832-3ae5-42e6-82d9-4929333906d9"},"vehicle_type_id":"4","last_reported":1738861653,"current_range_meters":24800,"station_id":"","pricing_plan_id":"cebpf4jnsgd1na2vs0mg"},{"bike_id":"f9bc7b10-8440-46aa-8f5e-477165c9a8f6","system_id":"levelo_inurba_marseille","lat":43.27987,"lon":5.40025,"is_reserved":false,"is_disabled":false,"rental_uris":{"android":"levelo://app?vid=f9bc7b10-8440-46aa-8f5e-477165c9a8f6","ios":"levelo://app?vid=f9bc7b10-8440-46aa-8f5e-477165c9a8f6"},"vehicle_type_id":"4","last_reported":1738861653,"current_range_meters":11600,"station_id":"ce4bho92rcd13ifvqh4g","pricing_plan_id":"cebpf4jnsgd1na2vs0mg"},{"bike_id":"40dc067b-4e2c-4e97-95a9-54d4531fc94d","system_id":"levelo_inurba_marseille","lat":43.30326,"lon":5.40436,"is_reserved":false,"is_disabled":false,"rental_uris":{"android":"levelo://app?vid=40dc067b-4e2c-4e97-95a9-54d4531fc94d","ios":"levelo://app?vid=40dc067b-4e2c-4e97-95a9-54d4531fc94d"},"vehicle_type_id":"4","last_reported":1738861653,"current_range_meters":38800,"station_id":"ce4bh012rcd13ifvqd10","pricing_plan_id":"cebpf4jnsgd1na2vs0mg"},{"bike_id":"5c57bbac-bf63-47c0-8ef7-e92217416071","system_id":"levelo_inurba_marseille","lat":43.26492,"lon":5.39521,"is_reserved":false,"is_disabled":true,"rental_uris":{"android":"levelo://app?vid=5c57bbac-bf63-47c0-8ef7-e92217416071","ios":"levelo://app?vid=5c57bbac-bf63-47c0-8ef7-e92217416071"},"vehicle_type_id":"4","last_reported":1738861653,"current_range_meters":800,"station_id":"ce4bhi12rcd13ifvqfq0","pricing_plan_id":"cebpf4jnsgd1na2vs0mg"},{"bike_id":"d8846dda-e477-4b5b-bfc6-cf02006347fc","system_id":"levelo_inurba_marseille","lat":43.29196,"lon":5.39326,"is_reserved":false,"is_disabled":false,"rental_uris":{"android":"levelo://app?vid=d8846dda-e477-4b5b-bfc6-cf02006347fc","ios":"levelo://app?vid=d8846dda-e477-4b5b-bfc6-cf02006347fc"},"vehicle_type_id":"4","last_reported":1738861653,"current_range_meters":22400,"station_id":"ce4bh192rcd13ifvqdd0","pricing_plan_id":"cebpf4jnsgd1na2vs0mg"},{"bike_id":"773c48f9-de3b-4993-9b27-7dc61ef4b1e8","system_id":"levelo_inurba_marseille","lat":43.28402,"lon":5.37512,"is_reserved":false,"is_disabled":false,"rental_uris":{"android":"levelo://app?vid=773c48f9-de3b-4993-9b27-7dc61ef4b1e8","ios":"levelo://app?vid=773c48f9-de3b-4993-9b27-7dc61ef4b1e8"},"vehicle_type_id":"4","last_reported":1738861653,"current_range_meters":38800,"station_id":"ce4bh412rcd13ifvqds0","pricing_plan_id":"cebpf4jnsgd1na2vs0mg"},{"bike_id":"a14ef42f-18de-4f3f-9f4f-3235dfb6d1ec","system_id":"levelo_inurba_marseille","lat":43.2824,"lon":5.42726,"is_reserved":false,"is_disabled":false,"rental_uris":{"android":"levelo://app?vid=a14ef42f-18de-4f3f-9f4f-3235dfb6d1ec","ios":"levelo://app?vid=a14ef42f-18de-4f3f-9f4f-3235dfb6d1ec"},"vehicle_type_id":"4","last_reported":1738861653,"current_range_meters":27600,"station_id":"ce4bhph2rcd13ifvqhdg","pricing_plan_id":"cebpf4jnsgd1na2vs0mg"},{"bike_id":"b73937ba-05e4-41c7-8959-6f24613e2797","system_id":"levelo_inurba_marseille","lat":43.22936,"lon":5.35378,"is_reserved":false,"is_disabled":false,"rental_uris":{"android":"levelo://app?vid=b73937ba-05e4-41c7-8959-6f24613e2797","ios":"levelo://app?vid=b73937ba-05e4-41c7-8959-6f24613e2797"},"vehicle_type_id":"4","last_reported":1738861653,"current_range_meters":37600,"station_id":"cpo3532slgdg3j2ikp40","pricing_plan_id":"cebpf4jnsgd1na2vs0mg"},{"bike_id":"46f239e3-10f8-4c17-a29d-07378ca31ca3","system_id":"levelo_inurba_marseille","lat":43.27209,"lon":5.392,"is_reserved":false,"is_disabled":true,"rental_uris":{"android":"levelo://app?vid=46f239e3-10f8-4c17-a29d-07378ca31ca3","ios":"levelo://app?vid=46f239e3-10f8-4c17-a29d-07378ca31ca3"},"vehicle_type_id":"4","last_reported":1738861653,"current_range_meters":0,"station_id":"ce4bhhp2rcd13ifvqfm0","pricing_plan_id":"cebpf4jnsgd1na2vs0mg"},{"bike_id":"9dbc66af-ff64-41a8-a57c-5ef86f5cb77a","system_id":"levelo_inurba_marseille","lat":43.26801,"lon":5.40269,"is_reserved":false,"is_disabled":true,"rental_uris":{"android":"levelo://app?vid=9dbc66af-ff64-41a8-a57c-5ef86f5cb77a","ios":"levelo://app?vid=9dbc66af-ff64-41a8-a57c-5ef86f5cb77a"},"vehicle_type_id":"4","last_reported":1738861653,"current_range_meters":0,"station_id":"ce501612rcd8frsf0b60","pricing_plan_id":"cebpf4jnsgd1na2vs0mg"},{"bike_id":"ab54e2d0-4c2c-486a-84c7-811ed9008ddc","system_id":"levelo_inurba_marseille","lat":43.27855,"lon":5.42521,"is_reserved":false,"is_disabled":false,"rental_uris":{"android":"levelo://app?vid=ab54e2d0-4c2c-486a-84c7-811ed9008ddc","ios":"levelo://app?vid=ab54e2d0-4c2c-486a-84c7-811ed9008ddc"},"vehicle_type_id":"4","last_reported":1738861653,"current_range_meters":3600,"station_id":"","pricing_plan_id":"cebpf4jnsgd1na2vs0mg"},{"bike_id":"f576a60b-9d65-485c-8713-a5ee26f973c6","system_id":"levelo_inurba_marseille","lat":43.29267,"lon":5.38433,"is_reserved":false,"is_disabled":false,"rental_uris":{"android":"levelo://app?vid=f576a60b-9d65-485c-8713-a5ee26f973c6","ios":"levelo://app?vid=f576a60b-9d65-485c-8713-a5ee26f973c6"},"vehicle_type_id":"4","last_reported":1738861653,"current_range_meters":24400,"station_id":"ce4bh692rcd13ifvqea0","pricing_plan_id":"cebpf4jnsgd1na2vs0mg"},{"bike_id":"0d2b322c-e144-4877-a0db-50783822fa3f","system_id":"levelo_inurba_marseille","lat":43.28157,"lon":5.42641,"is_reserved":false,"is_disabled":false,"rental_uris":{"android":"levelo://app?vid=0d2b322c-e144-4877-a0db-50783822fa3f","ios":"levelo://app?vid=0d2b322c-e144-4877-a0db-50783822fa3f"},"vehicle_type_id":"4","last_reported":1738861653,"current_range_meters":36800,"station_id":"ce4bhnh2rcd13ifvqgug","pricing_plan_id":"cebpf4jnsgd1na2vs0mg"},{"bike_id":"58913607-3d23-4376-841b-881c1361d437","system_id":"levelo_inurba_marseille","lat":43.31325,"lon":5.39689,"is_reserved":false,"is_disabled":false,"rental_uris":{"android":"levelo://app?vid=58913607-3d23-4376-841b-881c1361d437","ios":"levelo://app?vid=58913607-3d23-4376-841b-881c1361d437"},"vehicle_type_id":"4","last_reported":1738861653,"current_range_meters":20400,"station_id":"ce4bgvp2rcd13ifvqcu0","pricing_plan_id":"cebpf4jnsgd1na2vs0mg"},{"bike_id":"1410a1f5-14a5-4f42-a1e7-5182cc249b4a","system_id":"levelo_inurba_marseille","lat":43.30354,"lon":5.41865,"is_reserved":false,"is_disabled":false,"rental_uris":{"android":"levelo://app?vid=1410a1f5-14a5-4f42-a1e7-5182cc249b4a","ios":"levelo://app?vid=1410a1f5-14a5-4f42-a1e7-5182cc249b4a"},"vehicle_type_id":"4","last_reported":1738861653,"current_range_meters":33600,"station_id":"ce4bhop2rcd13ifvqh7g","pricing_plan_id":"cebpf4jnsgd1na2vs0mg"},{"bike_id":"9abb8541-f0e4-475d-8c17-01388cf984ad","system_id":"levelo_inurba_marseille","lat":43.27172,"lon":5.40998,"is_reserved":false,"is_disabled":false,"rental_uris":{"android":"levelo://app?vid=9abb8541-f0e4-475d-8c17-01388cf984ad","ios":"levelo://app?vid=9abb8541-f0e4-475d-8c17-01388cf984ad"},"vehicle_type_id":"4","last_reported":1738861653,"current_range_meters":38800,"station_id":"ce4bhl12rcd13ifvqgf0","pricing_plan_id":"cebpf4jnsgd1na2vs0mg"},{"bike_id":"fc16f5f9-b7e8-4894-92a3-c94b1e02895d","system_id":"levelo_inurba_marseille","lat":43.28464,"lon":5.35901,"is_reserved":false,"is_disabled":false,"rental_uris":{"android":"levelo://app?vid=fc16f5f9-b7e8-4894-92a3-c94b1e02895d","ios":"levelo://app?vid=fc16f5f9-b7e8-4894-92a3-c94b1e02895d"},"vehicle_type_id":"4","last_reported":1738861653,"current_range_meters":34000,"station_id":"ce4bhah2rcd13ifvqei0","pricing_plan_id":"cebpf4jnsgd1na2vs0mg"},{"bike_id":"49d1f8d8-94b5-48c0-a93f-6f56560604fc","system_id":"levelo_inurba_marseille","lat":43.23189,"lon":5.39966,"is_reserved":false,"is_disabled":false,"rental_uris":{"android":"levelo://app?vid=49d1f8d8-94b5-48c0-a93f-6f56560604fc","ios":"levelo://app?vid=49d1f8d8-94b5-48c0-a93f-6f56560604fc"},"vehicle_type_id":"4","last_reported":1738861653,"current_range_meters":16000,"station_id":"ce4bhn12rcd13ifvqgqg","pricing_plan_id":"cebpf4jnsgd1na2vs0mg"},{"bike_id":"49bea82c-bbec-457c-81e6-7e8aa3d4bf1d","system_id":"levelo_inurba_marseille","lat":43.28623,"lon":5.35098,"is_reserved":false,"is_disabled":false,"rental_uris":{"android":"levelo://app?vid=49bea82c-bbec-457c-81e6-7e8aa3d4bf1d","ios":"levelo://app?vid=49bea82c-bbec-457c-81e6-7e8aa3d4bf1d"},"vehicle_type_id":"4","last_reported":1738861653,"current_range_meters":11600,"station_id":"ce4bhch2rcd13ifvqeug","pricing_plan_id":"cebpf4jnsgd1na2vs0mg"},{"bike_id":"eb315b05-4c41-44a8-8671-b28b2a2547b5","system_id":"levelo_inurba_marseille","lat":43.27565,"lon":5.3843,"is_reserved":false,"is_disabled":false,"rental_uris":{"android":"levelo://app?vid=eb315b05-4c41-44a8-8671-b28b2a2547b5","ios":"levelo://app?vid=eb315b05-4c41-44a8-8671-b28b2a2547b5"},"vehicle_type_id":"4","last_reported":1738861653,"current_range_meters":30800,"station_id":"ce4bhh92rcd13ifvqfi0","pricing_plan_id":"cebpf4jnsgd1na2vs0mg"},{"bike_id":"89ef4b0e-9935-40a8-b11a-d7c8da41f1e5","system_id":"levelo_inurba_marseille","lat":43.2873,"lon":5.36091,"is_reserved":false,"is_disabled":false,"rental_uris":{"android":"levelo://app?vid=89ef4b0e-9935-40a8-b11a-d7c8da41f1e5","ios":"levelo://app?vid=89ef4b0e-9935-40a8-b11a-d7c8da41f1e5"},"vehicle_type_id":"4","last_reported":1738861653,"current_range_meters":38800,"station_id":"cki0cbj6b192h4jlfktg","pricing_plan_id":"cebpf4jnsgd1na2vs0mg"},{"bike_id":"5b7692e1-ddbe-4bc6-8d88-a87d8cf252c3","system_id":"levelo_inurba_marseille","lat":43.29054,"lon":5.35915,"is_reserved":false,"is_disabled":false,"rental_uris":{"android":"levelo://app?vid=5b7692e1-ddbe-4bc6-8d88-a87d8cf252c3","ios":"levelo://app?vid=5b7692e1-ddbe-4bc6-8d88-a87d8cf252c3"},"vehicle_type_id":"4","last_reported":1738861653,"current_range_meters":10800,"station_id":"ce4bha92rcd13ifvqeg0","pricing_plan_id":"cebpf4jnsgd1na2vs0mg"},{"bike_id":"96b280c9-9327-447a-b922-bc03c781d64d","system_id":"levelo_inurba_marseille","lat":43.25092,"lon":5.39512,"is_reserved":false,"is_disabled":false,"rental_uris":{"android":"levelo://app?vid=96b280c9-9327-447a-b922-bc03c781d64d","ios":"levelo://app?vid=96b280c9-9327-447a-b922-bc03c781d64d"},"vehicle_type_id":"4","last_reported":1738861653,"current_range_meters":38800,"station_id":"ce4bhm12rcd13ifvqgkg","pricing_plan_id":"cebpf4jnsgd1na2vs0mg"},{"bike_id":"cff748e6-ae26-43c6-a042-956b52bc7fe4","system_id":"levelo_inurba_marseille","lat":43.23186,"lon":5.39994,"is_reserved":false,"is_disabled":false,"rental_uris":{"android":"levelo://app?vid=cff748e6-ae26-43c6-a042-956b52bc7fe4","ios":"levelo://app?vid=cff748e6-ae26-43c6-a042-956b52bc7fe4"},"vehicle_type_id":"4","last_reported":1738861653,"current_range_meters":8400,"station_id":"ce4bhn12rcd13ifvqgqg","pricing_plan_id":"cebpf4jnsgd1na2vs0mg"},{"bike_id":"30c11024-b96a-4c0a-8a3e-8b171049fe3d","system_id":"levelo_inurba_marseille","lat":43.2718,"lon":5.40998,"is_reserved":false,"is_disabled":true,"rental_uris":{"android":"levelo://app?vid=30c11024-b96a-4c0a-8a3e-8b171049fe3d","ios":"levelo://app?vid=30c11024-b96a-4c0a-8a3e-8b171049fe3d"},"vehicle_type_id":"4","last_reported":1738861653,"current_range_meters":0,"station_id":"ce4bhl12rcd13ifvqgf0","pricing_plan_id":"cebpf4jnsgd1na2vs0mg"},{"bike_id":"551da7d4-b8af-48ec-96b8-e95829a204e3","system_id":"levelo_inurba_marseille","lat":43.29711,"lon":5.37293,"is_reserved":false,"is_disabled":false,"rental_uris":{"android":"levelo://app?vid=551da7d4-b8af-48ec-96b8-e95829a204e3","ios":"levelo://app?vid=551da7d4-b8af-48ec-96b8-e95829a204e3"},"vehicle_type_id":"4","last_reported":1738861653,"current_range_meters":39200,"station_id":"ce4bgk12rcd13ifvqbj0","pricing_plan_id":"cebpf4jnsgd1na2vs0mg"},{"bike_id":"bcaf4b12-b1fb-465d-81b7-9e7994204767","system_id":"levelo_inurba_marseille","lat":43.28622,"lon":5.35106,"is_reserved":false,"is_disabled":false,"rental_uris":{"android":"levelo://app?vid=bcaf4b12-b1fb-465d-81b7-9e7994204767","ios":"levelo://app?vid=bcaf4b12-b1fb-465d-81b7-9e7994204767"},"vehicle_type_id":"4","last_reported":1738861653,"current_range_meters":22000,"station_id":"ce4bhch2rcd13ifvqeug","pricing_plan_id":"cebpf4jnsgd1na2vs0mg"},{"bike_id":"7261bf49-976b-46a3-9419-0b8948003cde","system_id":"levelo_inurba_marseille","lat":43.25583,"lon":5.38248,"is_reserved":false,"is_disabled":false,"rental_uris":{"android":"levelo://app?vid=7261bf49-976b-46a3-9419-0b8948003cde","ios":"levelo://app?vid=7261bf49-976b-46a3-9419-0b8948003cde"},"vehicle_type_id":"4","last_reported":1738861653,"current_range_meters":24400,"station_id":"ce4bhih2rcd13ifvqfs0","pricing_plan_id":"cebpf4jnsgd1na2vs0mg"},{"bike_id":"f35665a1-47e5-43fd-8889-5773b49dfd44","system_id":"levelo_inurba_marseille","lat":43.28399,"lon":5.37505,"is_reserved":false,"is_disabled":false,"rental_uris":{"android":"levelo://app?vid=f35665a1-47e5-43fd-8889-5773b49dfd44","ios":"levelo://app?vid=f35665a1-47e5-43fd-8889-5773b49dfd44"},"vehicle_type_id":"4","last_reported":1738861653,"current_range_meters":31200,"station_id":"ce4bh412rcd13ifvqds0","pricing_plan_id":"cebpf4jnsgd1na2vs0mg"},{"bike_id":"a71918ec-c667-4548-85b6-55beddb960de","system_id":"levelo_inurba_marseille","lat":43.27949,"lon":5.41048,"is_reserved":false,"is_disabled":false,"rental_uris":{"android":"levelo://app?vid=a71918ec-c667-4548-85b6-55beddb960de","ios":"levelo://app?vid=a71918ec-c667-4548-85b6-55beddb960de"},"vehicle_type_id":"4","last_reported":1738861653,"current_range_meters":4800,"station_id":"ce4bhnp2rcd13ifvqh0g","pricing_plan_id":"cebpf4jnsgd1na2vs0mg"},{"bike_id":"ccc0d99a-4f06-4847-88ea-bfbf26a9a708","system_id":"levelo_inurba_marseille","lat":43.27372,"lon":5.36263,"is_reserved":false,"is_disabled":false,"rental_uris":{"android":"levelo://app?vid=ccc0d99a-4f06-4847-88ea-bfbf26a9a708","ios":"levelo://app?vid=ccc0d99a-4f06-4847-88ea-bfbf26a9a708"},"vehicle_type_id":"4","last_reported":1738861653,"current_range_meters":39200,"station_id":"ce4bhbh2rcd13ifvqeo0","pricing_plan_id":"cebpf4jnsgd1na2vs0mg"},{"bike_id":"ccead761-d985-4da1-9462-0256da5e3433","system_id":"levelo_inurba_marseille","lat":43.28935,"lon":5.36637,"is_reserved":false,"is_disabled":false,"rental_uris":{"android":"levelo://app?vid=ccead761-d985-4da1-9462-0256da5e3433","ios":"levelo://app?vid=ccead761-d985-4da1-9462-0256da5e3433"},"vehicle_type_id":"4","last_reported":1738861653,"current_range_meters":18000,"station_id":"ce4bhap2rcd13ifvqek0","pricing_plan_id":"cebpf4jnsgd1na2vs0mg"},{"bike_id":"d90800d2-0b28-4666-b04d-68e5f6c3e9ab","system_id":"levelo_inurba_marseille","lat":43.23189,"lon":5.39994,"is_reserved":false,"is_disabled":false,"rental_uris":{"android":"levelo://app?vid=d90800d2-0b28-4666-b04d-68e5f6c3e9ab","ios":"levelo://app?vid=d90800d2-0b28-4666-b04d-68e5f6c3e9ab"},"vehicle_type_id":"4","last_reported":1738861653,"current_range_meters":38800,"station_id":"ce4bhn12rcd13ifvqgqg","pricing_plan_id":"cebpf4jnsgd1na2vs0mg"},{"bike_id":"bf4e2eaf-780c-4039-986a-ec339e802cbb","system_id":"levelo_inurba_marseille","lat":43.31773,"lon":5.38999,"is_reserved":false,"is_disabled":false,"rental_uris":{"android":"levelo://app?vid=bf4e2eaf-780c-4039-986a-ec339e802cbb","ios":"levelo://app?vid=bf4e2eaf-780c-4039-986a-ec339e802cbb"},"vehicle_type_id":"4","last_reported":1738861653,"current_range_meters":38800,"station_id":"ce4bhqp2rcd13ifvqhng","pricing_plan_id":"cebpf4jnsgd1na2vs0mg"},{"bike_id":"2be5f0eb-36df-457b-b79f-6effc6158b55","system_id":"levelo_inurba_marseille","lat":43.25114,"lon":5.40323,"is_reserved":false,"is_disabled":false,"rental_uris":{"android":"levelo://app?vid=2be5f0eb-36df-457b-b79f-6effc6158b55","ios":"levelo://app?vid=2be5f0eb-36df-457b-b79f-6effc6158b55"},"vehicle_type_id":"4","last_reported":1738861653,"current_range_meters":28000,"station_id":"ce4bhlh2rcd13ifvqgig","pricing_plan_id":"cebpf4jnsgd1na2vs0mg"},{"bike_id":"55c531ba-cb99-413a-81f9-84f3b3d5979e","system_id":"levelo_inurba_marseille","lat":43.22931,"lon":5.35374,"is_reserved":false,"is_disabled":false,"rental_uris":{"android":"levelo://app?vid=55c531ba-cb99-413a-81f9-84f3b3d5979e","ios":"levelo://app?vid=55c531ba-cb99-413a-81f9-84f3b3d5979e"},"vehicle_type_id":"4","last_reported":1738861653,"current_range_meters":28000,"station_id":"cpo3532slgdg3j2ikp40","pricing_plan_id":"cebpf4jnsgd1na2vs0mg"},{"bike_id":"8b17b11a-ca6f-4ac5-8583-bad804fcf1ce","system_id":"levelo_inurba_marseille","lat":43.2956,"lon":5.42292,"is_reserved":false,"is_disabled":false,"rental_uris":{"android":"levelo://app?vid=8b17b11a-ca6f-4ac5-8583-bad804fcf1ce","ios":"levelo://app?vid=8b17b11a-ca6f-4ac5-8583-bad804fcf1ce"},"vehicle_type_id":"4","last_reported":1738861653,"current_range_meters":38400,"station_id":"ce4bhph2rcd13ifvqhdg","pricing_plan_id":"cebpf4jnsgd1na2vs0mg"},{"bike_id":"5354080c-156c-4650-b9ef-8f142763101f","system_id":"levelo_inurba_marseille","lat":43.32105,"lon":5.36808,"is_reserved":false,"is_disabled":false,"rental_uris":{"android":"levelo://app?vid=5354080c-156c-4650-b9ef-8f142763101f","ios":"levelo://app?vid=5354080c-156c-4650-b9ef-8f142763101f"},"vehicle_type_id":"4","last_reported":1738861653,"current_range_meters":36800,"station_id":"ce4bhrh2rcd13ifvqhug","pricing_plan_id":"cebpf4jnsgd1na2vs0mg"},{"bike_id":"25584dfc-d5ff-4811-85c5-933f3dfbdae8","system_id":"levelo_inurba_marseille","lat":43.23971,"lon":5.36629,"is_reserved":false,"is_disabled":false,"rental_uris":{"android":"levelo://app?vid=25584dfc-d5ff-4811-85c5-933f3dfbdae8","ios":"levelo://app?vid=25584dfc-d5ff-4811-85c5-933f3dfbdae8"},"vehicle_type_id":"4","last_reported":1738861653,"current_range_meters":37600,"station_id":"ce4bhi12rcd13ifvqfp0","pricing_plan_id":"cebpf4jnsgd1na2vs0mg"},{"bike_id":"3b6fc1a1-1e64-4698-a113-588a2563418f","system_id":"levelo_inurba_marseille","lat":43.28029,"lon":5.36931,"is_reserved":false,"is_disabled":true,"rental_uris":{"android":"levelo://app?vid=3b6fc1a1-1e64-4698-a113-588a2563418f","ios":"levelo://app?vid=3b6fc1a1-1e64-4698-a113-588a2563418f"},"vehicle_type_id":"4","last_reported":1738861653,"current_range_meters":0,"station_id":"ce4bha12rcd13ifvqef0","pricing_plan_id":"cebpf4jnsgd1na2vs0mg"},{"bike_id":"cab5c314-7cee-4155-983f-1efe90e3bed7","system_id":"levelo_inurba_marseille","lat":43.27574,"lon":5.38416,"is_reserved":false,"is_disabled":false,"rental_uris":{"android":"levelo://app?vid=cab5c314-7cee-4155-983f-1efe90e3bed7","ios":"levelo://app?vid=cab5c314-7cee-4155-983f-1efe90e3bed7"},"vehicle_type_id":"4","last_reported":1738861653,"current_range_meters":39200,"station_id":"ce4bhh92rcd13ifvqfi0","pricing_plan_id":"cebpf4jnsgd1na2vs0mg"},{"bike_id":"7abe1a61-87b0-4131-94db-b94f677927a9","system_id":"levelo_inurba_marseille","lat":43.27425,"lon":5.39385,"is_reserved":false,"is_disabled":false,"rental_uris":{"android":"levelo://app?vid=7abe1a61-87b0-4131-94db-b94f677927a9","ios":"levelo://app?vid=7abe1a61-87b0-4131-94db-b94f677927a9"},"vehicle_type_id":"4","last_reported":1738861653,"current_range_meters":33600,"station_id":"ce4bhdp2rcd13ifvqf20","pricing_plan_id":"cebpf4jnsgd1na2vs0mg"},{"bike_id":"5feeb155-710f-425d-aeb1-96cc71a4faa2","system_id":"levelo_inurba_marseille","lat":43.24807,"lon":5.37455,"is_reserved":false,"is_disabled":false,"rental_uris":{"android":"levelo://app?vid=5feeb155-710f-425d-aeb1-96cc71a4faa2","ios":"levelo://app?vid=5feeb155-710f-425d-aeb1-96cc71a4faa2"},"vehicle_type_id":"4","last_reported":1738861653,"current_range_meters":30000,"station_id":"ce4bhgh2rcd13ifvqfb0","pricing_plan_id":"cebpf4jnsgd1na2vs0mg"},{"bike_id":"c130fff7-2faf-4f2e-82f9-62c219cfeda5","system_id":"levelo_inurba_marseille","lat":43.28154,"lon":5.42649,"is_reserved":false,"is_disabled":false,"rental_uris":{"android":"levelo://app?vid=c130fff7-2faf-4f2e-82f9-62c219cfeda5","ios":"levelo://app?vid=c130fff7-2faf-4f2e-82f9-62c219cfeda5"},"vehicle_type_id":"4","last_reported":1738861653,"current_range_meters":27600,"station_id":"ce4bhnh2rcd13ifvqgug","pricing_plan_id":"cebpf4jnsgd1na2vs0mg"},{"bike_id":"fa5204be-73b0-4908-bdaf-c46975bd9e36","system_id":"levelo_inurba_marseille","lat":43.26031,"lon":5.37546,"is_reserved":false,"is_disabled":false,"rental_uris":{"android":"levelo://app?vid=fa5204be-73b0-4908-bdaf-c46975bd9e36","ios":"levelo://app?vid=fa5204be-73b0-4908-bdaf-c46975bd9e36"},"vehicle_type_id":"4","last_reported":1738861653,"current_range_meters":38800,"station_id":"ce4bhgh2rcd13ifvqfa0","pricing_plan_id":"cebpf4jnsgd1na2vs0mg"},{"bike_id":"8932e863-ceb8-4609-9d63-e5e6c29c1658","system_id":"levelo_inurba_marseille","lat":43.29421,"lon":5.38623,"is_reserved":false,"is_disabled":false,"rental_uris":{"android":"levelo://app?vid=8932e863-ceb8-4609-9d63-e5e6c29c1658","ios":"levelo://app?vid=8932e863-ceb8-4609-9d63-e5e6c29c1658"},"vehicle_type_id":"4","last_reported":1738861653,"current_range_meters":14000,"station_id":"ce4bh2h2rcd13ifvqdh0","pricing_plan_id":"cebpf4jnsgd1na2vs0mg"},{"bike_id":"5eb997aa-ba06-470a-b7fd-cd40e9642b35","system_id":"levelo_inurba_marseille","lat":43.23187,"lon":5.40003,"is_reserved":false,"is_disabled":false,"rental_uris":{"android":"levelo://app?vid=5eb997aa-ba06-470a-b7fd-cd40e9642b35","ios":"levelo://app?vid=5eb997aa-ba06-470a-b7fd-cd40e9642b35"},"vehicle_type_id":"4","last_reported":1738861653,"current_range_meters":38800,"station_id":"ce4bhn12rcd13ifvqgqg","pricing_plan_id":"cebpf4jnsgd1na2vs0mg"},{"bike_id":"6a1d3b63-dfe9-46e5-b018-ecc32a6736e2","system_id":"levelo_inurba_marseille","lat":43.24176,"lon":5.39731,"is_reserved":false,"is_disabled":false,"rental_uris":{"android":"levelo://app?vid=6a1d3b63-dfe9-46e5-b018-ecc32a6736e2","ios":"levelo://app?vid=6a1d3b63-dfe9-46e5-b018-ecc32a6736e2"},"vehicle_type_id":"4","last_reported":1738861653,"current_range_meters":5600,"station_id":"ce4bhn12rcd13ifvqgpg","pricing_plan_id":"cebpf4jnsgd1na2vs0mg"},{"bike_id":"1da8b17b-ad28-4780-a711-431647c244ed","system_id":"levelo_inurba_marseille","lat":43.23963,"lon":5.36629,"is_reserved":false,"is_disabled":false,"rental_uris":{"android":"levelo://app?vid=1da8b17b-ad28-4780-a711-431647c244ed","ios":"levelo://app?vid=1da8b17b-ad28-4780-a711-431647c244ed"},"vehicle_type_id":"4","last_reported":1738861653,"current_range_meters":31200,"station_id":"ce4bhi12rcd13ifvqfp0","pricing_plan_id":"cebpf4jnsgd1na2vs0mg"},{"bike_id":"c1acb419-6d79-49bc-a78f-2b28afca0e96","system_id":"levelo_inurba_marseille","lat":43.29023,"lon":5.35621,"is_reserved":false,"is_disabled":false,"rental_uris":{"android":"levelo://app?vid=c1acb419-6d79-49bc-a78f-2b28afca0e96","ios":"levelo://app?vid=c1acb419-6d79-49bc-a78f-2b28afca0e96"},"vehicle_type_id":"4","last_reported":1738861653,"current_range_meters":34000,"station_id":"ce4bhb92rcd13ifvqen0","pricing_plan_id":"cebpf4jnsgd1na2vs0mg"},{"bike_id":"ec2c2252-1018-4e9b-97e8-a13ee67c1293","system_id":"levelo_inurba_marseille","lat":43.30325,"lon":5.40444,"is_reserved":false,"is_disabled":false,"rental_uris":{"android":"levelo://app?vid=ec2c2252-1018-4e9b-97e8-a13ee67c1293","ios":"levelo://app?vid=ec2c2252-1018-4e9b-97e8-a13ee67c1293"},"vehicle_type_id":"4","last_reported":1738861653,"current_range_meters":36400,"station_id":"ce4bh012rcd13ifvqd10","pricing_plan_id":"cebpf4jnsgd1na2vs0mg"},{"bike_id":"1c187044-f156-4dbb-83f4-3d328cf05e97","system_id":"levelo_inurba_marseille","lat":43.29683,"lon":5.37302,"is_reserved":false,"is_disabled":false,"rental_uris":{"android":"levelo://app?vid=1c187044-f156-4dbb-83f4-3d328cf05e97","ios":"levelo://app?vid=1c187044-f156-4dbb-83f4-3d328cf05e97"},"vehicle_type_id":"4","last_reported":1738861653,"current_range_meters":38800,"station_id":"ce4bgk12rcd13ifvqbj0","pricing_plan_id":"cebpf4jnsgd1na2vs0mg"},{"bike_id":"05e3e712-a180-4890-b6e3-1fa8dcce263e","system_id":"levelo_inurba_marseille","lat":43.23194,"lon":5.39998,"is_reserved":false,"is_disabled":false,"rental_uris":{"android":"levelo://app?vid=05e3e712-a180-4890-b6e3-1fa8dcce263e","ios":"levelo://app?vid=05e3e712-a180-4890-b6e3-1fa8dcce263e"},"vehicle_type_id":"4","last_reported":1738861653,"current_range_meters":16000,"station_id":"ce4bhn12rcd13ifvqgqg","pricing_plan_id":"cebpf4jnsgd1na2vs0mg"},{"bike_id":"39c1e9e3-f1bf-4a83-bd06-62f23997ed13","system_id":"levelo_inurba_marseille","lat":43.24981,"lon":5.38919,"is_reserved":false,"is_disabled":false,"rental_uris":{"android":"levelo://app?vid=39c1e9e3-f1bf-4a83-bd06-62f23997ed13","ios":"levelo://app?vid=39c1e9e3-f1bf-4a83-bd06-62f23997ed13"},"vehicle_type_id":"4","last_reported":1738861653,"current_range_meters":17200,"station_id":"ce4bhgp2rcd13ifvqfd0","pricing_plan_id":"cebpf4jnsgd1na2vs0mg"},{"bike_id":"b94acf58-d5c6-4ffe-8464-9994e8697d08","system_id":"levelo_inurba_marseille","lat":43.25868,"lon":5.399,"is_reserved":false,"is_disabled":false,"rental_uris":{"android":"levelo://app?vid=b94acf58-d5c6-4ffe-8464-9994e8697d08","ios":"levelo://app?vid=b94acf58-d5c6-4ffe-8464-9994e8697d08"},"vehicle_type_id":"4","last_reported":1738861653,"current_range_meters":8800,"station_id":"ce4bhl92rcd13ifvqghg","pricing_plan_id":"cebpf4jnsgd1na2vs0mg"},{"bike_id":"4696c5e5-52e2-4038-91d1-af0c0ea7555f","system_id":"levelo_inurba_marseille","lat":43.26934,"lon":5.38919,"is_reserved":false,"is_disabled":false,"rental_uris":{"android":"levelo://app?vid=4696c5e5-52e2-4038-91d1-af0c0ea7555f","ios":"levelo://app?vid=4696c5e5-52e2-4038-91d1-af0c0ea7555f"},"vehicle_type_id":"4","last_reported":1738861653,"current_range_meters":24000,"station_id":"ce4bhhh2rcd13ifvqfl0","pricing_plan_id":"cebpf4jnsgd1na2vs0mg"},{"bike_id":"35bbe464-144e-440f-9e93-a17de0bd82a1","system_id":"levelo_inurba_marseille","lat":43.28696,"lon":5.37406,"is_reserved":false,"is_disabled":false,"rental_uris":{"android":"levelo://app?vid=35bbe464-144e-440f-9e93-a17de0bd82a1","ios":"levelo://app?vid=35bbe464-144e-440f-9e93-a17de0bd82a1"},"vehicle_type_id":"4","last_reported":1738861653,"current_range_meters":16400,"station_id":"ce4bh3p2rcd13ifvqdq0","pricing_plan_id":"cebpf4jnsgd1na2vs0mg"},{"bike_id":"a7b26195-2d8e-4e57-bc1d-22db99e30e2c","system_id":"levelo_inurba_marseille","lat":43.29181,"lon":5.35803,"is_reserved":false,"is_disabled":false,"rental_uris":{"android":"levelo://app?vid=a7b26195-2d8e-4e57-bc1d-22db99e30e2c","ios":"levelo://app?vid=a7b26195-2d8e-4e57-bc1d-22db99e30e2c"},"vehicle_type_id":"4","last_reported":1738861653,"current_range_meters":36400,"station_id":"ce4bhb12rcd13ifvqel0","pricing_plan_id":"cebpf4jnsgd1na2vs0mg"},{"bike_id":"f007c4c1-db59-4a07-8d7b-95ba9982ee49","system_id":"levelo_inurba_marseille","lat":43.33012,"lon":5.39054,"is_reserved":false,"is_disabled":false,"rental_uris":{"android":"levelo://app?vid=f007c4c1-db59-4a07-8d7b-95ba9982ee49","ios":"levelo://app?vid=f007c4c1-db59-4a07-8d7b-95ba9982ee49"},"vehicle_type_id":"4","last_reported":1738861653,"current_range_meters":38800,"station_id":"ce4bhr92rcd13ifvqhrg","pricing_plan_id":"cebpf4jnsgd1na2vs0mg"},{"bike_id":"09982f54-da2a-4bdc-8caa-fc3d44cd6081","system_id":"levelo_inurba_marseille","lat":43.32706,"lon":5.39006,"is_reserved":false,"is_disabled":false,"rental_uris":{"android":"levelo://app?vid=09982f54-da2a-4bdc-8caa-fc3d44cd6081","ios":"levelo://app?vid=09982f54-da2a-4bdc-8caa-fc3d44cd6081"},"vehicle_type_id":"4","last_reported":1738861653,"current_range_meters":36000,"station_id":"","pricing_plan_id":"cebpf4jnsgd1na2vs0mg"},{"bike_id":"48b06d0b-7a79-4c4a-9bef-3bde40720b51","system_id":"levelo_inurba_marseille","lat":43.33024,"lon":5.3904,"is_reserved":false,"is_disabled":false,"rental_uris":{"android":"levelo://app?vid=48b06d0b-7a79-4c4a-9bef-3bde40720b51","ios":"levelo://app?vid=48b06d0b-7a79-4c4a-9bef-3bde40720b51"},"vehicle_type_id":"4","last_reported":1738861653,"current_range_meters":38400,"station_id":"ce4bhr92rcd13ifvqhrg","pricing_plan_id":"cebpf4jnsgd1na2vs0mg"},{"bike_id":"38c47b95-ad7d-4d74-ab3c-fbd6a0ae4207","system_id":"levelo_inurba_marseille","lat":43.28409,"lon":5.3751,"is_reserved":false,"is_disabled":false,"rental_uris":{"android":"levelo://app?vid=38c47b95-ad7d-4d74-ab3c-fbd6a0ae4207","ios":"levelo://app?vid=38c47b95-ad7d-4d74-ab3c-fbd6a0ae4207"},"vehicle_type_id":"4","last_reported":1738861653,"current_range_meters":38800,"station_id":"ce4bh412rcd13ifvqds0","pricing_plan_id":"cebpf4jnsgd1na2vs0mg"},{"bike_id":"5f48a15e-596a-4ceb-9b13-6da811791d27","system_id":"levelo_inurba_marseille","lat":43.30325,"lon":5.40441,"is_reserved":false,"is_disabled":false,"rental_uris":{"android":"levelo://app?vid=5f48a15e-596a-4ceb-9b13-6da811791d27","ios":"levelo://app?vid=5f48a15e-596a-4ceb-9b13-6da811791d27"},"vehicle_type_id":"4","last_reported":1738861653,"current_range_meters":27200,"station_id":"ce4bh012rcd13ifvqd10","pricing_plan_id":"cebpf4jnsgd1na2vs0mg"},{"bike_id":"7f97dcbd-eb40-473f-a7f4-d224182d9f99","system_id":"levelo_inurba_marseille","lat":43.29723,"lon":5.36619,"is_reserved":false,"is_disabled":false,"rental_uris":{"android":"levelo://app?vid=7f97dcbd-eb40-473f-a7f4-d224182d9f99","ios":"levelo://app?vid=7f97dcbd-eb40-473f-a7f4-d224182d9f99"},"vehicle_type_id":"4","last_reported":1738861653,"current_range_meters":38800,"station_id":"ce4bgn12rcd13ifvqbt0","pricing_plan_id":"cebpf4jnsgd1na2vs0mg"},{"bike_id":"1ed19d8d-749b-455f-8421-555ffcf4a7e0","system_id":"levelo_inurba_marseille","lat":43.2884,"lon":5.39307,"is_reserved":false,"is_disabled":false,"rental_uris":{"android":"levelo://app?vid=1ed19d8d-749b-455f-8421-555ffcf4a7e0","ios":"levelo://app?vid=1ed19d8d-749b-455f-8421-555ffcf4a7e0"},"vehicle_type_id":"4","last_reported":1738861653,"current_range_meters":25200,"station_id":"ce4bh2p2rcd13ifvqdi0","pricing_plan_id":"cebpf4jnsgd1na2vs0mg"},{"bike_id":"c1ea5d74-197b-4962-ac87-89c906cbfd90","system_id":"levelo_inurba_marseille","lat":43.29791,"lon":5.39355,"is_reserved":false,"is_disabled":false,"rental_uris":{"android":"levelo://app?vid=c1ea5d74-197b-4962-ac87-89c906cbfd90","ios":"levelo://app?vid=c1ea5d74-197b-4962-ac87-89c906cbfd90"},"vehicle_type_id":"4","last_reported":1738861653,"current_range_meters":25200,"station_id":"chh1huq6cuj3fo74tm60","pricing_plan_id":"cebpf4jnsgd1na2vs0mg"},{"bike_id":"c73e9aba-ed51-4e64-aa90-a18f98fb3525","system_id":"levelo_inurba_marseille","lat":43.31717,"lon":5.42423,"is_reserved":false,"is_disabled":false,"rental_uris":{"android":"levelo://app?vid=c73e9aba-ed51-4e64-aa90-a18f98fb3525","ios":"levelo://app?vid=c73e9aba-ed51-4e64-aa90-a18f98fb3525"},"vehicle_type_id":"4","last_reported":1738861653,"current_range_meters":38000,"station_id":"ce4bhp92rcd13ifvqhbg","pricing_plan_id":"cebpf4jnsgd1na2vs0mg"},{"bike_id":"856570f2-930e-474a-b702-80511ce50da2","system_id":"levelo_inurba_marseille","lat":43.30939,"lon":5.40147,"is_reserved":false,"is_disabled":false,"rental_uris":{"android":"levelo://app?vid=856570f2-930e-474a-b702-80511ce50da2","ios":"levelo://app?vid=856570f2-930e-474a-b702-80511ce50da2"},"vehicle_type_id":"4","last_reported":1738861653,"current_range_meters":12000,"station_id":"ce4bgvp2rcd13ifvqct0","pricing_plan_id":"cebpf4jnsgd1na2vs0mg"},{"bike_id":"16e3c5c5-9c5e-478a-a9b2-fa871b9e7949","system_id":"levelo_inurba_marseille","lat":43.26566,"lon":5.39007,"is_reserved":false,"is_disabled":false,"rental_uris":{"android":"levelo://app?vid=16e3c5c5-9c5e-478a-a9b2-fa871b9e7949","ios":"levelo://app?vid=16e3c5c5-9c5e-478a-a9b2-fa871b9e7949"},"vehicle_type_id":"4","last_reported":1738861653,"current_range_meters":20800,"station_id":"ce4bhe12rcd13ifvqf30","pricing_plan_id":"cebpf4jnsgd1na2vs0mg"},{"bike_id":"60befa85-5325-46ec-8eca-2638d8171a31","system_id":"levelo_inurba_marseille","lat":43.29898,"lon":5.39761,"is_reserved":false,"is_disabled":false,"rental_uris":{"android":"levelo://app?vid=60befa85-5325-46ec-8eca-2638d8171a31","ios":"levelo://app?vid=60befa85-5325-46ec-8eca-2638d8171a31"},"vehicle_type_id":"4","last_reported":1738861653,"current_range_meters":24800,"station_id":"ce4bh0h2rcd13ifvqd50","pricing_plan_id":"cebpf4jnsgd1na2vs0mg"},{"bike_id":"d24de62b-f43d-4ee9-8636-eae3f9e1d596","system_id":"levelo_inurba_marseille","lat":43.27179,"lon":5.41005,"is_reserved":false,"is_disabled":false,"rental_uris":{"android":"levelo://app?vid=d24de62b-f43d-4ee9-8636-eae3f9e1d596","ios":"levelo://app?vid=d24de62b-f43d-4ee9-8636-eae3f9e1d596"},"vehicle_type_id":"4","last_reported":1738861653,"current_range_meters":36400,"station_id":"ce4bhl12rcd13ifvqgf0","pricing_plan_id":"cebpf4jnsgd1na2vs0mg"},{"bike_id":"5bb34246-7df1-4035-9dc2-a0a5a607a1fa","system_id":"levelo_inurba_marseille","lat":43.31767,"lon":5.39003,"is_reserved":false,"is_disabled":false,"rental_uris":{"android":"levelo://app?vid=5bb34246-7df1-4035-9dc2-a0a5a607a1fa","ios":"levelo://app?vid=5bb34246-7df1-4035-9dc2-a0a5a607a1fa"},"vehicle_type_id":"4","last_reported":1738861653,"current_range_meters":38800,"station_id":"ce4bhqp2rcd13ifvqhng","pricing_plan_id":"cebpf4jnsgd1na2vs0mg"},{"bike_id":"5a75b00d-029e-4827-a9f8-a8d51fd3927d","system_id":"levelo_inurba_marseille","lat":43.266663,"lon":5.395046,"is_reserved":false,"is_disabled":false,"rental_uris":{"android":"levelo://app?vid=5a75b00d-029e-4827-a9f8-a8d51fd3927d","ios":"levelo://app?vid=5a75b00d-029e-4827-a9f8-a8d51fd3927d"},"vehicle_type_id":"4","last_reported":1738861653,"current_range_meters":5600,"station_id":"","pricing_plan_id":"cebpf4jnsgd1na2vs0mg"},{"bike_id":"e88d6fd1-4487-4af5-9080-a407a413ae21","system_id":"levelo_inurba_marseille","lat":43.28422,"lon":5.3751,"is_reserved":false,"is_disabled":false,"rental_uris":{"android":"levelo://app?vid=e88d6fd1-4487-4af5-9080-a407a413ae21","ios":"levelo://app?vid=e88d6fd1-4487-4af5-9080-a407a413ae21"},"vehicle_type_id":"4","last_reported":1738861653,"current_range_meters":36400,"station_id":"ce4bh412rcd13ifvqds0","pricing_plan_id":"cebpf4jnsgd1na2vs0mg"},{"bike_id":"91b75b53-4179-4453-ae92-abec31b8fd37","system_id":"levelo_inurba_marseille","lat":43.3176,"lon":5.39015,"is_reserved":false,"is_disabled":false,"rental_uris":{"android":"levelo://app?vid=91b75b53-4179-4453-ae92-abec31b8fd37","ios":"levelo://app?vid=91b75b53-4179-4453-ae92-abec31b8fd37"},"vehicle_type_id":"4","last_reported":1738861653,"current_range_meters":36000,"station_id":"ce4bhqp2rcd13ifvqhng","pricing_plan_id":"cebpf4jnsgd1na2vs0mg"},{"bike_id":"33aa4f66-c44e-435c-99d5-1fa32069242d","system_id":"levelo_inurba_marseille","lat":43.26028,"lon":5.37551,"is_reserved":false,"is_disabled":false,"rental_uris":{"android":"levelo://app?vid=33aa4f66-c44e-435c-99d5-1fa32069242d","ios":"levelo://app?vid=33aa4f66-c44e-435c-99d5-1fa32069242d"},"vehicle_type_id":"4","last_reported":1738861653,"current_range_meters":38800,"station_id":"ce4bhgh2rcd13ifvqfa0","pricing_plan_id":"cebpf4jnsgd1na2vs0mg"},{"bike_id":"00d9a54e-0f24-404c-9f73-dda493a72ac0","system_id":"levelo_inurba_marseille","lat":43.31358,"lon":5.38495,"is_reserved":false,"is_disabled":false,"rental_uris":{"android":"levelo://app?vid=00d9a54e-0f24-404c-9f73-dda493a72ac0","ios":"levelo://app?vid=00d9a54e-0f24-404c-9f73-dda493a72ac0"},"vehicle_type_id":"4","last_reported":1738861653,"current_range_meters":27200,"station_id":"ce4bgt92rcd13ifvqcf0","pricing_plan_id":"cebpf4jnsgd1na2vs0mg"},{"bike_id":"074964d7-21d1-4dfd-93fb-4af3eeb010fd","system_id":"levelo_inurba_marseille","lat":43.29079,"lon":5.37175,"is_reserved":false,"is_disabled":false,"rental_uris":{"android":"levelo://app?vid=074964d7-21d1-4dfd-93fb-4af3eeb010fd","ios":"levelo://app?vid=074964d7-21d1-4dfd-93fb-4af3eeb010fd"},"vehicle_type_id":"4","last_reported":1738861653,"current_range_meters":33600,"station_id":"ce4bh5p2rcd13ifvqe4g","pricing_plan_id":"cebpf4jnsgd1na2vs0mg"},{"bike_id":"70680240-c0ce-4c00-ba26-bfa78895a67c","system_id":"levelo_inurba_marseille","lat":43.28613,"lon":5.37064,"is_reserved":false,"is_disabled":true,"rental_uris":{"android":"levelo://app?vid=70680240-c0ce-4c00-ba26-bfa78895a67c","ios":"levelo://app?vid=70680240-c0ce-4c00-ba26-bfa78895a67c"},"vehicle_type_id":"4","last_reported":1738861653,"current_range_meters":26800,"station_id":"ce4bht12rcd13ifvqi60","pricing_plan_id":"cebpf4jnsgd1na2vs0mg"},{"bike_id":"fb9cbe26-18de-40d0-882c-f5b3cdd30f6f","system_id":"levelo_inurba_marseille","lat":43.25496,"lon":5.37647,"is_reserved":false,"is_disabled":false,"rental_uris":{"android":"levelo://app?vid=fb9cbe26-18de-40d0-882c-f5b3cdd30f6f","ios":"levelo://app?vid=fb9cbe26-18de-40d0-882c-f5b3cdd30f6f"},"vehicle_type_id":"4","last_reported":1738861653,"current_range_meters":19600,"station_id":"ce4bhh12rcd13ifvqff0","pricing_plan_id":"cebpf4jnsgd1na2vs0mg"},{"bike_id":"a6b4f428-8d14-4dc9-b3bb-8bc731f54abd","system_id":"levelo_inurba_marseille","lat":43.27814,"lon":5.40731,"is_reserved":false,"is_disabled":false,"rental_uris":{"android":"levelo://app?vid=a6b4f428-8d14-4dc9-b3bb-8bc731f54abd","ios":"levelo://app?vid=a6b4f428-8d14-4dc9-b3bb-8bc731f54abd"},"vehicle_type_id":"4","last_reported":1738861653,"current_range_meters":38800,"station_id":"ce4bhnh2rcd13ifvqgtg","pricing_plan_id":"cebpf4jnsgd1na2vs0mg"},{"bike_id":"8dc0b4e5-9b7e-494d-a544-2c50f0f2f820","system_id":"levelo_inurba_marseille","lat":43.33214,"lon":5.41307,"is_reserved":false,"is_disabled":false,"rental_uris":{"android":"levelo://app?vid=8dc0b4e5-9b7e-494d-a544-2c50f0f2f820","ios":"levelo://app?vid=8dc0b4e5-9b7e-494d-a544-2c50f0f2f820"},"vehicle_type_id":"4","last_reported":1738861653,"current_range_meters":27600,"station_id":"ce4bhq12rcd13ifvqhig","pricing_plan_id":"cebpf4jnsgd1na2vs0mg"},{"bike_id":"028d5fba-5ac9-4477-963d-aa93d7498d3c","system_id":"levelo_inurba_marseille","lat":43.29516,"lon":5.37499,"is_reserved":false,"is_disabled":true,"rental_uris":{"android":"levelo://app?vid=028d5fba-5ac9-4477-963d-aa93d7498d3c","ios":"levelo://app?vid=028d5fba-5ac9-4477-963d-aa93d7498d3c"},"vehicle_type_id":"4","last_reported":1738861653,"current_range_meters":400,"station_id":"ce4bgkp2rcd13ifvqbmg","pricing_plan_id":"cebpf4jnsgd1na2vs0mg"},{"bike_id":"504f5ed2-4121-4fce-a743-61572b70b490","system_id":"levelo_inurba_marseille","lat":43.28413,"lon":5.37523,"is_reserved":false,"is_disabled":false,"rental_uris":{"android":"levelo://app?vid=504f5ed2-4121-4fce-a743-61572b70b490","ios":"levelo://app?vid=504f5ed2-4121-4fce-a743-61572b70b490"},"vehicle_type_id":"4","last_reported":1738861653,"current_range_meters":10800,"station_id":"ce4bh412rcd13ifvqds0","pricing_plan_id":"cebpf4jnsgd1na2vs0mg"},{"bike_id":"f05dd774-2448-4795-9a06-c9ef7170bc46","system_id":"levelo_inurba_marseille","lat":43.31367,"lon":5.38495,"is_reserved":false,"is_disabled":false,"rental_uris":{"android":"levelo://app?vid=f05dd774-2448-4795-9a06-c9ef7170bc46","ios":"levelo://app?vid=f05dd774-2448-4795-9a06-c9ef7170bc46"},"vehicle_type_id":"4","last_reported":1738861653,"current_range_meters":29600,"station_id":"ce4bgt92rcd13ifvqcf0","pricing_plan_id":"cebpf4jnsgd1na2vs0mg"},{"bike_id":"3bb5ae78-1731-4a6e-ab24-2ef5d75ec136","system_id":"levelo_inurba_marseille","lat":43.2906,"lon":5.37161,"is_reserved":false,"is_disabled":false,"rental_uris":{"android":"levelo://app?vid=3bb5ae78-1731-4a6e-ab24-2ef5d75ec136","ios":"levelo://app?vid=3bb5ae78-1731-4a6e-ab24-2ef5d75ec136"},"vehicle_type_id":"4","last_reported":1738861653,"current_range_meters":17200,"station_id":"ce4bh5p2rcd13ifvqe4g","pricing_plan_id":"cebpf4jnsgd1na2vs0mg"},{"bike_id":"61fa4b26-20c8-466a-9fd1-66899d5ff713","system_id":"levelo_inurba_marseille","lat":43.3234,"lon":5.40628,"is_reserved":false,"is_disabled":false,"rental_uris":{"android":"levelo://app?vid=61fa4b26-20c8-466a-9fd1-66899d5ff713","ios":"levelo://app?vid=61fa4b26-20c8-466a-9fd1-66899d5ff713"},"vehicle_type_id":"4","last_reported":1738861653,"current_range_meters":26800,"station_id":"ce4bhq92rcd13ifvqhjg","pricing_plan_id":"cebpf4jnsgd1na2vs0mg"},{"bike_id":"7bc2d4b6-7844-46be-a947-040b3c3e100d","system_id":"levelo_inurba_marseille","lat":43.27922,"lon":5.39568,"is_reserved":false,"is_disabled":false,"rental_uris":{"android":"levelo://app?vid=7bc2d4b6-7844-46be-a947-040b3c3e100d","ios":"levelo://app?vid=7bc2d4b6-7844-46be-a947-040b3c3e100d"},"vehicle_type_id":"4","last_reported":1738861653,"current_range_meters":38400,"station_id":"ce4bhf92rcd13ifvqf40","pricing_plan_id":"cebpf4jnsgd1na2vs0mg"},{"bike_id":"353089e8-2459-422f-9a3d-43459044709d","system_id":"levelo_inurba_marseille","lat":43.27174,"lon":5.40991,"is_reserved":false,"is_disabled":false,"rental_uris":{"android":"levelo://app?vid=353089e8-2459-422f-9a3d-43459044709d","ios":"levelo://app?vid=353089e8-2459-422f-9a3d-43459044709d"},"vehicle_type_id":"4","last_reported":1738861653,"current_range_meters":31200,"station_id":"ce4bhl12rcd13ifvqgf0","pricing_plan_id":"cebpf4jnsgd1na2vs0mg"},{"bike_id":"1e6bd623-b9e9-4650-9f6f-8b4d5252096e","system_id":"levelo_inurba_marseille","lat":43.30793,"lon":5.43514,"is_reserved":false,"is_disabled":false,"rental_uris":{"android":"levelo://app?vid=1e6bd623-b9e9-4650-9f6f-8b4d5252096e","ios":"levelo://app?vid=1e6bd623-b9e9-4650-9f6f-8b4d5252096e"},"vehicle_type_id":"4","last_reported":1738861653,"current_range_meters":38800,"station_id":"ce4bhph2rcd13ifvqheg","pricing_plan_id":"cebpf4jnsgd1na2vs0mg"},{"bike_id":"1aa66261-872c-45e7-b2df-07a55e058d02","system_id":"levelo_inurba_marseille","lat":43.28494,"lon":5.38553,"is_reserved":false,"is_disabled":false,"rental_uris":{"android":"levelo://app?vid=1aa66261-872c-45e7-b2df-07a55e058d02","ios":"levelo://app?vid=1aa66261-872c-45e7-b2df-07a55e058d02"},"vehicle_type_id":"4","last_reported":1738861653,"current_range_meters":5600,"station_id":"ce4bh8p2rcd13ifvqeb0","pricing_plan_id":"cebpf4jnsgd1na2vs0mg"},{"bike_id":"70c3bd1f-1b10-4f57-8479-0146a6347756","system_id":"levelo_inurba_marseille","lat":43.3055,"lon":5.36541,"is_reserved":false,"is_disabled":false,"rental_uris":{"android":"levelo://app?vid=70c3bd1f-1b10-4f57-8479-0146a6347756","ios":"levelo://app?vid=70c3bd1f-1b10-4f57-8479-0146a6347756"},"vehicle_type_id":"4","last_reported":1738861653,"current_range_meters":32000,"station_id":"ce4bgs12rcd13ifvqcag","pricing_plan_id":"cebpf4jnsgd1na2vs0mg"},{"bike_id":"5f637f24-6e34-4f46-912d-56b4d090c451","system_id":"levelo_inurba_marseille","lat":43.3046,"lon":5.37907,"is_reserved":false,"is_disabled":true,"rental_uris":{"android":"levelo://app?vid=5f637f24-6e34-4f46-912d-56b4d090c451","ios":"levelo://app?vid=5f637f24-6e34-4f46-912d-56b4d090c451"},"vehicle_type_id":"4","last_reported":1738861653,"current_range_meters":12800,"station_id":"ce4bho92rcd13ifvqh3g","pricing_plan_id":"cebpf4jnsgd1na2vs0mg"},{"bike_id":"adea3fe0-0d5f-493f-bc7a-8db19cd779cc","system_id":"levelo_inurba_marseille","lat":43.26176,"lon":5.37879,"is_reserved":false,"is_disabled":false,"rental_uris":{"android":"levelo://app?vid=adea3fe0-0d5f-493f-bc7a-8db19cd779cc","ios":"levelo://app?vid=adea3fe0-0d5f-493f-bc7a-8db19cd779cc"},"vehicle_type_id":"4","last_reported":1738861653,"current_range_meters":38800,"station_id":"ce4bhjp2rcd13ifvqg90","pricing_plan_id":"cebpf4jnsgd1na2vs0mg"},{"bike_id":"cd505098-1b9e-4b47-bb1d-16dd0ae7cc43","system_id":"levelo_inurba_marseille","lat":43.29859,"lon":5.36328,"is_reserved":false,"is_disabled":false,"rental_uris":{"android":"levelo://app?vid=cd505098-1b9e-4b47-bb1d-16dd0ae7cc43","ios":"levelo://app?vid=cd505098-1b9e-4b47-bb1d-16dd0ae7cc43"},"vehicle_type_id":"4","last_reported":1738861653,"current_range_meters":38800,"station_id":"ce4bgpp2rcd13ifvqc3g","pricing_plan_id":"cebpf4jnsgd1na2vs0mg"},{"bike_id":"ebba18d6-7fe7-4f18-b031-1b2f72288ba5","system_id":"levelo_inurba_marseille","lat":43.29029,"lon":5.38654,"is_reserved":false,"is_disabled":false,"rental_uris":{"android":"levelo://app?vid=ebba18d6-7fe7-4f18-b031-1b2f72288ba5","ios":"levelo://app?vid=ebba18d6-7fe7-4f18-b031-1b2f72288ba5"},"vehicle_type_id":"4","last_reported":1738861653,"current_range_meters":12800,"station_id":"ce4bh4p2rcd13ifvqe0g","pricing_plan_id":"cebpf4jnsgd1na2vs0mg"},{"bike_id":"43c6f0ac-7951-4426-80c1-03a719586e29","system_id":"levelo_inurba_marseille","lat":43.28675,"lon":5.38666,"is_reserved":false,"is_disabled":false,"rental_uris":{"android":"levelo://app?vid=43c6f0ac-7951-4426-80c1-03a719586e29","ios":"levelo://app?vid=43c6f0ac-7951-4426-80c1-03a719586e29"},"vehicle_type_id":"4","last_reported":1738861653,"current_range_meters":32000,"station_id":"ce4bh492rcd13ifvqdug","pricing_plan_id":"cebpf4jnsgd1na2vs0mg"},{"bike_id":"ddabfc2f-5038-4225-9c45-0f70b1e37cba","system_id":"levelo_inurba_marseille","lat":43.31715,"lon":5.43705,"is_reserved":false,"is_disabled":false,"rental_uris":{"android":"levelo://app?vid=ddabfc2f-5038-4225-9c45-0f70b1e37cba","ios":"levelo://app?vid=ddabfc2f-5038-4225-9c45-0f70b1e37cba"},"vehicle_type_id":"4","last_reported":1738861653,"current_range_meters":16000,"station_id":"ce4bhp92rcd13ifvqhcg","pricing_plan_id":"cebpf4jnsgd1na2vs0mg"},{"bike_id":"c6ac5ea2-7bba-4881-92b1-7f4df6f23fa1","system_id":"levelo_inurba_marseille","lat":43.28464,"lon":5.35902,"is_reserved":false,"is_disabled":false,"rental_uris":{"android":"levelo://app?vid=c6ac5ea2-7bba-4881-92b1-7f4df6f23fa1","ios":"levelo://app?vid=c6ac5ea2-7bba-4881-92b1-7f4df6f23fa1"},"vehicle_type_id":"4","last_reported":1738861653,"current_range_meters":22800,"station_id":"ce4bhah2rcd13ifvqei0","pricing_plan_id":"cebpf4jnsgd1na2vs0mg"},{"bike_id":"14e53768-69b9-460e-ae18-cbfdd9eb2361","system_id":"levelo_inurba_marseille","lat":43.25112,"lon":5.40325,"is_reserved":false,"is_disabled":false,"rental_uris":{"android":"levelo://app?vid=14e53768-69b9-460e-ae18-cbfdd9eb2361","ios":"levelo://app?vid=14e53768-69b9-460e-ae18-cbfdd9eb2361"},"vehicle_type_id":"4","last_reported":1738861653,"current_range_meters":22800,"station_id":"ce4bhlh2rcd13ifvqgig","pricing_plan_id":"cebpf4jnsgd1na2vs0mg"},{"bike_id":"621e9d62-b9b7-4c1b-b6af-ddf9856fbca9","system_id":"levelo_inurba_marseille","lat":43.28936,"lon":5.36371,"is_reserved":false,"is_disabled":false,"rental_uris":{"android":"levelo://app?vid=621e9d62-b9b7-4c1b-b6af-ddf9856fbca9","ios":"levelo://app?vid=621e9d62-b9b7-4c1b-b6af-ddf9856fbca9"},"vehicle_type_id":"4","last_reported":1738861653,"current_range_meters":10000,"station_id":"ce4bhc92rcd13ifvqetg","pricing_plan_id":"cebpf4jnsgd1na2vs0mg"},{"bike_id":"9e9af5a8-5b6d-4ffa-b9f3-01f151c1cfc6","system_id":"levelo_inurba_marseille","lat":43.29822,"lon":5.36335,"is_reserved":false,"is_disabled":false,"rental_uris":{"android":"levelo://app?vid=9e9af5a8-5b6d-4ffa-b9f3-01f151c1cfc6","ios":"levelo://app?vid=9e9af5a8-5b6d-4ffa-b9f3-01f151c1cfc6"},"vehicle_type_id":"4","last_reported":1738861653,"current_range_meters":28400,"station_id":"ce4bgpp2rcd13ifvqc3g","pricing_plan_id":"cebpf4jnsgd1na2vs0mg"},{"bike_id":"cb015bb1-2965-4757-8e20-d158f917c854","system_id":"levelo_inurba_marseille","lat":43.2862,"lon":5.35103,"is_reserved":false,"is_disabled":false,"rental_uris":{"android":"levelo://app?vid=cb015bb1-2965-4757-8e20-d158f917c854","ios":"levelo://app?vid=cb015bb1-2965-4757-8e20-d158f917c854"},"vehicle_type_id":"4","last_reported":1738861653,"current_range_meters":24400,"station_id":"ce4bhch2rcd13ifvqeug","pricing_plan_id":"cebpf4jnsgd1na2vs0mg"},{"bike_id":"59db9156-837c-4bef-bdf0-6cb05d00fb23","system_id":"levelo_inurba_marseille","lat":43.24169,"lon":5.36398,"is_reserved":false,"is_disabled":false,"rental_uris":{"android":"levelo://app?vid=59db9156-837c-4bef-bdf0-6cb05d00fb23","ios":"levelo://app?vid=59db9156-837c-4bef-bdf0-6cb05d00fb23"},"vehicle_type_id":"4","last_reported":1738861653,"current_range_meters":35600,"station_id":"cpo36qri1sfpv3e86is0","pricing_plan_id":"cebpf4jnsgd1na2vs0mg"},{"bike_id":"d6cd594e-5144-4c9e-8087-c0f7204b80c2","system_id":"levelo_inurba_marseille","lat":43.29709,"lon":5.36609,"is_reserved":false,"is_disabled":false,"rental_uris":{"android":"levelo://app?vid=d6cd594e-5144-4c9e-8087-c0f7204b80c2","ios":"levelo://app?vid=d6cd594e-5144-4c9e-8087-c0f7204b80c2"},"vehicle_type_id":"4","last_reported":1738861653,"current_range_meters":19200,"station_id":"ce4bgn12rcd13ifvqbt0","pricing_plan_id":"cebpf4jnsgd1na2vs0mg"},{"bike_id":"d7080149-7e59-4a17-b2d0-4462637b5ebd","system_id":"levelo_inurba_marseille","lat":43.24181,"lon":5.39731,"is_reserved":false,"is_disabled":false,"rental_uris":{"android":"levelo://app?vid=d7080149-7e59-4a17-b2d0-4462637b5ebd","ios":"levelo://app?vid=d7080149-7e59-4a17-b2d0-4462637b5ebd"},"vehicle_type_id":"4","last_reported":1738861653,"current_range_meters":36000,"station_id":"ce4bhn12rcd13ifvqgpg","pricing_plan_id":"cebpf4jnsgd1na2vs0mg"},{"bike_id":"19c91191-64ee-4803-94d7-14a4a66340df","system_id":"levelo_inurba_marseille","lat":43.31716,"lon":5.42397,"is_reserved":false,"is_disabled":true,"rental_uris":{"android":"levelo://app?vid=19c91191-64ee-4803-94d7-14a4a66340df","ios":"levelo://app?vid=19c91191-64ee-4803-94d7-14a4a66340df"},"vehicle_type_id":"4","last_reported":1738861653,"current_range_meters":0,"station_id":"ce4bhp92rcd13ifvqhbg","pricing_plan_id":"cebpf4jnsgd1na2vs0mg"},{"bike_id":"0a6a90a0-b9a1-4553-942b-9cc8f0c94f66","system_id":"levelo_inurba_marseille","lat":43.29259,"lon":5.40918,"is_reserved":false,"is_disabled":true,"rental_uris":{"android":"levelo://app?vid=0a6a90a0-b9a1-4553-942b-9cc8f0c94f66","ios":"levelo://app?vid=0a6a90a0-b9a1-4553-942b-9cc8f0c94f66"},"vehicle_type_id":"4","last_reported":1738861653,"current_range_meters":18800,"station_id":"ce4bh192rcd13ifvqdc0","pricing_plan_id":"cebpf4jnsgd1na2vs0mg"},{"bike_id":"c05ed1e3-0dbe-4ae4-a787-bf24feb3a36e","system_id":"levelo_inurba_marseille","lat":43.29009,"lon":5.35605,"is_reserved":false,"is_disabled":false,"rental_uris":{"android":"levelo://app?vid=c05ed1e3-0dbe-4ae4-a787-bf24feb3a36e","ios":"levelo://app?vid=c05ed1e3-0dbe-4ae4-a787-bf24feb3a36e"},"vehicle_type_id":"4","last_reported":1738861653,"current_range_meters":38800,"station_id":"ce4bhb92rcd13ifvqen0","pricing_plan_id":"cebpf4jnsgd1na2vs0mg"},{"bike_id":"fef1bd1d-2ad2-48f6-a1bb-d87aafe8c512","system_id":"levelo_inurba_marseille","lat":43.28926,"lon":5.3641,"is_reserved":false,"is_disabled":true,"rental_uris":{"android":"levelo://app?vid=fef1bd1d-2ad2-48f6-a1bb-d87aafe8c512","ios":"levelo://app?vid=fef1bd1d-2ad2-48f6-a1bb-d87aafe8c512"},"vehicle_type_id":"4","last_reported":1738861653,"current_range_meters":0,"station_id":"ce4bhc92rcd13ifvqetg","pricing_plan_id":"cebpf4jnsgd1na2vs0mg"},{"bike_id":"6cdc100c-9833-4fc8-83e2-bae7ce95862d","system_id":"levelo_inurba_marseille","lat":43.28076,"lon":5.39664,"is_reserved":false,"is_disabled":true,"rental_uris":{"android":"levelo://app?vid=6cdc100c-9833-4fc8-83e2-bae7ce95862d","ios":"levelo://app?vid=6cdc100c-9833-4fc8-83e2-bae7ce95862d"},"vehicle_type_id":"4","last_reported":1738861653,"current_range_meters":800,"station_id":"ce4bho12rcd13ifvqh2g","pricing_plan_id":"cebpf4jnsgd1na2vs0mg"},{"bike_id":"aa20ddd3-fab3-4250-b35b-41c0ae9e33eb","system_id":"levelo_inurba_marseille","lat":43.24531,"lon":5.37295,"is_reserved":false,"is_disabled":false,"rental_uris":{"android":"levelo://app?vid=aa20ddd3-fab3-4250-b35b-41c0ae9e33eb","ios":"levelo://app?vid=aa20ddd3-fab3-4250-b35b-41c0ae9e33eb"},"vehicle_type_id":"4","last_reported":1738861653,"current_range_meters":16400,"station_id":"","pricing_plan_id":"cebpf4jnsgd1na2vs0mg"},{"bike_id":"8a14b89f-7f6d-47a1-986b-eee099a423e9","system_id":"levelo_inurba_marseille","lat":43.30538,"lon":5.38427,"is_reserved":false,"is_disabled":false,"rental_uris":{"android":"levelo://app?vid=8a14b89f-7f6d-47a1-986b-eee099a423e9","ios":"levelo://app?vid=8a14b89f-7f6d-47a1-986b-eee099a423e9"},"vehicle_type_id":"4","last_reported":1738861653,"current_range_meters":38800,"station_id":"ce4bgg92rcd13ifvqb30","pricing_plan_id":"cebpf4jnsgd1na2vs0mg"},{"bike_id":"ae36c886-3a6e-4fbd-ba8a-efeb2b38ea4e","system_id":"levelo_inurba_marseille","lat":43.29609,"lon":5.38108,"is_reserved":false,"is_disabled":false,"rental_uris":{"android":"levelo://app?vid=ae36c886-3a6e-4fbd-ba8a-efeb2b38ea4e","ios":"levelo://app?vid=ae36c886-3a6e-4fbd-ba8a-efeb2b38ea4e"},"vehicle_type_id":"4","last_reported":1738861653,"current_range_meters":28800,"station_id":"ce4bgl12rcd13ifvqbo0","pricing_plan_id":"cebpf4jnsgd1na2vs0mg"},{"bike_id":"744f4122-a65c-499d-80ba-7729a1ce92fe","system_id":"levelo_inurba_marseille","lat":43.28441,"lon":5.39188,"is_reserved":false,"is_disabled":true,"rental_uris":{"android":"levelo://app?vid=744f4122-a65c-499d-80ba-7729a1ce92fe","ios":"levelo://app?vid=744f4122-a65c-499d-80ba-7729a1ce92fe"},"vehicle_type_id":"4","last_reported":1738861653,"current_range_meters":38000,"station_id":"ce4bhoh2rcd13ifvqh5g","pricing_plan_id":"cebpf4jnsgd1na2vs0mg"},{"bike_id":"86033c88-d9ad-41bd-a63f-f4952d2d0de6","system_id":"levelo_inurba_marseille","lat":43.279446,"lon":5.387405,"is_reserved":false,"is_disabled":false,"rental_uris":{"android":"levelo://app?vid=86033c88-d9ad-41bd-a63f-f4952d2d0de6","ios":"levelo://app?vid=86033c88-d9ad-41bd-a63f-f4952d2d0de6"},"vehicle_type_id":"4","last_reported":1738861653,"current_range_meters":39200,"station_id":"ce4bhg12rcd13ifvqf80","pricing_plan_id":"cebpf4jnsgd1na2vs0mg"},{"bike_id":"5d1dacf3-3fa1-40ba-8373-ce163dd2d283","system_id":"levelo_inurba_marseille","lat":43.26207,"lon":5.37932,"is_reserved":false,"is_disabled":false,"rental_uris":{"android":"levelo://app?vid=5d1dacf3-3fa1-40ba-8373-ce163dd2d283","ios":"levelo://app?vid=5d1dacf3-3fa1-40ba-8373-ce163dd2d283"},"vehicle_type_id":"4","last_reported":1738861653,"current_range_meters":38800,"station_id":"ce4bhjp2rcd13ifvqg90","pricing_plan_id":"cebpf4jnsgd1na2vs0mg"},{"bike_id":"22a1aca8-7237-4f72-9ad2-37a4dc8763d5","system_id":"levelo_inurba_marseille","lat":43.3172,"lon":5.42398,"is_reserved":false,"is_disabled":false,"rental_uris":{"android":"levelo://app?vid=22a1aca8-7237-4f72-9ad2-37a4dc8763d5","ios":"levelo://app?vid=22a1aca8-7237-4f72-9ad2-37a4dc8763d5"},"vehicle_type_id":"4","last_reported":1738861653,"current_range_meters":39200,"station_id":"ce4bhp92rcd13ifvqhbg","pricing_plan_id":"cebpf4jnsgd1na2vs0mg"},{"bike_id":"ce457943-8796-4fc8-b051-ba3a0eda9b81","system_id":"levelo_inurba_marseille","lat":43.23964,"lon":5.3663,"is_reserved":false,"is_disabled":false,"rental_uris":{"android":"levelo://app?vid=ce457943-8796-4fc8-b051-ba3a0eda9b81","ios":"levelo://app?vid=ce457943-8796-4fc8-b051-ba3a0eda9b81"},"vehicle_type_id":"4","last_reported":1738861653,"current_range_meters":17600,"station_id":"ce4bhi12rcd13ifvqfp0","pricing_plan_id":"cebpf4jnsgd1na2vs0mg"},{"bike_id":"a4318989-c62f-4e19-8928-1599525afab8","system_id":"levelo_inurba_marseille","lat":43.24665,"lon":5.38143,"is_reserved":false,"is_disabled":false,"rental_uris":{"android":"levelo://app?vid=a4318989-c62f-4e19-8928-1599525afab8","ios":"levelo://app?vid=a4318989-c62f-4e19-8928-1599525afab8"},"vehicle_type_id":"4","last_reported":1738861653,"current_range_meters":10800,"station_id":"ce4bhih2rcd13ifvqfr0","pricing_plan_id":"cebpf4jnsgd1na2vs0mg"},{"bike_id":"d9d46ce6-4774-42c1-9654-aadcbb4cdfbf","system_id":"levelo_inurba_marseille","lat":43.2656,"lon":5.37284,"is_reserved":false,"is_disabled":false,"rental_uris":{"android":"levelo://app?vid=d9d46ce6-4774-42c1-9654-aadcbb4cdfbf","ios":"levelo://app?vid=d9d46ce6-4774-42c1-9654-aadcbb4cdfbf"},"vehicle_type_id":"4","last_reported":1738861653,"current_range_meters":38800,"station_id":"ce4bhg12rcd13ifvqf70","pricing_plan_id":"cebpf4jnsgd1na2vs0mg"},{"bike_id":"c98dac74-8ef2-440f-bb69-0af2b3220a11","system_id":"levelo_inurba_marseille","lat":43.29847,"lon":5.36305,"is_reserved":false,"is_disabled":true,"rental_uris":{"android":"levelo://app?vid=c98dac74-8ef2-440f-bb69-0af2b3220a11","ios":"levelo://app?vid=c98dac74-8ef2-440f-bb69-0af2b3220a11"},"vehicle_type_id":"4","last_reported":1738861653,"current_range_meters":37600,"station_id":"ce4bgpp2rcd13ifvqc3g","pricing_plan_id":"cebpf4jnsgd1na2vs0mg"},{"bike_id":"e5174efd-1a7c-4fdb-b4af-6221476f31e1","system_id":"levelo_inurba_marseille","lat":43.28727,"lon":5.36094,"is_reserved":false,"is_disabled":false,"rental_uris":{"android":"levelo://app?vid=e5174efd-1a7c-4fdb-b4af-6221476f31e1","ios":"levelo://app?vid=e5174efd-1a7c-4fdb-b4af-6221476f31e1"},"vehicle_type_id":"4","last_reported":1738861653,"current_range_meters":27600,"station_id":"cki0cbj6b192h4jlfktg","pricing_plan_id":"cebpf4jnsgd1na2vs0mg"},{"bike_id":"a3ce6085-acc6-4ddb-baf1-1f45b51f8da0","system_id":"levelo_inurba_marseille","lat":43.27322,"lon":5.39083,"is_reserved":false,"is_disabled":false,"rental_uris":{"android":"levelo://app?vid=a3ce6085-acc6-4ddb-baf1-1f45b51f8da0","ios":"levelo://app?vid=a3ce6085-acc6-4ddb-baf1-1f45b51f8da0"},"vehicle_type_id":"4","last_reported":1738861653,"current_range_meters":38800,"station_id":"ce4bhgp2rcd13ifvqfe0","pricing_plan_id":"cebpf4jnsgd1na2vs0mg"},{"bike_id":"9bbe3eeb-ac06-42ed-8860-3fdb15d6e3d6","system_id":"levelo_inurba_marseille","lat":43.29555,"lon":5.42294,"is_reserved":false,"is_disabled":false,"rental_uris":{"android":"levelo://app?vid=9bbe3eeb-ac06-42ed-8860-3fdb15d6e3d6","ios":"levelo://app?vid=9bbe3eeb-ac06-42ed-8860-3fdb15d6e3d6"},"vehicle_type_id":"4","last_reported":1738861653,"current_range_meters":36000,"station_id":"ce4bhph2rcd13ifvqhdg","pricing_plan_id":"cebpf4jnsgd1na2vs0mg"},{"bike_id":"fe146960-7d51-43a8-8d5f-97dd150b0e2d","system_id":"levelo_inurba_marseille","lat":43.26058,"lon":5.39398,"is_reserved":false,"is_disabled":false,"rental_uris":{"android":"levelo://app?vid=fe146960-7d51-43a8-8d5f-97dd150b0e2d","ios":"levelo://app?vid=fe146960-7d51-43a8-8d5f-97dd150b0e2d"},"vehicle_type_id":"4","last_reported":1738861653,"current_range_meters":24400,"station_id":"ce4bhh92rcd13ifvqfj0","pricing_plan_id":"cebpf4jnsgd1na2vs0mg"},{"bike_id":"79eab85b-411d-47b7-ba8c-c70679ea549f","system_id":"levelo_inurba_marseille","lat":43.23185,"lon":5.39985,"is_reserved":false,"is_disabled":false,"rental_uris":{"android":"levelo://app?vid=79eab85b-411d-47b7-ba8c-c70679ea549f","ios":"levelo://app?vid=79eab85b-411d-47b7-ba8c-c70679ea549f"},"vehicle_type_id":"4","last_reported":1738861653,"current_range_meters":18800,"station_id":"ce4bhn12rcd13ifvqgqg","pricing_plan_id":"cebpf4jnsgd1na2vs0mg"},{"bike_id":"189a04af-db8c-4d0c-a592-acca6b3676e9","system_id":"levelo_inurba_marseille","lat":43.2844,"lon":5.3919,"is_reserved":false,"is_disabled":false,"rental_uris":{"android":"levelo://app?vid=189a04af-db8c-4d0c-a592-acca6b3676e9","ios":"levelo://app?vid=189a04af-db8c-4d0c-a592-acca6b3676e9"},"vehicle_type_id":"4","last_reported":1738861653,"current_range_meters":25200,"station_id":"ce4bhoh2rcd13ifvqh5g","pricing_plan_id":"cebpf4jnsgd1na2vs0mg"},{"bike_id":"341067f4-d7ed-4f99-954f-691c64a92e97","system_id":"levelo_inurba_marseille","lat":43.2319,"lon":5.39983,"is_reserved":false,"is_disabled":false,"rental_uris":{"android":"levelo://app?vid=341067f4-d7ed-4f99-954f-691c64a92e97","ios":"levelo://app?vid=341067f4-d7ed-4f99-954f-691c64a92e97"},"vehicle_type_id":"4","last_reported":1738861653,"current_range_meters":17600,"station_id":"ce4bhn12rcd13ifvqgqg","pricing_plan_id":"cebpf4jnsgd1na2vs0mg"},{"bike_id":"0d5433c7-5c99-452c-af1b-b5eb4a3be5ca","system_id":"levelo_inurba_marseille","lat":43.27979,"lon":5.41687,"is_reserved":false,"is_disabled":false,"rental_uris":{"android":"levelo://app?vid=0d5433c7-5c99-452c-af1b-b5eb4a3be5ca","ios":"levelo://app?vid=0d5433c7-5c99-452c-af1b-b5eb4a3be5ca"},"vehicle_type_id":"4","last_reported":1738861653,"current_range_meters":38800,"station_id":"ce4bho12rcd13ifvqh1g","pricing_plan_id":"cebpf4jnsgd1na2vs0mg"},{"bike_id":"49055a72-2c77-46f4-9d3d-860162072fdf","system_id":"levelo_inurba_marseille","lat":43.298,"lon":5.38089,"is_reserved":false,"is_disabled":false,"rental_uris":{"android":"levelo://app?vid=49055a72-2c77-46f4-9d3d-860162072fdf","ios":"levelo://app?vid=49055a72-2c77-46f4-9d3d-860162072fdf"},"vehicle_type_id":"4","last_reported":1738861653,"current_range_meters":10000,"station_id":"ce4bgip2rcd13ifvqbb0","pricing_plan_id":"cebpf4jnsgd1na2vs0mg"},{"bike_id":"35f62a31-da4c-4808-b516-dac40769e6a0","system_id":"levelo_inurba_marseille","lat":43.29525,"lon":5.3854,"is_reserved":false,"is_disabled":false,"rental_uris":{"android":"levelo://app?vid=35f62a31-da4c-4808-b516-dac40769e6a0","ios":"levelo://app?vid=35f62a31-da4c-4808-b516-dac40769e6a0"},"vehicle_type_id":"4","last_reported":1738861653,"current_range_meters":4800,"station_id":"ce4bgih2rcd13ifvqba0","pricing_plan_id":"cebpf4jnsgd1na2vs0mg"},{"bike_id":"b6e310cf-0885-441d-9d3f-c2b0d808603e","system_id":"levelo_inurba_marseille","lat":43.29271,"lon":5.36854,"is_reserved":false,"is_disabled":true,"rental_uris":{"android":"levelo://app?vid=b6e310cf-0885-441d-9d3f-c2b0d808603e","ios":"levelo://app?vid=b6e310cf-0885-441d-9d3f-c2b0d808603e"},"vehicle_type_id":"4","last_reported":1738861653,"current_range_meters":2000,"station_id":"ce4bhbp2rcd13ifvqesg","pricing_plan_id":"cebpf4jnsgd1na2vs0mg"},{"bike_id":"8461dcb5-f99b-425c-9064-bd0f19db3c15","system_id":"levelo_inurba_marseille","lat":43.2767,"lon":5.38882,"is_reserved":false,"is_disabled":false,"rental_uris":{"android":"levelo://app?vid=8461dcb5-f99b-425c-9064-bd0f19db3c15","ios":"levelo://app?vid=8461dcb5-f99b-425c-9064-bd0f19db3c15"},"vehicle_type_id":"4","last_reported":1738861653,"current_range_meters":10000,"station_id":"ce4bhi12rcd13ifvqfo0","pricing_plan_id":"cebpf4jnsgd1na2vs0mg"},{"bike_id":"d9e1746e-fb35-4488-8bed-3a26bd5c5605","system_id":"levelo_inurba_marseille","lat":43.30288,"lon":5.39801,"is_reserved":false,"is_disabled":true,"rental_uris":{"android":"levelo://app?vid=d9e1746e-fb35-4488-8bed-3a26bd5c5605","ios":"levelo://app?vid=d9e1746e-fb35-4488-8bed-3a26bd5c5605"},"vehicle_type_id":"4","last_reported":1738861653,"current_range_meters":0,"station_id":"","pricing_plan_id":"cebpf4jnsgd1na2vs0mg"},{"bike_id":"3a8318c4-40fb-4635-81fd-14554b796813","system_id":"levelo_inurba_marseille","lat":43.25499,"lon":5.37662,"is_reserved":false,"is_disabled":false,"rental_uris":{"android":"levelo://app?vid=3a8318c4-40fb-4635-81fd-14554b796813","ios":"levelo://app?vid=3a8318c4-40fb-4635-81fd-14554b796813"},"vehicle_type_id":"4","last_reported":1738861653,"current_range_meters":36400,"station_id":"ce4bhh12rcd13ifvqff0","pricing_plan_id":"cebpf4jnsgd1na2vs0mg"},{"bike_id":"4febbaba-5e6a-4489-bcd6-149abd0ca56c","system_id":"levelo_inurba_marseille","lat":43.28157,"lon":5.4264,"is_reserved":false,"is_disabled":false,"rental_uris":{"android":"levelo://app?vid=4febbaba-5e6a-4489-bcd6-149abd0ca56c","ios":"levelo://app?vid=4febbaba-5e6a-4489-bcd6-149abd0ca56c"},"vehicle_type_id":"4","last_reported":1738861653,"current_range_meters":13600,"station_id":"ce4bhnh2rcd13ifvqgug","pricing_plan_id":"cebpf4jnsgd1na2vs0mg"},{"bike_id":"0ae7beaa-00f4-40f6-bfa7-6b4d92723ad7","system_id":"levelo_inurba_marseille","lat":43.29546,"lon":5.42286,"is_reserved":false,"is_disabled":false,"rental_uris":{"android":"levelo://app?vid=0ae7beaa-00f4-40f6-bfa7-6b4d92723ad7","ios":"levelo://app?vid=0ae7beaa-00f4-40f6-bfa7-6b4d92723ad7"},"vehicle_type_id":"4","last_reported":1738861653,"current_range_meters":38800,"station_id":"ce4bhph2rcd13ifvqhdg","pricing_plan_id":"cebpf4jnsgd1na2vs0mg"},{"bike_id":"63c8956c-b2b5-4faa-8b7d-f821c05dd8c4","system_id":"levelo_inurba_marseille","lat":43.260275,"lon":5.37551,"is_reserved":false,"is_disabled":true,"rental_uris":{"android":"levelo://app?vid=63c8956c-b2b5-4faa-8b7d-f821c05dd8c4","ios":"levelo://app?vid=63c8956c-b2b5-4faa-8b7d-f821c05dd8c4"},"vehicle_type_id":"4","last_reported":1738861653,"current_range_meters":8000,"station_id":"","pricing_plan_id":"cebpf4jnsgd1na2vs0mg"},{"bike_id":"f1ebed8b-eba5-4dab-93d5-8c1a70cba92f","system_id":"levelo_inurba_marseille","lat":43.25829,"lon":5.39438,"is_reserved":false,"is_disabled":false,"rental_uris":{"android":"levelo://app?vid=f1ebed8b-eba5-4dab-93d5-8c1a70cba92f","ios":"levelo://app?vid=f1ebed8b-eba5-4dab-93d5-8c1a70cba92f"},"vehicle_type_id":"4","last_reported":1738861653,"current_range_meters":36000,"station_id":"ce4bhip2rcd13ifvqft0","pricing_plan_id":"cebpf4jnsgd1na2vs0mg"},{"bike_id":"3f7ff96d-9623-4aad-b4cc-175dc1dfc2c0","system_id":"levelo_inurba_marseille","lat":43.2843,"lon":5.3919,"is_reserved":false,"is_disabled":false,"rental_uris":{"android":"levelo://app?vid=3f7ff96d-9623-4aad-b4cc-175dc1dfc2c0","ios":"levelo://app?vid=3f7ff96d-9623-4aad-b4cc-175dc1dfc2c0"},"vehicle_type_id":"4","last_reported":1738861653,"current_range_meters":19200,"station_id":"ce4bhoh2rcd13ifvqh5g","pricing_plan_id":"cebpf4jnsgd1na2vs0mg"},{"bike_id":"a7b647d9-1a4b-4ec5-8bea-7b331389070f","system_id":"levelo_inurba_marseille","lat":43.32454,"lon":5.45541,"is_reserved":false,"is_disabled":true,"rental_uris":{"android":"levelo://app?vid=a7b647d9-1a4b-4ec5-8bea-7b331389070f","ios":"levelo://app?vid=a7b647d9-1a4b-4ec5-8bea-7b331389070f"},"vehicle_type_id":"4","last_reported":1738861653,"current_range_meters":15200,"station_id":"","pricing_plan_id":"cebpf4jnsgd1na2vs0mg"},{"bike_id":"507b15d5-ba45-48e8-80b2-0da7459d7c29","system_id":"levelo_inurba_marseille","lat":43.28141,"lon":5.42642,"is_reserved":false,"is_disabled":false,"rental_uris":{"android":"levelo://app?vid=507b15d5-ba45-48e8-80b2-0da7459d7c29","ios":"levelo://app?vid=507b15d5-ba45-48e8-80b2-0da7459d7c29"},"vehicle_type_id":"4","last_reported":1738861653,"current_range_meters":36800,"station_id":"ce4bhnh2rcd13ifvqgug","pricing_plan_id":"cebpf4jnsgd1na2vs0mg"},{"bike_id":"95f29770-8235-49e1-a684-30d8b5c53217","system_id":"levelo_inurba_marseille","lat":43.306,"lon":5.41434,"is_reserved":false,"is_disabled":false,"rental_uris":{"android":"levelo://app?vid=95f29770-8235-49e1-a684-30d8b5c53217","ios":"levelo://app?vid=95f29770-8235-49e1-a684-30d8b5c53217"},"vehicle_type_id":"4","last_reported":1738861653,"current_range_meters":7200,"station_id":"","pricing_plan_id":"cebpf4jnsgd1na2vs0mg"},{"bike_id":"80c9800f-48ec-4340-89dd-fcf0563d1ea2","system_id":"levelo_inurba_marseille","lat":43.260648,"lon":5.394122,"is_reserved":false,"is_disabled":false,"rental_uris":{"android":"levelo://app?vid=80c9800f-48ec-4340-89dd-fcf0563d1ea2","ios":"levelo://app?vid=80c9800f-48ec-4340-89dd-fcf0563d1ea2"},"vehicle_type_id":"4","last_reported":1738861653,"current_range_meters":17200,"station_id":"ce4bhh92rcd13ifvqfj0","pricing_plan_id":"cebpf4jnsgd1na2vs0mg"},{"bike_id":"d09a5ec9-24a8-47dc-93a8-fe1773af2ba3","system_id":"levelo_inurba_marseille","lat":43.29787,"lon":5.39354,"is_reserved":false,"is_disabled":false,"rental_uris":{"android":"levelo://app?vid=d09a5ec9-24a8-47dc-93a8-fe1773af2ba3","ios":"levelo://app?vid=d09a5ec9-24a8-47dc-93a8-fe1773af2ba3"},"vehicle_type_id":"4","last_reported":1738861653,"current_range_meters":36400,"station_id":"chh1huq6cuj3fo74tm60","pricing_plan_id":"cebpf4jnsgd1na2vs0mg"},{"bike_id":"969feaef-4bde-4003-b492-3c860b94d6b9","system_id":"levelo_inurba_marseille","lat":43.24168,"lon":5.36397,"is_reserved":false,"is_disabled":false,"rental_uris":{"android":"levelo://app?vid=969feaef-4bde-4003-b492-3c860b94d6b9","ios":"levelo://app?vid=969feaef-4bde-4003-b492-3c860b94d6b9"},"vehicle_type_id":"4","last_reported":1738861653,"current_range_meters":26000,"station_id":"cpo36qri1sfpv3e86is0","pricing_plan_id":"cebpf4jnsgd1na2vs0mg"},{"bike_id":"1dd6ec13-f4da-475a-9b1f-4c3aae836e94","system_id":"levelo_inurba_marseille","lat":43.29415,"lon":5.38635,"is_reserved":false,"is_disabled":false,"rental_uris":{"android":"levelo://app?vid=1dd6ec13-f4da-475a-9b1f-4c3aae836e94","ios":"levelo://app?vid=1dd6ec13-f4da-475a-9b1f-4c3aae836e94"},"vehicle_type_id":"4","last_reported":1738861653,"current_range_meters":36400,"station_id":"ce4bh2h2rcd13ifvqdh0","pricing_plan_id":"cebpf4jnsgd1na2vs0mg"},{"bike_id":"5e6b3d08-f7dc-486b-83da-43358345a225","system_id":"levelo_inurba_marseille","lat":43.29517,"lon":5.39057,"is_reserved":false,"is_disabled":false,"rental_uris":{"android":"levelo://app?vid=5e6b3d08-f7dc-486b-83da-43358345a225","ios":"levelo://app?vid=5e6b3d08-f7dc-486b-83da-43358345a225"},"vehicle_type_id":"4","last_reported":1738861653,"current_range_meters":20400,"station_id":"ce4bh3p2rcd13ifvqdp0","pricing_plan_id":"cebpf4jnsgd1na2vs0mg"},{"bike_id":"99c1809b-d2c9-4bbb-8e75-87d758ab24ad","system_id":"levelo_inurba_marseille","lat":43.23063,"lon":5.35495,"is_reserved":false,"is_disabled":false,"rental_uris":{"android":"levelo://app?vid=99c1809b-d2c9-4bbb-8e75-87d758ab24ad","ios":"levelo://app?vid=99c1809b-d2c9-4bbb-8e75-87d758ab24ad"},"vehicle_type_id":"4","last_reported":1738861653,"current_range_meters":17200,"station_id":"cpo3342slgdg3j2ifvpg","pricing_plan_id":"cebpf4jnsgd1na2vs0mg"},{"bike_id":"e8ed9027-1915-4d41-b724-2601e02113ad","system_id":"levelo_inurba_marseille","lat":43.25942,"lon":5.40911,"is_reserved":false,"is_disabled":true,"rental_uris":{"android":"levelo://app?vid=e8ed9027-1915-4d41-b724-2601e02113ad","ios":"levelo://app?vid=e8ed9027-1915-4d41-b724-2601e02113ad"},"vehicle_type_id":"4","last_reported":1738861653,"current_range_meters":800,"station_id":"ce4bhm92rcd13ifvqglg","pricing_plan_id":"cebpf4jnsgd1na2vs0mg"},{"bike_id":"335f4342-bbca-4c03-b6b1-738712832e20","system_id":"levelo_inurba_marseille","lat":43.28734,"lon":5.36077,"is_reserved":false,"is_disabled":false,"rental_uris":{"android":"levelo://app?vid=335f4342-bbca-4c03-b6b1-738712832e20","ios":"levelo://app?vid=335f4342-bbca-4c03-b6b1-738712832e20"},"vehicle_type_id":"4","last_reported":1738861653,"current_range_meters":39200,"station_id":"cki0cbj6b192h4jlfktg","pricing_plan_id":"cebpf4jnsgd1na2vs0mg"},{"bike_id":"71fa0b49-5022-4226-a851-b27cd3ebce8b","system_id":"levelo_inurba_marseille","lat":43.31746,"lon":5.39034,"is_reserved":false,"is_disabled":false,"rental_uris":{"android":"levelo://app?vid=71fa0b49-5022-4226-a851-b27cd3ebce8b","ios":"levelo://app?vid=71fa0b49-5022-4226-a851-b27cd3ebce8b"},"vehicle_type_id":"4","last_reported":1738861653,"current_range_meters":32800,"station_id":"ce4bhqp2rcd13ifvqhng","pricing_plan_id":"cebpf4jnsgd1na2vs0mg"},{"bike_id":"d795a45e-215d-4f94-b2ce-e726828b49a5","system_id":"levelo_inurba_marseille","lat":43.24169,"lon":5.36399,"is_reserved":false,"is_disabled":false,"rental_uris":{"android":"levelo://app?vid=d795a45e-215d-4f94-b2ce-e726828b49a5","ios":"levelo://app?vid=d795a45e-215d-4f94-b2ce-e726828b49a5"},"vehicle_type_id":"4","last_reported":1738861653,"current_range_meters":29600,"station_id":"cpo36qri1sfpv3e86is0","pricing_plan_id":"cebpf4jnsgd1na2vs0mg"},{"bike_id":"ee5ccade-f238-41c4-b536-d0ebb9724bf7","system_id":"levelo_inurba_marseille","lat":43.2603,"lon":5.37554,"is_reserved":false,"is_disabled":false,"rental_uris":{"android":"levelo://app?vid=ee5ccade-f238-41c4-b536-d0ebb9724bf7","ios":"levelo://app?vid=ee5ccade-f238-41c4-b536-d0ebb9724bf7"},"vehicle_type_id":"4","last_reported":1738861653,"current_range_meters":38000,"station_id":"ce4bhgh2rcd13ifvqfa0","pricing_plan_id":"cebpf4jnsgd1na2vs0mg"},{"bike_id":"0b601d27-6c47-4fd4-9c44-325b36fbe13c","system_id":"levelo_inurba_marseille","lat":43.24389,"lon":5.37062,"is_reserved":false,"is_disabled":false,"rental_uris":{"android":"levelo://app?vid=0b601d27-6c47-4fd4-9c44-325b36fbe13c","ios":"levelo://app?vid=0b601d27-6c47-4fd4-9c44-325b36fbe13c"},"vehicle_type_id":"4","last_reported":1738861653,"current_range_meters":29600,"station_id":"ce4bhhh2rcd13ifvqfk0","pricing_plan_id":"cebpf4jnsgd1na2vs0mg"},{"bike_id":"4e19cff8-873a-443a-9f71-358916e3d391","system_id":"levelo_inurba_marseille","lat":43.23189,"lon":5.39979,"is_reserved":false,"is_disabled":false,"rental_uris":{"android":"levelo://app?vid=4e19cff8-873a-443a-9f71-358916e3d391","ios":"levelo://app?vid=4e19cff8-873a-443a-9f71-358916e3d391"},"vehicle_type_id":"4","last_reported":1738861653,"current_range_meters":39200,"station_id":"ce4bhn12rcd13ifvqgqg","pricing_plan_id":"cebpf4jnsgd1na2vs0mg"},{"bike_id":"39a6b381-d477-4dc2-b0ea-4d3a0b487463","system_id":"levelo_inurba_marseille","lat":43.23961,"lon":5.36628,"is_reserved":false,"is_disabled":false,"rental_uris":{"android":"levelo://app?vid=39a6b381-d477-4dc2-b0ea-4d3a0b487463","ios":"levelo://app?vid=39a6b381-d477-4dc2-b0ea-4d3a0b487463"},"vehicle_type_id":"4","last_reported":1738861653,"current_range_meters":22800,"station_id":"ce4bhi12rcd13ifvqfp0","pricing_plan_id":"cebpf4jnsgd1na2vs0mg"},{"bike_id":"3edd8387-1e3c-40a0-abd8-8204bd59b20c","system_id":"levelo_inurba_marseille","lat":43.28105,"lon":5.37855,"is_reserved":false,"is_disabled":true,"rental_uris":{"android":"levelo://app?vid=3edd8387-1e3c-40a0-abd8-8204bd59b20c","ios":"levelo://app?vid=3edd8387-1e3c-40a0-abd8-8204bd59b20c"},"vehicle_type_id":"4","last_reported":1738861653,"current_range_meters":400,"station_id":"ce4bha12rcd13ifvqee0","pricing_plan_id":"cebpf4jnsgd1na2vs0mg"},{"bike_id":"b489a2fb-f21a-44df-86a6-3caf5e62ae78","system_id":"levelo_inurba_marseille","lat":43.2717,"lon":5.40999,"is_reserved":false,"is_disabled":false,"rental_uris":{"android":"levelo://app?vid=b489a2fb-f21a-44df-86a6-3caf5e62ae78","ios":"levelo://app?vid=b489a2fb-f21a-44df-86a6-3caf5e62ae78"},"vehicle_type_id":"4","last_reported":1738861653,"current_range_meters":38400,"station_id":"ce4bhl12rcd13ifvqgf0","pricing_plan_id":"cebpf4jnsgd1na2vs0mg"},{"bike_id":"17625ad2-e0e5-481a-b0cb-a49193c04b17","system_id":"levelo_inurba_marseille","lat":43.26792,"lon":5.39412,"is_reserved":false,"is_disabled":true,"rental_uris":{"android":"levelo://app?vid=17625ad2-e0e5-481a-b0cb-a49193c04b17","ios":"levelo://app?vid=17625ad2-e0e5-481a-b0cb-a49193c04b17"},"vehicle_type_id":"4","last_reported":1738861653,"current_range_meters":1600,"station_id":"ce4bhh12rcd13ifvqfg0","pricing_plan_id":"cebpf4jnsgd1na2vs0mg"},{"bike_id":"1402bcde-7d3d-41b9-bce1-e679c77a1cb9","system_id":"levelo_inurba_marseille","lat":43.31755,"lon":5.39021,"is_reserved":false,"is_disabled":false,"rental_uris":{"android":"levelo://app?vid=1402bcde-7d3d-41b9-bce1-e679c77a1cb9","ios":"levelo://app?vid=1402bcde-7d3d-41b9-bce1-e679c77a1cb9"},"vehicle_type_id":"4","last_reported":1738861653,"current_range_meters":9600,"station_id":"ce4bhqp2rcd13ifvqhng","pricing_plan_id":"cebpf4jnsgd1na2vs0mg"},{"bike_id":"7647d281-b3eb-44fd-9949-1712b06e89df","system_id":"levelo_inurba_marseille","lat":43.29588,"lon":5.3673,"is_reserved":false,"is_disabled":false,"rental_uris":{"android":"levelo://app?vid=7647d281-b3eb-44fd-9949-1712b06e89df","ios":"levelo://app?vid=7647d281-b3eb-44fd-9949-1712b06e89df"},"vehicle_type_id":"4","last_reported":1738861653,"current_range_meters":28800,"station_id":"ce4bgph2rcd13ifvqc2g","pricing_plan_id":"cebpf4jnsgd1na2vs0mg"},{"bike_id":"5200370d-22a6-4f7e-9300-c11c930c3fdd","system_id":"levelo_inurba_marseille","lat":43.33025,"lon":5.39045,"is_reserved":false,"is_disabled":false,"rental_uris":{"android":"levelo://app?vid=5200370d-22a6-4f7e-9300-c11c930c3fdd","ios":"levelo://app?vid=5200370d-22a6-4f7e-9300-c11c930c3fdd"},"vehicle_type_id":"4","last_reported":1738861653,"current_range_meters":17600,"station_id":"ce4bhr92rcd13ifvqhrg","pricing_plan_id":"cebpf4jnsgd1na2vs0mg"},{"bike_id":"303bbea2-df9e-4c93-b3a7-f50e14be254b","system_id":"levelo_inurba_marseille","lat":43.27206,"lon":5.39195,"is_reserved":false,"is_disabled":true,"rental_uris":{"android":"levelo://app?vid=303bbea2-df9e-4c93-b3a7-f50e14be254b","ios":"levelo://app?vid=303bbea2-df9e-4c93-b3a7-f50e14be254b"},"vehicle_type_id":"4","last_reported":1738861653,"current_range_meters":1600,"station_id":"ce4bhhp2rcd13ifvqfm0","pricing_plan_id":"cebpf4jnsgd1na2vs0mg"},{"bike_id":"5923a651-f715-48a6-bf47-e3802fbf4639","system_id":"levelo_inurba_marseille","lat":43.27367,"lon":5.36261,"is_reserved":false,"is_disabled":false,"rental_uris":{"android":"levelo://app?vid=5923a651-f715-48a6-bf47-e3802fbf4639","ios":"levelo://app?vid=5923a651-f715-48a6-bf47-e3802fbf4639"},"vehicle_type_id":"4","last_reported":1738861653,"current_range_meters":32800,"station_id":"ce4bhbh2rcd13ifvqeo0","pricing_plan_id":"cebpf4jnsgd1na2vs0mg"},{"bike_id":"23f32bf8-a7e5-42c6-9028-529e9efed07b","system_id":"levelo_inurba_marseille","lat":43.32552,"lon":5.41435,"is_reserved":false,"is_disabled":false,"rental_uris":{"android":"levelo://app?vid=23f32bf8-a7e5-42c6-9028-529e9efed07b","ios":"levelo://app?vid=23f32bf8-a7e5-42c6-9028-529e9efed07b"},"vehicle_type_id":"4","last_reported":1738861653,"current_range_meters":26000,"station_id":"ce4bhq12rcd13ifvqhhg","pricing_plan_id":"cebpf4jnsgd1na2vs0mg"},{"bike_id":"3daa41e9-ab09-4260-acd6-8556ac30abf4","system_id":"levelo_inurba_marseille","lat":43.30317,"lon":5.36922,"is_reserved":false,"is_disabled":false,"rental_uris":{"android":"levelo://app?vid=3daa41e9-ab09-4260-acd6-8556ac30abf4","ios":"levelo://app?vid=3daa41e9-ab09-4260-acd6-8556ac30abf4"},"vehicle_type_id":"4","last_reported":1738861653,"current_range_meters":26800,"station_id":"ce4bgqh2rcd13ifvqc5g","pricing_plan_id":"cebpf4jnsgd1na2vs0mg"},{"bike_id":"ec57b32a-b702-411e-b5e1-ae6bbfe52911","system_id":"levelo_inurba_marseille","lat":43.24166,"lon":5.36408,"is_reserved":false,"is_disabled":false,"rental_uris":{"android":"levelo://app?vid=ec57b32a-b702-411e-b5e1-ae6bbfe52911","ios":"levelo://app?vid=ec57b32a-b702-411e-b5e1-ae6bbfe52911"},"vehicle_type_id":"4","last_reported":1738861653,"current_range_meters":27600,"station_id":"cpo36qri1sfpv3e86is0","pricing_plan_id":"cebpf4jnsgd1na2vs0mg"},{"bike_id":"cff4da4d-58d5-4475-acbf-8575356acc9b","system_id":"levelo_inurba_marseille","lat":43.28414,"lon":5.375254,"is_reserved":false,"is_disabled":false,"rental_uris":{"android":"levelo://app?vid=cff4da4d-58d5-4475-acbf-8575356acc9b","ios":"levelo://app?vid=cff4da4d-58d5-4475-acbf-8575356acc9b"},"vehicle_type_id":"4","last_reported":1738861653,"current_range_meters":19200,"station_id":"ce4bh412rcd13ifvqds0","pricing_plan_id":"cebpf4jnsgd1na2vs0mg"},{"bike_id":"1c10140d-e1cc-4bed-a594-7f7379cba4e7","system_id":"levelo_inurba_marseille","lat":43.25714,"lon":5.41799,"is_reserved":false,"is_disabled":true,"rental_uris":{"android":"levelo://app?vid=1c10140d-e1cc-4bed-a594-7f7379cba4e7","ios":"levelo://app?vid=1c10140d-e1cc-4bed-a594-7f7379cba4e7"},"vehicle_type_id":"4","last_reported":1738861653,"current_range_meters":1600,"station_id":"","pricing_plan_id":"cebpf4jnsgd1na2vs0mg"},{"bike_id":"5bd66ba6-bed7-4b34-97fb-bc848349f7c1","system_id":"levelo_inurba_marseille","lat":43.29049,"lon":5.3592,"is_reserved":false,"is_disabled":false,"rental_uris":{"android":"levelo://app?vid=5bd66ba6-bed7-4b34-97fb-bc848349f7c1","ios":"levelo://app?vid=5bd66ba6-bed7-4b34-97fb-bc848349f7c1"},"vehicle_type_id":"4","last_reported":1738861653,"current_range_meters":39200,"station_id":"ce4bha92rcd13ifvqeg0","pricing_plan_id":"cebpf4jnsgd1na2vs0mg"},{"bike_id":"9d576308-6012-4313-bb09-296ad86e00b2","system_id":"levelo_inurba_marseille","lat":43.30878,"lon":5.3966,"is_reserved":false,"is_disabled":false,"rental_uris":{"android":"levelo://app?vid=9d576308-6012-4313-bb09-296ad86e00b2","ios":"levelo://app?vid=9d576308-6012-4313-bb09-296ad86e00b2"},"vehicle_type_id":"4","last_reported":1738861653,"current_range_meters":38800,"station_id":"ce4bh012rcd13ifvqcv0","pricing_plan_id":"cebpf4jnsgd1na2vs0mg"},{"bike_id":"9430d780-d972-4df5-b653-a3ac3f87e18d","system_id":"levelo_inurba_marseille","lat":43.32733,"lon":5.41832,"is_reserved":false,"is_disabled":false,"rental_uris":{"android":"levelo://app?vid=9430d780-d972-4df5-b653-a3ac3f87e18d","ios":"levelo://app?vid=9430d780-d972-4df5-b653-a3ac3f87e18d"},"vehicle_type_id":"4","last_reported":1738861653,"current_range_meters":28000,"station_id":"","pricing_plan_id":"cebpf4jnsgd1na2vs0mg"},{"bike_id":"ae0a9ce2-2dd1-4b0e-b033-acceee703c88","system_id":"levelo_inurba_marseille","lat":43.262131,"lon":5.374493,"is_reserved":false,"is_disabled":false,"rental_uris":{"android":"levelo://app?vid=ae0a9ce2-2dd1-4b0e-b033-acceee703c88","ios":"levelo://app?vid=ae0a9ce2-2dd1-4b0e-b033-acceee703c88"},"vehicle_type_id":"4","last_reported":1738861653,"current_range_meters":9200,"station_id":"ce4bhgp2rcd13ifvqfc0","pricing_plan_id":"cebpf4jnsgd1na2vs0mg"},