{"last_updated":1762610944,"ttl":60,"version":"2.2","data":{"bikes":[{"bike_id":"0f15ffad-5db5-4cc3-bb02-30979cda9ae7","system_id":"levelo_inurba_marseille","lat":43.21742,"lon":5.34612,"is_reserved":false,"is_disabled":false,"rental_uris":{"android":"levelo://app?vid=0f15ffad-5db5-4cc3-bb02-30979cda9ae7","ios":"levelo://app?vid=0f15ffad-5db5-4cc3-bb02-30979cda9ae7"},"vehicle_type_id":"4","last_reported":1762610944,"current_range_meters":2800,"station_id":"st_cvj6r9ubvosntc0bgbag","pricing_plan_id":"cebpf4jnsgd1na2vs0mg"},{"bike_id":"13952117-aa92-41f3-b28f-86cfb79620ba","system_id":"levelo_inurba_marseille","lat":43.229329,"lon":5.353746,"is_reserved":false,"is_disabled":false,"rental_uris":{"android":"levelo://app?vid=13952117-aa92-41f3-b28f-86cfb79620ba","ios":"levelo://app?vid=13952117-aa92-41f3-b28f-86cfb79620ba"},"vehicle_type_id":"4","last_reported":1762610944,"current_range_meters":2800,"station_id":"cpo3532slgdg3j2ikp40","pricing_plan_id":"cebpf4jnsgd1na2vs0mg"},{"bike_id":"90f78211-ad7c-44dd-887d-cae76cd57fbc","system_id":"levelo_inurba_marseille","lat":43.253408,"lon":5.421704,"is_reserved":false,"is_disabled":false,"rental_uris":{"android":"levelo://app?vid=90f78211-ad7c-44dd-887d-cae76cd57fbc","ios":"levelo://app?vid=90f78211-ad7c-44dd-887d-cae76cd57fbc"},"vehicle_type_id":"4","last_reported":1762610944,"current_range_meters":2800,"station_id":"","pricing_plan_id":"cebpf4jnsgd1na2vs0mg"},{"bike_id":"a9209167-81d7-40c2-9e2e-d551de1eeaf3","system_id":"levelo_inurba_marseille","lat":43.30651,"lon":5.37354,"is_reserved":false,"is_disabled":false,"rental_uris":{"android":"levelo://app?vid=a9209167-81d7-40c2-9e2e-d551de1eeaf3","ios":"levelo://app?vid=a9209167-81d7-40c2-9e2e-d551de1eeaf3"},"vehicle_type_id":"4","last_reported":1762610944,"current_range_meters":2800,"station_id":"","pricing_plan_id":"cebpf4jnsgd1na2vs0mg"},{"bike_id":"e55be07c-8b9d-48bd-b652-925bdd623b93","system_id":"levelo_inurba_marseille","lat":43.3107,"lon":5.38364,"is_reserved":false,"is_disabled":false,"rental_uris":{"android":"levelo://app?vid=e55be07c-8b9d-48bd-b652-925bdd623b93","ios":"levelo://app?vid=e55be07c-8b9d-48bd-b652-925bdd623b93"},"vehicle_type_id":"4","last_reported":1762610944,"current_range_meters":2800,"station_id":"ce4bgv92rcd13ifvqcr0","pricing_plan_id":"cebpf4jnsgd1na2vs0mg"},{"bike_id":"2936e050-f6f5-406d-94a4-079e4eb7b1bf","system_id":"levelo_inurba_marseille","lat":43.330224,"lon":5.390511,"is_reserved":false,"is_disabled":false,"rental_uris":{"android":"levelo://app?vid=2936e050-f6f5-406d-94a4-079e4eb7b1bf","ios":"levelo://app?vid=2936e050-f6f5-406d-94a4-079e4eb7b1bf"},"vehicle_type_id":"4","last_reported":1762610944,"current_range_meters":2800,"station_id":"ce4bhr92rcd13ifvqhrg","pricing_plan_id":"cebpf4jnsgd1na2vs0mg"},{"bike_id":"1c45e7a2-9d3d-4684-b6ef-3c27704e5539","system_id":"levelo_inurba_marseille","lat":43.30542,"lon":5.36551,"is_reserved":false,"is_disabled":false,"rental_uris":{"android":"levelo://app?vid=1c45e7a2-9d3d-4684-b6ef-3c27704e5539","ios":"levelo://app?vid=1c45e7a2-9d3d-4684-b6ef-3c27704e5539"},"vehicle_type_id":"4","last_reported":1762610944,"current_range_meters":2800,"station_id":"ce4bgs12rcd13ifvqcag","pricing_plan_id":"cebpf4jnsgd1na2vs0mg"},{"bike_id":"28868a57-d8fc-4a16-bafb-8f42a50b9e09","system_id":"levelo_inurba_marseille","lat":43.30792,"lon":5.3817,"is_reserved":false,"is_disabled":false,"rental_uris":{"android":"levelo://app?vid=28868a57-d8fc-4a16-bafb-8f42a50b9e09","ios":"levelo://app?vid=28868a57-d8fc-4a16-bafb-8f42a50b9e09"},"vehicle_type_id":"4","last_reported":1762610944,"current_range_meters":2800,"station_id":"ce4bgt12rcd13ifvqce0","pricing_plan_id":"cebpf4jnsgd1na2vs0mg"},{"bike_id":"8012b752-ec52-4ec5-a742-cc4164267723","system_id":"levelo_inurba_marseille","lat":43.250894,"lon":5.395208,"is_reserved":false,"is_disabled":false,"rental_uris":{"android":"levelo://app?vid=8012b752-ec52-4ec5-a742-cc4164267723","ios":"levelo://app?vid=8012b752-ec52-4ec5-a742-cc4164267723"},"vehicle_type_id":"4","last_reported":1762610944,"current_range_meters":2800,"station_id":"ce4bhm12rcd13ifvqgkg","pricing_plan_id":"cebpf4jnsgd1na2vs0mg"},{"bike_id":"aa073d3c-91f3-4920-9d1e-90bf82850b1e","system_id":"levelo_inurba_marseille","lat":43.33757,"lon":5.3743,"is_reserved":false,"is_disabled":false,"rental_uris":{"android":"levelo://app?vid=aa073d3c-91f3-4920-9d1e-90bf82850b1e","ios":"levelo://app?vid=aa073d3c-91f3-4920-9d1e-90bf82850b1e"},"vehicle_type_id":"4","last_reported":1762610944,"current_range_meters":3200,"station_id":"","pricing_plan_id":"cebpf4jnsgd1na2vs0mg"},{"bike_id":"b8928caf-5bc8-4503-85f4-0c055d2586b9","system_id":"levelo_inurba_marseille","lat":43.30241,"lon":5.4005,"is_reserved":false,"is_disabled":false,"rental_uris":{"android":"levelo://app?vid=b8928caf-5bc8-4503-85f4-0c055d2586b9","ios":"levelo://app?vid=b8928caf-5bc8-4503-85f4-0c055d2586b9"},"vehicle_type_id":"4","last_reported":1762610944,"current_range_meters":3200,"station_id":"ce4bgvh2rcd13ifvqcs0","pricing_plan_id":"cebpf4jnsgd1na2vs0mg"},{"bike_id":"b191d67d-6728-44d8-9fc7-0fd97ab5a62e","system_id":"levelo_inurba_marseille","lat":43.231923,"lon":5.355516,"is_reserved":false,"is_disabled":false,"rental_uris":{"android":"levelo://app?vid=b191d67d-6728-44d8-9fc7-0fd97ab5a62e","ios":"levelo://app?vid=b191d67d-6728-44d8-9fc7-0fd97ab5a62e"},"vehicle_type_id":"4","last_reported":1762610944,"current_range_meters":3200,"station_id":"","pricing_plan_id":"cebpf4jnsgd1na2vs0mg"},{"bike_id":"d5d79ec1-5b03-4a0d-bbf5-32ebdf382ff9","system_id":"levelo_inurba_marseille","lat":43.2466,"lon":5.38168,"is_reserved":false,"is_disabled":false,"rental_uris":{"android":"levelo://app?vid=d5d79ec1-5b03-4a0d-bbf5-32ebdf382ff9","ios":"levelo://app?vid=d5d79ec1-5b03-4a0d-bbf5-32ebdf382ff9"},"vehicle_type_id":"4","last_reported":1762610944,"current_range_meters":3600,"station_id":"ce4bhih2rcd13ifvqfr0","pricing_plan_id":"cebpf4jnsgd1na2vs0mg"},{"bike_id":"6b92cdb1-1f4b-46a5-93de-9ca9052f703e","system_id":"levelo_inurba_marseille","lat":43.22566,"lon":5.41632,"is_reserved":false,"is_disabled":false,"rental_uris":{"android":"levelo://app?vid=6b92cdb1-1f4b-46a5-93de-9ca9052f703e","ios":"levelo://app?vid=6b92cdb1-1f4b-46a5-93de-9ca9052f703e"},"vehicle_type_id":"4","last_reported":1762610944,"current_range_meters":3600,"station_id":"st_d2o4gvlbi1j2169b742g","pricing_plan_id":"cebpf4jnsgd1na2vs0mg"},{"bike_id":"f6ca3376-6c37-4f5b-8212-007c073cf046","system_id":"levelo_inurba_marseille","lat":43.225537,"lon":5.416236,"is_reserved":false,"is_disabled":true,"rental_uris":{"android":"levelo://app?vid=f6ca3376-6c37-4f5b-8212-007c073cf046","ios":"levelo://app?vid=f6ca3376-6c37-4f5b-8212-007c073cf046"},"vehicle_type_id":"4","last_reported":1762610944,"current_range_meters":4000,"station_id":"st_d2o4gvlbi1j2169b742g","pricing_plan_id":"cebpf4jnsgd1na2vs0mg"},{"bike_id":"65e7e183-ec17-4938-80d7-5e5b91415b7d","system_id":"levelo_inurba_marseille","lat":43.251247,"lon":5.403171,"is_reserved":false,"is_disabled":false,"rental_uris":{"android":"levelo://app?vid=65e7e183-ec17-4938-80d7-5e5b91415b7d","ios":"levelo://app?vid=65e7e183-ec17-4938-80d7-5e5b91415b7d"},"vehicle_type_id":"4","last_reported":1762610944,"current_range_meters":4000,"station_id":"ce4bhlh2rcd13ifvqgig","pricing_plan_id":"cebpf4jnsgd1na2vs0mg"},{"bike_id":"788c1954-361b-4ce5-9936-c63465d56f57","system_id":"levelo_inurba_marseille","lat":43.28846,"lon":5.35846,"is_reserved":false,"is_disabled":false,"rental_uris":{"android":"levelo://app?vid=788c1954-361b-4ce5-9936-c63465d56f57","ios":"levelo://app?vid=788c1954-361b-4ce5-9936-c63465d56f57"},"vehicle_type_id":"4","last_reported":1762610944,"current_range_meters":4000,"station_id":"ce4bhb12rcd13ifvqem0","pricing_plan_id":"cebpf4jnsgd1na2vs0mg"},{"bike_id":"59b31ef2-3fe3-46e5-b5a5-685f264695ce","system_id":"levelo_inurba_marseille","lat":43.28472,"lon":5.48399,"is_reserved":false,"is_disabled":false,"rental_uris":{"android":"levelo://app?vid=59b31ef2-3fe3-46e5-b5a5-685f264695ce","ios":"levelo://app?vid=59b31ef2-3fe3-46e5-b5a5-685f264695ce"},"vehicle_type_id":"4","last_reported":1762610944,"current_range_meters":4000,"station_id":"","pricing_plan_id":"cebpf4jnsgd1na2vs0mg"},{"bike_id":"243488c6-f247-4256-893e-950efe6a60dd","system_id":"levelo_inurba_marseille","lat":43.278318,"lon":5.392004,"is_reserved":false,"is_disabled":false,"rental_uris":{"android":"levelo://app?vid=243488c6-f247-4256-893e-950efe6a60dd","ios":"levelo://app?vid=243488c6-f247-4256-893e-950efe6a60dd"},"vehicle_type_id":"4","last_reported":1762610944,"current_range_meters":4000,"station_id":"ce4bhjp2rcd13ifvqga0","pricing_plan_id":"cebpf4jnsgd1na2vs0mg"},{"bike_id":"1c6bc4d8-4da5-45ff-af52-f68cec0dacd6","system_id":"levelo_inurba_marseille","lat":43.304,"lon":5.41279,"is_reserved":false,"is_disabled":false,"rental_uris":{"android":"levelo://app?vid=1c6bc4d8-4da5-45ff-af52-f68cec0dacd6","ios":"levelo://app?vid=1c6bc4d8-4da5-45ff-af52-f68cec0dacd6"},"vehicle_type_id":"4","last_reported":1762610944,"current_range_meters":4000,"station_id":"ce4bhop2rcd13ifvqh8g","pricing_plan_id":"cebpf4jnsgd1na2vs0mg"},{"bike_id":"6c3d9c86-66e0-4ae4-b7aa-284baf15ae7b","system_id":"levelo_inurba_marseille","lat":43.30953,"lon":5.39047,"is_reserved":false,"is_disabled":false,"rental_uris":{"android":"levelo://app?vid=6c3d9c86-66e0-4ae4-b7aa-284baf15ae7b","ios":"levelo://app?vid=6c3d9c86-66e0-4ae4-b7aa-284baf15ae7b"},"vehicle_type_id":"4","last_reported":1762610944,"current_range_meters":4000,"station_id":"ce4bgup2rcd13ifvqco0","pricing_plan_id":"cebpf4jnsgd1na2vs0mg"},{"bike_id":"5ce732eb-c17b-4672-82e1-82457c5493d5","system_id":"levelo_inurba_marseille","lat":43.31163,"lon":5.38718,"is_reserved":false,"is_disabled":false,"rental_uris":{"android":"levelo://app?vid=5ce732eb-c17b-4672-82e1-82457c5493d5","ios":"levelo://app?vid=5ce732eb-c17b-4672-82e1-82457c5493d5"},"vehicle_type_id":"4","last_reported":1762610944,"current_range_meters":4400,"station_id":"ce4bgv12rcd13ifvqcp0","pricing_plan_id":"cebpf4jnsgd1na2vs0mg"},{"bike_id":"32c4054d-c111-4f1c-b188-9138aed42210","system_id":"levelo_inurba_marseille","lat":43.31979,"lon":5.41606,"is_reserved":false,"is_disabled":false,"rental_uris":{"android":"levelo://app?vid=32c4054d-c111-4f1c-b188-9138aed42210","ios":"levelo://app?vid=32c4054d-c111-4f1c-b188-9138aed42210"},"vehicle_type_id":"4","last_reported":1762610944,"current_range_meters":4400,"station_id":"","pricing_plan_id":"cebpf4jnsgd1na2vs0mg"},{"bike_id":"ab3a4d6b-b442-44b9-8f02-c1c222f445ba","system_id":"levelo_inurba_marseille","lat":43.27497,"lon":5.39233,"is_reserved":false,"is_disabled":false,"rental_uris":{"android":"levelo://app?vid=ab3a4d6b-b442-44b9-8f02-c1c222f445ba","ios":"levelo://app?vid=ab3a4d6b-b442-44b9-8f02-c1c222f445ba"},"vehicle_type_id":"4","last_reported":1762610944,"current_range_meters":4800,"station_id":"","pricing_plan_id":"cebpf4jnsgd1na2vs0mg"},{"bike_id":"20b55085-fea7-4256-8c0f-1e5454c5ecc8","system_id":"levelo_inurba_marseille","lat":43.24546,"lon":5.39525,"is_reserved":false,"is_disabled":false,"rental_uris":{"android":"levelo://app?vid=20b55085-fea7-4256-8c0f-1e5454c5ecc8","ios":"levelo://app?vid=20b55085-fea7-4256-8c0f-1e5454c5ecc8"},"vehicle_type_id":"4","last_reported":1762610944,"current_range_meters":4800,"station_id":"ce4bhlp2rcd13ifvqgjg","pricing_plan_id":"cebpf4jnsgd1na2vs0mg"},{"bike_id":"c7468faa-2169-4a21-b383-32f760169882","system_id":"levelo_inurba_marseille","lat":43.29729,"lon":5.37698,"is_reserved":false,"is_disabled":false,"rental_uris":{"android":"levelo://app?vid=c7468faa-2169-4a21-b383-32f760169882","ios":"levelo://app?vid=c7468faa-2169-4a21-b383-32f760169882"},"vehicle_type_id":"4","last_reported":1762610944,"current_range_meters":4800,"station_id":"","pricing_plan_id":"cebpf4jnsgd1na2vs0mg"},{"bike_id":"91d5d540-0092-4c8e-afc4-e6a1c0f587ee","system_id":"levelo_inurba_marseille","lat":43.31709,"lon":5.40462,"is_reserved":false,"is_disabled":false,"rental_uris":{"android":"levelo://app?vid=91d5d540-0092-4c8e-afc4-e6a1c0f587ee","ios":"levelo://app?vid=91d5d540-0092-4c8e-afc4-e6a1c0f587ee"},"vehicle_type_id":"4","last_reported":1762610944,"current_range_meters":5600,"station_id":"ce4bh012rcd13ifvqd00","pricing_plan_id":"cebpf4jnsgd1na2vs0mg"},{"bike_id":"7e2e7ff2-6266-461e-a5ae-46f0580f6218","system_id":"levelo_inurba_marseille","lat":43.301564,"lon":5.380711,"is_reserved":false,"is_disabled":false,"rental_uris":{"android":"levelo://app?vid=7e2e7ff2-6266-461e-a5ae-46f0580f6218","ios":"levelo://app?vid=7e2e7ff2-6266-461e-a5ae-46f0580f6218"},"vehicle_type_id":"4","last_reported":1762610944,"current_range_meters":5600,"station_id":"ce4bgjp2rcd13ifvqbh0","pricing_plan_id":"cebpf4jnsgd1na2vs0mg"},{"bike_id":"acdc7342-c1a6-4a70-b129-b9cf7ad80643","system_id":"levelo_inurba_marseille","lat":43.21191,"lon":5.35084,"is_reserved":false,"is_disabled":false,"rental_uris":{"android":"levelo://app?vid=acdc7342-c1a6-4a70-b129-b9cf7ad80643","ios":"levelo://app?vid=acdc7342-c1a6-4a70-b129-b9cf7ad80643"},"vehicle_type_id":"4","last_reported":1762610944,"current_range_meters":5600,"station_id":"st_cvj6sg6p6f1abm77japg","pricing_plan_id":"cebpf4jnsgd1na2vs0mg"},{"bike_id":"7f054549-addc-42bc-96a0-a28aaae52738","system_id":"levelo_inurba_marseille","lat":43.23964,"lon":5.36637,"is_reserved":false,"is_disabled":false,"rental_uris":{"android":"levelo://app?vid=7f054549-addc-42bc-96a0-a28aaae52738","ios":"levelo://app?vid=7f054549-addc-42bc-96a0-a28aaae52738"},"vehicle_type_id":"4","last_reported":1762610944,"current_range_meters":5600,"station_id":"ce4bhi12rcd13ifvqfp0","pricing_plan_id":"cebpf4jnsgd1na2vs0mg"},{"bike_id":"08f3cd91-0149-40ea-bb48-b23c590d20cb","system_id":"levelo_inurba_marseille","lat":43.3009,"lon":5.39074,"is_reserved":false,"is_disabled":false,"rental_uris":{"android":"levelo://app?vid=08f3cd91-0149-40ea-bb48-b23c590d20cb","ios":"levelo://app?vid=08f3cd91-0149-40ea-bb48-b23c590d20cb"},"vehicle_type_id":"4","last_reported":1762610944,"current_range_meters":5600,"station_id":"ce4bh192rcd13ifvqdb0","pricing_plan_id":"cebpf4jnsgd1na2vs0mg"},{"bike_id":"a66b2e61-539e-4f55-9e09-6b0d01173ea0","system_id":"levelo_inurba_marseille","lat":43.2586,"lon":5.39903,"is_reserved":false,"is_disabled":false,"rental_uris":{"android":"levelo://app?vid=a66b2e61-539e-4f55-9e09-6b0d01173ea0","ios":"levelo://app?vid=a66b2e61-539e-4f55-9e09-6b0d01173ea0"},"vehicle_type_id":"4","last_reported":1762610944,"current_range_meters":5600,"station_id":"ce4bhl92rcd13ifvqghg","pricing_plan_id":"cebpf4jnsgd1na2vs0mg"},{"bike_id":"05c639a2-6660-40ed-a12f-85b485fe188e","system_id":"levelo_inurba_marseille","lat":43.292185,"lon":5.357742,"is_reserved":false,"is_disabled":false,"rental_uris":{"android":"levelo://app?vid=05c639a2-6660-40ed-a12f-85b485fe188e","ios":"levelo://app?vid=05c639a2-6660-40ed-a12f-85b485fe188e"},"vehicle_type_id":"4","last_reported":1762610944,"current_range_meters":6000,"station_id":"ce4bhb12rcd13ifvqel0","pricing_plan_id":"cebpf4jnsgd1na2vs0mg"},{"bike_id":"964c6a1d-247c-49b9-bc4d-13e9e5309efe","system_id":"levelo_inurba_marseille","lat":43.30791,"lon":5.43534,"is_reserved":false,"is_disabled":false,"rental_uris":{"android":"levelo://app?vid=964c6a1d-247c-49b9-bc4d-13e9e5309efe","ios":"levelo://app?vid=964c6a1d-247c-49b9-bc4d-13e9e5309efe"},"vehicle_type_id":"4","last_reported":1762610944,"current_range_meters":6000,"station_id":"","pricing_plan_id":"cebpf4jnsgd1na2vs0mg"},{"bike_id":"94216984-c7cc-4040-8f4b-fc6fb03c5547","system_id":"levelo_inurba_marseille","lat":43.29529,"lon":5.38551,"is_reserved":false,"is_disabled":false,"rental_uris":{"android":"levelo://app?vid=94216984-c7cc-4040-8f4b-fc6fb03c5547","ios":"levelo://app?vid=94216984-c7cc-4040-8f4b-fc6fb03c5547"},"vehicle_type_id":"4","last_reported":1762610944,"current_range_meters":6000,"station_id":"ce4bgih2rcd13ifvqba0","pricing_plan_id":"cebpf4jnsgd1na2vs0mg"},{"bike_id":"4640ebac-e3d3-4f24-9078-f6ee8e41e749","system_id":"levelo_inurba_marseille","lat":43.296263,"lon":5.406109,"is_reserved":false,"is_disabled":false,"rental_uris":{"android":"levelo://app?vid=4640ebac-e3d3-4f24-9078-f6ee8e41e749","ios":"levelo://app?vid=4640ebac-e3d3-4f24-9078-f6ee8e41e749"},"vehicle_type_id":"4","last_reported":1762610944,"current_range_meters":6000,"station_id":"ce4bhpp2rcd13ifvqhfg","pricing_plan_id":"cebpf4jnsgd1na2vs0mg"},{"bike_id":"eb24abaa-42f8-4aa2-877a-ad1372d28e2a","system_id":"levelo_inurba_marseille","lat":43.211898,"lon":5.35076,"is_reserved":false,"is_disabled":false,"rental_uris":{"android":"levelo://app?vid=eb24abaa-42f8-4aa2-877a-ad1372d28e2a","ios":"levelo://app?vid=eb24abaa-42f8-4aa2-877a-ad1372d28e2a"},"vehicle_type_id":"4","last_reported":1762610944,"current_range_meters":6400,"station_id":"st_cvj6sg6p6f1abm77japg","pricing_plan_id":"cebpf4jnsgd1na2vs0mg"},{"bike_id":"9b92eeab-2558-4d71-a292-78489abb4224","system_id":"levelo_inurba_marseille","lat":43.22928,"lon":5.35379,"is_reserved":false,"is_disabled":false,"rental_uris":{"android":"levelo://app?vid=9b92eeab-2558-4d71-a292-78489abb4224","ios":"levelo://app?vid=9b92eeab-2558-4d71-a292-78489abb4224"},"vehicle_type_id":"4","last_reported":1762610944,"current_range_meters":6400,"station_id":"cpo3532slgdg3j2ikp40","pricing_plan_id":"cebpf4jnsgd1na2vs0mg"},{"bike_id":"ef2fe57e-ecba-4765-96d3-8349654ec56e","system_id":"levelo_inurba_marseille","lat":43.32924,"lon":5.36412,"is_reserved":false,"is_disabled":false,"rental_uris":{"android":"levelo://app?vid=ef2fe57e-ecba-4765-96d3-8349654ec56e","ios":"levelo://app?vid=ef2fe57e-ecba-4765-96d3-8349654ec56e"},"vehicle_type_id":"4","last_reported":1762610944,"current_range_meters":6400,"station_id":"","pricing_plan_id":"cebpf4jnsgd1na2vs0mg"},{"bike_id":"f3236a2a-bcfa-443b-ab39-9d2baf91dbb5","system_id":"levelo_inurba_marseille","lat":43.21745,"lon":5.346023,"is_reserved":false,"is_disabled":false,"rental_uris":{"android":"levelo://app?vid=f3236a2a-bcfa-443b-ab39-9d2baf91dbb5","ios":"levelo://app?vid=f3236a2a-bcfa-443b-ab39-9d2baf91dbb5"},"vehicle_type_id":"4","last_reported":1762610944,"current_range_meters":6400,"station_id":"","pricing_plan_id":"cebpf4jnsgd1na2vs0mg"},{"bike_id":"cacc9b70-1010-44d1-bcdc-e192040ed3a2","system_id":"levelo_inurba_marseille","lat":43.30729,"lon":5.42441,"is_reserved":false,"is_disabled":false,"rental_uris":{"android":"levelo://app?vid=cacc9b70-1010-44d1-bcdc-e192040ed3a2","ios":"levelo://app?vid=cacc9b70-1010-44d1-bcdc-e192040ed3a2"},"vehicle_type_id":"4","last_reported":1762610944,"current_range_meters":6400,"station_id":"st_cvj6ca6bvosntc0bfgr0","pricing_plan_id":"cebpf4jnsgd1na2vs0mg"},{"bike_id":"f082f9f2-dcbd-4744-ae5a-9dc05c154bbc","system_id":"levelo_inurba_marseille","lat":43.28002,"lon":5.41664,"is_reserved":false,"is_disabled":false,"rental_uris":{"android":"levelo://app?vid=f082f9f2-dcbd-4744-ae5a-9dc05c154bbc","ios":"levelo://app?vid=f082f9f2-dcbd-4744-ae5a-9dc05c154bbc"},"vehicle_type_id":"4","last_reported":1762610944,"current_range_meters":6800,"station_id":"ce4bho12rcd13ifvqh1g","pricing_plan_id":"cebpf4jnsgd1na2vs0mg"},{"bike_id":"711b5184-06a1-46c6-b1ad-270408b914a4","system_id":"levelo_inurba_marseille","lat":43.29997,"lon":5.40989,"is_reserved":false,"is_disabled":false,"rental_uris":{"android":"levelo://app?vid=711b5184-06a1-46c6-b1ad-270408b914a4","ios":"levelo://app?vid=711b5184-06a1-46c6-b1ad-270408b914a4"},"vehicle_type_id":"4","last_reported":1762610944,"current_range_meters":6800,"station_id":"","pricing_plan_id":"cebpf4jnsgd1na2vs0mg"},{"bike_id":"3d1a1313-f29e-4572-805f-f02b3d431d76","system_id":"levelo_inurba_marseille","lat":43.31708,"lon":5.377633,"is_reserved":false,"is_disabled":false,"rental_uris":{"android":"levelo://app?vid=3d1a1313-f29e-4572-805f-f02b3d431d76","ios":"levelo://app?vid=3d1a1313-f29e-4572-805f-f02b3d431d76"},"vehicle_type_id":"4","last_reported":1762610944,"current_range_meters":6800,"station_id":"ce4bgth2rcd13ifvqch0","pricing_plan_id":"cebpf4jnsgd1na2vs0mg"},{"bike_id":"6580beb2-f281-473f-9ef4-7b331653ef2e","system_id":"levelo_inurba_marseille","lat":43.2912,"lon":5.408,"is_reserved":false,"is_disabled":false,"rental_uris":{"android":"levelo://app?vid=6580beb2-f281-473f-9ef4-7b331653ef2e","ios":"levelo://app?vid=6580beb2-f281-473f-9ef4-7b331653ef2e"},"vehicle_type_id":"4","last_reported":1762610944,"current_range_meters":6800,"station_id":"","pricing_plan_id":"cebpf4jnsgd1na2vs0mg"},{"bike_id":"c687f5b8-73fc-4bba-bdba-8dae557f7ae6","system_id":"levelo_inurba_marseille","lat":43.27376,"lon":5.36229,"is_reserved":false,"is_disabled":true,"rental_uris":{"android":"levelo://app?vid=c687f5b8-73fc-4bba-bdba-8dae557f7ae6","ios":"levelo://app?vid=c687f5b8-73fc-4bba-bdba-8dae557f7ae6"},"vehicle_type_id":"4","last_reported":1762610944,"current_range_meters":7200,"station_id":"ce4bhbh2rcd13ifvqeo0","pricing_plan_id":"cebpf4jnsgd1na2vs0mg"},{"bike_id":"348bf609-07f6-4ffc-add0-6df7615d023f","system_id":"levelo_inurba_marseille","lat":43.337669,"lon":5.37438,"is_reserved":false,"is_disabled":false,"rental_uris":{"android":"levelo://app?vid=348bf609-07f6-4ffc-add0-6df7615d023f","ios":"levelo://app?vid=348bf609-07f6-4ffc-add0-6df7615d023f"},"vehicle_type_id":"4","last_reported":1762610944,"current_range_meters":7200,"station_id":"","pricing_plan_id":"cebpf4jnsgd1na2vs0mg"},{"bike_id":"1bcf556a-cd70-435e-ab38-b42489b5d75e","system_id":"levelo_inurba_marseille","lat":43.27826,"lon":5.3921,"is_reserved":false,"is_disabled":false,"rental_uris":{"android":"levelo://app?vid=1bcf556a-cd70-435e-ab38-b42489b5d75e","ios":"levelo://app?vid=1bcf556a-cd70-435e-ab38-b42489b5d75e"},"vehicle_type_id":"4","last_reported":1762610944,"current_range_meters":7200,"station_id":"ce4bhjp2rcd13ifvqga0","pricing_plan_id":"cebpf4jnsgd1na2vs0mg"},{"bike_id":"34c14480-831b-41a9-b30b-a1e8f994a110","system_id":"levelo_inurba_marseille","lat":43.30839,"lon":5.37156,"is_reserved":false,"is_disabled":false,"rental_uris":{"android":"levelo://app?vid=34c14480-831b-41a9-b30b-a1e8f994a110","ios":"levelo://app?vid=34c14480-831b-41a9-b30b-a1e8f994a110"},"vehicle_type_id":"4","last_reported":1762610944,"current_range_meters":8000,"station_id":"","pricing_plan_id":"cebpf4jnsgd1na2vs0mg"},{"bike_id":"7c392732-2900-41fd-8c6d-e5b49cdf67b5","system_id":"levelo_inurba_marseille","lat":43.29693,"lon":5.38257,"is_reserved":false,"is_disabled":false,"rental_uris":{"android":"levelo://app?vid=7c392732-2900-41fd-8c6d-e5b49cdf67b5","ios":"levelo://app?vid=7c392732-2900-41fd-8c6d-e5b49cdf67b5"},"vehicle_type_id":"4","last_reported":1762610944,"current_range_meters":8000,"station_id":"","pricing_plan_id":"cebpf4jnsgd1na2vs0mg"},{"bike_id":"900a44b4-5b7a-426c-8937-9915fa286279","system_id":"levelo_inurba_marseille","lat":43.2256,"lon":5.41635,"is_reserved":false,"is_disabled":false,"rental_uris":{"android":"levelo://app?vid=900a44b4-5b7a-426c-8937-9915fa286279","ios":"levelo://app?vid=900a44b4-5b7a-426c-8937-9915fa286279"},"vehicle_type_id":"4","last_reported":1762610944,"current_range_meters":8000,"station_id":"st_d2o4gvlbi1j2169b742g","pricing_plan_id":"cebpf4jnsgd1na2vs0mg"},{"bike_id":"a871c7c5-9100-44da-a7e8-d2a44ef0ec29","system_id":"levelo_inurba_marseille","lat":43.25006,"lon":5.38967,"is_reserved":false,"is_disabled":false,"rental_uris":{"android":"levelo://app?vid=a871c7c5-9100-44da-a7e8-d2a44ef0ec29","ios":"levelo://app?vid=a871c7c5-9100-44da-a7e8-d2a44ef0ec29"},"vehicle_type_id":"4","last_reported":1762610944,"current_range_meters":8000,"station_id":"ce4bhgp2rcd13ifvqfd0","pricing_plan_id":"cebpf4jnsgd1na2vs0mg"},{"bike_id":"bc039d18-7e72-458f-bafa-32939dfbb741","system_id":"levelo_inurba_marseille","lat":43.22562,"lon":5.41639,"is_reserved":false,"is_disabled":false,"rental_uris":{"android":"levelo://app?vid=bc039d18-7e72-458f-bafa-32939dfbb741","ios":"levelo://app?vid=bc039d18-7e72-458f-bafa-32939dfbb741"},"vehicle_type_id":"4","last_reported":1762610944,"current_range_meters":8000,"station_id":"st_d2o4gvlbi1j2169b742g","pricing_plan_id":"cebpf4jnsgd1na2vs0mg"},{"bike_id":"78bd5f74-b07f-4aac-b566-26ecec6fd5df","system_id":"levelo_inurba_marseille","lat":43.30677,"lon":5.38068,"is_reserved":false,"is_disabled":false,"rental_uris":{"android":"levelo://app?vid=78bd5f74-b07f-4aac-b566-26ecec6fd5df","ios":"levelo://app?vid=78bd5f74-b07f-4aac-b566-26ecec6fd5df"},"vehicle_type_id":"4","last_reported":1762610944,"current_range_meters":8000,"station_id":"","pricing_plan_id":"cebpf4jnsgd1na2vs0mg"},{"bike_id":"5bee8f0f-57fe-4257-a72a-04a4967570b5","system_id":"levelo_inurba_marseille","lat":43.30048,"lon":5.37735,"is_reserved":false,"is_disabled":false,"rental_uris":{"android":"levelo://app?vid=5bee8f0f-57fe-4257-a72a-04a4967570b5","ios":"levelo://app?vid=5bee8f0f-57fe-4257-a72a-04a4967570b5"},"vehicle_type_id":"4","last_reported":1762610944,"current_range_meters":8000,"station_id":"","pricing_plan_id":"cebpf4jnsgd1na2vs0mg"},{"bike_id":"5c17ed12-8897-4f84-bbfc-85419a7f8038","system_id":"levelo_inurba_marseille","lat":43.27079,"lon":5.39472,"is_reserved":false,"is_disabled":false,"rental_uris":{"android":"levelo://app?vid=5c17ed12-8897-4f84-bbfc-85419a7f8038","ios":"levelo://app?vid=5c17ed12-8897-4f84-bbfc-85419a7f8038"},"vehicle_type_id":"4","last_reported":1762610944,"current_range_meters":8400,"station_id":"","pricing_plan_id":"cebpf4jnsgd1na2vs0mg"},{"bike_id":"a0ea519d-554f-42a0-93a3-d4c181552c78","system_id":"levelo_inurba_marseille","lat":43.31271,"lon":5.37752,"is_reserved":false,"is_disabled":false,"rental_uris":{"android":"levelo://app?vid=a0ea519d-554f-42a0-93a3-d4c181552c78","ios":"levelo://app?vid=a0ea519d-554f-42a0-93a3-d4c181552c78"},"vehicle_type_id":"4","last_reported":1762610944,"current_range_meters":8800,"station_id":"","pricing_plan_id":"cebpf4jnsgd1na2vs0mg"},{"bike_id":"3a6b939b-8483-4a00-8652-d825cdd856d7","system_id":"levelo_inurba_marseille","lat":43.22546,"lon":5.41627,"is_reserved":false,"is_disabled":false,"rental_uris":{"android":"levelo://app?vid=3a6b939b-8483-4a00-8652-d825cdd856d7","ios":"levelo://app?vid=3a6b939b-8483-4a00-8652-d825cdd856d7"},"vehicle_type_id":"4","last_reported":1762610944,"current_range_meters":8800,"station_id":"st_d2o4gvlbi1j2169b742g","pricing_plan_id":"cebpf4jnsgd1na2vs0mg"},{"bike_id":"ca5baad1-b33f-420b-80ab-3a365ff36954","system_id":"levelo_inurba_marseille","lat":43.29799,"lon":5.38089,"is_reserved":false,"is_disabled":false,"rental_uris":{"android":"levelo://app?vid=ca5baad1-b33f-420b-80ab-3a365ff36954","ios":"levelo://app?vid=ca5baad1-b33f-420b-80ab-3a365ff36954"},"vehicle_type_id":"4","last_reported":1762610944,"current_range_meters":8800,"station_id":"ce4bgip2rcd13ifvqbb0","pricing_plan_id":"cebpf4jnsgd1na2vs0mg"},{"bike_id":"c563cfba-5317-4808-88d8-c5ea7e7469eb","system_id":"levelo_inurba_marseille","lat":43.21183,"lon":5.3508,"is_reserved":false,"is_disabled":false,"rental_uris":{"android":"levelo://app?vid=c563cfba-5317-4808-88d8-c5ea7e7469eb","ios":"levelo://app?vid=c563cfba-5317-4808-88d8-c5ea7e7469eb"},"vehicle_type_id":"4","last_reported":1762610944,"current_range_meters":8800,"station_id":"st_cvj6sg6p6f1abm77japg","pricing_plan_id":"cebpf4jnsgd1na2vs0mg"},{"bike_id":"b61c4f73-9bc8-4541-8425-4b2ba09e552d","system_id":"levelo_inurba_marseille","lat":43.245487,"lon":5.395237,"is_reserved":false,"is_disabled":false,"rental_uris":{"android":"levelo://app?vid=b61c4f73-9bc8-4541-8425-4b2ba09e552d","ios":"levelo://app?vid=b61c4f73-9bc8-4541-8425-4b2ba09e552d"},"vehicle_type_id":"4","last_reported":1762610944,"current_range_meters":9200,"station_id":"ce4bhlp2rcd13ifvqgjg","pricing_plan_id":"cebpf4jnsgd1na2vs0mg"},{"bike_id":"4fd8566c-cfeb-4ccd-b3e6-77a3844048b4","system_id":"levelo_inurba_marseille","lat":43.25073,"lon":5.39531,"is_reserved":false,"is_disabled":false,"rental_uris":{"android":"levelo://app?vid=4fd8566c-cfeb-4ccd-b3e6-77a3844048b4","ios":"levelo://app?vid=4fd8566c-cfeb-4ccd-b3e6-77a3844048b4"},"vehicle_type_id":"4","last_reported":1762610944,"current_range_meters":9200,"station_id":"ce4bhm12rcd13ifvqgkg","pricing_plan_id":"cebpf4jnsgd1na2vs0mg"},{"bike_id":"22918fb7-a391-4f35-8c21-8eb60e2ab03f","system_id":"levelo_inurba_marseille","lat":43.22546,"lon":5.41637,"is_reserved":false,"is_disabled":false,"rental_uris":{"android":"levelo://app?vid=22918fb7-a391-4f35-8c21-8eb60e2ab03f","ios":"levelo://app?vid=22918fb7-a391-4f35-8c21-8eb60e2ab03f"},"vehicle_type_id":"4","last_reported":1762610944,"current_range_meters":9200,"station_id":"st_d2o4gvlbi1j2169b742g","pricing_plan_id":"cebpf4jnsgd1na2vs0mg"},{"bike_id":"78541c09-c923-4f85-b960-a0eef90d423b","system_id":"levelo_inurba_marseille","lat":43.2119,"lon":5.35092,"is_reserved":false,"is_disabled":false,"rental_uris":{"android":"levelo://app?vid=78541c09-c923-4f85-b960-a0eef90d423b","ios":"levelo://app?vid=78541c09-c923-4f85-b960-a0eef90d423b"},"vehicle_type_id":"4","last_reported":1762610944,"current_range_meters":9200,"station_id":"st_cvj6sg6p6f1abm77japg","pricing_plan_id":"cebpf4jnsgd1na2vs0mg"},{"bike_id":"310115a0-7bf2-4a4a-9d53-56bf6918e4d0","system_id":"levelo_inurba_marseille","lat":43.28486,"lon":5.48398,"is_reserved":false,"is_disabled":false,"rental_uris":{"android":"levelo://app?vid=310115a0-7bf2-4a4a-9d53-56bf6918e4d0","ios":"levelo://app?vid=310115a0-7bf2-4a4a-9d53-56bf6918e4d0"},"vehicle_type_id":"4","last_reported":1762610944,"current_range_meters":9600,"station_id":"st_d3svhcjqgbts73a3dn0g","pricing_plan_id":"cebpf4jnsgd1na2vs0mg"},{"bike_id":"4548bfb3-06f4-4b10-aaa4-465cca5b7e05","system_id":"levelo_inurba_marseille","lat":43.28539,"lon":5.44096,"is_reserved":false,"is_disabled":false,"rental_uris":{"android":"levelo://app?vid=4548bfb3-06f4-4b10-aaa4-465cca5b7e05","ios":"levelo://app?vid=4548bfb3-06f4-4b10-aaa4-465cca5b7e05"},"vehicle_type_id":"4","last_reported":1762610944,"current_range_meters":9600,"station_id":"st_d3j3df2ikq2c7380ej80","pricing_plan_id":"cebpf4jnsgd1na2vs0mg"},{"bike_id":"676f9b84-4eb4-49d4-bb45-1c4cb446cd66","system_id":"levelo_inurba_marseille","lat":43.3302,"lon":5.39054,"is_reserved":false,"is_disabled":false,"rental_uris":{"android":"levelo://app?vid=676f9b84-4eb4-49d4-bb45-1c4cb446cd66","ios":"levelo://app?vid=676f9b84-4eb4-49d4-bb45-1c4cb446cd66"},"vehicle_type_id":"4","last_reported":1762610944,"current_range_meters":9600,"station_id":"ce4bhr92rcd13ifvqhrg","pricing_plan_id":"cebpf4jnsgd1na2vs0mg"},{"bike_id":"8fb596e0-bbd4-4244-b739-bdba888f0bfb","system_id":"levelo_inurba_marseille","lat":43.27558,"lon":5.38436,"is_reserved":false,"is_disabled":false,"rental_uris":{"android":"levelo://app?vid=8fb596e0-bbd4-4244-b739-bdba888f0bfb","ios":"levelo://app?vid=8fb596e0-bbd4-4244-b739-bdba888f0bfb"},"vehicle_type_id":"4","last_reported":1762610944,"current_range_meters":9600,"station_id":"ce4bhh92rcd13ifvqfi0","pricing_plan_id":"cebpf4jnsgd1na2vs0mg"},{"bike_id":"51745a51-50e9-47ca-ad15-16aec392764a","system_id":"levelo_inurba_marseille","lat":43.30799,"lon":5.4353,"is_reserved":false,"is_disabled":false,"rental_uris":{"android":"levelo://app?vid=51745a51-50e9-47ca-ad15-16aec392764a","ios":"levelo://app?vid=51745a51-50e9-47ca-ad15-16aec392764a"},"vehicle_type_id":"4","last_reported":1762610944,"current_range_meters":9600,"station_id":"","pricing_plan_id":"cebpf4jnsgd1na2vs0mg"},{"bike_id":"e757b43b-ee76-40e2-8872-ef0bc02cc621","system_id":"levelo_inurba_marseille","lat":43.21746,"lon":5.34622,"is_reserved":false,"is_disabled":false,"rental_uris":{"android":"levelo://app?vid=e757b43b-ee76-40e2-8872-ef0bc02cc621","ios":"levelo://app?vid=e757b43b-ee76-40e2-8872-ef0bc02cc621"},"vehicle_type_id":"4","last_reported":1762610944,"current_range_meters":9600,"station_id":"st_cvj6r9ubvosntc0bgbag","pricing_plan_id":"cebpf4jnsgd1na2vs0mg"},{"bike_id":"abca2ab5-36b9-4530-8680-313f2a63b5d3","system_id":"levelo_inurba_marseille","lat":43.24995,"lon":5.3893,"is_reserved":false,"is_disabled":false,"rental_uris":{"android":"levelo://app?vid=abca2ab5-36b9-4530-8680-313f2a63b5d3","ios":"levelo://app?vid=abca2ab5-36b9-4530-8680-313f2a63b5d3"},"vehicle_type_id":"4","last_reported":1762610944,"current_range_meters":9600,"station_id":"ce4bhgp2rcd13ifvqfd0","pricing_plan_id":"cebpf4jnsgd1na2vs0mg"},{"bike_id":"44addc5c-7e68-4355-87cb-c64d5565c163","system_id":"levelo_inurba_marseille","lat":43.27961,"lon":5.38736,"is_reserved":false,"is_disabled":false,"rental_uris":{"android":"levelo://app?vid=44addc5c-7e68-4355-87cb-c64d5565c163","ios":"levelo://app?vid=44addc5c-7e68-4355-87cb-c64d5565c163"},"vehicle_type_id":"4","last_reported":1762610944,"current_range_meters":9600,"station_id":"ce4bhg12rcd13ifvqf80","pricing_plan_id":"cebpf4jnsgd1na2vs0mg"},{"bike_id":"febcdf09-2d2e-43c4-bae4-ca4eeca642af","system_id":"levelo_inurba_marseille","lat":43.2513,"lon":5.40326,"is_reserved":false,"is_disabled":false,"rental_uris":{"android":"levelo://app?vid=febcdf09-2d2e-43c4-bae4-ca4eeca642af","ios":"levelo://app?vid=febcdf09-2d2e-43c4-bae4-ca4eeca642af"},"vehicle_type_id":"4","last_reported":1762610944,"current_range_meters":9600,"station_id":"ce4bhlh2rcd13ifvqgig","pricing_plan_id":"cebpf4jnsgd1na2vs0mg"},{"bike_id":"f1b26a53-5227-432f-b381-f8246ff4387d","system_id":"levelo_inurba_marseille","lat":43.29262,"lon":5.38428,"is_reserved":false,"is_disabled":true,"rental_uris":{"android":"levelo://app?vid=f1b26a53-5227-432f-b381-f8246ff4387d","ios":"levelo://app?vid=f1b26a53-5227-432f-b381-f8246ff4387d"},"vehicle_type_id":"4","last_reported":1762610944,"current_range_meters":10000,"station_id":"ce4bh692rcd13ifvqea0","pricing_plan_id":"cebpf4jnsgd1na2vs0mg"},{"bike_id":"9af0687b-3e79-4e11-b844-dd239618aeba","system_id":"levelo_inurba_marseille","lat":43.28849,"lon":5.42562,"is_reserved":false,"is_disabled":false,"rental_uris":{"android":"levelo://app?vid=9af0687b-3e79-4e11-b844-dd239618aeba","ios":"levelo://app?vid=9af0687b-3e79-4e11-b844-dd239618aeba"},"vehicle_type_id":"4","last_reported":1762610944,"current_range_meters":10000,"station_id":"st_d3b462108ojc7389ooeg","pricing_plan_id":"cebpf4jnsgd1na2vs0mg"},{"bike_id":"cb7f5392-ae0a-4ba8-b998-2f6fbc338fe1","system_id":"levelo_inurba_marseille","lat":43.22553,"lon":5.41659,"is_reserved":false,"is_disabled":false,"rental_uris":{"android":"levelo://app?vid=cb7f5392-ae0a-4ba8-b998-2f6fbc338fe1","ios":"levelo://app?vid=cb7f5392-ae0a-4ba8-b998-2f6fbc338fe1"},"vehicle_type_id":"4","last_reported":1762610944,"current_range_meters":10800,"station_id":"st_d2o4gvlbi1j2169b742g","pricing_plan_id":"cebpf4jnsgd1na2vs0mg"},{"bike_id":"cdfa4ed9-36d0-494c-be53-e0d4e6af484a","system_id":"levelo_inurba_marseille","lat":43.2897,"lon":5.37841,"is_reserved":false,"is_disabled":false,"rental_uris":{"android":"levelo://app?vid=cdfa4ed9-36d0-494c-be53-e0d4e6af484a","ios":"levelo://app?vid=cdfa4ed9-36d0-494c-be53-e0d4e6af484a"},"vehicle_type_id":"4","last_reported":1762610944,"current_range_meters":10800,"station_id":"ce4bh9p2rcd13ifvqed0","pricing_plan_id":"cebpf4jnsgd1na2vs0mg"},{"bike_id":"277c4c42-3c70-40ef-b7c4-2cca499ddf14","system_id":"levelo_inurba_marseille","lat":43.29002,"lon":5.35608,"is_reserved":false,"is_disabled":false,"rental_uris":{"android":"levelo://app?vid=277c4c42-3c70-40ef-b7c4-2cca499ddf14","ios":"levelo://app?vid=277c4c42-3c70-40ef-b7c4-2cca499ddf14"},"vehicle_type_id":"4","last_reported":1762610944,"current_range_meters":10800,"station_id":"ce4bhb92rcd13ifvqen0","pricing_plan_id":"cebpf4jnsgd1na2vs0mg"},{"bike_id":"382f597e-181c-4839-b1de-04339df9aa55","system_id":"levelo_inurba_marseille","lat":43.26795,"lon":5.40282,"is_reserved":false,"is_disabled":true,"rental_uris":{"android":"levelo://app?vid=382f597e-181c-4839-b1de-04339df9aa55","ios":"levelo://app?vid=382f597e-181c-4839-b1de-04339df9aa55"},"vehicle_type_id":"4","last_reported":1762610944,"current_range_meters":10800,"station_id":"ce501612rcd8frsf0b60","pricing_plan_id":"cebpf4jnsgd1na2vs0mg"},{"bike_id":"a6d84678-eb98-4c3e-8b28-137768c4eb88","system_id":"levelo_inurba_marseille","lat":43.27948,"lon":5.39584,"is_reserved":false,"is_disabled":false,"rental_uris":{"android":"levelo://app?vid=a6d84678-eb98-4c3e-8b28-137768c4eb88","ios":"levelo://app?vid=a6d84678-eb98-4c3e-8b28-137768c4eb88"},"vehicle_type_id":"4","last_reported":1762610944,"current_range_meters":10800,"station_id":"ce4bhf92rcd13ifvqf40","pricing_plan_id":"cebpf4jnsgd1na2vs0mg"},{"bike_id":"26aad628-bd01-4664-890e-ba85447bad9f","system_id":"levelo_inurba_marseille","lat":43.303332,"lon":5.40429,"is_reserved":false,"is_disabled":true,"rental_uris":{"android":"levelo://app?vid=26aad628-bd01-4664-890e-ba85447bad9f","ios":"levelo://app?vid=26aad628-bd01-4664-890e-ba85447bad9f"},"vehicle_type_id":"4","last_reported":1762610944,"current_range_meters":10800,"station_id":"ce4bh012rcd13ifvqd10","pricing_plan_id":"cebpf4jnsgd1na2vs0mg"},{"bike_id":"91301678-9f94-4abe-8dfa-7f53021f0e9e","system_id":"levelo_inurba_marseille","lat":43.27205,"lon":5.39192,"is_reserved":false,"is_disabled":false,"rental_uris":{"android":"levelo://app?vid=91301678-9f94-4abe-8dfa-7f53021f0e9e","ios":"levelo://app?vid=91301678-9f94-4abe-8dfa-7f53021f0e9e"},"vehicle_type_id":"4","last_reported":1762610944,"current_range_meters":10800,"station_id":"ce4bhhp2rcd13ifvqfm0","pricing_plan_id":"cebpf4jnsgd1na2vs0mg"},{"bike_id":"46748178-17b8-4dc8-80b3-39159ff743e0","system_id":"levelo_inurba_marseille","lat":43.30027,"lon":5.38346,"is_reserved":false,"is_disabled":false,"rental_uris":{"android":"levelo://app?vid=46748178-17b8-4dc8-80b3-39159ff743e0","ios":"levelo://app?vid=46748178-17b8-4dc8-80b3-39159ff743e0"},"vehicle_type_id":"4","last_reported":1762610944,"current_range_meters":10800,"station_id":"","pricing_plan_id":"cebpf4jnsgd1na2vs0mg"},{"bike_id":"94499e4e-0682-4331-bef3-88be6e506111","system_id":"levelo_inurba_marseille","lat":43.28568,"lon":5.39493,"is_reserved":false,"is_disabled":false,"rental_uris":{"android":"levelo://app?vid=94499e4e-0682-4331-bef3-88be6e506111","ios":"levelo://app?vid=94499e4e-0682-4331-bef3-88be6e506111"},"vehicle_type_id":"4","last_reported":1762610944,"current_range_meters":10800,"station_id":"ce4bh292rcd13ifvqdg0","pricing_plan_id":"cebpf4jnsgd1na2vs0mg"},{"bike_id":"7a399f82-0892-45c9-a828-80f939bd334e","system_id":"levelo_inurba_marseille","lat":43.27376,"lon":5.3625,"is_reserved":false,"is_disabled":false,"rental_uris":{"android":"levelo://app?vid=7a399f82-0892-45c9-a828-80f939bd334e","ios":"levelo://app?vid=7a399f82-0892-45c9-a828-80f939bd334e"},"vehicle_type_id":"4","last_reported":1762610944,"current_range_meters":11200,"station_id":"ce4bhbh2rcd13ifvqeo0","pricing_plan_id":"cebpf4jnsgd1na2vs0mg"},{"bike_id":"8f7ca0cb-d088-4e21-9662-2ab4874d81ef","system_id":"levelo_inurba_marseille","lat":43.24677,"lon":5.38167,"is_reserved":false,"is_disabled":true,"rental_uris":{"android":"levelo://app?vid=8f7ca0cb-d088-4e21-9662-2ab4874d81ef","ios":"levelo://app?vid=8f7ca0cb-d088-4e21-9662-2ab4874d81ef"},"vehicle_type_id":"4","last_reported":1762610944,"current_range_meters":11200,"station_id":"ce4bhih2rcd13ifvqfr0","pricing_plan_id":"cebpf4jnsgd1na2vs0mg"},{"bike_id":"3e3ce3a7-c9d6-4ad0-9347-c503ef043e65","system_id":"levelo_inurba_marseille","lat":43.24786,"lon":5.37441,"is_reserved":false,"is_disabled":true,"rental_uris":{"android":"levelo://app?vid=3e3ce3a7-c9d6-4ad0-9347-c503ef043e65","ios":"levelo://app?vid=3e3ce3a7-c9d6-4ad0-9347-c503ef043e65"},"vehicle_type_id":"4","last_reported":1762610944,"current_range_meters":11200,"station_id":"ce4bhgh2rcd13ifvqfb0","pricing_plan_id":"cebpf4jnsgd1na2vs0mg"},{"bike_id":"6ff95486-ffed-4717-ab87-555580e0ad79","system_id":"levelo_inurba_marseille","lat":43.30481,"lon":5.37907,"is_reserved":false,"is_disabled":false,"rental_uris":{"android":"levelo://app?vid=6ff95486-ffed-4717-ab87-555580e0ad79","ios":"levelo://app?vid=6ff95486-ffed-4717-ab87-555580e0ad79"},"vehicle_type_id":"4","last_reported":1762610944,"current_range_meters":11200,"station_id":"ce4bgup2rcd13ifvqcn0","pricing_plan_id":"cebpf4jnsgd1na2vs0mg"},{"bike_id":"1a23ae65-e901-483b-a54b-fd4caba3c7b7","system_id":"levelo_inurba_marseille","lat":43.21739,"lon":5.34615,"is_reserved":false,"is_disabled":false,"rental_uris":{"android":"levelo://app?vid=1a23ae65-e901-483b-a54b-fd4caba3c7b7","ios":"levelo://app?vid=1a23ae65-e901-483b-a54b-fd4caba3c7b7"},"vehicle_type_id":"4","last_reported":1762610944,"current_range_meters":11200,"station_id":"st_cvj6r9ubvosntc0bgbag","pricing_plan_id":"cebpf4jnsgd1na2vs0mg"},{"bike_id":"dd8adb25-9e8e-43fe-a12d-dac2bdb94c25","system_id":"levelo_inurba_marseille","lat":43.30144,"lon":5.3806,"is_reserved":false,"is_disabled":false,"rental_uris":{"android":"levelo://app?vid=dd8adb25-9e8e-43fe-a12d-dac2bdb94c25","ios":"levelo://app?vid=dd8adb25-9e8e-43fe-a12d-dac2bdb94c25"},"vehicle_type_id":"4","last_reported":1762610944,"current_range_meters":11200,"station_id":"ce4bgjp2rcd13ifvqbh0","pricing_plan_id":"cebpf4jnsgd1na2vs0mg"},{"bike_id":"a4b610ef-5dc5-47fb-9228-87e17fe490d3","system_id":"levelo_inurba_marseille","lat":43.27057,"lon":5.42288,"is_reserved":false,"is_disabled":true,"rental_uris":{"android":"levelo://app?vid=a4b610ef-5dc5-47fb-9228-87e17fe490d3","ios":"levelo://app?vid=a4b610ef-5dc5-47fb-9228-87e17fe490d3"},"vehicle_type_id":"4","last_reported":1762610944,"current_range_meters":11200,"station_id":"ce4bhk92rcd13ifvqgb0","pricing_plan_id":"cebpf4jnsgd1na2vs0mg"},{"bike_id":"3b294fa9-3f9f-4381-a2a8-e3592d375a68","system_id":"levelo_inurba_marseille","lat":43.26693,"lon":5.39703,"is_reserved":false,"is_disabled":false,"rental_uris":{"android":"levelo://app?vid=3b294fa9-3f9f-4381-a2a8-e3592d375a68","ios":"levelo://app?vid=3b294fa9-3f9f-4381-a2a8-e3592d375a68"},"vehicle_type_id":"4","last_reported":1762610944,"current_range_meters":11200,"station_id":"","pricing_plan_id":"cebpf4jnsgd1na2vs0mg"},{"bike_id":"7a7fa84a-a4dc-42b2-87cc-a76bc7fad838","system_id":"levelo_inurba_marseille","lat":43.21751,"lon":5.34605,"is_reserved":false,"is_disabled":false,"rental_uris":{"android":"levelo://app?vid=7a7fa84a-a4dc-42b2-87cc-a76bc7fad838","ios":"levelo://app?vid=7a7fa84a-a4dc-42b2-87cc-a76bc7fad838"},"vehicle_type_id":"4","last_reported":1762610944,"current_range_meters":11200,"station_id":"st_cvj6r9ubvosntc0bgbag","pricing_plan_id":"cebpf4jnsgd1na2vs0mg"},{"bike_id":"b98c59d1-12c0-4a03-b198-cf728a9bdad0","system_id":"levelo_inurba_marseille","lat":43.29322,"lon":5.37155,"is_reserved":false,"is_disabled":false,"rental_uris":{"android":"levelo://app?vid=b98c59d1-12c0-4a03-b198-cf728a9bdad0","ios":"levelo://app?vid=b98c59d1-12c0-4a03-b198-cf728a9bdad0"},"vehicle_type_id":"4","last_reported":1762610944,"current_range_meters":11600,"station_id":"","pricing_plan_id":"cebpf4jnsgd1na2vs0mg"},{"bike_id":"e75dc382-b93a-4b27-a5b6-19e443fc701c","system_id":"levelo_inurba_marseille","lat":43.30322,"lon":5.40441,"is_reserved":false,"is_disabled":false,"rental_uris":{"android":"levelo://app?vid=e75dc382-b93a-4b27-a5b6-19e443fc701c","ios":"levelo://app?vid=e75dc382-b93a-4b27-a5b6-19e443fc701c"},"vehicle_type_id":"4","last_reported":1762610944,"current_range_meters":11600,"station_id":"ce4bh012rcd13ifvqd10","pricing_plan_id":"cebpf4jnsgd1na2vs0mg"},{"bike_id":"3bd39299-6c08-484e-bd8f-f4cac2d4e642","system_id":"levelo_inurba_marseille","lat":43.30943,"lon":5.401493,"is_reserved":false,"is_disabled":false,"rental_uris":{"android":"levelo://app?vid=3bd39299-6c08-484e-bd8f-f4cac2d4e642","ios":"levelo://app?vid=3bd39299-6c08-484e-bd8f-f4cac2d4e642"},"vehicle_type_id":"4","last_reported":1762610944,"current_range_meters":11600,"station_id":"ce4bgvp2rcd13ifvqct0","pricing_plan_id":"cebpf4jnsgd1na2vs0mg"},{"bike_id":"d510b29d-06c6-4a67-8cee-2182097a14e2","system_id":"levelo_inurba_marseille","lat":43.29264,"lon":5.37608,"is_reserved":false,"is_disabled":true,"rental_uris":{"android":"levelo://app?vid=d510b29d-06c6-4a67-8cee-2182097a14e2","ios":"levelo://app?vid=d510b29d-06c6-4a67-8cee-2182097a14e2"},"vehicle_type_id":"4","last_reported":1762610944,"current_range_meters":11600,"station_id":"ce4bgi12rcd13ifvqb80","pricing_plan_id":"cebpf4jnsgd1na2vs0mg"},{"bike_id":"6e57de1b-572f-4a71-ab35-1bf6d7745c26","system_id":"levelo_inurba_marseille","lat":43.28259,"lon":5.35074,"is_reserved":false,"is_disabled":false,"rental_uris":{"android":"levelo://app?vid=6e57de1b-572f-4a71-ab35-1bf6d7745c26","ios":"levelo://app?vid=6e57de1b-572f-4a71-ab35-1bf6d7745c26"},"vehicle_type_id":"4","last_reported":1762610944,"current_range_meters":11600,"station_id":"ce4bhbp2rcd13ifvqerg","pricing_plan_id":"cebpf4jnsgd1na2vs0mg"},{"bike_id":"e41a25ed-0582-4455-9c00-b8ca5ac4b0cb","system_id":"levelo_inurba_marseille","lat":43.211928,"lon":5.35073,"is_reserved":false,"is_disabled":false,"rental_uris":{"android":"levelo://app?vid=e41a25ed-0582-4455-9c00-b8ca5ac4b0cb","ios":"levelo://app?vid=e41a25ed-0582-4455-9c00-b8ca5ac4b0cb"},"vehicle_type_id":"4","last_reported":1762610944,"current_range_meters":11600,"station_id":"","pricing_plan_id":"cebpf4jnsgd1na2vs0mg"},{"bike_id":"65c6be5e-7566-45a1-99cf-c105e6b5b495","system_id":"levelo_inurba_marseille","lat":43.30142,"lon":5.38097,"is_reserved":false,"is_disabled":false,"rental_uris":{"android":"levelo://app?vid=65c6be5e-7566-45a1-99cf-c105e6b5b495","ios":"levelo://app?vid=65c6be5e-7566-45a1-99cf-c105e6b5b495"},"vehicle_type_id":"4","last_reported":1762610944,"current_range_meters":12000,"station_id":"ce4bgjp2rcd13ifvqbh0","pricing_plan_id":"cebpf4jnsgd1na2vs0mg"},{"bike_id":"08800a7f-3058-4ed0-a60f-c12bee9e25dd","system_id":"levelo_inurba_marseille","lat":43.246327,"lon":5.431444,"is_reserved":false,"is_disabled":false,"rental_uris":{"android":"levelo://app?vid=08800a7f-3058-4ed0-a60f-c12bee9e25dd","ios":"levelo://app?vid=08800a7f-3058-4ed0-a60f-c12bee9e25dd"},"vehicle_type_id":"4","last_reported":1762610944,"current_range_meters":12400,"station_id":"st_d2m6c4gdas8pm72e190g","pricing_plan_id":"cebpf4jnsgd1na2vs0mg"},{"bike_id":"3a883233-0ecd-4c8a-b631-843f83474ee0","system_id":"levelo_inurba_marseille","lat":43.29003,"lon":5.35613,"is_reserved":false,"is_disabled":false,"rental_uris":{"android":"levelo://app?vid=3a883233-0ecd-4c8a-b631-843f83474ee0","ios":"levelo://app?vid=3a883233-0ecd-4c8a-b631-843f83474ee0"},"vehicle_type_id":"4","last_reported":1762610944,"current_range_meters":12400,"station_id":"ce4bhb92rcd13ifvqen0","pricing_plan_id":"cebpf4jnsgd1na2vs0mg"},{"bike_id":"49e68feb-1cb7-4d86-ba9e-46d80b6bd4bc","system_id":"levelo_inurba_marseille","lat":43.2757,"lon":5.38412,"is_reserved":false,"is_disabled":false,"rental_uris":{"android":"levelo://app?vid=49e68feb-1cb7-4d86-ba9e-46d80b6bd4bc","ios":"levelo://app?vid=49e68feb-1cb7-4d86-ba9e-46d80b6bd4bc"},"vehicle_type_id":"4","last_reported":1762610944,"current_range_meters":12400,"station_id":"ce4bhh92rcd13ifvqfi0","pricing_plan_id":"cebpf4jnsgd1na2vs0mg"},{"bike_id":"05304b88-08bd-4258-888f-ad77e8550455","system_id":"levelo_inurba_marseille","lat":43.28037,"lon":5.36961,"is_reserved":false,"is_disabled":false,"rental_uris":{"android":"levelo://app?vid=05304b88-08bd-4258-888f-ad77e8550455","ios":"levelo://app?vid=05304b88-08bd-4258-888f-ad77e8550455"},"vehicle_type_id":"4","last_reported":1762610944,"current_range_meters":12400,"station_id":"ce4bha12rcd13ifvqef0","pricing_plan_id":"cebpf4jnsgd1na2vs0mg"},{"bike_id":"babfefc8-e634-4626-9cb1-11cb591fd23e","system_id":"levelo_inurba_marseille","lat":43.27049,"lon":5.38314,"is_reserved":false,"is_disabled":false,"rental_uris":{"android":"levelo://app?vid=babfefc8-e634-4626-9cb1-11cb591fd23e","ios":"levelo://app?vid=babfefc8-e634-4626-9cb1-11cb591fd23e"},"vehicle_type_id":"4","last_reported":1762610944,"current_range_meters":12800,"station_id":"st_d3n2fo6cfp8s73cte1j0","pricing_plan_id":"cebpf4jnsgd1na2vs0mg"},{"bike_id":"9fe52f71-2be7-401f-b267-830d5805cefc","system_id":"levelo_inurba_marseille","lat":43.241786,"lon":5.397335,"is_reserved":false,"is_disabled":false,"rental_uris":{"android":"levelo://app?vid=9fe52f71-2be7-401f-b267-830d5805cefc","ios":"levelo://app?vid=9fe52f71-2be7-401f-b267-830d5805cefc"},"vehicle_type_id":"4","last_reported":1762610944,"current_range_meters":12800,"station_id":"ce4bhn12rcd13ifvqgpg","pricing_plan_id":"cebpf4jnsgd1na2vs0mg"},{"bike_id":"25d84604-4dc3-4b6f-81a1-a91cae63f8b4","system_id":"levelo_inurba_marseille","lat":43.211964,"lon":5.350743,"is_reserved":false,"is_disabled":false,"rental_uris":{"android":"levelo://app?vid=25d84604-4dc3-4b6f-81a1-a91cae63f8b4","ios":"levelo://app?vid=25d84604-4dc3-4b6f-81a1-a91cae63f8b4"},"vehicle_type_id":"4","last_reported":1762610944,"current_range_meters":12800,"station_id":"st_cvj6sg6p6f1abm77japg","pricing_plan_id":"cebpf4jnsgd1na2vs0mg"},{"bike_id":"a0eb3759-4e5d-40e8-b2a1-911eb1f04685","system_id":"levelo_inurba_marseille","lat":43.3112,"lon":5.37761,"is_reserved":false,"is_disabled":false,"rental_uris":{"android":"levelo://app?vid=a0eb3759-4e5d-40e8-b2a1-911eb1f04685","ios":"levelo://app?vid=a0eb3759-4e5d-40e8-b2a1-911eb1f04685"},"vehicle_type_id":"4","last_reported":1762610944,"current_range_meters":12800,"station_id":"ce4bgt92rcd13ifvqcg0","pricing_plan_id":"cebpf4jnsgd1na2vs0mg"},{"bike_id":"e4835fbf-33d2-4030-86c6-da5ac038b167","system_id":"levelo_inurba_marseille","lat":43.27916,"lon":5.39577,"is_reserved":false,"is_disabled":false,"rental_uris":{"android":"levelo://app?vid=e4835fbf-33d2-4030-86c6-da5ac038b167","ios":"levelo://app?vid=e4835fbf-33d2-4030-86c6-da5ac038b167"},"vehicle_type_id":"4","last_reported":1762610944,"current_range_meters":13600,"station_id":"ce4bhf92rcd13ifvqf40","pricing_plan_id":"cebpf4jnsgd1na2vs0mg"},{"bike_id":"6ba0f1d1-5706-4a14-b89f-505a4c6aa756","system_id":"levelo_inurba_marseille","lat":43.29486,"lon":5.4332,"is_reserved":false,"is_disabled":false,"rental_uris":{"android":"levelo://app?vid=6ba0f1d1-5706-4a14-b89f-505a4c6aa756","ios":"levelo://app?vid=6ba0f1d1-5706-4a14-b89f-505a4c6aa756"},"vehicle_type_id":"4","last_reported":1762610944,"current_range_meters":13600,"station_id":"st_d3j5ugp08ojc73fj9d10","pricing_plan_id":"cebpf4jnsgd1na2vs0mg"},{"bike_id":"9665546a-43ec-4ef4-a189-6cd5b2900efa","system_id":"levelo_inurba_marseille","lat":43.28413,"lon":5.34992,"is_reserved":false,"is_disabled":false,"rental_uris":{"android":"levelo://app?vid=9665546a-43ec-4ef4-a189-6cd5b2900efa","ios":"levelo://app?vid=9665546a-43ec-4ef4-a189-6cd5b2900efa"},"vehicle_type_id":"4","last_reported":1762610944,"current_range_meters":13600,"station_id":"ce4bhbh2rcd13ifvqepg","pricing_plan_id":"cebpf4jnsgd1na2vs0mg"},{"bike_id":"ca06630c-cd58-47fd-a4f0-6635c015d1a3","system_id":"levelo_inurba_marseille","lat":43.30146,"lon":5.38118,"is_reserved":false,"is_disabled":false,"rental_uris":{"android":"levelo://app?vid=ca06630c-cd58-47fd-a4f0-6635c015d1a3","ios":"levelo://app?vid=ca06630c-cd58-47fd-a4f0-6635c015d1a3"},"vehicle_type_id":"4","last_reported":1762610944,"current_range_meters":13600,"station_id":"ce4bgjp2rcd13ifvqbh0","pricing_plan_id":"cebpf4jnsgd1na2vs0mg"},{"bike_id":"188ee9a4-4424-479c-b66e-2d027092307b","system_id":"levelo_inurba_marseille","lat":43.29857,"lon":5.36278,"is_reserved":false,"is_disabled":false,"rental_uris":{"android":"levelo://app?vid=188ee9a4-4424-479c-b66e-2d027092307b","ios":"levelo://app?vid=188ee9a4-4424-479c-b66e-2d027092307b"},"vehicle_type_id":"4","last_reported":1762610944,"current_range_meters":13600,"station_id":"ce4bgpp2rcd13ifvqc3g","pricing_plan_id":"cebpf4jnsgd1na2vs0mg"},{"bike_id":"6d36d24b-45ff-4665-bed5-de6a409cfd08","system_id":"levelo_inurba_marseille","lat":43.284696,"lon":5.384268,"is_reserved":false,"is_disabled":false,"rental_uris":{"android":"levelo://app?vid=6d36d24b-45ff-4665-bed5-de6a409cfd08","ios":"levelo://app?vid=6d36d24b-45ff-4665-bed5-de6a409cfd08"},"vehicle_type_id":"4","last_reported":1762610944,"current_range_meters":13600,"station_id":"ce4bh512rcd13ifvqe3g","pricing_plan_id":"cebpf4jnsgd1na2vs0mg"},{"bike_id":"36dc7b70-64a9-4e2d-9a64-5c5dd16e2fa2","system_id":"levelo_inurba_marseille","lat":43.23194,"lon":5.35552,"is_reserved":false,"is_disabled":false,"rental_uris":{"android":"levelo://app?vid=36dc7b70-64a9-4e2d-9a64-5c5dd16e2fa2","ios":"levelo://app?vid=36dc7b70-64a9-4e2d-9a64-5c5dd16e2fa2"},"vehicle_type_id":"4","last_reported":1762610944,"current_range_meters":14000,"station_id":"ce4bhu92rcd13ifvqi70","pricing_plan_id":"cebpf4jnsgd1na2vs0mg"},{"bike_id":"8df75e9a-a9ff-436f-8d99-4bd6a641b519","system_id":"levelo_inurba_marseille","lat":43.2957,"lon":5.37524,"is_reserved":false,"is_disabled":false,"rental_uris":{"android":"levelo://app?vid=8df75e9a-a9ff-436f-8d99-4bd6a641b519","ios":"levelo://app?vid=8df75e9a-a9ff-436f-8d99-4bd6a641b519"},"vehicle_type_id":"4","last_reported":1762610944,"current_range_meters":14000,"station_id":"ce4bgh92rcd13ifvqb50","pricing_plan_id":"cebpf4jnsgd1na2vs0mg"},{"bike_id":"1cb3caa2-a6c2-4318-965f-70da959eb0b9","system_id":"levelo_inurba_marseille","lat":43.29923,"lon":5.36533,"is_reserved":false,"is_disabled":false,"rental_uris":{"android":"levelo://app?vid=1cb3caa2-a6c2-4318-965f-70da959eb0b9","ios":"levelo://app?vid=1cb3caa2-a6c2-4318-965f-70da959eb0b9"},"vehicle_type_id":"4","last_reported":1762610944,"current_range_meters":14000,"station_id":"ce4bgm92rcd13ifvqbr0","pricing_plan_id":"cebpf4jnsgd1na2vs0mg"},{"bike_id":"39b0ad89-8a15-4d23-b8da-c0a219f35f4a","system_id":"levelo_inurba_marseille","lat":43.29305,"lon":5.37167,"is_reserved":false,"is_disabled":false,"rental_uris":{"android":"levelo://app?vid=39b0ad89-8a15-4d23-b8da-c0a219f35f4a","ios":"levelo://app?vid=39b0ad89-8a15-4d23-b8da-c0a219f35f4a"},"vehicle_type_id":"4","last_reported":1762610944,"current_range_meters":14000,"station_id":"","pricing_plan_id":"cebpf4jnsgd1na2vs0mg"},{"bike_id":"d2991a60-dcfa-4252-8f9d-bfff4b1dc433","system_id":"levelo_inurba_marseille","lat":43.310554,"lon":5.371208,"is_reserved":false,"is_disabled":false,"rental_uris":{"android":"levelo://app?vid=d2991a60-dcfa-4252-8f9d-bfff4b1dc433","ios":"levelo://app?vid=d2991a60-dcfa-4252-8f9d-bfff4b1dc433"},"vehicle_type_id":"4","last_reported":1762610944,"current_range_meters":14000,"station_id":"","pricing_plan_id":"cebpf4jnsgd1na2vs0mg"},{"bike_id":"4bce02cb-bdba-488a-a39f-eae80d4c7da8","system_id":"levelo_inurba_marseille","lat":43.28214,"lon":5.39067,"is_reserved":false,"is_disabled":true,"rental_uris":{"android":"levelo://app?vid=4bce02cb-bdba-488a-a39f-eae80d4c7da8","ios":"levelo://app?vid=4bce02cb-bdba-488a-a39f-eae80d4c7da8"},"vehicle_type_id":"4","last_reported":1762610944,"current_range_meters":14000,"station_id":"ce4bhn92rcd13ifvqgsg","pricing_plan_id":"cebpf4jnsgd1na2vs0mg"},{"bike_id":"aa8984f6-bec0-42bd-955b-e127fef39639","system_id":"levelo_inurba_marseille","lat":43.28041,"lon":5.3694,"is_reserved":false,"is_disabled":false,"rental_uris":{"android":"levelo://app?vid=aa8984f6-bec0-42bd-955b-e127fef39639","ios":"levelo://app?vid=aa8984f6-bec0-42bd-955b-e127fef39639"},"vehicle_type_id":"4","last_reported":1762610944,"current_range_meters":14400,"station_id":"ce4bha12rcd13ifvqef0","pricing_plan_id":"cebpf4jnsgd1na2vs0mg"},{"bike_id":"1368920f-8017-4a14-acde-3f2b0d8f828d","system_id":"levelo_inurba_marseille","lat":43.26956,"lon":5.40244,"is_reserved":false,"is_disabled":false,"rental_uris":{"android":"levelo://app?vid=1368920f-8017-4a14-acde-3f2b0d8f828d","ios":"levelo://app?vid=1368920f-8017-4a14-acde-3f2b0d8f828d"},"vehicle_type_id":"4","last_reported":1762610944,"current_range_meters":14400,"station_id":"cjm6bp8fraef2m0cb0m0","pricing_plan_id":"cebpf4jnsgd1na2vs0mg"},{"bike_id":"335f8062-bd43-4afd-ae41-709c2218acde","system_id":"levelo_inurba_marseille","lat":43.211908,"lon":5.350792,"is_reserved":false,"is_disabled":false,"rental_uris":{"android":"levelo://app?vid=335f8062-bd43-4afd-ae41-709c2218acde","ios":"levelo://app?vid=335f8062-bd43-4afd-ae41-709c2218acde"},"vehicle_type_id":"4","last_reported":1762610944,"current_range_meters":14400,"station_id":"st_cvj6sg6p6f1abm77japg","pricing_plan_id":"cebpf4jnsgd1na2vs0mg"},{"bike_id":"60209b82-f1fb-4fee-8b12-f869dd15efef","system_id":"levelo_inurba_marseille","lat":43.22926,"lon":5.35379,"is_reserved":false,"is_disabled":false,"rental_uris":{"android":"levelo://app?vid=60209b82-f1fb-4fee-8b12-f869dd15efef","ios":"levelo://app?vid=60209b82-f1fb-4fee-8b12-f869dd15efef"},"vehicle_type_id":"4","last_reported":1762610944,"current_range_meters":14400,"station_id":"cpo3532slgdg3j2ikp40","pricing_plan_id":"cebpf4jnsgd1na2vs0mg"},{"bike_id":"bdee318e-62da-43d5-99ab-c54c87a80166","system_id":"levelo_inurba_marseille","lat":43.25116,"lon":5.40317,"is_reserved":false,"is_disabled":false,"rental_uris":{"android":"levelo://app?vid=bdee318e-62da-43d5-99ab-c54c87a80166","ios":"levelo://app?vid=bdee318e-62da-43d5-99ab-c54c87a80166"},"vehicle_type_id":"4","last_reported":1762610944,"current_range_meters":14400,"station_id":"ce4bhlh2rcd13ifvqgig","pricing_plan_id":"cebpf4jnsgd1na2vs0mg"},{"bike_id":"a2636c61-db01-4fce-b849-089903df3024","system_id":"levelo_inurba_marseille","lat":43.30149,"lon":5.38072,"is_reserved":false,"is_disabled":false,"rental_uris":{"android":"levelo://app?vid=a2636c61-db01-4fce-b849-089903df3024","ios":"levelo://app?vid=a2636c61-db01-4fce-b849-089903df3024"},"vehicle_type_id":"4","last_reported":1762610944,"current_range_meters":14400,"station_id":"ce4bgjp2rcd13ifvqbh0","pricing_plan_id":"cebpf4jnsgd1na2vs0mg"},{"bike_id":"46ae0b31-faf4-4c4d-a43e-10e5927c28fe","system_id":"levelo_inurba_marseille","lat":43.29899,"lon":5.38163,"is_reserved":false,"is_disabled":false,"rental_uris":{"android":"levelo://app?vid=46ae0b31-faf4-4c4d-a43e-10e5927c28fe","ios":"levelo://app?vid=46ae0b31-faf4-4c4d-a43e-10e5927c28fe"},"vehicle_type_id":"4","last_reported":1762610944,"current_range_meters":14800,"station_id":"ce4bgj12rcd13ifvqbc0","pricing_plan_id":"cebpf4jnsgd1na2vs0mg"},{"bike_id":"ec811d3c-66cc-4bf2-b50c-97b9c074de64","system_id":"levelo_inurba_marseille","lat":43.211894,"lon":5.350738,"is_reserved":false,"is_disabled":false,"rental_uris":{"android":"levelo://app?vid=ec811d3c-66cc-4bf2-b50c-97b9c074de64","ios":"levelo://app?vid=ec811d3c-66cc-4bf2-b50c-97b9c074de64"},"vehicle_type_id":"4","last_reported":1762610944,"current_range_meters":14800,"station_id":"st_cvj6sg6p6f1abm77japg","pricing_plan_id":"cebpf4jnsgd1na2vs0mg"},{"bike_id":"3439a8cb-8214-4321-b614-d69fa7098072","system_id":"levelo_inurba_marseille","lat":43.312726,"lon":5.389501,"is_reserved":false,"is_disabled":false,"rental_uris":{"android":"levelo://app?vid=3439a8cb-8214-4321-b614-d69fa7098072","ios":"levelo://app?vid=3439a8cb-8214-4321-b614-d69fa7098072"},"vehicle_type_id":"4","last_reported":1762610944,"current_range_meters":14800,"station_id":"","pricing_plan_id":"cebpf4jnsgd1na2vs0mg"},{"bike_id":"968e9c29-84ee-4827-bcab-ac08bc4ab6d5","system_id":"levelo_inurba_marseille","lat":43.2927,"lon":5.36851,"is_reserved":false,"is_disabled":true,"rental_uris":{"android":"levelo://app?vid=968e9c29-84ee-4827-bcab-ac08bc4ab6d5","ios":"levelo://app?vid=968e9c29-84ee-4827-bcab-ac08bc4ab6d5"},"vehicle_type_id":"4","last_reported":1762610944,"current_range_meters":14800,"station_id":"ce4bhbp2rcd13ifvqesg","pricing_plan_id":"cebpf4jnsgd1na2vs0mg"},{"bike_id":"cfe6041c-eeb8-4331-88ac-3d89c3a5f24a","system_id":"levelo_inurba_marseille","lat":43.298461,"lon":5.362743,"is_reserved":false,"is_disabled":false,"rental_uris":{"android":"levelo://app?vid=cfe6041c-eeb8-4331-88ac-3d89c3a5f24a","ios":"levelo://app?vid=cfe6041c-eeb8-4331-88ac-3d89c3a5f24a"},"vehicle_type_id":"4","last_reported":1762610944,"current_range_meters":15200,"station_id":"ce4bgpp2rcd13ifvqc3g","pricing_plan_id":"cebpf4jnsgd1na2vs0mg"},{"bike_id":"8d2f5a46-55de-4d5b-b2e3-201af8e90acc","system_id":"levelo_inurba_marseille","lat":43.283756,"lon":5.350033,"is_reserved":false,"is_disabled":false,"rental_uris":{"android":"levelo://app?vid=8d2f5a46-55de-4d5b-b2e3-201af8e90acc","ios":"levelo://app?vid=8d2f5a46-55de-4d5b-b2e3-201af8e90acc"},"vehicle_type_id":"4","last_reported":1762610944,"current_range_meters":15200,"station_id":"ce4bhbh2rcd13ifvqepg","pricing_plan_id":"cebpf4jnsgd1na2vs0mg"},{"bike_id":"ca88d6f5-dff4-4b38-80e7-6038f272dbd5","system_id":"levelo_inurba_marseille","lat":43.28265,"lon":5.35088,"is_reserved":false,"is_disabled":true,"rental_uris":{"android":"levelo://app?vid=ca88d6f5-dff4-4b38-80e7-6038f272dbd5","ios":"levelo://app?vid=ca88d6f5-dff4-4b38-80e7-6038f272dbd5"},"vehicle_type_id":"4","last_reported":1762610944,"current_range_meters":15200,"station_id":"ce4bhbp2rcd13ifvqerg","pricing_plan_id":"cebpf4jnsgd1na2vs0mg"},{"bike_id":"2922600f-d584-4950-aefa-70c5fe9180b6","system_id":"levelo_inurba_marseille","lat":43.29246,"lon":5.36155,"is_reserved":false,"is_disabled":false,"rental_uris":{"android":"levelo://app?vid=2922600f-d584-4950-aefa-70c5fe9180b6","ios":"levelo://app?vid=2922600f-d584-4950-aefa-70c5fe9180b6"},"vehicle_type_id":"4","last_reported":1762610944,"current_range_meters":15200,"station_id":"","pricing_plan_id":"cebpf4jnsgd1na2vs0mg"},{"bike_id":"95565d88-4e0c-4b5d-b6d1-9a4c73bcb1f1","system_id":"levelo_inurba_marseille","lat":43.33762,"lon":5.37435,"is_reserved":false,"is_disabled":false,"rental_uris":{"android":"levelo://app?vid=95565d88-4e0c-4b5d-b6d1-9a4c73bcb1f1","ios":"levelo://app?vid=95565d88-4e0c-4b5d-b6d1-9a4c73bcb1f1"},"vehicle_type_id":"4","last_reported":1762610944,"current_range_meters":15200,"station_id":"","pricing_plan_id":"cebpf4jnsgd1na2vs0mg"},{"bike_id":"21dcb4e2-bef4-415f-aa59-cd0b9e2cb07b","system_id":"levelo_inurba_marseille","lat":43.22811,"lon":5.43506,"is_reserved":false,"is_disabled":false,"rental_uris":{"android":"levelo://app?vid=21dcb4e2-bef4-415f-aa59-cd0b9e2cb07b","ios":"levelo://app?vid=21dcb4e2-bef4-415f-aa59-cd0b9e2cb07b"},"vehicle_type_id":"4","last_reported":1762610944,"current_range_meters":15200,"station_id":"","pricing_plan_id":"cebpf4jnsgd1na2vs0mg"},{"bike_id":"f4d4d049-fbec-4f47-b846-d6a470d50439","system_id":"levelo_inurba_marseille","lat":43.283691,"lon":5.350172,"is_reserved":false,"is_disabled":false,"rental_uris":{"android":"levelo://app?vid=f4d4d049-fbec-4f47-b846-d6a470d50439","ios":"levelo://app?vid=f4d4d049-fbec-4f47-b846-d6a470d50439"},"vehicle_type_id":"4","last_reported":1762610944,"current_range_meters":16000,"station_id":"ce4bhbh2rcd13ifvqeqg","pricing_plan_id":"cebpf4jnsgd1na2vs0mg"},{"bike_id":"636d62dc-2436-431c-bbe1-fce53ca73ab8","system_id":"levelo_inurba_marseille","lat":43.21193,"lon":5.35067,"is_reserved":false,"is_disabled":false,"rental_uris":{"android":"levelo://app?vid=636d62dc-2436-431c-bbe1-fce53ca73ab8","ios":"levelo://app?vid=636d62dc-2436-431c-bbe1-fce53ca73ab8"},"vehicle_type_id":"4","last_reported":1762610944,"current_range_meters":16000,"station_id":"st_cvj6sg6p6f1abm77japg","pricing_plan_id":"cebpf4jnsgd1na2vs0mg"},{"bike_id":"25fd7d6d-bc1d-48dc-b741-729fe0e49332","system_id":"levelo_inurba_marseille","lat":43.253343,"lon":5.421719,"is_reserved":false,"is_disabled":false,"rental_uris":{"android":"levelo://app?vid=25fd7d6d-bc1d-48dc-b741-729fe0e49332","ios":"levelo://app?vid=25fd7d6d-bc1d-48dc-b741-729fe0e49332"},"vehicle_type_id":"4","last_reported":1762610944,"current_range_meters":16000,"station_id":"st_d2m65c5bi1j21697t3ng","pricing_plan_id":"cebpf4jnsgd1na2vs0mg"},{"bike_id":"800ad76d-56a9-4a36-af78-abde1833c811","system_id":"levelo_inurba_marseille","lat":43.25326,"lon":5.4219,"is_reserved":false,"is_disabled":false,"rental_uris":{"android":"levelo://app?vid=800ad76d-56a9-4a36-af78-abde1833c811","ios":"levelo://app?vid=800ad76d-56a9-4a36-af78-abde1833c811"},"vehicle_type_id":"4","last_reported":1762610944,"current_range_meters":16000,"station_id":"st_d2m65c5bi1j21697t3ng","pricing_plan_id":"cebpf4jnsgd1na2vs0mg"},{"bike_id":"d2ef9a00-ad73-4e5e-9533-9638c554f803","system_id":"levelo_inurba_marseille","lat":43.25006,"lon":5.38931,"is_reserved":false,"is_disabled":false,"rental_uris":{"android":"levelo://app?vid=d2ef9a00-ad73-4e5e-9533-9638c554f803","ios":"levelo://app?vid=d2ef9a00-ad73-4e5e-9533-9638c554f803"},"vehicle_type_id":"4","last_reported":1762610944,"current_range_meters":16400,"station_id":"ce4bhgp2rcd13ifvqfd0","pricing_plan_id":"cebpf4jnsgd1na2vs0mg"},{"bike_id":"15467e49-50c2-41ed-abfa-6765e0e1665d","system_id":"levelo_inurba_marseille","lat":43.29593,"lon":5.38094,"is_reserved":false,"is_disabled":false,"rental_uris":{"android":"levelo://app?vid=15467e49-50c2-41ed-abfa-6765e0e1665d","ios":"levelo://app?vid=15467e49-50c2-41ed-abfa-6765e0e1665d"},"vehicle_type_id":"4","last_reported":1762610944,"current_range_meters":16400,"station_id":"ce4bgl12rcd13ifvqbo0","pricing_plan_id":"cebpf4jnsgd1na2vs0mg"},{"bike_id":"53529ee7-fa79-4bfe-8ac3-2ffb63a46b11","system_id":"levelo_inurba_marseille","lat":43.31817,"lon":5.38844,"is_reserved":false,"is_disabled":false,"rental_uris":{"android":"levelo://app?vid=53529ee7-fa79-4bfe-8ac3-2ffb63a46b11","ios":"levelo://app?vid=53529ee7-fa79-4bfe-8ac3-2ffb63a46b11"},"vehicle_type_id":"4","last_reported":1762610944,"current_range_meters":16400,"station_id":"","pricing_plan_id":"cebpf4jnsgd1na2vs0mg"},{"bike_id":"c73c5513-728d-4700-9395-e31e4399cd51","system_id":"levelo_inurba_marseille","lat":43.29205,"lon":5.4033,"is_reserved":false,"is_disabled":false,"rental_uris":{"android":"levelo://app?vid=c73c5513-728d-4700-9395-e31e4399cd51","ios":"levelo://app?vid=c73c5513-728d-4700-9395-e31e4399cd51"},"vehicle_type_id":"4","last_reported":1762610944,"current_range_meters":16400,"station_id":"","pricing_plan_id":"cebpf4jnsgd1na2vs0mg"},{"bike_id":"15db09df-59b0-446a-87c5-e354a3319258","system_id":"levelo_inurba_marseille","lat":43.28477,"lon":5.48392,"is_reserved":false,"is_disabled":false,"rental_uris":{"android":"levelo://app?vid=15db09df-59b0-446a-87c5-e354a3319258","ios":"levelo://app?vid=15db09df-59b0-446a-87c5-e354a3319258"},"vehicle_type_id":"4","last_reported":1762610944,"current_range_meters":16400,"station_id":"","pricing_plan_id":"cebpf4jnsgd1na2vs0mg"},{"bike_id":"3c51c6cc-d70e-48a5-a898-2f425720f925","system_id":"levelo_inurba_marseille","lat":43.25733,"lon":5.38711,"is_reserved":false,"is_disabled":false,"rental_uris":{"android":"levelo://app?vid=3c51c6cc-d70e-48a5-a898-2f425720f925","ios":"levelo://app?vid=3c51c6cc-d70e-48a5-a898-2f425720f925"},"vehicle_type_id":"4","last_reported":1762610944,"current_range_meters":16400,"station_id":"","pricing_plan_id":"cebpf4jnsgd1na2vs0mg"},{"bike_id":"06b572d6-d95a-4f1a-9a9a-b316897ad6d5","system_id":"levelo_inurba_marseille","lat":43.29545,"lon":5.3752,"is_reserved":false,"is_disabled":false,"rental_uris":{"android":"levelo://app?vid=06b572d6-d95a-4f1a-9a9a-b316897ad6d5","ios":"levelo://app?vid=06b572d6-d95a-4f1a-9a9a-b316897ad6d5"},"vehicle_type_id":"4","last_reported":1762610944,"current_range_meters":16400,"station_id":"ce4bgkp2rcd13ifvqbmg","pricing_plan_id":"cebpf4jnsgd1na2vs0mg"},{"bike_id":"95c2a582-1eba-4ebc-bdda-a353604dc20d","system_id":"levelo_inurba_marseille","lat":43.312483,"lon":5.368408,"is_reserved":false,"is_disabled":false,"rental_uris":{"android":"levelo://app?vid=95c2a582-1eba-4ebc-bdda-a353604dc20d","ios":"levelo://app?vid=95c2a582-1eba-4ebc-bdda-a353604dc20d"},"vehicle_type_id":"4","last_reported":1762610944,"current_range_meters":16400,"station_id":"ce4bgl92rcd13ifvqbq0","pricing_plan_id":"cebpf4jnsgd1na2vs0mg"},{"bike_id":"3b7775ad-2738-4233-92b3-b9b1ae4317e3","system_id":"levelo_inurba_marseille","lat":43.22929,"lon":5.35396,"is_reserved":false,"is_disabled":false,"rental_uris":{"android":"levelo://app?vid=3b7775ad-2738-4233-92b3-b9b1ae4317e3","ios":"levelo://app?vid=3b7775ad-2738-4233-92b3-b9b1ae4317e3"},"vehicle_type_id":"4","last_reported":1762610944,"current_range_meters":16400,"station_id":"cpo3532slgdg3j2ikp40","pricing_plan_id":"cebpf4jnsgd1na2vs0mg"},{"bike_id":"bb93e03e-9778-4d27-af64-461ba8ec3fcc","system_id":"levelo_inurba_marseille","lat":43.272094,"lon":5.391849,"is_reserved":false,"is_disabled":false,"rental_uris":{"android":"levelo://app?vid=bb93e03e-9778-4d27-af64-461ba8ec3fcc","ios":"levelo://app?vid=bb93e03e-9778-4d27-af64-461ba8ec3fcc"},"vehicle_type_id":"4","last_reported":1762610944,"current_range_meters":16400,"station_id":"ce4bhhp2rcd13ifvqfm0","pricing_plan_id":"cebpf4jnsgd1na2vs0mg"},{"bike_id":"c5d0a8e3-b5b6-44e6-985e-a92fa24bd462","system_id":"levelo_inurba_marseille","lat":43.27495,"lon":5.42452,"is_reserved":false,"is_disabled":false,"rental_uris":{"android":"levelo://app?vid=c5d0a8e3-b5b6-44e6-985e-a92fa24bd462","ios":"levelo://app?vid=c5d0a8e3-b5b6-44e6-985e-a92fa24bd462"},"vehicle_type_id":"4","last_reported":1762610944,"current_range_meters":16400,"station_id":"ce4bhn92rcd13ifvqgrg","pricing_plan_id":"cebpf4jnsgd1na2vs0mg"},{"bike_id":"2f6d4ea4-4a2e-4a74-8203-ff6590a5470d","system_id":"levelo_inurba_marseille","lat":43.25829,"lon":5.37598,"is_reserved":false,"is_disabled":false,"rental_uris":{"android":"levelo://app?vid=2f6d4ea4-4a2e-4a74-8203-ff6590a5470d","ios":"levelo://app?vid=2f6d4ea4-4a2e-4a74-8203-ff6590a5470d"},"vehicle_type_id":"4","last_reported":1762610944,"current_range_meters":16400,"station_id":"","pricing_plan_id":"cebpf4jnsgd1na2vs0mg"},{"bike_id":"9a47ab5a-6aef-4013-b80e-e721142b29d8","system_id":"levelo_inurba_marseille","lat":43.2175,"lon":5.345999,"is_reserved":false,"is_disabled":false,"rental_uris":{"android":"levelo://app?vid=9a47ab5a-6aef-4013-b80e-e721142b29d8","ios":"levelo://app?vid=9a47ab5a-6aef-4013-b80e-e721142b29d8"},"vehicle_type_id":"4","last_reported":1762610944,"current_range_meters":16400,"station_id":"","pricing_plan_id":"cebpf4jnsgd1na2vs0mg"},{"bike_id":"601cfee9-efd4-4fc3-b5b0-f5c27a79fbd7","system_id":"levelo_inurba_marseille","lat":43.296285,"lon":5.37732,"is_reserved":false,"is_disabled":false,"rental_uris":{"android":"levelo://app?vid=601cfee9-efd4-4fc3-b5b0-f5c27a79fbd7","ios":"levelo://app?vid=601cfee9-efd4-4fc3-b5b0-f5c27a79fbd7"},"vehicle_type_id":"4","last_reported":1762610944,"current_range_meters":16800,"station_id":"ce4bgi92rcd13ifvqb90","pricing_plan_id":"cebpf4jnsgd1na2vs0mg"},{"bike_id":"e1d2ac3e-a5c1-45dd-a71e-8ef6269474fa","system_id":"levelo_inurba_marseille","lat":43.2985,"lon":5.38603,"is_reserved":false,"is_disabled":false,"rental_uris":{"android":"levelo://app?vid=e1d2ac3e-a5c1-45dd-a71e-8ef6269474fa","ios":"levelo://app?vid=e1d2ac3e-a5c1-45dd-a71e-8ef6269474fa"},"vehicle_type_id":"4","last_reported":1762610944,"current_range_meters":16800,"station_id":"","pricing_plan_id":"cebpf4jnsgd1na2vs0mg"},{"bike_id":"8582a586-3912-4818-9249-459b3c95239d","system_id":"levelo_inurba_marseille","lat":43.23161,"lon":5.43732,"is_reserved":false,"is_disabled":false,"rental_uris":{"android":"levelo://app?vid=8582a586-3912-4818-9249-459b3c95239d","ios":"levelo://app?vid=8582a586-3912-4818-9249-459b3c95239d"},"vehicle_type_id":"4","last_reported":1762610944,"current_range_meters":16800,"station_id":"ce4bhmp2rcd13ifvqgog","pricing_plan_id":"cebpf4jnsgd1na2vs0mg"},{"bike_id":"1a85bd73-f6c9-483d-ac28-5d95b6775d78","system_id":"levelo_inurba_marseille","lat":43.28715,"lon":5.37952,"is_reserved":false,"is_disabled":true,"rental_uris":{"android":"levelo://app?vid=1a85bd73-f6c9-483d-ac28-5d95b6775d78","ios":"levelo://app?vid=1a85bd73-f6c9-483d-ac28-5d95b6775d78"},"vehicle_type_id":"4","last_reported":1762610944,"current_range_meters":16800,"station_id":"ce4bh9p2rcd13ifvqec0","pricing_plan_id":"cebpf4jnsgd1na2vs0mg"},{"bike_id":"639e2119-feb2-41ef-a04a-8097682df0bb","system_id":"levelo_inurba_marseille","lat":43.31466,"lon":5.37313,"is_reserved":false,"is_disabled":false,"rental_uris":{"android":"levelo://app?vid=639e2119-feb2-41ef-a04a-8097682df0bb","ios":"levelo://app?vid=639e2119-feb2-41ef-a04a-8097682df0bb"},"vehicle_type_id":"4","last_reported":1762610944,"current_range_meters":16800,"station_id":"ce4bgt12rcd13ifvqcd0","pricing_plan_id":"cebpf4jnsgd1na2vs0mg"},{"bike_id":"9e508856-c889-4282-bfc5-37fa1ac7f93a","system_id":"levelo_inurba_marseille","lat":43.29605,"lon":5.37728,"is_reserved":false,"is_disabled":false,"rental_uris":{"android":"levelo://app?vid=9e508856-c889-4282-bfc5-37fa1ac7f93a","ios":"levelo://app?vid=9e508856-c889-4282-bfc5-37fa1ac7f93a"},"vehicle_type_id":"4","last_reported":1762610944,"current_range_meters":16800,"station_id":"ce4bgi92rcd13ifvqb90","pricing_plan_id":"cebpf4jnsgd1na2vs0mg"},{"bike_id":"c068557d-4bbe-43c4-9c9c-31e28ca0061c","system_id":"levelo_inurba_marseille","lat":43.29502,"lon":5.39407,"is_reserved":false,"is_disabled":false,"rental_uris":{"android":"levelo://app?vid=c068557d-4bbe-43c4-9c9c-31e28ca0061c","ios":"levelo://app?vid=c068557d-4bbe-43c4-9c9c-31e28ca0061c"},"vehicle_type_id":"4","last_reported":1762610944,"current_range_meters":16800,"station_id":"ce4bh292rcd13ifvqdf0","pricing_plan_id":"cebpf4jnsgd1na2vs0mg"},{"bike_id":"cf78c577-f784-4054-9298-4eadfd68926b","system_id":"levelo_inurba_marseille","lat":43.311696,"lon":5.393551,"is_reserved":false,"is_disabled":false,"rental_uris":{"android":"levelo://app?vid=cf78c577-f784-4054-9298-4eadfd68926b","ios":"levelo://app?vid=cf78c577-f784-4054-9298-4eadfd68926b"},"vehicle_type_id":"4","last_reported":1762610944,"current_range_meters":16800,"station_id":"","pricing_plan_id":"cebpf4jnsgd1na2vs0mg"},{"bike_id":"bec56063-cd7f-48a3-8ff7-af2952f961f8","system_id":"levelo_inurba_marseille","lat":43.26025,"lon":5.3755,"is_reserved":false,"is_disabled":false,"rental_uris":{"android":"levelo://app?vid=bec56063-cd7f-48a3-8ff7-af2952f961f8","ios":"levelo://app?vid=bec56063-cd7f-48a3-8ff7-af2952f961f8"},"vehicle_type_id":"4","last_reported":1762610944,"current_range_meters":16800,"station_id":"ce4bhgh2rcd13ifvqfa0","pricing_plan_id":"cebpf4jnsgd1na2vs0mg"},{"bike_id":"b25b451d-d7c9-4f76-8629-8e5174843533","system_id":"levelo_inurba_marseille","lat":43.29526,"lon":5.38548,"is_reserved":false,"is_disabled":false,"rental_uris":{"android":"levelo://app?vid=b25b451d-d7c9-4f76-8629-8e5174843533","ios":"levelo://app?vid=b25b451d-d7c9-4f76-8629-8e5174843533"},"vehicle_type_id":"4","last_reported":1762610944,"current_range_meters":16800,"station_id":"ce4bgih2rcd13ifvqba0","pricing_plan_id":"cebpf4jnsgd1na2vs0mg"},{"bike_id":"7baf5310-c4b6-4e63-8bdc-32d183c92031","system_id":"levelo_inurba_marseille","lat":43.24167,"lon":5.36401,"is_reserved":false,"is_disabled":false,"rental_uris":{"android":"levelo://app?vid=7baf5310-c4b6-4e63-8bdc-32d183c92031","ios":"levelo://app?vid=7baf5310-c4b6-4e63-8bdc-32d183c92031"},"vehicle_type_id":"4","last_reported":1762610944,"current_range_meters":16800,"station_id":"cpo36qri1sfpv3e86is0","pricing_plan_id":"cebpf4jnsgd1na2vs0mg"},{"bike_id":"ac885323-3529-472a-a4b6-e61c7e2bb7ff","system_id":"levelo_inurba_marseille","lat":43.29688,"lon":5.37291,"is_reserved":false,"is_disabled":false,"rental_uris":{"android":"levelo://app?vid=ac885323-3529-472a-a4b6-e61c7e2bb7ff","ios":"levelo://app?vid=ac885323-3529-472a-a4b6-e61c7e2bb7ff"},"vehicle_type_id":"4","last_reported":1762610944,"current_range_meters":17200,"station_id":"ce4bgk12rcd13ifvqbj0","pricing_plan_id":"cebpf4jnsgd1na2vs0mg"},{"bike_id":"e374f4d6-676c-4d62-af2d-1f0734c48172","system_id":"levelo_inurba_marseille","lat":43.294903,"lon":5.433036,"is_reserved":false,"is_disabled":false,"rental_uris":{"android":"levelo://app?vid=e374f4d6-676c-4d62-af2d-1f0734c48172","ios":"levelo://app?vid=e374f4d6-676c-4d62-af2d-1f0734c48172"},"vehicle_type_id":"4","last_reported":1762610944,"current_range_meters":17200,"station_id":"st_d3j5ugp08ojc73fj9d10","pricing_plan_id":"cebpf4jnsgd1na2vs0mg"},{"bike_id":"ab98ddb9-c4b7-4ec9-8b08-5de4751d9405","system_id":"levelo_inurba_marseille","lat":43.28275,"lon":5.35058,"is_reserved":false,"is_disabled":false,"rental_uris":{"android":"levelo://app?vid=ab98ddb9-c4b7-4ec9-8b08-5de4751d9405","ios":"levelo://app?vid=ab98ddb9-c4b7-4ec9-8b08-5de4751d9405"},"vehicle_type_id":"4","last_reported":1762610944,"current_range_meters":17200,"station_id":"ce4bhbp2rcd13ifvqerg","pricing_plan_id":"cebpf4jnsgd1na2vs0mg"},{"bike_id":"ee175632-a663-46e4-a04a-94a5c3686c34","system_id":"levelo_inurba_marseille","lat":43.229343,"lon":5.353801,"is_reserved":false,"is_disabled":false,"rental_uris":{"android":"levelo://app?vid=ee175632-a663-46e4-a04a-94a5c3686c34","ios":"levelo://app?vid=ee175632-a663-46e4-a04a-94a5c3686c34"},"vehicle_type_id":"4","last_reported":1762610944,"current_range_meters":17200,"station_id":"cpo3532slgdg3j2ikp40","pricing_plan_id":"cebpf4jnsgd1na2vs0mg"},{"bike_id":"a8d37d34-c691-4ce8-a519-2d98ed2aacc7","system_id":"levelo_inurba_marseille","lat":43.30533,"lon":5.36556,"is_reserved":false,"is_disabled":false,"rental_uris":{"android":"levelo://app?vid=a8d37d34-c691-4ce8-a519-2d98ed2aacc7","ios":"levelo://app?vid=a8d37d34-c691-4ce8-a519-2d98ed2aacc7"},"vehicle_type_id":"4","last_reported":1762610944,"current_range_meters":17200,"station_id":"ce4bgs12rcd13ifvqcag","pricing_plan_id":"cebpf4jnsgd1na2vs0mg"},{"bike_id":"ac1012d0-7872-4c6e-85e6-fc8eaff39396","system_id":"levelo_inurba_marseille","lat":43.28465,"lon":5.35902,"is_reserved":false,"is_disabled":true,"rental_uris":{"android":"levelo://app?vid=ac1012d0-7872-4c6e-85e6-fc8eaff39396","ios":"levelo://app?vid=ac1012d0-7872-4c6e-85e6-fc8eaff39396"},"vehicle_type_id":"4","last_reported":1762610944,"current_range_meters":17200,"station_id":"ce4bhah2rcd13ifvqei0","pricing_plan_id":"cebpf4jnsgd1na2vs0mg"},{"bike_id":"d2ecb11e-d9f0-4dc2-8069-a1366d5fe320","system_id":"levelo_inurba_marseille","lat":43.27565,"lon":5.38433,"is_reserved":false,"is_disabled":false,"rental_uris":{"android":"levelo://app?vid=d2ecb11e-d9f0-4dc2-8069-a1366d5fe320","ios":"levelo://app?vid=d2ecb11e-d9f0-4dc2-8069-a1366d5fe320"},"vehicle_type_id":"4","last_reported":1762610944,"current_range_meters":17200,"station_id":"ce4bhh92rcd13ifvqfi0","pricing_plan_id":"cebpf4jnsgd1na2vs0mg"},{"bike_id":"5ca7e156-456f-4551-95d1-e6d848f54d66","system_id":"levelo_inurba_marseille","lat":43.30369,"lon":5.425,"is_reserved":false,"is_disabled":false,"rental_uris":{"android":"levelo://app?vid=5ca7e156-456f-4551-95d1-e6d848f54d66","ios":"levelo://app?vid=5ca7e156-456f-4551-95d1-e6d848f54d66"},"vehicle_type_id":"4","last_reported":1762610944,"current_range_meters":17600,"station_id":"ce4bhoh2rcd13ifvqh6g","pricing_plan_id":"cebpf4jnsgd1na2vs0mg"},{"bike_id":"2dbc197e-b3a9-424d-9a82-df2c4748b8c5","system_id":"levelo_inurba_marseille","lat":43.29309,"lon":5.37178,"is_reserved":false,"is_disabled":false,"rental_uris":{"android":"levelo://app?vid=2dbc197e-b3a9-424d-9a82-df2c4748b8c5","ios":"levelo://app?vid=2dbc197e-b3a9-424d-9a82-df2c4748b8c5"},"vehicle_type_id":"4","last_reported":1762610944,"current_range_meters":17600,"station_id":"ce4bgh92rcd13ifvqb40","pricing_plan_id":"cebpf4jnsgd1na2vs0mg"},{"bike_id":"5d35981d-61aa-415e-93fe-7d5e3a51506e","system_id":"levelo_inurba_marseille","lat":43.21194,"lon":5.35076,"is_reserved":false,"is_disabled":false,"rental_uris":{"android":"levelo://app?vid=5d35981d-61aa-415e-93fe-7d5e3a51506e","ios":"levelo://app?vid=5d35981d-61aa-415e-93fe-7d5e3a51506e"},"vehicle_type_id":"4","last_reported":1762610944,"current_range_meters":17600,"station_id":"st_cvj6sg6p6f1abm77japg","pricing_plan_id":"cebpf4jnsgd1na2vs0mg"},{"bike_id":"1ea7bed3-a80f-43fd-a73a-6073a76179fb","system_id":"levelo_inurba_marseille","lat":43.26947,"lon":5.38647,"is_reserved":false,"is_disabled":false,"rental_uris":{"android":"levelo://app?vid=1ea7bed3-a80f-43fd-a73a-6073a76179fb","ios":"levelo://app?vid=1ea7bed3-a80f-43fd-a73a-6073a76179fb"},"vehicle_type_id":"4","last_reported":1762610944,"current_range_meters":17600,"station_id":"ce4bhh92rcd13ifvqfh0","pricing_plan_id":"cebpf4jnsgd1na2vs0mg"},{"bike_id":"c3122346-c65d-4bac-83a1-aa388a916eb3","system_id":"levelo_inurba_marseille","lat":43.29366,"lon":5.378578,"is_reserved":false,"is_disabled":false,"rental_uris":{"android":"levelo://app?vid=c3122346-c65d-4bac-83a1-aa388a916eb3","ios":"levelo://app?vid=c3122346-c65d-4bac-83a1-aa388a916eb3"},"vehicle_type_id":"4","last_reported":1762610944,"current_range_meters":17600,"station_id":"ce4bgjh2rcd13ifvqbf0","pricing_plan_id":"cebpf4jnsgd1na2vs0mg"},{"bike_id":"a4e74e86-7259-4ebf-a7f6-d19d39e36c1e","system_id":"levelo_inurba_marseille","lat":43.27367,"lon":5.36262,"is_reserved":false,"is_disabled":false,"rental_uris":{"android":"levelo://app?vid=a4e74e86-7259-4ebf-a7f6-d19d39e36c1e","ios":"levelo://app?vid=a4e74e86-7259-4ebf-a7f6-d19d39e36c1e"},"vehicle_type_id":"4","last_reported":1762610944,"current_range_meters":17600,"station_id":"ce4bhbh2rcd13ifvqeo0","pricing_plan_id":"cebpf4jnsgd1na2vs0mg"},{"bike_id":"607fad93-7fe4-4494-a185-a5aab110ea49","system_id":"levelo_inurba_marseille","lat":43.25107,"lon":5.40328,"is_reserved":false,"is_disabled":false,"rental_uris":{"android":"levelo://app?vid=607fad93-7fe4-4494-a185-a5aab110ea49","ios":"levelo://app?vid=607fad93-7fe4-4494-a185-a5aab110ea49"},"vehicle_type_id":"4","last_reported":1762610944,"current_range_meters":17600,"station_id":"ce4bhlh2rcd13ifvqgig","pricing_plan_id":"cebpf4jnsgd1na2vs0mg"},{"bike_id":"b86fecea-8bac-448f-bdcd-c5f07a75c760","system_id":"levelo_inurba_marseille","lat":43.217429,"lon":5.346172,"is_reserved":false,"is_disabled":false,"rental_uris":{"android":"levelo://app?vid=b86fecea-8bac-448f-bdcd-c5f07a75c760","ios":"levelo://app?vid=b86fecea-8bac-448f-bdcd-c5f07a75c760"},"vehicle_type_id":"4","last_reported":1762610944,"current_range_meters":17600,"station_id":"st_cvj6r9ubvosntc0bgbag","pricing_plan_id":"cebpf4jnsgd1na2vs0mg"},{"bike_id":"20419e9b-f15b-48a7-8991-ce0ca6ef3309","system_id":"levelo_inurba_marseille","lat":43.314895,"lon":5.373032,"is_reserved":false,"is_disabled":false,"rental_uris":{"android":"levelo://app?vid=20419e9b-f15b-48a7-8991-ce0ca6ef3309","ios":"levelo://app?vid=20419e9b-f15b-48a7-8991-ce0ca6ef3309"},"vehicle_type_id":"4","last_reported":1762610944,"current_range_meters":18000,"station_id":"ce4bgt12rcd13ifvqcd0","pricing_plan_id":"cebpf4jnsgd1na2vs0mg"},{"bike_id":"6c9bbe8d-a4c1-43d2-b8a4-cbfeea3617a3","system_id":"levelo_inurba_marseille","lat":43.29268,"lon":5.36861,"is_reserved":false,"is_disabled":false,"rental_uris":{"android":"levelo://app?vid=6c9bbe8d-a4c1-43d2-b8a4-cbfeea3617a3","ios":"levelo://app?vid=6c9bbe8d-a4c1-43d2-b8a4-cbfeea3617a3"},"vehicle_type_id":"4","last_reported":1762610944,"current_range_meters":18000,"station_id":"ce4bhbp2rcd13ifvqesg","pricing_plan_id":"cebpf4jnsgd1na2vs0mg"},{"bike_id":"b55b955e-c4d4-4019-acb2-39956d387444","system_id":"levelo_inurba_marseille","lat":43.2119,"lon":5.3507,"is_reserved":false,"is_disabled":false,"rental_uris":{"android":"levelo://app?vid=b55b955e-c4d4-4019-acb2-39956d387444","ios":"levelo://app?vid=b55b955e-c4d4-4019-acb2-39956d387444"},"vehicle_type_id":"4","last_reported":1762610944,"current_range_meters":18000,"station_id":"st_cvj6sg6p6f1abm77japg","pricing_plan_id":"cebpf4jnsgd1na2vs0mg"},{"bike_id":"af962680-8484-47da-8e9e-11f02fb26fc6","system_id":"levelo_inurba_marseille","lat":43.24801,"lon":5.37455,"is_reserved":false,"is_disabled":false,"rental_uris":{"android":"levelo://app?vid=af962680-8484-47da-8e9e-11f02fb26fc6","ios":"levelo://app?vid=af962680-8484-47da-8e9e-11f02fb26fc6"},"vehicle_type_id":"4","last_reported":1762610944,"current_range_meters":18000,"station_id":"ce4bhgh2rcd13ifvqfb0","pricing_plan_id":"cebpf4jnsgd1na2vs0mg"},{"bike_id":"37a171af-25ec-4d47-8bd2-314720bba587","system_id":"levelo_inurba_marseille","lat":43.217711,"lon":5.345973,"is_reserved":false,"is_disabled":false,"rental_uris":{"android":"levelo://app?vid=37a171af-25ec-4d47-8bd2-314720bba587","ios":"levelo://app?vid=37a171af-25ec-4d47-8bd2-314720bba587"},"vehicle_type_id":"4","last_reported":1762610944,"current_range_meters":18000,"station_id":"","pricing_plan_id":"cebpf4jnsgd1na2vs0mg"},{"bike_id":"fde6d3e7-9b60-4516-a171-c4d4eeb045e8","system_id":"levelo_inurba_marseille","lat":43.23194,"lon":5.35552,"is_reserved":false,"is_disabled":false,"rental_uris":{"android":"levelo://app?vid=fde6d3e7-9b60-4516-a171-c4d4eeb045e8","ios":"levelo://app?vid=fde6d3e7-9b60-4516-a171-c4d4eeb045e8"},"vehicle_type_id":"4","last_reported":1762610944,"current_range_meters":18000,"station_id":"ce4bhu92rcd13ifvqi70","pricing_plan_id":"cebpf4jnsgd1na2vs0mg"},{"bike_id":"68e2a4eb-9515-41fd-aa1c-8497e40ac482","system_id":"levelo_inurba_marseille","lat":43.29912,"lon":5.381381,"is_reserved":false,"is_disabled":true,"rental_uris":{"android":"levelo://app?vid=68e2a4eb-9515-41fd-aa1c-8497e40ac482","ios":"levelo://app?vid=68e2a4eb-9515-41fd-aa1c-8497e40ac482"},"vehicle_type_id":"4","last_reported":1762610944,"current_range_meters":18000,"station_id":"ce4bgj12rcd13ifvqbc0","pricing_plan_id":"cebpf4jnsgd1na2vs0mg"},{"bike_id":"8cdd3983-e96e-4e5e-9f5d-7bcbf6815701","system_id":"levelo_inurba_marseille","lat":43.21748,"lon":5.34605,"is_reserved":false,"is_disabled":false,"rental_uris":{"android":"levelo://app?vid=8cdd3983-e96e-4e5e-9f5d-7bcbf6815701","ios":"levelo://app?vid=8cdd3983-e96e-4e5e-9f5d-7bcbf6815701"},"vehicle_type_id":"4","last_reported":1762610944,"current_range_meters":18000,"station_id":"st_cvj6r9ubvosntc0bgbag","pricing_plan_id":"cebpf4jnsgd1na2vs0mg"},{"bike_id":"1e9091dd-321a-43a7-8b19-ca212db18dc6","system_id":"levelo_inurba_marseille","lat":43.2827,"lon":5.3507,"is_reserved":false,"is_disabled":false,"rental_uris":{"android":"levelo://app?vid=1e9091dd-321a-43a7-8b19-ca212db18dc6","ios":"levelo://app?vid=1e9091dd-321a-43a7-8b19-ca212db18dc6"},"vehicle_type_id":"4","last_reported":1762610944,"current_range_meters":18000,"station_id":"ce4bhbp2rcd13ifvqerg","pricing_plan_id":"cebpf4jnsgd1na2vs0mg"},{"bike_id":"b9ce4a24-fd38-42fd-92ec-be829350dcd0","system_id":"levelo_inurba_marseille","lat":43.2509,"lon":5.39529,"is_reserved":false,"is_disabled":false,"rental_uris":{"android":"levelo://app?vid=b9ce4a24-fd38-42fd-92ec-be829350dcd0","ios":"levelo://app?vid=b9ce4a24-fd38-42fd-92ec-be829350dcd0"},"vehicle_type_id":"4","last_reported":1762610944,"current_range_meters":18000,"station_id":"ce4bhm12rcd13ifvqgkg","pricing_plan_id":"cebpf4jnsgd1na2vs0mg"},{"bike_id":"d8a2355e-a776-4b85-8a3e-22368796688d","system_id":"levelo_inurba_marseille","lat":43.3079,"lon":5.36856,"is_reserved":false,"is_disabled":false,"rental_uris":{"android":"levelo://app?vid=d8a2355e-a776-4b85-8a3e-22368796688d","ios":"levelo://app?vid=d8a2355e-a776-4b85-8a3e-22368796688d"},"vehicle_type_id":"4","last_reported":1762610944,"current_range_meters":18000,"station_id":"","pricing_plan_id":"cebpf4jnsgd1na2vs0mg"},{"bike_id":"3585dd0d-06ba-43cf-a48a-a08f0c0af516","system_id":"levelo_inurba_marseille","lat":43.273688,"lon":5.362693,"is_reserved":false,"is_disabled":false,"rental_uris":{"android":"levelo://app?vid=3585dd0d-06ba-43cf-a48a-a08f0c0af516","ios":"levelo://app?vid=3585dd0d-06ba-43cf-a48a-a08f0c0af516"},"vehicle_type_id":"4","last_reported":1762610944,"current_range_meters":18800,"station_id":"ce4bhbh2rcd13ifvqeo0","pricing_plan_id":"cebpf4jnsgd1na2vs0mg"},{"bike_id":"f4b3610c-ddfd-461d-9ea3-633c91510343","system_id":"levelo_inurba_marseille","lat":43.24624,"lon":5.43153,"is_reserved":false,"is_disabled":false,"rental_uris":{"android":"levelo://app?vid=f4b3610c-ddfd-461d-9ea3-633c91510343","ios":"levelo://app?vid=f4b3610c-ddfd-461d-9ea3-633c91510343"},"vehicle_type_id":"4","last_reported":1762610944,"current_range_meters":18800,"station_id":"st_d2m6c4gdas8pm72e190g","pricing_plan_id":"cebpf4jnsgd1na2vs0mg"},{"bike_id":"b8af6918-9c6f-4106-836c-dd8c06821de6","system_id":"levelo_inurba_marseille","lat":43.225555,"lon":5.41627,"is_reserved":false,"is_disabled":false,"rental_uris":{"android":"levelo://app?vid=b8af6918-9c6f-4106-836c-dd8c06821de6","ios":"levelo://app?vid=b8af6918-9c6f-4106-836c-dd8c06821de6"},"vehicle_type_id":"4","last_reported":1762610944,"current_range_meters":18800,"station_id":"","pricing_plan_id":"cebpf4jnsgd1na2vs0mg"},{"bike_id":"f114550f-0e97-467f-a15f-491fe7ea5021","system_id":"levelo_inurba_marseille","lat":43.292992,"lon":5.371762,"is_reserved":false,"is_disabled":true,"rental_uris":{"android":"levelo://app?vid=f114550f-0e97-467f-a15f-491fe7ea5021","ios":"levelo://app?vid=f114550f-0e97-467f-a15f-491fe7ea5021"},"vehicle_type_id":"4","last_reported":1762610944,"current_range_meters":18800,"station_id":"ce4bgh92rcd13ifvqb40","pricing_plan_id":"cebpf4jnsgd1na2vs0mg"},{"bike_id":"4674d9f4-3d44-468c-a3d6-5f45963b3858","system_id":"levelo_inurba_marseille","lat":43.21183,"lon":5.3509,"is_reserved":false,"is_disabled":false,"rental_uris":{"android":"levelo://app?vid=4674d9f4-3d44-468c-a3d6-5f45963b3858","ios":"levelo://app?vid=4674d9f4-3d44-468c-a3d6-5f45963b3858"},"vehicle_type_id":"4","last_reported":1762610944,"current_range_meters":18800,"station_id":"st_cvj6sg6p6f1abm77japg","pricing_plan_id":"cebpf4jnsgd1na2vs0mg"},{"bike_id":"3fd95134-3ed7-4fd0-9793-bc954e2e42ea","system_id":"levelo_inurba_marseille","lat":43.28398,"lon":5.37525,"is_reserved":false,"is_disabled":true,"rental_uris":{"android":"levelo://app?vid=3fd95134-3ed7-4fd0-9793-bc954e2e42ea","ios":"levelo://app?vid=3fd95134-3ed7-4fd0-9793-bc954e2e42ea"},"vehicle_type_id":"4","last_reported":1762610944,"current_range_meters":18800,"station_id":"ce4bh412rcd13ifvqds0","pricing_plan_id":"cebpf4jnsgd1na2vs0mg"},{"bike_id":"6e7d5eb4-ff05-4a68-85e4-3a6e51d61536","system_id":"levelo_inurba_marseille","lat":43.211939,"lon":5.350704,"is_reserved":false,"is_disabled":false,"rental_uris":{"android":"levelo://app?vid=6e7d5eb4-ff05-4a68-85e4-3a6e51d61536","ios":"levelo://app?vid=6e7d5eb4-ff05-4a68-85e4-3a6e51d61536"},"vehicle_type_id":"4","last_reported":1762610944,"current_range_meters":18800,"station_id":"st_cvj6r9ubvosntc0bgbag","pricing_plan_id":"cebpf4jnsgd1na2vs0mg"},{"bike_id":"1638d16f-6f75-470a-832a-a6b8ab26e18a","system_id":"levelo_inurba_marseille","lat":43.27917,"lon":5.39581,"is_reserved":false,"is_disabled":false,"rental_uris":{"android":"levelo://app?vid=1638d16f-6f75-470a-832a-a6b8ab26e18a","ios":"levelo://app?vid=1638d16f-6f75-470a-832a-a6b8ab26e18a"},"vehicle_type_id":"4","last_reported":1762610944,"current_range_meters":18800,"station_id":"ce4bhf92rcd13ifvqf40","pricing_plan_id":"cebpf4jnsgd1na2vs0mg"},{"bike_id":"45da4fa5-ca83-4276-9049-29a4c146e094","system_id":"levelo_inurba_marseille","lat":43.25487,"lon":5.37657,"is_reserved":false,"is_disabled":false,"rental_uris":{"android":"levelo://app?vid=45da4fa5-ca83-4276-9049-29a4c146e094","ios":"levelo://app?vid=45da4fa5-ca83-4276-9049-29a4c146e094"},"vehicle_type_id":"4","last_reported":1762610944,"current_range_meters":18800,"station_id":"ce4bhh12rcd13ifvqff0","pricing_plan_id":"cebpf4jnsgd1na2vs0mg"},{"bike_id":"8a02208e-294e-4e29-b873-5152ecc70a10","system_id":"levelo_inurba_marseille","lat":43.22559,"lon":5.41636,"is_reserved":false,"is_disabled":false,"rental_uris":{"android":"levelo://app?vid=8a02208e-294e-4e29-b873-5152ecc70a10","ios":"levelo://app?vid=8a02208e-294e-4e29-b873-5152ecc70a10"},"vehicle_type_id":"4","last_reported":1762610944,"current_range_meters":18800,"station_id":"st_d2o4gvlbi1j2169b742g","pricing_plan_id":"cebpf4jnsgd1na2vs0mg"},{"bike_id":"5f51530e-ad6d-4525-9dbe-df8ccdff7435","system_id":"levelo_inurba_marseille","lat":43.31621,"lon":5.38194,"is_reserved":false,"is_disabled":false,"rental_uris":{"android":"levelo://app?vid=5f51530e-ad6d-4525-9dbe-df8ccdff7435","ios":"levelo://app?vid=5f51530e-ad6d-4525-9dbe-df8ccdff7435"},"vehicle_type_id":"4","last_reported":1762610944,"current_range_meters":18800,"station_id":"","pricing_plan_id":"cebpf4jnsgd1na2vs0mg"},{"bike_id":"dc3a39a8-2b98-4529-8d7b-d59c50558918","system_id":"levelo_inurba_marseille","lat":43.2903,"lon":5.38128,"is_reserved":false,"is_disabled":false,"rental_uris":{"android":"levelo://app?vid=dc3a39a8-2b98-4529-8d7b-d59c50558918","ios":"levelo://app?vid=dc3a39a8-2b98-4529-8d7b-d59c50558918"},"vehicle_type_id":"4","last_reported":1762610944,"current_range_meters":19200,"station_id":"ce4bh4p2rcd13ifvqe1g","pricing_plan_id":"cebpf4jnsgd1na2vs0mg"},{"bike_id":"b033429b-12b5-4448-8e49-a3802e58d699","system_id":"levelo_inurba_marseille","lat":43.29005,"lon":5.35614,"is_reserved":false,"is_disabled":false,"rental_uris":{"android":"levelo://app?vid=b033429b-12b5-4448-8e49-a3802e58d699","ios":"levelo://app?vid=b033429b-12b5-4448-8e49-a3802e58d699"},"vehicle_type_id":"4","last_reported":1762610944,"current_range_meters":19200,"station_id":"ce4bhb92rcd13ifvqen0","pricing_plan_id":"cebpf4jnsgd1na2vs0mg"},{"bike_id":"a5a51bf9-9908-420d-8212-6ef8d2db5d39","system_id":"levelo_inurba_marseille","lat":43.27384,"lon":5.36265,"is_reserved":false,"is_disabled":false,"rental_uris":{"android":"levelo://app?vid=a5a51bf9-9908-420d-8212-6ef8d2db5d39","ios":"levelo://app?vid=a5a51bf9-9908-420d-8212-6ef8d2db5d39"},"vehicle_type_id":"4","last_reported":1762610944,"current_range_meters":19200,"station_id":"ce4bhbh2rcd13ifvqeo0","pricing_plan_id":"cebpf4jnsgd1na2vs0mg"},{"bike_id":"adc728c4-7d88-468c-be89-220c19218372","system_id":"levelo_inurba_marseille","lat":43.30967,"lon":5.38369,"is_reserved":false,"is_disabled":false,"rental_uris":{"android":"levelo://app?vid=adc728c4-7d88-468c-be89-220c19218372","ios":"levelo://app?vid=adc728c4-7d88-468c-be89-220c19218372"},"vehicle_type_id":"4","last_reported":1762610944,"current_range_meters":19200,"station_id":"","pricing_plan_id":"cebpf4jnsgd1na2vs0mg"},{"bike_id":"345285ad-10a7-49ef-b97f-7faa01587ccf","system_id":"levelo_inurba_marseille","lat":43.24627,"lon":5.43168,"is_reserved":false,"is_disabled":false,"rental_uris":{"android":"levelo://app?vid=345285ad-10a7-49ef-b97f-7faa01587ccf","ios":"levelo://app?vid=345285ad-10a7-49ef-b97f-7faa01587ccf"},"vehicle_type_id":"4","last_reported":1762610944,"current_range_meters":19200,"station_id":"st_d2m6c4gdas8pm72e190g","pricing_plan_id":"cebpf4jnsgd1na2vs0mg"},{"bike_id":"0624675e-eee0-4321-99e1-32672173e901","system_id":"levelo_inurba_marseille","lat":43.24171,"lon":5.36402,"is_reserved":false,"is_disabled":false,"rental_uris":{"android":"levelo://app?vid=0624675e-eee0-4321-99e1-32672173e901","ios":"levelo://app?vid=0624675e-eee0-4321-99e1-32672173e901"},"vehicle_type_id":"4","last_reported":1762610944,"current_range_meters":19200,"station_id":"cpo36qri1sfpv3e86is0","pricing_plan_id":"cebpf4jnsgd1na2vs0mg"},{"bike_id":"a4d46bdd-98fd-445f-a132-4eb1ffafbf2d","system_id":"levelo_inurba_marseille","lat":43.2408,"lon":5.37745,"is_reserved":false,"is_disabled":false,"rental_uris":{"android":"levelo://app?vid=a4d46bdd-98fd-445f-a132-4eb1ffafbf2d","ios":"levelo://app?vid=a4d46bdd-98fd-445f-a132-4eb1ffafbf2d"},"vehicle_type_id":"4","last_reported":1762610944,"current_range_meters":19200,"station_id":"ce4bhnp2rcd13ifvqgvg","pricing_plan_id":"cebpf4jnsgd1na2vs0mg"},{"bike_id":"ed17de46-c1d1-44ef-8693-202a04db4850","system_id":"levelo_inurba_marseille","lat":43.30122,"lon":5.38793,"is_reserved":false,"is_disabled":false,"rental_uris":{"android":"levelo://app?vid=ed17de46-c1d1-44ef-8693-202a04db4850","ios":"levelo://app?vid=ed17de46-c1d1-44ef-8693-202a04db4850"},"vehicle_type_id":"4","last_reported":1762610944,"current_range_meters":19200,"station_id":"ce4bghh2rcd13ifvqb60","pricing_plan_id":"cebpf4jnsgd1na2vs0mg"},{"bike_id":"2fdccf48-a4e0-405b-a58b-ef528d56693a","system_id":"levelo_inurba_marseille","lat":43.306826,"lon":5.373594,"is_reserved":false,"is_disabled":false,"rental_uris":{"android":"levelo://app?vid=2fdccf48-a4e0-405b-a58b-ef528d56693a","ios":"levelo://app?vid=2fdccf48-a4e0-405b-a58b-ef528d56693a"},"vehicle_type_id":"4","last_reported":1762610944,"current_range_meters":19200,"station_id":"","pricing_plan_id":"cebpf4jnsgd1na2vs0mg"},{"bike_id":"8c1ada2c-0d02-436c-ba52-049a1bb83547","system_id":"levelo_inurba_marseille","lat":43.295691,"lon":5.375053,"is_reserved":false,"is_disabled":false,"rental_uris":{"android":"levelo://app?vid=8c1ada2c-0d02-436c-ba52-049a1bb83547","ios":"levelo://app?vid=8c1ada2c-0d02-436c-ba52-049a1bb83547"},"vehicle_type_id":"4","last_reported":1762610944,"current_range_meters":19600,"station_id":"ce4bgh92rcd13ifvqb50","pricing_plan_id":"cebpf4jnsgd1na2vs0mg"},{"bike_id":"edbab5ea-5fbf-43f9-9998-2230b6aa2905","system_id":"levelo_inurba_marseille","lat":43.2848,"lon":5.38425,"is_reserved":false,"is_disabled":false,"rental_uris":{"android":"levelo://app?vid=edbab5ea-5fbf-43f9-9998-2230b6aa2905","ios":"levelo://app?vid=edbab5ea-5fbf-43f9-9998-2230b6aa2905"},"vehicle_type_id":"4","last_reported":1762610944,"current_range_meters":19600,"station_id":"","pricing_plan_id":"cebpf4jnsgd1na2vs0mg"},{"bike_id":"a9ec932d-be53-49c3-a1a3-e25d6531466e","system_id":"levelo_inurba_marseille","lat":43.21749,"lon":5.34606,"is_reserved":false,"is_disabled":false,"rental_uris":{"android":"levelo://app?vid=a9ec932d-be53-49c3-a1a3-e25d6531466e","ios":"levelo://app?vid=a9ec932d-be53-49c3-a1a3-e25d6531466e"},"vehicle_type_id":"4","last_reported":1762610944,"current_range_meters":19600,"station_id":"st_cvj6r9ubvosntc0bgbag","pricing_plan_id":"cebpf4jnsgd1na2vs0mg"},{"bike_id":"088c1c2e-1507-45e3-b122-778980a0f74a","system_id":"levelo_inurba_marseille","lat":43.2827,"lon":5.35059,"is_reserved":false,"is_disabled":false,"rental_uris":{"android":"levelo://app?vid=088c1c2e-1507-45e3-b122-778980a0f74a","ios":"levelo://app?vid=088c1c2e-1507-45e3-b122-778980a0f74a"},"vehicle_type_id":"4","last_reported":1762610944,"current_range_meters":19600,"station_id":"ce4bhbp2rcd13ifvqerg","pricing_plan_id":"cebpf4jnsgd1na2vs0mg"},{"bike_id":"a0e54e31-a279-4abc-9e71-e56764854bff","system_id":"levelo_inurba_marseille","lat":43.27369,"lon":5.36243,"is_reserved":false,"is_disabled":false,"rental_uris":{"android":"levelo://app?vid=a0e54e31-a279-4abc-9e71-e56764854bff","ios":"levelo://app?vid=a0e54e31-a279-4abc-9e71-e56764854bff"},"vehicle_type_id":"4","last_reported":1762610944,"current_range_meters":19600,"station_id":"ce4bhbh2rcd13ifvqeo0","pricing_plan_id":"cebpf4jnsgd1na2vs0mg"},{"bike_id":"c0fb217a-42db-4199-bcf6-c036e53ee643","system_id":"levelo_inurba_marseille","lat":43.24178,"lon":5.39731,"is_reserved":false,"is_disabled":false,"rental_uris":{"android":"levelo://app?vid=c0fb217a-42db-4199-bcf6-c036e53ee643","ios":"levelo://app?vid=c0fb217a-42db-4199-bcf6-c036e53ee643"},"vehicle_type_id":"4","last_reported":1762610944,"current_range_meters":19600,"station_id":"ce4bhn12rcd13ifvqgpg","pricing_plan_id":"cebpf4jnsgd1na2vs0mg"},{"bike_id":"704b4370-f76d-4a66-a073-797e4191974e","system_id":"levelo_inurba_marseille","lat":43.28613,"lon":5.35106,"is_reserved":false,"is_disabled":false,"rental_uris":{"android":"levelo://app?vid=704b4370-f76d-4a66-a073-797e4191974e","ios":"levelo://app?vid=704b4370-f76d-4a66-a073-797e4191974e"},"vehicle_type_id":"4","last_reported":1762610944,"current_range_meters":19600,"station_id":"ce4bhch2rcd13ifvqeug","pricing_plan_id":"cebpf4jnsgd1na2vs0mg"},{"bike_id":"da3bbc05-9617-4150-83d0-10b053fb4d14","system_id":"levelo_inurba_marseille","lat":43.301343,"lon":5.37415,"is_reserved":false,"is_disabled":false,"rental_uris":{"android":"levelo://app?vid=da3bbc05-9617-4150-83d0-10b053fb4d14","ios":"levelo://app?vid=da3bbc05-9617-4150-83d0-10b053fb4d14"},"vehicle_type_id":"4","last_reported":1762610944,"current_range_meters":19600,"station_id":"ce4bgs92rcd13ifvqcc0","pricing_plan_id":"cebpf4jnsgd1na2vs0mg"},{"bike_id":"7e8a1bad-bf98-4f01-8c36-7ef4d5fa7340","system_id":"levelo_inurba_marseille","lat":43.301753,"lon":5.366227,"is_reserved":false,"is_disabled":false,"rental_uris":{"android":"levelo://app?vid=7e8a1bad-bf98-4f01-8c36-7ef4d5fa7340","ios":"levelo://app?vid=7e8a1bad-bf98-4f01-8c36-7ef4d5fa7340"},"vehicle_type_id":"4","last_reported":1762610944,"current_range_meters":19600,"station_id":"ce4bgrh2rcd13ifvqc8g","pricing_plan_id":"cebpf4jnsgd1na2vs0mg"},{"bike_id":"c792c17e-e8c7-4d59-8123-9f60a1223ebc","system_id":"levelo_inurba_marseille","lat":43.28852,"lon":5.35852,"is_reserved":false,"is_disabled":false,"rental_uris":{"android":"levelo://app?vid=c792c17e-e8c7-4d59-8123-9f60a1223ebc","ios":"levelo://app?vid=c792c17e-e8c7-4d59-8123-9f60a1223ebc"},"vehicle_type_id":"4","last_reported":1762610944,"current_range_meters":19600,"station_id":"ce4bhb12rcd13ifvqem0","pricing_plan_id":"cebpf4jnsgd1na2vs0mg"},