{"last_updated":1733343048,"ttl":60,"version":"2.2","data":{"bikes":[{"bike_id":"7de0fb12-353f-490f-b93e-dfc92c129fa2","system_id":"levelo_inurba_marseille","lat":43.31489,"lon":5.37307,"is_reserved":false,"is_disabled":false,"rental_uris":{"android":"levelo://app?vid=7de0fb12-353f-490f-b93e-dfc92c129fa2","ios":"levelo://app?vid=7de0fb12-353f-490f-b93e-dfc92c129fa2"},"vehicle_type_id":"4","last_reported":1733343049,"current_range_meters":18000,"station_id":"ce4bgt12rcd13ifvqcd0","pricing_plan_id":"cebpf4jnsgd1na2vs0mg"},{"bike_id":"a97ff103-80f4-4af0-ab5e-92bafcd223d0","system_id":"levelo_inurba_marseille","lat":43.2791,"lon":5.39579,"is_reserved":false,"is_disabled":false,"rental_uris":{"android":"levelo://app?vid=a97ff103-80f4-4af0-ab5e-92bafcd223d0","ios":"levelo://app?vid=a97ff103-80f4-4af0-ab5e-92bafcd223d0"},"vehicle_type_id":"4","last_reported":1733343049,"current_range_meters":4000,"station_id":"ce4bhf92rcd13ifvqf40","pricing_plan_id":"cebpf4jnsgd1na2vs0mg"},{"bike_id":"df479c2c-35ac-44ad-b9d6-81c89ed769ce","system_id":"levelo_inurba_marseille","lat":43.29699,"lon":5.37054,"is_reserved":false,"is_disabled":true,"rental_uris":{"android":"levelo://app?vid=df479c2c-35ac-44ad-b9d6-81c89ed769ce","ios":"levelo://app?vid=df479c2c-35ac-44ad-b9d6-81c89ed769ce"},"vehicle_type_id":"4","last_reported":1733343049,"current_range_meters":0,"station_id":"","pricing_plan_id":"cebpf4jnsgd1na2vs0mg"},{"bike_id":"8e029eaf-e104-4c5d-858d-6cd39de73d09","system_id":"levelo_inurba_marseille","lat":43.24134,"lon":5.36421,"is_reserved":false,"is_disabled":false,"rental_uris":{"android":"levelo://app?vid=8e029eaf-e104-4c5d-858d-6cd39de73d09","ios":"levelo://app?vid=8e029eaf-e104-4c5d-858d-6cd39de73d09"},"vehicle_type_id":"4","last_reported":1733343049,"current_range_meters":8400,"station_id":"cpo36qri1sfpv3e86is0","pricing_plan_id":"cebpf4jnsgd1na2vs0mg"},{"bike_id":"fd85f247-bc9f-4512-8957-89e7641ccdee","system_id":"levelo_inurba_marseille","lat":43.32476,"lon":5.36575,"is_reserved":false,"is_disabled":false,"rental_uris":{"android":"levelo://app?vid=fd85f247-bc9f-4512-8957-89e7641ccdee","ios":"levelo://app?vid=fd85f247-bc9f-4512-8957-89e7641ccdee"},"vehicle_type_id":"4","last_reported":1733343049,"current_range_meters":33200,"station_id":"ce4bhs12rcd13ifvqhvg","pricing_plan_id":"cebpf4jnsgd1na2vs0mg"},{"bike_id":"b22020b3-7871-4c32-85e4-ed388455a6f3","system_id":"levelo_inurba_marseille","lat":43.28483,"lon":5.38545,"is_reserved":false,"is_disabled":false,"rental_uris":{"android":"levelo://app?vid=b22020b3-7871-4c32-85e4-ed388455a6f3","ios":"levelo://app?vid=b22020b3-7871-4c32-85e4-ed388455a6f3"},"vehicle_type_id":"4","last_reported":1733343049,"current_range_meters":30800,"station_id":"ce4bh8p2rcd13ifvqeb0","pricing_plan_id":"cebpf4jnsgd1na2vs0mg"},{"bike_id":"09016331-8199-4b96-8644-9fffcf138801","system_id":"levelo_inurba_marseille","lat":43.28156,"lon":5.42654,"is_reserved":false,"is_disabled":false,"rental_uris":{"android":"levelo://app?vid=09016331-8199-4b96-8644-9fffcf138801","ios":"levelo://app?vid=09016331-8199-4b96-8644-9fffcf138801"},"vehicle_type_id":"4","last_reported":1733343049,"current_range_meters":17200,"station_id":"ce4bhnh2rcd13ifvqgug","pricing_plan_id":"cebpf4jnsgd1na2vs0mg"},{"bike_id":"be407bbe-d1ce-48de-8db2-09114af9efd7","system_id":"levelo_inurba_marseille","lat":43.32356,"lon":5.36755,"is_reserved":false,"is_disabled":false,"rental_uris":{"android":"levelo://app?vid=be407bbe-d1ce-48de-8db2-09114af9efd7","ios":"levelo://app?vid=be407bbe-d1ce-48de-8db2-09114af9efd7"},"vehicle_type_id":"4","last_reported":1733343049,"current_range_meters":32800,"station_id":"ce4bhsh2rcd13ifvqi2g","pricing_plan_id":"cebpf4jnsgd1na2vs0mg"},{"bike_id":"2deb87bb-c3ca-431b-995a-86ed2e6ed434","system_id":"levelo_inurba_marseille","lat":43.28403,"lon":5.37526,"is_reserved":false,"is_disabled":false,"rental_uris":{"android":"levelo://app?vid=2deb87bb-c3ca-431b-995a-86ed2e6ed434","ios":"levelo://app?vid=2deb87bb-c3ca-431b-995a-86ed2e6ed434"},"vehicle_type_id":"4","last_reported":1733343049,"current_range_meters":10800,"station_id":"ce4bh412rcd13ifvqds0","pricing_plan_id":"cebpf4jnsgd1na2vs0mg"},{"bike_id":"d45f1878-0490-4199-9e52-c087150272fe","system_id":"levelo_inurba_marseille","lat":43.26805,"lon":5.4025,"is_reserved":false,"is_disabled":false,"rental_uris":{"android":"levelo://app?vid=d45f1878-0490-4199-9e52-c087150272fe","ios":"levelo://app?vid=d45f1878-0490-4199-9e52-c087150272fe"},"vehicle_type_id":"4","last_reported":1733343049,"current_range_meters":38800,"station_id":"ce501612rcd8frsf0b60","pricing_plan_id":"cebpf4jnsgd1na2vs0mg"},{"bike_id":"d15f865a-2215-4241-a130-e2aef5448854","system_id":"levelo_inurba_marseille","lat":43.2762,"lon":5.36113,"is_reserved":false,"is_disabled":false,"rental_uris":{"android":"levelo://app?vid=d15f865a-2215-4241-a130-e2aef5448854","ios":"levelo://app?vid=d15f865a-2215-4241-a130-e2aef5448854"},"vehicle_type_id":"4","last_reported":1733343049,"current_range_meters":36800,"station_id":"ce4bgj92rcd13ifvqbe0","pricing_plan_id":"cebpf4jnsgd1na2vs0mg"},{"bike_id":"140cf46e-6cf8-4621-9acf-89b81144c756","system_id":"levelo_inurba_marseille","lat":43.28658,"lon":5.36347,"is_reserved":false,"is_disabled":false,"rental_uris":{"android":"levelo://app?vid=140cf46e-6cf8-4621-9acf-89b81144c756","ios":"levelo://app?vid=140cf46e-6cf8-4621-9acf-89b81144c756"},"vehicle_type_id":"4","last_reported":1733343049,"current_range_meters":16400,"station_id":"ce4bhah2rcd13ifvqej0","pricing_plan_id":"cebpf4jnsgd1na2vs0mg"},{"bike_id":"8bd642b2-0279-44c7-9ee2-fc3b57332c83","system_id":"levelo_inurba_marseille","lat":43.27455,"lon":5.40073,"is_reserved":false,"is_disabled":true,"rental_uris":{"android":"levelo://app?vid=8bd642b2-0279-44c7-9ee2-fc3b57332c83","ios":"levelo://app?vid=8bd642b2-0279-44c7-9ee2-fc3b57332c83"},"vehicle_type_id":"4","last_reported":1733343049,"current_range_meters":0,"station_id":"","pricing_plan_id":"cebpf4jnsgd1na2vs0mg"},{"bike_id":"e092f375-5b54-4e37-b620-820befc91920","system_id":"levelo_inurba_marseille","lat":43.25727,"lon":5.41109,"is_reserved":false,"is_disabled":false,"rental_uris":{"android":"levelo://app?vid=e092f375-5b54-4e37-b620-820befc91920","ios":"levelo://app?vid=e092f375-5b54-4e37-b620-820befc91920"},"vehicle_type_id":"4","last_reported":1733343049,"current_range_meters":38800,"station_id":"ce4bhkp2rcd13ifvqgd0","pricing_plan_id":"cebpf4jnsgd1na2vs0mg"},{"bike_id":"24a99494-69c1-4fef-879e-b2c2d85c80a1","system_id":"levelo_inurba_marseille","lat":43.30643,"lon":5.40079,"is_reserved":false,"is_disabled":false,"rental_uris":{"android":"levelo://app?vid=24a99494-69c1-4fef-879e-b2c2d85c80a1","ios":"levelo://app?vid=24a99494-69c1-4fef-879e-b2c2d85c80a1"},"vehicle_type_id":"4","last_reported":1733343049,"current_range_meters":20800,"station_id":"ce4bh112rcd13ifvqda0","pricing_plan_id":"cebpf4jnsgd1na2vs0mg"},{"bike_id":"fb38a12f-f1ed-4495-8893-c3c7060756c3","system_id":"levelo_inurba_marseille","lat":43.29022,"lon":5.38639,"is_reserved":false,"is_disabled":false,"rental_uris":{"android":"levelo://app?vid=fb38a12f-f1ed-4495-8893-c3c7060756c3","ios":"levelo://app?vid=fb38a12f-f1ed-4495-8893-c3c7060756c3"},"vehicle_type_id":"4","last_reported":1733343049,"current_range_meters":28800,"station_id":"ce4bh4p2rcd13ifvqe0g","pricing_plan_id":"cebpf4jnsgd1na2vs0mg"},{"bike_id":"7ac860e3-add0-47a6-8e54-a7fb41b5c80a","system_id":"levelo_inurba_marseille","lat":43.29446,"lon":5.3975,"is_reserved":false,"is_disabled":false,"rental_uris":{"android":"levelo://app?vid=7ac860e3-add0-47a6-8e54-a7fb41b5c80a","ios":"levelo://app?vid=7ac860e3-add0-47a6-8e54-a7fb41b5c80a"},"vehicle_type_id":"4","last_reported":1733343049,"current_range_meters":24800,"station_id":"ce4bh3h2rcd13ifvqdo0","pricing_plan_id":"cebpf4jnsgd1na2vs0mg"},{"bike_id":"a18b4934-8c0c-4c61-b008-883eebb45560","system_id":"levelo_inurba_marseille","lat":43.2318,"lon":5.3997,"is_reserved":false,"is_disabled":false,"rental_uris":{"android":"levelo://app?vid=a18b4934-8c0c-4c61-b008-883eebb45560","ios":"levelo://app?vid=a18b4934-8c0c-4c61-b008-883eebb45560"},"vehicle_type_id":"4","last_reported":1733343049,"current_range_meters":38000,"station_id":"ce4bhn12rcd13ifvqgqg","pricing_plan_id":"cebpf4jnsgd1na2vs0mg"},{"bike_id":"276dc8d0-d07c-4097-ade0-8d3c2e00a69d","system_id":"levelo_inurba_marseille","lat":43.30985,"lon":5.37533,"is_reserved":false,"is_disabled":true,"rental_uris":{"android":"levelo://app?vid=276dc8d0-d07c-4097-ade0-8d3c2e00a69d","ios":"levelo://app?vid=276dc8d0-d07c-4097-ade0-8d3c2e00a69d"},"vehicle_type_id":"4","last_reported":1733343049,"current_range_meters":0,"station_id":"","pricing_plan_id":"cebpf4jnsgd1na2vs0mg"},{"bike_id":"2629a9d3-75c3-4b00-9f5d-4c9d5262314e","system_id":"levelo_inurba_marseille","lat":43.31361,"lon":5.38502,"is_reserved":false,"is_disabled":false,"rental_uris":{"android":"levelo://app?vid=2629a9d3-75c3-4b00-9f5d-4c9d5262314e","ios":"levelo://app?vid=2629a9d3-75c3-4b00-9f5d-4c9d5262314e"},"vehicle_type_id":"4","last_reported":1733343049,"current_range_meters":29600,"station_id":"ce4bgt92rcd13ifvqcf0","pricing_plan_id":"cebpf4jnsgd1na2vs0mg"},{"bike_id":"28b52837-d828-49e4-b4be-cfbac010c328","system_id":"levelo_inurba_marseille","lat":43.33727,"lon":5.39186,"is_reserved":false,"is_disabled":false,"rental_uris":{"android":"levelo://app?vid=28b52837-d828-49e4-b4be-cfbac010c328","ios":"levelo://app?vid=28b52837-d828-49e4-b4be-cfbac010c328"},"vehicle_type_id":"4","last_reported":1733343049,"current_range_meters":34800,"station_id":"ce4bhr92rcd13ifvqhsg","pricing_plan_id":"cebpf4jnsgd1na2vs0mg"},{"bike_id":"b3f478ac-3b05-4edf-bdbf-76399090f8e9","system_id":"levelo_inurba_marseille","lat":43.29994,"lon":5.37639,"is_reserved":false,"is_disabled":true,"rental_uris":{"android":"levelo://app?vid=b3f478ac-3b05-4edf-bdbf-76399090f8e9","ios":"levelo://app?vid=b3f478ac-3b05-4edf-bdbf-76399090f8e9"},"vehicle_type_id":"4","last_reported":1733343049,"current_range_meters":0,"station_id":"","pricing_plan_id":"cebpf4jnsgd1na2vs0mg"},{"bike_id":"c3587c28-5435-41c6-a9b7-aa468e6b19aa","system_id":"levelo_inurba_marseille","lat":43.29746,"lon":5.37916,"is_reserved":false,"is_disabled":true,"rental_uris":{"android":"levelo://app?vid=c3587c28-5435-41c6-a9b7-aa468e6b19aa","ios":"levelo://app?vid=c3587c28-5435-41c6-a9b7-aa468e6b19aa"},"vehicle_type_id":"4","last_reported":1733343049,"current_range_meters":0,"station_id":"","pricing_plan_id":"cebpf4jnsgd1na2vs0mg"},{"bike_id":"75c4f34a-89f4-4145-a2e2-7dafbc1cdf90","system_id":"levelo_inurba_marseille","lat":43.29003,"lon":5.37263,"is_reserved":false,"is_disabled":true,"rental_uris":{"android":"levelo://app?vid=75c4f34a-89f4-4145-a2e2-7dafbc1cdf90","ios":"levelo://app?vid=75c4f34a-89f4-4145-a2e2-7dafbc1cdf90"},"vehicle_type_id":"4","last_reported":1733343049,"current_range_meters":0,"station_id":"","pricing_plan_id":"cebpf4jnsgd1na2vs0mg"},{"bike_id":"c65db16c-e810-4d3a-bd65-1dac7e477222","system_id":"levelo_inurba_marseille","lat":43.31708,"lon":5.43703,"is_reserved":false,"is_disabled":false,"rental_uris":{"android":"levelo://app?vid=c65db16c-e810-4d3a-bd65-1dac7e477222","ios":"levelo://app?vid=c65db16c-e810-4d3a-bd65-1dac7e477222"},"vehicle_type_id":"4","last_reported":1733343049,"current_range_meters":38800,"station_id":"ce4bhp92rcd13ifvqhcg","pricing_plan_id":"cebpf4jnsgd1na2vs0mg"},{"bike_id":"e29b60aa-1f72-427b-a36d-c83abb4b9f12","system_id":"levelo_inurba_marseille","lat":43.29522,"lon":5.39035,"is_reserved":false,"is_disabled":false,"rental_uris":{"android":"levelo://app?vid=e29b60aa-1f72-427b-a36d-c83abb4b9f12","ios":"levelo://app?vid=e29b60aa-1f72-427b-a36d-c83abb4b9f12"},"vehicle_type_id":"4","last_reported":1733343049,"current_range_meters":39200,"station_id":"ce4bh3p2rcd13ifvqdp0","pricing_plan_id":"cebpf4jnsgd1na2vs0mg"},{"bike_id":"e8d9fcd3-6c4c-4c2e-a87e-41c5e4dfa6d0","system_id":"levelo_inurba_marseille","lat":43.25438,"lon":5.38158,"is_reserved":false,"is_disabled":true,"rental_uris":{"android":"levelo://app?vid=e8d9fcd3-6c4c-4c2e-a87e-41c5e4dfa6d0","ios":"levelo://app?vid=e8d9fcd3-6c4c-4c2e-a87e-41c5e4dfa6d0"},"vehicle_type_id":"4","last_reported":1733343049,"current_range_meters":0,"station_id":"","pricing_plan_id":"cebpf4jnsgd1na2vs0mg"},{"bike_id":"e7c2b082-ef91-42b1-9ef0-9e4329cee9cb","system_id":"levelo_inurba_marseille","lat":43.2992,"lon":5.40347,"is_reserved":false,"is_disabled":true,"rental_uris":{"android":"levelo://app?vid=e7c2b082-ef91-42b1-9ef0-9e4329cee9cb","ios":"levelo://app?vid=e7c2b082-ef91-42b1-9ef0-9e4329cee9cb"},"vehicle_type_id":"4","last_reported":1733343049,"current_range_meters":0,"station_id":"","pricing_plan_id":"cebpf4jnsgd1na2vs0mg"},{"bike_id":"1193e2de-f4a1-40ed-9859-1770abcb2343","system_id":"levelo_inurba_marseille","lat":43.29552,"lon":5.42284,"is_reserved":false,"is_disabled":false,"rental_uris":{"android":"levelo://app?vid=1193e2de-f4a1-40ed-9859-1770abcb2343","ios":"levelo://app?vid=1193e2de-f4a1-40ed-9859-1770abcb2343"},"vehicle_type_id":"4","last_reported":1733343049,"current_range_meters":17600,"station_id":"ce4bhph2rcd13ifvqhdg","pricing_plan_id":"cebpf4jnsgd1na2vs0mg"},{"bike_id":"7e8fc6cf-f0f2-4700-8557-beaab027395f","system_id":"levelo_inurba_marseille","lat":43.31473,"lon":5.37304,"is_reserved":false,"is_disabled":false,"rental_uris":{"android":"levelo://app?vid=7e8fc6cf-f0f2-4700-8557-beaab027395f","ios":"levelo://app?vid=7e8fc6cf-f0f2-4700-8557-beaab027395f"},"vehicle_type_id":"4","last_reported":1733343049,"current_range_meters":13600,"station_id":"ce4bgt12rcd13ifvqcd0","pricing_plan_id":"cebpf4jnsgd1na2vs0mg"},{"bike_id":"63bbf9db-f670-4808-82d3-3fbcefc33022","system_id":"levelo_inurba_marseille","lat":43.25582,"lon":5.38226,"is_reserved":false,"is_disabled":false,"rental_uris":{"android":"levelo://app?vid=63bbf9db-f670-4808-82d3-3fbcefc33022","ios":"levelo://app?vid=63bbf9db-f670-4808-82d3-3fbcefc33022"},"vehicle_type_id":"4","last_reported":1733343049,"current_range_meters":38400,"station_id":"ce4bhih2rcd13ifvqfs0","pricing_plan_id":"cebpf4jnsgd1na2vs0mg"},{"bike_id":"a0448019-2705-493f-8ac3-16f123faf9df","system_id":"levelo_inurba_marseille","lat":43.28474,"lon":5.38432,"is_reserved":false,"is_disabled":false,"rental_uris":{"android":"levelo://app?vid=a0448019-2705-493f-8ac3-16f123faf9df","ios":"levelo://app?vid=a0448019-2705-493f-8ac3-16f123faf9df"},"vehicle_type_id":"4","last_reported":1733343049,"current_range_meters":27600,"station_id":"ce4bh512rcd13ifvqe3g","pricing_plan_id":"cebpf4jnsgd1na2vs0mg"},{"bike_id":"47446314-3377-4eeb-ac99-7c7c1d340bea","system_id":"levelo_inurba_marseille","lat":43.27812,"lon":5.40699,"is_reserved":false,"is_disabled":false,"rental_uris":{"android":"levelo://app?vid=47446314-3377-4eeb-ac99-7c7c1d340bea","ios":"levelo://app?vid=47446314-3377-4eeb-ac99-7c7c1d340bea"},"vehicle_type_id":"4","last_reported":1733343049,"current_range_meters":3200,"station_id":"ce4bhnh2rcd13ifvqgtg","pricing_plan_id":"cebpf4jnsgd1na2vs0mg"},{"bike_id":"ab526d01-0b32-4647-a077-f946d38526c2","system_id":"levelo_inurba_marseille","lat":43.2756,"lon":5.38418,"is_reserved":false,"is_disabled":false,"rental_uris":{"android":"levelo://app?vid=ab526d01-0b32-4647-a077-f946d38526c2","ios":"levelo://app?vid=ab526d01-0b32-4647-a077-f946d38526c2"},"vehicle_type_id":"4","last_reported":1733343049,"current_range_meters":14000,"station_id":"ce4bhh92rcd13ifvqfi0","pricing_plan_id":"cebpf4jnsgd1na2vs0mg"},{"bike_id":"0f30e837-871f-4a2c-aeff-7fec469dda07","system_id":"levelo_inurba_marseille","lat":43.29894,"lon":5.4366,"is_reserved":false,"is_disabled":false,"rental_uris":{"android":"levelo://app?vid=0f30e837-871f-4a2c-aeff-7fec469dda07","ios":"levelo://app?vid=0f30e837-871f-4a2c-aeff-7fec469dda07"},"vehicle_type_id":"4","last_reported":1733343049,"current_range_meters":19200,"station_id":"ce4bhpp2rcd13ifvqhfg","pricing_plan_id":"cebpf4jnsgd1na2vs0mg"},{"bike_id":"dfdab842-6863-4af8-9afd-054176295b2d","system_id":"levelo_inurba_marseille","lat":43.24668,"lon":5.38173,"is_reserved":false,"is_disabled":false,"rental_uris":{"android":"levelo://app?vid=dfdab842-6863-4af8-9afd-054176295b2d","ios":"levelo://app?vid=dfdab842-6863-4af8-9afd-054176295b2d"},"vehicle_type_id":"4","last_reported":1733343049,"current_range_meters":38800,"station_id":"ce4bhih2rcd13ifvqfr0","pricing_plan_id":"cebpf4jnsgd1na2vs0mg"},{"bike_id":"132970a3-ee02-48dc-a0cb-b3140e3325a4","system_id":"levelo_inurba_marseille","lat":43.26678,"lon":5.3827,"is_reserved":false,"is_disabled":true,"rental_uris":{"android":"levelo://app?vid=132970a3-ee02-48dc-a0cb-b3140e3325a4","ios":"levelo://app?vid=132970a3-ee02-48dc-a0cb-b3140e3325a4"},"vehicle_type_id":"4","last_reported":1733343049,"current_range_meters":0,"station_id":"ce4bhg92rcd13ifvqf90","pricing_plan_id":"cebpf4jnsgd1na2vs0mg"},{"bike_id":"2f3968e7-9336-4ee4-ba78-8e92c0a818cc","system_id":"levelo_inurba_marseille","lat":43.31322,"lon":5.36647,"is_reserved":false,"is_disabled":true,"rental_uris":{"android":"levelo://app?vid=2f3968e7-9336-4ee4-ba78-8e92c0a818cc","ios":"levelo://app?vid=2f3968e7-9336-4ee4-ba78-8e92c0a818cc"},"vehicle_type_id":"4","last_reported":1733343049,"current_range_meters":1600,"station_id":"","pricing_plan_id":"cebpf4jnsgd1na2vs0mg"},{"bike_id":"4d6921f8-1629-4710-9fe7-e15f8b8d7414","system_id":"levelo_inurba_marseille","lat":43.29223,"lon":5.36057,"is_reserved":false,"is_disabled":false,"rental_uris":{"android":"levelo://app?vid=4d6921f8-1629-4710-9fe7-e15f8b8d7414","ios":"levelo://app?vid=4d6921f8-1629-4710-9fe7-e15f8b8d7414"},"vehicle_type_id":"4","last_reported":1733343049,"current_range_meters":4800,"station_id":"ce4bhbh2rcd13ifvqeqg","pricing_plan_id":"cebpf4jnsgd1na2vs0mg"},{"bike_id":"16bea42d-3248-41fd-8b51-39fb3d7ec2c4","system_id":"levelo_inurba_marseille","lat":43.26471,"lon":5.38525,"is_reserved":false,"is_disabled":true,"rental_uris":{"android":"levelo://app?vid=16bea42d-3248-41fd-8b51-39fb3d7ec2c4","ios":"levelo://app?vid=16bea42d-3248-41fd-8b51-39fb3d7ec2c4"},"vehicle_type_id":"4","last_reported":1733343049,"current_range_meters":0,"station_id":"","pricing_plan_id":"cebpf4jnsgd1na2vs0mg"},{"bike_id":"c3e5569f-7c48-4ae2-aa1a-b9bb23c0f500","system_id":"levelo_inurba_marseille","lat":43.28395,"lon":5.37533,"is_reserved":false,"is_disabled":false,"rental_uris":{"android":"levelo://app?vid=c3e5569f-7c48-4ae2-aa1a-b9bb23c0f500","ios":"levelo://app?vid=c3e5569f-7c48-4ae2-aa1a-b9bb23c0f500"},"vehicle_type_id":"4","last_reported":1733343049,"current_range_meters":17200,"station_id":"ce4bh412rcd13ifvqds0","pricing_plan_id":"cebpf4jnsgd1na2vs0mg"},{"bike_id":"c978ea4f-7994-4771-8562-7cfcc493f3fe","system_id":"levelo_inurba_marseille","lat":43.27655,"lon":5.38926,"is_reserved":false,"is_disabled":true,"rental_uris":{"android":"levelo://app?vid=c978ea4f-7994-4771-8562-7cfcc493f3fe","ios":"levelo://app?vid=c978ea4f-7994-4771-8562-7cfcc493f3fe"},"vehicle_type_id":"4","last_reported":1733343049,"current_range_meters":0,"station_id":"ce4bhi12rcd13ifvqfo0","pricing_plan_id":"cebpf4jnsgd1na2vs0mg"},{"bike_id":"fefed06f-f77c-4003-83aa-4b7097b9e66e","system_id":"levelo_inurba_marseille","lat":43.25561,"lon":5.40982,"is_reserved":false,"is_disabled":false,"rental_uris":{"android":"levelo://app?vid=fefed06f-f77c-4003-83aa-4b7097b9e66e","ios":"levelo://app?vid=fefed06f-f77c-4003-83aa-4b7097b9e66e"},"vehicle_type_id":"4","last_reported":1733343049,"current_range_meters":36400,"station_id":"","pricing_plan_id":"cebpf4jnsgd1na2vs0mg"},{"bike_id":"7e00f221-e10c-4cec-94db-d74cfbedeac9","system_id":"levelo_inurba_marseille","lat":43.31532,"lon":5.3802,"is_reserved":false,"is_disabled":false,"rental_uris":{"android":"levelo://app?vid=7e00f221-e10c-4cec-94db-d74cfbedeac9","ios":"levelo://app?vid=7e00f221-e10c-4cec-94db-d74cfbedeac9"},"vehicle_type_id":"4","last_reported":1733343049,"current_range_meters":20800,"station_id":"ce4bhsp2rcd13ifvqi50","pricing_plan_id":"cebpf4jnsgd1na2vs0mg"},{"bike_id":"e954cda1-6476-4a03-8975-361c5188c3f8","system_id":"levelo_inurba_marseille","lat":43.28146,"lon":5.42642,"is_reserved":false,"is_disabled":false,"rental_uris":{"android":"levelo://app?vid=e954cda1-6476-4a03-8975-361c5188c3f8","ios":"levelo://app?vid=e954cda1-6476-4a03-8975-361c5188c3f8"},"vehicle_type_id":"4","last_reported":1733343049,"current_range_meters":38800,"station_id":"ce4bhnh2rcd13ifvqgug","pricing_plan_id":"cebpf4jnsgd1na2vs0mg"},{"bike_id":"a5acf5d2-0095-4547-bd44-4edf280e2cf8","system_id":"levelo_inurba_marseille","lat":43.31269,"lon":5.40165,"is_reserved":false,"is_disabled":false,"rental_uris":{"android":"levelo://app?vid=a5acf5d2-0095-4547-bd44-4edf280e2cf8","ios":"levelo://app?vid=a5acf5d2-0095-4547-bd44-4edf280e2cf8"},"vehicle_type_id":"4","last_reported":1733343049,"current_range_meters":28400,"station_id":"ce4bh092rcd13ifvqd30","pricing_plan_id":"cebpf4jnsgd1na2vs0mg"},{"bike_id":"85c1cadf-d1ae-400b-837f-d0ed293f67d3","system_id":"levelo_inurba_marseille","lat":43.31707,"lon":5.43706,"is_reserved":false,"is_disabled":false,"rental_uris":{"android":"levelo://app?vid=85c1cadf-d1ae-400b-837f-d0ed293f67d3","ios":"levelo://app?vid=85c1cadf-d1ae-400b-837f-d0ed293f67d3"},"vehicle_type_id":"4","last_reported":1733343049,"current_range_meters":12800,"station_id":"ce4bhp92rcd13ifvqhcg","pricing_plan_id":"cebpf4jnsgd1na2vs0mg"},{"bike_id":"bc17f359-3933-45c8-ad56-9925f6a38dca","system_id":"levelo_inurba_marseille","lat":43.32344,"lon":5.40613,"is_reserved":false,"is_disabled":false,"rental_uris":{"android":"levelo://app?vid=bc17f359-3933-45c8-ad56-9925f6a38dca","ios":"levelo://app?vid=bc17f359-3933-45c8-ad56-9925f6a38dca"},"vehicle_type_id":"4","last_reported":1733343049,"current_range_meters":26000,"station_id":"ce4bhq92rcd13ifvqhjg","pricing_plan_id":"cebpf4jnsgd1na2vs0mg"},{"bike_id":"edf85509-ab78-418d-a76b-a6a2457f95ab","system_id":"levelo_inurba_marseille","lat":43.31328,"lon":5.39707,"is_reserved":false,"is_disabled":false,"rental_uris":{"android":"levelo://app?vid=edf85509-ab78-418d-a76b-a6a2457f95ab","ios":"levelo://app?vid=edf85509-ab78-418d-a76b-a6a2457f95ab"},"vehicle_type_id":"4","last_reported":1733343049,"current_range_meters":38800,"station_id":"ce4bgvp2rcd13ifvqcu0","pricing_plan_id":"cebpf4jnsgd1na2vs0mg"},{"bike_id":"f414f406-3c0e-4948-b1a8-40f60759094e","system_id":"levelo_inurba_marseille","lat":43.28687,"lon":5.37437,"is_reserved":false,"is_disabled":false,"rental_uris":{"android":"levelo://app?vid=f414f406-3c0e-4948-b1a8-40f60759094e","ios":"levelo://app?vid=f414f406-3c0e-4948-b1a8-40f60759094e"},"vehicle_type_id":"4","last_reported":1733343049,"current_range_meters":38400,"station_id":"ce4bh3p2rcd13ifvqdq0","pricing_plan_id":"cebpf4jnsgd1na2vs0mg"},{"bike_id":"6f1f4c8f-b22d-4d1d-88ae-6f2707bae092","system_id":"levelo_inurba_marseille","lat":43.2693,"lon":5.40253,"is_reserved":false,"is_disabled":false,"rental_uris":{"android":"levelo://app?vid=6f1f4c8f-b22d-4d1d-88ae-6f2707bae092","ios":"levelo://app?vid=6f1f4c8f-b22d-4d1d-88ae-6f2707bae092"},"vehicle_type_id":"4","last_reported":1733343049,"current_range_meters":38800,"station_id":"cjm6bp8fraef2m0cb0m0","pricing_plan_id":"cebpf4jnsgd1na2vs0mg"},{"bike_id":"4156462a-4735-45ee-8da0-a9945ed8f6d7","system_id":"levelo_inurba_marseille","lat":43.30644,"lon":5.40075,"is_reserved":false,"is_disabled":false,"rental_uris":{"android":"levelo://app?vid=4156462a-4735-45ee-8da0-a9945ed8f6d7","ios":"levelo://app?vid=4156462a-4735-45ee-8da0-a9945ed8f6d7"},"vehicle_type_id":"4","last_reported":1733343049,"current_range_meters":29600,"station_id":"ce4bh112rcd13ifvqda0","pricing_plan_id":"cebpf4jnsgd1na2vs0mg"},{"bike_id":"46b3db91-a2c4-44c8-b14d-7d473bb1a0f9","system_id":"levelo_inurba_marseille","lat":43.2783,"lon":5.39211,"is_reserved":false,"is_disabled":true,"rental_uris":{"android":"levelo://app?vid=46b3db91-a2c4-44c8-b14d-7d473bb1a0f9","ios":"levelo://app?vid=46b3db91-a2c4-44c8-b14d-7d473bb1a0f9"},"vehicle_type_id":"4","last_reported":1733343049,"current_range_meters":400,"station_id":"ce4bhjp2rcd13ifvqga0","pricing_plan_id":"cebpf4jnsgd1na2vs0mg"},{"bike_id":"5a50557a-331c-47f8-82cc-e12807c908db","system_id":"levelo_inurba_marseille","lat":43.33022,"lon":5.39042,"is_reserved":false,"is_disabled":false,"rental_uris":{"android":"levelo://app?vid=5a50557a-331c-47f8-82cc-e12807c908db","ios":"levelo://app?vid=5a50557a-331c-47f8-82cc-e12807c908db"},"vehicle_type_id":"4","last_reported":1733343049,"current_range_meters":22800,"station_id":"ce4bhr92rcd13ifvqhrg","pricing_plan_id":"cebpf4jnsgd1na2vs0mg"},{"bike_id":"4b8b7e60-b84b-4976-aed6-4efafc238b96","system_id":"levelo_inurba_marseille","lat":43.27055,"lon":5.40262,"is_reserved":false,"is_disabled":false,"rental_uris":{"android":"levelo://app?vid=4b8b7e60-b84b-4976-aed6-4efafc238b96","ios":"levelo://app?vid=4b8b7e60-b84b-4976-aed6-4efafc238b96"},"vehicle_type_id":"4","last_reported":1733343049,"current_range_meters":22000,"station_id":"ce4bhk92rcd13ifvqgc0","pricing_plan_id":"cebpf4jnsgd1na2vs0mg"},{"bike_id":"9108fa6d-fa85-4a83-a690-1bbae5f75069","system_id":"levelo_inurba_marseille","lat":43.28072,"lon":5.39657,"is_reserved":false,"is_disabled":false,"rental_uris":{"android":"levelo://app?vid=9108fa6d-fa85-4a83-a690-1bbae5f75069","ios":"levelo://app?vid=9108fa6d-fa85-4a83-a690-1bbae5f75069"},"vehicle_type_id":"4","last_reported":1733343049,"current_range_meters":36800,"station_id":"ce4bho12rcd13ifvqh2g","pricing_plan_id":"cebpf4jnsgd1na2vs0mg"},{"bike_id":"083c0f74-65cd-4a47-a359-33d01e265a9c","system_id":"levelo_inurba_marseille","lat":43.28727,"lon":5.37949,"is_reserved":false,"is_disabled":true,"rental_uris":{"android":"levelo://app?vid=083c0f74-65cd-4a47-a359-33d01e265a9c","ios":"levelo://app?vid=083c0f74-65cd-4a47-a359-33d01e265a9c"},"vehicle_type_id":"4","last_reported":1733343049,"current_range_meters":28400,"station_id":"ce4bh9p2rcd13ifvqec0","pricing_plan_id":"cebpf4jnsgd1na2vs0mg"},{"bike_id":"e14bb60d-52dc-49c6-8312-cecc6af9d01f","system_id":"levelo_inurba_marseille","lat":43.31325,"lon":5.39695,"is_reserved":false,"is_disabled":false,"rental_uris":{"android":"levelo://app?vid=e14bb60d-52dc-49c6-8312-cecc6af9d01f","ios":"levelo://app?vid=e14bb60d-52dc-49c6-8312-cecc6af9d01f"},"vehicle_type_id":"4","last_reported":1733343049,"current_range_meters":9600,"station_id":"ce4bgvp2rcd13ifvqcu0","pricing_plan_id":"cebpf4jnsgd1na2vs0mg"},{"bike_id":"ef8dccf7-5c02-4648-910c-2c64ce488a65","system_id":"levelo_inurba_marseille","lat":43.28147,"lon":5.42791,"is_reserved":false,"is_disabled":false,"rental_uris":{"android":"levelo://app?vid=ef8dccf7-5c02-4648-910c-2c64ce488a65","ios":"levelo://app?vid=ef8dccf7-5c02-4648-910c-2c64ce488a65"},"vehicle_type_id":"4","last_reported":1733343049,"current_range_meters":9200,"station_id":"","pricing_plan_id":"cebpf4jnsgd1na2vs0mg"},{"bike_id":"afddb0ff-7658-4984-b285-b427f08dacd1","system_id":"levelo_inurba_marseille","lat":43.25093,"lon":5.40326,"is_reserved":false,"is_disabled":false,"rental_uris":{"android":"levelo://app?vid=afddb0ff-7658-4984-b285-b427f08dacd1","ios":"levelo://app?vid=afddb0ff-7658-4984-b285-b427f08dacd1"},"vehicle_type_id":"4","last_reported":1733343049,"current_range_meters":38800,"station_id":"ce4bhlh2rcd13ifvqgig","pricing_plan_id":"cebpf4jnsgd1na2vs0mg"},{"bike_id":"b73386f2-fa04-4fae-98be-ff0e17efea9c","system_id":"levelo_inurba_marseille","lat":43.32363,"lon":5.38876,"is_reserved":false,"is_disabled":false,"rental_uris":{"android":"levelo://app?vid=b73386f2-fa04-4fae-98be-ff0e17efea9c","ios":"levelo://app?vid=b73386f2-fa04-4fae-98be-ff0e17efea9c"},"vehicle_type_id":"4","last_reported":1733343049,"current_range_meters":6400,"station_id":"ce4bhqp2rcd13ifvqhog","pricing_plan_id":"cebpf4jnsgd1na2vs0mg"},{"bike_id":"8b3e6974-295b-4cad-992d-a76d04015515","system_id":"levelo_inurba_marseille","lat":43.28439,"lon":5.39182,"is_reserved":false,"is_disabled":false,"rental_uris":{"android":"levelo://app?vid=8b3e6974-295b-4cad-992d-a76d04015515","ios":"levelo://app?vid=8b3e6974-295b-4cad-992d-a76d04015515"},"vehicle_type_id":"4","last_reported":1733343049,"current_range_meters":22400,"station_id":"ce4bhoh2rcd13ifvqh5g","pricing_plan_id":"cebpf4jnsgd1na2vs0mg"},{"bike_id":"5cef358c-4d33-4f46-b1a1-56f6f4f255fd","system_id":"levelo_inurba_marseille","lat":43.29569,"lon":5.43938,"is_reserved":false,"is_disabled":true,"rental_uris":{"android":"levelo://app?vid=5cef358c-4d33-4f46-b1a1-56f6f4f255fd","ios":"levelo://app?vid=5cef358c-4d33-4f46-b1a1-56f6f4f255fd"},"vehicle_type_id":"4","last_reported":1733343049,"current_range_meters":0,"station_id":"","pricing_plan_id":"cebpf4jnsgd1na2vs0mg"},{"bike_id":"734d07dc-217f-41dd-93a2-1bef235667d0","system_id":"levelo_inurba_marseille","lat":43.24386,"lon":5.37067,"is_reserved":false,"is_disabled":true,"rental_uris":{"android":"levelo://app?vid=734d07dc-217f-41dd-93a2-1bef235667d0","ios":"levelo://app?vid=734d07dc-217f-41dd-93a2-1bef235667d0"},"vehicle_type_id":"4","last_reported":1733343049,"current_range_meters":14000,"station_id":"ce4bhhh2rcd13ifvqfk0","pricing_plan_id":"cebpf4jnsgd1na2vs0mg"},{"bike_id":"e25873f4-3a76-425b-b06c-7658e25c7bd9","system_id":"levelo_inurba_marseille","lat":43.31224,"lon":5.36864,"is_reserved":false,"is_disabled":true,"rental_uris":{"android":"levelo://app?vid=e25873f4-3a76-425b-b06c-7658e25c7bd9","ios":"levelo://app?vid=e25873f4-3a76-425b-b06c-7658e25c7bd9"},"vehicle_type_id":"4","last_reported":1733343049,"current_range_meters":0,"station_id":"ce4bgl92rcd13ifvqbq0","pricing_plan_id":"cebpf4jnsgd1na2vs0mg"},{"bike_id":"0de1cf1d-afca-4ce8-9aaa-eb4d8ffb460a","system_id":"levelo_inurba_marseille","lat":43.26201,"lon":5.37926,"is_reserved":false,"is_disabled":false,"rental_uris":{"android":"levelo://app?vid=0de1cf1d-afca-4ce8-9aaa-eb4d8ffb460a","ios":"levelo://app?vid=0de1cf1d-afca-4ce8-9aaa-eb4d8ffb460a"},"vehicle_type_id":"4","last_reported":1733343049,"current_range_meters":27600,"station_id":"ce4bhjp2rcd13ifvqg90","pricing_plan_id":"cebpf4jnsgd1na2vs0mg"},{"bike_id":"129a4210-2541-4275-959b-7a3a4cdc5c56","system_id":"levelo_inurba_marseille","lat":43.30886,"lon":5.39635,"is_reserved":false,"is_disabled":false,"rental_uris":{"android":"levelo://app?vid=129a4210-2541-4275-959b-7a3a4cdc5c56","ios":"levelo://app?vid=129a4210-2541-4275-959b-7a3a4cdc5c56"},"vehicle_type_id":"4","last_reported":1733343049,"current_range_meters":26000,"station_id":"ce4bh012rcd13ifvqcv0","pricing_plan_id":"cebpf4jnsgd1na2vs0mg"},{"bike_id":"7fbe1f77-7e94-4430-97d7-452b0376d614","system_id":"levelo_inurba_marseille","lat":43.29262,"lon":5.38439,"is_reserved":false,"is_disabled":false,"rental_uris":{"android":"levelo://app?vid=7fbe1f77-7e94-4430-97d7-452b0376d614","ios":"levelo://app?vid=7fbe1f77-7e94-4430-97d7-452b0376d614"},"vehicle_type_id":"4","last_reported":1733343049,"current_range_meters":32000,"station_id":"ce4bh692rcd13ifvqea0","pricing_plan_id":"cebpf4jnsgd1na2vs0mg"},{"bike_id":"cdfe6590-4984-4014-86c8-6dd70747c27a","system_id":"levelo_inurba_marseille","lat":43.29737,"lon":5.37434,"is_reserved":false,"is_disabled":true,"rental_uris":{"android":"levelo://app?vid=cdfe6590-4984-4014-86c8-6dd70747c27a","ios":"levelo://app?vid=cdfe6590-4984-4014-86c8-6dd70747c27a"},"vehicle_type_id":"4","last_reported":1733343049,"current_range_meters":0,"station_id":"","pricing_plan_id":"cebpf4jnsgd1na2vs0mg"},{"bike_id":"a5fd9bee-2e92-41a6-a680-3288f7c17710","system_id":"levelo_inurba_marseille","lat":43.28152,"lon":5.42648,"is_reserved":false,"is_disabled":false,"rental_uris":{"android":"levelo://app?vid=a5fd9bee-2e92-41a6-a680-3288f7c17710","ios":"levelo://app?vid=a5fd9bee-2e92-41a6-a680-3288f7c17710"},"vehicle_type_id":"4","last_reported":1733343049,"current_range_meters":38800,"station_id":"ce4bhnh2rcd13ifvqgug","pricing_plan_id":"cebpf4jnsgd1na2vs0mg"},{"bike_id":"9309313e-316d-4707-816e-67df9a39a867","system_id":"levelo_inurba_marseille","lat":43.28933,"lon":5.36383,"is_reserved":false,"is_disabled":true,"rental_uris":{"android":"levelo://app?vid=9309313e-316d-4707-816e-67df9a39a867","ios":"levelo://app?vid=9309313e-316d-4707-816e-67df9a39a867"},"vehicle_type_id":"4","last_reported":1733343049,"current_range_meters":12400,"station_id":"ce4bhc92rcd13ifvqetg","pricing_plan_id":"cebpf4jnsgd1na2vs0mg"},{"bike_id":"d7552e95-9b8e-4a23-8255-5bf5d185f76a","system_id":"levelo_inurba_marseille","lat":43.28928,"lon":5.3839,"is_reserved":false,"is_disabled":false,"rental_uris":{"android":"levelo://app?vid=d7552e95-9b8e-4a23-8255-5bf5d185f76a","ios":"levelo://app?vid=d7552e95-9b8e-4a23-8255-5bf5d185f76a"},"vehicle_type_id":"4","last_reported":1733343049,"current_range_meters":22400,"station_id":"ce4bh612rcd13ifvqe6g","pricing_plan_id":"cebpf4jnsgd1na2vs0mg"},{"bike_id":"6b242990-7fff-4f38-9490-f80fd76ceeeb","system_id":"levelo_inurba_marseille","lat":43.29769,"lon":5.39332,"is_reserved":false,"is_disabled":false,"rental_uris":{"android":"levelo://app?vid=6b242990-7fff-4f38-9490-f80fd76ceeeb","ios":"levelo://app?vid=6b242990-7fff-4f38-9490-f80fd76ceeeb"},"vehicle_type_id":"4","last_reported":1733343049,"current_range_meters":33600,"station_id":"chh1huq6cuj3fo74tm60","pricing_plan_id":"cebpf4jnsgd1na2vs0mg"},{"bike_id":"d4109818-53bc-4fed-b50a-7c42a9ee5d37","system_id":"levelo_inurba_marseille","lat":43.24805,"lon":5.37453,"is_reserved":false,"is_disabled":false,"rental_uris":{"android":"levelo://app?vid=d4109818-53bc-4fed-b50a-7c42a9ee5d37","ios":"levelo://app?vid=d4109818-53bc-4fed-b50a-7c42a9ee5d37"},"vehicle_type_id":"4","last_reported":1733343049,"current_range_meters":24400,"station_id":"ce4bhgh2rcd13ifvqfb0","pricing_plan_id":"cebpf4jnsgd1na2vs0mg"},{"bike_id":"987a5ab4-d60c-480c-94b6-7cab38975402","system_id":"levelo_inurba_marseille","lat":43.29748,"lon":5.37971,"is_reserved":false,"is_disabled":true,"rental_uris":{"android":"levelo://app?vid=987a5ab4-d60c-480c-94b6-7cab38975402","ios":"levelo://app?vid=987a5ab4-d60c-480c-94b6-7cab38975402"},"vehicle_type_id":"4","last_reported":1733343049,"current_range_meters":0,"station_id":"","pricing_plan_id":"cebpf4jnsgd1na2vs0mg"},{"bike_id":"2c4596ad-0ad9-4016-b92b-0093349de2b4","system_id":"levelo_inurba_marseille","lat":43.30755,"lon":5.38187,"is_reserved":false,"is_disabled":true,"rental_uris":{"android":"levelo://app?vid=2c4596ad-0ad9-4016-b92b-0093349de2b4","ios":"levelo://app?vid=2c4596ad-0ad9-4016-b92b-0093349de2b4"},"vehicle_type_id":"4","last_reported":1733343049,"current_range_meters":0,"station_id":"","pricing_plan_id":"cebpf4jnsgd1na2vs0mg"},{"bike_id":"bf677e25-ce8c-437a-baa3-c349e8510a0a","system_id":"levelo_inurba_marseille","lat":43.26059,"lon":5.39397,"is_reserved":false,"is_disabled":false,"rental_uris":{"android":"levelo://app?vid=bf677e25-ce8c-437a-baa3-c349e8510a0a","ios":"levelo://app?vid=bf677e25-ce8c-437a-baa3-c349e8510a0a"},"vehicle_type_id":"4","last_reported":1733343049,"current_range_meters":5600,"station_id":"ce4bhh92rcd13ifvqfj0","pricing_plan_id":"cebpf4jnsgd1na2vs0mg"},{"bike_id":"4379e6c8-5156-44af-994d-aadeb3d8d0b7","system_id":"levelo_inurba_marseille","lat":43.297968,"lon":5.404041,"is_reserved":false,"is_disabled":false,"rental_uris":{"android":"levelo://app?vid=4379e6c8-5156-44af-994d-aadeb3d8d0b7","ios":"levelo://app?vid=4379e6c8-5156-44af-994d-aadeb3d8d0b7"},"vehicle_type_id":"4","last_reported":1733343049,"current_range_meters":28000,"station_id":"ce4bh112rcd13ifvqd90","pricing_plan_id":"cebpf4jnsgd1na2vs0mg"},{"bike_id":"b7ab8c01-033f-4395-8276-23c850ad3d02","system_id":"levelo_inurba_marseille","lat":43.30348,"lon":5.36626,"is_reserved":false,"is_disabled":true,"rental_uris":{"android":"levelo://app?vid=b7ab8c01-033f-4395-8276-23c850ad3d02","ios":"levelo://app?vid=b7ab8c01-033f-4395-8276-23c850ad3d02"},"vehicle_type_id":"4","last_reported":1733343049,"current_range_meters":0,"station_id":"","pricing_plan_id":"cebpf4jnsgd1na2vs0mg"},{"bike_id":"3e5094fe-36c8-4f4a-9a18-d38d46ff20f4","system_id":"levelo_inurba_marseille","lat":43.32368,"lon":5.38888,"is_reserved":false,"is_disabled":false,"rental_uris":{"android":"levelo://app?vid=3e5094fe-36c8-4f4a-9a18-d38d46ff20f4","ios":"levelo://app?vid=3e5094fe-36c8-4f4a-9a18-d38d46ff20f4"},"vehicle_type_id":"4","last_reported":1733343049,"current_range_meters":11200,"station_id":"ce4bhqp2rcd13ifvqhog","pricing_plan_id":"cebpf4jnsgd1na2vs0mg"},{"bike_id":"64ddf7ad-d67b-418f-8ac5-39f9291c677a","system_id":"levelo_inurba_marseille","lat":43.29068,"lon":5.37171,"is_reserved":false,"is_disabled":false,"rental_uris":{"android":"levelo://app?vid=64ddf7ad-d67b-418f-8ac5-39f9291c677a","ios":"levelo://app?vid=64ddf7ad-d67b-418f-8ac5-39f9291c677a"},"vehicle_type_id":"4","last_reported":1733343049,"current_range_meters":23200,"station_id":"ce4bh5p2rcd13ifvqe4g","pricing_plan_id":"cebpf4jnsgd1na2vs0mg"},{"bike_id":"d25acaba-d8d4-43f2-8aeb-8bfae5e50811","system_id":"levelo_inurba_marseille","lat":43.25107,"lon":5.40323,"is_reserved":false,"is_disabled":false,"rental_uris":{"android":"levelo://app?vid=d25acaba-d8d4-43f2-8aeb-8bfae5e50811","ios":"levelo://app?vid=d25acaba-d8d4-43f2-8aeb-8bfae5e50811"},"vehicle_type_id":"4","last_reported":1733343049,"current_range_meters":38800,"station_id":"ce4bhlh2rcd13ifvqgig","pricing_plan_id":"cebpf4jnsgd1na2vs0mg"},{"bike_id":"19d2ce59-2b75-48a1-9810-172e15ca151e","system_id":"levelo_inurba_marseille","lat":43.23197,"lon":5.35544,"is_reserved":false,"is_disabled":false,"rental_uris":{"android":"levelo://app?vid=19d2ce59-2b75-48a1-9810-172e15ca151e","ios":"levelo://app?vid=19d2ce59-2b75-48a1-9810-172e15ca151e"},"vehicle_type_id":"4","last_reported":1733343049,"current_range_meters":7200,"station_id":"ce4bhu92rcd13ifvqi70","pricing_plan_id":"cebpf4jnsgd1na2vs0mg"},{"bike_id":"f099ee54-d871-4165-8e37-23754358d38c","system_id":"levelo_inurba_marseille","lat":43.32287,"lon":5.38243,"is_reserved":false,"is_disabled":false,"rental_uris":{"android":"levelo://app?vid=f099ee54-d871-4165-8e37-23754358d38c","ios":"levelo://app?vid=f099ee54-d871-4165-8e37-23754358d38c"},"vehicle_type_id":"4","last_reported":1733343049,"current_range_meters":34000,"station_id":"ce4bhr12rcd13ifvqhqg","pricing_plan_id":"cebpf4jnsgd1na2vs0mg"},{"bike_id":"d4c93c5f-36b0-4ad2-9e59-37711c779b6d","system_id":"levelo_inurba_marseille","lat":43.27437,"lon":5.39402,"is_reserved":false,"is_disabled":true,"rental_uris":{"android":"levelo://app?vid=d4c93c5f-36b0-4ad2-9e59-37711c779b6d","ios":"levelo://app?vid=d4c93c5f-36b0-4ad2-9e59-37711c779b6d"},"vehicle_type_id":"4","last_reported":1733343049,"current_range_meters":0,"station_id":"ce4bhdp2rcd13ifvqf20","pricing_plan_id":"cebpf4jnsgd1na2vs0mg"},{"bike_id":"20b7679f-54b6-4323-a947-01c926683005","system_id":"levelo_inurba_marseille","lat":43.30084,"lon":5.39098,"is_reserved":false,"is_disabled":false,"rental_uris":{"android":"levelo://app?vid=20b7679f-54b6-4323-a947-01c926683005","ios":"levelo://app?vid=20b7679f-54b6-4323-a947-01c926683005"},"vehicle_type_id":"4","last_reported":1733343049,"current_range_meters":3200,"station_id":"ce4bh192rcd13ifvqdb0","pricing_plan_id":"cebpf4jnsgd1na2vs0mg"},{"bike_id":"21b56b2e-fd94-4a3a-b1a2-bdbe6900866e","system_id":"levelo_inurba_marseille","lat":43.31318,"lon":5.39703,"is_reserved":false,"is_disabled":false,"rental_uris":{"android":"levelo://app?vid=21b56b2e-fd94-4a3a-b1a2-bdbe6900866e","ios":"levelo://app?vid=21b56b2e-fd94-4a3a-b1a2-bdbe6900866e"},"vehicle_type_id":"4","last_reported":1733343049,"current_range_meters":38800,"station_id":"ce4bgvp2rcd13ifvqcu0","pricing_plan_id":"cebpf4jnsgd1na2vs0mg"},{"bike_id":"6cc6805f-c0ca-4585-bdf1-b5a0339762b0","system_id":"levelo_inurba_marseille","lat":43.29017,"lon":5.42798,"is_reserved":false,"is_disabled":true,"rental_uris":{"android":"levelo://app?vid=6cc6805f-c0ca-4585-bdf1-b5a0339762b0","ios":"levelo://app?vid=6cc6805f-c0ca-4585-bdf1-b5a0339762b0"},"vehicle_type_id":"4","last_reported":1733343049,"current_range_meters":0,"station_id":"","pricing_plan_id":"cebpf4jnsgd1na2vs0mg"},{"bike_id":"7b4d4437-e3ba-4779-80c2-def8c06c14d8","system_id":"levelo_inurba_marseille","lat":43.27906,"lon":5.38007,"is_reserved":false,"is_disabled":true,"rental_uris":{"android":"levelo://app?vid=7b4d4437-e3ba-4779-80c2-def8c06c14d8","ios":"levelo://app?vid=7b4d4437-e3ba-4779-80c2-def8c06c14d8"},"vehicle_type_id":"4","last_reported":1733343049,"current_range_meters":0,"station_id":"ce4bhf92rcd13ifvqf50","pricing_plan_id":"cebpf4jnsgd1na2vs0mg"},{"bike_id":"0bfb3d4e-359d-4927-881b-5e84aa873cc8","system_id":"levelo_inurba_marseille","lat":43.32356,"lon":5.36754,"is_reserved":false,"is_disabled":false,"rental_uris":{"android":"levelo://app?vid=0bfb3d4e-359d-4927-881b-5e84aa873cc8","ios":"levelo://app?vid=0bfb3d4e-359d-4927-881b-5e84aa873cc8"},"vehicle_type_id":"4","last_reported":1733343049,"current_range_meters":19200,"station_id":"ce4bhsh2rcd13ifvqi2g","pricing_plan_id":"cebpf4jnsgd1na2vs0mg"},{"bike_id":"8d1c8b92-79bb-4181-b0d2-5e94db1a14d0","system_id":"levelo_inurba_marseille","lat":43.30008,"lon":5.38261,"is_reserved":false,"is_disabled":true,"rental_uris":{"android":"levelo://app?vid=8d1c8b92-79bb-4181-b0d2-5e94db1a14d0","ios":"levelo://app?vid=8d1c8b92-79bb-4181-b0d2-5e94db1a14d0"},"vehicle_type_id":"4","last_reported":1733343049,"current_range_meters":0,"station_id":"","pricing_plan_id":"cebpf4jnsgd1na2vs0mg"},{"bike_id":"cf6e5156-1d8e-4bf3-a433-dfeab3e6e59e","system_id":"levelo_inurba_marseille","lat":43.2903,"lon":5.3864,"is_reserved":false,"is_disabled":false,"rental_uris":{"android":"levelo://app?vid=cf6e5156-1d8e-4bf3-a433-dfeab3e6e59e","ios":"levelo://app?vid=cf6e5156-1d8e-4bf3-a433-dfeab3e6e59e"},"vehicle_type_id":"4","last_reported":1733343049,"current_range_meters":16000,"station_id":"ce4bh4p2rcd13ifvqe0g","pricing_plan_id":"cebpf4jnsgd1na2vs0mg"},{"bike_id":"69902979-557b-4685-9682-e4995da6a2c0","system_id":"levelo_inurba_marseille","lat":43.27044,"lon":5.40247,"is_reserved":false,"is_disabled":false,"rental_uris":{"android":"levelo://app?vid=69902979-557b-4685-9682-e4995da6a2c0","ios":"levelo://app?vid=69902979-557b-4685-9682-e4995da6a2c0"},"vehicle_type_id":"4","last_reported":1733343049,"current_range_meters":38800,"station_id":"ce4bhk92rcd13ifvqgc0","pricing_plan_id":"cebpf4jnsgd1na2vs0mg"},{"bike_id":"1d327b1b-12d4-4ffc-95ec-43f973a2cb6c","system_id":"levelo_inurba_marseille","lat":43.23953,"lon":5.36629,"is_reserved":false,"is_disabled":false,"rental_uris":{"android":"levelo://app?vid=1d327b1b-12d4-4ffc-95ec-43f973a2cb6c","ios":"levelo://app?vid=1d327b1b-12d4-4ffc-95ec-43f973a2cb6c"},"vehicle_type_id":"4","last_reported":1733343049,"current_range_meters":16400,"station_id":"ce4bhi12rcd13ifvqfp0","pricing_plan_id":"cebpf4jnsgd1na2vs0mg"},{"bike_id":"f99c98c7-6fcb-4f53-a391-e37ebd732f79","system_id":"levelo_inurba_marseille","lat":43.30931,"lon":5.40143,"is_reserved":false,"is_disabled":false,"rental_uris":{"android":"levelo://app?vid=f99c98c7-6fcb-4f53-a391-e37ebd732f79","ios":"levelo://app?vid=f99c98c7-6fcb-4f53-a391-e37ebd732f79"},"vehicle_type_id":"4","last_reported":1733343049,"current_range_meters":30400,"station_id":"ce4bgvp2rcd13ifvqct0","pricing_plan_id":"cebpf4jnsgd1na2vs0mg"},{"bike_id":"63956e89-b011-4841-b6a4-ba54afb182a1","system_id":"levelo_inurba_marseille","lat":43.29542,"lon":5.3855,"is_reserved":false,"is_disabled":true,"rental_uris":{"android":"levelo://app?vid=63956e89-b011-4841-b6a4-ba54afb182a1","ios":"levelo://app?vid=63956e89-b011-4841-b6a4-ba54afb182a1"},"vehicle_type_id":"4","last_reported":1733343049,"current_range_meters":7200,"station_id":"ce4bgih2rcd13ifvqba0","pricing_plan_id":"cebpf4jnsgd1na2vs0mg"},{"bike_id":"b3ed838e-36ad-4325-824a-a738f0ef27dd","system_id":"levelo_inurba_marseille","lat":43.26552,"lon":5.37283,"is_reserved":false,"is_disabled":false,"rental_uris":{"android":"levelo://app?vid=b3ed838e-36ad-4325-824a-a738f0ef27dd","ios":"levelo://app?vid=b3ed838e-36ad-4325-824a-a738f0ef27dd"},"vehicle_type_id":"4","last_reported":1733343049,"current_range_meters":25200,"station_id":"ce4bhg12rcd13ifvqf70","pricing_plan_id":"cebpf4jnsgd1na2vs0mg"},{"bike_id":"796bd778-a63b-4b81-b652-33d3e6cf5498","system_id":"levelo_inurba_marseille","lat":43.31879,"lon":5.40727,"is_reserved":false,"is_disabled":false,"rental_uris":{"android":"levelo://app?vid=796bd778-a63b-4b81-b652-33d3e6cf5498","ios":"levelo://app?vid=796bd778-a63b-4b81-b652-33d3e6cf5498"},"vehicle_type_id":"4","last_reported":1733343049,"current_range_meters":38800,"station_id":"ce4bhq12rcd13ifvqhig","pricing_plan_id":"cebpf4jnsgd1na2vs0mg"},{"bike_id":"1ca0aca0-4ca4-4bf8-9b1d-054345c3a341","system_id":"levelo_inurba_marseille","lat":43.28883,"lon":5.40004,"is_reserved":false,"is_disabled":false,"rental_uris":{"android":"levelo://app?vid=1ca0aca0-4ca4-4bf8-9b1d-054345c3a341","ios":"levelo://app?vid=1ca0aca0-4ca4-4bf8-9b1d-054345c3a341"},"vehicle_type_id":"4","last_reported":1733343049,"current_range_meters":27200,"station_id":"","pricing_plan_id":"cebpf4jnsgd1na2vs0mg"},{"bike_id":"7f6e112f-9381-4964-8870-7f9b9d3ccbfc","system_id":"levelo_inurba_marseille","lat":43.30639,"lon":5.4009,"is_reserved":false,"is_disabled":false,"rental_uris":{"android":"levelo://app?vid=7f6e112f-9381-4964-8870-7f9b9d3ccbfc","ios":"levelo://app?vid=7f6e112f-9381-4964-8870-7f9b9d3ccbfc"},"vehicle_type_id":"4","last_reported":1733343049,"current_range_meters":19200,"station_id":"ce4bh112rcd13ifvqda0","pricing_plan_id":"cebpf4jnsgd1na2vs0mg"},{"bike_id":"fbcb3ea9-4a15-4ba8-82fb-a0348ff2b258","system_id":"levelo_inurba_marseille","lat":43.281621,"lon":5.426629,"is_reserved":false,"is_disabled":false,"rental_uris":{"android":"levelo://app?vid=fbcb3ea9-4a15-4ba8-82fb-a0348ff2b258","ios":"levelo://app?vid=fbcb3ea9-4a15-4ba8-82fb-a0348ff2b258"},"vehicle_type_id":"4","last_reported":1733343049,"current_range_meters":26800,"station_id":"","pricing_plan_id":"cebpf4jnsgd1na2vs0mg"},{"bike_id":"2c6c3810-5959-4516-9262-d4c66c75a736","system_id":"levelo_inurba_marseille","lat":43.28671,"lon":5.38651,"is_reserved":false,"is_disabled":false,"rental_uris":{"android":"levelo://app?vid=2c6c3810-5959-4516-9262-d4c66c75a736","ios":"levelo://app?vid=2c6c3810-5959-4516-9262-d4c66c75a736"},"vehicle_type_id":"4","last_reported":1733343049,"current_range_meters":38800,"station_id":"ce4bh492rcd13ifvqdug","pricing_plan_id":"cebpf4jnsgd1na2vs0mg"},{"bike_id":"eafd2cab-5ced-4422-81d0-d3d803524573","system_id":"levelo_inurba_marseille","lat":43.30884,"lon":5.396403,"is_reserved":false,"is_disabled":false,"rental_uris":{"android":"levelo://app?vid=eafd2cab-5ced-4422-81d0-d3d803524573","ios":"levelo://app?vid=eafd2cab-5ced-4422-81d0-d3d803524573"},"vehicle_type_id":"4","last_reported":1733343049,"current_range_meters":22000,"station_id":"ce4bh012rcd13ifvqcv0","pricing_plan_id":"cebpf4jnsgd1na2vs0mg"},{"bike_id":"cc97291d-dd54-42f5-bf82-a33e785df71f","system_id":"levelo_inurba_marseille","lat":43.29215,"lon":5.36056,"is_reserved":false,"is_disabled":false,"rental_uris":{"android":"levelo://app?vid=cc97291d-dd54-42f5-bf82-a33e785df71f","ios":"levelo://app?vid=cc97291d-dd54-42f5-bf82-a33e785df71f"},"vehicle_type_id":"4","last_reported":1733343049,"current_range_meters":27600,"station_id":"ce4bhbh2rcd13ifvqeqg","pricing_plan_id":"cebpf4jnsgd1na2vs0mg"},{"bike_id":"ab05039b-da25-4171-883f-dbeac8d952e7","system_id":"levelo_inurba_marseille","lat":43.32372,"lon":5.38876,"is_reserved":false,"is_disabled":false,"rental_uris":{"android":"levelo://app?vid=ab05039b-da25-4171-883f-dbeac8d952e7","ios":"levelo://app?vid=ab05039b-da25-4171-883f-dbeac8d952e7"},"vehicle_type_id":"4","last_reported":1733343049,"current_range_meters":24800,"station_id":"ce4bhqp2rcd13ifvqhog","pricing_plan_id":"cebpf4jnsgd1na2vs0mg"},{"bike_id":"9873bffd-09e7-44b1-adf1-da753747ca07","system_id":"levelo_inurba_marseille","lat":43.27949,"lon":5.41043,"is_reserved":false,"is_disabled":false,"rental_uris":{"android":"levelo://app?vid=9873bffd-09e7-44b1-adf1-da753747ca07","ios":"levelo://app?vid=9873bffd-09e7-44b1-adf1-da753747ca07"},"vehicle_type_id":"4","last_reported":1733343049,"current_range_meters":38800,"station_id":"ce4bhnp2rcd13ifvqh0g","pricing_plan_id":"cebpf4jnsgd1na2vs0mg"},{"bike_id":"bb6b53dd-4494-4182-a216-6003a45ab165","system_id":"levelo_inurba_marseille","lat":43.24997,"lon":5.38931,"is_reserved":false,"is_disabled":false,"rental_uris":{"android":"levelo://app?vid=bb6b53dd-4494-4182-a216-6003a45ab165","ios":"levelo://app?vid=bb6b53dd-4494-4182-a216-6003a45ab165"},"vehicle_type_id":"4","last_reported":1733343049,"current_range_meters":38000,"station_id":"ce4bhgp2rcd13ifvqfd0","pricing_plan_id":"cebpf4jnsgd1na2vs0mg"},{"bike_id":"9c77a68d-2e99-44e9-b903-950fb6644d35","system_id":"levelo_inurba_marseille","lat":43.25265,"lon":5.39465,"is_reserved":false,"is_disabled":true,"rental_uris":{"android":"levelo://app?vid=9c77a68d-2e99-44e9-b903-950fb6644d35","ios":"levelo://app?vid=9c77a68d-2e99-44e9-b903-950fb6644d35"},"vehicle_type_id":"4","last_reported":1733343049,"current_range_meters":0,"station_id":"","pricing_plan_id":"cebpf4jnsgd1na2vs0mg"},{"bike_id":"92de2224-b907-44de-b12d-bbdb80c3adbb","system_id":"levelo_inurba_marseille","lat":43.27971,"lon":5.38741,"is_reserved":false,"is_disabled":true,"rental_uris":{"android":"levelo://app?vid=92de2224-b907-44de-b12d-bbdb80c3adbb","ios":"levelo://app?vid=92de2224-b907-44de-b12d-bbdb80c3adbb"},"vehicle_type_id":"4","last_reported":1733343049,"current_range_meters":0,"station_id":"ce4bhg12rcd13ifvqf80","pricing_plan_id":"cebpf4jnsgd1na2vs0mg"},{"bike_id":"dce3be87-90c1-4c6d-92e0-cf09314d921e","system_id":"levelo_inurba_marseille","lat":43.297851,"lon":5.381176,"is_reserved":false,"is_disabled":true,"rental_uris":{"android":"levelo://app?vid=dce3be87-90c1-4c6d-92e0-cf09314d921e","ios":"levelo://app?vid=dce3be87-90c1-4c6d-92e0-cf09314d921e"},"vehicle_type_id":"4","last_reported":1733343049,"current_range_meters":24800,"station_id":"ce4bgip2rcd13ifvqbb0","pricing_plan_id":"cebpf4jnsgd1na2vs0mg"},{"bike_id":"16fc79c6-9dc7-444d-8cde-244020896011","system_id":"levelo_inurba_marseille","lat":43.29016,"lon":5.38145,"is_reserved":false,"is_disabled":false,"rental_uris":{"android":"levelo://app?vid=16fc79c6-9dc7-444d-8cde-244020896011","ios":"levelo://app?vid=16fc79c6-9dc7-444d-8cde-244020896011"},"vehicle_type_id":"4","last_reported":1733343049,"current_range_meters":35600,"station_id":"ce4bh4p2rcd13ifvqe1g","pricing_plan_id":"cebpf4jnsgd1na2vs0mg"},{"bike_id":"26cc8961-787b-4104-8e81-59805cd244f8","system_id":"levelo_inurba_marseille","lat":43.29025,"lon":5.38645,"is_reserved":false,"is_disabled":false,"rental_uris":{"android":"levelo://app?vid=26cc8961-787b-4104-8e81-59805cd244f8","ios":"levelo://app?vid=26cc8961-787b-4104-8e81-59805cd244f8"},"vehicle_type_id":"4","last_reported":1733343049,"current_range_meters":16000,"station_id":"ce4bh4p2rcd13ifvqe0g","pricing_plan_id":"cebpf4jnsgd1na2vs0mg"},{"bike_id":"6ed6104a-cb7d-4889-82fa-acac97c6f644","system_id":"levelo_inurba_marseille","lat":43.32335,"lon":5.406227,"is_reserved":false,"is_disabled":false,"rental_uris":{"android":"levelo://app?vid=6ed6104a-cb7d-4889-82fa-acac97c6f644","ios":"levelo://app?vid=6ed6104a-cb7d-4889-82fa-acac97c6f644"},"vehicle_type_id":"4","last_reported":1733343049,"current_range_meters":36800,"station_id":"ce4bhq92rcd13ifvqhjg","pricing_plan_id":"cebpf4jnsgd1na2vs0mg"},{"bike_id":"83985555-c848-4b28-808f-8a7e7cf8519e","system_id":"levelo_inurba_marseille","lat":43.28115,"lon":5.43955,"is_reserved":false,"is_disabled":true,"rental_uris":{"android":"levelo://app?vid=83985555-c848-4b28-808f-8a7e7cf8519e","ios":"levelo://app?vid=83985555-c848-4b28-808f-8a7e7cf8519e"},"vehicle_type_id":"4","last_reported":1733343049,"current_range_meters":0,"station_id":"","pricing_plan_id":"cebpf4jnsgd1na2vs0mg"},{"bike_id":"217a4150-7448-41cc-ada2-12322ea5c724","system_id":"levelo_inurba_marseille","lat":43.31274,"lon":5.40171,"is_reserved":false,"is_disabled":false,"rental_uris":{"android":"levelo://app?vid=217a4150-7448-41cc-ada2-12322ea5c724","ios":"levelo://app?vid=217a4150-7448-41cc-ada2-12322ea5c724"},"vehicle_type_id":"4","last_reported":1733343049,"current_range_meters":38800,"station_id":"ce4bh092rcd13ifvqd30","pricing_plan_id":"cebpf4jnsgd1na2vs0mg"},{"bike_id":"81e0433a-91e6-4c5d-888d-a6ec8ceea50f","system_id":"levelo_inurba_marseille","lat":43.27828,"lon":5.39213,"is_reserved":false,"is_disabled":false,"rental_uris":{"android":"levelo://app?vid=81e0433a-91e6-4c5d-888d-a6ec8ceea50f","ios":"levelo://app?vid=81e0433a-91e6-4c5d-888d-a6ec8ceea50f"},"vehicle_type_id":"4","last_reported":1733343049,"current_range_meters":9200,"station_id":"ce4bhjp2rcd13ifvqga0","pricing_plan_id":"cebpf4jnsgd1na2vs0mg"},{"bike_id":"903ec8f1-f4c3-441f-a117-ff7454fcb959","system_id":"levelo_inurba_marseille","lat":43.29474,"lon":5.3941,"is_reserved":false,"is_disabled":true,"rental_uris":{"android":"levelo://app?vid=903ec8f1-f4c3-441f-a117-ff7454fcb959","ios":"levelo://app?vid=903ec8f1-f4c3-441f-a117-ff7454fcb959"},"vehicle_type_id":"4","last_reported":1733343049,"current_range_meters":0,"station_id":"","pricing_plan_id":"cebpf4jnsgd1na2vs0mg"},{"bike_id":"07a60b7f-80b7-470a-9515-22fa33d21dee","system_id":"levelo_inurba_marseille","lat":43.302746,"lon":5.396419,"is_reserved":false,"is_disabled":true,"rental_uris":{"android":"levelo://app?vid=07a60b7f-80b7-470a-9515-22fa33d21dee","ios":"levelo://app?vid=07a60b7f-80b7-470a-9515-22fa33d21dee"},"vehicle_type_id":"4","last_reported":1733343049,"current_range_meters":0,"station_id":"","pricing_plan_id":"cebpf4jnsgd1na2vs0mg"},{"bike_id":"4377883f-11a0-4ce1-b64d-02b0fbdcb813","system_id":"levelo_inurba_marseille","lat":43.28842,"lon":5.3584,"is_reserved":false,"is_disabled":false,"rental_uris":{"android":"levelo://app?vid=4377883f-11a0-4ce1-b64d-02b0fbdcb813","ios":"levelo://app?vid=4377883f-11a0-4ce1-b64d-02b0fbdcb813"},"vehicle_type_id":"4","last_reported":1733343049,"current_range_meters":36000,"station_id":"ce4bhb12rcd13ifvqem0","pricing_plan_id":"cebpf4jnsgd1na2vs0mg"},{"bike_id":"47aa3a4c-c572-4770-b78e-a70e304e4d39","system_id":"levelo_inurba_marseille","lat":43.25081,"lon":5.3951,"is_reserved":false,"is_disabled":false,"rental_uris":{"android":"levelo://app?vid=47aa3a4c-c572-4770-b78e-a70e304e4d39","ios":"levelo://app?vid=47aa3a4c-c572-4770-b78e-a70e304e4d39"},"vehicle_type_id":"4","last_reported":1733343049,"current_range_meters":14000,"station_id":"ce4bhm12rcd13ifvqgkg","pricing_plan_id":"cebpf4jnsgd1na2vs0mg"},{"bike_id":"69c3c435-a250-4180-bdeb-d5747c470a1a","system_id":"levelo_inurba_marseille","lat":43.28036,"lon":5.36941,"is_reserved":false,"is_disabled":false,"rental_uris":{"android":"levelo://app?vid=69c3c435-a250-4180-bdeb-d5747c470a1a","ios":"levelo://app?vid=69c3c435-a250-4180-bdeb-d5747c470a1a"},"vehicle_type_id":"4","last_reported":1733343049,"current_range_meters":37600,"station_id":"ce4bha12rcd13ifvqef0","pricing_plan_id":"cebpf4jnsgd1na2vs0mg"},{"bike_id":"eb21963f-de7e-4534-aca6-bda405f0be1e","system_id":"levelo_inurba_marseille","lat":43.29867,"lon":5.39739,"is_reserved":false,"is_disabled":false,"rental_uris":{"android":"levelo://app?vid=eb21963f-de7e-4534-aca6-bda405f0be1e","ios":"levelo://app?vid=eb21963f-de7e-4534-aca6-bda405f0be1e"},"vehicle_type_id":"4","last_reported":1733343049,"current_range_meters":35600,"station_id":"ce4bh0h2rcd13ifvqd50","pricing_plan_id":"cebpf4jnsgd1na2vs0mg"},{"bike_id":"0425a4a4-4039-41f0-bf92-6e51306cbefc","system_id":"levelo_inurba_marseille","lat":43.30242,"lon":5.40059,"is_reserved":false,"is_disabled":false,"rental_uris":{"android":"levelo://app?vid=0425a4a4-4039-41f0-bf92-6e51306cbefc","ios":"levelo://app?vid=0425a4a4-4039-41f0-bf92-6e51306cbefc"},"vehicle_type_id":"4","last_reported":1733343049,"current_range_meters":35600,"station_id":"ce4bgvh2rcd13ifvqcs0","pricing_plan_id":"cebpf4jnsgd1na2vs0mg"},{"bike_id":"9a8415fa-2880-4e78-a05d-ac36153a1a71","system_id":"levelo_inurba_marseille","lat":43.26204,"lon":5.37926,"is_reserved":false,"is_disabled":false,"rental_uris":{"android":"levelo://app?vid=9a8415fa-2880-4e78-a05d-ac36153a1a71","ios":"levelo://app?vid=9a8415fa-2880-4e78-a05d-ac36153a1a71"},"vehicle_type_id":"4","last_reported":1733343049,"current_range_meters":30800,"station_id":"ce4bhjp2rcd13ifvqg90","pricing_plan_id":"cebpf4jnsgd1na2vs0mg"},{"bike_id":"e34adaed-35bb-463a-9f0e-d9d1d8edf9b5","system_id":"levelo_inurba_marseille","lat":43.26564,"lon":5.39019,"is_reserved":false,"is_disabled":false,"rental_uris":{"android":"levelo://app?vid=e34adaed-35bb-463a-9f0e-d9d1d8edf9b5","ios":"levelo://app?vid=e34adaed-35bb-463a-9f0e-d9d1d8edf9b5"},"vehicle_type_id":"4","last_reported":1733343049,"current_range_meters":17200,"station_id":"ce4bhe12rcd13ifvqf30","pricing_plan_id":"cebpf4jnsgd1na2vs0mg"},{"bike_id":"2cd8bcc2-6973-4bbb-a4df-236cf5858163","system_id":"levelo_inurba_marseille","lat":43.23196,"lon":5.35552,"is_reserved":false,"is_disabled":false,"rental_uris":{"android":"levelo://app?vid=2cd8bcc2-6973-4bbb-a4df-236cf5858163","ios":"levelo://app?vid=2cd8bcc2-6973-4bbb-a4df-236cf5858163"},"vehicle_type_id":"4","last_reported":1733343049,"current_range_meters":38800,"station_id":"ce4bhu92rcd13ifvqi70","pricing_plan_id":"cebpf4jnsgd1na2vs0mg"},{"bike_id":"8aeef46c-b899-4169-9b0d-0afe17d50ba4","system_id":"levelo_inurba_marseille","lat":43.29231,"lon":5.36071,"is_reserved":false,"is_disabled":false,"rental_uris":{"android":"levelo://app?vid=8aeef46c-b899-4169-9b0d-0afe17d50ba4","ios":"levelo://app?vid=8aeef46c-b899-4169-9b0d-0afe17d50ba4"},"vehicle_type_id":"4","last_reported":1733343049,"current_range_meters":37600,"station_id":"ce4bhbh2rcd13ifvqeqg","pricing_plan_id":"cebpf4jnsgd1na2vs0mg"},{"bike_id":"987310f3-a49a-475a-ae60-ef0c2b1d63f9","system_id":"levelo_inurba_marseille","lat":43.22937,"lon":5.35376,"is_reserved":false,"is_disabled":false,"rental_uris":{"android":"levelo://app?vid=987310f3-a49a-475a-ae60-ef0c2b1d63f9","ios":"levelo://app?vid=987310f3-a49a-475a-ae60-ef0c2b1d63f9"},"vehicle_type_id":"4","last_reported":1733343049,"current_range_meters":29600,"station_id":"cpo3532slgdg3j2ikp40","pricing_plan_id":"cebpf4jnsgd1na2vs0mg"},{"bike_id":"dc24279f-f126-4126-97d7-1ef0fe43b4e9","system_id":"levelo_inurba_marseille","lat":43.27368,"lon":5.36255,"is_reserved":false,"is_disabled":false,"rental_uris":{"android":"levelo://app?vid=dc24279f-f126-4126-97d7-1ef0fe43b4e9","ios":"levelo://app?vid=dc24279f-f126-4126-97d7-1ef0fe43b4e9"},"vehicle_type_id":"4","last_reported":1733343049,"current_range_meters":25600,"station_id":"ce4bhbh2rcd13ifvqeo0","pricing_plan_id":"cebpf4jnsgd1na2vs0mg"},{"bike_id":"d0f725a1-8089-48f3-9049-856fbaa201f9","system_id":"levelo_inurba_marseille","lat":43.31694,"lon":5.4048,"is_reserved":false,"is_disabled":false,"rental_uris":{"android":"levelo://app?vid=d0f725a1-8089-48f3-9049-856fbaa201f9","ios":"levelo://app?vid=d0f725a1-8089-48f3-9049-856fbaa201f9"},"vehicle_type_id":"4","last_reported":1733343049,"current_range_meters":38800,"station_id":"ce4bh012rcd13ifvqd00","pricing_plan_id":"cebpf4jnsgd1na2vs0mg"},{"bike_id":"506c09f4-6c9b-4fb3-996c-4c7f86dd75a8","system_id":"levelo_inurba_marseille","lat":43.25492,"lon":5.37652,"is_reserved":false,"is_disabled":true,"rental_uris":{"android":"levelo://app?vid=506c09f4-6c9b-4fb3-996c-4c7f86dd75a8","ios":"levelo://app?vid=506c09f4-6c9b-4fb3-996c-4c7f86dd75a8"},"vehicle_type_id":"4","last_reported":1733343049,"current_range_meters":0,"station_id":"","pricing_plan_id":"cebpf4jnsgd1na2vs0mg"},{"bike_id":"663963bf-4fe2-4f63-8a5c-95852d64b21e","system_id":"levelo_inurba_marseille","lat":43.29262,"lon":5.38436,"is_reserved":false,"is_disabled":false,"rental_uris":{"android":"levelo://app?vid=663963bf-4fe2-4f63-8a5c-95852d64b21e","ios":"levelo://app?vid=663963bf-4fe2-4f63-8a5c-95852d64b21e"},"vehicle_type_id":"4","last_reported":1733343049,"current_range_meters":21600,"station_id":"ce4bh692rcd13ifvqea0","pricing_plan_id":"cebpf4jnsgd1na2vs0mg"},{"bike_id":"5178b99e-b2fc-47bc-a904-131fbd2e83ec","system_id":"levelo_inurba_marseille","lat":43.30138,"lon":5.39889,"is_reserved":false,"is_disabled":false,"rental_uris":{"android":"levelo://app?vid=5178b99e-b2fc-47bc-a904-131fbd2e83ec","ios":"levelo://app?vid=5178b99e-b2fc-47bc-a904-131fbd2e83ec"},"vehicle_type_id":"4","last_reported":1733343049,"current_range_meters":38800,"station_id":"ce4bh0h2rcd13ifvqd40","pricing_plan_id":"cebpf4jnsgd1na2vs0mg"},{"bike_id":"9202c63e-372c-4469-a5c1-8e35757d1940","system_id":"levelo_inurba_marseille","lat":43.30053,"lon":5.38832,"is_reserved":false,"is_disabled":true,"rental_uris":{"android":"levelo://app?vid=9202c63e-372c-4469-a5c1-8e35757d1940","ios":"levelo://app?vid=9202c63e-372c-4469-a5c1-8e35757d1940"},"vehicle_type_id":"4","last_reported":1733343049,"current_range_meters":0,"station_id":"","pricing_plan_id":"cebpf4jnsgd1na2vs0mg"},{"bike_id":"fb669fc9-1ad6-46f8-9a6e-c301ceec0398","system_id":"levelo_inurba_marseille","lat":43.25085,"lon":5.39519,"is_reserved":false,"is_disabled":false,"rental_uris":{"android":"levelo://app?vid=fb669fc9-1ad6-46f8-9a6e-c301ceec0398","ios":"levelo://app?vid=fb669fc9-1ad6-46f8-9a6e-c301ceec0398"},"vehicle_type_id":"4","last_reported":1733343049,"current_range_meters":25200,"station_id":"ce4bhm12rcd13ifvqgkg","pricing_plan_id":"cebpf4jnsgd1na2vs0mg"},{"bike_id":"3b48a78c-d708-4355-8494-22b9c2938fb6","system_id":"levelo_inurba_marseille","lat":43.30104,"lon":5.39948,"is_reserved":false,"is_disabled":false,"rental_uris":{"android":"levelo://app?vid=3b48a78c-d708-4355-8494-22b9c2938fb6","ios":"levelo://app?vid=3b48a78c-d708-4355-8494-22b9c2938fb6"},"vehicle_type_id":"4","last_reported":1733343049,"current_range_meters":35600,"station_id":"","pricing_plan_id":"cebpf4jnsgd1na2vs0mg"},{"bike_id":"24603907-2b8e-4791-a814-0645cb77b7f2","system_id":"levelo_inurba_marseille","lat":43.30647,"lon":5.40099,"is_reserved":false,"is_disabled":false,"rental_uris":{"android":"levelo://app?vid=24603907-2b8e-4791-a814-0645cb77b7f2","ios":"levelo://app?vid=24603907-2b8e-4791-a814-0645cb77b7f2"},"vehicle_type_id":"4","last_reported":1733343049,"current_range_meters":32400,"station_id":"ce4bh112rcd13ifvqda0","pricing_plan_id":"cebpf4jnsgd1na2vs0mg"},{"bike_id":"71d5e234-cc79-4752-bf98-24bb16d7bac1","system_id":"levelo_inurba_marseille","lat":43.29529,"lon":5.38544,"is_reserved":false,"is_disabled":false,"rental_uris":{"android":"levelo://app?vid=71d5e234-cc79-4752-bf98-24bb16d7bac1","ios":"levelo://app?vid=71d5e234-cc79-4752-bf98-24bb16d7bac1"},"vehicle_type_id":"4","last_reported":1733343049,"current_range_meters":30000,"station_id":"ce4bgih2rcd13ifvqba0","pricing_plan_id":"cebpf4jnsgd1na2vs0mg"},{"bike_id":"d4a477ec-3efd-4db6-8531-b9c80424572a","system_id":"levelo_inurba_marseille","lat":43.27564,"lon":5.38424,"is_reserved":false,"is_disabled":false,"rental_uris":{"android":"levelo://app?vid=d4a477ec-3efd-4db6-8531-b9c80424572a","ios":"levelo://app?vid=d4a477ec-3efd-4db6-8531-b9c80424572a"},"vehicle_type_id":"4","last_reported":1733343049,"current_range_meters":7200,"station_id":"ce4bhh92rcd13ifvqfi0","pricing_plan_id":"cebpf4jnsgd1na2vs0mg"},{"bike_id":"cf3e6ea0-09ff-406c-b357-28a6a6117f94","system_id":"levelo_inurba_marseille","lat":43.22932,"lon":5.35376,"is_reserved":false,"is_disabled":false,"rental_uris":{"android":"levelo://app?vid=cf3e6ea0-09ff-406c-b357-28a6a6117f94","ios":"levelo://app?vid=cf3e6ea0-09ff-406c-b357-28a6a6117f94"},"vehicle_type_id":"4","last_reported":1733343049,"current_range_meters":38800,"station_id":"cpo3532slgdg3j2ikp40","pricing_plan_id":"cebpf4jnsgd1na2vs0mg"},{"bike_id":"fd7dea6a-aa83-4656-baae-4085b6e7d8d6","system_id":"levelo_inurba_marseille","lat":43.33721,"lon":5.39182,"is_reserved":false,"is_disabled":false,"rental_uris":{"android":"levelo://app?vid=fd7dea6a-aa83-4656-baae-4085b6e7d8d6","ios":"levelo://app?vid=fd7dea6a-aa83-4656-baae-4085b6e7d8d6"},"vehicle_type_id":"4","last_reported":1733343049,"current_range_meters":21600,"station_id":"ce4bhr92rcd13ifvqhsg","pricing_plan_id":"cebpf4jnsgd1na2vs0mg"},{"bike_id":"33b6defc-0259-40c1-8c7c-b5f4200fa144","system_id":"levelo_inurba_marseille","lat":43.23962,"lon":5.36634,"is_reserved":false,"is_disabled":false,"rental_uris":{"android":"levelo://app?vid=33b6defc-0259-40c1-8c7c-b5f4200fa144","ios":"levelo://app?vid=33b6defc-0259-40c1-8c7c-b5f4200fa144"},"vehicle_type_id":"4","last_reported":1733343049,"current_range_meters":11200,"station_id":"ce4bhi12rcd13ifvqfp0","pricing_plan_id":"cebpf4jnsgd1na2vs0mg"},{"bike_id":"e60d581a-a0be-4b8e-8aa8-f2479560e29d","system_id":"levelo_inurba_marseille","lat":43.30213,"lon":5.39465,"is_reserved":false,"is_disabled":false,"rental_uris":{"android":"levelo://app?vid=e60d581a-a0be-4b8e-8aa8-f2479560e29d","ios":"levelo://app?vid=e60d581a-a0be-4b8e-8aa8-f2479560e29d"},"vehicle_type_id":"4","last_reported":1733343049,"current_range_meters":4400,"station_id":"ce4bh0p2rcd13ifvqd70","pricing_plan_id":"cebpf4jnsgd1na2vs0mg"},{"bike_id":"32e3b939-48c3-4ea5-b418-6c25d78f8737","system_id":"levelo_inurba_marseille","lat":43.23967,"lon":5.36625,"is_reserved":false,"is_disabled":false,"rental_uris":{"android":"levelo://app?vid=32e3b939-48c3-4ea5-b418-6c25d78f8737","ios":"levelo://app?vid=32e3b939-48c3-4ea5-b418-6c25d78f8737"},"vehicle_type_id":"4","last_reported":1733343049,"current_range_meters":5600,"station_id":"ce4bhi12rcd13ifvqfp0","pricing_plan_id":"cebpf4jnsgd1na2vs0mg"},{"bike_id":"719e509a-25e4-4b1b-9830-f708d85d7593","system_id":"levelo_inurba_marseille","lat":43.29283,"lon":5.37397,"is_reserved":false,"is_disabled":true,"rental_uris":{"android":"levelo://app?vid=719e509a-25e4-4b1b-9830-f708d85d7593","ios":"levelo://app?vid=719e509a-25e4-4b1b-9830-f708d85d7593"},"vehicle_type_id":"4","last_reported":1733343049,"current_range_meters":0,"station_id":"","pricing_plan_id":"cebpf4jnsgd1na2vs0mg"},{"bike_id":"d19481cb-e92d-488b-ab81-a3adb96fab92","system_id":"levelo_inurba_marseille","lat":43.30777,"lon":5.38177,"is_reserved":false,"is_disabled":true,"rental_uris":{"android":"levelo://app?vid=d19481cb-e92d-488b-ab81-a3adb96fab92","ios":"levelo://app?vid=d19481cb-e92d-488b-ab81-a3adb96fab92"},"vehicle_type_id":"4","last_reported":1733343049,"current_range_meters":800,"station_id":"ce4bgt12rcd13ifvqce0","pricing_plan_id":"cebpf4jnsgd1na2vs0mg"},{"bike_id":"9524b159-b4ce-452d-96ec-e3d7294532ae","system_id":"levelo_inurba_marseille","lat":43.30783,"lon":5.37633,"is_reserved":false,"is_disabled":false,"rental_uris":{"android":"levelo://app?vid=9524b159-b4ce-452d-96ec-e3d7294532ae","ios":"levelo://app?vid=9524b159-b4ce-452d-96ec-e3d7294532ae"},"vehicle_type_id":"4","last_reported":1733343049,"current_range_meters":8000,"station_id":"ce4bgv92rcd13ifvqcq0","pricing_plan_id":"cebpf4jnsgd1na2vs0mg"},{"bike_id":"3ded9988-b68b-4066-b808-86827259bb03","system_id":"levelo_inurba_marseille","lat":43.29007,"lon":5.35617,"is_reserved":false,"is_disabled":false,"rental_uris":{"android":"levelo://app?vid=3ded9988-b68b-4066-b808-86827259bb03","ios":"levelo://app?vid=3ded9988-b68b-4066-b808-86827259bb03"},"vehicle_type_id":"4","last_reported":1733343049,"current_range_meters":37600,"station_id":"ce4bhb92rcd13ifvqen0","pricing_plan_id":"cebpf4jnsgd1na2vs0mg"},{"bike_id":"8f29d0b4-a369-4bf4-a7e4-66462f797d71","system_id":"levelo_inurba_marseille","lat":43.30529,"lon":5.38439,"is_reserved":false,"is_disabled":true,"rental_uris":{"android":"levelo://app?vid=8f29d0b4-a369-4bf4-a7e4-66462f797d71","ios":"levelo://app?vid=8f29d0b4-a369-4bf4-a7e4-66462f797d71"},"vehicle_type_id":"4","last_reported":1733343049,"current_range_meters":1200,"station_id":"ce4bgg92rcd13ifvqb30","pricing_plan_id":"cebpf4jnsgd1na2vs0mg"},{"bike_id":"e1fd1a73-7553-45b6-9e50-996259ae1af6","system_id":"levelo_inurba_marseille","lat":43.26953,"lon":5.3863,"is_reserved":false,"is_disabled":false,"rental_uris":{"android":"levelo://app?vid=e1fd1a73-7553-45b6-9e50-996259ae1af6","ios":"levelo://app?vid=e1fd1a73-7553-45b6-9e50-996259ae1af6"},"vehicle_type_id":"4","last_reported":1733343049,"current_range_meters":24000,"station_id":"ce4bhh92rcd13ifvqfh0","pricing_plan_id":"cebpf4jnsgd1na2vs0mg"},{"bike_id":"72a10fc3-397f-43c3-878e-ac242a0d793c","system_id":"levelo_inurba_marseille","lat":43.26562,"lon":5.37285,"is_reserved":false,"is_disabled":false,"rental_uris":{"android":"levelo://app?vid=72a10fc3-397f-43c3-878e-ac242a0d793c","ios":"levelo://app?vid=72a10fc3-397f-43c3-878e-ac242a0d793c"},"vehicle_type_id":"4","last_reported":1733343049,"current_range_meters":37600,"station_id":"ce4bhg12rcd13ifvqf70","pricing_plan_id":"cebpf4jnsgd1na2vs0mg"},{"bike_id":"e2313035-0a27-419c-b06b-36a49898f917","system_id":"levelo_inurba_marseille","lat":43.27995,"lon":5.41656,"is_reserved":false,"is_disabled":false,"rental_uris":{"android":"levelo://app?vid=e2313035-0a27-419c-b06b-36a49898f917","ios":"levelo://app?vid=e2313035-0a27-419c-b06b-36a49898f917"},"vehicle_type_id":"4","last_reported":1733343049,"current_range_meters":18000,"station_id":"ce4bho12rcd13ifvqh1g","pricing_plan_id":"cebpf4jnsgd1na2vs0mg"},{"bike_id":"21f26508-a7b8-4e21-ae23-6bae799b0b4e","system_id":"levelo_inurba_marseille","lat":43.30634,"lon":5.40081,"is_reserved":false,"is_disabled":false,"rental_uris":{"android":"levelo://app?vid=21f26508-a7b8-4e21-ae23-6bae799b0b4e","ios":"levelo://app?vid=21f26508-a7b8-4e21-ae23-6bae799b0b4e"},"vehicle_type_id":"4","last_reported":1733343049,"current_range_meters":12400,"station_id":"ce4bh112rcd13ifvqda0","pricing_plan_id":"cebpf4jnsgd1na2vs0mg"},{"bike_id":"91d392a2-2fa0-4138-844b-2778296cb275","system_id":"levelo_inurba_marseille","lat":43.28437,"lon":5.39205,"is_reserved":false,"is_disabled":false,"rental_uris":{"android":"levelo://app?vid=91d392a2-2fa0-4138-844b-2778296cb275","ios":"levelo://app?vid=91d392a2-2fa0-4138-844b-2778296cb275"},"vehicle_type_id":"4","last_reported":1733343049,"current_range_meters":32000,"station_id":"ce4bhoh2rcd13ifvqh5g","pricing_plan_id":"cebpf4jnsgd1na2vs0mg"},{"bike_id":"1a1b02b1-559a-4ba2-bb65-580577e3a45a","system_id":"levelo_inurba_marseille","lat":43.30919,"lon":5.40147,"is_reserved":false,"is_disabled":false,"rental_uris":{"android":"levelo://app?vid=1a1b02b1-559a-4ba2-bb65-580577e3a45a","ios":"levelo://app?vid=1a1b02b1-559a-4ba2-bb65-580577e3a45a"},"vehicle_type_id":"4","last_reported":1733343049,"current_range_meters":35200,"station_id":"ce4bgvp2rcd13ifvqct0","pricing_plan_id":"cebpf4jnsgd1na2vs0mg"},{"bike_id":"84143cd6-1baa-4afc-adaf-6f8d04a0c1bc","system_id":"levelo_inurba_marseille","lat":43.31083,"lon":5.38347,"is_reserved":false,"is_disabled":false,"rental_uris":{"android":"levelo://app?vid=84143cd6-1baa-4afc-adaf-6f8d04a0c1bc","ios":"levelo://app?vid=84143cd6-1baa-4afc-adaf-6f8d04a0c1bc"},"vehicle_type_id":"4","last_reported":1733343049,"current_range_meters":22800,"station_id":"ce4bgv92rcd13ifvqcr0","pricing_plan_id":"cebpf4jnsgd1na2vs0mg"},{"bike_id":"d02a438b-017a-478c-a787-550abb609424","system_id":"levelo_inurba_marseille","lat":43.29551,"lon":5.42285,"is_reserved":false,"is_disabled":false,"rental_uris":{"android":"levelo://app?vid=d02a438b-017a-478c-a787-550abb609424","ios":"levelo://app?vid=d02a438b-017a-478c-a787-550abb609424"},"vehicle_type_id":"4","last_reported":1733343049,"current_range_meters":14800,"station_id":"ce4bhph2rcd13ifvqhdg","pricing_plan_id":"cebpf4jnsgd1na2vs0mg"},{"bike_id":"b01ba929-1580-401b-973d-e4a15d746d4a","system_id":"levelo_inurba_marseille","lat":43.22927,"lon":5.35375,"is_reserved":false,"is_disabled":false,"rental_uris":{"android":"levelo://app?vid=b01ba929-1580-401b-973d-e4a15d746d4a","ios":"levelo://app?vid=b01ba929-1580-401b-973d-e4a15d746d4a"},"vehicle_type_id":"4","last_reported":1733343049,"current_range_meters":20400,"station_id":"cpo3532slgdg3j2ikp40","pricing_plan_id":"cebpf4jnsgd1na2vs0mg"},{"bike_id":"f2595845-6ff5-4907-ac62-692725577057","system_id":"levelo_inurba_marseille","lat":43.27424,"lon":5.39415,"is_reserved":false,"is_disabled":true,"rental_uris":{"android":"levelo://app?vid=f2595845-6ff5-4907-ac62-692725577057","ios":"levelo://app?vid=f2595845-6ff5-4907-ac62-692725577057"},"vehicle_type_id":"4","last_reported":1733343049,"current_range_meters":1600,"station_id":"ce4bhdp2rcd13ifvqf20","pricing_plan_id":"cebpf4jnsgd1na2vs0mg"},{"bike_id":"38c9802a-44d4-43b4-a98f-381ac535f302","system_id":"levelo_inurba_marseille","lat":43.32473,"lon":5.36564,"is_reserved":false,"is_disabled":false,"rental_uris":{"android":"levelo://app?vid=38c9802a-44d4-43b4-a98f-381ac535f302","ios":"levelo://app?vid=38c9802a-44d4-43b4-a98f-381ac535f302"},"vehicle_type_id":"4","last_reported":1733343049,"current_range_meters":33200,"station_id":"ce4bhs12rcd13ifvqhvg","pricing_plan_id":"cebpf4jnsgd1na2vs0mg"},{"bike_id":"a61845da-324b-4aee-8793-cd1f8451ee7a","system_id":"levelo_inurba_marseille","lat":43.27888,"lon":5.38024,"is_reserved":false,"is_disabled":false,"rental_uris":{"android":"levelo://app?vid=a61845da-324b-4aee-8793-cd1f8451ee7a","ios":"levelo://app?vid=a61845da-324b-4aee-8793-cd1f8451ee7a"},"vehicle_type_id":"4","last_reported":1733343049,"current_range_meters":3600,"station_id":"ce4bhf92rcd13ifvqf50","pricing_plan_id":"cebpf4jnsgd1na2vs0mg"},{"bike_id":"90afb76d-1b23-4c50-94df-88b4ada1cb00","system_id":"levelo_inurba_marseille","lat":43.29067,"lon":5.37159,"is_reserved":false,"is_disabled":false,"rental_uris":{"android":"levelo://app?vid=90afb76d-1b23-4c50-94df-88b4ada1cb00","ios":"levelo://app?vid=90afb76d-1b23-4c50-94df-88b4ada1cb00"},"vehicle_type_id":"4","last_reported":1733343049,"current_range_meters":35600,"station_id":"ce4bh5p2rcd13ifvqe4g","pricing_plan_id":"cebpf4jnsgd1na2vs0mg"},{"bike_id":"b7f7642e-bc77-4059-aa17-861022d97418","system_id":"levelo_inurba_marseille","lat":43.2781,"lon":5.40713,"is_reserved":false,"is_disabled":false,"rental_uris":{"android":"levelo://app?vid=b7f7642e-bc77-4059-aa17-861022d97418","ios":"levelo://app?vid=b7f7642e-bc77-4059-aa17-861022d97418"},"vehicle_type_id":"4","last_reported":1733343049,"current_range_meters":32400,"station_id":"ce4bhnh2rcd13ifvqgtg","pricing_plan_id":"cebpf4jnsgd1na2vs0mg"},{"bike_id":"39fb8aca-6d92-4bb3-a3d5-ec93bb1cad52","system_id":"levelo_inurba_marseille","lat":43.24683,"lon":5.38151,"is_reserved":false,"is_disabled":false,"rental_uris":{"android":"levelo://app?vid=39fb8aca-6d92-4bb3-a3d5-ec93bb1cad52","ios":"levelo://app?vid=39fb8aca-6d92-4bb3-a3d5-ec93bb1cad52"},"vehicle_type_id":"4","last_reported":1733343049,"current_range_meters":38800,"station_id":"ce4bhih2rcd13ifvqfr0","pricing_plan_id":"cebpf4jnsgd1na2vs0mg"},{"bike_id":"010f1ddc-a5dd-4595-9905-ebf82317a65f","system_id":"levelo_inurba_marseille","lat":43.33024,"lon":5.39042,"is_reserved":false,"is_disabled":false,"rental_uris":{"android":"levelo://app?vid=010f1ddc-a5dd-4595-9905-ebf82317a65f","ios":"levelo://app?vid=010f1ddc-a5dd-4595-9905-ebf82317a65f"},"vehicle_type_id":"4","last_reported":1733343049,"current_range_meters":38800,"station_id":"ce4bhr92rcd13ifvqhrg","pricing_plan_id":"cebpf4jnsgd1na2vs0mg"},{"bike_id":"3c935e4b-0b8b-43b5-b036-a4a7c2788700","system_id":"levelo_inurba_marseille","lat":43.28936,"lon":5.36637,"is_reserved":false,"is_disabled":false,"rental_uris":{"android":"levelo://app?vid=3c935e4b-0b8b-43b5-b036-a4a7c2788700","ios":"levelo://app?vid=3c935e4b-0b8b-43b5-b036-a4a7c2788700"},"vehicle_type_id":"4","last_reported":1733343049,"current_range_meters":38000,"station_id":"ce4bhap2rcd13ifvqek0","pricing_plan_id":"cebpf4jnsgd1na2vs0mg"},{"bike_id":"14872601-52c5-4df9-a2cd-dd5630a83c4c","system_id":"levelo_inurba_marseille","lat":43.29517,"lon":5.39028,"is_reserved":false,"is_disabled":false,"rental_uris":{"android":"levelo://app?vid=14872601-52c5-4df9-a2cd-dd5630a83c4c","ios":"levelo://app?vid=14872601-52c5-4df9-a2cd-dd5630a83c4c"},"vehicle_type_id":"4","last_reported":1733343049,"current_range_meters":36000,"station_id":"ce4bh3p2rcd13ifvqdp0","pricing_plan_id":"cebpf4jnsgd1na2vs0mg"},{"bike_id":"2cfff320-2b0c-4bed-8771-68e447a289ec","system_id":"levelo_inurba_marseille","lat":43.30306,"lon":5.39194,"is_reserved":false,"is_disabled":false,"rental_uris":{"android":"levelo://app?vid=2cfff320-2b0c-4bed-8771-68e447a289ec","ios":"levelo://app?vid=2cfff320-2b0c-4bed-8771-68e447a289ec"},"vehicle_type_id":"4","last_reported":1733343049,"current_range_meters":36000,"station_id":"ce4bgkh2rcd13ifvqbk0","pricing_plan_id":"cebpf4jnsgd1na2vs0mg"},{"bike_id":"d5d85f9f-a0ad-420c-b735-16273f277a96","system_id":"levelo_inurba_marseille","lat":43.22924,"lon":5.35378,"is_reserved":false,"is_disabled":false,"rental_uris":{"android":"levelo://app?vid=d5d85f9f-a0ad-420c-b735-16273f277a96","ios":"levelo://app?vid=d5d85f9f-a0ad-420c-b735-16273f277a96"},"vehicle_type_id":"4","last_reported":1733343049,"current_range_meters":28000,"station_id":"cpo3532slgdg3j2ikp40","pricing_plan_id":"cebpf4jnsgd1na2vs0mg"},{"bike_id":"41776b6e-9d3f-445f-b068-5523c904169f","system_id":"levelo_inurba_marseille","lat":43.26941,"lon":5.40228,"is_reserved":false,"is_disabled":false,"rental_uris":{"android":"levelo://app?vid=41776b6e-9d3f-445f-b068-5523c904169f","ios":"levelo://app?vid=41776b6e-9d3f-445f-b068-5523c904169f"},"vehicle_type_id":"4","last_reported":1733343049,"current_range_meters":38800,"station_id":"cjm6bp8fraef2m0cb0m0","pricing_plan_id":"cebpf4jnsgd1na2vs0mg"},{"bike_id":"79c8ea6d-5102-4a1e-b941-afdabc095945","system_id":"levelo_inurba_marseille","lat":43.29068,"lon":5.38345,"is_reserved":false,"is_disabled":true,"rental_uris":{"android":"levelo://app?vid=79c8ea6d-5102-4a1e-b941-afdabc095945","ios":"levelo://app?vid=79c8ea6d-5102-4a1e-b941-afdabc095945"},"vehicle_type_id":"4","last_reported":1733343049,"current_range_meters":17600,"station_id":"","pricing_plan_id":"cebpf4jnsgd1na2vs0mg"},{"bike_id":"84a2915d-c6ef-4af0-8c6d-2fcd615fa6c7","system_id":"levelo_inurba_marseille","lat":43.33352,"lon":5.42013,"is_reserved":false,"is_disabled":true,"rental_uris":{"android":"levelo://app?vid=84a2915d-c6ef-4af0-8c6d-2fcd615fa6c7","ios":"levelo://app?vid=84a2915d-c6ef-4af0-8c6d-2fcd615fa6c7"},"vehicle_type_id":"4","last_reported":1733343049,"current_range_meters":0,"station_id":"","pricing_plan_id":"cebpf4jnsgd1na2vs0mg"},{"bike_id":"e5f69d8c-fd1c-40c2-a503-d983b5feae4a","system_id":"levelo_inurba_marseille","lat":43.30316,"lon":5.40434,"is_reserved":false,"is_disabled":false,"rental_uris":{"android":"levelo://app?vid=e5f69d8c-fd1c-40c2-a503-d983b5feae4a","ios":"levelo://app?vid=e5f69d8c-fd1c-40c2-a503-d983b5feae4a"},"vehicle_type_id":"4","last_reported":1733343049,"current_range_meters":22800,"station_id":"ce4bh012rcd13ifvqd10","pricing_plan_id":"cebpf4jnsgd1na2vs0mg"},{"bike_id":"db6c3c15-f860-4ed9-a653-670dca70a50a","system_id":"levelo_inurba_marseille","lat":43.3147,"lon":5.37297,"is_reserved":false,"is_disabled":false,"rental_uris":{"android":"levelo://app?vid=db6c3c15-f860-4ed9-a653-670dca70a50a","ios":"levelo://app?vid=db6c3c15-f860-4ed9-a653-670dca70a50a"},"vehicle_type_id":"4","last_reported":1733343049,"current_range_meters":26800,"station_id":"ce4bgt12rcd13ifvqcd0","pricing_plan_id":"cebpf4jnsgd1na2vs0mg"},{"bike_id":"f9af7297-60c8-43d7-a968-0426c218f11f","system_id":"levelo_inurba_marseille","lat":43.2549,"lon":5.37649,"is_reserved":false,"is_disabled":true,"rental_uris":{"android":"levelo://app?vid=f9af7297-60c8-43d7-a968-0426c218f11f","ios":"levelo://app?vid=f9af7297-60c8-43d7-a968-0426c218f11f"},"vehicle_type_id":"4","last_reported":1733343049,"current_range_meters":14000,"station_id":"ce4bhh12rcd13ifvqff0","pricing_plan_id":"cebpf4jnsgd1na2vs0mg"},{"bike_id":"c1bd2f3c-72a5-4288-9456-79b212a65b19","system_id":"levelo_inurba_marseille","lat":43.25924,"lon":5.40904,"is_reserved":false,"is_disabled":true,"rental_uris":{"android":"levelo://app?vid=c1bd2f3c-72a5-4288-9456-79b212a65b19","ios":"levelo://app?vid=c1bd2f3c-72a5-4288-9456-79b212a65b19"},"vehicle_type_id":"4","last_reported":1733343049,"current_range_meters":400,"station_id":"ce4bhm92rcd13ifvqglg","pricing_plan_id":"cebpf4jnsgd1na2vs0mg"},{"bike_id":"cb874b66-0fe4-4bad-b3cb-40ad7b1ef176","system_id":"levelo_inurba_marseille","lat":43.25012,"lon":5.38949,"is_reserved":false,"is_disabled":false,"rental_uris":{"android":"levelo://app?vid=cb874b66-0fe4-4bad-b3cb-40ad7b1ef176","ios":"levelo://app?vid=cb874b66-0fe4-4bad-b3cb-40ad7b1ef176"},"vehicle_type_id":"4","last_reported":1733343049,"current_range_meters":38800,"station_id":"ce4bhgp2rcd13ifvqfd0","pricing_plan_id":"cebpf4jnsgd1na2vs0mg"},{"bike_id":"e3a0c7b3-9cbe-4191-84c4-9cd8f64fe8c8","system_id":"levelo_inurba_marseille","lat":43.28421,"lon":5.34992,"is_reserved":false,"is_disabled":false,"rental_uris":{"android":"levelo://app?vid=e3a0c7b3-9cbe-4191-84c4-9cd8f64fe8c8","ios":"levelo://app?vid=e3a0c7b3-9cbe-4191-84c4-9cd8f64fe8c8"},"vehicle_type_id":"4","last_reported":1733343049,"current_range_meters":27200,"station_id":"ce4bhbh2rcd13ifvqepg","pricing_plan_id":"cebpf4jnsgd1na2vs0mg"},{"bike_id":"704edf0a-9774-4ca2-8fd4-44a2b86045e9","system_id":"levelo_inurba_marseille","lat":43.27374,"lon":5.36252,"is_reserved":false,"is_disabled":false,"rental_uris":{"android":"levelo://app?vid=704edf0a-9774-4ca2-8fd4-44a2b86045e9","ios":"levelo://app?vid=704edf0a-9774-4ca2-8fd4-44a2b86045e9"},"vehicle_type_id":"4","last_reported":1733343049,"current_range_meters":24000,"station_id":"ce4bhbh2rcd13ifvqeo0","pricing_plan_id":"cebpf4jnsgd1na2vs0mg"},{"bike_id":"d08cbdef-fa5f-4eaa-9a1b-d4e2d436791f","system_id":"levelo_inurba_marseille","lat":43.32486,"lon":5.3656,"is_reserved":false,"is_disabled":false,"rental_uris":{"android":"levelo://app?vid=d08cbdef-fa5f-4eaa-9a1b-d4e2d436791f","ios":"levelo://app?vid=d08cbdef-fa5f-4eaa-9a1b-d4e2d436791f"},"vehicle_type_id":"4","last_reported":1733343049,"current_range_meters":38800,"station_id":"ce4bhs12rcd13ifvqhvg","pricing_plan_id":"cebpf4jnsgd1na2vs0mg"},{"bike_id":"5e637f80-0b43-46e1-ba82-62152e385b40","system_id":"levelo_inurba_marseille","lat":43.31116,"lon":5.37761,"is_reserved":false,"is_disabled":false,"rental_uris":{"android":"levelo://app?vid=5e637f80-0b43-46e1-ba82-62152e385b40","ios":"levelo://app?vid=5e637f80-0b43-46e1-ba82-62152e385b40"},"vehicle_type_id":"4","last_reported":1733343049,"current_range_meters":10000,"station_id":"ce4bgt92rcd13ifvqcg0","pricing_plan_id":"cebpf4jnsgd1na2vs0mg"},{"bike_id":"a4b9e425-64b8-4ce2-a5ab-5fcc5d1230a4","system_id":"levelo_inurba_marseille","lat":43.32108,"lon":5.36771,"is_reserved":false,"is_disabled":false,"rental_uris":{"android":"levelo://app?vid=a4b9e425-64b8-4ce2-a5ab-5fcc5d1230a4","ios":"levelo://app?vid=a4b9e425-64b8-4ce2-a5ab-5fcc5d1230a4"},"vehicle_type_id":"4","last_reported":1733343049,"current_range_meters":38000,"station_id":"ce4bhrh2rcd13ifvqhug","pricing_plan_id":"cebpf4jnsgd1na2vs0mg"},{"bike_id":"c2c60ae5-8a06-46dd-8518-74b6fd30f85e","system_id":"levelo_inurba_marseille","lat":43.26584,"lon":5.39054,"is_reserved":false,"is_disabled":false,"rental_uris":{"android":"levelo://app?vid=c2c60ae5-8a06-46dd-8518-74b6fd30f85e","ios":"levelo://app?vid=c2c60ae5-8a06-46dd-8518-74b6fd30f85e"},"vehicle_type_id":"4","last_reported":1733343049,"current_range_meters":31200,"station_id":"ce4bhe12rcd13ifvqf30","pricing_plan_id":"cebpf4jnsgd1na2vs0mg"},{"bike_id":"40137885-a1e3-41c7-b647-d2d285ef0375","system_id":"levelo_inurba_marseille","lat":43.28944,"lon":5.36629,"is_reserved":false,"is_disabled":false,"rental_uris":{"android":"levelo://app?vid=40137885-a1e3-41c7-b647-d2d285ef0375","ios":"levelo://app?vid=40137885-a1e3-41c7-b647-d2d285ef0375"},"vehicle_type_id":"4","last_reported":1733343049,"current_range_meters":39200,"station_id":"ce4bhap2rcd13ifvqek0","pricing_plan_id":"cebpf4jnsgd1na2vs0mg"},{"bike_id":"e9825e22-a219-4419-9c42-05f082b516ed","system_id":"levelo_inurba_marseille","lat":43.2979,"lon":5.39353,"is_reserved":false,"is_disabled":true,"rental_uris":{"android":"levelo://app?vid=e9825e22-a219-4419-9c42-05f082b516ed","ios":"levelo://app?vid=e9825e22-a219-4419-9c42-05f082b516ed"},"vehicle_type_id":"4","last_reported":1733343049,"current_range_meters":0,"station_id":"chh1huq6cuj3fo74tm60","pricing_plan_id":"cebpf4jnsgd1na2vs0mg"},{"bike_id":"411208c6-7020-429a-8870-ff4b414c939b","system_id":"levelo_inurba_marseille","lat":43.26473,"lon":5.39552,"is_reserved":false,"is_disabled":false,"rental_uris":{"android":"levelo://app?vid=411208c6-7020-429a-8870-ff4b414c939b","ios":"levelo://app?vid=411208c6-7020-429a-8870-ff4b414c939b"},"vehicle_type_id":"4","last_reported":1733343049,"current_range_meters":38800,"station_id":"ce4bhi12rcd13ifvqfq0","pricing_plan_id":"cebpf4jnsgd1na2vs0mg"},{"bike_id":"fc02bf7c-fa30-4850-9eb4-c1c04eeef081","system_id":"levelo_inurba_marseille","lat":43.33017,"lon":5.39043,"is_reserved":false,"is_disabled":false,"rental_uris":{"android":"levelo://app?vid=fc02bf7c-fa30-4850-9eb4-c1c04eeef081","ios":"levelo://app?vid=fc02bf7c-fa30-4850-9eb4-c1c04eeef081"},"vehicle_type_id":"4","last_reported":1733343049,"current_range_meters":27600,"station_id":"ce4bhr92rcd13ifvqhrg","pricing_plan_id":"cebpf4jnsgd1na2vs0mg"},{"bike_id":"c2d8a1c2-d166-4a36-b32f-beec95c93bd5","system_id":"levelo_inurba_marseille","lat":43.33756,"lon":5.37459,"is_reserved":false,"is_disabled":false,"rental_uris":{"android":"levelo://app?vid=c2d8a1c2-d166-4a36-b32f-beec95c93bd5","ios":"levelo://app?vid=c2d8a1c2-d166-4a36-b32f-beec95c93bd5"},"vehicle_type_id":"4","last_reported":1733343049,"current_range_meters":12400,"station_id":"","pricing_plan_id":"cebpf4jnsgd1na2vs0mg"},{"bike_id":"7e35c456-e566-4b5b-8d90-2807ee5adc01","system_id":"levelo_inurba_marseille","lat":43.30138,"lon":5.38788,"is_reserved":false,"is_disabled":false,"rental_uris":{"android":"levelo://app?vid=7e35c456-e566-4b5b-8d90-2807ee5adc01","ios":"levelo://app?vid=7e35c456-e566-4b5b-8d90-2807ee5adc01"},"vehicle_type_id":"4","last_reported":1733343049,"current_range_meters":4800,"station_id":"ce4bghh2rcd13ifvqb60","pricing_plan_id":"cebpf4jnsgd1na2vs0mg"},{"bike_id":"6fa0e8b3-75cc-49ca-b10f-cd9cb83b8878","system_id":"levelo_inurba_marseille","lat":43.310653,"lon":5.383481,"is_reserved":false,"is_disabled":false,"rental_uris":{"android":"levelo://app?vid=6fa0e8b3-75cc-49ca-b10f-cd9cb83b8878","ios":"levelo://app?vid=6fa0e8b3-75cc-49ca-b10f-cd9cb83b8878"},"vehicle_type_id":"4","last_reported":1733343049,"current_range_meters":8000,"station_id":"ce4bgv92rcd13ifvqcr0","pricing_plan_id":"cebpf4jnsgd1na2vs0mg"},{"bike_id":"135a61d9-0198-4325-86b0-f76226ad33d8","system_id":"levelo_inurba_marseille","lat":43.24386,"lon":5.3705,"is_reserved":false,"is_disabled":false,"rental_uris":{"android":"levelo://app?vid=135a61d9-0198-4325-86b0-f76226ad33d8","ios":"levelo://app?vid=135a61d9-0198-4325-86b0-f76226ad33d8"},"vehicle_type_id":"4","last_reported":1733343049,"current_range_meters":37600,"station_id":"ce4bhhh2rcd13ifvqfk0","pricing_plan_id":"cebpf4jnsgd1na2vs0mg"},{"bike_id":"0d996841-6be0-41f0-b083-a20bc3c24797","system_id":"levelo_inurba_marseille","lat":43.280338,"lon":5.383463,"is_reserved":false,"is_disabled":false,"rental_uris":{"android":"levelo://app?vid=0d996841-6be0-41f0-b083-a20bc3c24797","ios":"levelo://app?vid=0d996841-6be0-41f0-b083-a20bc3c24797"},"vehicle_type_id":"4","last_reported":1733343049,"current_range_meters":2800,"station_id":"ce4bh412rcd13ifvqdr0","pricing_plan_id":"cebpf4jnsgd1na2vs0mg"},{"bike_id":"0e5ecc9c-4101-4fff-bba6-9b7f576504a2","system_id":"levelo_inurba_marseille","lat":43.268,"lon":5.40261,"is_reserved":false,"is_disabled":false,"rental_uris":{"android":"levelo://app?vid=0e5ecc9c-4101-4fff-bba6-9b7f576504a2","ios":"levelo://app?vid=0e5ecc9c-4101-4fff-bba6-9b7f576504a2"},"vehicle_type_id":"4","last_reported":1733343049,"current_range_meters":7200,"station_id":"ce501612rcd8frsf0b60","pricing_plan_id":"cebpf4jnsgd1na2vs0mg"},{"bike_id":"6cb0d7b1-f509-4b8f-a2d8-e08152953ff5","system_id":"levelo_inurba_marseille","lat":43.24805,"lon":5.37456,"is_reserved":false,"is_disabled":false,"rental_uris":{"android":"levelo://app?vid=6cb0d7b1-f509-4b8f-a2d8-e08152953ff5","ios":"levelo://app?vid=6cb0d7b1-f509-4b8f-a2d8-e08152953ff5"},"vehicle_type_id":"4","last_reported":1733343049,"current_range_meters":28400,"station_id":"ce4bhgh2rcd13ifvqfb0","pricing_plan_id":"cebpf4jnsgd1na2vs0mg"},{"bike_id":"5605d362-7a6b-439d-b82f-b1eebcb406f8","system_id":"levelo_inurba_marseille","lat":43.25328,"lon":5.38209,"is_reserved":false,"is_disabled":false,"rental_uris":{"android":"levelo://app?vid=5605d362-7a6b-439d-b82f-b1eebcb406f8","ios":"levelo://app?vid=5605d362-7a6b-439d-b82f-b1eebcb406f8"},"vehicle_type_id":"4","last_reported":1733343049,"current_range_meters":24800,"station_id":"ce4bhg92rcd13ifvqf90","pricing_plan_id":"cebpf4jnsgd1na2vs0mg"},{"bike_id":"eb670d23-f40a-48c6-89e8-aaf1982cb889","system_id":"levelo_inurba_marseille","lat":43.26793,"lon":5.40255,"is_reserved":false,"is_disabled":false,"rental_uris":{"android":"levelo://app?vid=eb670d23-f40a-48c6-89e8-aaf1982cb889","ios":"levelo://app?vid=eb670d23-f40a-48c6-89e8-aaf1982cb889"},"vehicle_type_id":"4","last_reported":1733343049,"current_range_meters":39200,"station_id":"ce501612rcd8frsf0b60","pricing_plan_id":"cebpf4jnsgd1na2vs0mg"},{"bike_id":"7a46cd24-8f11-4d69-8e6b-851da1b037e6","system_id":"levelo_inurba_marseille","lat":43.27206,"lon":5.39182,"is_reserved":false,"is_disabled":false,"rental_uris":{"android":"levelo://app?vid=7a46cd24-8f11-4d69-8e6b-851da1b037e6","ios":"levelo://app?vid=7a46cd24-8f11-4d69-8e6b-851da1b037e6"},"vehicle_type_id":"4","last_reported":1733343049,"current_range_meters":8000,"station_id":"ce4bhhp2rcd13ifvqfm0","pricing_plan_id":"cebpf4jnsgd1na2vs0mg"},{"bike_id":"8be9c429-6d17-4c04-ba4c-191adf657697","system_id":"levelo_inurba_marseille","lat":43.33019,"lon":5.39033,"is_reserved":false,"is_disabled":false,"rental_uris":{"android":"levelo://app?vid=8be9c429-6d17-4c04-ba4c-191adf657697","ios":"levelo://app?vid=8be9c429-6d17-4c04-ba4c-191adf657697"},"vehicle_type_id":"4","last_reported":1733343049,"current_range_meters":24400,"station_id":"ce4bhr92rcd13ifvqhrg","pricing_plan_id":"cebpf4jnsgd1na2vs0mg"},{"bike_id":"062c48bc-ce6b-4e53-bc0e-240815d75010","system_id":"levelo_inurba_marseille","lat":43.28463,"lon":5.35897,"is_reserved":false,"is_disabled":false,"rental_uris":{"android":"levelo://app?vid=062c48bc-ce6b-4e53-bc0e-240815d75010","ios":"levelo://app?vid=062c48bc-ce6b-4e53-bc0e-240815d75010"},"vehicle_type_id":"4","last_reported":1733343049,"current_range_meters":30800,"station_id":"ce4bhah2rcd13ifvqei0","pricing_plan_id":"cebpf4jnsgd1na2vs0mg"},{"bike_id":"2a08b841-4bc8-40d2-b375-8f79b071085c","system_id":"levelo_inurba_marseille","lat":43.31486,"lon":5.37304,"is_reserved":false,"is_disabled":true,"rental_uris":{"android":"levelo://app?vid=2a08b841-4bc8-40d2-b375-8f79b071085c","ios":"levelo://app?vid=2a08b841-4bc8-40d2-b375-8f79b071085c"},"vehicle_type_id":"4","last_reported":1733343049,"current_range_meters":400,"station_id":"ce4bgt12rcd13ifvqcd0","pricing_plan_id":"cebpf4jnsgd1na2vs0mg"},{"bike_id":"261220fd-5dcf-4647-a7b7-e8a521af2bec","system_id":"levelo_inurba_marseille","lat":43.27908,"lon":5.37994,"is_reserved":false,"is_disabled":true,"rental_uris":{"android":"levelo://app?vid=261220fd-5dcf-4647-a7b7-e8a521af2bec","ios":"levelo://app?vid=261220fd-5dcf-4647-a7b7-e8a521af2bec"},"vehicle_type_id":"4","last_reported":1733343049,"current_range_meters":0,"station_id":"ce4bhf92rcd13ifvqf50","pricing_plan_id":"cebpf4jnsgd1na2vs0mg"},{"bike_id":"0b115fbc-2a1c-4284-9549-50ec6c5705b3","system_id":"levelo_inurba_marseille","lat":43.33022,"lon":5.39037,"is_reserved":false,"is_disabled":false,"rental_uris":{"android":"levelo://app?vid=0b115fbc-2a1c-4284-9549-50ec6c5705b3","ios":"levelo://app?vid=0b115fbc-2a1c-4284-9549-50ec6c5705b3"},"vehicle_type_id":"4","last_reported":1733343049,"current_range_meters":38800,"station_id":"ce4bhr92rcd13ifvqhrg","pricing_plan_id":"cebpf4jnsgd1na2vs0mg"},{"bike_id":"637a2191-0b99-4ddd-8d5c-313c825e67ee","system_id":"levelo_inurba_marseille","lat":43.33022,"lon":5.39035,"is_reserved":false,"is_disabled":false,"rental_uris":{"android":"levelo://app?vid=637a2191-0b99-4ddd-8d5c-313c825e67ee","ios":"levelo://app?vid=637a2191-0b99-4ddd-8d5c-313c825e67ee"},"vehicle_type_id":"4","last_reported":1733343049,"current_range_meters":7200,"station_id":"ce4bhr92rcd13ifvqhrg","pricing_plan_id":"cebpf4jnsgd1na2vs0mg"},{"bike_id":"566d3863-5d3d-46e1-8560-48de365cc9d0","system_id":"levelo_inurba_marseille","lat":43.26547,"lon":5.37288,"is_reserved":false,"is_disabled":false,"rental_uris":{"android":"levelo://app?vid=566d3863-5d3d-46e1-8560-48de365cc9d0","ios":"levelo://app?vid=566d3863-5d3d-46e1-8560-48de365cc9d0"},"vehicle_type_id":"4","last_reported":1733343049,"current_range_meters":10000,"station_id":"ce4bhg12rcd13ifvqf70","pricing_plan_id":"cebpf4jnsgd1na2vs0mg"},{"bike_id":"fea5aec6-1ea3-4af3-b200-d65db6232061","system_id":"levelo_inurba_marseille","lat":43.23968,"lon":5.36628,"is_reserved":false,"is_disabled":false,"rental_uris":{"android":"levelo://app?vid=fea5aec6-1ea3-4af3-b200-d65db6232061","ios":"levelo://app?vid=fea5aec6-1ea3-4af3-b200-d65db6232061"},"vehicle_type_id":"4","last_reported":1733343049,"current_range_meters":26000,"station_id":"ce4bhi12rcd13ifvqfp0","pricing_plan_id":"cebpf4jnsgd1na2vs0mg"},{"bike_id":"a13e45b5-3d49-49bc-af49-fbd12d53a877","system_id":"levelo_inurba_marseille","lat":43.30543,"lon":5.36535,"is_reserved":false,"is_disabled":true,"rental_uris":{"android":"levelo://app?vid=a13e45b5-3d49-49bc-af49-fbd12d53a877","ios":"levelo://app?vid=a13e45b5-3d49-49bc-af49-fbd12d53a877"},"vehicle_type_id":"4","last_reported":1733343049,"current_range_meters":16800,"station_id":"ce4bgs12rcd13ifvqcag","pricing_plan_id":"cebpf4jnsgd1na2vs0mg"},{"bike_id":"75c675ce-a86a-4efa-8cb3-a54e393ad2c3","system_id":"levelo_inurba_marseille","lat":43.30862,"lon":5.37781,"is_reserved":false,"is_disabled":false,"rental_uris":{"android":"levelo://app?vid=75c675ce-a86a-4efa-8cb3-a54e393ad2c3","ios":"levelo://app?vid=75c675ce-a86a-4efa-8cb3-a54e393ad2c3"},"vehicle_type_id":"4","last_reported":1733343049,"current_range_meters":19600,"station_id":"","pricing_plan_id":"cebpf4jnsgd1na2vs0mg"},{"bike_id":"21c61b3f-2ae1-41ed-96e8-21fc1b01a387","system_id":"levelo_inurba_marseille","lat":43.300872,"lon":5.37248,"is_reserved":false,"is_disabled":false,"rental_uris":{"android":"levelo://app?vid=21c61b3f-2ae1-41ed-96e8-21fc1b01a387","ios":"levelo://app?vid=21c61b3f-2ae1-41ed-96e8-21fc1b01a387"},"vehicle_type_id":"4","last_reported":1733343049,"current_range_meters":20000,"station_id":"","pricing_plan_id":"cebpf4jnsgd1na2vs0mg"},{"bike_id":"eca3adaa-bb31-4004-9cf7-8b3631497d54","system_id":"levelo_inurba_marseille","lat":43.23964,"lon":5.36624,"is_reserved":false,"is_disabled":true,"rental_uris":{"android":"levelo://app?vid=eca3adaa-bb31-4004-9cf7-8b3631497d54","ios":"levelo://app?vid=eca3adaa-bb31-4004-9cf7-8b3631497d54"},"vehicle_type_id":"4","last_reported":1733343049,"current_range_meters":0,"station_id":"ce4bhi12rcd13ifvqfp0","pricing_plan_id":"cebpf4jnsgd1na2vs0mg"},{"bike_id":"7e87d4f8-01df-4475-b68f-dae3809122d2","system_id":"levelo_inurba_marseille","lat":43.31015,"lon":5.37522,"is_reserved":false,"is_disabled":false,"rental_uris":{"android":"levelo://app?vid=7e87d4f8-01df-4475-b68f-dae3809122d2","ios":"levelo://app?vid=7e87d4f8-01df-4475-b68f-dae3809122d2"},"vehicle_type_id":"4","last_reported":1733343049,"current_range_meters":16800,"station_id":"","pricing_plan_id":"cebpf4jnsgd1na2vs0mg"},{"bike_id":"3a9149f3-357c-4d0a-859b-18382ef024a5","system_id":"levelo_inurba_marseille","lat":43.3211,"lon":5.36769,"is_reserved":false,"is_disabled":false,"rental_uris":{"android":"levelo://app?vid=3a9149f3-357c-4d0a-859b-18382ef024a5","ios":"levelo://app?vid=3a9149f3-357c-4d0a-859b-18382ef024a5"},"vehicle_type_id":"4","last_reported":1733343049,"current_range_meters":26800,"station_id":"ce4bhrh2rcd13ifvqhug","pricing_plan_id":"cebpf4jnsgd1na2vs0mg"},{"bike_id":"c70f1f71-5430-46e8-b6ed-eac59eecefe4","system_id":"levelo_inurba_marseille","lat":43.29522,"lon":5.39035,"is_reserved":false,"is_disabled":false,"rental_uris":{"android":"levelo://app?vid=c70f1f71-5430-46e8-b6ed-eac59eecefe4","ios":"levelo://app?vid=c70f1f71-5430-46e8-b6ed-eac59eecefe4"},"vehicle_type_id":"4","last_reported":1733343049,"current_range_meters":14800,"station_id":"ce4bh3p2rcd13ifvqdp0","pricing_plan_id":"cebpf4jnsgd1na2vs0mg"},{"bike_id":"8c3d731d-ec18-4229-9190-9f99eeca0dea","system_id":"levelo_inurba_marseille","lat":43.28071,"lon":5.3965,"is_reserved":false,"is_disabled":false,"rental_uris":{"android":"levelo://app?vid=8c3d731d-ec18-4229-9190-9f99eeca0dea","ios":"levelo://app?vid=8c3d731d-ec18-4229-9190-9f99eeca0dea"},"vehicle_type_id":"4","last_reported":1733343049,"current_range_meters":37600,"station_id":"ce4bho12rcd13ifvqh2g","pricing_plan_id":"cebpf4jnsgd1na2vs0mg"},{"bike_id":"17c9c88f-3a1b-471a-bed7-16022ae8bfdb","system_id":"levelo_inurba_marseille","lat":43.30947,"lon":5.3903,"is_reserved":false,"is_disabled":false,"rental_uris":{"android":"levelo://app?vid=17c9c88f-3a1b-471a-bed7-16022ae8bfdb","ios":"levelo://app?vid=17c9c88f-3a1b-471a-bed7-16022ae8bfdb"},"vehicle_type_id":"4","last_reported":1733343049,"current_range_meters":38800,"station_id":"ce4bgup2rcd13ifvqco0","pricing_plan_id":"cebpf4jnsgd1na2vs0mg"},{"bike_id":"d0989137-d29c-4671-b0aa-5eb3221f1ee6","system_id":"levelo_inurba_marseille","lat":43.29256,"lon":5.40907,"is_reserved":false,"is_disabled":false,"rental_uris":{"android":"levelo://app?vid=d0989137-d29c-4671-b0aa-5eb3221f1ee6","ios":"levelo://app?vid=d0989137-d29c-4671-b0aa-5eb3221f1ee6"},"vehicle_type_id":"4","last_reported":1733343049,"current_range_meters":37600,"station_id":"ce4bh192rcd13ifvqdc0","pricing_plan_id":"cebpf4jnsgd1na2vs0mg"},{"bike_id":"c2e22b60-40f0-40f4-b347-723d2f8cc04e","system_id":"levelo_inurba_marseille","lat":43.27572,"lon":5.3842,"is_reserved":false,"is_disabled":false,"rental_uris":{"android":"levelo://app?vid=c2e22b60-40f0-40f4-b347-723d2f8cc04e","ios":"levelo://app?vid=c2e22b60-40f0-40f4-b347-723d2f8cc04e"},"vehicle_type_id":"4","last_reported":1733343049,"current_range_meters":38800,"station_id":"ce4bhh92rcd13ifvqfi0","pricing_plan_id":"cebpf4jnsgd1na2vs0mg"},{"bike_id":"1c31ba29-839d-4493-9eee-49d081b6bc89","system_id":"levelo_inurba_marseille","lat":43.27813,"lon":5.40712,"is_reserved":false,"is_disabled":false,"rental_uris":{"android":"levelo://app?vid=1c31ba29-839d-4493-9eee-49d081b6bc89","ios":"levelo://app?vid=1c31ba29-839d-4493-9eee-49d081b6bc89"},"vehicle_type_id":"4","last_reported":1733343049,"current_range_meters":38400,"station_id":"ce4bhnh2rcd13ifvqgtg","pricing_plan_id":"cebpf4jnsgd1na2vs0mg"},{"bike_id":"721f5feb-b378-4dac-af39-7801c98d73b6","system_id":"levelo_inurba_marseille","lat":43.30149,"lon":5.381,"is_reserved":false,"is_disabled":true,"rental_uris":{"android":"levelo://app?vid=721f5feb-b378-4dac-af39-7801c98d73b6","ios":"levelo://app?vid=721f5feb-b378-4dac-af39-7801c98d73b6"},"vehicle_type_id":"4","last_reported":1733343049,"current_range_meters":0,"station_id":"ce4bgjp2rcd13ifvqbh0","pricing_plan_id":"cebpf4jnsgd1na2vs0mg"},{"bike_id":"da6a7a1d-e653-4950-af8c-8137b06f7d40","system_id":"levelo_inurba_marseille","lat":43.3004,"lon":5.37551,"is_reserved":false,"is_disabled":true,"rental_uris":{"android":"levelo://app?vid=da6a7a1d-e653-4950-af8c-8137b06f7d40","ios":"levelo://app?vid=da6a7a1d-e653-4950-af8c-8137b06f7d40"},"vehicle_type_id":"4","last_reported":1733343049,"current_range_meters":0,"station_id":"","pricing_plan_id":"cebpf4jnsgd1na2vs0mg"},{"bike_id":"0f279638-76e3-434d-bd65-08ac649def2e","system_id":"levelo_inurba_marseille","lat":43.27913,"lon":5.39576,"is_reserved":false,"is_disabled":false,"rental_uris":{"android":"levelo://app?vid=0f279638-76e3-434d-bd65-08ac649def2e","ios":"levelo://app?vid=0f279638-76e3-434d-bd65-08ac649def2e"},"vehicle_type_id":"4","last_reported":1733343049,"current_range_meters":6000,"station_id":"ce4bhf92rcd13ifvqf40","pricing_plan_id":"cebpf4jnsgd1na2vs0mg"},{"bike_id":"aea46716-b694-49dc-b6f4-cadf073c97a9","system_id":"levelo_inurba_marseille","lat":43.25581,"lon":5.38231,"is_reserved":false,"is_disabled":false,"rental_uris":{"android":"levelo://app?vid=aea46716-b694-49dc-b6f4-cadf073c97a9","ios":"levelo://app?vid=aea46716-b694-49dc-b6f4-cadf073c97a9"},