{"last_updated":1685549307,"ttl":30,"version":"2.2","data":{"bikes":[{"bike_id":"58f08073-6242-4840-8995-258f0348b44f","system_id":"levelo_inurba_marseille","lat":43.3123,"lon":5.36851,"is_reserved":false,"is_disabled":false,"rental_uris":{"android":"levelo://app?vid=58f08073-6242-4840-8995-258f0348b44f","ios":"levelo://app?vid=58f08073-6242-4840-8995-258f0348b44f"},"vehicle_type_id":"4","last_reported":1685549307,"current_range_meters":24000,"station_id":"ce4bgl92rcd13ifvqbq0","pricing_plan_id":"free"},{"bike_id":"bb2c7aae-c08b-49ef-bd65-53668e9ee2fb","system_id":"levelo_inurba_marseille","lat":43.30985,"lon":5.36886,"is_reserved":false,"is_disabled":false,"rental_uris":{"android":"levelo://app?vid=bb2c7aae-c08b-49ef-bd65-53668e9ee2fb","ios":"levelo://app?vid=bb2c7aae-c08b-49ef-bd65-53668e9ee2fb"},"vehicle_type_id":"4","last_reported":1685549307,"current_range_meters":29600,"station_id":"","pricing_plan_id":"free"},{"bike_id":"0c30cc4d-2724-4b50-852b-448f64474b83","system_id":"levelo_inurba_marseille","lat":43.31159,"lon":5.37312,"is_reserved":false,"is_disabled":false,"rental_uris":{"android":"levelo://app?vid=0c30cc4d-2724-4b50-852b-448f64474b83","ios":"levelo://app?vid=0c30cc4d-2724-4b50-852b-448f64474b83"},"vehicle_type_id":"4","last_reported":1685549307,"current_range_meters":0,"station_id":"","pricing_plan_id":"free"},{"bike_id":"22e73cd9-9b29-426c-a297-2ec4c60d9ec9","system_id":"levelo_inurba_marseille","lat":43.314811,"lon":5.373104,"is_reserved":false,"is_disabled":false,"rental_uris":{"android":"levelo://app?vid=22e73cd9-9b29-426c-a297-2ec4c60d9ec9","ios":"levelo://app?vid=22e73cd9-9b29-426c-a297-2ec4c60d9ec9"},"vehicle_type_id":"4","last_reported":1685549307,"current_range_meters":14800,"station_id":"ce4bgt12rcd13ifvqcd0","pricing_plan_id":"free"},{"bike_id":"baae1ca4-2248-416b-ae5d-170faf424848","system_id":"levelo_inurba_marseille","lat":43.308614,"lon":5.372098,"is_reserved":false,"is_disabled":false,"rental_uris":{"android":"levelo://app?vid=baae1ca4-2248-416b-ae5d-170faf424848","ios":"levelo://app?vid=baae1ca4-2248-416b-ae5d-170faf424848"},"vehicle_type_id":"4","last_reported":1685549307,"current_range_meters":4000,"station_id":"ce4bguh2rcd13ifvqckg","pricing_plan_id":"free"},{"bike_id":"42f2baf3-7993-441d-8c97-702ca64aa6b1","system_id":"levelo_inurba_marseille","lat":43.308614,"lon":5.372098,"is_reserved":false,"is_disabled":false,"rental_uris":{"android":"levelo://app?vid=42f2baf3-7993-441d-8c97-702ca64aa6b1","ios":"levelo://app?vid=42f2baf3-7993-441d-8c97-702ca64aa6b1"},"vehicle_type_id":"4","last_reported":1685549307,"current_range_meters":12800,"station_id":"ce4bguh2rcd13ifvqckg","pricing_plan_id":"free"},{"bike_id":"f69a3f8a-adab-435a-ad98-4302ca7a3c35","system_id":"levelo_inurba_marseille","lat":43.31676,"lon":5.37236,"is_reserved":false,"is_disabled":false,"rental_uris":{"android":"levelo://app?vid=f69a3f8a-adab-435a-ad98-4302ca7a3c35","ios":"levelo://app?vid=f69a3f8a-adab-435a-ad98-4302ca7a3c35"},"vehicle_type_id":"4","last_reported":1685549307,"current_range_meters":16800,"station_id":"","pricing_plan_id":"free"},{"bike_id":"b43e4da6-20e0-4ea2-aa03-65685cff4e27","system_id":"levelo_inurba_marseille","lat":43.30565,"lon":5.36691,"is_reserved":false,"is_disabled":false,"rental_uris":{"android":"levelo://app?vid=b43e4da6-20e0-4ea2-aa03-65685cff4e27","ios":"levelo://app?vid=b43e4da6-20e0-4ea2-aa03-65685cff4e27"},"vehicle_type_id":"4","last_reported":1685549307,"current_range_meters":30000,"station_id":"","pricing_plan_id":"free"},{"bike_id":"c442a27e-d26a-4da8-ae70-ea22a922d27e","system_id":"levelo_inurba_marseille","lat":43.311125,"lon":5.377624,"is_reserved":false,"is_disabled":false,"rental_uris":{"android":"levelo://app?vid=c442a27e-d26a-4da8-ae70-ea22a922d27e","ios":"levelo://app?vid=c442a27e-d26a-4da8-ae70-ea22a922d27e"},"vehicle_type_id":"4","last_reported":1685549307,"current_range_meters":28000,"station_id":"ce4bgt92rcd13ifvqcg0","pricing_plan_id":"free"},{"bike_id":"fccc6a44-9268-475d-b2de-c3002cf1cf10","system_id":"levelo_inurba_marseille","lat":43.311125,"lon":5.377624,"is_reserved":false,"is_disabled":false,"rental_uris":{"android":"levelo://app?vid=fccc6a44-9268-475d-b2de-c3002cf1cf10","ios":"levelo://app?vid=fccc6a44-9268-475d-b2de-c3002cf1cf10"},"vehicle_type_id":"4","last_reported":1685549307,"current_range_meters":1200,"station_id":"ce4bgt92rcd13ifvqcg0","pricing_plan_id":"free"},{"bike_id":"997919aa-2218-4b0d-ab25-41179850189a","system_id":"levelo_inurba_marseille","lat":43.30456,"lon":5.37095,"is_reserved":false,"is_disabled":false,"rental_uris":{"android":"levelo://app?vid=997919aa-2218-4b0d-ab25-41179850189a","ios":"levelo://app?vid=997919aa-2218-4b0d-ab25-41179850189a"},"vehicle_type_id":"4","last_reported":1685549307,"current_range_meters":3600,"station_id":"","pricing_plan_id":"free"},{"bike_id":"2e436361-2164-4679-b061-d77fbd415422","system_id":"levelo_inurba_marseille","lat":43.31951,"lon":5.37453,"is_reserved":false,"is_disabled":false,"rental_uris":{"android":"levelo://app?vid=2e436361-2164-4679-b061-d77fbd415422","ios":"levelo://app?vid=2e436361-2164-4679-b061-d77fbd415422"},"vehicle_type_id":"4","last_reported":1685549307,"current_range_meters":22400,"station_id":"","pricing_plan_id":"free"},{"bike_id":"e63c1c5d-be91-4273-8d69-864b6ebbd8c8","system_id":"levelo_inurba_marseille","lat":43.30905,"lon":5.37851,"is_reserved":false,"is_disabled":false,"rental_uris":{"android":"levelo://app?vid=e63c1c5d-be91-4273-8d69-864b6ebbd8c8","ios":"levelo://app?vid=e63c1c5d-be91-4273-8d69-864b6ebbd8c8"},"vehicle_type_id":"4","last_reported":1685549307,"current_range_meters":20800,"station_id":"","pricing_plan_id":"free"},{"bike_id":"fc0a83f8-c135-4af7-8fd2-f585fe09700f","system_id":"levelo_inurba_marseille","lat":43.303046,"lon":5.368981,"is_reserved":false,"is_disabled":false,"rental_uris":{"android":"levelo://app?vid=fc0a83f8-c135-4af7-8fd2-f585fe09700f","ios":"levelo://app?vid=fc0a83f8-c135-4af7-8fd2-f585fe09700f"},"vehicle_type_id":"4","last_reported":1685549307,"current_range_meters":25200,"station_id":"ce4bgqh2rcd13ifvqc5g","pricing_plan_id":"free"},{"bike_id":"20fb1e6b-ef22-41d8-9250-11513a095df8","system_id":"levelo_inurba_marseille","lat":43.31002,"lon":5.38021,"is_reserved":false,"is_disabled":false,"rental_uris":{"android":"levelo://app?vid=20fb1e6b-ef22-41d8-9250-11513a095df8","ios":"levelo://app?vid=20fb1e6b-ef22-41d8-9250-11513a095df8"},"vehicle_type_id":"4","last_reported":1685549307,"current_range_meters":8400,"station_id":"","pricing_plan_id":"free"},{"bike_id":"7a8cd430-dd37-4a8d-b5ff-3141c9f698f4","system_id":"levelo_inurba_marseille","lat":43.31809,"lon":5.38147,"is_reserved":false,"is_disabled":false,"rental_uris":{"android":"levelo://app?vid=7a8cd430-dd37-4a8d-b5ff-3141c9f698f4","ios":"levelo://app?vid=7a8cd430-dd37-4a8d-b5ff-3141c9f698f4"},"vehicle_type_id":"4","last_reported":1685549307,"current_range_meters":4800,"station_id":"","pricing_plan_id":"free"},{"bike_id":"c4276daf-0211-485f-a822-26c3ab061cf5","system_id":"levelo_inurba_marseille","lat":43.30209,"lon":5.37447,"is_reserved":false,"is_disabled":false,"rental_uris":{"android":"levelo://app?vid=c4276daf-0211-485f-a822-26c3ab061cf5","ios":"levelo://app?vid=c4276daf-0211-485f-a822-26c3ab061cf5"},"vehicle_type_id":"4","last_reported":1685549307,"current_range_meters":14000,"station_id":"","pricing_plan_id":"free"},{"bike_id":"d81a4dd2-5496-4ddd-ba80-4324dc22f878","system_id":"levelo_inurba_marseille","lat":43.3164,"lon":5.38301,"is_reserved":false,"is_disabled":false,"rental_uris":{"android":"levelo://app?vid=d81a4dd2-5496-4ddd-ba80-4324dc22f878","ios":"levelo://app?vid=d81a4dd2-5496-4ddd-ba80-4324dc22f878"},"vehicle_type_id":"4","last_reported":1685549307,"current_range_meters":23600,"station_id":"","pricing_plan_id":"free"},{"bike_id":"ac073bad-f2c9-4250-8fcc-62eca1b42797","system_id":"levelo_inurba_marseille","lat":43.299222,"lon":5.365554,"is_reserved":false,"is_disabled":false,"rental_uris":{"android":"levelo://app?vid=ac073bad-f2c9-4250-8fcc-62eca1b42797","ios":"levelo://app?vid=ac073bad-f2c9-4250-8fcc-62eca1b42797"},"vehicle_type_id":"4","last_reported":1685549307,"current_range_meters":0,"station_id":"ce4bgm92rcd13ifvqbr0","pricing_plan_id":"free"},{"bike_id":"06386d96-4d48-419a-b8d9-121d29e5b74e","system_id":"levelo_inurba_marseille","lat":43.298433,"lon":5.362774,"is_reserved":false,"is_disabled":false,"rental_uris":{"android":"levelo://app?vid=06386d96-4d48-419a-b8d9-121d29e5b74e","ios":"levelo://app?vid=06386d96-4d48-419a-b8d9-121d29e5b74e"},"vehicle_type_id":"4","last_reported":1685549307,"current_range_meters":14400,"station_id":"ce4bgpp2rcd13ifvqc3g","pricing_plan_id":"free"},{"bike_id":"c5d15bec-421e-4c99-a4c9-fe502f00a434","system_id":"levelo_inurba_marseille","lat":43.299243,"lon":5.37481,"is_reserved":false,"is_disabled":false,"rental_uris":{"android":"levelo://app?vid=c5d15bec-421e-4c99-a4c9-fe502f00a434","ios":"levelo://app?vid=c5d15bec-421e-4c99-a4c9-fe502f00a434"},"vehicle_type_id":"4","last_reported":1685549307,"current_range_meters":31200,"station_id":"ce4bgjh2rcd13ifvqbg0","pricing_plan_id":"free"},{"bike_id":"6961312b-1abc-4260-b027-8357daa88d80","system_id":"levelo_inurba_marseille","lat":43.299243,"lon":5.37481,"is_reserved":false,"is_disabled":false,"rental_uris":{"android":"levelo://app?vid=6961312b-1abc-4260-b027-8357daa88d80","ios":"levelo://app?vid=6961312b-1abc-4260-b027-8357daa88d80"},"vehicle_type_id":"4","last_reported":1685549307,"current_range_meters":30000,"station_id":"ce4bgjh2rcd13ifvqbg0","pricing_plan_id":"free"},{"bike_id":"c710ac0f-55fc-43fd-82d2-b1d6a73a33f5","system_id":"levelo_inurba_marseille","lat":43.299243,"lon":5.37481,"is_reserved":false,"is_disabled":false,"rental_uris":{"android":"levelo://app?vid=c710ac0f-55fc-43fd-82d2-b1d6a73a33f5","ios":"levelo://app?vid=c710ac0f-55fc-43fd-82d2-b1d6a73a33f5"},"vehicle_type_id":"4","last_reported":1685549307,"current_range_meters":2400,"station_id":"ce4bgjh2rcd13ifvqbg0","pricing_plan_id":"free"},{"bike_id":"dde908e4-bf0c-4ec3-aca5-9e6fedba9f31","system_id":"levelo_inurba_marseille","lat":43.311722,"lon":5.387247,"is_reserved":false,"is_disabled":false,"rental_uris":{"android":"levelo://app?vid=dde908e4-bf0c-4ec3-aca5-9e6fedba9f31","ios":"levelo://app?vid=dde908e4-bf0c-4ec3-aca5-9e6fedba9f31"},"vehicle_type_id":"4","last_reported":1685549307,"current_range_meters":0,"station_id":"ce4bgv12rcd13ifvqcp0","pricing_plan_id":"free"},{"bike_id":"e01879d8-a1ae-4492-94f9-0b5e4185c0af","system_id":"levelo_inurba_marseille","lat":43.31185,"lon":5.38727,"is_reserved":false,"is_disabled":false,"rental_uris":{"android":"levelo://app?vid=e01879d8-a1ae-4492-94f9-0b5e4185c0af","ios":"levelo://app?vid=e01879d8-a1ae-4492-94f9-0b5e4185c0af"},"vehicle_type_id":"4","last_reported":1685549307,"current_range_meters":0,"station_id":"ce4bgv12rcd13ifvqcp0","pricing_plan_id":"free"},{"bike_id":"cf8c0764-0b9c-4a3f-aa2c-e72825267bc2","system_id":"levelo_inurba_marseille","lat":43.311722,"lon":5.387247,"is_reserved":false,"is_disabled":false,"rental_uris":{"android":"levelo://app?vid=cf8c0764-0b9c-4a3f-aa2c-e72825267bc2","ios":"levelo://app?vid=cf8c0764-0b9c-4a3f-aa2c-e72825267bc2"},"vehicle_type_id":"4","last_reported":1685549307,"current_range_meters":14000,"station_id":"ce4bgv12rcd13ifvqcp0","pricing_plan_id":"free"},{"bike_id":"653deb0e-a839-427f-98fa-08dedc8308ec","system_id":"levelo_inurba_marseille","lat":43.297774,"lon":5.370875,"is_reserved":false,"is_disabled":false,"rental_uris":{"android":"levelo://app?vid=653deb0e-a839-427f-98fa-08dedc8308ec","ios":"levelo://app?vid=653deb0e-a839-427f-98fa-08dedc8308ec"},"vehicle_type_id":"4","last_reported":1685549307,"current_range_meters":28800,"station_id":"ce4bgop2rcd13ifvqc1g","pricing_plan_id":"free"},{"bike_id":"9638f095-9872-424d-ac8a-71a38e88039d","system_id":"levelo_inurba_marseille","lat":43.297794,"lon":5.370888,"is_reserved":false,"is_disabled":false,"rental_uris":{"android":"levelo://app?vid=9638f095-9872-424d-ac8a-71a38e88039d","ios":"levelo://app?vid=9638f095-9872-424d-ac8a-71a38e88039d"},"vehicle_type_id":"4","last_reported":1685549307,"current_range_meters":30800,"station_id":"ce4bgop2rcd13ifvqc1g","pricing_plan_id":"free"},{"bike_id":"3daa03e9-5c33-440e-abe3-20bdeabf6550","system_id":"levelo_inurba_marseille","lat":43.29714,"lon":5.36611,"is_reserved":false,"is_disabled":false,"rental_uris":{"android":"levelo://app?vid=3daa03e9-5c33-440e-abe3-20bdeabf6550","ios":"levelo://app?vid=3daa03e9-5c33-440e-abe3-20bdeabf6550"},"vehicle_type_id":"4","last_reported":1685549307,"current_range_meters":15600,"station_id":"","pricing_plan_id":"free"},{"bike_id":"476370a7-405d-4d92-80bc-f125a39bfb3f","system_id":"levelo_inurba_marseille","lat":43.32836,"lon":5.36685,"is_reserved":false,"is_disabled":false,"rental_uris":{"android":"levelo://app?vid=476370a7-405d-4d92-80bc-f125a39bfb3f","ios":"levelo://app?vid=476370a7-405d-4d92-80bc-f125a39bfb3f"},"vehicle_type_id":"4","last_reported":1685549307,"current_range_meters":0,"station_id":"ce4bhs92rcd13ifvqi0g","pricing_plan_id":"free"},{"bike_id":"8c831443-7c11-494f-bd59-cd62383b4d6b","system_id":"levelo_inurba_marseille","lat":43.29652,"lon":5.36851,"is_reserved":false,"is_disabled":false,"rental_uris":{"android":"levelo://app?vid=8c831443-7c11-494f-bd59-cd62383b4d6b","ios":"levelo://app?vid=8c831443-7c11-494f-bd59-cd62383b4d6b"},"vehicle_type_id":"4","last_reported":1685549307,"current_range_meters":27200,"station_id":"","pricing_plan_id":"free"},{"bike_id":"b3bcb0aa-224a-4a47-8a7f-a0789c818e6b","system_id":"levelo_inurba_marseille","lat":43.296131,"lon":5.370791,"is_reserved":false,"is_disabled":false,"rental_uris":{"android":"levelo://app?vid=b3bcb0aa-224a-4a47-8a7f-a0789c818e6b","ios":"levelo://app?vid=b3bcb0aa-224a-4a47-8a7f-a0789c818e6b"},"vehicle_type_id":"4","last_reported":1685549307,"current_range_meters":12000,"station_id":"ce4bgnh2rcd13ifvqc0g","pricing_plan_id":"free"},{"bike_id":"f907a8fb-2e0a-4e28-a963-1c55405bee57","system_id":"levelo_inurba_marseille","lat":43.29573,"lon":5.367355,"is_reserved":false,"is_disabled":false,"rental_uris":{"android":"levelo://app?vid=f907a8fb-2e0a-4e28-a963-1c55405bee57","ios":"levelo://app?vid=f907a8fb-2e0a-4e28-a963-1c55405bee57"},"vehicle_type_id":"4","last_reported":1685549307,"current_range_meters":31200,"station_id":"ce4bgph2rcd13ifvqc2g","pricing_plan_id":"free"},{"bike_id":"e77fad25-1184-448e-b32e-8f3f9544c922","system_id":"levelo_inurba_marseille","lat":43.29573,"lon":5.367355,"is_reserved":false,"is_disabled":false,"rental_uris":{"android":"levelo://app?vid=e77fad25-1184-448e-b32e-8f3f9544c922","ios":"levelo://app?vid=e77fad25-1184-448e-b32e-8f3f9544c922"},"vehicle_type_id":"4","last_reported":1685549307,"current_range_meters":31200,"station_id":"ce4bgph2rcd13ifvqc2g","pricing_plan_id":"free"},{"bike_id":"b7b2205b-fe65-41ec-9d85-ed35644e3987","system_id":"levelo_inurba_marseille","lat":43.29573,"lon":5.367355,"is_reserved":false,"is_disabled":false,"rental_uris":{"android":"levelo://app?vid=b7b2205b-fe65-41ec-9d85-ed35644e3987","ios":"levelo://app?vid=b7b2205b-fe65-41ec-9d85-ed35644e3987"},"vehicle_type_id":"4","last_reported":1685549307,"current_range_meters":31200,"station_id":"ce4bgph2rcd13ifvqc2g","pricing_plan_id":"free"},{"bike_id":"d81d32ab-2de3-4287-a804-5d0bb36bf680","system_id":"levelo_inurba_marseille","lat":43.317557,"lon":5.390173,"is_reserved":false,"is_disabled":false,"rental_uris":{"android":"levelo://app?vid=d81d32ab-2de3-4287-a804-5d0bb36bf680","ios":"levelo://app?vid=d81d32ab-2de3-4287-a804-5d0bb36bf680"},"vehicle_type_id":"4","last_reported":1685549307,"current_range_meters":20800,"station_id":"ce4bhqp2rcd13ifvqhng","pricing_plan_id":"free"},{"bike_id":"4b267e26-2f55-4cdc-9bd9-970d121ad656","system_id":"levelo_inurba_marseille","lat":43.317557,"lon":5.390173,"is_reserved":false,"is_disabled":false,"rental_uris":{"android":"levelo://app?vid=4b267e26-2f55-4cdc-9bd9-970d121ad656","ios":"levelo://app?vid=4b267e26-2f55-4cdc-9bd9-970d121ad656"},"vehicle_type_id":"4","last_reported":1685549307,"current_range_meters":3600,"station_id":"ce4bhqp2rcd13ifvqhng","pricing_plan_id":"free"},{"bike_id":"f6e8f4c0-f432-4ce9-b323-e3d308f189b6","system_id":"levelo_inurba_marseille","lat":43.30429,"lon":5.38886,"is_reserved":false,"is_disabled":false,"rental_uris":{"android":"levelo://app?vid=f6e8f4c0-f432-4ce9-b323-e3d308f189b6","ios":"levelo://app?vid=f6e8f4c0-f432-4ce9-b323-e3d308f189b6"},"vehicle_type_id":"4","last_reported":1685549307,"current_range_meters":7200,"station_id":"ce4bgk12rcd13ifvqbi0","pricing_plan_id":"free"},{"bike_id":"979744b8-f0e0-44b7-aaad-07f765b42a14","system_id":"levelo_inurba_marseille","lat":43.296263,"lon":5.377094,"is_reserved":false,"is_disabled":false,"rental_uris":{"android":"levelo://app?vid=979744b8-f0e0-44b7-aaad-07f765b42a14","ios":"levelo://app?vid=979744b8-f0e0-44b7-aaad-07f765b42a14"},"vehicle_type_id":"4","last_reported":1685549307,"current_range_meters":29600,"station_id":"ce4bgi92rcd13ifvqb90","pricing_plan_id":"free"},{"bike_id":"91239e01-197b-4957-8d08-52aaae358c52","system_id":"levelo_inurba_marseille","lat":43.304274,"lon":5.388873,"is_reserved":false,"is_disabled":false,"rental_uris":{"android":"levelo://app?vid=91239e01-197b-4957-8d08-52aaae358c52","ios":"levelo://app?vid=91239e01-197b-4957-8d08-52aaae358c52"},"vehicle_type_id":"4","last_reported":1685549307,"current_range_meters":0,"station_id":"ce4bgk12rcd13ifvqbi0","pricing_plan_id":"free"},{"bike_id":"bd3d7178-6daa-4b22-b9a0-679e8b7fd598","system_id":"levelo_inurba_marseille","lat":43.32152,"lon":5.3896,"is_reserved":false,"is_disabled":false,"rental_uris":{"android":"levelo://app?vid=bd3d7178-6daa-4b22-b9a0-679e8b7fd598","ios":"levelo://app?vid=bd3d7178-6daa-4b22-b9a0-679e8b7fd598"},"vehicle_type_id":"4","last_reported":1685549307,"current_range_meters":19600,"station_id":"","pricing_plan_id":"free"},{"bike_id":"5c1ae803-bb83-4405-b753-5d2604b52519","system_id":"levelo_inurba_marseille","lat":43.305059,"lon":5.391047,"is_reserved":false,"is_disabled":false,"rental_uris":{"android":"levelo://app?vid=5c1ae803-bb83-4405-b753-5d2604b52519","ios":"levelo://app?vid=5c1ae803-bb83-4405-b753-5d2604b52519"},"vehicle_type_id":"4","last_reported":1685549307,"current_range_meters":7600,"station_id":"","pricing_plan_id":"free"},{"bike_id":"da357603-7d0d-4b10-8596-90f0dbbc7657","system_id":"levelo_inurba_marseille","lat":43.32367,"lon":5.388836,"is_reserved":false,"is_disabled":false,"rental_uris":{"android":"levelo://app?vid=da357603-7d0d-4b10-8596-90f0dbbc7657","ios":"levelo://app?vid=da357603-7d0d-4b10-8596-90f0dbbc7657"},"vehicle_type_id":"4","last_reported":1685549307,"current_range_meters":12800,"station_id":"ce4bhqp2rcd13ifvqhog","pricing_plan_id":"free"},{"bike_id":"f028fe93-d7ee-4cce-a9e0-9031a8e3a05c","system_id":"levelo_inurba_marseille","lat":43.3237,"lon":5.38887,"is_reserved":false,"is_disabled":false,"rental_uris":{"android":"levelo://app?vid=f028fe93-d7ee-4cce-a9e0-9031a8e3a05c","ios":"levelo://app?vid=f028fe93-d7ee-4cce-a9e0-9031a8e3a05c"},"vehicle_type_id":"4","last_reported":1685549307,"current_range_meters":21200,"station_id":"ce4bhqp2rcd13ifvqhog","pricing_plan_id":"free"},{"bike_id":"d5d671f5-f769-4603-80ae-bedf2ba2e6a1","system_id":"levelo_inurba_marseille","lat":43.32372,"lon":5.38888,"is_reserved":false,"is_disabled":false,"rental_uris":{"android":"levelo://app?vid=d5d671f5-f769-4603-80ae-bedf2ba2e6a1","ios":"levelo://app?vid=d5d671f5-f769-4603-80ae-bedf2ba2e6a1"},"vehicle_type_id":"4","last_reported":1685549307,"current_range_meters":22000,"station_id":"ce4bhqp2rcd13ifvqhog","pricing_plan_id":"free"},{"bike_id":"95875fb5-5909-4db5-9feb-af287b7745af","system_id":"levelo_inurba_marseille","lat":43.32371,"lon":5.38889,"is_reserved":false,"is_disabled":false,"rental_uris":{"android":"levelo://app?vid=95875fb5-5909-4db5-9feb-af287b7745af","ios":"levelo://app?vid=95875fb5-5909-4db5-9feb-af287b7745af"},"vehicle_type_id":"4","last_reported":1685549307,"current_range_meters":800,"station_id":"","pricing_plan_id":"free"},{"bike_id":"5479994f-b5f8-455f-bdf7-cb2a7ae42e8c","system_id":"levelo_inurba_marseille","lat":43.292749,"lon":5.368398,"is_reserved":false,"is_disabled":false,"rental_uris":{"android":"levelo://app?vid=5479994f-b5f8-455f-bdf7-cb2a7ae42e8c","ios":"levelo://app?vid=5479994f-b5f8-455f-bdf7-cb2a7ae42e8c"},"vehicle_type_id":"4","last_reported":1685549307,"current_range_meters":13200,"station_id":"ce4bhbp2rcd13ifvqesg","pricing_plan_id":"free"},{"bike_id":"f4669505-d11b-413e-8120-4da428549817","system_id":"levelo_inurba_marseille","lat":43.293249,"lon":5.371578,"is_reserved":false,"is_disabled":false,"rental_uris":{"android":"levelo://app?vid=f4669505-d11b-413e-8120-4da428549817","ios":"levelo://app?vid=f4669505-d11b-413e-8120-4da428549817"},"vehicle_type_id":"4","last_reported":1685549307,"current_range_meters":27600,"station_id":"ce4bgh92rcd13ifvqb40","pricing_plan_id":"free"},{"bike_id":"184041e5-9005-40f0-b9ce-412d39ede751","system_id":"levelo_inurba_marseille","lat":43.292749,"lon":5.368398,"is_reserved":false,"is_disabled":false,"rental_uris":{"android":"levelo://app?vid=184041e5-9005-40f0-b9ce-412d39ede751","ios":"levelo://app?vid=184041e5-9005-40f0-b9ce-412d39ede751"},"vehicle_type_id":"4","last_reported":1685549307,"current_range_meters":24400,"station_id":"ce4bhbp2rcd13ifvqesg","pricing_plan_id":"free"},{"bike_id":"59b628de-89ff-4e62-a519-417ef14446c1","system_id":"levelo_inurba_marseille","lat":43.292311,"lon":5.360731,"is_reserved":false,"is_disabled":false,"rental_uris":{"android":"levelo://app?vid=59b628de-89ff-4e62-a519-417ef14446c1","ios":"levelo://app?vid=59b628de-89ff-4e62-a519-417ef14446c1"},"vehicle_type_id":"4","last_reported":1685549307,"current_range_meters":4800,"station_id":"ce4bhbh2rcd13ifvqeqg","pricing_plan_id":"free"},{"bike_id":"7531e7fa-180a-4b9f-b4c9-6d8bc59eef2b","system_id":"levelo_inurba_marseille","lat":43.2936,"lon":5.37835,"is_reserved":false,"is_disabled":false,"rental_uris":{"android":"levelo://app?vid=7531e7fa-180a-4b9f-b4c9-6d8bc59eef2b","ios":"levelo://app?vid=7531e7fa-180a-4b9f-b4c9-6d8bc59eef2b"},"vehicle_type_id":"4","last_reported":1685549307,"current_range_meters":31200,"station_id":"ce4bgjh2rcd13ifvqbf0","pricing_plan_id":"free"},{"bike_id":"26eab158-c5ba-4c0b-aec2-00933b2f2e1c","system_id":"levelo_inurba_marseille","lat":43.293009,"lon":5.374584,"is_reserved":false,"is_disabled":false,"rental_uris":{"android":"levelo://app?vid=26eab158-c5ba-4c0b-aec2-00933b2f2e1c","ios":"levelo://app?vid=26eab158-c5ba-4c0b-aec2-00933b2f2e1c"},"vehicle_type_id":"4","last_reported":1685549307,"current_range_meters":31200,"station_id":"ce4bgi12rcd13ifvqb70","pricing_plan_id":"free"},{"bike_id":"9c6d3920-a405-4868-82ab-7c6f312a9f3c","system_id":"levelo_inurba_marseille","lat":43.305994,"lon":5.393687,"is_reserved":false,"is_disabled":false,"rental_uris":{"android":"levelo://app?vid=9c6d3920-a405-4868-82ab-7c6f312a9f3c","ios":"levelo://app?vid=9c6d3920-a405-4868-82ab-7c6f312a9f3c"},"vehicle_type_id":"4","last_reported":1685549307,"current_range_meters":29600,"station_id":"ce4bh0p2rcd13ifvqd80","pricing_plan_id":"free"},{"bike_id":"9ede157f-8c7b-452f-83f6-64e8b3e5ab78","system_id":"levelo_inurba_marseille","lat":43.305994,"lon":5.393687,"is_reserved":false,"is_disabled":false,"rental_uris":{"android":"levelo://app?vid=9ede157f-8c7b-452f-83f6-64e8b3e5ab78","ios":"levelo://app?vid=9ede157f-8c7b-452f-83f6-64e8b3e5ab78"},"vehicle_type_id":"4","last_reported":1685549307,"current_range_meters":19600,"station_id":"ce4bh0p2rcd13ifvqd80","pricing_plan_id":"free"},{"bike_id":"0cc06f82-7ce3-486b-be4a-b9edd894dfa8","system_id":"levelo_inurba_marseille","lat":43.305994,"lon":5.393687,"is_reserved":false,"is_disabled":false,"rental_uris":{"android":"levelo://app?vid=0cc06f82-7ce3-486b-be4a-b9edd894dfa8","ios":"levelo://app?vid=0cc06f82-7ce3-486b-be4a-b9edd894dfa8"},"vehicle_type_id":"4","last_reported":1685549307,"current_range_meters":4800,"station_id":"ce4bh0p2rcd13ifvqd80","pricing_plan_id":"free"},{"bike_id":"8bca4ff4-35d6-4274-919a-d13b471d0f89","system_id":"levelo_inurba_marseille","lat":43.2936,"lon":5.37835,"is_reserved":false,"is_disabled":false,"rental_uris":{"android":"levelo://app?vid=8bca4ff4-35d6-4274-919a-d13b471d0f89","ios":"levelo://app?vid=8bca4ff4-35d6-4274-919a-d13b471d0f89"},"vehicle_type_id":"4","last_reported":1685549307,"current_range_meters":30000,"station_id":"ce4bgjh2rcd13ifvqbf0","pricing_plan_id":"free"},{"bike_id":"1e44c42a-3330-43ed-b775-2df26cf3e7b6","system_id":"levelo_inurba_marseille","lat":43.2936,"lon":5.37835,"is_reserved":false,"is_disabled":false,"rental_uris":{"android":"levelo://app?vid=1e44c42a-3330-43ed-b775-2df26cf3e7b6","ios":"levelo://app?vid=1e44c42a-3330-43ed-b775-2df26cf3e7b6"},"vehicle_type_id":"4","last_reported":1685549307,"current_range_meters":29600,"station_id":"ce4bgjh2rcd13ifvqbf0","pricing_plan_id":"free"},{"bike_id":"f8c051d7-b338-44e0-bb22-5c54eb062031","system_id":"levelo_inurba_marseille","lat":43.292311,"lon":5.360731,"is_reserved":false,"is_disabled":false,"rental_uris":{"android":"levelo://app?vid=f8c051d7-b338-44e0-bb22-5c54eb062031","ios":"levelo://app?vid=f8c051d7-b338-44e0-bb22-5c54eb062031"},"vehicle_type_id":"4","last_reported":1685549307,"current_range_meters":17600,"station_id":"ce4bhbh2rcd13ifvqeqg","pricing_plan_id":"free"},{"bike_id":"998cc2bc-ee2d-40b4-a194-550cf40d8d5e","system_id":"levelo_inurba_marseille","lat":43.299243,"lon":5.37481,"is_reserved":false,"is_disabled":false,"rental_uris":{"android":"levelo://app?vid=998cc2bc-ee2d-40b4-a194-550cf40d8d5e","ios":"levelo://app?vid=998cc2bc-ee2d-40b4-a194-550cf40d8d5e"},"vehicle_type_id":"4","last_reported":1685549307,"current_range_meters":24800,"station_id":"ce4bgjh2rcd13ifvqbg0","pricing_plan_id":"free"},{"bike_id":"d62a9edd-ef99-4d4d-93c7-a3fd4265855b","system_id":"levelo_inurba_marseille","lat":43.292663,"lon":5.376394,"is_reserved":false,"is_disabled":false,"rental_uris":{"android":"levelo://app?vid=d62a9edd-ef99-4d4d-93c7-a3fd4265855b","ios":"levelo://app?vid=d62a9edd-ef99-4d4d-93c7-a3fd4265855b"},"vehicle_type_id":"4","last_reported":1685549307,"current_range_meters":21200,"station_id":"ce4bgi12rcd13ifvqb80","pricing_plan_id":"free"},{"bike_id":"e313c4e1-0cb4-4539-a55d-89507a4223e8","system_id":"levelo_inurba_marseille","lat":43.298764,"lon":5.388973,"is_reserved":false,"is_disabled":false,"rental_uris":{"android":"levelo://app?vid=e313c4e1-0cb4-4539-a55d-89507a4223e8","ios":"levelo://app?vid=e313c4e1-0cb4-4539-a55d-89507a4223e8"},"vehicle_type_id":"4","last_reported":1685549307,"current_range_meters":6000,"station_id":"ce4bh392rcd13ifvqdl0","pricing_plan_id":"free"},{"bike_id":"59c92c9c-b7da-4f3f-879f-7603f9f55779","system_id":"levelo_inurba_marseille","lat":43.298764,"lon":5.388973,"is_reserved":false,"is_disabled":false,"rental_uris":{"android":"levelo://app?vid=59c92c9c-b7da-4f3f-879f-7603f9f55779","ios":"levelo://app?vid=59c92c9c-b7da-4f3f-879f-7603f9f55779"},"vehicle_type_id":"4","last_reported":1685549307,"current_range_meters":9600,"station_id":"ce4bh392rcd13ifvqdl0","pricing_plan_id":"free"},{"bike_id":"d7a39ad4-b024-42ee-b071-56489df0d5a1","system_id":"levelo_inurba_marseille","lat":43.33231,"lon":5.37872,"is_reserved":false,"is_disabled":false,"rental_uris":{"android":"levelo://app?vid=d7a39ad4-b024-42ee-b071-56489df0d5a1","ios":"levelo://app?vid=d7a39ad4-b024-42ee-b071-56489df0d5a1"},"vehicle_type_id":"4","last_reported":1685549307,"current_range_meters":1200,"station_id":"","pricing_plan_id":"free"},{"bike_id":"95761c62-c222-4a66-bb83-2d2129fc6da8","system_id":"levelo_inurba_marseille","lat":43.313291,"lon":5.396838,"is_reserved":false,"is_disabled":false,"rental_uris":{"android":"levelo://app?vid=95761c62-c222-4a66-bb83-2d2129fc6da8","ios":"levelo://app?vid=95761c62-c222-4a66-bb83-2d2129fc6da8"},"vehicle_type_id":"4","last_reported":1685549307,"current_range_meters":5200,"station_id":"ce4bgvp2rcd13ifvqcu0","pricing_plan_id":"free"},{"bike_id":"6b431b18-8cc8-4f25-a446-aea6b3efe1cf","system_id":"levelo_inurba_marseille","lat":43.291994,"lon":5.357886,"is_reserved":false,"is_disabled":false,"rental_uris":{"android":"levelo://app?vid=6b431b18-8cc8-4f25-a446-aea6b3efe1cf","ios":"levelo://app?vid=6b431b18-8cc8-4f25-a446-aea6b3efe1cf"},"vehicle_type_id":"4","last_reported":1685549307,"current_range_meters":22800,"station_id":"ce4bhb12rcd13ifvqel0","pricing_plan_id":"free"},{"bike_id":"bf77615d-8d5d-4d1e-b1fa-8f660e4076c2","system_id":"levelo_inurba_marseille","lat":43.29529,"lon":5.385581,"is_reserved":false,"is_disabled":false,"rental_uris":{"android":"levelo://app?vid=bf77615d-8d5d-4d1e-b1fa-8f660e4076c2","ios":"levelo://app?vid=bf77615d-8d5d-4d1e-b1fa-8f660e4076c2"},"vehicle_type_id":"4","last_reported":1685549307,"current_range_meters":3600,"station_id":"ce4bgih2rcd13ifvqba0","pricing_plan_id":"free"},{"bike_id":"d58751c7-37cb-4db0-a591-81a4657a14f3","system_id":"levelo_inurba_marseille","lat":43.29529,"lon":5.385581,"is_reserved":false,"is_disabled":false,"rental_uris":{"android":"levelo://app?vid=d58751c7-37cb-4db0-a591-81a4657a14f3","ios":"levelo://app?vid=d58751c7-37cb-4db0-a591-81a4657a14f3"},"vehicle_type_id":"4","last_reported":1685549307,"current_range_meters":1600,"station_id":"ce4bgih2rcd13ifvqba0","pricing_plan_id":"free"},{"bike_id":"7651b5a3-2d28-47ea-ab29-9c29dfd0eb0c","system_id":"levelo_inurba_marseille","lat":43.29529,"lon":5.385581,"is_reserved":false,"is_disabled":false,"rental_uris":{"android":"levelo://app?vid=7651b5a3-2d28-47ea-ab29-9c29dfd0eb0c","ios":"levelo://app?vid=7651b5a3-2d28-47ea-ab29-9c29dfd0eb0c"},"vehicle_type_id":"4","last_reported":1685549307,"current_range_meters":0,"station_id":"ce4bgih2rcd13ifvqba0","pricing_plan_id":"free"},{"bike_id":"1204f185-2bff-44a2-b8cc-54ead5a85174","system_id":"levelo_inurba_marseille","lat":43.29492,"lon":5.3865,"is_reserved":false,"is_disabled":false,"rental_uris":{"android":"levelo://app?vid=1204f185-2bff-44a2-b8cc-54ead5a85174","ios":"levelo://app?vid=1204f185-2bff-44a2-b8cc-54ead5a85174"},"vehicle_type_id":"4","last_reported":1685549307,"current_range_meters":0,"station_id":"","pricing_plan_id":"free"},{"bike_id":"6ba52aca-2bb1-4dc0-a19e-31ede7745603","system_id":"levelo_inurba_marseille","lat":43.290327,"lon":5.375711,"is_reserved":false,"is_disabled":false,"rental_uris":{"android":"levelo://app?vid=6ba52aca-2bb1-4dc0-a19e-31ede7745603","ios":"levelo://app?vid=6ba52aca-2bb1-4dc0-a19e-31ede7745603"},"vehicle_type_id":"4","last_reported":1685549307,"current_range_meters":0,"station_id":"ce4bh692rcd13ifvqe90","pricing_plan_id":"free"},{"bike_id":"856af3a8-81d0-4d00-9291-406eb888c2bb","system_id":"levelo_inurba_marseille","lat":43.290327,"lon":5.375711,"is_reserved":false,"is_disabled":false,"rental_uris":{"android":"levelo://app?vid=856af3a8-81d0-4d00-9291-406eb888c2bb","ios":"levelo://app?vid=856af3a8-81d0-4d00-9291-406eb888c2bb"},"vehicle_type_id":"4","last_reported":1685549307,"current_range_meters":9600,"station_id":"ce4bh692rcd13ifvqe90","pricing_plan_id":"free"},{"bike_id":"29dd6820-8904-47a6-960f-bc9c1bf91685","system_id":"levelo_inurba_marseille","lat":43.290327,"lon":5.375711,"is_reserved":false,"is_disabled":false,"rental_uris":{"android":"levelo://app?vid=29dd6820-8904-47a6-960f-bc9c1bf91685","ios":"levelo://app?vid=29dd6820-8904-47a6-960f-bc9c1bf91685"},"vehicle_type_id":"4","last_reported":1685549307,"current_range_meters":16000,"station_id":"ce4bh692rcd13ifvqe90","pricing_plan_id":"free"},{"bike_id":"311c88de-cf92-485e-9ff0-3991f4367b57","system_id":"levelo_inurba_marseille","lat":43.289184,"lon":5.366408,"is_reserved":false,"is_disabled":false,"rental_uris":{"android":"levelo://app?vid=311c88de-cf92-485e-9ff0-3991f4367b57","ios":"levelo://app?vid=311c88de-cf92-485e-9ff0-3991f4367b57"},"vehicle_type_id":"4","last_reported":1685549307,"current_range_meters":22800,"station_id":"ce4bhap2rcd13ifvqek0","pricing_plan_id":"free"},{"bike_id":"e4dc9e53-7503-4a4c-8c43-f49a00c79ada","system_id":"levelo_inurba_marseille","lat":43.329862,"lon":5.389192,"is_reserved":false,"is_disabled":false,"rental_uris":{"android":"levelo://app?vid=e4dc9e53-7503-4a4c-8c43-f49a00c79ada","ios":"levelo://app?vid=e4dc9e53-7503-4a4c-8c43-f49a00c79ada"},"vehicle_type_id":"4","last_reported":1685549307,"current_range_meters":14800,"station_id":"","pricing_plan_id":"free"},{"bike_id":"1413f559-04e1-4c45-87f5-baeaca8d2d1e","system_id":"levelo_inurba_marseille","lat":43.290103,"lon":5.356114,"is_reserved":false,"is_disabled":false,"rental_uris":{"android":"levelo://app?vid=1413f559-04e1-4c45-87f5-baeaca8d2d1e","ios":"levelo://app?vid=1413f559-04e1-4c45-87f5-baeaca8d2d1e"},"vehicle_type_id":"4","last_reported":1685549307,"current_range_meters":0,"station_id":"ce4bhb92rcd13ifvqen0","pricing_plan_id":"free"},{"bike_id":"62662a91-523f-4e24-bf6f-dbd032495fd9","system_id":"levelo_inurba_marseille","lat":43.33046,"lon":5.38916,"is_reserved":false,"is_disabled":false,"rental_uris":{"android":"levelo://app?vid=62662a91-523f-4e24-bf6f-dbd032495fd9","ios":"levelo://app?vid=62662a91-523f-4e24-bf6f-dbd032495fd9"},"vehicle_type_id":"4","last_reported":1685549307,"current_range_meters":22800,"station_id":"ce4bhr92rcd13ifvqhrg","pricing_plan_id":"free"},{"bike_id":"927708b5-eea0-4f2d-8937-f926b174706a","system_id":"levelo_inurba_marseille","lat":43.33049,"lon":5.38914,"is_reserved":false,"is_disabled":false,"rental_uris":{"android":"levelo://app?vid=927708b5-eea0-4f2d-8937-f926b174706a","ios":"levelo://app?vid=927708b5-eea0-4f2d-8937-f926b174706a"},"vehicle_type_id":"4","last_reported":1685549307,"current_range_meters":2800,"station_id":"ce4bhr92rcd13ifvqhrg","pricing_plan_id":"free"},{"bike_id":"e61e4c95-8a63-47af-8142-7de9fbfc5a6e","system_id":"levelo_inurba_marseille","lat":43.33048,"lon":5.38916,"is_reserved":false,"is_disabled":false,"rental_uris":{"android":"levelo://app?vid=e61e4c95-8a63-47af-8142-7de9fbfc5a6e","ios":"levelo://app?vid=e61e4c95-8a63-47af-8142-7de9fbfc5a6e"},"vehicle_type_id":"4","last_reported":1685549307,"current_range_meters":6400,"station_id":"ce4bhr92rcd13ifvqhrg","pricing_plan_id":"free"},{"bike_id":"8da7bbf6-b999-4b8f-8628-f7bfa76d9363","system_id":"levelo_inurba_marseille","lat":43.3305,"lon":5.38915,"is_reserved":false,"is_disabled":false,"rental_uris":{"android":"levelo://app?vid=8da7bbf6-b999-4b8f-8628-f7bfa76d9363","ios":"levelo://app?vid=8da7bbf6-b999-4b8f-8628-f7bfa76d9363"},"vehicle_type_id":"4","last_reported":1685549307,"current_range_meters":23200,"station_id":"ce4bhr92rcd13ifvqhrg","pricing_plan_id":"free"},{"bike_id":"73794e81-819c-475f-b816-fff148948d6d","system_id":"levelo_inurba_marseille","lat":43.33049,"lon":5.38921,"is_reserved":false,"is_disabled":false,"rental_uris":{"android":"levelo://app?vid=73794e81-819c-475f-b816-fff148948d6d","ios":"levelo://app?vid=73794e81-819c-475f-b816-fff148948d6d"},"vehicle_type_id":"4","last_reported":1685549307,"current_range_meters":24000,"station_id":"ce4bhr92rcd13ifvqhrg","pricing_plan_id":"free"},{"bike_id":"5bc4996d-1219-4b05-8dd8-74725ecf6fa0","system_id":"levelo_inurba_marseille","lat":43.290995,"lon":5.381361,"is_reserved":false,"is_disabled":false,"rental_uris":{"android":"levelo://app?vid=5bc4996d-1219-4b05-8dd8-74725ecf6fa0","ios":"levelo://app?vid=5bc4996d-1219-4b05-8dd8-74725ecf6fa0"},"vehicle_type_id":"4","last_reported":1685549307,"current_range_meters":8400,"station_id":"ce4bh512rcd13ifvqe2g","pricing_plan_id":"free"},{"bike_id":"dc79b269-689e-4a44-8fcb-7f0d9297d940","system_id":"levelo_inurba_marseille","lat":43.290995,"lon":5.381361,"is_reserved":false,"is_disabled":false,"rental_uris":{"android":"levelo://app?vid=dc79b269-689e-4a44-8fcb-7f0d9297d940","ios":"levelo://app?vid=dc79b269-689e-4a44-8fcb-7f0d9297d940"},"vehicle_type_id":"4","last_reported":1685549307,"current_range_meters":16000,"station_id":"ce4bh512rcd13ifvqe2g","pricing_plan_id":"free"},{"bike_id":"16af491d-2565-4fe0-9783-48a688cf9632","system_id":"levelo_inurba_marseille","lat":43.290995,"lon":5.381361,"is_reserved":false,"is_disabled":false,"rental_uris":{"android":"levelo://app?vid=16af491d-2565-4fe0-9783-48a688cf9632","ios":"levelo://app?vid=16af491d-2565-4fe0-9783-48a688cf9632"},"vehicle_type_id":"4","last_reported":1685549307,"current_range_meters":21200,"station_id":"ce4bh512rcd13ifvqe2g","pricing_plan_id":"free"},{"bike_id":"09308c78-dfa2-4546-a90c-eff04078af80","system_id":"levelo_inurba_marseille","lat":43.290995,"lon":5.381361,"is_reserved":false,"is_disabled":false,"rental_uris":{"android":"levelo://app?vid=09308c78-dfa2-4546-a90c-eff04078af80","ios":"levelo://app?vid=09308c78-dfa2-4546-a90c-eff04078af80"},"vehicle_type_id":"4","last_reported":1685549307,"current_range_meters":25600,"station_id":"ce4bh512rcd13ifvqe2g","pricing_plan_id":"free"},{"bike_id":"805f3f4f-fb48-4887-946a-5204af733ddc","system_id":"levelo_inurba_marseille","lat":43.289743,"lon":5.378304,"is_reserved":false,"is_disabled":false,"rental_uris":{"android":"levelo://app?vid=805f3f4f-fb48-4887-946a-5204af733ddc","ios":"levelo://app?vid=805f3f4f-fb48-4887-946a-5204af733ddc"},"vehicle_type_id":"4","last_reported":1685549307,"current_range_meters":16400,"station_id":"ce4bh9p2rcd13ifvqed0","pricing_plan_id":"free"},{"bike_id":"9f4fdbe7-fc49-468d-81a3-844bb1f40be5","system_id":"levelo_inurba_marseille","lat":43.29093,"lon":5.38147,"is_reserved":false,"is_disabled":false,"rental_uris":{"android":"levelo://app?vid=9f4fdbe7-fc49-468d-81a3-844bb1f40be5","ios":"levelo://app?vid=9f4fdbe7-fc49-468d-81a3-844bb1f40be5"},"vehicle_type_id":"4","last_reported":1685549307,"current_range_meters":22800,"station_id":"ce4bh512rcd13ifvqe2g","pricing_plan_id":"free"},{"bike_id":"95e8a19e-3f75-4586-8570-93aee56ef506","system_id":"levelo_inurba_marseille","lat":43.295169,"lon":5.390426,"is_reserved":false,"is_disabled":false,"rental_uris":{"android":"levelo://app?vid=95e8a19e-3f75-4586-8570-93aee56ef506","ios":"levelo://app?vid=95e8a19e-3f75-4586-8570-93aee56ef506"},"vehicle_type_id":"4","last_reported":1685549307,"current_range_meters":12400,"station_id":"ce4bh3p2rcd13ifvqdp0","pricing_plan_id":"free"},{"bike_id":"a40d9276-617b-49ff-a902-722d292452b7","system_id":"levelo_inurba_marseille","lat":43.290094,"lon":5.381264,"is_reserved":false,"is_disabled":false,"rental_uris":{"android":"levelo://app?vid=a40d9276-617b-49ff-a902-722d292452b7","ios":"levelo://app?vid=a40d9276-617b-49ff-a902-722d292452b7"},"vehicle_type_id":"4","last_reported":1685549307,"current_range_meters":25200,"station_id":"ce4bh4p2rcd13ifvqe1g","pricing_plan_id":"free"},{"bike_id":"8356d455-0224-469a-bcb4-f12b872b1c69","system_id":"levelo_inurba_marseille","lat":43.28856,"lon":5.358371,"is_reserved":false,"is_disabled":false,"rental_uris":{"android":"levelo://app?vid=8356d455-0224-469a-bcb4-f12b872b1c69","ios":"levelo://app?vid=8356d455-0224-469a-bcb4-f12b872b1c69"},"vehicle_type_id":"4","last_reported":1685549307,"current_range_meters":27600,"station_id":"ce4bhb12rcd13ifvqem0","pricing_plan_id":"free"},{"bike_id":"10d77976-7efc-4de0-8208-9420b2309caa","system_id":"levelo_inurba_marseille","lat":43.28856,"lon":5.358371,"is_reserved":false,"is_disabled":false,"rental_uris":{"android":"levelo://app?vid=10d77976-7efc-4de0-8208-9420b2309caa","ios":"levelo://app?vid=10d77976-7efc-4de0-8208-9420b2309caa"},"vehicle_type_id":"4","last_reported":1685549307,"current_range_meters":18400,"station_id":"ce4bhb12rcd13ifvqem0","pricing_plan_id":"free"},{"bike_id":"141c14ea-594b-43ee-894e-8c44af1dcd73","system_id":"levelo_inurba_marseille","lat":43.33741,"lon":5.37457,"is_reserved":false,"is_disabled":false,"rental_uris":{"android":"levelo://app?vid=141c14ea-594b-43ee-894e-8c44af1dcd73","ios":"levelo://app?vid=141c14ea-594b-43ee-894e-8c44af1dcd73"},"vehicle_type_id":"4","last_reported":1685549307,"current_range_meters":24800,"station_id":"","pricing_plan_id":"free"},{"bike_id":"c7942551-36a2-48f0-86d3-473949af1ed6","system_id":"levelo_inurba_marseille","lat":43.33748,"lon":5.3743,"is_reserved":false,"is_disabled":false,"rental_uris":{"android":"levelo://app?vid=c7942551-36a2-48f0-86d3-473949af1ed6","ios":"levelo://app?vid=c7942551-36a2-48f0-86d3-473949af1ed6"},"vehicle_type_id":"4","last_reported":1685549307,"current_range_meters":30000,"station_id":"","pricing_plan_id":"free"},{"bike_id":"44a82d51-7a0d-4fbf-a325-fa35b7e6e19e","system_id":"levelo_inurba_marseille","lat":43.33752,"lon":5.37443,"is_reserved":false,"is_disabled":false,"rental_uris":{"android":"levelo://app?vid=44a82d51-7a0d-4fbf-a325-fa35b7e6e19e","ios":"levelo://app?vid=44a82d51-7a0d-4fbf-a325-fa35b7e6e19e"},"vehicle_type_id":"4","last_reported":1685549307,"current_range_meters":28800,"station_id":"","pricing_plan_id":"free"},{"bike_id":"124b13d2-6454-4e12-b0c9-1fa204d1f78c","system_id":"levelo_inurba_marseille","lat":43.33758,"lon":5.3743,"is_reserved":false,"is_disabled":false,"rental_uris":{"android":"levelo://app?vid=124b13d2-6454-4e12-b0c9-1fa204d1f78c","ios":"levelo://app?vid=124b13d2-6454-4e12-b0c9-1fa204d1f78c"},"vehicle_type_id":"4","last_reported":1685549307,"current_range_meters":29600,"station_id":"","pricing_plan_id":"free"},{"bike_id":"c1da147f-158b-4733-bb7b-fe75e1162cb9","system_id":"levelo_inurba_marseille","lat":43.33758,"lon":5.37435,"is_reserved":false,"is_disabled":false,"rental_uris":{"android":"levelo://app?vid=c1da147f-158b-4733-bb7b-fe75e1162cb9","ios":"levelo://app?vid=c1da147f-158b-4733-bb7b-fe75e1162cb9"},"vehicle_type_id":"4","last_reported":1685549307,"current_range_meters":30800,"station_id":"","pricing_plan_id":"free"},{"bike_id":"60365b11-ef18-42d8-96a4-e4f2839d6bb5","system_id":"levelo_inurba_marseille","lat":43.33755,"lon":5.37456,"is_reserved":false,"is_disabled":false,"rental_uris":{"android":"levelo://app?vid=60365b11-ef18-42d8-96a4-e4f2839d6bb5","ios":"levelo://app?vid=60365b11-ef18-42d8-96a4-e4f2839d6bb5"},"vehicle_type_id":"4","last_reported":1685549307,"current_range_meters":28000,"station_id":"","pricing_plan_id":"free"},{"bike_id":"d8112de5-3496-43cb-8ba9-437621514779","system_id":"levelo_inurba_marseille","lat":43.33763,"lon":5.37447,"is_reserved":false,"is_disabled":false,"rental_uris":{"android":"levelo://app?vid=d8112de5-3496-43cb-8ba9-437621514779","ios":"levelo://app?vid=d8112de5-3496-43cb-8ba9-437621514779"},"vehicle_type_id":"4","last_reported":1685549307,"current_range_meters":30000,"station_id":"","pricing_plan_id":"free"},{"bike_id":"556c6db1-2600-4c2b-9521-aae8453517c1","system_id":"levelo_inurba_marseille","lat":43.33765,"lon":5.37439,"is_reserved":false,"is_disabled":false,"rental_uris":{"android":"levelo://app?vid=556c6db1-2600-4c2b-9521-aae8453517c1","ios":"levelo://app?vid=556c6db1-2600-4c2b-9521-aae8453517c1"},"vehicle_type_id":"4","last_reported":1685549307,"current_range_meters":5600,"station_id":"","pricing_plan_id":"free"},{"bike_id":"6d678481-0e0b-436a-aa94-9d12fa2c91f5","system_id":"levelo_inurba_marseille","lat":43.33767,"lon":5.37433,"is_reserved":false,"is_disabled":false,"rental_uris":{"android":"levelo://app?vid=6d678481-0e0b-436a-aa94-9d12fa2c91f5","ios":"levelo://app?vid=6d678481-0e0b-436a-aa94-9d12fa2c91f5"},"vehicle_type_id":"4","last_reported":1685549307,"current_range_meters":30400,"station_id":"","pricing_plan_id":"free"},{"bike_id":"bb799a97-3014-4dcf-b257-d4025dc1546d","system_id":"levelo_inurba_marseille","lat":43.3377,"lon":5.37435,"is_reserved":false,"is_disabled":false,"rental_uris":{"android":"levelo://app?vid=bb799a97-3014-4dcf-b257-d4025dc1546d","ios":"levelo://app?vid=bb799a97-3014-4dcf-b257-d4025dc1546d"},"vehicle_type_id":"4","last_reported":1685549307,"current_range_meters":25600,"station_id":"","pricing_plan_id":"free"},{"bike_id":"f202744e-7d68-4025-a177-7b00707361a9","system_id":"levelo_inurba_marseille","lat":43.30648,"lon":5.40099,"is_reserved":false,"is_disabled":false,"rental_uris":{"android":"levelo://app?vid=f202744e-7d68-4025-a177-7b00707361a9","ios":"levelo://app?vid=f202744e-7d68-4025-a177-7b00707361a9"},"vehicle_type_id":"4","last_reported":1685549307,"current_range_meters":7600,"station_id":"ce4bh112rcd13ifvqda0","pricing_plan_id":"free"},{"bike_id":"7f0af3ef-36b0-4f47-9bfc-5fb53d65ba87","system_id":"levelo_inurba_marseille","lat":43.30642,"lon":5.401031,"is_reserved":false,"is_disabled":false,"rental_uris":{"android":"levelo://app?vid=7f0af3ef-36b0-4f47-9bfc-5fb53d65ba87","ios":"levelo://app?vid=7f0af3ef-36b0-4f47-9bfc-5fb53d65ba87"},"vehicle_type_id":"4","last_reported":1685549307,"current_range_meters":26800,"station_id":"ce4bh112rcd13ifvqda0","pricing_plan_id":"free"},{"bike_id":"7919d80d-26ce-4c56-a275-f7e97e11ac60","system_id":"levelo_inurba_marseille","lat":43.301934,"lon":5.399245,"is_reserved":false,"is_disabled":false,"rental_uris":{"android":"levelo://app?vid=7919d80d-26ce-4c56-a275-f7e97e11ac60","ios":"levelo://app?vid=7919d80d-26ce-4c56-a275-f7e97e11ac60"},"vehicle_type_id":"4","last_reported":1685549307,"current_range_meters":11200,"station_id":"","pricing_plan_id":"free"},{"bike_id":"84f409fd-528e-4bf9-87e8-097d84ee09d8","system_id":"levelo_inurba_marseille","lat":43.298681,"lon":5.397225,"is_reserved":false,"is_disabled":false,"rental_uris":{"android":"levelo://app?vid=84f409fd-528e-4bf9-87e8-097d84ee09d8","ios":"levelo://app?vid=84f409fd-528e-4bf9-87e8-097d84ee09d8"},"vehicle_type_id":"4","last_reported":1685549307,"current_range_meters":30400,"station_id":"ce4bh0h2rcd13ifvqd50","pricing_plan_id":"free"},{"bike_id":"9268b7d6-bf2f-4474-9c83-4c6a4ec7f4da","system_id":"levelo_inurba_marseille","lat":43.298681,"lon":5.397225,"is_reserved":false,"is_disabled":false,"rental_uris":{"android":"levelo://app?vid=9268b7d6-bf2f-4474-9c83-4c6a4ec7f4da","ios":"levelo://app?vid=9268b7d6-bf2f-4474-9c83-4c6a4ec7f4da"},"vehicle_type_id":"4","last_reported":1685549307,"current_range_meters":3600,"station_id":"ce4bh0h2rcd13ifvqd50","pricing_plan_id":"free"},{"bike_id":"b37a9802-1b7b-4c28-af3a-e3a36bd86c9a","system_id":"levelo_inurba_marseille","lat":43.298681,"lon":5.397225,"is_reserved":false,"is_disabled":false,"rental_uris":{"android":"levelo://app?vid=b37a9802-1b7b-4c28-af3a-e3a36bd86c9a","ios":"levelo://app?vid=b37a9802-1b7b-4c28-af3a-e3a36bd86c9a"},"vehicle_type_id":"4","last_reported":1685549307,"current_range_meters":25600,"station_id":"ce4bh0h2rcd13ifvqd50","pricing_plan_id":"free"},{"bike_id":"6aa1748f-701e-4926-9fdf-e105287cf11d","system_id":"levelo_inurba_marseille","lat":43.298681,"lon":5.397225,"is_reserved":false,"is_disabled":false,"rental_uris":{"android":"levelo://app?vid=6aa1748f-701e-4926-9fdf-e105287cf11d","ios":"levelo://app?vid=6aa1748f-701e-4926-9fdf-e105287cf11d"},"vehicle_type_id":"4","last_reported":1685549307,"current_range_meters":10000,"station_id":"ce4bh0h2rcd13ifvqd50","pricing_plan_id":"free"},{"bike_id":"82e8c52b-1b32-4c41-aa25-106082fcb3cc","system_id":"levelo_inurba_marseille","lat":43.295194,"lon":5.39397,"is_reserved":false,"is_disabled":false,"rental_uris":{"android":"levelo://app?vid=82e8c52b-1b32-4c41-aa25-106082fcb3cc","ios":"levelo://app?vid=82e8c52b-1b32-4c41-aa25-106082fcb3cc"},"vehicle_type_id":"4","last_reported":1685549307,"current_range_meters":14800,"station_id":"ce4bh292rcd13ifvqdf0","pricing_plan_id":"free"},{"bike_id":"7f2e6e21-3ad0-4874-82a2-2a703a110913","system_id":"levelo_inurba_marseille","lat":43.295194,"lon":5.39397,"is_reserved":false,"is_disabled":false,"rental_uris":{"android":"levelo://app?vid=7f2e6e21-3ad0-4874-82a2-2a703a110913","ios":"levelo://app?vid=7f2e6e21-3ad0-4874-82a2-2a703a110913"},"vehicle_type_id":"4","last_reported":1685549307,"current_range_meters":19200,"station_id":"ce4bh292rcd13ifvqdf0","pricing_plan_id":"free"},{"bike_id":"50fe83ac-550d-4552-b9f4-e4f472088d68","system_id":"levelo_inurba_marseille","lat":43.290336,"lon":5.386425,"is_reserved":false,"is_disabled":false,"rental_uris":{"android":"levelo://app?vid=50fe83ac-550d-4552-b9f4-e4f472088d68","ios":"levelo://app?vid=50fe83ac-550d-4552-b9f4-e4f472088d68"},"vehicle_type_id":"4","last_reported":1685549307,"current_range_meters":16800,"station_id":"ce4bh4p2rcd13ifvqe0g","pricing_plan_id":"free"},{"bike_id":"de0bbe5d-1352-4495-9fc1-d04f85151a40","system_id":"levelo_inurba_marseille","lat":43.29031,"lon":5.38647,"is_reserved":false,"is_disabled":false,"rental_uris":{"android":"levelo://app?vid=de0bbe5d-1352-4495-9fc1-d04f85151a40","ios":"levelo://app?vid=de0bbe5d-1352-4495-9fc1-d04f85151a40"},"vehicle_type_id":"4","last_reported":1685549307,"current_range_meters":14400,"station_id":"","pricing_plan_id":"free"},{"bike_id":"42c4598c-ee48-49fa-97d8-fe5f355113a6","system_id":"levelo_inurba_marseille","lat":43.290336,"lon":5.386425,"is_reserved":false,"is_disabled":false,"rental_uris":{"android":"levelo://app?vid=42c4598c-ee48-49fa-97d8-fe5f355113a6","ios":"levelo://app?vid=42c4598c-ee48-49fa-97d8-fe5f355113a6"},"vehicle_type_id":"4","last_reported":1685549307,"current_range_meters":23600,"station_id":"ce4bh4p2rcd13ifvqe0g","pricing_plan_id":"free"},{"bike_id":"9f8da860-138c-4501-88fc-1da0ca98a532","system_id":"levelo_inurba_marseille","lat":43.302759,"lon":5.400793,"is_reserved":false,"is_disabled":false,"rental_uris":{"android":"levelo://app?vid=9f8da860-138c-4501-88fc-1da0ca98a532","ios":"levelo://app?vid=9f8da860-138c-4501-88fc-1da0ca98a532"},"vehicle_type_id":"4","last_reported":1685549307,"current_range_meters":1200,"station_id":"ce4bgvh2rcd13ifvqcs0","pricing_plan_id":"free"},{"bike_id":"93b5fdc9-b2ab-414d-ae0c-30f29195b436","system_id":"levelo_inurba_marseille","lat":43.302759,"lon":5.400793,"is_reserved":false,"is_disabled":false,"rental_uris":{"android":"levelo://app?vid=93b5fdc9-b2ab-414d-ae0c-30f29195b436","ios":"levelo://app?vid=93b5fdc9-b2ab-414d-ae0c-30f29195b436"},"vehicle_type_id":"4","last_reported":1685549307,"current_range_meters":16000,"station_id":"ce4bgvh2rcd13ifvqcs0","pricing_plan_id":"free"},{"bike_id":"fd81e8fd-4c68-47d4-afd0-f2b4d7707142","system_id":"levelo_inurba_marseille","lat":43.302759,"lon":5.400793,"is_reserved":false,"is_disabled":false,"rental_uris":{"android":"levelo://app?vid=fd81e8fd-4c68-47d4-afd0-f2b4d7707142","ios":"levelo://app?vid=fd81e8fd-4c68-47d4-afd0-f2b4d7707142"},"vehicle_type_id":"4","last_reported":1685549307,"current_range_meters":400,"station_id":"ce4bgvh2rcd13ifvqcs0","pricing_plan_id":"free"},{"bike_id":"5f318e75-fb60-4065-b725-a559099412c8","system_id":"levelo_inurba_marseille","lat":43.302759,"lon":5.400793,"is_reserved":false,"is_disabled":false,"rental_uris":{"android":"levelo://app?vid=5f318e75-fb60-4065-b725-a559099412c8","ios":"levelo://app?vid=5f318e75-fb60-4065-b725-a559099412c8"},"vehicle_type_id":"4","last_reported":1685549307,"current_range_meters":1200,"station_id":"ce4bgvh2rcd13ifvqcs0","pricing_plan_id":"free"},{"bike_id":"96b7e4d7-d705-4866-9fe3-276f9d920612","system_id":"levelo_inurba_marseille","lat":43.286039,"lon":5.370679,"is_reserved":false,"is_disabled":false,"rental_uris":{"android":"levelo://app?vid=96b7e4d7-d705-4866-9fe3-276f9d920612","ios":"levelo://app?vid=96b7e4d7-d705-4866-9fe3-276f9d920612"},"vehicle_type_id":"4","last_reported":1685549307,"current_range_meters":12000,"station_id":"ce4bht12rcd13ifvqi60","pricing_plan_id":"free"},{"bike_id":"1b986b06-cf0e-45f9-b3ee-1df3260395bf","system_id":"levelo_inurba_marseille","lat":43.286039,"lon":5.370679,"is_reserved":false,"is_disabled":false,"rental_uris":{"android":"levelo://app?vid=1b986b06-cf0e-45f9-b3ee-1df3260395bf","ios":"levelo://app?vid=1b986b06-cf0e-45f9-b3ee-1df3260395bf"},"vehicle_type_id":"4","last_reported":1685549307,"current_range_meters":29600,"station_id":"ce4bht12rcd13ifvqi60","pricing_plan_id":"free"},{"bike_id":"10c69604-7295-4ab6-b6c1-131a89c415ab","system_id":"levelo_inurba_marseille","lat":43.287185,"lon":5.379373,"is_reserved":false,"is_disabled":false,"rental_uris":{"android":"levelo://app?vid=10c69604-7295-4ab6-b6c1-131a89c415ab","ios":"levelo://app?vid=10c69604-7295-4ab6-b6c1-131a89c415ab"},"vehicle_type_id":"4","last_reported":1685549307,"current_range_meters":30000,"station_id":"ce4bh9p2rcd13ifvqec0","pricing_plan_id":"free"},{"bike_id":"041ca13f-7293-464b-bdff-a488bc68eee3","system_id":"levelo_inurba_marseille","lat":43.287185,"lon":5.379373,"is_reserved":false,"is_disabled":false,"rental_uris":{"android":"levelo://app?vid=041ca13f-7293-464b-bdff-a488bc68eee3","ios":"levelo://app?vid=041ca13f-7293-464b-bdff-a488bc68eee3"},"vehicle_type_id":"4","last_reported":1685549307,"current_range_meters":3600,"station_id":"ce4bh9p2rcd13ifvqec0","pricing_plan_id":"free"},{"bike_id":"1e1fe4ee-2965-4793-8f56-679205f31a8c","system_id":"levelo_inurba_marseille","lat":43.31575,"lon":5.40547,"is_reserved":false,"is_disabled":false,"rental_uris":{"android":"levelo://app?vid=1e1fe4ee-2965-4793-8f56-679205f31a8c","ios":"levelo://app?vid=1e1fe4ee-2965-4793-8f56-679205f31a8c"},"vehicle_type_id":"4","last_reported":1685549307,"current_range_meters":27600,"station_id":"","pricing_plan_id":"free"},{"bike_id":"62be6600-bb14-41da-9550-4620427439f1","system_id":"levelo_inurba_marseille","lat":43.291994,"lon":5.392907,"is_reserved":false,"is_disabled":false,"rental_uris":{"android":"levelo://app?vid=62be6600-bb14-41da-9550-4620427439f1","ios":"levelo://app?vid=62be6600-bb14-41da-9550-4620427439f1"},"vehicle_type_id":"4","last_reported":1685549307,"current_range_meters":30800,"station_id":"ce4bh192rcd13ifvqdd0","pricing_plan_id":"free"},{"bike_id":"a11872a6-cf56-4ae5-9831-31e001ff0353","system_id":"levelo_inurba_marseille","lat":43.284534,"lon":5.358662,"is_reserved":false,"is_disabled":false,"rental_uris":{"android":"levelo://app?vid=a11872a6-cf56-4ae5-9831-31e001ff0353","ios":"levelo://app?vid=a11872a6-cf56-4ae5-9831-31e001ff0353"},"vehicle_type_id":"4","last_reported":1685549307,"current_range_meters":19200,"station_id":"ce4bhah2rcd13ifvqei0","pricing_plan_id":"free"},{"bike_id":"0aa5c74c-0aaf-49cb-9014-884ea5a09c38","system_id":"levelo_inurba_marseille","lat":43.28469,"lon":5.35897,"is_reserved":false,"is_disabled":false,"rental_uris":{"android":"levelo://app?vid=0aa5c74c-0aaf-49cb-9014-884ea5a09c38","ios":"levelo://app?vid=0aa5c74c-0aaf-49cb-9014-884ea5a09c38"},"vehicle_type_id":"4","last_reported":1685549307,"current_range_meters":8800,"station_id":"","pricing_plan_id":"free"},{"bike_id":"053a365b-98f9-4bdc-94e2-9159fae1307f","system_id":"levelo_inurba_marseille","lat":43.2847,"lon":5.35888,"is_reserved":false,"is_disabled":false,"rental_uris":{"android":"levelo://app?vid=053a365b-98f9-4bdc-94e2-9159fae1307f","ios":"levelo://app?vid=053a365b-98f9-4bdc-94e2-9159fae1307f"},"vehicle_type_id":"4","last_reported":1685549307,"current_range_meters":20400,"station_id":"ce4bhah2rcd13ifvqei0","pricing_plan_id":"free"},{"bike_id":"c5fb15d9-1746-49c3-aaeb-456235e4edb4","system_id":"levelo_inurba_marseille","lat":43.286199,"lon":5.383492,"is_reserved":false,"is_disabled":false,"rental_uris":{"android":"levelo://app?vid=c5fb15d9-1746-49c3-aaeb-456235e4edb4","ios":"levelo://app?vid=c5fb15d9-1746-49c3-aaeb-456235e4edb4"},"vehicle_type_id":"4","last_reported":1685549307,"current_range_meters":26800,"station_id":"","pricing_plan_id":"free"},{"bike_id":"b68890b3-29cd-421b-8880-3e48a4caec13","system_id":"levelo_inurba_marseille","lat":43.295713,"lon":5.399639,"is_reserved":false,"is_disabled":false,"rental_uris":{"android":"levelo://app?vid=b68890b3-29cd-421b-8880-3e48a4caec13","ios":"levelo://app?vid=b68890b3-29cd-421b-8880-3e48a4caec13"},"vehicle_type_id":"4","last_reported":1685549307,"current_range_meters":400,"station_id":"ce4bh312rcd13ifvqdj0","pricing_plan_id":"free"},{"bike_id":"2d5e3087-a2ff-479e-a515-2916d6fefebf","system_id":"levelo_inurba_marseille","lat":43.295713,"lon":5.399639,"is_reserved":false,"is_disabled":false,"rental_uris":{"android":"levelo://app?vid=2d5e3087-a2ff-479e-a515-2916d6fefebf","ios":"levelo://app?vid=2d5e3087-a2ff-479e-a515-2916d6fefebf"},"vehicle_type_id":"4","last_reported":1685549307,"current_range_meters":800,"station_id":"ce4bh312rcd13ifvqdj0","pricing_plan_id":"free"},{"bike_id":"a006281e-65c3-493e-bff4-eacad4e4eaf7","system_id":"levelo_inurba_marseille","lat":43.286595,"lon":5.386795,"is_reserved":false,"is_disabled":false,"rental_uris":{"android":"levelo://app?vid=a006281e-65c3-493e-bff4-eacad4e4eaf7","ios":"levelo://app?vid=a006281e-65c3-493e-bff4-eacad4e4eaf7"},"vehicle_type_id":"4","last_reported":1685549307,"current_range_meters":14400,"station_id":"ce4bh492rcd13ifvqdug","pricing_plan_id":"free"},{"bike_id":"d9318f05-8280-405e-ad2e-73ab935528fc","system_id":"levelo_inurba_marseille","lat":43.286595,"lon":5.386795,"is_reserved":false,"is_disabled":false,"rental_uris":{"android":"levelo://app?vid=d9318f05-8280-405e-ad2e-73ab935528fc","ios":"levelo://app?vid=d9318f05-8280-405e-ad2e-73ab935528fc"},"vehicle_type_id":"4","last_reported":1685549307,"current_range_meters":14000,"station_id":"ce4bh492rcd13ifvqdug","pricing_plan_id":"free"},{"bike_id":"7b1aef2d-c0c1-47cb-9209-f29e6b5e29f6","system_id":"levelo_inurba_marseille","lat":43.286595,"lon":5.386795,"is_reserved":false,"is_disabled":false,"rental_uris":{"android":"levelo://app?vid=7b1aef2d-c0c1-47cb-9209-f29e6b5e29f6","ios":"levelo://app?vid=7b1aef2d-c0c1-47cb-9209-f29e6b5e29f6"},"vehicle_type_id":"4","last_reported":1685549307,"current_range_meters":23600,"station_id":"ce4bh492rcd13ifvqdug","pricing_plan_id":"free"},{"bike_id":"d4cf932b-aff9-42d7-9d20-3ce32db64d57","system_id":"levelo_inurba_marseille","lat":43.286595,"lon":5.386795,"is_reserved":false,"is_disabled":false,"rental_uris":{"android":"levelo://app?vid=d4cf932b-aff9-42d7-9d20-3ce32db64d57","ios":"levelo://app?vid=d4cf932b-aff9-42d7-9d20-3ce32db64d57"},"vehicle_type_id":"4","last_reported":1685549307,"current_range_meters":29200,"station_id":"ce4bh492rcd13ifvqdug","pricing_plan_id":"free"},{"bike_id":"9e1810c8-a787-441c-a064-b167d90fbb53","system_id":"levelo_inurba_marseille","lat":43.286595,"lon":5.386795,"is_reserved":false,"is_disabled":false,"rental_uris":{"android":"levelo://app?vid=9e1810c8-a787-441c-a064-b167d90fbb53","ios":"levelo://app?vid=9e1810c8-a787-441c-a064-b167d90fbb53"},"vehicle_type_id":"4","last_reported":1685549307,"current_range_meters":22000,"station_id":"ce4bh492rcd13ifvqdug","pricing_plan_id":"free"},{"bike_id":"fd5e3861-99e4-4279-8266-e8555716a6c8","system_id":"levelo_inurba_marseille","lat":43.286595,"lon":5.386795,"is_reserved":false,"is_disabled":false,"rental_uris":{"android":"levelo://app?vid=fd5e3861-99e4-4279-8266-e8555716a6c8","ios":"levelo://app?vid=fd5e3861-99e4-4279-8266-e8555716a6c8"},"vehicle_type_id":"4","last_reported":1685549307,"current_range_meters":12400,"station_id":"ce4bh492rcd13ifvqdug","pricing_plan_id":"free"},{"bike_id":"2891af3c-cbf7-4ab4-9c6e-6bad96d6b46d","system_id":"levelo_inurba_marseille","lat":43.323464,"lon":5.406297,"is_reserved":false,"is_disabled":false,"rental_uris":{"android":"levelo://app?vid=2891af3c-cbf7-4ab4-9c6e-6bad96d6b46d","ios":"levelo://app?vid=2891af3c-cbf7-4ab4-9c6e-6bad96d6b46d"},"vehicle_type_id":"4","last_reported":1685549307,"current_range_meters":7200,"station_id":"ce4bhq92rcd13ifvqhjg","pricing_plan_id":"free"},{"bike_id":"bbfa7964-54c4-49c1-a8d4-5d021ce28959","system_id":"levelo_inurba_marseille","lat":43.323464,"lon":5.406297,"is_reserved":false,"is_disabled":false,"rental_uris":{"android":"levelo://app?vid=bbfa7964-54c4-49c1-a8d4-5d021ce28959","ios":"levelo://app?vid=bbfa7964-54c4-49c1-a8d4-5d021ce28959"},"vehicle_type_id":"4","last_reported":1685549307,"current_range_meters":8400,"station_id":"ce4bhq92rcd13ifvqhjg","pricing_plan_id":"free"},{"bike_id":"69762ab9-711f-48e1-9e1b-d9b667730fe5","system_id":"levelo_inurba_marseille","lat":43.284209,"lon":5.349719,"is_reserved":false,"is_disabled":false,"rental_uris":{"android":"levelo://app?vid=69762ab9-711f-48e1-9e1b-d9b667730fe5","ios":"levelo://app?vid=69762ab9-711f-48e1-9e1b-d9b667730fe5"},"vehicle_type_id":"4","last_reported":1685549307,"current_range_meters":28400,"station_id":"ce4bhbh2rcd13ifvqepg","pricing_plan_id":"free"},{"bike_id":"c9833756-bd13-4a1b-90f5-36b72a09faf6","system_id":"levelo_inurba_marseille","lat":43.289363,"lon":5.396322,"is_reserved":false,"is_disabled":false,"rental_uris":{"android":"levelo://app?vid=c9833756-bd13-4a1b-90f5-36b72a09faf6","ios":"levelo://app?vid=c9833756-bd13-4a1b-90f5-36b72a09faf6"},"vehicle_type_id":"4","last_reported":1685549307,"current_range_meters":25200,"station_id":"ce4bh3h2rcd13ifvqdn0","pricing_plan_id":"free"},{"bike_id":"351032d3-ff6c-4577-b87f-1fcb0d6c423e","system_id":"levelo_inurba_marseille","lat":43.283502,"lon":5.386471,"is_reserved":false,"is_disabled":false,"rental_uris":{"android":"levelo://app?vid=351032d3-ff6c-4577-b87f-1fcb0d6c423e","ios":"levelo://app?vid=351032d3-ff6c-4577-b87f-1fcb0d6c423e"},"vehicle_type_id":"4","last_reported":1685549307,"current_range_meters":24400,"station_id":"ce4bh492rcd13ifvqdvg","pricing_plan_id":"free"},{"bike_id":"f88fba7e-d7aa-4dba-9518-fe65f5572a50","system_id":"levelo_inurba_marseille","lat":43.28039,"lon":5.369297,"is_reserved":false,"is_disabled":false,"rental_uris":{"android":"levelo://app?vid=f88fba7e-d7aa-4dba-9518-fe65f5572a50","ios":"levelo://app?vid=f88fba7e-d7aa-4dba-9518-fe65f5572a50"},"vehicle_type_id":"4","last_reported":1685549307,"current_range_meters":30800,"station_id":"ce4bha12rcd13ifvqef0","pricing_plan_id":"free"},{"bike_id":"14e0dbe0-076d-4510-a6db-cc9ed04b0f92","system_id":"levelo_inurba_marseille","lat":43.28039,"lon":5.369297,"is_reserved":false,"is_disabled":false,"rental_uris":{"android":"levelo://app?vid=14e0dbe0-076d-4510-a6db-cc9ed04b0f92","ios":"levelo://app?vid=14e0dbe0-076d-4510-a6db-cc9ed04b0f92"},"vehicle_type_id":"4","last_reported":1685549307,"current_range_meters":20800,"station_id":"ce4bha12rcd13ifvqef0","pricing_plan_id":"free"},{"bike_id":"b5d268f3-0000-4614-8b12-e8b2a761f55e","system_id":"levelo_inurba_marseille","lat":43.281044,"lon":5.378308,"is_reserved":false,"is_disabled":false,"rental_uris":{"android":"levelo://app?vid=b5d268f3-0000-4614-8b12-e8b2a761f55e","ios":"levelo://app?vid=b5d268f3-0000-4614-8b12-e8b2a761f55e"},"vehicle_type_id":"4","last_reported":1685549307,"current_range_meters":19600,"station_id":"ce4bha12rcd13ifvqee0","pricing_plan_id":"free"},{"bike_id":"0dc73f2c-5818-4b49-b21f-08f2eaa1a036","system_id":"levelo_inurba_marseille","lat":43.281044,"lon":5.378308,"is_reserved":false,"is_disabled":false,"rental_uris":{"android":"levelo://app?vid=0dc73f2c-5818-4b49-b21f-08f2eaa1a036","ios":"levelo://app?vid=0dc73f2c-5818-4b49-b21f-08f2eaa1a036"},"vehicle_type_id":"4","last_reported":1685549307,"current_range_meters":16800,"station_id":"ce4bha12rcd13ifvqee0","pricing_plan_id":"free"},{"bike_id":"6663100d-a973-460e-bae7-a74cef87e54a","system_id":"levelo_inurba_marseille","lat":43.28478,"lon":5.39179,"is_reserved":false,"is_disabled":false,"rental_uris":{"android":"levelo://app?vid=6663100d-a973-460e-bae7-a74cef87e54a","ios":"levelo://app?vid=6663100d-a973-460e-bae7-a74cef87e54a"},"vehicle_type_id":"4","last_reported":1685549307,"current_range_meters":18800,"station_id":"ce4bh692rcd13ifvqe90","pricing_plan_id":"free"},{"bike_id":"5288a41a-b81d-4877-8b96-c664e8432afd","system_id":"levelo_inurba_marseille","lat":43.32648,"lon":5.40884,"is_reserved":false,"is_disabled":false,"rental_uris":{"android":"levelo://app?vid=5288a41a-b81d-4877-8b96-c664e8432afd","ios":"levelo://app?vid=5288a41a-b81d-4877-8b96-c664e8432afd"},"vehicle_type_id":"4","last_reported":1685549307,"current_range_meters":24400,"station_id":"","pricing_plan_id":"free"},{"bike_id":"88015546-94a5-4be5-89ab-b84eeaf6f845","system_id":"levelo_inurba_marseille","lat":43.284462,"lon":5.392121,"is_reserved":false,"is_disabled":false,"rental_uris":{"android":"levelo://app?vid=88015546-94a5-4be5-89ab-b84eeaf6f845","ios":"levelo://app?vid=88015546-94a5-4be5-89ab-b84eeaf6f845"},"vehicle_type_id":"4","last_reported":1685549307,"current_range_meters":2800,"station_id":"ce4bhoh2rcd13ifvqh5g","pricing_plan_id":"free"},{"bike_id":"0534014a-c88e-4536-895b-df7d6dbce116","system_id":"levelo_inurba_marseille","lat":43.3042,"lon":5.41281,"is_reserved":false,"is_disabled":false,"rental_uris":{"android":"levelo://app?vid=0534014a-c88e-4536-895b-df7d6dbce116","ios":"levelo://app?vid=0534014a-c88e-4536-895b-df7d6dbce116"},"vehicle_type_id":"4","last_reported":1685549307,"current_range_meters":31200,"station_id":"ce4bhop2rcd13ifvqh8g","pricing_plan_id":"free"},{"bike_id":"53fb94ef-65c4-4f2a-991a-e61faea8a1ae","system_id":"levelo_inurba_marseille","lat":43.304188,"lon":5.412904,"is_reserved":false,"is_disabled":false,"rental_uris":{"android":"levelo://app?vid=53fb94ef-65c4-4f2a-991a-e61faea8a1ae","ios":"levelo://app?vid=53fb94ef-65c4-4f2a-991a-e61faea8a1ae"},"vehicle_type_id":"4","last_reported":1685549307,"current_range_meters":22000,"station_id":"ce4bhop2rcd13ifvqh8g","pricing_plan_id":"free"},{"bike_id":"aab47306-7b4b-4903-9e7f-19f63641a22f","system_id":"levelo_inurba_marseille","lat":43.299579,"lon":5.413255,"is_reserved":false,"is_disabled":false,"rental_uris":{"android":"levelo://app?vid=aab47306-7b4b-4903-9e7f-19f63641a22f","ios":"levelo://app?vid=aab47306-7b4b-4903-9e7f-19f63641a22f"},"vehicle_type_id":"4","last_reported":1685549307,"current_range_meters":14000,"station_id":"ce4bhp12rcd13ifvqh9g","pricing_plan_id":"free"},{"bike_id":"be9c5df8-07c5-4e1d-b51f-96bd8e4b87ac","system_id":"levelo_inurba_marseille","lat":43.320045,"lon":5.415048,"is_reserved":false,"is_disabled":false,"rental_uris":{"android":"levelo://app?vid=be9c5df8-07c5-4e1d-b51f-96bd8e4b87ac","ios":"levelo://app?vid=be9c5df8-07c5-4e1d-b51f-96bd8e4b87ac"},"vehicle_type_id":"4","last_reported":1685549307,"current_range_meters":17200,"station_id":"ce4bhq92rcd13ifvqhkg","pricing_plan_id":"free"},{"bike_id":"54a5789f-230d-4d81-9866-d44b91d0297e","system_id":"levelo_inurba_marseille","lat":43.299579,"lon":5.413255,"is_reserved":false,"is_disabled":false,"rental_uris":{"android":"levelo://app?vid=54a5789f-230d-4d81-9866-d44b91d0297e","ios":"levelo://app?vid=54a5789f-230d-4d81-9866-d44b91d0297e"},"vehicle_type_id":"4","last_reported":1685549307,"current_range_meters":800,"station_id":"ce4bhp12rcd13ifvqh9g","pricing_plan_id":"free"},{"bike_id":"c75c2148-94d6-47fe-9790-5f405c3dab9e","system_id":"levelo_inurba_marseille","lat":43.29269,"lon":5.40911,"is_reserved":false,"is_disabled":false,"rental_uris":{"android":"levelo://app?vid=c75c2148-94d6-47fe-9790-5f405c3dab9e","ios":"levelo://app?vid=c75c2148-94d6-47fe-9790-5f405c3dab9e"},"vehicle_type_id":"4","last_reported":1685549307,"current_range_meters":0,"station_id":"ce4bh192rcd13ifvqdc0","pricing_plan_id":"free"},{"bike_id":"a09e53da-9ace-4450-8910-cd4935cc887d","system_id":"levelo_inurba_marseille","lat":43.27624,"lon":5.36106,"is_reserved":false,"is_disabled":false,"rental_uris":{"android":"levelo://app?vid=a09e53da-9ace-4450-8910-cd4935cc887d","ios":"levelo://app?vid=a09e53da-9ace-4450-8910-cd4935cc887d"},"vehicle_type_id":"4","last_reported":1685549307,"current_range_meters":15600,"station_id":"ce4bgj92rcd13ifvqbe0","pricing_plan_id":"free"},{"bike_id":"4c47880a-f382-4a71-870f-676c3dea2d65","system_id":"levelo_inurba_marseille","lat":43.27618,"lon":5.361009,"is_reserved":false,"is_disabled":false,"rental_uris":{"android":"levelo://app?vid=4c47880a-f382-4a71-870f-676c3dea2d65","ios":"levelo://app?vid=4c47880a-f382-4a71-870f-676c3dea2d65"},"vehicle_type_id":"4","last_reported":1685549307,"current_range_meters":16800,"station_id":"ce4bgj92rcd13ifvqbe0","pricing_plan_id":"free"},{"bike_id":"7684b5e8-3526-428a-b78b-781cf00c6995","system_id":"levelo_inurba_marseille","lat":43.32541,"lon":5.41436,"is_reserved":false,"is_disabled":false,"rental_uris":{"android":"levelo://app?vid=7684b5e8-3526-428a-b78b-781cf00c6995","ios":"levelo://app?vid=7684b5e8-3526-428a-b78b-781cf00c6995"},"vehicle_type_id":"4","last_reported":1685549307,"current_range_meters":25200,"station_id":"ce4bhq12rcd13ifvqhhg","pricing_plan_id":"free"},{"bike_id":"fd718ae2-bd99-428e-bbb7-a79d5a12d726","system_id":"levelo_inurba_marseille","lat":43.28226,"lon":5.39657,"is_reserved":false,"is_disabled":false,"rental_uris":{"android":"levelo://app?vid=fd718ae2-bd99-428e-bbb7-a79d5a12d726","ios":"levelo://app?vid=fd718ae2-bd99-428e-bbb7-a79d5a12d726"},"vehicle_type_id":"4","last_reported":1685549307,"current_range_meters":14000,"station_id":"","pricing_plan_id":"free"},{"bike_id":"49b2bca6-2997-420e-bc40-96eb05be0877","system_id":"levelo_inurba_marseille","lat":43.303837,"lon":5.418724,"is_reserved":false,"is_disabled":false,"rental_uris":{"android":"levelo://app?vid=49b2bca6-2997-420e-bc40-96eb05be0877","ios":"levelo://app?vid=49b2bca6-2997-420e-bc40-96eb05be0877"},"vehicle_type_id":"4","last_reported":1685549307,"current_range_meters":18400,"station_id":"ce4bhop2rcd13ifvqh7g","pricing_plan_id":"free"},{"bike_id":"cc234879-9a85-4449-bfa3-9f802734799f","system_id":"levelo_inurba_marseille","lat":43.27386,"lon":5.36254,"is_reserved":false,"is_disabled":false,"rental_uris":{"android":"levelo://app?vid=cc234879-9a85-4449-bfa3-9f802734799f","ios":"levelo://app?vid=cc234879-9a85-4449-bfa3-9f802734799f"},"vehicle_type_id":"4","last_reported":1685549307,"current_range_meters":3600,"station_id":"ce4bhbh2rcd13ifvqeo0","pricing_plan_id":"free"},{"bike_id":"28a4e17e-c3aa-4012-bbc6-273eab020d5f","system_id":"levelo_inurba_marseille","lat":43.273613,"lon":5.362705,"is_reserved":false,"is_disabled":false,"rental_uris":{"android":"levelo://app?vid=28a4e17e-c3aa-4012-bbc6-273eab020d5f","ios":"levelo://app?vid=28a4e17e-c3aa-4012-bbc6-273eab020d5f"},"vehicle_type_id":"4","last_reported":1685549307,"current_range_meters":13600,"station_id":"ce4bhbh2rcd13ifvqeo0","pricing_plan_id":"free"},{"bike_id":"41cf45ef-5d3a-48ec-80f3-fa8f0262252e","system_id":"levelo_inurba_marseille","lat":43.273613,"lon":5.362705,"is_reserved":false,"is_disabled":false,"rental_uris":{"android":"levelo://app?vid=41cf45ef-5d3a-48ec-80f3-fa8f0262252e","ios":"levelo://app?vid=41cf45ef-5d3a-48ec-80f3-fa8f0262252e"},"vehicle_type_id":"4","last_reported":1685549307,"current_range_meters":31200,"station_id":"ce4bhbh2rcd13ifvqeo0","pricing_plan_id":"free"},{"bike_id":"d18eab9d-df9e-4acc-ae3e-3d4ac0a591b2","system_id":"levelo_inurba_marseille","lat":43.27375,"lon":5.36245,"is_reserved":false,"is_disabled":false,"rental_uris":{"android":"levelo://app?vid=d18eab9d-df9e-4acc-ae3e-3d4ac0a591b2","ios":"levelo://app?vid=d18eab9d-df9e-4acc-ae3e-3d4ac0a591b2"},"vehicle_type_id":"4","last_reported":1685549307,"current_range_meters":5200,"station_id":"ce4bhbh2rcd13ifvqeo0","pricing_plan_id":"free"},{"bike_id":"203645e4-0886-4b5a-a895-9de145ab034d","system_id":"levelo_inurba_marseille","lat":43.27374,"lon":5.36259,"is_reserved":false,"is_disabled":false,"rental_uris":{"android":"levelo://app?vid=203645e4-0886-4b5a-a895-9de145ab034d","ios":"levelo://app?vid=203645e4-0886-4b5a-a895-9de145ab034d"},"vehicle_type_id":"4","last_reported":1685549307,"current_range_meters":30400,"station_id":"ce4bhbh2rcd13ifvqeo0","pricing_plan_id":"free"},{"bike_id":"2be021c5-f546-42ba-8b83-1eafd0db46ae","system_id":"levelo_inurba_marseille","lat":43.27374,"lon":5.36257,"is_reserved":false,"is_disabled":false,"rental_uris":{"android":"levelo://app?vid=2be021c5-f546-42ba-8b83-1eafd0db46ae","ios":"levelo://app?vid=2be021c5-f546-42ba-8b83-1eafd0db46ae"},"vehicle_type_id":"4","last_reported":1685549307,"current_range_meters":6000,"station_id":"ce4bhbh2rcd13ifvqeo0","pricing_plan_id":"free"},{"bike_id":"a3f95c87-1d53-448c-9bcc-106501693bf6","system_id":"levelo_inurba_marseille","lat":43.273613,"lon":5.362705,"is_reserved":false,"is_disabled":false,"rental_uris":{"android":"levelo://app?vid=a3f95c87-1d53-448c-9bcc-106501693bf6","ios":"levelo://app?vid=a3f95c87-1d53-448c-9bcc-106501693bf6"},"vehicle_type_id":"4","last_reported":1685549307,"current_range_meters":21600,"station_id":"ce4bhbh2rcd13ifvqeo0","pricing_plan_id":"free"},{"bike_id":"a05491ad-b7d1-4bcf-99bd-5d91a42b94c6","system_id":"levelo_inurba_marseille","lat":43.273613,"lon":5.362705,"is_reserved":false,"is_disabled":false,"rental_uris":{"android":"levelo://app?vid=a05491ad-b7d1-4bcf-99bd-5d91a42b94c6","ios":"levelo://app?vid=a05491ad-b7d1-4bcf-99bd-5d91a42b94c6"},"vehicle_type_id":"4","last_reported":1685549307,"current_range_meters":30000,"station_id":"ce4bhbh2rcd13ifvqeo0","pricing_plan_id":"free"},{"bike_id":"ab9b9128-2a1a-4090-8792-029501f45a74","system_id":"levelo_inurba_marseille","lat":43.273609,"lon":5.362708,"is_reserved":false,"is_disabled":false,"rental_uris":{"android":"levelo://app?vid=ab9b9128-2a1a-4090-8792-029501f45a74","ios":"levelo://app?vid=ab9b9128-2a1a-4090-8792-029501f45a74"},"vehicle_type_id":"4","last_reported":1685549307,"current_range_meters":30400,"station_id":"ce4bhbh2rcd13ifvqeo0","pricing_plan_id":"free"},{"bike_id":"233aef11-8f72-4730-9498-66d1d7a499d2","system_id":"levelo_inurba_marseille","lat":43.33612,"lon":5.410321,"is_reserved":false,"is_disabled":false,"rental_uris":{"android":"levelo://app?vid=233aef11-8f72-4730-9498-66d1d7a499d2","ios":"levelo://app?vid=233aef11-8f72-4730-9498-66d1d7a499d2"},"vehicle_type_id":"4","last_reported":1685549307,"current_range_meters":1200,"station_id":"ce4bhqh2rcd13ifvqhmg","pricing_plan_id":"free"},{"bike_id":"8346d3d6-de50-4377-8f17-2d37215403e9","system_id":"levelo_inurba_marseille","lat":43.33612,"lon":5.41026,"is_reserved":false,"is_disabled":false,"rental_uris":{"android":"levelo://app?vid=8346d3d6-de50-4377-8f17-2d37215403e9","ios":"levelo://app?vid=8346d3d6-de50-4377-8f17-2d37215403e9"},"vehicle_type_id":"4","last_reported":1685549307,"current_range_meters":23200,"station_id":"ce4bhqh2rcd13ifvqhmg","pricing_plan_id":"free"},{"bike_id":"a2dfbcf0-60ba-4ace-b227-79b522100b60","system_id":"levelo_inurba_marseille","lat":43.33612,"lon":5.41038,"is_reserved":false,"is_disabled":false,"rental_uris":{"android":"levelo://app?vid=a2dfbcf0-60ba-4ace-b227-79b522100b60","ios":"levelo://app?vid=a2dfbcf0-60ba-4ace-b227-79b522100b60"},"vehicle_type_id":"4","last_reported":1685549307,"current_range_meters":24800,"station_id":"ce4bhqh2rcd13ifvqhmg","pricing_plan_id":"free"},{"bike_id":"ac685d9c-bda4-4922-b452-596da0440587","system_id":"levelo_inurba_marseille","lat":43.276771,"lon":5.388799,"is_reserved":false,"is_disabled":false,"rental_uris":{"android":"levelo://app?vid=ac685d9c-bda4-4922-b452-596da0440587","ios":"levelo://app?vid=ac685d9c-bda4-4922-b452-596da0440587"},"vehicle_type_id":"4","last_reported":1685549307,"current_range_meters":27600,"station_id":"ce4bhi12rcd13ifvqfo0","pricing_plan_id":"free"},{"bike_id":"150b25ed-9bbb-4f3f-9710-667d0182ab9a","system_id":"levelo_inurba_marseille","lat":43.276771,"lon":5.388799,"is_reserved":false,"is_disabled":false,"rental_uris":{"android":"levelo://app?vid=150b25ed-9bbb-4f3f-9710-667d0182ab9a","ios":"levelo://app?vid=150b25ed-9bbb-4f3f-9710-667d0182ab9a"},"vehicle_type_id":"4","last_reported":1685549307,"current_range_meters":2400,"station_id":"ce4bhi12rcd13ifvqfo0","pricing_plan_id":"free"},{"bike_id":"7ac8cdce-ea14-4dd1-b2d6-ceadcb230840","system_id":"levelo_inurba_marseille","lat":43.27677,"lon":5.38883,"is_reserved":false,"is_disabled":false,"rental_uris":{"android":"levelo://app?vid=7ac8cdce-ea14-4dd1-b2d6-ceadcb230840","ios":"levelo://app?vid=7ac8cdce-ea14-4dd1-b2d6-ceadcb230840"},"vehicle_type_id":"4","last_reported":1685549307,"current_range_meters":0,"station_id":"ce4bhi12rcd13ifvqfo0","pricing_plan_id":"free"},{"bike_id":"a58c0406-36ec-431f-b258-dfb93a676488","system_id":"levelo_inurba_marseille","lat":43.276771,"lon":5.388799,"is_reserved":false,"is_disabled":false,"rental_uris":{"android":"levelo://app?vid=a58c0406-36ec-431f-b258-dfb93a676488","ios":"levelo://app?vid=a58c0406-36ec-431f-b258-dfb93a676488"},"vehicle_type_id":"4","last_reported":1685549307,"current_range_meters":17200,"station_id":"ce4bhi12rcd13ifvqfo0","pricing_plan_id":"free"},{"bike_id":"77ad9253-b79d-4a43-b0f0-a8477e680053","system_id":"levelo_inurba_marseille","lat":43.276771,"lon":5.388799,"is_reserved":false,"is_disabled":false,"rental_uris":{"android":"levelo://app?vid=77ad9253-b79d-4a43-b0f0-a8477e680053","ios":"levelo://app?vid=77ad9253-b79d-4a43-b0f0-a8477e680053"},"vehicle_type_id":"4","last_reported":1685549307,"current_range_meters":25600,"station_id":"ce4bhi12rcd13ifvqfo0","pricing_plan_id":"free"},{"bike_id":"2df8dd2f-b996-4523-9b95-f81a8162449d","system_id":"levelo_inurba_marseille","lat":43.276771,"lon":5.388799,"is_reserved":false,"is_disabled":false,"rental_uris":{"android":"levelo://app?vid=2df8dd2f-b996-4523-9b95-f81a8162449d","ios":"levelo://app?vid=2df8dd2f-b996-4523-9b95-f81a8162449d"},"vehicle_type_id":"4","last_reported":1685549307,"current_range_meters":1600,"station_id":"ce4bhi12rcd13ifvqfo0","pricing_plan_id":"free"},{"bike_id":"d2912307-fa62-4ac5-9ae5-7566f1d786a2","system_id":"levelo_inurba_marseille","lat":43.317121,"lon":5.423936,"is_reserved":false,"is_disabled":false,"rental_uris":{"android":"levelo://app?vid=d2912307-fa62-4ac5-9ae5-7566f1d786a2","ios":"levelo://app?vid=d2912307-fa62-4ac5-9ae5-7566f1d786a2"},"vehicle_type_id":"4","last_reported":1685549307,"current_range_meters":20000,"station_id":"ce4bhp92rcd13ifvqhbg","pricing_plan_id":"free"},{"bike_id":"961b08e8-c38a-47ec-b3ac-38a082ce1ae3","system_id":"levelo_inurba_marseille","lat":43.27322,"lon":5.39088,"is_reserved":false,"is_disabled":false,"rental_uris":{"android":"levelo://app?vid=961b08e8-c38a-47ec-b3ac-38a082ce1ae3","ios":"levelo://app?vid=961b08e8-c38a-47ec-b3ac-38a082ce1ae3"},"vehicle_type_id":"4","last_reported":1685549307,"current_range_meters":9600,"station_id":"ce4bhgp2rcd13ifvqfe0","pricing_plan_id":"free"},{"bike_id":"2e22109e-7d6d-4b6e-a2bb-5c3d72744725","system_id":"levelo_inurba_marseille","lat":43.2743,"lon":5.39411,"is_reserved":false,"is_disabled":false,"rental_uris":{"android":"levelo://app?vid=2e22109e-7d6d-4b6e-a2bb-5c3d72744725","ios":"levelo://app?vid=2e22109e-7d6d-4b6e-a2bb-5c3d72744725"},"vehicle_type_id":"4","last_reported":1685549307,"current_range_meters":9600,"station_id":"","pricing_plan_id":"free"},{"bike_id":"523a3bd1-da35-4b94-85be-3920ea41b77c","system_id":"levelo_inurba_marseille","lat":43.27434,"lon":5.3943,"is_reserved":false,"is_disabled":false,"rental_uris":{"android":"levelo://app?vid=523a3bd1-da35-4b94-85be-3920ea41b77c","ios":"levelo://app?vid=523a3bd1-da35-4b94-85be-3920ea41b77c"},"vehicle_type_id":"4","last_reported":1685549307,"current_range_meters":25200,"station_id":"","pricing_plan_id":"free"},{"bike_id":"6500421c-3fe5-42ce-a451-3d10f8d91463","system_id":"levelo_inurba_marseille","lat":43.27424,"lon":5.39418,"is_reserved":false,"is_disabled":false,"rental_uris":{"android":"levelo://app?vid=6500421c-3fe5-42ce-a451-3d10f8d91463","ios":"levelo://app?vid=6500421c-3fe5-42ce-a451-3d10f8d91463"},"vehicle_type_id":"4","last_reported":1685549307,"current_range_meters":16000,"station_id":"","pricing_plan_id":"free"},{"bike_id":"268c22dc-cdff-4e84-8388-117fd22d54df","system_id":"levelo_inurba_marseille","lat":43.27421,"lon":5.3943,"is_reserved":false,"is_disabled":false,"rental_uris":{"android":"levelo://app?vid=268c22dc-cdff-4e84-8388-117fd22d54df","ios":"levelo://app?vid=268c22dc-cdff-4e84-8388-117fd22d54df"},"vehicle_type_id":"4","last_reported":1685549307,"current_range_meters":12000,"station_id":"","pricing_plan_id":"free"},{"bike_id":"a7ab141c-2526-408c-91b5-ecbadd9e42b6","system_id":"levelo_inurba_marseille","lat":43.29561,"lon":5.4229,"is_reserved":false,"is_disabled":false,"rental_uris":{"android":"levelo://app?vid=a7ab141c-2526-408c-91b5-ecbadd9e42b6","ios":"levelo://app?vid=a7ab141c-2526-408c-91b5-ecbadd9e42b6"},"vehicle_type_id":"4","last_reported":1685549307,"current_range_meters":8400,"station_id":"ce4bhph2rcd13ifvqhdg","pricing_plan_id":"free"},{"bike_id":"a3a51bc6-08d1-4a34-9bd7-d285779123b4","system_id":"levelo_inurba_marseille","lat":43.295605,"lon":5.422949,"is_reserved":false,"is_disabled":false,"rental_uris":{"android":"levelo://app?vid=a3a51bc6-08d1-4a34-9bd7-d285779123b4","ios":"levelo://app?vid=a3a51bc6-08d1-4a34-9bd7-d285779123b4"},"vehicle_type_id":"4","last_reported":1685549307,"current_range_meters":12400,"station_id":"","pricing_plan_id":"free"},{"bike_id":"98df4079-284d-48c2-b0cc-817efbb1117b","system_id":"levelo_inurba_marseille","lat":43.295523,"lon":5.422926,"is_reserved":false,"is_disabled":false,"rental_uris":{"android":"levelo://app?vid=98df4079-284d-48c2-b0cc-817efbb1117b","ios":"levelo://app?vid=98df4079-284d-48c2-b0cc-817efbb1117b"},"vehicle_type_id":"4","last_reported":1685549307,"current_range_meters":21200,"station_id":"ce4bhph2rcd13ifvqhdg","pricing_plan_id":"free"},{"bike_id":"768a0961-fd8e-43fd-b797-ae301e145bb4","system_id":"levelo_inurba_marseille","lat":43.27208,"lon":5.39106,"is_reserved":false,"is_disabled":false,"rental_uris":{"android":"levelo://app?vid=768a0961-fd8e-43fd-b797-ae301e145bb4","ios":"levelo://app?vid=768a0961-fd8e-43fd-b797-ae301e145bb4"},"vehicle_type_id":"4","last_reported":1685549307,"current_range_meters":28400,"station_id":"","pricing_plan_id":"free"},{"bike_id":"d79d4da7-7019-43e5-9e3a-8fe833dcf849","system_id":"levelo_inurba_marseille","lat":43.27819,"lon":5.40707,"is_reserved":false,"is_disabled":false,"rental_uris":{"android":"levelo://app?vid=d79d4da7-7019-43e5-9e3a-8fe833dcf849","ios":"levelo://app?vid=d79d4da7-7019-43e5-9e3a-8fe833dcf849"},"vehicle_type_id":"4","last_reported":1685549307,"current_range_meters":26800,"station_id":"ce4bhnh2rcd13ifvqgtg","pricing_plan_id":"free"},{"bike_id":"13b678de-8714-4270-b454-08d3308c0b27","system_id":"levelo_inurba_marseille","lat":43.278128,"lon":5.407195,"is_reserved":false,"is_disabled":false,"rental_uris":{"android":"levelo://app?vid=13b678de-8714-4270-b454-08d3308c0b27","ios":"levelo://app?vid=13b678de-8714-4270-b454-08d3308c0b27"},"vehicle_type_id":"4","last_reported":1685549307,"current_range_meters":29200,"station_id":"ce4bhnh2rcd13ifvqgtg","pricing_plan_id":"free"},{"bike_id":"38bfbd3a-6f58-439a-b353-06737fab91a2","system_id":"levelo_inurba_marseille","lat":43.278128,"lon":5.407195,"is_reserved":false,"is_disabled":false,"rental_uris":{"android":"levelo://app?vid=38bfbd3a-6f58-439a-b353-06737fab91a2","ios":"levelo://app?vid=38bfbd3a-6f58-439a-b353-06737fab91a2"},"vehicle_type_id":"4","last_reported":1685549307,"current_range_meters":10000,"station_id":"ce4bhnh2rcd13ifvqgtg","pricing_plan_id":"free"},{"bike_id":"7acaa1f6-b04d-490b-ae65-8609466ffdd8","system_id":"levelo_inurba_marseille","lat":43.278128,"lon":5.407195,"is_reserved":false,"is_disabled":false,"rental_uris":{"android":"levelo://app?vid=7acaa1f6-b04d-490b-ae65-8609466ffdd8","ios":"levelo://app?vid=7acaa1f6-b04d-490b-ae65-8609466ffdd8"},"vehicle_type_id":"4","last_reported":1685549307,"current_range_meters":24400,"station_id":"ce4bhnh2rcd13ifvqgtg","pricing_plan_id":"free"},{"bike_id":"3faf7807-f2cf-4951-804f-b5825b4ab6ad","system_id":"levelo_inurba_marseille","lat":43.278128,"lon":5.407195,"is_reserved":false,"is_disabled":false,"rental_uris":{"android":"levelo://app?vid=3faf7807-f2cf-4951-804f-b5825b4ab6ad","ios":"levelo://app?vid=3faf7807-f2cf-4951-804f-b5825b4ab6ad"},"vehicle_type_id":"4","last_reported":1685549307,"current_range_meters":25600,"station_id":"ce4bhnh2rcd13ifvqgtg","pricing_plan_id":"free"},{"bike_id":"de567853-be0a-44ae-85f0-5c91ab58da02","system_id":"levelo_inurba_marseille","lat":43.278128,"lon":5.407195,"is_reserved":false,"is_disabled":false,"rental_uris":{"android":"levelo://app?vid=de567853-be0a-44ae-85f0-5c91ab58da02","ios":"levelo://app?vid=de567853-be0a-44ae-85f0-5c91ab58da02"},"vehicle_type_id":"4","last_reported":1685549307,"current_range_meters":8800,"station_id":"ce4bhnh2rcd13ifvqgtg","pricing_plan_id":"free"},{"bike_id":"de7c3ec8-284a-4757-a996-4cebbfa6b5a7","system_id":"levelo_inurba_marseille","lat":43.269319,"lon":5.389397,"is_reserved":false,"is_disabled":false,"rental_uris":{"android":"levelo://app?vid=de7c3ec8-284a-4757-a996-4cebbfa6b5a7","ios":"levelo://app?vid=de7c3ec8-284a-4757-a996-4cebbfa6b5a7"},"vehicle_type_id":"4","last_reported":1685549307,"current_range_meters":14800,"station_id":"ce4bhhh2rcd13ifvqfl0","pricing_plan_id":"free"},{"bike_id":"eafa3c36-cdfe-4e1a-a9fb-7944226fbb27","system_id":"levelo_inurba_marseille","lat":43.265714,"lon":5.372891,"is_reserved":false,"is_disabled":false,"rental_uris":{"android":"levelo://app?vid=eafa3c36-cdfe-4e1a-a9fb-7944226fbb27","ios":"levelo://app?vid=eafa3c36-cdfe-4e1a-a9fb-7944226fbb27"},"vehicle_type_id":"4","last_reported":1685549307,"current_range_meters":13200,"station_id":"ce4bhg12rcd13ifvqf70","pricing_plan_id":"free"},{"bike_id":"093bdcca-db93-4f9c-b8ed-c4ef69e530a1","system_id":"levelo_inurba_marseille","lat":43.265714,"lon":5.372891,"is_reserved":false,"is_disabled":false,"rental_uris":{"android":"levelo://app?vid=093bdcca-db93-4f9c-b8ed-c4ef69e530a1","ios":"levelo://app?vid=093bdcca-db93-4f9c-b8ed-c4ef69e530a1"},"vehicle_type_id":"4","last_reported":1685549307,"current_range_meters":15200,"station_id":"ce4bhg12rcd13ifvqf70","pricing_plan_id":"free"},{"bike_id":"97f92444-dc7f-4ac8-885e-43ac50454dc0","system_id":"levelo_inurba_marseille","lat":43.31731,"lon":5.43307,"is_reserved":false,"is_disabled":false,"rental_uris":{"android":"levelo://app?vid=97f92444-dc7f-4ac8-885e-43ac50454dc0","ios":"levelo://app?vid=97f92444-dc7f-4ac8-885e-43ac50454dc0"},"vehicle_type_id":"4","last_reported":1685549307,"current_range_meters":0,"station_id":"","pricing_plan_id":"free"},{"bike_id":"edc8d67b-65bc-47c6-9643-68ed23d921b2","system_id":"levelo_inurba_marseille","lat":43.27996,"lon":5.416624,"is_reserved":false,"is_disabled":false,"rental_uris":{"android":"levelo://app?vid=edc8d67b-65bc-47c6-9643-68ed23d921b2","ios":"levelo://app?vid=edc8d67b-65bc-47c6-9643-68ed23d921b2"},"vehicle_type_id":"4","last_reported":1685549307,"current_range_meters":3600,"station_id":"ce4bho12rcd13ifvqh1g","pricing_plan_id":"free"},{"bike_id":"57e3fb23-c7dd-4147-91cf-6494d059cfeb","system_id":"levelo_inurba_marseille","lat":43.27996,"lon":5.416624,"is_reserved":false,"is_disabled":false,"rental_uris":{"android":"levelo://app?vid=57e3fb23-c7dd-4147-91cf-6494d059cfeb","ios":"levelo://app?vid=57e3fb23-c7dd-4147-91cf-6494d059cfeb"},"vehicle_type_id":"4","last_reported":1685549307,"current_range_meters":0,"station_id":"ce4bho12rcd13ifvqh1g","pricing_plan_id":"free"},{"bike_id":"df876d91-53e7-4408-aabb-47a9df37e7de","system_id":"levelo_inurba_marseille","lat":43.27996,"lon":5.416624,"is_reserved":false,"is_disabled":false,"rental_uris":{"android":"levelo://app?vid=df876d91-53e7-4408-aabb-47a9df37e7de","ios":"levelo://app?vid=df876d91-53e7-4408-aabb-47a9df37e7de"},"vehicle_type_id":"4","last_reported":1685549307,"current_range_meters":15600,"station_id":"ce4bho12rcd13ifvqh1g","pricing_plan_id":"free"},{"bike_id":"fef7c0fb-0728-413e-b36d-b73d1aad4bfd","system_id":"levelo_inurba_marseille","lat":43.26779,"lon":5.39423,"is_reserved":false,"is_disabled":false,"rental_uris":{"android":"levelo://app?vid=fef7c0fb-0728-413e-b36d-b73d1aad4bfd","ios":"levelo://app?vid=fef7c0fb-0728-413e-b36d-b73d1aad4bfd"},"vehicle_type_id":"4","last_reported":1685549307,"current_range_meters":4400,"station_id":"","pricing_plan_id":"free"},{"bike_id":"6936a58a-8654-460f-b8bb-c568236881c5","system_id":"levelo_inurba_marseille","lat":43.26586,"lon":5.39006,"is_reserved":false,"is_disabled":false,"rental_uris":{"android":"levelo://app?vid=6936a58a-8654-460f-b8bb-c568236881c5","ios":"levelo://app?vid=6936a58a-8654-460f-b8bb-c568236881c5"},"vehicle_type_id":"4","last_reported":1685549307,"current_range_meters":16400,"station_id":"ce4bhe12rcd13ifvqf30","pricing_plan_id":"free"},{"bike_id":"7a7bfb2b-e1c5-43c3-a913-e3a80a96c930","system_id":"levelo_inurba_marseille","lat":43.26575,"lon":5.39,"is_reserved":false,"is_disabled":false,"rental_uris":{"android":"levelo://app?vid=7a7bfb2b-e1c5-43c3-a913-e3a80a96c930","ios":"levelo://app?vid=7a7bfb2b-e1c5-43c3-a913-e3a80a96c930"},"vehicle_type_id":"4","last_reported":1685549307,"current_range_meters":1600,"station_id":"ce4bhe12rcd13ifvqf30","pricing_plan_id":"free"},{"bike_id":"c2c5a54a-69d2-41ef-a586-5b284b8dc8b3","system_id":"levelo_inurba_marseille","lat":43.30801,"lon":5.43521,"is_reserved":false,"is_disabled":false,"rental_uris":{"android":"levelo://app?vid=c2c5a54a-69d2-41ef-a586-5b284b8dc8b3","ios":"levelo://app?vid=c2c5a54a-69d2-41ef-a586-5b284b8dc8b3"},"vehicle_type_id":"4","last_reported":1685549307,"current_range_meters":22000,"station_id":"","pricing_plan_id":"free"},{"bike_id":"c64c9e60-771b-4690-8652-2aff8e263625","system_id":"levelo_inurba_marseille","lat":43.26575,"lon":5.39009,"is_reserved":false,"is_disabled":false,"rental_uris":{"android":"levelo://app?vid=c64c9e60-771b-4690-8652-2aff8e263625","ios":"levelo://app?vid=c64c9e60-771b-4690-8652-2aff8e263625"},"vehicle_type_id":"4","last_reported":1685549307,"current_range_meters":0,"station_id":"ce4bhe12rcd13ifvqf30","pricing_plan_id":"free"},{"bike_id":"9be91a05-acb2-4a85-9b2a-20bb2a52fa00","system_id":"levelo_inurba_marseille","lat":43.30813,"lon":5.43525,"is_reserved":false,"is_disabled":false,"rental_uris":{"android":"levelo://app?vid=9be91a05-acb2-4a85-9b2a-20bb2a52fa00","ios":"levelo://app?vid=9be91a05-acb2-4a85-9b2a-20bb2a52fa00"},"vehicle_type_id":"4","last_reported":1685549307,"current_range_meters":16400,"station_id":"","pricing_plan_id":"free"},{"bike_id":"44ab26a1-ed85-4f42-b452-b9bcfb7322f6","system_id":"levelo_inurba_marseille","lat":43.26572,"lon":5.39007,"is_reserved":false,"is_disabled":false,"rental_uris":{"android":"levelo://app?vid=44ab26a1-ed85-4f42-b452-b9bcfb7322f6","ios":"levelo://app?vid=44ab26a1-ed85-4f42-b452-b9bcfb7322f6"},"vehicle_type_id":"4","last_reported":1685549307,"current_range_meters":7600,"station_id":"ce4bhe12rcd13ifvqf30","pricing_plan_id":"free"},{"bike_id":"793042fb-f33f-4933-918d-c3e36238bf1c","system_id":"levelo_inurba_marseille","lat":43.26569,"lon":5.39014,"is_reserved":false,"is_disabled":false,"rental_uris":{"android":"levelo://app?vid=793042fb-f33f-4933-918d-c3e36238bf1c","ios":"levelo://app?vid=793042fb-f33f-4933-918d-c3e36238bf1c"},"vehicle_type_id":"4","last_reported":1685549307,"current_range_meters":20000,"station_id":"ce4bhe12rcd13ifvqf30","pricing_plan_id":"free"},{"bike_id":"2c4f6ec1-bbab-477f-b1b1-4b0bd2c4f302","system_id":"levelo_inurba_marseille","lat":43.26193,"lon":5.37507,"is_reserved":false,"is_disabled":false,"rental_uris":{"android":"levelo://app?vid=2c4f6ec1-bbab-477f-b1b1-4b0bd2c4f302","ios":"levelo://app?vid=2c4f6ec1-bbab-477f-b1b1-4b0bd2c4f302"},"vehicle_type_id":"4","last_reported":1685549307,"current_range_meters":17600,"station_id":"","pricing_plan_id":"free"},{"bike_id":"30dd12a0-c27c-409a-9dbb-849c07c4a5f2","system_id":"levelo_inurba_marseille","lat":43.26593,"lon":5.39536,"is_reserved":false,"is_disabled":false,"rental_uris":{"android":"levelo://app?vid=30dd12a0-c27c-409a-9dbb-849c07c4a5f2","ios":"levelo://app?vid=30dd12a0-c27c-409a-9dbb-849c07c4a5f2"},"vehicle_type_id":"4","last_reported":1685549307,"current_range_meters":30400,"station_id":"","pricing_plan_id":"free"},{"bike_id":"5df871e9-80d6-4175-966d-d1ced8a5ad6c","system_id":"levelo_inurba_marseille","lat":43.32504,"lon":5.43523,"is_reserved":false,"is_disabled":false,"rental_uris":{"android":"levelo://app?vid=5df871e9-80d6-4175-966d-d1ced8a5ad6c","ios":"levelo://app?vid=5df871e9-80d6-4175-966d-d1ced8a5ad6c"},"vehicle_type_id":"4","last_reported":1685549307,"current_range_meters":29200,"station_id":"","pricing_plan_id":"free"},{"bike_id":"839cc5b5-431e-4a3e-96bb-e90e31ca9dfd","system_id":"levelo_inurba_marseille","lat":43.28707,"lon":5.42784,"is_reserved":false,"is_disabled":false,"rental_uris":{"android":"levelo://app?vid=839cc5b5-431e-4a3e-96bb-e90e31ca9dfd","ios":"levelo://app?vid=839cc5b5-431e-4a3e-96bb-e90e31ca9dfd"},"vehicle_type_id":"4","last_reported":1685549307,"current_range_meters":22800,"station_id":"","pricing_plan_id":"free"},{"bike_id":"fae087e1-5315-497d-a9ec-11deef0e2e83","system_id":"levelo_inurba_marseille","lat":43.262012,"lon":5.379307,"is_reserved":false,"is_disabled":false,"rental_uris":{"android":"levelo://app?vid=fae087e1-5315-497d-a9ec-11deef0e2e83","ios":"levelo://app?vid=fae087e1-5315-497d-a9ec-11deef0e2e83"},"vehicle_type_id":"4","last_reported":1685549307,"current_range_meters":0,"station_id":"ce4bhjp2rcd13ifvqg90","pricing_plan_id":"free"},{"bike_id":"27da7b1b-2907-4a16-8231-e2626b10a05f","system_id":"levelo_inurba_marseille","lat":43.27702,"lon":5.41946,"is_reserved":false,"is_disabled":false,"rental_uris":{"android":"levelo://app?vid=27da7b1b-2907-4a16-8231-e2626b10a05f","ios":"levelo://app?vid=27da7b1b-2907-4a16-8231-e2626b10a05f"},"vehicle_type_id":"4","last_reported":1685549307,"current_range_meters":1200,"station_id":"","pricing_plan_id":"free"},{"bike_id":"33e6f185-8305-41f6-8b79-2ec38f05cbd8","system_id":"levelo_inurba_marseille","lat":43.260219,"lon":5.37546,"is_reserved":false,"is_disabled":false,"rental_uris":{"android":"levelo://app?vid=33e6f185-8305-41f6-8b79-2ec38f05cbd8","ios":"levelo://app?vid=33e6f185-8305-41f6-8b79-2ec38f05cbd8"},"vehicle_type_id":"4","last_reported":1685549307,"current_range_meters":26800,"station_id":"ce4bhgh2rcd13ifvqfa0","pricing_plan_id":"free"},{"bike_id":"00e2dc14-1f45-4548-8041-89ecdb2a06cc","system_id":"levelo_inurba_marseille","lat":43.260219,"lon":5.37546,"is_reserved":false,"is_disabled":false,"rental_uris":{"android":"levelo://app?vid=00e2dc14-1f45-4548-8041-89ecdb2a06cc","ios":"levelo://app?vid=00e2dc14-1f45-4548-8041-89ecdb2a06cc"},"vehicle_type_id":"4","last_reported":1685549307,"current_range_meters":22400,"station_id":"ce4bhgh2rcd13ifvqfa0","pricing_plan_id":"free"},{"bike_id":"6b404443-757b-4b8d-9a78-a03ca59013fb","system_id":"levelo_inurba_marseille","lat":43.2592,"lon":5.37283,"is_reserved":false,"is_disabled":false,"rental_uris":{"android":"levelo://app?vid=6b404443-757b-4b8d-9a78-a03ca59013fb","ios":"levelo://app?vid=6b404443-757b-4b8d-9a78-a03ca59013fb"},"vehicle_type_id":"4","last_reported":1685549307,"current_range_meters":0,"station_id":"","pricing_plan_id":"free"},{"bike_id":"b26ca256-d7d8-40d8-9d29-b12f4f8e07db","system_id":"levelo_inurba_marseille","lat":43.26206,"lon":5.39508,"is_reserved":false,"is_disabled":false,"rental_uris":{"android":"levelo://app?vid=b26ca256-d7d8-40d8-9d29-b12f4f8e07db","ios":"levelo://app?vid=b26ca256-d7d8-40d8-9d29-b12f4f8e07db"},"vehicle_type_id":"4","last_reported":1685549307,"current_range_meters":16000,"station_id":"","pricing_plan_id":"free"},{"bike_id":"f695e64a-1e58-46cc-aee1-cf2883dfcdc0","system_id":"levelo_inurba_marseille","lat":43.2607,"lon":5.393983,"is_reserved":false,"is_disabled":false,"rental_uris":{"android":"levelo://app?vid=f695e64a-1e58-46cc-aee1-cf2883dfcdc0","ios":"levelo://app?vid=f695e64a-1e58-46cc-aee1-cf2883dfcdc0"},"vehicle_type_id":"4","last_reported":1685549307,"current_range_meters":2400,"station_id":"ce4bhh92rcd13ifvqfj0","pricing_plan_id":"free"},{"bike_id":"aad32d5e-52e5-4021-8830-9280552c0a6a","system_id":"levelo_inurba_marseille","lat":43.26062,"lon":5.39391,"is_reserved":false,"is_disabled":false,"rental_uris":{"android":"levelo://app?vid=aad32d5e-52e5-4021-8830-9280552c0a6a","ios":"levelo://app?vid=aad32d5e-52e5-4021-8830-9280552c0a6a"},"vehicle_type_id":"4","last_reported":1685549307,"current_range_meters":24800,"station_id":"ce4bhh92rcd13ifvqfj0","pricing_plan_id":"free"},{"bike_id":"fb0c8f72-3ec0-4e21-bc32-be4d03f24356","system_id":"levelo_inurba_marseille","lat":43.2607,"lon":5.393983,"is_reserved":false,"is_disabled":false,"rental_uris":{"android":"levelo://app?vid=fb0c8f72-3ec0-4e21-bc32-be4d03f24356","ios":"levelo://app?vid=fb0c8f72-3ec0-4e21-bc32-be4d03f24356"},"vehicle_type_id":"4","last_reported":1685549307,"current_range_meters":7600,"station_id":"ce4bhh92rcd13ifvqfj0","pricing_plan_id":"free"},{"bike_id":"f6b4213a-1aa0-45dc-b5c2-0c6a757ab37b","system_id":"levelo_inurba_marseille","lat":43.2607,"lon":5.393983,"is_reserved":false,"is_disabled":false,"rental_uris":{"android":"levelo://app?vid=f6b4213a-1aa0-45dc-b5c2-0c6a757ab37b","ios":"levelo://app?vid=f6b4213a-1aa0-45dc-b5c2-0c6a757ab37b"},"vehicle_type_id":"4","last_reported":1685549307,"current_range_meters":6000,"station_id":"ce4bhh92rcd13ifvqfj0","pricing_plan_id":"free"},{"bike_id":"560fa2eb-8cc1-4e6d-9a2c-7b1397b9b4d8","system_id":"levelo_inurba_marseille","lat":43.260909,"lon":5.397591,"is_reserved":false,"is_disabled":false,"rental_uris":{"android":"levelo://app?vid=560fa2eb-8cc1-4e6d-9a2c-7b1397b9b4d8","ios":"levelo://app?vid=560fa2eb-8cc1-4e6d-9a2c-7b1397b9b4d8"},"vehicle_type_id":"4","last_reported":1685549307,"current_range_meters":20800,"station_id":"ce4bhi12rcd13ifvqfq0","pricing_plan_id":"free"},{"bike_id":"12b8ba44-d95d-4e7c-a792-ba18034e8eca","system_id":"levelo_inurba_marseille","lat":43.26082,"lon":5.39768,"is_reserved":false,"is_disabled":false,"rental_uris":{"android":"levelo://app?vid=12b8ba44-d95d-4e7c-a792-ba18034e8eca","ios":"levelo://app?vid=12b8ba44-d95d-4e7c-a792-ba18034e8eca"},"vehicle_type_id":"4","last_reported":1685549307,"current_range_meters":27200,"station_id":"ce4bhi12rcd13ifvqfq0","pricing_plan_id":"free"},{"bike_id":"c7953320-a164-4631-a2fb-6d0924fcbf62","system_id":"levelo_inurba_marseille","lat":43.2607,"lon":5.393983,"is_reserved":false,"is_disabled":false,"rental_uris":{"android":"levelo://app?vid=c7953320-a164-4631-a2fb-6d0924fcbf62","ios":"levelo://app?vid=c7953320-a164-4631-a2fb-6d0924fcbf62"},"vehicle_type_id":"4","last_reported":1685549307,"current_range_meters":7200,"station_id":"ce4bhh92rcd13ifvqfj0","pricing_plan_id":"free"},{"bike_id":"edb207d2-5727-4d1b-8d88-340c492c9a76","system_id":"levelo_inurba_marseille","lat":43.255756,"lon":5.382303,"is_reserved":false,"is_disabled":false,"rental_uris":{"android":"levelo://app?vid=edb207d2-5727-4d1b-8d88-340c492c9a76","ios":"levelo://app?vid=edb207d2-5727-4d1b-8d88-340c492c9a76"},"vehicle_type_id":"4","last_reported":1685549307,"current_range_meters":17200,"station_id":"ce4bhih2rcd13ifvqfs0","pricing_plan_id":"free"},{"bike_id":"470e2ca9-205d-41f9-93ec-fe831f7fa868","system_id":"levelo_inurba_marseille","lat":43.255756,"lon":5.382303,"is_reserved":false,"is_disabled":false,"rental_uris":{"android":"levelo://app?vid=470e2ca9-205d-41f9-93ec-fe831f7fa868","ios":"levelo://app?vid=470e2ca9-205d-41f9-93ec-fe831f7fa868"},"vehicle_type_id":"4","last_reported":1685549307,"current_range_meters":28000,"station_id":"ce4bhih2rcd13ifvqfs0","pricing_plan_id":"free"},{"bike_id":"2f36e819-9d38-4d84-8074-aa353b6bc92d","system_id":"levelo_inurba_marseille","lat":43.25586,"lon":5.38238,"is_reserved":false,"is_disabled":false,"rental_uris":{"android":"levelo://app?vid=2f36e819-9d38-4d84-8074-aa353b6bc92d","ios":"levelo://app?vid=2f36e819-9d38-4d84-8074-aa353b6bc92d"},"vehicle_type_id":"4","last_reported":1685549307,"current_range_meters":18800,"station_id":"ce4bhih2rcd13ifvqfs0","pricing_plan_id":"free"},{"bike_id":"52d21803-1122-42f3-878f-975e2885b47e","system_id":"levelo_inurba_marseille","lat":43.255756,"lon":5.382303,"is_reserved":false,"is_disabled":false,"rental_uris":{"android":"levelo://app?vid=52d21803-1122-42f3-878f-975e2885b47e","ios":"levelo://app?vid=52d21803-1122-42f3-878f-975e2885b47e"},"vehicle_type_id":"4","last_reported":1685549307,"current_range_meters":31200,"station_id":"ce4bhih2rcd13ifvqfs0","pricing_plan_id":"free"},{"bike_id":"61175dbc-3a4d-41a4-9bbe-7c7ec3eebdfc","system_id":"levelo_inurba_marseille","lat":43.255756,"lon":5.382303,"is_reserved":false,"is_disabled":false,"rental_uris":{"android":"levelo://app?vid=61175dbc-3a4d-41a4-9bbe-7c7ec3eebdfc","ios":"levelo://app?vid=61175dbc-3a4d-41a4-9bbe-7c7ec3eebdfc"},"vehicle_type_id":"4","last_reported":1685549307,"current_range_meters":20400,"station_id":"ce4bhih2rcd13ifvqfs0","pricing_plan_id":"free"},{"bike_id":"8a478fff-e634-4306-829e-8095c6ba4b29","system_id":"levelo_inurba_marseille","lat":43.255756,"lon":5.382303,"is_reserved":false,"is_disabled":false,"rental_uris":{"android":"levelo://app?vid=8a478fff-e634-4306-829e-8095c6ba4b29","ios":"levelo://app?vid=8a478fff-e634-4306-829e-8095c6ba4b29"},