{"last_updated":1750670002,"ttl":60,"version":"2.2","data":{"bikes":[{"bike_id":"3da29fb8-fc97-44c6-b9ac-31dd456b2fd4","system_id":"levelo_inurba_marseille","lat":43.33771,"lon":5.37424,"is_reserved":false,"is_disabled":true,"rental_uris":{"android":"levelo://app?vid=3da29fb8-fc97-44c6-b9ac-31dd456b2fd4","ios":"levelo://app?vid=3da29fb8-fc97-44c6-b9ac-31dd456b2fd4"},"vehicle_type_id":"4","last_reported":1750670002,"current_range_meters":0,"station_id":"","pricing_plan_id":"cebpf4jnsgd1na2vs0mg"},{"bike_id":"01861ad8-a8d7-4be6-816e-651927c87584","system_id":"levelo_inurba_marseille","lat":43.33751,"lon":5.37456,"is_reserved":false,"is_disabled":true,"rental_uris":{"android":"levelo://app?vid=01861ad8-a8d7-4be6-816e-651927c87584","ios":"levelo://app?vid=01861ad8-a8d7-4be6-816e-651927c87584"},"vehicle_type_id":"4","last_reported":1750670002,"current_range_meters":0,"station_id":"","pricing_plan_id":"cebpf4jnsgd1na2vs0mg"},{"bike_id":"0c5457cb-d138-4561-893a-150a94cf1036","system_id":"levelo_inurba_marseille","lat":43.262904,"lon":5.404793,"is_reserved":false,"is_disabled":true,"rental_uris":{"android":"levelo://app?vid=0c5457cb-d138-4561-893a-150a94cf1036","ios":"levelo://app?vid=0c5457cb-d138-4561-893a-150a94cf1036"},"vehicle_type_id":"4","last_reported":1750670002,"current_range_meters":0,"station_id":"","pricing_plan_id":"cebpf4jnsgd1na2vs0mg"},{"bike_id":"f0a1d594-9817-42ab-a8d6-aea4947e8858","system_id":"levelo_inurba_marseille","lat":43.288059,"lon":5.434372,"is_reserved":false,"is_disabled":true,"rental_uris":{"android":"levelo://app?vid=f0a1d594-9817-42ab-a8d6-aea4947e8858","ios":"levelo://app?vid=f0a1d594-9817-42ab-a8d6-aea4947e8858"},"vehicle_type_id":"4","last_reported":1750670002,"current_range_meters":0,"station_id":"","pricing_plan_id":"cebpf4jnsgd1na2vs0mg"},{"bike_id":"38fa1014-dc0c-49c9-ad0a-4ed146026865","system_id":"levelo_inurba_marseille","lat":43.21192,"lon":5.35075,"is_reserved":false,"is_disabled":true,"rental_uris":{"android":"levelo://app?vid=38fa1014-dc0c-49c9-ad0a-4ed146026865","ios":"levelo://app?vid=38fa1014-dc0c-49c9-ad0a-4ed146026865"},"vehicle_type_id":"4","last_reported":1750670002,"current_range_meters":0,"station_id":"","pricing_plan_id":"cebpf4jnsgd1na2vs0mg"},{"bike_id":"62a493c7-4534-4419-ad43-0582de34a72a","system_id":"levelo_inurba_marseille","lat":43.21366,"lon":5.355183,"is_reserved":false,"is_disabled":true,"rental_uris":{"android":"levelo://app?vid=62a493c7-4534-4419-ad43-0582de34a72a","ios":"levelo://app?vid=62a493c7-4534-4419-ad43-0582de34a72a"},"vehicle_type_id":"4","last_reported":1750670002,"current_range_meters":0,"station_id":"","pricing_plan_id":"cebpf4jnsgd1na2vs0mg"},{"bike_id":"bec97e80-f20a-4137-a561-725ff16a4b68","system_id":"levelo_inurba_marseille","lat":43.27132,"lon":5.39235,"is_reserved":false,"is_disabled":true,"rental_uris":{"android":"levelo://app?vid=bec97e80-f20a-4137-a561-725ff16a4b68","ios":"levelo://app?vid=bec97e80-f20a-4137-a561-725ff16a4b68"},"vehicle_type_id":"4","last_reported":1750670002,"current_range_meters":0,"station_id":"","pricing_plan_id":"cebpf4jnsgd1na2vs0mg"},{"bike_id":"c4088a2a-8015-46c9-b67c-3b7aa8593c30","system_id":"levelo_inurba_marseille","lat":43.21759,"lon":5.34593,"is_reserved":false,"is_disabled":true,"rental_uris":{"android":"levelo://app?vid=c4088a2a-8015-46c9-b67c-3b7aa8593c30","ios":"levelo://app?vid=c4088a2a-8015-46c9-b67c-3b7aa8593c30"},"vehicle_type_id":"4","last_reported":1750670002,"current_range_meters":0,"station_id":"","pricing_plan_id":"cebpf4jnsgd1na2vs0mg"},{"bike_id":"91aba767-1cca-4550-b38f-d3b7ad9c97e6","system_id":"levelo_inurba_marseille","lat":43.28186,"lon":5.40322,"is_reserved":false,"is_disabled":true,"rental_uris":{"android":"levelo://app?vid=91aba767-1cca-4550-b38f-d3b7ad9c97e6","ios":"levelo://app?vid=91aba767-1cca-4550-b38f-d3b7ad9c97e6"},"vehicle_type_id":"4","last_reported":1750670002,"current_range_meters":0,"station_id":"","pricing_plan_id":"cebpf4jnsgd1na2vs0mg"},{"bike_id":"d6609b4f-333b-43c1-9ebe-8726f5e76e88","system_id":"levelo_inurba_marseille","lat":43.337444,"lon":5.374475,"is_reserved":false,"is_disabled":true,"rental_uris":{"android":"levelo://app?vid=d6609b4f-333b-43c1-9ebe-8726f5e76e88","ios":"levelo://app?vid=d6609b4f-333b-43c1-9ebe-8726f5e76e88"},"vehicle_type_id":"4","last_reported":1750670002,"current_range_meters":0,"station_id":"","pricing_plan_id":"cebpf4jnsgd1na2vs0mg"},{"bike_id":"0c86cdad-b64a-47bf-ba91-5b398064181c","system_id":"levelo_inurba_marseille","lat":43.38411,"lon":5.35853,"is_reserved":false,"is_disabled":true,"rental_uris":{"android":"levelo://app?vid=0c86cdad-b64a-47bf-ba91-5b398064181c","ios":"levelo://app?vid=0c86cdad-b64a-47bf-ba91-5b398064181c"},"vehicle_type_id":"4","last_reported":1750670002,"current_range_meters":0,"station_id":"","pricing_plan_id":"cebpf4jnsgd1na2vs0mg"},{"bike_id":"e9b479c2-6a31-487c-9ff2-6403c86f7607","system_id":"levelo_inurba_marseille","lat":43.30143,"lon":5.38775,"is_reserved":false,"is_disabled":true,"rental_uris":{"android":"levelo://app?vid=e9b479c2-6a31-487c-9ff2-6403c86f7607","ios":"levelo://app?vid=e9b479c2-6a31-487c-9ff2-6403c86f7607"},"vehicle_type_id":"4","last_reported":1750670002,"current_range_meters":0,"station_id":"ce4bghh2rcd13ifvqb60","pricing_plan_id":"cebpf4jnsgd1na2vs0mg"},{"bike_id":"977fd4aa-af1c-4c8e-8134-dc0ce5100f2e","system_id":"levelo_inurba_marseille","lat":43.29962,"lon":5.38499,"is_reserved":false,"is_disabled":true,"rental_uris":{"android":"levelo://app?vid=977fd4aa-af1c-4c8e-8134-dc0ce5100f2e","ios":"levelo://app?vid=977fd4aa-af1c-4c8e-8134-dc0ce5100f2e"},"vehicle_type_id":"4","last_reported":1750670002,"current_range_meters":0,"station_id":"ce4bgj92rcd13ifvqbd0","pricing_plan_id":"cebpf4jnsgd1na2vs0mg"},{"bike_id":"f3978038-7667-448f-a76f-61188a3679a3","system_id":"levelo_inurba_marseille","lat":43.29721,"lon":5.37664,"is_reserved":false,"is_disabled":true,"rental_uris":{"android":"levelo://app?vid=f3978038-7667-448f-a76f-61188a3679a3","ios":"levelo://app?vid=f3978038-7667-448f-a76f-61188a3679a3"},"vehicle_type_id":"4","last_reported":1750670002,"current_range_meters":0,"station_id":"ce4bgkh2rcd13ifvqbl0","pricing_plan_id":"cebpf4jnsgd1na2vs0mg"},{"bike_id":"9a63f9b6-681b-40ba-bdff-ea9543334b4b","system_id":"levelo_inurba_marseille","lat":43.30938,"lon":5.4014,"is_reserved":false,"is_disabled":true,"rental_uris":{"android":"levelo://app?vid=9a63f9b6-681b-40ba-bdff-ea9543334b4b","ios":"levelo://app?vid=9a63f9b6-681b-40ba-bdff-ea9543334b4b"},"vehicle_type_id":"4","last_reported":1750670002,"current_range_meters":0,"station_id":"ce4bgvp2rcd13ifvqct0","pricing_plan_id":"cebpf4jnsgd1na2vs0mg"},{"bike_id":"3bd6a840-0f67-416c-9227-d63d6e343fa5","system_id":"levelo_inurba_marseille","lat":43.29187,"lon":5.35796,"is_reserved":false,"is_disabled":true,"rental_uris":{"android":"levelo://app?vid=3bd6a840-0f67-416c-9227-d63d6e343fa5","ios":"levelo://app?vid=3bd6a840-0f67-416c-9227-d63d6e343fa5"},"vehicle_type_id":"4","last_reported":1750670002,"current_range_meters":0,"station_id":"ce4bhb12rcd13ifvqel0","pricing_plan_id":"cebpf4jnsgd1na2vs0mg"},{"bike_id":"61fa9064-12a4-4e45-ad85-cd775de740d7","system_id":"levelo_inurba_marseille","lat":43.28274,"lon":5.35077,"is_reserved":false,"is_disabled":true,"rental_uris":{"android":"levelo://app?vid=61fa9064-12a4-4e45-ad85-cd775de740d7","ios":"levelo://app?vid=61fa9064-12a4-4e45-ad85-cd775de740d7"},"vehicle_type_id":"4","last_reported":1750670002,"current_range_meters":0,"station_id":"ce4bhbp2rcd13ifvqerg","pricing_plan_id":"cebpf4jnsgd1na2vs0mg"},{"bike_id":"ebe3b29d-dd33-4b67-a924-7ba5276b675a","system_id":"levelo_inurba_marseille","lat":43.2825,"lon":5.35054,"is_reserved":false,"is_disabled":true,"rental_uris":{"android":"levelo://app?vid=ebe3b29d-dd33-4b67-a924-7ba5276b675a","ios":"levelo://app?vid=ebe3b29d-dd33-4b67-a924-7ba5276b675a"},"vehicle_type_id":"4","last_reported":1750670002,"current_range_meters":0,"station_id":"ce4bhbp2rcd13ifvqerg","pricing_plan_id":"cebpf4jnsgd1na2vs0mg"},{"bike_id":"5b62b46f-b2d4-4be3-adf2-94b64d2b8e13","system_id":"levelo_inurba_marseille","lat":43.2861,"lon":5.35099,"is_reserved":false,"is_disabled":true,"rental_uris":{"android":"levelo://app?vid=5b62b46f-b2d4-4be3-adf2-94b64d2b8e13","ios":"levelo://app?vid=5b62b46f-b2d4-4be3-adf2-94b64d2b8e13"},"vehicle_type_id":"4","last_reported":1750670002,"current_range_meters":0,"station_id":"ce4bhch2rcd13ifvqeug","pricing_plan_id":"cebpf4jnsgd1na2vs0mg"},{"bike_id":"b9bf36f6-23d5-4838-9e39-fc860561728f","system_id":"levelo_inurba_marseille","lat":43.27917,"lon":5.39586,"is_reserved":false,"is_disabled":true,"rental_uris":{"android":"levelo://app?vid=b9bf36f6-23d5-4838-9e39-fc860561728f","ios":"levelo://app?vid=b9bf36f6-23d5-4838-9e39-fc860561728f"},"vehicle_type_id":"4","last_reported":1750670002,"current_range_meters":0,"station_id":"ce4bhf92rcd13ifvqf40","pricing_plan_id":"cebpf4jnsgd1na2vs0mg"},{"bike_id":"3e8c3d24-be89-4b16-b08d-3c5cff0e39c5","system_id":"levelo_inurba_marseille","lat":43.25122,"lon":5.40312,"is_reserved":false,"is_disabled":true,"rental_uris":{"android":"levelo://app?vid=3e8c3d24-be89-4b16-b08d-3c5cff0e39c5","ios":"levelo://app?vid=3e8c3d24-be89-4b16-b08d-3c5cff0e39c5"},"vehicle_type_id":"4","last_reported":1750670002,"current_range_meters":0,"station_id":"ce4bhlh2rcd13ifvqgig","pricing_plan_id":"cebpf4jnsgd1na2vs0mg"},{"bike_id":"7598354d-40d9-4c6c-a727-722420ee163b","system_id":"levelo_inurba_marseille","lat":43.26227,"lon":5.404367,"is_reserved":false,"is_disabled":true,"rental_uris":{"android":"levelo://app?vid=7598354d-40d9-4c6c-a727-722420ee163b","ios":"levelo://app?vid=7598354d-40d9-4c6c-a727-722420ee163b"},"vehicle_type_id":"4","last_reported":1750670002,"current_range_meters":0,"station_id":"ce4bhmh2rcd13ifvqgmg","pricing_plan_id":"cebpf4jnsgd1na2vs0mg"},{"bike_id":"bd8004a1-879d-45a7-b023-28df3ff7f077","system_id":"levelo_inurba_marseille","lat":43.231523,"lon":5.437177,"is_reserved":false,"is_disabled":true,"rental_uris":{"android":"levelo://app?vid=bd8004a1-879d-45a7-b023-28df3ff7f077","ios":"levelo://app?vid=bd8004a1-879d-45a7-b023-28df3ff7f077"},"vehicle_type_id":"4","last_reported":1750670002,"current_range_meters":0,"station_id":"ce4bhmp2rcd13ifvqgog","pricing_plan_id":"cebpf4jnsgd1na2vs0mg"},{"bike_id":"b46b3d43-2d5f-4187-8435-5a2e08773148","system_id":"levelo_inurba_marseille","lat":43.23154,"lon":5.43696,"is_reserved":false,"is_disabled":true,"rental_uris":{"android":"levelo://app?vid=b46b3d43-2d5f-4187-8435-5a2e08773148","ios":"levelo://app?vid=b46b3d43-2d5f-4187-8435-5a2e08773148"},"vehicle_type_id":"4","last_reported":1750670002,"current_range_meters":0,"station_id":"ce4bhmp2rcd13ifvqgog","pricing_plan_id":"cebpf4jnsgd1na2vs0mg"},{"bike_id":"7d4b7801-2273-465f-bd08-7aa6dccdae2a","system_id":"levelo_inurba_marseille","lat":43.32651,"lon":5.41,"is_reserved":false,"is_disabled":true,"rental_uris":{"android":"levelo://app?vid=7d4b7801-2273-465f-bd08-7aa6dccdae2a","ios":"levelo://app?vid=7d4b7801-2273-465f-bd08-7aa6dccdae2a"},"vehicle_type_id":"4","last_reported":1750670002,"current_range_meters":0,"station_id":"ce4bhpp2rcd13ifvqhgg","pricing_plan_id":"cebpf4jnsgd1na2vs0mg"},{"bike_id":"c62ca8fb-236e-4d10-b42c-70ab9688da49","system_id":"levelo_inurba_marseille","lat":43.31891,"lon":5.4073,"is_reserved":false,"is_disabled":true,"rental_uris":{"android":"levelo://app?vid=c62ca8fb-236e-4d10-b42c-70ab9688da49","ios":"levelo://app?vid=c62ca8fb-236e-4d10-b42c-70ab9688da49"},"vehicle_type_id":"4","last_reported":1750670002,"current_range_meters":0,"station_id":"ce4bhq12rcd13ifvqhig","pricing_plan_id":"cebpf4jnsgd1na2vs0mg"},{"bike_id":"6964db36-4295-452c-9085-ff2622c177aa","system_id":"levelo_inurba_marseille","lat":43.320305,"lon":5.41568,"is_reserved":false,"is_disabled":true,"rental_uris":{"android":"levelo://app?vid=6964db36-4295-452c-9085-ff2622c177aa","ios":"levelo://app?vid=6964db36-4295-452c-9085-ff2622c177aa"},"vehicle_type_id":"4","last_reported":1750670002,"current_range_meters":0,"station_id":"ce4bhq92rcd13ifvqhkg","pricing_plan_id":"cebpf4jnsgd1na2vs0mg"},{"bike_id":"fe35375f-96f2-4d14-94d0-a21e3d334489","system_id":"levelo_inurba_marseille","lat":43.24174,"lon":5.36382,"is_reserved":false,"is_disabled":true,"rental_uris":{"android":"levelo://app?vid=fe35375f-96f2-4d14-94d0-a21e3d334489","ios":"levelo://app?vid=fe35375f-96f2-4d14-94d0-a21e3d334489"},"vehicle_type_id":"4","last_reported":1750670002,"current_range_meters":0,"station_id":"cpo36qri1sfpv3e86is0","pricing_plan_id":"cebpf4jnsgd1na2vs0mg"},{"bike_id":"d6d6a53d-b142-4f39-8449-a021d43bfd25","system_id":"levelo_inurba_marseille","lat":43.21753,"lon":5.34593,"is_reserved":false,"is_disabled":true,"rental_uris":{"android":"levelo://app?vid=d6d6a53d-b142-4f39-8449-a021d43bfd25","ios":"levelo://app?vid=d6d6a53d-b142-4f39-8449-a021d43bfd25"},"vehicle_type_id":"4","last_reported":1750670002,"current_range_meters":0,"station_id":"st_cvj6r9ubvosntc0bgbag","pricing_plan_id":"cebpf4jnsgd1na2vs0mg"},{"bike_id":"cd8e5c3a-9fb6-42e6-89ef-7a7f913f81a8","system_id":"levelo_inurba_marseille","lat":43.21198,"lon":5.35058,"is_reserved":false,"is_disabled":true,"rental_uris":{"android":"levelo://app?vid=cd8e5c3a-9fb6-42e6-89ef-7a7f913f81a8","ios":"levelo://app?vid=cd8e5c3a-9fb6-42e6-89ef-7a7f913f81a8"},"vehicle_type_id":"4","last_reported":1750670002,"current_range_meters":0,"station_id":"st_cvj6sg6p6f1abm77japg","pricing_plan_id":"cebpf4jnsgd1na2vs0mg"},{"bike_id":"d4bc120c-7753-4b7f-8fcd-0568d8d5a0a3","system_id":"levelo_inurba_marseille","lat":43.28616,"lon":5.35107,"is_reserved":false,"is_disabled":true,"rental_uris":{"android":"levelo://app?vid=d4bc120c-7753-4b7f-8fcd-0568d8d5a0a3","ios":"levelo://app?vid=d4bc120c-7753-4b7f-8fcd-0568d8d5a0a3"},"vehicle_type_id":"4","last_reported":1750670002,"current_range_meters":400,"station_id":"ce4bhch2rcd13ifvqeug","pricing_plan_id":"cebpf4jnsgd1na2vs0mg"},{"bike_id":"6c384dc2-9cf2-4a6b-9be9-3d821c0baa7e","system_id":"levelo_inurba_marseille","lat":43.33725,"lon":5.39199,"is_reserved":false,"is_disabled":true,"rental_uris":{"android":"levelo://app?vid=6c384dc2-9cf2-4a6b-9be9-3d821c0baa7e","ios":"levelo://app?vid=6c384dc2-9cf2-4a6b-9be9-3d821c0baa7e"},"vehicle_type_id":"4","last_reported":1750670002,"current_range_meters":400,"station_id":"ce4bhr92rcd13ifvqhsg","pricing_plan_id":"cebpf4jnsgd1na2vs0mg"},{"bike_id":"50fcfabe-f5ce-4cc0-b6fd-0e4ff6f8c312","system_id":"levelo_inurba_marseille","lat":43.211863,"lon":5.350697,"is_reserved":false,"is_disabled":true,"rental_uris":{"android":"levelo://app?vid=50fcfabe-f5ce-4cc0-b6fd-0e4ff6f8c312","ios":"levelo://app?vid=50fcfabe-f5ce-4cc0-b6fd-0e4ff6f8c312"},"vehicle_type_id":"4","last_reported":1750670002,"current_range_meters":400,"station_id":"st_cvj6sg6p6f1abm77japg","pricing_plan_id":"cebpf4jnsgd1na2vs0mg"},{"bike_id":"a8b80f08-3afd-421f-b266-d37bc70b2321","system_id":"levelo_inurba_marseille","lat":43.2119,"lon":5.3508,"is_reserved":false,"is_disabled":true,"rental_uris":{"android":"levelo://app?vid=a8b80f08-3afd-421f-b266-d37bc70b2321","ios":"levelo://app?vid=a8b80f08-3afd-421f-b266-d37bc70b2321"},"vehicle_type_id":"4","last_reported":1750670002,"current_range_meters":400,"station_id":"st_cvj6sg6p6f1abm77japg","pricing_plan_id":"cebpf4jnsgd1na2vs0mg"},{"bike_id":"3978686f-944f-4106-ad5a-c654cfc27f9d","system_id":"levelo_inurba_marseille","lat":43.29559,"lon":5.37515,"is_reserved":false,"is_disabled":true,"rental_uris":{"android":"levelo://app?vid=3978686f-944f-4106-ad5a-c654cfc27f9d","ios":"levelo://app?vid=3978686f-944f-4106-ad5a-c654cfc27f9d"},"vehicle_type_id":"4","last_reported":1750670002,"current_range_meters":800,"station_id":"ce4bgh92rcd13ifvqb50","pricing_plan_id":"cebpf4jnsgd1na2vs0mg"},{"bike_id":"12be6e99-3de2-4947-ac32-28a1bca2756f","system_id":"levelo_inurba_marseille","lat":43.31113,"lon":5.37771,"is_reserved":false,"is_disabled":true,"rental_uris":{"android":"levelo://app?vid=12be6e99-3de2-4947-ac32-28a1bca2756f","ios":"levelo://app?vid=12be6e99-3de2-4947-ac32-28a1bca2756f"},"vehicle_type_id":"4","last_reported":1750670002,"current_range_meters":800,"station_id":"ce4bgt92rcd13ifvqcg0","pricing_plan_id":"cebpf4jnsgd1na2vs0mg"},{"bike_id":"a9978bbc-ee0f-46bb-b18f-4cccd78dc3dd","system_id":"levelo_inurba_marseille","lat":43.29528,"lon":5.39051,"is_reserved":false,"is_disabled":true,"rental_uris":{"android":"levelo://app?vid=a9978bbc-ee0f-46bb-b18f-4cccd78dc3dd","ios":"levelo://app?vid=a9978bbc-ee0f-46bb-b18f-4cccd78dc3dd"},"vehicle_type_id":"4","last_reported":1750670002,"current_range_meters":800,"station_id":"ce4bh3p2rcd13ifvqdp0","pricing_plan_id":"cebpf4jnsgd1na2vs0mg"},{"bike_id":"941775cd-b4da-403f-a934-a66cb725b19e","system_id":"levelo_inurba_marseille","lat":43.23158,"lon":5.43705,"is_reserved":false,"is_disabled":true,"rental_uris":{"android":"levelo://app?vid=941775cd-b4da-403f-a934-a66cb725b19e","ios":"levelo://app?vid=941775cd-b4da-403f-a934-a66cb725b19e"},"vehicle_type_id":"4","last_reported":1750670002,"current_range_meters":800,"station_id":"ce4bhmp2rcd13ifvqgog","pricing_plan_id":"cebpf4jnsgd1na2vs0mg"},{"bike_id":"dd64bc66-0572-4ca1-8759-2b040a5d338d","system_id":"levelo_inurba_marseille","lat":43.31119,"lon":5.37763,"is_reserved":false,"is_disabled":true,"rental_uris":{"android":"levelo://app?vid=dd64bc66-0572-4ca1-8759-2b040a5d338d","ios":"levelo://app?vid=dd64bc66-0572-4ca1-8759-2b040a5d338d"},"vehicle_type_id":"4","last_reported":1750670002,"current_range_meters":1200,"station_id":"ce4bgt92rcd13ifvqcg0","pricing_plan_id":"cebpf4jnsgd1na2vs0mg"},{"bike_id":"7f4fdbfb-bc6c-47b6-8160-eb17ef0db0e5","system_id":"levelo_inurba_marseille","lat":43.29001,"lon":5.35608,"is_reserved":false,"is_disabled":true,"rental_uris":{"android":"levelo://app?vid=7f4fdbfb-bc6c-47b6-8160-eb17ef0db0e5","ios":"levelo://app?vid=7f4fdbfb-bc6c-47b6-8160-eb17ef0db0e5"},"vehicle_type_id":"4","last_reported":1750670002,"current_range_meters":1200,"station_id":"ce4bhb92rcd13ifvqen0","pricing_plan_id":"cebpf4jnsgd1na2vs0mg"},{"bike_id":"cd27ce1c-cfc6-4be6-86ed-a992079d40cf","system_id":"levelo_inurba_marseille","lat":43.29005,"lon":5.35607,"is_reserved":false,"is_disabled":true,"rental_uris":{"android":"levelo://app?vid=cd27ce1c-cfc6-4be6-86ed-a992079d40cf","ios":"levelo://app?vid=cd27ce1c-cfc6-4be6-86ed-a992079d40cf"},"vehicle_type_id":"4","last_reported":1750670002,"current_range_meters":1200,"station_id":"ce4bhb92rcd13ifvqen0","pricing_plan_id":"cebpf4jnsgd1na2vs0mg"},{"bike_id":"453a1f28-8669-44c1-aa32-85aaad573299","system_id":"levelo_inurba_marseille","lat":43.30339,"lon":5.42574,"is_reserved":false,"is_disabled":true,"rental_uris":{"android":"levelo://app?vid=453a1f28-8669-44c1-aa32-85aaad573299","ios":"levelo://app?vid=453a1f28-8669-44c1-aa32-85aaad573299"},"vehicle_type_id":"4","last_reported":1750670002,"current_range_meters":1200,"station_id":"ce4bhoh2rcd13ifvqh6g","pricing_plan_id":"cebpf4jnsgd1na2vs0mg"},{"bike_id":"401bf584-8188-49c5-8acb-4c485896d80e","system_id":"levelo_inurba_marseille","lat":43.29779,"lon":5.3709,"is_reserved":false,"is_disabled":true,"rental_uris":{"android":"levelo://app?vid=401bf584-8188-49c5-8acb-4c485896d80e","ios":"levelo://app?vid=401bf584-8188-49c5-8acb-4c485896d80e"},"vehicle_type_id":"4","last_reported":1750670002,"current_range_meters":1600,"station_id":"ce4bgop2rcd13ifvqc1g","pricing_plan_id":"cebpf4jnsgd1na2vs0mg"},{"bike_id":"1679c936-5eb4-4c58-8c20-03fd964774d6","system_id":"levelo_inurba_marseille","lat":43.29016,"lon":5.38136,"is_reserved":false,"is_disabled":true,"rental_uris":{"android":"levelo://app?vid=1679c936-5eb4-4c58-8c20-03fd964774d6","ios":"levelo://app?vid=1679c936-5eb4-4c58-8c20-03fd964774d6"},"vehicle_type_id":"4","last_reported":1750670002,"current_range_meters":1600,"station_id":"ce4bh4p2rcd13ifvqe1g","pricing_plan_id":"cebpf4jnsgd1na2vs0mg"},{"bike_id":"21264d7e-cd0c-4214-bd86-15ef5a381e9e","system_id":"levelo_inurba_marseille","lat":43.2439,"lon":5.37062,"is_reserved":false,"is_disabled":true,"rental_uris":{"android":"levelo://app?vid=21264d7e-cd0c-4214-bd86-15ef5a381e9e","ios":"levelo://app?vid=21264d7e-cd0c-4214-bd86-15ef5a381e9e"},"vehicle_type_id":"4","last_reported":1750670002,"current_range_meters":1600,"station_id":"ce4bhhh2rcd13ifvqfk0","pricing_plan_id":"cebpf4jnsgd1na2vs0mg"},{"bike_id":"c903e63d-2b4e-468e-bdbb-44bc2c3ee4be","system_id":"levelo_inurba_marseille","lat":43.211878,"lon":5.350775,"is_reserved":false,"is_disabled":true,"rental_uris":{"android":"levelo://app?vid=c903e63d-2b4e-468e-bdbb-44bc2c3ee4be","ios":"levelo://app?vid=c903e63d-2b4e-468e-bdbb-44bc2c3ee4be"},"vehicle_type_id":"4","last_reported":1750670002,"current_range_meters":1600,"station_id":"st_cvj6sg6p6f1abm77japg","pricing_plan_id":"cebpf4jnsgd1na2vs0mg"},{"bike_id":"ade4b29b-6257-46eb-aa64-2f347830e1e3","system_id":"levelo_inurba_marseille","lat":43.29373,"lon":5.37859,"is_reserved":false,"is_disabled":true,"rental_uris":{"android":"levelo://app?vid=ade4b29b-6257-46eb-aa64-2f347830e1e3","ios":"levelo://app?vid=ade4b29b-6257-46eb-aa64-2f347830e1e3"},"vehicle_type_id":"4","last_reported":1750670002,"current_range_meters":2000,"station_id":"ce4bgjh2rcd13ifvqbf0","pricing_plan_id":"cebpf4jnsgd1na2vs0mg"},{"bike_id":"658ef392-457a-489b-8a2f-aea13d0ef4f5","system_id":"levelo_inurba_marseille","lat":43.31054,"lon":5.38349,"is_reserved":false,"is_disabled":true,"rental_uris":{"android":"levelo://app?vid=658ef392-457a-489b-8a2f-aea13d0ef4f5","ios":"levelo://app?vid=658ef392-457a-489b-8a2f-aea13d0ef4f5"},"vehicle_type_id":"4","last_reported":1750670002,"current_range_meters":2000,"station_id":"ce4bgv92rcd13ifvqcr0","pricing_plan_id":"cebpf4jnsgd1na2vs0mg"},{"bike_id":"903570fc-f781-40ec-a068-633456c135c4","system_id":"levelo_inurba_marseille","lat":43.28944,"lon":5.36413,"is_reserved":false,"is_disabled":true,"rental_uris":{"android":"levelo://app?vid=903570fc-f781-40ec-a068-633456c135c4","ios":"levelo://app?vid=903570fc-f781-40ec-a068-633456c135c4"},"vehicle_type_id":"4","last_reported":1750670002,"current_range_meters":2000,"station_id":"ce4bhc92rcd13ifvqetg","pricing_plan_id":"cebpf4jnsgd1na2vs0mg"},{"bike_id":"bdd25daa-24fa-4753-b1ab-98ac3a064e5e","system_id":"levelo_inurba_marseille","lat":43.30375,"lon":5.42484,"is_reserved":false,"is_disabled":true,"rental_uris":{"android":"levelo://app?vid=bdd25daa-24fa-4753-b1ab-98ac3a064e5e","ios":"levelo://app?vid=bdd25daa-24fa-4753-b1ab-98ac3a064e5e"},"vehicle_type_id":"4","last_reported":1750670002,"current_range_meters":2000,"station_id":"ce4bhoh2rcd13ifvqh6g","pricing_plan_id":"cebpf4jnsgd1na2vs0mg"},{"bike_id":"3a25ed2c-98fc-41cc-9947-260d93ffa483","system_id":"levelo_inurba_marseille","lat":43.30956,"lon":5.38966,"is_reserved":false,"is_disabled":false,"rental_uris":{"android":"levelo://app?vid=3a25ed2c-98fc-41cc-9947-260d93ffa483","ios":"levelo://app?vid=3a25ed2c-98fc-41cc-9947-260d93ffa483"},"vehicle_type_id":"4","last_reported":1750670002,"current_range_meters":2800,"station_id":"ce4bgup2rcd13ifvqco0","pricing_plan_id":"cebpf4jnsgd1na2vs0mg"},{"bike_id":"70b27490-8d9f-4b1a-b7f1-9de95cc2c3c8","system_id":"levelo_inurba_marseille","lat":43.334967,"lon":5.410257,"is_reserved":false,"is_disabled":false,"rental_uris":{"android":"levelo://app?vid=70b27490-8d9f-4b1a-b7f1-9de95cc2c3c8","ios":"levelo://app?vid=70b27490-8d9f-4b1a-b7f1-9de95cc2c3c8"},"vehicle_type_id":"4","last_reported":1750670002,"current_range_meters":3200,"station_id":"","pricing_plan_id":"cebpf4jnsgd1na2vs0mg"},{"bike_id":"916c6bb8-beb6-42ba-b518-ac89a93913fb","system_id":"levelo_inurba_marseille","lat":43.231924,"lon":5.35553,"is_reserved":false,"is_disabled":false,"rental_uris":{"android":"levelo://app?vid=916c6bb8-beb6-42ba-b518-ac89a93913fb","ios":"levelo://app?vid=916c6bb8-beb6-42ba-b518-ac89a93913fb"},"vehicle_type_id":"4","last_reported":1750670002,"current_range_meters":3200,"station_id":"ce4bhu92rcd13ifvqi70","pricing_plan_id":"cebpf4jnsgd1na2vs0mg"},{"bike_id":"c73a1bbb-1961-480b-9c52-64e74301e89c","system_id":"levelo_inurba_marseille","lat":43.29276,"lon":5.36841,"is_reserved":false,"is_disabled":false,"rental_uris":{"android":"levelo://app?vid=c73a1bbb-1961-480b-9c52-64e74301e89c","ios":"levelo://app?vid=c73a1bbb-1961-480b-9c52-64e74301e89c"},"vehicle_type_id":"4","last_reported":1750670002,"current_range_meters":3600,"station_id":"ce4bhbp2rcd13ifvqesg","pricing_plan_id":"cebpf4jnsgd1na2vs0mg"},{"bike_id":"8c790fff-7265-42ad-8590-94c11310fa3a","system_id":"levelo_inurba_marseille","lat":43.26807,"lon":5.4027,"is_reserved":false,"is_disabled":false,"rental_uris":{"android":"levelo://app?vid=8c790fff-7265-42ad-8590-94c11310fa3a","ios":"levelo://app?vid=8c790fff-7265-42ad-8590-94c11310fa3a"},"vehicle_type_id":"4","last_reported":1750670002,"current_range_meters":3600,"station_id":"ce501612rcd8frsf0b60","pricing_plan_id":"cebpf4jnsgd1na2vs0mg"},{"bike_id":"f945d39f-40d3-4a8f-9e74-5b11529f0120","system_id":"levelo_inurba_marseille","lat":43.2582,"lon":5.39439,"is_reserved":false,"is_disabled":false,"rental_uris":{"android":"levelo://app?vid=f945d39f-40d3-4a8f-9e74-5b11529f0120","ios":"levelo://app?vid=f945d39f-40d3-4a8f-9e74-5b11529f0120"},"vehicle_type_id":"4","last_reported":1750670002,"current_range_meters":4000,"station_id":"ce4bhip2rcd13ifvqft0","pricing_plan_id":"cebpf4jnsgd1na2vs0mg"},{"bike_id":"3f87167d-d91d-4313-8b9f-c07391733236","system_id":"levelo_inurba_marseille","lat":43.2417,"lon":5.39713,"is_reserved":false,"is_disabled":false,"rental_uris":{"android":"levelo://app?vid=3f87167d-d91d-4313-8b9f-c07391733236","ios":"levelo://app?vid=3f87167d-d91d-4313-8b9f-c07391733236"},"vehicle_type_id":"4","last_reported":1750670002,"current_range_meters":4000,"station_id":"ce4bhn12rcd13ifvqgpg","pricing_plan_id":"cebpf4jnsgd1na2vs0mg"},{"bike_id":"b9c36c8d-c7f3-48b0-b1bd-cc2305fc3a78","system_id":"levelo_inurba_marseille","lat":43.277837,"lon":5.399026,"is_reserved":false,"is_disabled":false,"rental_uris":{"android":"levelo://app?vid=b9c36c8d-c7f3-48b0-b1bd-cc2305fc3a78","ios":"levelo://app?vid=b9c36c8d-c7f3-48b0-b1bd-cc2305fc3a78"},"vehicle_type_id":"4","last_reported":1750670002,"current_range_meters":4000,"station_id":"ce501612rcd8frsf0b60","pricing_plan_id":"cebpf4jnsgd1na2vs0mg"},{"bike_id":"3af8e414-6142-4432-a6dc-f481c7269c68","system_id":"levelo_inurba_marseille","lat":43.231255,"lon":5.366139,"is_reserved":false,"is_disabled":false,"rental_uris":{"android":"levelo://app?vid=3af8e414-6142-4432-a6dc-f481c7269c68","ios":"levelo://app?vid=3af8e414-6142-4432-a6dc-f481c7269c68"},"vehicle_type_id":"4","last_reported":1750670002,"current_range_meters":4400,"station_id":"","pricing_plan_id":"cebpf4jnsgd1na2vs0mg"},{"bike_id":"15285132-5711-49bb-b486-de10d7db22ef","system_id":"levelo_inurba_marseille","lat":43.24391,"lon":5.37044,"is_reserved":false,"is_disabled":false,"rental_uris":{"android":"levelo://app?vid=15285132-5711-49bb-b486-de10d7db22ef","ios":"levelo://app?vid=15285132-5711-49bb-b486-de10d7db22ef"},"vehicle_type_id":"4","last_reported":1750670002,"current_range_meters":4400,"station_id":"ce4bhhh2rcd13ifvqfk0","pricing_plan_id":"cebpf4jnsgd1na2vs0mg"},{"bike_id":"e398e657-34d7-4b7d-805b-aa957744d60d","system_id":"levelo_inurba_marseille","lat":43.26933,"lon":5.38924,"is_reserved":false,"is_disabled":false,"rental_uris":{"android":"levelo://app?vid=e398e657-34d7-4b7d-805b-aa957744d60d","ios":"levelo://app?vid=e398e657-34d7-4b7d-805b-aa957744d60d"},"vehicle_type_id":"4","last_reported":1750670002,"current_range_meters":4400,"station_id":"ce4bhhh2rcd13ifvqfl0","pricing_plan_id":"cebpf4jnsgd1na2vs0mg"},{"bike_id":"a22aa312-0025-4f42-88e2-b1e95e79340f","system_id":"levelo_inurba_marseille","lat":43.31643,"lon":5.38331,"is_reserved":false,"is_disabled":false,"rental_uris":{"android":"levelo://app?vid=a22aa312-0025-4f42-88e2-b1e95e79340f","ios":"levelo://app?vid=a22aa312-0025-4f42-88e2-b1e95e79340f"},"vehicle_type_id":"4","last_reported":1750670002,"current_range_meters":4800,"station_id":"","pricing_plan_id":"cebpf4jnsgd1na2vs0mg"},{"bike_id":"0ccd24b7-588b-4acd-b1f4-59a71facf9e8","system_id":"levelo_inurba_marseille","lat":43.25311,"lon":5.40429,"is_reserved":false,"is_disabled":false,"rental_uris":{"android":"levelo://app?vid=0ccd24b7-588b-4acd-b1f4-59a71facf9e8","ios":"levelo://app?vid=0ccd24b7-588b-4acd-b1f4-59a71facf9e8"},"vehicle_type_id":"4","last_reported":1750670002,"current_range_meters":4800,"station_id":"","pricing_plan_id":"cebpf4jnsgd1na2vs0mg"},{"bike_id":"8e4f7b1c-bd4b-465d-901c-3721c6d09d21","system_id":"levelo_inurba_marseille","lat":43.282773,"lon":5.350503,"is_reserved":false,"is_disabled":false,"rental_uris":{"android":"levelo://app?vid=8e4f7b1c-bd4b-465d-901c-3721c6d09d21","ios":"levelo://app?vid=8e4f7b1c-bd4b-465d-901c-3721c6d09d21"},"vehicle_type_id":"4","last_reported":1750670002,"current_range_meters":5600,"station_id":"ce4bhbp2rcd13ifvqerg","pricing_plan_id":"cebpf4jnsgd1na2vs0mg"},{"bike_id":"cbbf71b5-6569-4e9b-ba90-3ac2da187ffd","system_id":"levelo_inurba_marseille","lat":43.28044,"lon":5.350797,"is_reserved":false,"is_disabled":false,"rental_uris":{"android":"levelo://app?vid=cbbf71b5-6569-4e9b-ba90-3ac2da187ffd","ios":"levelo://app?vid=cbbf71b5-6569-4e9b-ba90-3ac2da187ffd"},"vehicle_type_id":"4","last_reported":1750670002,"current_range_meters":6000,"station_id":"","pricing_plan_id":"cebpf4jnsgd1na2vs0mg"},{"bike_id":"0503e1d2-ec4f-4cb3-9ea6-e4f3eb558d3e","system_id":"levelo_inurba_marseille","lat":43.29936,"lon":5.36967,"is_reserved":false,"is_disabled":false,"rental_uris":{"android":"levelo://app?vid=0503e1d2-ec4f-4cb3-9ea6-e4f3eb558d3e","ios":"levelo://app?vid=0503e1d2-ec4f-4cb3-9ea6-e4f3eb558d3e"},"vehicle_type_id":"4","last_reported":1750670002,"current_range_meters":6000,"station_id":"","pricing_plan_id":"cebpf4jnsgd1na2vs0mg"},{"bike_id":"6b23cd8b-39fe-4e94-a3f5-edab65d2e991","system_id":"levelo_inurba_marseille","lat":43.30904,"lon":5.36833,"is_reserved":false,"is_disabled":false,"rental_uris":{"android":"levelo://app?vid=6b23cd8b-39fe-4e94-a3f5-edab65d2e991","ios":"levelo://app?vid=6b23cd8b-39fe-4e94-a3f5-edab65d2e991"},"vehicle_type_id":"4","last_reported":1750670002,"current_range_meters":6000,"station_id":"ce4bgn92rcd13ifvqbvg","pricing_plan_id":"cebpf4jnsgd1na2vs0mg"},{"bike_id":"57ad4446-1764-4b57-b2f5-90f3e71193a1","system_id":"levelo_inurba_marseille","lat":43.31361,"lon":5.36778,"is_reserved":false,"is_disabled":false,"rental_uris":{"android":"levelo://app?vid=57ad4446-1764-4b57-b2f5-90f3e71193a1","ios":"levelo://app?vid=57ad4446-1764-4b57-b2f5-90f3e71193a1"},"vehicle_type_id":"4","last_reported":1750670002,"current_range_meters":6400,"station_id":"","pricing_plan_id":"cebpf4jnsgd1na2vs0mg"},{"bike_id":"3d07ef76-af52-42e0-81f1-5f4963c9ee29","system_id":"levelo_inurba_marseille","lat":43.2947,"lon":5.43832,"is_reserved":false,"is_disabled":false,"rental_uris":{"android":"levelo://app?vid=3d07ef76-af52-42e0-81f1-5f4963c9ee29","ios":"levelo://app?vid=3d07ef76-af52-42e0-81f1-5f4963c9ee29"},"vehicle_type_id":"4","last_reported":1750670002,"current_range_meters":6400,"station_id":"","pricing_plan_id":"cebpf4jnsgd1na2vs0mg"},{"bike_id":"0e571910-310b-4b35-82dd-77d59908f4a5","system_id":"levelo_inurba_marseille","lat":43.30311,"lon":5.36907,"is_reserved":false,"is_disabled":false,"rental_uris":{"android":"levelo://app?vid=0e571910-310b-4b35-82dd-77d59908f4a5","ios":"levelo://app?vid=0e571910-310b-4b35-82dd-77d59908f4a5"},"vehicle_type_id":"4","last_reported":1750670002,"current_range_meters":6400,"station_id":"ce4bgqh2rcd13ifvqc5g","pricing_plan_id":"cebpf4jnsgd1na2vs0mg"},{"bike_id":"f4420fc3-e162-4fd3-8adc-638258c3624e","system_id":"levelo_inurba_marseille","lat":43.2501,"lon":5.3891,"is_reserved":false,"is_disabled":false,"rental_uris":{"android":"levelo://app?vid=f4420fc3-e162-4fd3-8adc-638258c3624e","ios":"levelo://app?vid=f4420fc3-e162-4fd3-8adc-638258c3624e"},"vehicle_type_id":"4","last_reported":1750670002,"current_range_meters":6400,"station_id":"ce4bhgp2rcd13ifvqfd0","pricing_plan_id":"cebpf4jnsgd1na2vs0mg"},{"bike_id":"1dc52b5d-11cb-462d-8079-0f19e4fda609","system_id":"levelo_inurba_marseille","lat":43.26919,"lon":5.38947,"is_reserved":false,"is_disabled":false,"rental_uris":{"android":"levelo://app?vid=1dc52b5d-11cb-462d-8079-0f19e4fda609","ios":"levelo://app?vid=1dc52b5d-11cb-462d-8079-0f19e4fda609"},"vehicle_type_id":"4","last_reported":1750670002,"current_range_meters":6400,"station_id":"ce4bhhh2rcd13ifvqfl0","pricing_plan_id":"cebpf4jnsgd1na2vs0mg"},{"bike_id":"f1f219f8-ce94-4d65-be05-bffbfbc9de73","system_id":"levelo_inurba_marseille","lat":43.30803,"lon":5.43519,"is_reserved":false,"is_disabled":false,"rental_uris":{"android":"levelo://app?vid=f1f219f8-ce94-4d65-be05-bffbfbc9de73","ios":"levelo://app?vid=f1f219f8-ce94-4d65-be05-bffbfbc9de73"},"vehicle_type_id":"4","last_reported":1750670002,"current_range_meters":6400,"station_id":"ce4bhph2rcd13ifvqheg","pricing_plan_id":"cebpf4jnsgd1na2vs0mg"},{"bike_id":"e0dd236e-733d-4c08-8637-bf30f0688df9","system_id":"levelo_inurba_marseille","lat":43.313509,"lon":5.367111,"is_reserved":false,"is_disabled":false,"rental_uris":{"android":"levelo://app?vid=e0dd236e-733d-4c08-8637-bf30f0688df9","ios":"levelo://app?vid=e0dd236e-733d-4c08-8637-bf30f0688df9"},"vehicle_type_id":"4","last_reported":1750670002,"current_range_meters":6800,"station_id":"","pricing_plan_id":"cebpf4jnsgd1na2vs0mg"},{"bike_id":"b7036bc1-c072-4f36-9c66-21ff695540f4","system_id":"levelo_inurba_marseille","lat":43.246846,"lon":5.394377,"is_reserved":false,"is_disabled":false,"rental_uris":{"android":"levelo://app?vid=b7036bc1-c072-4f36-9c66-21ff695540f4","ios":"levelo://app?vid=b7036bc1-c072-4f36-9c66-21ff695540f4"},"vehicle_type_id":"4","last_reported":1750670002,"current_range_meters":6800,"station_id":"","pricing_plan_id":"cebpf4jnsgd1na2vs0mg"},{"bike_id":"f6281929-c188-49c4-be15-48db7b46b8d7","system_id":"levelo_inurba_marseille","lat":43.3203,"lon":5.40817,"is_reserved":false,"is_disabled":false,"rental_uris":{"android":"levelo://app?vid=f6281929-c188-49c4-be15-48db7b46b8d7","ios":"levelo://app?vid=f6281929-c188-49c4-be15-48db7b46b8d7"},"vehicle_type_id":"4","last_reported":1750670002,"current_range_meters":6800,"station_id":"","pricing_plan_id":"cebpf4jnsgd1na2vs0mg"},{"bike_id":"a2266086-5b8e-48c9-8977-477d94d098db","system_id":"levelo_inurba_marseille","lat":43.26776,"lon":5.39449,"is_reserved":false,"is_disabled":false,"rental_uris":{"android":"levelo://app?vid=a2266086-5b8e-48c9-8977-477d94d098db","ios":"levelo://app?vid=a2266086-5b8e-48c9-8977-477d94d098db"},"vehicle_type_id":"4","last_reported":1750670002,"current_range_meters":6800,"station_id":"ce4bhh12rcd13ifvqfg0","pricing_plan_id":"cebpf4jnsgd1na2vs0mg"},{"bike_id":"eb2fecd4-dfdb-470d-85c7-ac801aa554f9","system_id":"levelo_inurba_marseille","lat":43.26787,"lon":5.39412,"is_reserved":false,"is_disabled":false,"rental_uris":{"android":"levelo://app?vid=eb2fecd4-dfdb-470d-85c7-ac801aa554f9","ios":"levelo://app?vid=eb2fecd4-dfdb-470d-85c7-ac801aa554f9"},"vehicle_type_id":"4","last_reported":1750670002,"current_range_meters":6800,"station_id":"ce4bhh12rcd13ifvqfg0","pricing_plan_id":"cebpf4jnsgd1na2vs0mg"},{"bike_id":"3b51128e-358d-45ea-a0e3-41843566101c","system_id":"levelo_inurba_marseille","lat":43.28706,"lon":5.39997,"is_reserved":false,"is_disabled":false,"rental_uris":{"android":"levelo://app?vid=3b51128e-358d-45ea-a0e3-41843566101c","ios":"levelo://app?vid=3b51128e-358d-45ea-a0e3-41843566101c"},"vehicle_type_id":"4","last_reported":1750670002,"current_range_meters":6800,"station_id":"ce4bho92rcd13ifvqh3g","pricing_plan_id":"cebpf4jnsgd1na2vs0mg"},{"bike_id":"ecc231bb-d1d4-431a-8e27-8e17cdfdda03","system_id":"levelo_inurba_marseille","lat":43.32498,"lon":5.36582,"is_reserved":false,"is_disabled":false,"rental_uris":{"android":"levelo://app?vid=ecc231bb-d1d4-431a-8e27-8e17cdfdda03","ios":"levelo://app?vid=ecc231bb-d1d4-431a-8e27-8e17cdfdda03"},"vehicle_type_id":"4","last_reported":1750670002,"current_range_meters":6800,"station_id":"ce4bhs12rcd13ifvqhvg","pricing_plan_id":"cebpf4jnsgd1na2vs0mg"},{"bike_id":"d4457186-a218-4107-9539-5f78afe6651a","system_id":"levelo_inurba_marseille","lat":43.24164,"lon":5.36392,"is_reserved":false,"is_disabled":false,"rental_uris":{"android":"levelo://app?vid=d4457186-a218-4107-9539-5f78afe6651a","ios":"levelo://app?vid=d4457186-a218-4107-9539-5f78afe6651a"},"vehicle_type_id":"4","last_reported":1750670002,"current_range_meters":6800,"station_id":"cpo36qri1sfpv3e86is0","pricing_plan_id":"cebpf4jnsgd1na2vs0mg"},{"bike_id":"f2eb3c22-129f-4d70-9dd9-7ba98c1a97d1","system_id":"levelo_inurba_marseille","lat":43.30458,"lon":5.37902,"is_reserved":false,"is_disabled":false,"rental_uris":{"android":"levelo://app?vid=f2eb3c22-129f-4d70-9dd9-7ba98c1a97d1","ios":"levelo://app?vid=f2eb3c22-129f-4d70-9dd9-7ba98c1a97d1"},"vehicle_type_id":"4","last_reported":1750670002,"current_range_meters":7200,"station_id":"ce4bgup2rcd13ifvqcn0","pricing_plan_id":"cebpf4jnsgd1na2vs0mg"},{"bike_id":"0a4e2eb9-6637-4ee7-8025-2616c87f71d4","system_id":"levelo_inurba_marseille","lat":43.28417,"lon":5.34994,"is_reserved":false,"is_disabled":false,"rental_uris":{"android":"levelo://app?vid=0a4e2eb9-6637-4ee7-8025-2616c87f71d4","ios":"levelo://app?vid=0a4e2eb9-6637-4ee7-8025-2616c87f71d4"},"vehicle_type_id":"4","last_reported":1750670002,"current_range_meters":7200,"station_id":"ce4bhbh2rcd13ifvqepg","pricing_plan_id":"cebpf4jnsgd1na2vs0mg"},{"bike_id":"939807b2-9c53-4e74-8d15-3a9ec7f2a8bd","system_id":"levelo_inurba_marseille","lat":43.28279,"lon":5.35077,"is_reserved":false,"is_disabled":false,"rental_uris":{"android":"levelo://app?vid=939807b2-9c53-4e74-8d15-3a9ec7f2a8bd","ios":"levelo://app?vid=939807b2-9c53-4e74-8d15-3a9ec7f2a8bd"},"vehicle_type_id":"4","last_reported":1750670002,"current_range_meters":7200,"station_id":"ce4bhbp2rcd13ifvqerg","pricing_plan_id":"cebpf4jnsgd1na2vs0mg"},{"bike_id":"d1e38e14-5e3a-4ba4-8ed9-47405e4cf82e","system_id":"levelo_inurba_marseille","lat":43.2316,"lon":5.43696,"is_reserved":false,"is_disabled":false,"rental_uris":{"android":"levelo://app?vid=d1e38e14-5e3a-4ba4-8ed9-47405e4cf82e","ios":"levelo://app?vid=d1e38e14-5e3a-4ba4-8ed9-47405e4cf82e"},"vehicle_type_id":"4","last_reported":1750670002,"current_range_meters":7200,"station_id":"ce4bhmp2rcd13ifvqgog","pricing_plan_id":"cebpf4jnsgd1na2vs0mg"},{"bike_id":"e00116b5-29ba-45d1-b032-69dbad09bbba","system_id":"levelo_inurba_marseille","lat":43.29901,"lon":5.43665,"is_reserved":false,"is_disabled":false,"rental_uris":{"android":"levelo://app?vid=e00116b5-29ba-45d1-b032-69dbad09bbba","ios":"levelo://app?vid=e00116b5-29ba-45d1-b032-69dbad09bbba"},"vehicle_type_id":"4","last_reported":1750670002,"current_range_meters":7200,"station_id":"ce4bhpp2rcd13ifvqhfg","pricing_plan_id":"cebpf4jnsgd1na2vs0mg"},{"bike_id":"e672c7ab-9539-485a-b360-1e12bbab178b","system_id":"levelo_inurba_marseille","lat":43.30324,"lon":5.43499,"is_reserved":false,"is_disabled":false,"rental_uris":{"android":"levelo://app?vid=e672c7ab-9539-485a-b360-1e12bbab178b","ios":"levelo://app?vid=e672c7ab-9539-485a-b360-1e12bbab178b"},"vehicle_type_id":"4","last_reported":1750670002,"current_range_meters":8000,"station_id":"","pricing_plan_id":"cebpf4jnsgd1na2vs0mg"},{"bike_id":"2918bcfc-3ae7-4e90-b1ca-239f9a284a9c","system_id":"levelo_inurba_marseille","lat":43.30521,"lon":5.39375,"is_reserved":false,"is_disabled":false,"rental_uris":{"android":"levelo://app?vid=2918bcfc-3ae7-4e90-b1ca-239f9a284a9c","ios":"levelo://app?vid=2918bcfc-3ae7-4e90-b1ca-239f9a284a9c"},"vehicle_type_id":"4","last_reported":1750670002,"current_range_meters":8000,"station_id":"","pricing_plan_id":"cebpf4jnsgd1na2vs0mg"},{"bike_id":"fd8083cf-7b58-401b-9476-db213d6a9e4a","system_id":"levelo_inurba_marseille","lat":43.295377,"lon":5.38509,"is_reserved":false,"is_disabled":false,"rental_uris":{"android":"levelo://app?vid=fd8083cf-7b58-401b-9476-db213d6a9e4a","ios":"levelo://app?vid=fd8083cf-7b58-401b-9476-db213d6a9e4a"},"vehicle_type_id":"4","last_reported":1750670002,"current_range_meters":8000,"station_id":"ce4bgih2rcd13ifvqba0","pricing_plan_id":"cebpf4jnsgd1na2vs0mg"},{"bike_id":"ec1abfa0-390a-42af-9806-9b5ff2d11e8d","system_id":"levelo_inurba_marseille","lat":43.29968,"lon":5.37194,"is_reserved":false,"is_disabled":false,"rental_uris":{"android":"levelo://app?vid=ec1abfa0-390a-42af-9806-9b5ff2d11e8d","ios":"levelo://app?vid=ec1abfa0-390a-42af-9806-9b5ff2d11e8d"},"vehicle_type_id":"4","last_reported":1750670002,"current_range_meters":8400,"station_id":"ce4bgr92rcd13ifvqc7g","pricing_plan_id":"cebpf4jnsgd1na2vs0mg"},{"bike_id":"eddff49b-b0d8-4f92-87ab-095e505b84ac","system_id":"levelo_inurba_marseille","lat":43.26569,"lon":5.39014,"is_reserved":false,"is_disabled":false,"rental_uris":{"android":"levelo://app?vid=eddff49b-b0d8-4f92-87ab-095e505b84ac","ios":"levelo://app?vid=eddff49b-b0d8-4f92-87ab-095e505b84ac"},"vehicle_type_id":"4","last_reported":1750670002,"current_range_meters":8400,"station_id":"ce4bhe12rcd13ifvqf30","pricing_plan_id":"cebpf4jnsgd1na2vs0mg"},{"bike_id":"a8d48947-d295-494b-adbc-363fa5a52d16","system_id":"levelo_inurba_marseille","lat":43.2623,"lon":5.40453,"is_reserved":false,"is_disabled":false,"rental_uris":{"android":"levelo://app?vid=a8d48947-d295-494b-adbc-363fa5a52d16","ios":"levelo://app?vid=a8d48947-d295-494b-adbc-363fa5a52d16"},"vehicle_type_id":"4","last_reported":1750670002,"current_range_meters":8400,"station_id":"ce4bhmh2rcd13ifvqgmg","pricing_plan_id":"cebpf4jnsgd1na2vs0mg"},{"bike_id":"02c4e965-5789-4d86-b8f7-57cb2fd9a4af","system_id":"levelo_inurba_marseille","lat":43.231523,"lon":5.437208,"is_reserved":false,"is_disabled":false,"rental_uris":{"android":"levelo://app?vid=02c4e965-5789-4d86-b8f7-57cb2fd9a4af","ios":"levelo://app?vid=02c4e965-5789-4d86-b8f7-57cb2fd9a4af"},"vehicle_type_id":"4","last_reported":1750670002,"current_range_meters":8400,"station_id":"ce4bhmp2rcd13ifvqgog","pricing_plan_id":"cebpf4jnsgd1na2vs0mg"},{"bike_id":"c613951d-1b55-4205-b092-e70594946da5","system_id":"levelo_inurba_marseille","lat":43.21186,"lon":5.35065,"is_reserved":false,"is_disabled":false,"rental_uris":{"android":"levelo://app?vid=c613951d-1b55-4205-b092-e70594946da5","ios":"levelo://app?vid=c613951d-1b55-4205-b092-e70594946da5"},"vehicle_type_id":"4","last_reported":1750670002,"current_range_meters":8400,"station_id":"st_cvj6sg6p6f1abm77japg","pricing_plan_id":"cebpf4jnsgd1na2vs0mg"},{"bike_id":"8a280c87-912a-43bb-8807-86795bcbc323","system_id":"levelo_inurba_marseille","lat":43.24631,"lon":5.41393,"is_reserved":false,"is_disabled":false,"rental_uris":{"android":"levelo://app?vid=8a280c87-912a-43bb-8807-86795bcbc323","ios":"levelo://app?vid=8a280c87-912a-43bb-8807-86795bcbc323"},"vehicle_type_id":"4","last_reported":1750670002,"current_range_meters":8800,"station_id":"","pricing_plan_id":"cebpf4jnsgd1na2vs0mg"},{"bike_id":"5fd53ec2-5a2e-4ed1-83b1-cecd7567e74a","system_id":"levelo_inurba_marseille","lat":43.30775,"lon":5.37663,"is_reserved":false,"is_disabled":false,"rental_uris":{"android":"levelo://app?vid=5fd53ec2-5a2e-4ed1-83b1-cecd7567e74a","ios":"levelo://app?vid=5fd53ec2-5a2e-4ed1-83b1-cecd7567e74a"},"vehicle_type_id":"4","last_reported":1750670002,"current_range_meters":8800,"station_id":"ce4bgv92rcd13ifvqcq0","pricing_plan_id":"cebpf4jnsgd1na2vs0mg"},{"bike_id":"fd1bbc4d-9524-475f-b7c3-a971c201a969","system_id":"levelo_inurba_marseille","lat":43.25822,"lon":5.39437,"is_reserved":false,"is_disabled":false,"rental_uris":{"android":"levelo://app?vid=fd1bbc4d-9524-475f-b7c3-a971c201a969","ios":"levelo://app?vid=fd1bbc4d-9524-475f-b7c3-a971c201a969"},"vehicle_type_id":"4","last_reported":1750670002,"current_range_meters":8800,"station_id":"ce4bhip2rcd13ifvqft0","pricing_plan_id":"cebpf4jnsgd1na2vs0mg"},{"bike_id":"5e721145-eb17-479a-aa2e-d686bc3a044e","system_id":"levelo_inurba_marseille","lat":43.23158,"lon":5.43705,"is_reserved":false,"is_disabled":false,"rental_uris":{"android":"levelo://app?vid=5e721145-eb17-479a-aa2e-d686bc3a044e","ios":"levelo://app?vid=5e721145-eb17-479a-aa2e-d686bc3a044e"},"vehicle_type_id":"4","last_reported":1750670002,"current_range_meters":8800,"station_id":"ce4bhmp2rcd13ifvqgog","pricing_plan_id":"cebpf4jnsgd1na2vs0mg"},{"bike_id":"2cf44482-c2e9-4399-a95b-5342854cd1d9","system_id":"levelo_inurba_marseille","lat":43.3363,"lon":5.41036,"is_reserved":false,"is_disabled":false,"rental_uris":{"android":"levelo://app?vid=2cf44482-c2e9-4399-a95b-5342854cd1d9","ios":"levelo://app?vid=2cf44482-c2e9-4399-a95b-5342854cd1d9"},"vehicle_type_id":"4","last_reported":1750670002,"current_range_meters":8800,"station_id":"ce4bhqh2rcd13ifvqhmg","pricing_plan_id":"cebpf4jnsgd1na2vs0mg"},{"bike_id":"466a9ca0-9b0a-4e42-975b-42bee49d645d","system_id":"levelo_inurba_marseille","lat":43.32359,"lon":5.36738,"is_reserved":false,"is_disabled":false,"rental_uris":{"android":"levelo://app?vid=466a9ca0-9b0a-4e42-975b-42bee49d645d","ios":"levelo://app?vid=466a9ca0-9b0a-4e42-975b-42bee49d645d"},"vehicle_type_id":"4","last_reported":1750670002,"current_range_meters":8800,"station_id":"ce4bhsh2rcd13ifvqi2g","pricing_plan_id":"cebpf4jnsgd1na2vs0mg"},{"bike_id":"8c6de0c1-9eaf-4c18-8155-d956789067ae","system_id":"levelo_inurba_marseille","lat":43.279497,"lon":5.443156,"is_reserved":false,"is_disabled":false,"rental_uris":{"android":"levelo://app?vid=8c6de0c1-9eaf-4c18-8155-d956789067ae","ios":"levelo://app?vid=8c6de0c1-9eaf-4c18-8155-d956789067ae"},"vehicle_type_id":"4","last_reported":1750670002,"current_range_meters":9200,"station_id":"","pricing_plan_id":"cebpf4jnsgd1na2vs0mg"},{"bike_id":"f66a6e34-c553-4ffc-a010-eca73da9f571","system_id":"levelo_inurba_marseille","lat":43.28025,"lon":5.39917,"is_reserved":false,"is_disabled":false,"rental_uris":{"android":"levelo://app?vid=f66a6e34-c553-4ffc-a010-eca73da9f571","ios":"levelo://app?vid=f66a6e34-c553-4ffc-a010-eca73da9f571"},"vehicle_type_id":"4","last_reported":1750670002,"current_range_meters":9200,"station_id":"","pricing_plan_id":"cebpf4jnsgd1na2vs0mg"},{"bike_id":"2afbec17-d0c5-4a03-b79e-3e06f12bc827","system_id":"levelo_inurba_marseille","lat":43.30477,"lon":5.379,"is_reserved":false,"is_disabled":false,"rental_uris":{"android":"levelo://app?vid=2afbec17-d0c5-4a03-b79e-3e06f12bc827","ios":"levelo://app?vid=2afbec17-d0c5-4a03-b79e-3e06f12bc827"},"vehicle_type_id":"4","last_reported":1750670002,"current_range_meters":9200,"station_id":"ce4bgup2rcd13ifvqcn0","pricing_plan_id":"cebpf4jnsgd1na2vs0mg"},{"bike_id":"db8c4ab5-656b-4d9a-8a4e-7f6efc28b708","system_id":"levelo_inurba_marseille","lat":43.28416,"lon":5.34987,"is_reserved":false,"is_disabled":false,"rental_uris":{"android":"levelo://app?vid=db8c4ab5-656b-4d9a-8a4e-7f6efc28b708","ios":"levelo://app?vid=db8c4ab5-656b-4d9a-8a4e-7f6efc28b708"},"vehicle_type_id":"4","last_reported":1750670002,"current_range_meters":9200,"station_id":"ce4bhbh2rcd13ifvqepg","pricing_plan_id":"cebpf4jnsgd1na2vs0mg"},{"bike_id":"54be0d38-df23-4505-b89d-c8f64c92f78d","system_id":"levelo_inurba_marseille","lat":43.26027,"lon":5.37542,"is_reserved":false,"is_disabled":false,"rental_uris":{"android":"levelo://app?vid=54be0d38-df23-4505-b89d-c8f64c92f78d","ios":"levelo://app?vid=54be0d38-df23-4505-b89d-c8f64c92f78d"},"vehicle_type_id":"4","last_reported":1750670002,"current_range_meters":9200,"station_id":"ce4bhgh2rcd13ifvqfa0","pricing_plan_id":"cebpf4jnsgd1na2vs0mg"},{"bike_id":"dc5b2a1a-6961-426c-97f1-23f00e04fb06","system_id":"levelo_inurba_marseille","lat":43.28605,"lon":5.37071,"is_reserved":false,"is_disabled":false,"rental_uris":{"android":"levelo://app?vid=dc5b2a1a-6961-426c-97f1-23f00e04fb06","ios":"levelo://app?vid=dc5b2a1a-6961-426c-97f1-23f00e04fb06"},"vehicle_type_id":"4","last_reported":1750670002,"current_range_meters":9200,"station_id":"ce4bht12rcd13ifvqi60","pricing_plan_id":"cebpf4jnsgd1na2vs0mg"},{"bike_id":"a9e5e555-fdaf-49c0-b286-f0f2659b17d0","system_id":"levelo_inurba_marseille","lat":43.28316,"lon":5.43241,"is_reserved":false,"is_disabled":false,"rental_uris":{"android":"levelo://app?vid=a9e5e555-fdaf-49c0-b286-f0f2659b17d0","ios":"levelo://app?vid=a9e5e555-fdaf-49c0-b286-f0f2659b17d0"},"vehicle_type_id":"4","last_reported":1750670002,"current_range_meters":9600,"station_id":"","pricing_plan_id":"cebpf4jnsgd1na2vs0mg"},{"bike_id":"c35f1469-6975-4dfe-932a-86edbe01a878","system_id":"levelo_inurba_marseille","lat":43.29183,"lon":5.37515,"is_reserved":false,"is_disabled":false,"rental_uris":{"android":"levelo://app?vid=c35f1469-6975-4dfe-932a-86edbe01a878","ios":"levelo://app?vid=c35f1469-6975-4dfe-932a-86edbe01a878"},"vehicle_type_id":"4","last_reported":1750670002,"current_range_meters":9600,"station_id":"","pricing_plan_id":"cebpf4jnsgd1na2vs0mg"},{"bike_id":"3a28251d-0250-4373-b769-a417e43f09f1","system_id":"levelo_inurba_marseille","lat":43.30542,"lon":5.365475,"is_reserved":false,"is_disabled":false,"rental_uris":{"android":"levelo://app?vid=3a28251d-0250-4373-b769-a417e43f09f1","ios":"levelo://app?vid=3a28251d-0250-4373-b769-a417e43f09f1"},"vehicle_type_id":"4","last_reported":1750670002,"current_range_meters":9600,"station_id":"ce4bgs12rcd13ifvqcag","pricing_plan_id":"cebpf4jnsgd1na2vs0mg"},{"bike_id":"0d8f6411-57ef-4541-b0f9-8f56ac424af4","system_id":"levelo_inurba_marseille","lat":43.25942,"lon":5.40909,"is_reserved":false,"is_disabled":false,"rental_uris":{"android":"levelo://app?vid=0d8f6411-57ef-4541-b0f9-8f56ac424af4","ios":"levelo://app?vid=0d8f6411-57ef-4541-b0f9-8f56ac424af4"},"vehicle_type_id":"4","last_reported":1750670002,"current_range_meters":9600,"station_id":"ce4bhm92rcd13ifvqglg","pricing_plan_id":"cebpf4jnsgd1na2vs0mg"},{"bike_id":"eb8e0445-594f-44a0-85cb-9b475413e1ad","system_id":"levelo_inurba_marseille","lat":43.29547,"lon":5.42289,"is_reserved":false,"is_disabled":false,"rental_uris":{"android":"levelo://app?vid=eb8e0445-594f-44a0-85cb-9b475413e1ad","ios":"levelo://app?vid=eb8e0445-594f-44a0-85cb-9b475413e1ad"},"vehicle_type_id":"4","last_reported":1750670002,"current_range_meters":9600,"station_id":"ce4bhph2rcd13ifvqhdg","pricing_plan_id":"cebpf4jnsgd1na2vs0mg"},{"bike_id":"a23c269e-e131-4add-ba4a-f65c4941bf88","system_id":"levelo_inurba_marseille","lat":43.32479,"lon":5.36559,"is_reserved":false,"is_disabled":false,"rental_uris":{"android":"levelo://app?vid=a23c269e-e131-4add-ba4a-f65c4941bf88","ios":"levelo://app?vid=a23c269e-e131-4add-ba4a-f65c4941bf88"},"vehicle_type_id":"4","last_reported":1750670002,"current_range_meters":9600,"station_id":"ce4bhs12rcd13ifvqhvg","pricing_plan_id":"cebpf4jnsgd1na2vs0mg"},{"bike_id":"8d197929-9fd5-4312-a5f7-b6d7fc6475a8","system_id":"levelo_inurba_marseille","lat":43.23536,"lon":5.36021,"is_reserved":false,"is_disabled":false,"rental_uris":{"android":"levelo://app?vid=8d197929-9fd5-4312-a5f7-b6d7fc6475a8","ios":"levelo://app?vid=8d197929-9fd5-4312-a5f7-b6d7fc6475a8"},"vehicle_type_id":"4","last_reported":1750670002,"current_range_meters":10000,"station_id":"","pricing_plan_id":"cebpf4jnsgd1na2vs0mg"},{"bike_id":"f10e38ce-c08a-4001-873a-ec3e8846285a","system_id":"levelo_inurba_marseille","lat":43.32884,"lon":5.38041,"is_reserved":false,"is_disabled":false,"rental_uris":{"android":"levelo://app?vid=f10e38ce-c08a-4001-873a-ec3e8846285a","ios":"levelo://app?vid=f10e38ce-c08a-4001-873a-ec3e8846285a"},"vehicle_type_id":"4","last_reported":1750670002,"current_range_meters":10000,"station_id":"","pricing_plan_id":"cebpf4jnsgd1na2vs0mg"},{"bike_id":"941215a5-64c5-4af6-ba2c-2616777ed481","system_id":"levelo_inurba_marseille","lat":43.26314,"lon":5.41586,"is_reserved":false,"is_disabled":false,"rental_uris":{"android":"levelo://app?vid=941215a5-64c5-4af6-ba2c-2616777ed481","ios":"levelo://app?vid=941215a5-64c5-4af6-ba2c-2616777ed481"},"vehicle_type_id":"4","last_reported":1750670002,"current_range_meters":10000,"station_id":"","pricing_plan_id":"cebpf4jnsgd1na2vs0mg"},{"bike_id":"83d9cba4-6f3f-4821-9e27-d81950630101","system_id":"levelo_inurba_marseille","lat":43.299086,"lon":5.374672,"is_reserved":false,"is_disabled":false,"rental_uris":{"android":"levelo://app?vid=83d9cba4-6f3f-4821-9e27-d81950630101","ios":"levelo://app?vid=83d9cba4-6f3f-4821-9e27-d81950630101"},"vehicle_type_id":"4","last_reported":1750670002,"current_range_meters":10000,"station_id":"ce4bgjh2rcd13ifvqbg0","pricing_plan_id":"cebpf4jnsgd1na2vs0mg"},{"bike_id":"9324f4cd-6510-4124-832b-eb1aa382379c","system_id":"levelo_inurba_marseille","lat":43.30434,"lon":5.38888,"is_reserved":false,"is_disabled":false,"rental_uris":{"android":"levelo://app?vid=9324f4cd-6510-4124-832b-eb1aa382379c","ios":"levelo://app?vid=9324f4cd-6510-4124-832b-eb1aa382379c"},"vehicle_type_id":"4","last_reported":1750670002,"current_range_meters":10000,"station_id":"ce4bgk12rcd13ifvqbi0","pricing_plan_id":"cebpf4jnsgd1na2vs0mg"},{"bike_id":"efc2cae0-4296-4ab3-8dcc-56ad4bab61b7","system_id":"levelo_inurba_marseille","lat":43.31379,"lon":5.38506,"is_reserved":false,"is_disabled":false,"rental_uris":{"android":"levelo://app?vid=efc2cae0-4296-4ab3-8dcc-56ad4bab61b7","ios":"levelo://app?vid=efc2cae0-4296-4ab3-8dcc-56ad4bab61b7"},"vehicle_type_id":"4","last_reported":1750670002,"current_range_meters":10000,"station_id":"ce4bgt92rcd13ifvqcf0","pricing_plan_id":"cebpf4jnsgd1na2vs0mg"},{"bike_id":"8ce8f9e4-a75b-4ada-b28b-582786b94197","system_id":"levelo_inurba_marseille","lat":43.28984,"lon":5.37826,"is_reserved":false,"is_disabled":false,"rental_uris":{"android":"levelo://app?vid=8ce8f9e4-a75b-4ada-b28b-582786b94197","ios":"levelo://app?vid=8ce8f9e4-a75b-4ada-b28b-582786b94197"},"vehicle_type_id":"4","last_reported":1750670002,"current_range_meters":10000,"station_id":"ce4bh9p2rcd13ifvqed0","pricing_plan_id":"cebpf4jnsgd1na2vs0mg"},{"bike_id":"9f717de1-1bdd-451d-87f7-e377b1f9ef70","system_id":"levelo_inurba_marseille","lat":43.33705,"lon":5.39218,"is_reserved":false,"is_disabled":false,"rental_uris":{"android":"levelo://app?vid=9f717de1-1bdd-451d-87f7-e377b1f9ef70","ios":"levelo://app?vid=9f717de1-1bdd-451d-87f7-e377b1f9ef70"},"vehicle_type_id":"4","last_reported":1750670002,"current_range_meters":10000,"station_id":"ce4bhr92rcd13ifvqhsg","pricing_plan_id":"cebpf4jnsgd1na2vs0mg"},{"bike_id":"746fd03f-827b-4eeb-ac17-a03449cc6319","system_id":"levelo_inurba_marseille","lat":43.24454,"lon":5.4256,"is_reserved":false,"is_disabled":false,"rental_uris":{"android":"levelo://app?vid=746fd03f-827b-4eeb-ac17-a03449cc6319","ios":"levelo://app?vid=746fd03f-827b-4eeb-ac17-a03449cc6319"},"vehicle_type_id":"4","last_reported":1750670002,"current_range_meters":10800,"station_id":"","pricing_plan_id":"cebpf4jnsgd1na2vs0mg"},{"bike_id":"806a4e71-679d-4b3b-ab4e-857d2e59f3bb","system_id":"levelo_inurba_marseille","lat":43.30528,"lon":5.36702,"is_reserved":false,"is_disabled":false,"rental_uris":{"android":"levelo://app?vid=806a4e71-679d-4b3b-ab4e-857d2e59f3bb","ios":"levelo://app?vid=806a4e71-679d-4b3b-ab4e-857d2e59f3bb"},"vehicle_type_id":"4","last_reported":1750670002,"current_range_meters":10800,"station_id":"ce4bgrp2rcd13ifvqc9g","pricing_plan_id":"cebpf4jnsgd1na2vs0mg"},{"bike_id":"684d7ac6-ac5a-4777-8552-8096bce2131e","system_id":"levelo_inurba_marseille","lat":43.30577,"lon":5.36525,"is_reserved":false,"is_disabled":false,"rental_uris":{"android":"levelo://app?vid=684d7ac6-ac5a-4777-8552-8096bce2131e","ios":"levelo://app?vid=684d7ac6-ac5a-4777-8552-8096bce2131e"},"vehicle_type_id":"4","last_reported":1750670002,"current_range_meters":10800,"station_id":"ce4bgs12rcd13ifvqcag","pricing_plan_id":"cebpf4jnsgd1na2vs0mg"},{"bike_id":"4645477c-49e0-4db3-a2e1-fc472cd3480a","system_id":"levelo_inurba_marseille","lat":43.30544,"lon":5.36536,"is_reserved":false,"is_disabled":false,"rental_uris":{"android":"levelo://app?vid=4645477c-49e0-4db3-a2e1-fc472cd3480a","ios":"levelo://app?vid=4645477c-49e0-4db3-a2e1-fc472cd3480a"},"vehicle_type_id":"4","last_reported":1750670002,"current_range_meters":10800,"station_id":"ce4bgs12rcd13ifvqcag","pricing_plan_id":"cebpf4jnsgd1na2vs0mg"},{"bike_id":"e1f01fd1-71b3-4ecb-8826-69f2ab30e3c5","system_id":"levelo_inurba_marseille","lat":43.28986,"lon":5.37828,"is_reserved":false,"is_disabled":false,"rental_uris":{"android":"levelo://app?vid=e1f01fd1-71b3-4ecb-8826-69f2ab30e3c5","ios":"levelo://app?vid=e1f01fd1-71b3-4ecb-8826-69f2ab30e3c5"},"vehicle_type_id":"4","last_reported":1750670002,"current_range_meters":10800,"station_id":"ce4bh9p2rcd13ifvqed0","pricing_plan_id":"cebpf4jnsgd1na2vs0mg"},{"bike_id":"5704e9c9-37c7-49b1-b7a5-7f3d6503df63","system_id":"levelo_inurba_marseille","lat":43.25104,"lon":5.40307,"is_reserved":false,"is_disabled":false,"rental_uris":{"android":"levelo://app?vid=5704e9c9-37c7-49b1-b7a5-7f3d6503df63","ios":"levelo://app?vid=5704e9c9-37c7-49b1-b7a5-7f3d6503df63"},"vehicle_type_id":"4","last_reported":1750670002,"current_range_meters":10800,"station_id":"ce4bhlh2rcd13ifvqgig","pricing_plan_id":"cebpf4jnsgd1na2vs0mg"},{"bike_id":"ee9cd595-062c-4195-8f11-b1b7d64a04e5","system_id":"levelo_inurba_marseille","lat":43.25937,"lon":5.40896,"is_reserved":false,"is_disabled":false,"rental_uris":{"android":"levelo://app?vid=ee9cd595-062c-4195-8f11-b1b7d64a04e5","ios":"levelo://app?vid=ee9cd595-062c-4195-8f11-b1b7d64a04e5"},"vehicle_type_id":"4","last_reported":1750670002,"current_range_meters":10800,"station_id":"ce4bhm92rcd13ifvqglg","pricing_plan_id":"cebpf4jnsgd1na2vs0mg"},{"bike_id":"3ecfd10a-d1c5-4850-95ee-56db1e0e1365","system_id":"levelo_inurba_marseille","lat":43.2417,"lon":5.39718,"is_reserved":false,"is_disabled":false,"rental_uris":{"android":"levelo://app?vid=3ecfd10a-d1c5-4850-95ee-56db1e0e1365","ios":"levelo://app?vid=3ecfd10a-d1c5-4850-95ee-56db1e0e1365"},"vehicle_type_id":"4","last_reported":1750670002,"current_range_meters":10800,"station_id":"ce4bhn12rcd13ifvqgpg","pricing_plan_id":"cebpf4jnsgd1na2vs0mg"},{"bike_id":"b875567a-d777-4671-bb16-7390be622c48","system_id":"levelo_inurba_marseille","lat":43.32037,"lon":5.41575,"is_reserved":false,"is_disabled":false,"rental_uris":{"android":"levelo://app?vid=b875567a-d777-4671-bb16-7390be622c48","ios":"levelo://app?vid=b875567a-d777-4671-bb16-7390be622c48"},"vehicle_type_id":"4","last_reported":1750670002,"current_range_meters":10800,"station_id":"ce4bhq92rcd13ifvqhkg","pricing_plan_id":"cebpf4jnsgd1na2vs0mg"},{"bike_id":"a0cecd7f-fbc0-4afd-8d79-98881afa5efc","system_id":"levelo_inurba_marseille","lat":43.33604,"lon":5.41028,"is_reserved":false,"is_disabled":false,"rental_uris":{"android":"levelo://app?vid=a0cecd7f-fbc0-4afd-8d79-98881afa5efc","ios":"levelo://app?vid=a0cecd7f-fbc0-4afd-8d79-98881afa5efc"},"vehicle_type_id":"4","last_reported":1750670002,"current_range_meters":10800,"station_id":"ce4bhqh2rcd13ifvqhmg","pricing_plan_id":"cebpf4jnsgd1na2vs0mg"},{"bike_id":"7f0c0d5e-2b18-46bc-82ee-7fd2a79a7859","system_id":"levelo_inurba_marseille","lat":43.32466,"lon":5.36556,"is_reserved":false,"is_disabled":false,"rental_uris":{"android":"levelo://app?vid=7f0c0d5e-2b18-46bc-82ee-7fd2a79a7859","ios":"levelo://app?vid=7f0c0d5e-2b18-46bc-82ee-7fd2a79a7859"},"vehicle_type_id":"4","last_reported":1750670002,"current_range_meters":10800,"station_id":"ce4bhs12rcd13ifvqhvg","pricing_plan_id":"cebpf4jnsgd1na2vs0mg"},{"bike_id":"42c90961-3e99-4545-9371-0354238b702e","system_id":"levelo_inurba_marseille","lat":43.21195,"lon":5.35064,"is_reserved":false,"is_disabled":false,"rental_uris":{"android":"levelo://app?vid=42c90961-3e99-4545-9371-0354238b702e","ios":"levelo://app?vid=42c90961-3e99-4545-9371-0354238b702e"},"vehicle_type_id":"4","last_reported":1750670002,"current_range_meters":10800,"station_id":"st_cvj6sg6p6f1abm77japg","pricing_plan_id":"cebpf4jnsgd1na2vs0mg"},{"bike_id":"d06b41fe-cba8-4975-a6bb-956ea36887e4","system_id":"levelo_inurba_marseille","lat":43.281183,"lon":5.44226,"is_reserved":false,"is_disabled":false,"rental_uris":{"android":"levelo://app?vid=d06b41fe-cba8-4975-a6bb-956ea36887e4","ios":"levelo://app?vid=d06b41fe-cba8-4975-a6bb-956ea36887e4"},"vehicle_type_id":"4","last_reported":1750670002,"current_range_meters":11200,"station_id":"","pricing_plan_id":"cebpf4jnsgd1na2vs0mg"},{"bike_id":"70764641-799a-4261-99bd-903918c1b74a","system_id":"levelo_inurba_marseille","lat":43.328835,"lon":5.383384,"is_reserved":false,"is_disabled":false,"rental_uris":{"android":"levelo://app?vid=70764641-799a-4261-99bd-903918c1b74a","ios":"levelo://app?vid=70764641-799a-4261-99bd-903918c1b74a"},"vehicle_type_id":"4","last_reported":1750670002,"current_range_meters":11200,"station_id":"","pricing_plan_id":"cebpf4jnsgd1na2vs0mg"},{"bike_id":"a81bb845-3c69-4e60-b96a-9ec7765d8b44","system_id":"levelo_inurba_marseille","lat":43.31372,"lon":5.36734,"is_reserved":false,"is_disabled":false,"rental_uris":{"android":"levelo://app?vid=a81bb845-3c69-4e60-b96a-9ec7765d8b44","ios":"levelo://app?vid=a81bb845-3c69-4e60-b96a-9ec7765d8b44"},"vehicle_type_id":"4","last_reported":1750670002,"current_range_meters":11200,"station_id":"ce4bgr92rcd13ifvqc6g","pricing_plan_id":"cebpf4jnsgd1na2vs0mg"},{"bike_id":"35bc9f5e-1ad9-467d-a54f-b70a09356aab","system_id":"levelo_inurba_marseille","lat":43.273675,"lon":5.362362,"is_reserved":false,"is_disabled":false,"rental_uris":{"android":"levelo://app?vid=35bc9f5e-1ad9-467d-a54f-b70a09356aab","ios":"levelo://app?vid=35bc9f5e-1ad9-467d-a54f-b70a09356aab"},"vehicle_type_id":"4","last_reported":1750670002,"current_range_meters":11200,"station_id":"ce4bhbh2rcd13ifvqeo0","pricing_plan_id":"cebpf4jnsgd1na2vs0mg"},{"bike_id":"e8476921-82e1-4a2f-ab4e-61d6c58cdbb5","system_id":"levelo_inurba_marseille","lat":43.27368,"lon":5.36242,"is_reserved":false,"is_disabled":false,"rental_uris":{"android":"levelo://app?vid=e8476921-82e1-4a2f-ab4e-61d6c58cdbb5","ios":"levelo://app?vid=e8476921-82e1-4a2f-ab4e-61d6c58cdbb5"},"vehicle_type_id":"4","last_reported":1750670002,"current_range_meters":11200,"station_id":"ce4bhbh2rcd13ifvqeo0","pricing_plan_id":"cebpf4jnsgd1na2vs0mg"},{"bike_id":"06f4d7a9-5041-4afa-b611-ddadf6a414fe","system_id":"levelo_inurba_marseille","lat":43.28426,"lon":5.34985,"is_reserved":false,"is_disabled":false,"rental_uris":{"android":"levelo://app?vid=06f4d7a9-5041-4afa-b611-ddadf6a414fe","ios":"levelo://app?vid=06f4d7a9-5041-4afa-b611-ddadf6a414fe"},"vehicle_type_id":"4","last_reported":1750670002,"current_range_meters":11200,"station_id":"ce4bhbh2rcd13ifvqepg","pricing_plan_id":"cebpf4jnsgd1na2vs0mg"},{"bike_id":"98dfabf4-2175-476b-8e69-83a3be827842","system_id":"levelo_inurba_marseille","lat":43.32485,"lon":5.36573,"is_reserved":false,"is_disabled":false,"rental_uris":{"android":"levelo://app?vid=98dfabf4-2175-476b-8e69-83a3be827842","ios":"levelo://app?vid=98dfabf4-2175-476b-8e69-83a3be827842"},"vehicle_type_id":"4","last_reported":1750670002,"current_range_meters":11200,"station_id":"ce4bhs12rcd13ifvqhvg","pricing_plan_id":"cebpf4jnsgd1na2vs0mg"},{"bike_id":"aa6cedda-5557-49d5-ac5e-f2ecd69176d2","system_id":"levelo_inurba_marseille","lat":43.32478,"lon":5.36569,"is_reserved":false,"is_disabled":false,"rental_uris":{"android":"levelo://app?vid=aa6cedda-5557-49d5-ac5e-f2ecd69176d2","ios":"levelo://app?vid=aa6cedda-5557-49d5-ac5e-f2ecd69176d2"},"vehicle_type_id":"4","last_reported":1750670002,"current_range_meters":11200,"station_id":"ce4bhs12rcd13ifvqhvg","pricing_plan_id":"cebpf4jnsgd1na2vs0mg"},{"bike_id":"378075d1-a922-4bca-a0ca-e2e9f0b95ccc","system_id":"levelo_inurba_marseille","lat":43.32034,"lon":5.41475,"is_reserved":false,"is_disabled":false,"rental_uris":{"android":"levelo://app?vid=378075d1-a922-4bca-a0ca-e2e9f0b95ccc","ios":"levelo://app?vid=378075d1-a922-4bca-a0ca-e2e9f0b95ccc"},"vehicle_type_id":"4","last_reported":1750670002,"current_range_meters":11600,"station_id":"","pricing_plan_id":"cebpf4jnsgd1na2vs0mg"},{"bike_id":"f82e71e5-69f8-44af-b79e-842f45456e51","system_id":"levelo_inurba_marseille","lat":43.293094,"lon":5.37449,"is_reserved":false,"is_disabled":false,"rental_uris":{"android":"levelo://app?vid=f82e71e5-69f8-44af-b79e-842f45456e51","ios":"levelo://app?vid=f82e71e5-69f8-44af-b79e-842f45456e51"},"vehicle_type_id":"4","last_reported":1750670002,"current_range_meters":11600,"station_id":"ce4bgi12rcd13ifvqb70","pricing_plan_id":"cebpf4jnsgd1na2vs0mg"},{"bike_id":"97919c59-6a70-445a-87a3-a38dfac7a019","system_id":"levelo_inurba_marseille","lat":43.26934,"lon":5.38926,"is_reserved":false,"is_disabled":false,"rental_uris":{"android":"levelo://app?vid=97919c59-6a70-445a-87a3-a38dfac7a019","ios":"levelo://app?vid=97919c59-6a70-445a-87a3-a38dfac7a019"},"vehicle_type_id":"4","last_reported":1750670002,"current_range_meters":11600,"station_id":"ce4bhhh2rcd13ifvqfl0","pricing_plan_id":"cebpf4jnsgd1na2vs0mg"},{"bike_id":"9b02d498-1113-42dd-abe8-5af105b91dd7","system_id":"levelo_inurba_marseille","lat":43.320547,"lon":5.415534,"is_reserved":false,"is_disabled":false,"rental_uris":{"android":"levelo://app?vid=9b02d498-1113-42dd-abe8-5af105b91dd7","ios":"levelo://app?vid=9b02d498-1113-42dd-abe8-5af105b91dd7"},"vehicle_type_id":"4","last_reported":1750670002,"current_range_meters":11600,"station_id":"ce4bhq92rcd13ifvqhkg","pricing_plan_id":"cebpf4jnsgd1na2vs0mg"},{"bike_id":"3b951d47-daef-4f47-9b11-1cb55583c0cc","system_id":"levelo_inurba_marseille","lat":43.21202,"lon":5.350587,"is_reserved":false,"is_disabled":false,"rental_uris":{"android":"levelo://app?vid=3b951d47-daef-4f47-9b11-1cb55583c0cc","ios":"levelo://app?vid=3b951d47-daef-4f47-9b11-1cb55583c0cc"},"vehicle_type_id":"4","last_reported":1750670002,"current_range_meters":11600,"station_id":"st_cvj6sg6p6f1abm77japg","pricing_plan_id":"cebpf4jnsgd1na2vs0mg"},{"bike_id":"d7499361-9b12-4627-b69d-bf74f4915f95","system_id":"levelo_inurba_marseille","lat":43.3091,"lon":5.36843,"is_reserved":false,"is_disabled":false,"rental_uris":{"android":"levelo://app?vid=d7499361-9b12-4627-b69d-bf74f4915f95","ios":"levelo://app?vid=d7499361-9b12-4627-b69d-bf74f4915f95"},"vehicle_type_id":"4","last_reported":1750670002,"current_range_meters":12000,"station_id":"ce4bgn92rcd13ifvqbvg","pricing_plan_id":"cebpf4jnsgd1na2vs0mg"},{"bike_id":"d0d87479-9ac3-41d1-af44-484b366fdc96","system_id":"levelo_inurba_marseille","lat":43.303054,"lon":5.369014,"is_reserved":false,"is_disabled":false,"rental_uris":{"android":"levelo://app?vid=d0d87479-9ac3-41d1-af44-484b366fdc96","ios":"levelo://app?vid=d0d87479-9ac3-41d1-af44-484b366fdc96"},"vehicle_type_id":"4","last_reported":1750670002,"current_range_meters":12000,"station_id":"ce4bgqh2rcd13ifvqc5g","pricing_plan_id":"cebpf4jnsgd1na2vs0mg"},{"bike_id":"7bd56473-dea1-4f29-b88c-104ad86d781d","system_id":"levelo_inurba_marseille","lat":43.29988,"lon":5.37184,"is_reserved":false,"is_disabled":false,"rental_uris":{"android":"levelo://app?vid=7bd56473-dea1-4f29-b88c-104ad86d781d","ios":"levelo://app?vid=7bd56473-dea1-4f29-b88c-104ad86d781d"},"vehicle_type_id":"4","last_reported":1750670002,"current_range_meters":12000,"station_id":"ce4bgr92rcd13ifvqc7g","pricing_plan_id":"cebpf4jnsgd1na2vs0mg"},{"bike_id":"8e7f6436-38fe-43ac-8b10-9520518d1ffe","system_id":"levelo_inurba_marseille","lat":43.24172,"lon":5.39725,"is_reserved":false,"is_disabled":false,"rental_uris":{"android":"levelo://app?vid=8e7f6436-38fe-43ac-8b10-9520518d1ffe","ios":"levelo://app?vid=8e7f6436-38fe-43ac-8b10-9520518d1ffe"},"vehicle_type_id":"4","last_reported":1750670002,"current_range_meters":12000,"station_id":"ce4bhn12rcd13ifvqgpg","pricing_plan_id":"cebpf4jnsgd1na2vs0mg"},{"bike_id":"dcb881bc-3243-46bf-9708-9904614a9a14","system_id":"levelo_inurba_marseille","lat":43.32353,"lon":5.36739,"is_reserved":false,"is_disabled":false,"rental_uris":{"android":"levelo://app?vid=dcb881bc-3243-46bf-9708-9904614a9a14","ios":"levelo://app?vid=dcb881bc-3243-46bf-9708-9904614a9a14"},"vehicle_type_id":"4","last_reported":1750670002,"current_range_meters":12000,"station_id":"ce4bhsh2rcd13ifvqi2g","pricing_plan_id":"cebpf4jnsgd1na2vs0mg"},{"bike_id":"b121b815-4832-48cb-be5c-48bedc9fea93","system_id":"levelo_inurba_marseille","lat":43.25662,"lon":5.40975,"is_reserved":false,"is_disabled":false,"rental_uris":{"android":"levelo://app?vid=b121b815-4832-48cb-be5c-48bedc9fea93","ios":"levelo://app?vid=b121b815-4832-48cb-be5c-48bedc9fea93"},"vehicle_type_id":"4","last_reported":1750670002,"current_range_meters":12400,"station_id":"","pricing_plan_id":"cebpf4jnsgd1na2vs0mg"},{"bike_id":"bacc9864-06f7-4e1c-b403-88c23eeb6d09","system_id":"levelo_inurba_marseille","lat":43.31376,"lon":5.36712,"is_reserved":false,"is_disabled":false,"rental_uris":{"android":"levelo://app?vid=bacc9864-06f7-4e1c-b403-88c23eeb6d09","ios":"levelo://app?vid=bacc9864-06f7-4e1c-b403-88c23eeb6d09"},"vehicle_type_id":"4","last_reported":1750670002,"current_range_meters":12400,"station_id":"ce4bgr92rcd13ifvqc6g","pricing_plan_id":"cebpf4jnsgd1na2vs0mg"},{"bike_id":"8c172ab3-cdc0-451a-bacf-90b9b55412e6","system_id":"levelo_inurba_marseille","lat":43.26065,"lon":5.39394,"is_reserved":false,"is_disabled":false,"rental_uris":{"android":"levelo://app?vid=8c172ab3-cdc0-451a-bacf-90b9b55412e6","ios":"levelo://app?vid=8c172ab3-cdc0-451a-bacf-90b9b55412e6"},"vehicle_type_id":"4","last_reported":1750670002,"current_range_meters":12400,"station_id":"ce4bhh92rcd13ifvqfj0","pricing_plan_id":"cebpf4jnsgd1na2vs0mg"},{"bike_id":"b210dfcc-1e87-428b-bace-9372fa7a5c78","system_id":"levelo_inurba_marseille","lat":43.30536,"lon":5.36539,"is_reserved":false,"is_disabled":false,"rental_uris":{"android":"levelo://app?vid=b210dfcc-1e87-428b-bace-9372fa7a5c78","ios":"levelo://app?vid=b210dfcc-1e87-428b-bace-9372fa7a5c78"},"vehicle_type_id":"4","last_reported":1750670002,"current_range_meters":12800,"station_id":"ce4bgs12rcd13ifvqcag","pricing_plan_id":"cebpf4jnsgd1na2vs0mg"},{"bike_id":"f8a794fe-6dce-4917-b984-535bf4ce31c0","system_id":"levelo_inurba_marseille","lat":43.27365,"lon":5.36255,"is_reserved":false,"is_disabled":false,"rental_uris":{"android":"levelo://app?vid=f8a794fe-6dce-4917-b984-535bf4ce31c0","ios":"levelo://app?vid=f8a794fe-6dce-4917-b984-535bf4ce31c0"},"vehicle_type_id":"4","last_reported":1750670002,"current_range_meters":12800,"station_id":"ce4bhbh2rcd13ifvqeo0","pricing_plan_id":"cebpf4jnsgd1na2vs0mg"},{"bike_id":"38c0c8cc-ef76-4205-b8bb-244b193d7bf4","system_id":"levelo_inurba_marseille","lat":43.286102,"lon":5.351145,"is_reserved":false,"is_disabled":false,"rental_uris":{"android":"levelo://app?vid=38c0c8cc-ef76-4205-b8bb-244b193d7bf4","ios":"levelo://app?vid=38c0c8cc-ef76-4205-b8bb-244b193d7bf4"},"vehicle_type_id":"4","last_reported":1750670002,"current_range_meters":12800,"station_id":"ce4bhch2rcd13ifvqeug","pricing_plan_id":"cebpf4jnsgd1na2vs0mg"},{"bike_id":"f5034077-3faa-4d50-869d-947af8a5f650","system_id":"levelo_inurba_marseille","lat":43.26555,"lon":5.37288,"is_reserved":false,"is_disabled":false,"rental_uris":{"android":"levelo://app?vid=f5034077-3faa-4d50-869d-947af8a5f650","ios":"levelo://app?vid=f5034077-3faa-4d50-869d-947af8a5f650"},"vehicle_type_id":"4","last_reported":1750670002,"current_range_meters":12800,"station_id":"ce4bhg12rcd13ifvqf70","pricing_plan_id":"cebpf4jnsgd1na2vs0mg"},{"bike_id":"eb3f47e2-d374-4f7f-b0a7-967e79166a5f","system_id":"levelo_inurba_marseille","lat":43.26025,"lon":5.37556,"is_reserved":false,"is_disabled":false,"rental_uris":{"android":"levelo://app?vid=eb3f47e2-d374-4f7f-b0a7-967e79166a5f","ios":"levelo://app?vid=eb3f47e2-d374-4f7f-b0a7-967e79166a5f"},"vehicle_type_id":"4","last_reported":1750670002,"current_range_meters":12800,"station_id":"ce4bhgh2rcd13ifvqfa0","pricing_plan_id":"cebpf4jnsgd1na2vs0mg"},{"bike_id":"cd74af28-79fa-44d7-bfb3-a63961abcf07","system_id":"levelo_inurba_marseille","lat":43.34143,"lon":5.40908,"is_reserved":false,"is_disabled":false,"rental_uris":{"android":"levelo://app?vid=cd74af28-79fa-44d7-bfb3-a63961abcf07","ios":"levelo://app?vid=cd74af28-79fa-44d7-bfb3-a63961abcf07"},"vehicle_type_id":"4","last_reported":1750670002,"current_range_meters":12800,"station_id":"ce4bhqh2rcd13ifvqhlg","pricing_plan_id":"cebpf4jnsgd1na2vs0mg"},{"bike_id":"22a4ec73-cb52-48c4-b07d-baaf19e4a6d8","system_id":"levelo_inurba_marseille","lat":43.32103,"lon":5.36787,"is_reserved":false,"is_disabled":false,"rental_uris":{"android":"levelo://app?vid=22a4ec73-cb52-48c4-b07d-baaf19e4a6d8","ios":"levelo://app?vid=22a4ec73-cb52-48c4-b07d-baaf19e4a6d8"},"vehicle_type_id":"4","last_reported":1750670002,"current_range_meters":12800,"station_id":"ce4bhrh2rcd13ifvqhug","pricing_plan_id":"cebpf4jnsgd1na2vs0mg"},{"bike_id":"55d9bcbf-b939-43f2-918a-7570d320ab56","system_id":"levelo_inurba_marseille","lat":43.31056,"lon":5.401,"is_reserved":false,"is_disabled":false,"rental_uris":{"android":"levelo://app?vid=55d9bcbf-b939-43f2-918a-7570d320ab56","ios":"levelo://app?vid=55d9bcbf-b939-43f2-918a-7570d320ab56"},"vehicle_type_id":"4","last_reported":1750670002,"current_range_meters":13600,"station_id":"","pricing_plan_id":"cebpf4jnsgd1na2vs0mg"},{"bike_id":"1e0c60e1-43c3-4b9b-9446-e89ae26c50bd","system_id":"levelo_inurba_marseille","lat":43.31356,"lon":5.36749,"is_reserved":false,"is_disabled":false,"rental_uris":{"android":"levelo://app?vid=1e0c60e1-43c3-4b9b-9446-e89ae26c50bd","ios":"levelo://app?vid=1e0c60e1-43c3-4b9b-9446-e89ae26c50bd"},"vehicle_type_id":"4","last_reported":1750670002,"current_range_meters":13600,"station_id":"ce4bgr92rcd13ifvqc6g","pricing_plan_id":"cebpf4jnsgd1na2vs0mg"},{"bike_id":"66c7a817-1ec9-4993-bf9b-757522173bd1","system_id":"levelo_inurba_marseille","lat":43.23156,"lon":5.43703,"is_reserved":false,"is_disabled":false,"rental_uris":{"android":"levelo://app?vid=66c7a817-1ec9-4993-bf9b-757522173bd1","ios":"levelo://app?vid=66c7a817-1ec9-4993-bf9b-757522173bd1"},"vehicle_type_id":"4","last_reported":1750670002,"current_range_meters":13600,"station_id":"ce4bhmp2rcd13ifvqgog","pricing_plan_id":"cebpf4jnsgd1na2vs0mg"},{"bike_id":"c3e15283-80d1-4c33-b077-2c8f6ff3bb4c","system_id":"levelo_inurba_marseille","lat":43.27983,"lon":5.41662,"is_reserved":false,"is_disabled":false,"rental_uris":{"android":"levelo://app?vid=c3e15283-80d1-4c33-b077-2c8f6ff3bb4c","ios":"levelo://app?vid=c3e15283-80d1-4c33-b077-2c8f6ff3bb4c"},"vehicle_type_id":"4","last_reported":1750670002,"current_range_meters":13600,"station_id":"ce4bho12rcd13ifvqh1g","pricing_plan_id":"cebpf4jnsgd1na2vs0mg"},{"bike_id":"9a92f04c-8580-45e6-8177-eef468f86f11","system_id":"levelo_inurba_marseille","lat":43.32371,"lon":5.36759,"is_reserved":false,"is_disabled":false,"rental_uris":{"android":"levelo://app?vid=9a92f04c-8580-45e6-8177-eef468f86f11","ios":"levelo://app?vid=9a92f04c-8580-45e6-8177-eef468f86f11"},"vehicle_type_id":"4","last_reported":1750670002,"current_range_meters":13600,"station_id":"ce4bhsh2rcd13ifvqi2g","pricing_plan_id":"cebpf4jnsgd1na2vs0mg"},{"bike_id":"723f5d56-ac33-4c94-8bb8-ee4c6dc93f60","system_id":"levelo_inurba_marseille","lat":43.229378,"lon":5.353758,"is_reserved":false,"is_disabled":false,"rental_uris":{"android":"levelo://app?vid=723f5d56-ac33-4c94-8bb8-ee4c6dc93f60","ios":"levelo://app?vid=723f5d56-ac33-4c94-8bb8-ee4c6dc93f60"},"vehicle_type_id":"4","last_reported":1750670002,"current_range_meters":13600,"station_id":"cpo3532slgdg3j2ikp40","pricing_plan_id":"cebpf4jnsgd1na2vs0mg"},{"bike_id":"e7b22065-e236-464e-9f73-5ee164189105","system_id":"levelo_inurba_marseille","lat":43.231932,"lon":5.355515,"is_reserved":false,"is_disabled":false,"rental_uris":{"android":"levelo://app?vid=e7b22065-e236-464e-9f73-5ee164189105","ios":"levelo://app?vid=e7b22065-e236-464e-9f73-5ee164189105"},"vehicle_type_id":"4","last_reported":1750670002,"current_range_meters":14000,"station_id":"","pricing_plan_id":"cebpf4jnsgd1na2vs0mg"},{"bike_id":"2d8309dc-864a-42ff-b64b-a09d6454ec0a","system_id":"levelo_inurba_marseille","lat":43.25925,"lon":5.409,"is_reserved":false,"is_disabled":false,"rental_uris":{"android":"levelo://app?vid=2d8309dc-864a-42ff-b64b-a09d6454ec0a","ios":"levelo://app?vid=2d8309dc-864a-42ff-b64b-a09d6454ec0a"},"vehicle_type_id":"4","last_reported":1750670002,"current_range_meters":14000,"station_id":"ce4bhm92rcd13ifvqglg","pricing_plan_id":"cebpf4jnsgd1na2vs0mg"},{"bike_id":"43116ff9-80f0-43cb-8857-361e0a9eb2ae","system_id":"levelo_inurba_marseille","lat":43.28847,"lon":5.39335,"is_reserved":false,"is_disabled":false,"rental_uris":{"android":"levelo://app?vid=43116ff9-80f0-43cb-8857-361e0a9eb2ae","ios":"levelo://app?vid=43116ff9-80f0-43cb-8857-361e0a9eb2ae"},"vehicle_type_id":"4","last_reported":1750670002,"current_range_meters":14400,"station_id":"ce4bh2p2rcd13ifvqdi0","pricing_plan_id":"cebpf4jnsgd1na2vs0mg"},{"bike_id":"4cfa7c69-cde4-41ca-a232-3d0b10214452","system_id":"levelo_inurba_marseille","lat":43.27903,"lon":5.38741,"is_reserved":false,"is_disabled":false,"rental_uris":{"android":"levelo://app?vid=4cfa7c69-cde4-41ca-a232-3d0b10214452","ios":"levelo://app?vid=4cfa7c69-cde4-41ca-a232-3d0b10214452"},"vehicle_type_id":"4","last_reported":1750670002,"current_range_meters":14400,"station_id":"ce4bhg12rcd13ifvqf80","pricing_plan_id":"cebpf4jnsgd1na2vs0mg"},{"bike_id":"e05346c1-82fd-428b-8024-1771643030e6","system_id":"levelo_inurba_marseille","lat":43.22777,"lon":5.35196,"is_reserved":false,"is_disabled":false,"rental_uris":{"android":"levelo://app?vid=e05346c1-82fd-428b-8024-1771643030e6","ios":"levelo://app?vid=e05346c1-82fd-428b-8024-1771643030e6"},"vehicle_type_id":"4","last_reported":1750670002,"current_range_meters":14800,"station_id":"","pricing_plan_id":"cebpf4jnsgd1na2vs0mg"},{"bike_id":"5013ef4a-f658-4678-8b0a-cad8347f421f","system_id":"levelo_inurba_marseille","lat":43.2761,"lon":5.36111,"is_reserved":false,"is_disabled":false,"rental_uris":{"android":"levelo://app?vid=5013ef4a-f658-4678-8b0a-cad8347f421f","ios":"levelo://app?vid=5013ef4a-f658-4678-8b0a-cad8347f421f"},"vehicle_type_id":"4","last_reported":1750670002,"current_range_meters":14800,"station_id":"ce4bgj92rcd13ifvqbe0","pricing_plan_id":"cebpf4jnsgd1na2vs0mg"},{"bike_id":"f294a54f-d207-452a-8419-83628c2de99d","system_id":"levelo_inurba_marseille","lat":43.30466,"lon":5.37909,"is_reserved":false,"is_disabled":false,"rental_uris":{"android":"levelo://app?vid=f294a54f-d207-452a-8419-83628c2de99d","ios":"levelo://app?vid=f294a54f-d207-452a-8419-83628c2de99d"},"vehicle_type_id":"4","last_reported":1750670002,"current_range_meters":14800,"station_id":"ce4bgup2rcd13ifvqcn0","pricing_plan_id":"cebpf4jnsgd1na2vs0mg"},{"bike_id":"538c79ae-043f-4ef5-87e0-ac4a3f0cc412","system_id":"levelo_inurba_marseille","lat":43.32483,"lon":5.36568,"is_reserved":false,"is_disabled":false,"rental_uris":{"android":"levelo://app?vid=538c79ae-043f-4ef5-87e0-ac4a3f0cc412","ios":"levelo://app?vid=538c79ae-043f-4ef5-87e0-ac4a3f0cc412"},"vehicle_type_id":"4","last_reported":1750670002,"current_range_meters":14800,"station_id":"ce4bhs12rcd13ifvqhvg","pricing_plan_id":"cebpf4jnsgd1na2vs0mg"},{"bike_id":"a69156ca-7afd-4760-8d18-8e2581fdad03","system_id":"levelo_inurba_marseille","lat":43.22933,"lon":5.35377,"is_reserved":false,"is_disabled":false,"rental_uris":{"android":"levelo://app?vid=a69156ca-7afd-4760-8d18-8e2581fdad03","ios":"levelo://app?vid=a69156ca-7afd-4760-8d18-8e2581fdad03"},"vehicle_type_id":"4","last_reported":1750670002,"current_range_meters":14800,"station_id":"cpo3532slgdg3j2ikp40","pricing_plan_id":"cebpf4jnsgd1na2vs0mg"},{"bike_id":"cccc2c5b-b94f-4f26-9a91-a82a0f70591d","system_id":"levelo_inurba_marseille","lat":43.29523,"lon":5.39048,"is_reserved":false,"is_disabled":false,"rental_uris":{"android":"levelo://app?vid=cccc2c5b-b94f-4f26-9a91-a82a0f70591d","ios":"levelo://app?vid=cccc2c5b-b94f-4f26-9a91-a82a0f70591d"},"vehicle_type_id":"4","last_reported":1750670002,"current_range_meters":15200,"station_id":"ce4bh3p2rcd13ifvqdp0","pricing_plan_id":"cebpf4jnsgd1na2vs0mg"},{"bike_id":"ccb2270f-0a64-4c4d-9766-821d28478299","system_id":"levelo_inurba_marseille","lat":43.28616,"lon":5.35108,"is_reserved":false,"is_disabled":false,"rental_uris":{"android":"levelo://app?vid=ccb2270f-0a64-4c4d-9766-821d28478299","ios":"levelo://app?vid=ccb2270f-0a64-4c4d-9766-821d28478299"},"vehicle_type_id":"4","last_reported":1750670002,"current_range_meters":15200,"station_id":"ce4bhch2rcd13ifvqeug","pricing_plan_id":"cebpf4jnsgd1na2vs0mg"},{"bike_id":"3872daed-2eb9-4f74-8f6b-07f4619409ca","system_id":"levelo_inurba_marseille","lat":43.24173,"lon":5.39708,"is_reserved":false,"is_disabled":false,"rental_uris":{"android":"levelo://app?vid=3872daed-2eb9-4f74-8f6b-07f4619409ca","ios":"levelo://app?vid=3872daed-2eb9-4f74-8f6b-07f4619409ca"},"vehicle_type_id":"4","last_reported":1750670002,"current_range_meters":15200,"station_id":"ce4bhn12rcd13ifvqgpg","pricing_plan_id":"cebpf4jnsgd1na2vs0mg"},{"bike_id":"9ad43fe6-1b49-4ea3-9f06-a5733a9a82aa","system_id":"levelo_inurba_marseille","lat":43.211924,"lon":5.350714,"is_reserved":false,"is_disabled":false,"rental_uris":{"android":"levelo://app?vid=9ad43fe6-1b49-4ea3-9f06-a5733a9a82aa","ios":"levelo://app?vid=9ad43fe6-1b49-4ea3-9f06-a5733a9a82aa"},"vehicle_type_id":"4","last_reported":1750670002,"current_range_meters":16000,"station_id":"","pricing_plan_id":"cebpf4jnsgd1na2vs0mg"},{"bike_id":"d1e50195-3b98-4355-8033-d7cc97e2d52d","system_id":"levelo_inurba_marseille","lat":43.34641,"lon":5.3666,"is_reserved":false,"is_disabled":false,"rental_uris":{"android":"levelo://app?vid=d1e50195-3b98-4355-8033-d7cc97e2d52d","ios":"levelo://app?vid=d1e50195-3b98-4355-8033-d7cc97e2d52d"},"vehicle_type_id":"4","last_reported":1750670002,"current_range_meters":16000,"station_id":"","pricing_plan_id":"cebpf4jnsgd1na2vs0mg"},{"bike_id":"48b62853-1baa-42c7-aeab-99152b5dfc89","system_id":"levelo_inurba_marseille","lat":43.3176,"lon":5.43729,"is_reserved":false,"is_disabled":false,"rental_uris":{"android":"levelo://app?vid=48b62853-1baa-42c7-aeab-99152b5dfc89","ios":"levelo://app?vid=48b62853-1baa-42c7-aeab-99152b5dfc89"},"vehicle_type_id":"4","last_reported":1750670002,"current_range_meters":16000,"station_id":"","pricing_plan_id":"cebpf4jnsgd1na2vs0mg"},{"bike_id":"bb601b20-878b-4e0e-b160-de7c4dcabe09","system_id":"levelo_inurba_marseille","lat":43.30146,"lon":5.37404,"is_reserved":false,"is_disabled":false,"rental_uris":{"android":"levelo://app?vid=bb601b20-878b-4e0e-b160-de7c4dcabe09","ios":"levelo://app?vid=bb601b20-878b-4e0e-b160-de7c4dcabe09"},"vehicle_type_id":"4","last_reported":1750670002,"current_range_meters":16000,"station_id":"ce4bgs92rcd13ifvqcc0","pricing_plan_id":"cebpf4jnsgd1na2vs0mg"},{"bike_id":"1c59545c-f22b-43d8-8a60-757e39568826","system_id":"levelo_inurba_marseille","lat":43.29071,"lon":5.37168,"is_reserved":false,"is_disabled":false,"rental_uris":{"android":"levelo://app?vid=1c59545c-f22b-43d8-8a60-757e39568826","ios":"levelo://app?vid=1c59545c-f22b-43d8-8a60-757e39568826"},"vehicle_type_id":"4","last_reported":1750670002,"current_range_meters":16000,"station_id":"ce4bh5p2rcd13ifvqe4g","pricing_plan_id":"cebpf4jnsgd1na2vs0mg"},{"bike_id":"dcb10811-af0c-4a83-a2ce-c0bcfa4230a2","system_id":"levelo_inurba_marseille","lat":43.28417,"lon":5.34998,"is_reserved":false,"is_disabled":false,"rental_uris":{"android":"levelo://app?vid=dcb10811-af0c-4a83-a2ce-c0bcfa4230a2","ios":"levelo://app?vid=dcb10811-af0c-4a83-a2ce-c0bcfa4230a2"},"vehicle_type_id":"4","last_reported":1750670002,"current_range_meters":16000,"station_id":"ce4bhbh2rcd13ifvqepg","pricing_plan_id":"cebpf4jnsgd1na2vs0mg"},{"bike_id":"6a42d39f-0bd8-482c-bccc-97f7d0f86db8","system_id":"levelo_inurba_marseille","lat":43.23152,"lon":5.43715,"is_reserved":false,"is_disabled":false,"rental_uris":{"android":"levelo://app?vid=6a42d39f-0bd8-482c-bccc-97f7d0f86db8","ios":"levelo://app?vid=6a42d39f-0bd8-482c-bccc-97f7d0f86db8"},"vehicle_type_id":"4","last_reported":1750670002,"current_range_meters":16000,"station_id":"ce4bhmp2rcd13ifvqgog","pricing_plan_id":"cebpf4jnsgd1na2vs0mg"},{"bike_id":"e3c98ea9-5ede-4f57-8f11-2e25041a9538","system_id":"levelo_inurba_marseille","lat":43.299006,"lon":5.436636,"is_reserved":false,"is_disabled":false,"rental_uris":{"android":"levelo://app?vid=e3c98ea9-5ede-4f57-8f11-2e25041a9538","ios":"levelo://app?vid=e3c98ea9-5ede-4f57-8f11-2e25041a9538"},"vehicle_type_id":"4","last_reported":1750670002,"current_range_meters":16000,"station_id":"ce4bhpp2rcd13ifvqhfg","pricing_plan_id":"cebpf4jnsgd1na2vs0mg"},{"bike_id":"0783249e-9f70-464a-b769-adb77239d765","system_id":"levelo_inurba_marseille","lat":43.211936,"lon":5.350706,"is_reserved":false,"is_disabled":false,"rental_uris":{"android":"levelo://app?vid=0783249e-9f70-464a-b769-adb77239d765","ios":"levelo://app?vid=0783249e-9f70-464a-b769-adb77239d765"},"vehicle_type_id":"4","last_reported":1750670002,"current_range_meters":16000,"station_id":"st_cvj6sg6p6f1abm77japg","pricing_plan_id":"cebpf4jnsgd1na2vs0mg"},{"bike_id":"119a8b0d-440b-4b59-878b-8fe305fd89f2","system_id":"levelo_inurba_marseille","lat":43.29843,"lon":5.36257,"is_reserved":false,"is_disabled":false,"rental_uris":{"android":"levelo://app?vid=119a8b0d-440b-4b59-878b-8fe305fd89f2","ios":"levelo://app?vid=119a8b0d-440b-4b59-878b-8fe305fd89f2"},"vehicle_type_id":"4","last_reported":1750670002,"current_range_meters":16400,"station_id":"ce4bgpp2rcd13ifvqc3g","pricing_plan_id":"cebpf4jnsgd1na2vs0mg"},{"bike_id":"b4f5d3e1-0e1d-48d4-b52a-49f3fb777ccb","system_id":"levelo_inurba_marseille","lat":43.31371,"lon":5.36727,"is_reserved":false,"is_disabled":false,"rental_uris":{"android":"levelo://app?vid=b4f5d3e1-0e1d-48d4-b52a-49f3fb777ccb","ios":"levelo://app?vid=b4f5d3e1-0e1d-48d4-b52a-49f3fb777ccb"},"vehicle_type_id":"4","last_reported":1750670002,"current_range_meters":16400,"station_id":"ce4bgr92rcd13ifvqc6g","pricing_plan_id":"cebpf4jnsgd1na2vs0mg"},{"bike_id":"6f0bc170-6cf3-4a19-8074-e0a1e2285ec2","system_id":"levelo_inurba_marseille","lat":43.24801,"lon":5.37455,"is_reserved":false,"is_disabled":false,"rental_uris":{"android":"levelo://app?vid=6f0bc170-6cf3-4a19-8074-e0a1e2285ec2","ios":"levelo://app?vid=6f0bc170-6cf3-4a19-8074-e0a1e2285ec2"},"vehicle_type_id":"4","last_reported":1750670002,"current_range_meters":16400,"station_id":"ce4bhgh2rcd13ifvqfb0","pricing_plan_id":"cebpf4jnsgd1na2vs0mg"},{"bike_id":"af42421a-66e5-48bb-bded-481fb6ff5aa8","system_id":"levelo_inurba_marseille","lat":43.234721,"lon":5.399134,"is_reserved":false,"is_disabled":false,"rental_uris":{"android":"levelo://app?vid=af42421a-66e5-48bb-bded-481fb6ff5aa8","ios":"levelo://app?vid=af42421a-66e5-48bb-bded-481fb6ff5aa8"},"vehicle_type_id":"4","last_reported":1750670002,"current_range_meters":16400,"station_id":"ce4bhn12rcd13ifvqgqg","pricing_plan_id":"cebpf4jnsgd1na2vs0mg"},{"bike_id":"04158eac-6850-4747-9bef-79c99c5778cb","system_id":"levelo_inurba_marseille","lat":43.324792,"lon":5.365756,"is_reserved":false,"is_disabled":false,"rental_uris":{"android":"levelo://app?vid=04158eac-6850-4747-9bef-79c99c5778cb","ios":"levelo://app?vid=04158eac-6850-4747-9bef-79c99c5778cb"},"vehicle_type_id":"4","last_reported":1750670002,"current_range_meters":16400,"station_id":"ce4bhs12rcd13ifvqhvg","pricing_plan_id":"cebpf4jnsgd1na2vs0mg"},{"bike_id":"9213f417-38fe-4ac6-ba73-fa7495d6b748","system_id":"levelo_inurba_marseille","lat":43.24166,"lon":5.36403,"is_reserved":false,"is_disabled":false,"rental_uris":{"android":"levelo://app?vid=9213f417-38fe-4ac6-ba73-fa7495d6b748","ios":"levelo://app?vid=9213f417-38fe-4ac6-ba73-fa7495d6b748"},"vehicle_type_id":"4","last_reported":1750670002,"current_range_meters":16400,"station_id":"cpo36qri1sfpv3e86is0","pricing_plan_id":"cebpf4jnsgd1na2vs0mg"},{"bike_id":"3f5feefb-afac-4fae-bf96-2312f50939a4","system_id":"levelo_inurba_marseille","lat":43.211936,"lon":5.350687,"is_reserved":false,"is_disabled":false,"rental_uris":{"android":"levelo://app?vid=3f5feefb-afac-4fae-bf96-2312f50939a4","ios":"levelo://app?vid=3f5feefb-afac-4fae-bf96-2312f50939a4"},"vehicle_type_id":"4","last_reported":1750670002,"current_range_meters":16400,"station_id":"st_cvj6sg6p6f1abm77japg","pricing_plan_id":"cebpf4jnsgd1na2vs0mg"},{"bike_id":"008ac6e0-b1cf-4c53-9fc8-3bdb2303addb","system_id":"levelo_inurba_marseille","lat":43.29317,"lon":5.38169,"is_reserved":false,"is_disabled":false,"rental_uris":{"android":"levelo://app?vid=008ac6e0-b1cf-4c53-9fc8-3bdb2303addb","ios":"levelo://app?vid=008ac6e0-b1cf-4c53-9fc8-3bdb2303addb"},"vehicle_type_id":"4","last_reported":1750670002,"current_range_meters":16800,"station_id":"","pricing_plan_id":"cebpf4jnsgd1na2vs0mg"},{"bike_id":"b571b3ac-b052-463f-86b2-86955416752f","system_id":"levelo_inurba_marseille","lat":43.31219,"lon":5.36896,"is_reserved":false,"is_disabled":false,"rental_uris":{"android":"levelo://app?vid=b571b3ac-b052-463f-86b2-86955416752f","ios":"levelo://app?vid=b571b3ac-b052-463f-86b2-86955416752f"},"vehicle_type_id":"4","last_reported":1750670002,"current_range_meters":16800,"station_id":"ce4bgl92rcd13ifvqbq0","pricing_plan_id":"cebpf4jnsgd1na2vs0mg"},{"bike_id":"709c1451-0f01-4113-a733-ed7dbe8abbe7","system_id":"levelo_inurba_marseille","lat":43.305481,"lon":5.365464,"is_reserved":false,"is_disabled":false,"rental_uris":{"android":"levelo://app?vid=709c1451-0f01-4113-a733-ed7dbe8abbe7","ios":"levelo://app?vid=709c1451-0f01-4113-a733-ed7dbe8abbe7"},"vehicle_type_id":"4","last_reported":1750670002,"current_range_meters":16800,"station_id":"ce4bgs12rcd13ifvqcag","pricing_plan_id":"cebpf4jnsgd1na2vs0mg"},{"bike_id":"1a19377d-4d77-4074-b315-29c0f9399f9c","system_id":"levelo_inurba_marseille","lat":43.30461,"lon":5.37903,"is_reserved":false,"is_disabled":false,"rental_uris":{"android":"levelo://app?vid=1a19377d-4d77-4074-b315-29c0f9399f9c","ios":"levelo://app?vid=1a19377d-4d77-4074-b315-29c0f9399f9c"},"vehicle_type_id":"4","last_reported":1750670002,"current_range_meters":16800,"station_id":"ce4bgup2rcd13ifvqcn0","pricing_plan_id":"cebpf4jnsgd1na2vs0mg"},{"bike_id":"fe2a2d4a-051e-41dd-ad3f-6bc90e3cba78","system_id":"levelo_inurba_marseille","lat":43.28267,"lon":5.35066,"is_reserved":false,"is_disabled":false,"rental_uris":{"android":"levelo://app?vid=fe2a2d4a-051e-41dd-ad3f-6bc90e3cba78","ios":"levelo://app?vid=fe2a2d4a-051e-41dd-ad3f-6bc90e3cba78"},"vehicle_type_id":"4","last_reported":1750670002,"current_range_meters":16800,"station_id":"ce4bhbp2rcd13ifvqerg","pricing_plan_id":"cebpf4jnsgd1na2vs0mg"},{"bike_id":"c0b3b047-0a1d-447b-abc5-e14c12a1bbc6","system_id":"levelo_inurba_marseille","lat":43.26696,"lon":5.38264,"is_reserved":false,"is_disabled":false,"rental_uris":{"android":"levelo://app?vid=c0b3b047-0a1d-447b-abc5-e14c12a1bbc6","ios":"levelo://app?vid=c0b3b047-0a1d-447b-abc5-e14c12a1bbc6"},"vehicle_type_id":"4","last_reported":1750670002,"current_range_meters":16800,"station_id":"ce4bhg92rcd13ifvqf90","pricing_plan_id":"cebpf4jnsgd1na2vs0mg"},{"bike_id":"d3b4acd1-475d-43e1-bb04-3b5b22c96457","system_id":"levelo_inurba_marseille","lat":43.298969,"lon":5.436706,"is_reserved":false,"is_disabled":false,"rental_uris":{"android":"levelo://app?vid=d3b4acd1-475d-43e1-bb04-3b5b22c96457","ios":"levelo://app?vid=d3b4acd1-475d-43e1-bb04-3b5b22c96457"},"vehicle_type_id":"4","last_reported":1750670002,"current_range_meters":16800,"station_id":"ce4bhpp2rcd13ifvqhfg","pricing_plan_id":"cebpf4jnsgd1na2vs0mg"},{"bike_id":"b8dd004e-4f1d-46e6-acd9-b6be87131387","system_id":"levelo_inurba_marseille","lat":43.32481,"lon":5.36553,"is_reserved":false,"is_disabled":false,"rental_uris":{"android":"levelo://app?vid=b8dd004e-4f1d-46e6-acd9-b6be87131387","ios":"levelo://app?vid=b8dd004e-4f1d-46e6-acd9-b6be87131387"},"vehicle_type_id":"4","last_reported":1750670002,"current_range_meters":16800,"station_id":"ce4bhs12rcd13ifvqhvg","pricing_plan_id":"cebpf4jnsgd1na2vs0mg"},{"bike_id":"e77b75b6-d130-43a3-abb4-254740d44e61","system_id":"levelo_inurba_marseille","lat":43.24162,"lon":5.36388,"is_reserved":false,"is_disabled":false,"rental_uris":{"android":"levelo://app?vid=e77b75b6-d130-43a3-abb4-254740d44e61","ios":"levelo://app?vid=e77b75b6-d130-43a3-abb4-254740d44e61"},"vehicle_type_id":"4","last_reported":1750670002,"current_range_meters":16800,"station_id":"cpo36qri1sfpv3e86is0","pricing_plan_id":"cebpf4jnsgd1na2vs0mg"},{"bike_id":"9be9f551-ccbc-4b74-87bd-155527b427b8","system_id":"levelo_inurba_marseille","lat":43.30906,"lon":5.36819,"is_reserved":false,"is_disabled":false,"rental_uris":{"android":"levelo://app?vid=9be9f551-ccbc-4b74-87bd-155527b427b8","ios":"levelo://app?vid=9be9f551-ccbc-4b74-87bd-155527b427b8"},"vehicle_type_id":"4","last_reported":1750670002,"current_range_meters":17200,"station_id":"ce4bgn92rcd13ifvqbvg","pricing_plan_id":"cebpf4jnsgd1na2vs0mg"},{"bike_id":"fbd0b782-429b-43bb-8841-44d7d21a8d6a","system_id":"levelo_inurba_marseille","lat":43.30544,"lon":5.36536,"is_reserved":false,"is_disabled":false,"rental_uris":{"android":"levelo://app?vid=fbd0b782-429b-43bb-8841-44d7d21a8d6a","ios":"levelo://app?vid=fbd0b782-429b-43bb-8841-44d7d21a8d6a"},"vehicle_type_id":"4","last_reported":1750670002,"current_range_meters":17200,"station_id":"ce4bgs12rcd13ifvqcag","pricing_plan_id":"cebpf4jnsgd1na2vs0mg"},{"bike_id":"94010bc6-236f-46ca-8bb2-635011116b3b","system_id":"levelo_inurba_marseille","lat":43.29037,"lon":5.37575,"is_reserved":false,"is_disabled":false,"rental_uris":{"android":"levelo://app?vid=94010bc6-236f-46ca-8bb2-635011116b3b","ios":"levelo://app?vid=94010bc6-236f-46ca-8bb2-635011116b3b"},"vehicle_type_id":"4","last_reported":1750670002,"current_range_meters":17200,"station_id":"ce4bh692rcd13ifvqe90","pricing_plan_id":"cebpf4jnsgd1na2vs0mg"},{"bike_id":"c408c062-199b-4921-b546-a1eb903aabb8","system_id":"levelo_inurba_marseille","lat":43.23956,"lon":5.36641,"is_reserved":false,"is_disabled":false,"rental_uris":{"android":"levelo://app?vid=c408c062-199b-4921-b546-a1eb903aabb8","ios":"levelo://app?vid=c408c062-199b-4921-b546-a1eb903aabb8"},"vehicle_type_id":"4","last_reported":1750670002,"current_range_meters":17200,"station_id":"ce4bhi12rcd13ifvqfp0","pricing_plan_id":"cebpf4jnsgd1na2vs0mg"},{"bike_id":"66fe660e-bbbe-4cd1-b5fb-9344c71cb66e","system_id":"levelo_inurba_marseille","lat":43.21193,"lon":5.350687,"is_reserved":false,"is_disabled":false,"rental_uris":{"android":"levelo://app?vid=66fe660e-bbbe-4cd1-b5fb-9344c71cb66e","ios":"levelo://app?vid=66fe660e-bbbe-4cd1-b5fb-9344c71cb66e"},"vehicle_type_id":"4","last_reported":1750670002,"current_range_meters":17200,"station_id":"st_cvj6sg6p6f1abm77japg","pricing_plan_id":"cebpf4jnsgd1na2vs0mg"},{"bike_id":"74e71205-8254-41c9-a635-f231406f8a85","system_id":"levelo_inurba_marseille","lat":43.291979,"lon":5.358054,"is_reserved":false,"is_disabled":false,"rental_uris":{"android":"levelo://app?vid=74e71205-8254-41c9-a635-f231406f8a85","ios":"levelo://app?vid=74e71205-8254-41c9-a635-f231406f8a85"},"vehicle_type_id":"4","last_reported":1750670002,"current_range_meters":17600,"station_id":"","pricing_plan_id":"cebpf4jnsgd1na2vs0mg"},{"bike_id":"7bd7ab6e-0284-4340-acb8-397b5bd3427c","system_id":"levelo_inurba_marseille","lat":43.320205,"lon":5.368098,"is_reserved":false,"is_disabled":false,"rental_uris":{"android":"levelo://app?vid=7bd7ab6e-0284-4340-acb8-397b5bd3427c","ios":"levelo://app?vid=7bd7ab6e-0284-4340-acb8-397b5bd3427c"},"vehicle_type_id":"4","last_reported":1750670002,"current_range_meters":17600,"station_id":"","pricing_plan_id":"cebpf4jnsgd1na2vs0mg"},{"bike_id":"f21c6ef9-e66d-4b1f-a3fc-328207bfbad1","system_id":"levelo_inurba_marseille","lat":43.30537,"lon":5.36713,"is_reserved":false,"is_disabled":false,"rental_uris":{"android":"levelo://app?vid=f21c6ef9-e66d-4b1f-a3fc-328207bfbad1","ios":"levelo://app?vid=f21c6ef9-e66d-4b1f-a3fc-328207bfbad1"},"vehicle_type_id":"4","last_reported":1750670002,"current_range_meters":17600,"station_id":"ce4bgrp2rcd13ifvqc9g","pricing_plan_id":"cebpf4jnsgd1na2vs0mg"},{"bike_id":"af8ac115-b126-43d0-8dc2-1ca55684e741","system_id":"levelo_inurba_marseille","lat":43.28424,"lon":5.34989,"is_reserved":false,"is_disabled":false,"rental_uris":{"android":"levelo://app?vid=af8ac115-b126-43d0-8dc2-1ca55684e741","ios":"levelo://app?vid=af8ac115-b126-43d0-8dc2-1ca55684e741"},"vehicle_type_id":"4","last_reported":1750670002,"current_range_meters":17600,"station_id":"ce4bhbh2rcd13ifvqepg","pricing_plan_id":"cebpf4jnsgd1na2vs0mg"},{"bike_id":"d365761f-c69b-4bc1-840c-adcaaf873845","system_id":"levelo_inurba_marseille","lat":43.29893,"lon":5.43674,"is_reserved":false,"is_disabled":false,"rental_uris":{"android":"levelo://app?vid=d365761f-c69b-4bc1-840c-adcaaf873845","ios":"levelo://app?vid=d365761f-c69b-4bc1-840c-adcaaf873845"},"vehicle_type_id":"4","last_reported":1750670002,"current_range_meters":17600,"station_id":"ce4bhpp2rcd13ifvqhfg","pricing_plan_id":"cebpf4jnsgd1na2vs0mg"},{"bike_id":"708a5153-e9eb-4b8c-828a-f2918a7ff712","system_id":"levelo_inurba_marseille","lat":43.33719,"lon":5.39189,"is_reserved":false,"is_disabled":false,"rental_uris":{"android":"levelo://app?vid=708a5153-e9eb-4b8c-828a-f2918a7ff712","ios":"levelo://app?vid=708a5153-e9eb-4b8c-828a-f2918a7ff712"},"vehicle_type_id":"4","last_reported":1750670002,"current_range_meters":17600,"station_id":"ce4bhr92rcd13ifvqhsg","pricing_plan_id":"cebpf4jnsgd1na2vs0mg"},{"bike_id":"c3b67a3c-755c-43da-b7f2-a4d8a045bf9d","system_id":"levelo_inurba_marseille","lat":43.21195,"lon":5.35061,"is_reserved":false,"is_disabled":false,"rental_uris":{"android":"levelo://app?vid=c3b67a3c-755c-43da-b7f2-a4d8a045bf9d","ios":"levelo://app?vid=c3b67a3c-755c-43da-b7f2-a4d8a045bf9d"},"vehicle_type_id":"4","last_reported":1750670002,"current_range_meters":17600,"station_id":"st_cvj6sg6p6f1abm77japg","pricing_plan_id":"cebpf4jnsgd1na2vs0mg"},{"bike_id":"ff359b06-e82b-4518-b602-f9c62162a27d","system_id":"levelo_inurba_marseille","lat":43.21186,"lon":5.35067,"is_reserved":false,"is_disabled":false,"rental_uris":{"android":"levelo://app?vid=ff359b06-e82b-4518-b602-f9c62162a27d","ios":"levelo://app?vid=ff359b06-e82b-4518-b602-f9c62162a27d"},"vehicle_type_id":"4","last_reported":1750670002,"current_range_meters":17600,"station_id":"st_cvj6sg6p6f1abm77japg","pricing_plan_id":"cebpf4jnsgd1na2vs0mg"},{"bike_id":"8bc99dda-0ecb-4209-a614-58636df6b374","system_id":"levelo_inurba_marseille","lat":43.21197,"lon":5.35068,"is_reserved":false,"is_disabled":false,"rental_uris":{"android":"levelo://app?vid=8bc99dda-0ecb-4209-a614-58636df6b374","ios":"levelo://app?vid=8bc99dda-0ecb-4209-a614-58636df6b374"},"vehicle_type_id":"4","last_reported":1750670002,"current_range_meters":17600,"station_id":"st_cvj6sg6p6f1abm77japg","pricing_plan_id":"cebpf4jnsgd1na2vs0mg"},{"bike_id":"ec1b71be-549d-4870-a5fe-c47d9ce4df4e","system_id":"levelo_inurba_marseille","lat":43.32418,"lon":5.36552,"is_reserved":false,"is_disabled":false,"rental_uris":{"android":"levelo://app?vid=ec1b71be-549d-4870-a5fe-c47d9ce4df4e","ios":"levelo://app?vid=ec1b71be-549d-4870-a5fe-c47d9ce4df4e"},"vehicle_type_id":"4","last_reported":1750670002,"current_range_meters":18000,"station_id":"","pricing_plan_id":"cebpf4jnsgd1na2vs0mg"},{"bike_id":"7c3f6852-4f29-42a9-a8c1-e2b82bb43fcf","system_id":"levelo_inurba_marseille","lat":43.2919,"lon":5.42703,"is_reserved":false,"is_disabled":false,"rental_uris":{"android":"levelo://app?vid=7c3f6852-4f29-42a9-a8c1-e2b82bb43fcf","ios":"levelo://app?vid=7c3f6852-4f29-42a9-a8c1-e2b82bb43fcf"},"vehicle_type_id":"4","last_reported":1750670002,"current_range_meters":18000,"station_id":"","pricing_plan_id":"cebpf4jnsgd1na2vs0mg"},{"bike_id":"4f12b179-2ffe-400c-8f23-aff6fba36fb1","system_id":"levelo_inurba_marseille","lat":43.27908,"lon":5.38012,"is_reserved":false,"is_disabled":false,"rental_uris":{"android":"levelo://app?vid=4f12b179-2ffe-400c-8f23-aff6fba36fb1","ios":"levelo://app?vid=4f12b179-2ffe-400c-8f23-aff6fba36fb1"},"vehicle_type_id":"4","last_reported":1750670002,"current_range_meters":18000,"station_id":"ce4bhf92rcd13ifvqf50","pricing_plan_id":"cebpf4jnsgd1na2vs0mg"},{"bike_id":"d4527a71-e5d5-4468-b741-0be0ff1833c6","system_id":"levelo_inurba_marseille","lat":43.25937,"lon":5.40904,"is_reserved":false,"is_disabled":false,"rental_uris":{"android":"levelo://app?vid=d4527a71-e5d5-4468-b741-0be0ff1833c6","ios":"levelo://app?vid=d4527a71-e5d5-4468-b741-0be0ff1833c6"},"vehicle_type_id":"4","last_reported":1750670002,"current_range_meters":18000,"station_id":"ce4bhm92rcd13ifvqglg","pricing_plan_id":"cebpf4jnsgd1na2vs0mg"},