{"last_updated":1739218157,"ttl":60,"version":"2.2","data":{"bikes":[{"bike_id":"5cda301b-bce8-41d3-abea-2e981f99524e","system_id":"levelo_inurba_marseille","lat":43.29862,"lon":5.36285,"is_reserved":false,"is_disabled":false,"rental_uris":{"android":"levelo://app?vid=5cda301b-bce8-41d3-abea-2e981f99524e","ios":"levelo://app?vid=5cda301b-bce8-41d3-abea-2e981f99524e"},"vehicle_type_id":"4","last_reported":1739218157,"current_range_meters":28400,"station_id":"ce4bgpp2rcd13ifvqc3g","pricing_plan_id":"cebpf4jnsgd1na2vs0mg"},{"bike_id":"6bebc4c8-69ea-4172-940f-fcdebdb6f8aa","system_id":"levelo_inurba_marseille","lat":43.29256,"lon":5.38441,"is_reserved":false,"is_disabled":false,"rental_uris":{"android":"levelo://app?vid=6bebc4c8-69ea-4172-940f-fcdebdb6f8aa","ios":"levelo://app?vid=6bebc4c8-69ea-4172-940f-fcdebdb6f8aa"},"vehicle_type_id":"4","last_reported":1739218157,"current_range_meters":32400,"station_id":"ce4bh692rcd13ifvqea0","pricing_plan_id":"cebpf4jnsgd1na2vs0mg"},{"bike_id":"e7d8ed8c-85a3-44c3-8805-56fbe310205d","system_id":"levelo_inurba_marseille","lat":43.28408,"lon":5.37504,"is_reserved":false,"is_disabled":false,"rental_uris":{"android":"levelo://app?vid=e7d8ed8c-85a3-44c3-8805-56fbe310205d","ios":"levelo://app?vid=e7d8ed8c-85a3-44c3-8805-56fbe310205d"},"vehicle_type_id":"4","last_reported":1739218157,"current_range_meters":38000,"station_id":"ce4bh412rcd13ifvqds0","pricing_plan_id":"cebpf4jnsgd1na2vs0mg"},{"bike_id":"095e0e91-ab5f-4713-9cbd-1b78eed2ed92","system_id":"levelo_inurba_marseille","lat":43.29793,"lon":5.40402,"is_reserved":false,"is_disabled":false,"rental_uris":{"android":"levelo://app?vid=095e0e91-ab5f-4713-9cbd-1b78eed2ed92","ios":"levelo://app?vid=095e0e91-ab5f-4713-9cbd-1b78eed2ed92"},"vehicle_type_id":"4","last_reported":1739218157,"current_range_meters":14800,"station_id":"ce4bh112rcd13ifvqd90","pricing_plan_id":"cebpf4jnsgd1na2vs0mg"},{"bike_id":"b068362a-3288-489d-9388-78d1aec4149d","system_id":"levelo_inurba_marseille","lat":43.26565,"lon":5.38997,"is_reserved":false,"is_disabled":false,"rental_uris":{"android":"levelo://app?vid=b068362a-3288-489d-9388-78d1aec4149d","ios":"levelo://app?vid=b068362a-3288-489d-9388-78d1aec4149d"},"vehicle_type_id":"4","last_reported":1739218157,"current_range_meters":38800,"station_id":"ce4bhe12rcd13ifvqf30","pricing_plan_id":"cebpf4jnsgd1na2vs0mg"},{"bike_id":"aea22414-8882-4231-a807-5a523523cb10","system_id":"levelo_inurba_marseille","lat":43.28922,"lon":5.38388,"is_reserved":false,"is_disabled":false,"rental_uris":{"android":"levelo://app?vid=aea22414-8882-4231-a807-5a523523cb10","ios":"levelo://app?vid=aea22414-8882-4231-a807-5a523523cb10"},"vehicle_type_id":"4","last_reported":1739218157,"current_range_meters":37600,"station_id":"ce4bh612rcd13ifvqe6g","pricing_plan_id":"cebpf4jnsgd1na2vs0mg"},{"bike_id":"a0dd54ee-e890-4da0-a7d9-a7f80b816a23","system_id":"levelo_inurba_marseille","lat":43.27973,"lon":5.41658,"is_reserved":false,"is_disabled":false,"rental_uris":{"android":"levelo://app?vid=a0dd54ee-e890-4da0-a7d9-a7f80b816a23","ios":"levelo://app?vid=a0dd54ee-e890-4da0-a7d9-a7f80b816a23"},"vehicle_type_id":"4","last_reported":1739218157,"current_range_meters":36400,"station_id":"ce4bho12rcd13ifvqh1g","pricing_plan_id":"cebpf4jnsgd1na2vs0mg"},{"bike_id":"1e432c46-6902-4068-bc83-c8d18cce47cc","system_id":"levelo_inurba_marseille","lat":43.26056,"lon":5.39394,"is_reserved":false,"is_disabled":false,"rental_uris":{"android":"levelo://app?vid=1e432c46-6902-4068-bc83-c8d18cce47cc","ios":"levelo://app?vid=1e432c46-6902-4068-bc83-c8d18cce47cc"},"vehicle_type_id":"4","last_reported":1739218157,"current_range_meters":38800,"station_id":"ce4bhh92rcd13ifvqfj0","pricing_plan_id":"cebpf4jnsgd1na2vs0mg"},{"bike_id":"ef7aca8c-59fc-4b3e-a93e-a554f2ef6c5b","system_id":"levelo_inurba_marseille","lat":43.29524,"lon":5.37495,"is_reserved":false,"is_disabled":false,"rental_uris":{"android":"levelo://app?vid=ef7aca8c-59fc-4b3e-a93e-a554f2ef6c5b","ios":"levelo://app?vid=ef7aca8c-59fc-4b3e-a93e-a554f2ef6c5b"},"vehicle_type_id":"4","last_reported":1739218157,"current_range_meters":38000,"station_id":"ce4bgkp2rcd13ifvqbmg","pricing_plan_id":"cebpf4jnsgd1na2vs0mg"},{"bike_id":"3887b386-3ca2-4422-b535-49b5419b189a","system_id":"levelo_inurba_marseille","lat":43.28334,"lon":5.38114,"is_reserved":false,"is_disabled":false,"rental_uris":{"android":"levelo://app?vid=3887b386-3ca2-4422-b535-49b5419b189a","ios":"levelo://app?vid=3887b386-3ca2-4422-b535-49b5419b189a"},"vehicle_type_id":"4","last_reported":1739218157,"current_range_meters":32000,"station_id":"ce4bh412rcd13ifvqdr0","pricing_plan_id":"cebpf4jnsgd1na2vs0mg"},{"bike_id":"f3fd183e-406b-4cc2-a331-41dfefd71728","system_id":"levelo_inurba_marseille","lat":43.2971,"lon":5.36604,"is_reserved":false,"is_disabled":false,"rental_uris":{"android":"levelo://app?vid=f3fd183e-406b-4cc2-a331-41dfefd71728","ios":"levelo://app?vid=f3fd183e-406b-4cc2-a331-41dfefd71728"},"vehicle_type_id":"4","last_reported":1739218157,"current_range_meters":32000,"station_id":"ce4bgn12rcd13ifvqbt0","pricing_plan_id":"cebpf4jnsgd1na2vs0mg"},{"bike_id":"ff82ee3e-6927-4929-9ab9-69d9ba0b2981","system_id":"levelo_inurba_marseille","lat":43.27945,"lon":5.41045,"is_reserved":false,"is_disabled":true,"rental_uris":{"android":"levelo://app?vid=ff82ee3e-6927-4929-9ab9-69d9ba0b2981","ios":"levelo://app?vid=ff82ee3e-6927-4929-9ab9-69d9ba0b2981"},"vehicle_type_id":"4","last_reported":1739218157,"current_range_meters":0,"station_id":"ce4bhnp2rcd13ifvqh0g","pricing_plan_id":"cebpf4jnsgd1na2vs0mg"},{"bike_id":"acfa6e83-9dec-41be-a012-0d6b6130d9d9","system_id":"levelo_inurba_marseille","lat":43.31113,"lon":5.37787,"is_reserved":false,"is_disabled":false,"rental_uris":{"android":"levelo://app?vid=acfa6e83-9dec-41be-a012-0d6b6130d9d9","ios":"levelo://app?vid=acfa6e83-9dec-41be-a012-0d6b6130d9d9"},"vehicle_type_id":"4","last_reported":1739218157,"current_range_meters":36000,"station_id":"ce4bgt92rcd13ifvqcg0","pricing_plan_id":"cebpf4jnsgd1na2vs0mg"},{"bike_id":"b4ad1114-6670-433a-b10e-39de272543b1","system_id":"levelo_inurba_marseille","lat":43.301288,"lon":5.398792,"is_reserved":false,"is_disabled":false,"rental_uris":{"android":"levelo://app?vid=b4ad1114-6670-433a-b10e-39de272543b1","ios":"levelo://app?vid=b4ad1114-6670-433a-b10e-39de272543b1"},"vehicle_type_id":"4","last_reported":1739218157,"current_range_meters":18000,"station_id":"ce4bh0h2rcd13ifvqd40","pricing_plan_id":"cebpf4jnsgd1na2vs0mg"},{"bike_id":"6137e2b6-9f28-4b0a-8923-7198ab8d9ffc","system_id":"levelo_inurba_marseille","lat":43.29034,"lon":5.38647,"is_reserved":false,"is_disabled":false,"rental_uris":{"android":"levelo://app?vid=6137e2b6-9f28-4b0a-8923-7198ab8d9ffc","ios":"levelo://app?vid=6137e2b6-9f28-4b0a-8923-7198ab8d9ffc"},"vehicle_type_id":"4","last_reported":1739218157,"current_range_meters":24000,"station_id":"ce4bh4p2rcd13ifvqe0g","pricing_plan_id":"cebpf4jnsgd1na2vs0mg"},{"bike_id":"1cd33f7b-2fe7-4798-9081-aad4deb91b13","system_id":"levelo_inurba_marseille","lat":43.28269,"lon":5.35056,"is_reserved":false,"is_disabled":false,"rental_uris":{"android":"levelo://app?vid=1cd33f7b-2fe7-4798-9081-aad4deb91b13","ios":"levelo://app?vid=1cd33f7b-2fe7-4798-9081-aad4deb91b13"},"vehicle_type_id":"4","last_reported":1739218157,"current_range_meters":22800,"station_id":"ce4bhbp2rcd13ifvqerg","pricing_plan_id":"cebpf4jnsgd1na2vs0mg"},{"bike_id":"783ee94b-6044-42f0-85b3-7d1aca1b3d61","system_id":"levelo_inurba_marseille","lat":43.29573,"lon":5.37491,"is_reserved":false,"is_disabled":true,"rental_uris":{"android":"levelo://app?vid=783ee94b-6044-42f0-85b3-7d1aca1b3d61","ios":"levelo://app?vid=783ee94b-6044-42f0-85b3-7d1aca1b3d61"},"vehicle_type_id":"4","last_reported":1739218157,"current_range_meters":23200,"station_id":"ce4bgh92rcd13ifvqb50","pricing_plan_id":"cebpf4jnsgd1na2vs0mg"},{"bike_id":"fc63d1c6-39db-42fc-a5f0-8ec761e9b064","system_id":"levelo_inurba_marseille","lat":43.31691,"lon":5.40469,"is_reserved":false,"is_disabled":false,"rental_uris":{"android":"levelo://app?vid=fc63d1c6-39db-42fc-a5f0-8ec761e9b064","ios":"levelo://app?vid=fc63d1c6-39db-42fc-a5f0-8ec761e9b064"},"vehicle_type_id":"4","last_reported":1739218157,"current_range_meters":38800,"station_id":"ce4bh012rcd13ifvqd00","pricing_plan_id":"cebpf4jnsgd1na2vs0mg"},{"bike_id":"9e4564f0-0519-46c9-beea-73f529a3ce6a","system_id":"levelo_inurba_marseille","lat":43.24811,"lon":5.37461,"is_reserved":false,"is_disabled":false,"rental_uris":{"android":"levelo://app?vid=9e4564f0-0519-46c9-beea-73f529a3ce6a","ios":"levelo://app?vid=9e4564f0-0519-46c9-beea-73f529a3ce6a"},"vehicle_type_id":"4","last_reported":1739218157,"current_range_meters":36400,"station_id":"ce4bhgh2rcd13ifvqfb0","pricing_plan_id":"cebpf4jnsgd1na2vs0mg"},{"bike_id":"c06e4f36-e54b-428e-ae8e-e2084d39a4ca","system_id":"levelo_inurba_marseille","lat":43.30099,"lon":5.39081,"is_reserved":false,"is_disabled":false,"rental_uris":{"android":"levelo://app?vid=c06e4f36-e54b-428e-ae8e-e2084d39a4ca","ios":"levelo://app?vid=c06e4f36-e54b-428e-ae8e-e2084d39a4ca"},"vehicle_type_id":"4","last_reported":1739218157,"current_range_meters":22800,"station_id":"ce4bh192rcd13ifvqdb0","pricing_plan_id":"cebpf4jnsgd1na2vs0mg"},{"bike_id":"4fec62a4-5d14-461f-a07c-ceeb3a48fbed","system_id":"levelo_inurba_marseille","lat":43.31049,"lon":5.3835,"is_reserved":false,"is_disabled":false,"rental_uris":{"android":"levelo://app?vid=4fec62a4-5d14-461f-a07c-ceeb3a48fbed","ios":"levelo://app?vid=4fec62a4-5d14-461f-a07c-ceeb3a48fbed"},"vehicle_type_id":"4","last_reported":1739218157,"current_range_meters":38800,"station_id":"ce4bgv92rcd13ifvqcr0","pricing_plan_id":"cebpf4jnsgd1na2vs0mg"},{"bike_id":"ab859326-8c26-4d6c-a7c6-3f98b177784c","system_id":"levelo_inurba_marseille","lat":43.27067,"lon":5.42282,"is_reserved":false,"is_disabled":false,"rental_uris":{"android":"levelo://app?vid=ab859326-8c26-4d6c-a7c6-3f98b177784c","ios":"levelo://app?vid=ab859326-8c26-4d6c-a7c6-3f98b177784c"},"vehicle_type_id":"4","last_reported":1739218157,"current_range_meters":38800,"station_id":"ce4bhk92rcd13ifvqgb0","pricing_plan_id":"cebpf4jnsgd1na2vs0mg"},{"bike_id":"111672d5-ab51-46ac-b98d-b7bc77f4bbf9","system_id":"levelo_inurba_marseille","lat":43.2808,"lon":5.39651,"is_reserved":false,"is_disabled":false,"rental_uris":{"android":"levelo://app?vid=111672d5-ab51-46ac-b98d-b7bc77f4bbf9","ios":"levelo://app?vid=111672d5-ab51-46ac-b98d-b7bc77f4bbf9"},"vehicle_type_id":"4","last_reported":1739218157,"current_range_meters":27600,"station_id":"ce4bho12rcd13ifvqh2g","pricing_plan_id":"cebpf4jnsgd1na2vs0mg"},{"bike_id":"8e7ce03c-394f-4066-aafd-5b16027f082f","system_id":"levelo_inurba_marseille","lat":43.28343,"lon":5.3811,"is_reserved":false,"is_disabled":false,"rental_uris":{"android":"levelo://app?vid=8e7ce03c-394f-4066-aafd-5b16027f082f","ios":"levelo://app?vid=8e7ce03c-394f-4066-aafd-5b16027f082f"},"vehicle_type_id":"4","last_reported":1739218157,"current_range_meters":38000,"station_id":"ce4bh412rcd13ifvqdr0","pricing_plan_id":"cebpf4jnsgd1na2vs0mg"},{"bike_id":"8666ff90-c5e3-4f41-b464-8fa4b562f764","system_id":"levelo_inurba_marseille","lat":43.28074,"lon":5.39662,"is_reserved":false,"is_disabled":false,"rental_uris":{"android":"levelo://app?vid=8666ff90-c5e3-4f41-b464-8fa4b562f764","ios":"levelo://app?vid=8666ff90-c5e3-4f41-b464-8fa4b562f764"},"vehicle_type_id":"4","last_reported":1739218157,"current_range_meters":31200,"station_id":"ce4bho12rcd13ifvqh2g","pricing_plan_id":"cebpf4jnsgd1na2vs0mg"},{"bike_id":"8cb9c172-7ab1-4b56-93e2-00a78c938494","system_id":"levelo_inurba_marseille","lat":43.26194,"lon":5.37447,"is_reserved":false,"is_disabled":false,"rental_uris":{"android":"levelo://app?vid=8cb9c172-7ab1-4b56-93e2-00a78c938494","ios":"levelo://app?vid=8cb9c172-7ab1-4b56-93e2-00a78c938494"},"vehicle_type_id":"4","last_reported":1739218157,"current_range_meters":20000,"station_id":"ce4bhgp2rcd13ifvqfc0","pricing_plan_id":"cebpf4jnsgd1na2vs0mg"},{"bike_id":"6803ddfa-d502-42a2-ad93-8e0a9a783768","system_id":"levelo_inurba_marseille","lat":43.2603,"lon":5.37552,"is_reserved":false,"is_disabled":false,"rental_uris":{"android":"levelo://app?vid=6803ddfa-d502-42a2-ad93-8e0a9a783768","ios":"levelo://app?vid=6803ddfa-d502-42a2-ad93-8e0a9a783768"},"vehicle_type_id":"4","last_reported":1739218157,"current_range_meters":24000,"station_id":"ce4bhgh2rcd13ifvqfa0","pricing_plan_id":"cebpf4jnsgd1na2vs0mg"},{"bike_id":"ec577290-415e-4adf-bee8-70a702854fd7","system_id":"levelo_inurba_marseille","lat":43.28454,"lon":5.35882,"is_reserved":false,"is_disabled":false,"rental_uris":{"android":"levelo://app?vid=ec577290-415e-4adf-bee8-70a702854fd7","ios":"levelo://app?vid=ec577290-415e-4adf-bee8-70a702854fd7"},"vehicle_type_id":"4","last_reported":1739218157,"current_range_meters":38800,"station_id":"ce4bhah2rcd13ifvqei0","pricing_plan_id":"cebpf4jnsgd1na2vs0mg"},{"bike_id":"e1a1cb17-6051-49c6-8a5e-b8f5a47c715d","system_id":"levelo_inurba_marseille","lat":43.28839,"lon":5.35865,"is_reserved":false,"is_disabled":false,"rental_uris":{"android":"levelo://app?vid=e1a1cb17-6051-49c6-8a5e-b8f5a47c715d","ios":"levelo://app?vid=e1a1cb17-6051-49c6-8a5e-b8f5a47c715d"},"vehicle_type_id":"4","last_reported":1739218157,"current_range_meters":19200,"station_id":"ce4bhb12rcd13ifvqem0","pricing_plan_id":"cebpf4jnsgd1na2vs0mg"},{"bike_id":"f798cbc4-a869-471f-bce8-f64397eebe81","system_id":"levelo_inurba_marseille","lat":43.23962,"lon":5.36624,"is_reserved":false,"is_disabled":false,"rental_uris":{"android":"levelo://app?vid=f798cbc4-a869-471f-bce8-f64397eebe81","ios":"levelo://app?vid=f798cbc4-a869-471f-bce8-f64397eebe81"},"vehicle_type_id":"4","last_reported":1739218157,"current_range_meters":24800,"station_id":"ce4bhi12rcd13ifvqfp0","pricing_plan_id":"cebpf4jnsgd1na2vs0mg"},{"bike_id":"3490dc77-2082-4930-b18d-b016b3b41148","system_id":"levelo_inurba_marseille","lat":43.254993,"lon":5.376493,"is_reserved":false,"is_disabled":false,"rental_uris":{"android":"levelo://app?vid=3490dc77-2082-4930-b18d-b016b3b41148","ios":"levelo://app?vid=3490dc77-2082-4930-b18d-b016b3b41148"},"vehicle_type_id":"4","last_reported":1739218157,"current_range_meters":38800,"station_id":"ce4bhh12rcd13ifvqff0","pricing_plan_id":"cebpf4jnsgd1na2vs0mg"},{"bike_id":"67fb0221-0f3c-44e3-8ac0-5b796de6981d","system_id":"levelo_inurba_marseille","lat":43.31335,"lon":5.3968,"is_reserved":false,"is_disabled":false,"rental_uris":{"android":"levelo://app?vid=67fb0221-0f3c-44e3-8ac0-5b796de6981d","ios":"levelo://app?vid=67fb0221-0f3c-44e3-8ac0-5b796de6981d"},"vehicle_type_id":"4","last_reported":1739218157,"current_range_meters":38800,"station_id":"ce4bgvp2rcd13ifvqcu0","pricing_plan_id":"cebpf4jnsgd1na2vs0mg"},{"bike_id":"7284c451-4e56-444a-8411-7c4bf0b4ba45","system_id":"levelo_inurba_marseille","lat":43.29553,"lon":5.42285,"is_reserved":false,"is_disabled":false,"rental_uris":{"android":"levelo://app?vid=7284c451-4e56-444a-8411-7c4bf0b4ba45","ios":"levelo://app?vid=7284c451-4e56-444a-8411-7c4bf0b4ba45"},"vehicle_type_id":"4","last_reported":1739218157,"current_range_meters":38800,"station_id":"ce4bhph2rcd13ifvqhdg","pricing_plan_id":"cebpf4jnsgd1na2vs0mg"},{"bike_id":"bf8cd02e-ccdc-4523-894a-3fce83d782e3","system_id":"levelo_inurba_marseille","lat":43.33666,"lon":5.39181,"is_reserved":false,"is_disabled":false,"rental_uris":{"android":"levelo://app?vid=bf8cd02e-ccdc-4523-894a-3fce83d782e3","ios":"levelo://app?vid=bf8cd02e-ccdc-4523-894a-3fce83d782e3"},"vehicle_type_id":"4","last_reported":1739218157,"current_range_meters":38000,"station_id":"ce4bhr92rcd13ifvqhsg","pricing_plan_id":"cebpf4jnsgd1na2vs0mg"},{"bike_id":"7c6bbf7f-41d8-44ee-ba01-3c107a914dec","system_id":"levelo_inurba_marseille","lat":43.29622,"lon":5.37725,"is_reserved":false,"is_disabled":false,"rental_uris":{"android":"levelo://app?vid=7c6bbf7f-41d8-44ee-ba01-3c107a914dec","ios":"levelo://app?vid=7c6bbf7f-41d8-44ee-ba01-3c107a914dec"},"vehicle_type_id":"4","last_reported":1739218157,"current_range_meters":38800,"station_id":"ce4bgi92rcd13ifvqb90","pricing_plan_id":"cebpf4jnsgd1na2vs0mg"},{"bike_id":"84685336-137b-4bb8-a6a6-5d572c1c7f63","system_id":"levelo_inurba_marseille","lat":43.29368,"lon":5.37836,"is_reserved":false,"is_disabled":false,"rental_uris":{"android":"levelo://app?vid=84685336-137b-4bb8-a6a6-5d572c1c7f63","ios":"levelo://app?vid=84685336-137b-4bb8-a6a6-5d572c1c7f63"},"vehicle_type_id":"4","last_reported":1739218157,"current_range_meters":36000,"station_id":"ce4bgjh2rcd13ifvqbf0","pricing_plan_id":"cebpf4jnsgd1na2vs0mg"},{"bike_id":"7ca80e67-cb2b-490a-b839-a5cc2b6a357b","system_id":"levelo_inurba_marseille","lat":43.29185,"lon":5.35798,"is_reserved":false,"is_disabled":false,"rental_uris":{"android":"levelo://app?vid=7ca80e67-cb2b-490a-b839-a5cc2b6a357b","ios":"levelo://app?vid=7ca80e67-cb2b-490a-b839-a5cc2b6a357b"},"vehicle_type_id":"4","last_reported":1739218157,"current_range_meters":38400,"station_id":"ce4bhb12rcd13ifvqel0","pricing_plan_id":"cebpf4jnsgd1na2vs0mg"},{"bike_id":"3269462b-d1f8-4e6c-ad17-2a10a27bad7b","system_id":"levelo_inurba_marseille","lat":43.28099,"lon":5.37847,"is_reserved":false,"is_disabled":false,"rental_uris":{"android":"levelo://app?vid=3269462b-d1f8-4e6c-ad17-2a10a27bad7b","ios":"levelo://app?vid=3269462b-d1f8-4e6c-ad17-2a10a27bad7b"},"vehicle_type_id":"4","last_reported":1739218157,"current_range_meters":27600,"station_id":"ce4bha12rcd13ifvqee0","pricing_plan_id":"cebpf4jnsgd1na2vs0mg"},{"bike_id":"9a9f4c20-947f-4204-b525-c3ace04a9755","system_id":"levelo_inurba_marseille","lat":43.30582,"lon":5.39347,"is_reserved":false,"is_disabled":false,"rental_uris":{"android":"levelo://app?vid=9a9f4c20-947f-4204-b525-c3ace04a9755","ios":"levelo://app?vid=9a9f4c20-947f-4204-b525-c3ace04a9755"},"vehicle_type_id":"4","last_reported":1739218157,"current_range_meters":32000,"station_id":"ce4bh0p2rcd13ifvqd80","pricing_plan_id":"cebpf4jnsgd1na2vs0mg"},{"bike_id":"ecc287c0-75f2-4eae-852c-c0cf91f75759","system_id":"levelo_inurba_marseille","lat":43.26929,"lon":5.38919,"is_reserved":false,"is_disabled":false,"rental_uris":{"android":"levelo://app?vid=ecc287c0-75f2-4eae-852c-c0cf91f75759","ios":"levelo://app?vid=ecc287c0-75f2-4eae-852c-c0cf91f75759"},"vehicle_type_id":"4","last_reported":1739218157,"current_range_meters":36400,"station_id":"ce4bhhh2rcd13ifvqfl0","pricing_plan_id":"cebpf4jnsgd1na2vs0mg"},{"bike_id":"a1e1c154-9e5a-4afc-9a7e-cedaf38d9921","system_id":"levelo_inurba_marseille","lat":43.28994,"lon":5.35608,"is_reserved":false,"is_disabled":false,"rental_uris":{"android":"levelo://app?vid=a1e1c154-9e5a-4afc-9a7e-cedaf38d9921","ios":"levelo://app?vid=a1e1c154-9e5a-4afc-9a7e-cedaf38d9921"},"vehicle_type_id":"4","last_reported":1739218157,"current_range_meters":33600,"station_id":"ce4bhb92rcd13ifvqen0","pricing_plan_id":"cebpf4jnsgd1na2vs0mg"},{"bike_id":"4ed2f75a-8eb5-42e2-8b44-19aece7300bb","system_id":"levelo_inurba_marseille","lat":43.2845,"lon":5.39208,"is_reserved":false,"is_disabled":false,"rental_uris":{"android":"levelo://app?vid=4ed2f75a-8eb5-42e2-8b44-19aece7300bb","ios":"levelo://app?vid=4ed2f75a-8eb5-42e2-8b44-19aece7300bb"},"vehicle_type_id":"4","last_reported":1739218157,"current_range_meters":36000,"station_id":"ce4bhoh2rcd13ifvqh5g","pricing_plan_id":"cebpf4jnsgd1na2vs0mg"},{"bike_id":"726fb099-c3d7-4106-beb8-89951bfba46d","system_id":"levelo_inurba_marseille","lat":43.29604,"lon":5.37503,"is_reserved":false,"is_disabled":true,"rental_uris":{"android":"levelo://app?vid=726fb099-c3d7-4106-beb8-89951bfba46d","ios":"levelo://app?vid=726fb099-c3d7-4106-beb8-89951bfba46d"},"vehicle_type_id":"4","last_reported":1739218157,"current_range_meters":33200,"station_id":"ce4bgh92rcd13ifvqb50","pricing_plan_id":"cebpf4jnsgd1na2vs0mg"},{"bike_id":"1618af0b-63bd-43cb-a346-5259abfc0ac6","system_id":"levelo_inurba_marseille","lat":43.30301,"lon":5.39203,"is_reserved":false,"is_disabled":false,"rental_uris":{"android":"levelo://app?vid=1618af0b-63bd-43cb-a346-5259abfc0ac6","ios":"levelo://app?vid=1618af0b-63bd-43cb-a346-5259abfc0ac6"},"vehicle_type_id":"4","last_reported":1739218157,"current_range_meters":30000,"station_id":"ce4bgkh2rcd13ifvqbk0","pricing_plan_id":"cebpf4jnsgd1na2vs0mg"},{"bike_id":"9c87e926-4686-4357-a4e8-7bc756a9015d","system_id":"levelo_inurba_marseille","lat":43.28842,"lon":5.39306,"is_reserved":false,"is_disabled":false,"rental_uris":{"android":"levelo://app?vid=9c87e926-4686-4357-a4e8-7bc756a9015d","ios":"levelo://app?vid=9c87e926-4686-4357-a4e8-7bc756a9015d"},"vehicle_type_id":"4","last_reported":1739218157,"current_range_meters":20800,"station_id":"ce4bh2p2rcd13ifvqdi0","pricing_plan_id":"cebpf4jnsgd1na2vs0mg"},{"bike_id":"59edf8e1-9540-4c27-83a6-b0f69b1cd6ee","system_id":"levelo_inurba_marseille","lat":43.30142,"lon":5.37418,"is_reserved":false,"is_disabled":false,"rental_uris":{"android":"levelo://app?vid=59edf8e1-9540-4c27-83a6-b0f69b1cd6ee","ios":"levelo://app?vid=59edf8e1-9540-4c27-83a6-b0f69b1cd6ee"},"vehicle_type_id":"4","last_reported":1739218157,"current_range_meters":38400,"station_id":"ce4bgs92rcd13ifvqcc0","pricing_plan_id":"cebpf4jnsgd1na2vs0mg"},{"bike_id":"f7497ba6-7f7b-48c4-bbde-c8698d95bccc","system_id":"levelo_inurba_marseille","lat":43.28461,"lon":5.35899,"is_reserved":false,"is_disabled":false,"rental_uris":{"android":"levelo://app?vid=f7497ba6-7f7b-48c4-bbde-c8698d95bccc","ios":"levelo://app?vid=f7497ba6-7f7b-48c4-bbde-c8698d95bccc"},"vehicle_type_id":"4","last_reported":1739218157,"current_range_meters":38800,"station_id":"ce4bhah2rcd13ifvqei0","pricing_plan_id":"cebpf4jnsgd1na2vs0mg"},{"bike_id":"5728af05-01f3-4c14-afd6-c4ebe0f65611","system_id":"levelo_inurba_marseille","lat":43.25008,"lon":5.38939,"is_reserved":false,"is_disabled":false,"rental_uris":{"android":"levelo://app?vid=5728af05-01f3-4c14-afd6-c4ebe0f65611","ios":"levelo://app?vid=5728af05-01f3-4c14-afd6-c4ebe0f65611"},"vehicle_type_id":"4","last_reported":1739218157,"current_range_meters":8000,"station_id":"ce4bhgp2rcd13ifvqfd0","pricing_plan_id":"cebpf4jnsgd1na2vs0mg"},{"bike_id":"79fb3cb5-58d9-4478-b50b-220a90dcf144","system_id":"levelo_inurba_marseille","lat":43.29969,"lon":5.38492,"is_reserved":false,"is_disabled":false,"rental_uris":{"android":"levelo://app?vid=79fb3cb5-58d9-4478-b50b-220a90dcf144","ios":"levelo://app?vid=79fb3cb5-58d9-4478-b50b-220a90dcf144"},"vehicle_type_id":"4","last_reported":1739218157,"current_range_meters":36400,"station_id":"ce4bgj92rcd13ifvqbd0","pricing_plan_id":"cebpf4jnsgd1na2vs0mg"},{"bike_id":"55fe04a7-d37a-4ee4-965a-2262a655cb55","system_id":"levelo_inurba_marseille","lat":43.23197,"lon":5.39994,"is_reserved":false,"is_disabled":false,"rental_uris":{"android":"levelo://app?vid=55fe04a7-d37a-4ee4-965a-2262a655cb55","ios":"levelo://app?vid=55fe04a7-d37a-4ee4-965a-2262a655cb55"},"vehicle_type_id":"4","last_reported":1739218157,"current_range_meters":38800,"station_id":"ce4bhn12rcd13ifvqgqg","pricing_plan_id":"cebpf4jnsgd1na2vs0mg"},{"bike_id":"3441c74a-282b-45aa-b329-9e43a88c8a80","system_id":"levelo_inurba_marseille","lat":43.24803,"lon":5.37469,"is_reserved":false,"is_disabled":false,"rental_uris":{"android":"levelo://app?vid=3441c74a-282b-45aa-b329-9e43a88c8a80","ios":"levelo://app?vid=3441c74a-282b-45aa-b329-9e43a88c8a80"},"vehicle_type_id":"4","last_reported":1739218157,"current_range_meters":18800,"station_id":"ce4bhgh2rcd13ifvqfb0","pricing_plan_id":"cebpf4jnsgd1na2vs0mg"},{"bike_id":"e00cd517-4a6d-40d8-b46e-27fb98e2bb39","system_id":"levelo_inurba_marseille","lat":43.28455,"lon":5.35896,"is_reserved":false,"is_disabled":false,"rental_uris":{"android":"levelo://app?vid=e00cd517-4a6d-40d8-b46e-27fb98e2bb39","ios":"levelo://app?vid=e00cd517-4a6d-40d8-b46e-27fb98e2bb39"},"vehicle_type_id":"4","last_reported":1739218157,"current_range_meters":38800,"station_id":"ce4bhah2rcd13ifvqei0","pricing_plan_id":"cebpf4jnsgd1na2vs0mg"},{"bike_id":"8c8be2bd-3c5d-4cde-86a6-f319a6822f02","system_id":"levelo_inurba_marseille","lat":43.24544,"lon":5.395223,"is_reserved":false,"is_disabled":false,"rental_uris":{"android":"levelo://app?vid=8c8be2bd-3c5d-4cde-86a6-f319a6822f02","ios":"levelo://app?vid=8c8be2bd-3c5d-4cde-86a6-f319a6822f02"},"vehicle_type_id":"4","last_reported":1739218157,"current_range_meters":35200,"station_id":"ce4bhlp2rcd13ifvqgjg","pricing_plan_id":"cebpf4jnsgd1na2vs0mg"},{"bike_id":"3964663c-b0ef-4fd9-bca2-5e6eb580081e","system_id":"levelo_inurba_marseille","lat":43.28118,"lon":5.39858,"is_reserved":false,"is_disabled":false,"rental_uris":{"android":"levelo://app?vid=3964663c-b0ef-4fd9-bca2-5e6eb580081e","ios":"levelo://app?vid=3964663c-b0ef-4fd9-bca2-5e6eb580081e"},"vehicle_type_id":"4","last_reported":1739218157,"current_range_meters":18800,"station_id":"","pricing_plan_id":"cebpf4jnsgd1na2vs0mg"},{"bike_id":"8e2f681c-56b3-4dbe-acf6-d95949b97842","system_id":"levelo_inurba_marseille","lat":43.301561,"lon":5.380922,"is_reserved":false,"is_disabled":true,"rental_uris":{"android":"levelo://app?vid=8e2f681c-56b3-4dbe-acf6-d95949b97842","ios":"levelo://app?vid=8e2f681c-56b3-4dbe-acf6-d95949b97842"},"vehicle_type_id":"4","last_reported":1739218157,"current_range_meters":25600,"station_id":"","pricing_plan_id":"cebpf4jnsgd1na2vs0mg"},{"bike_id":"6e1b6112-cd26-421f-b157-6ac716f542d7","system_id":"levelo_inurba_marseille","lat":43.27172,"lon":5.40976,"is_reserved":false,"is_disabled":false,"rental_uris":{"android":"levelo://app?vid=6e1b6112-cd26-421f-b157-6ac716f542d7","ios":"levelo://app?vid=6e1b6112-cd26-421f-b157-6ac716f542d7"},"vehicle_type_id":"4","last_reported":1739218157,"current_range_meters":38000,"station_id":"ce4bhl12rcd13ifvqgf0","pricing_plan_id":"cebpf4jnsgd1na2vs0mg"},{"bike_id":"a3334905-d408-452d-a361-b335eb040aac","system_id":"levelo_inurba_marseille","lat":43.2904,"lon":5.35905,"is_reserved":false,"is_disabled":false,"rental_uris":{"android":"levelo://app?vid=a3334905-d408-452d-a361-b335eb040aac","ios":"levelo://app?vid=a3334905-d408-452d-a361-b335eb040aac"},"vehicle_type_id":"4","last_reported":1739218157,"current_range_meters":39200,"station_id":"ce4bha92rcd13ifvqeg0","pricing_plan_id":"cebpf4jnsgd1na2vs0mg"},{"bike_id":"5a712f7b-faea-4b41-b7bd-078b067ddb56","system_id":"levelo_inurba_marseille","lat":43.25591,"lon":5.38242,"is_reserved":false,"is_disabled":true,"rental_uris":{"android":"levelo://app?vid=5a712f7b-faea-4b41-b7bd-078b067ddb56","ios":"levelo://app?vid=5a712f7b-faea-4b41-b7bd-078b067ddb56"},"vehicle_type_id":"4","last_reported":1739218157,"current_range_meters":31200,"station_id":"ce4bhih2rcd13ifvqfs0","pricing_plan_id":"cebpf4jnsgd1na2vs0mg"},{"bike_id":"b41d8475-1b61-4022-b648-2777adae10ea","system_id":"levelo_inurba_marseille","lat":43.24162,"lon":5.3642,"is_reserved":false,"is_disabled":false,"rental_uris":{"android":"levelo://app?vid=b41d8475-1b61-4022-b648-2777adae10ea","ios":"levelo://app?vid=b41d8475-1b61-4022-b648-2777adae10ea"},"vehicle_type_id":"4","last_reported":1739218157,"current_range_meters":28400,"station_id":"cpo36qri1sfpv3e86is0","pricing_plan_id":"cebpf4jnsgd1na2vs0mg"},{"bike_id":"797c91fd-a875-467b-999b-207e5af3706b","system_id":"levelo_inurba_marseille","lat":43.27893,"lon":5.38008,"is_reserved":false,"is_disabled":false,"rental_uris":{"android":"levelo://app?vid=797c91fd-a875-467b-999b-207e5af3706b","ios":"levelo://app?vid=797c91fd-a875-467b-999b-207e5af3706b"},"vehicle_type_id":"4","last_reported":1739218157,"current_range_meters":39200,"station_id":"ce4bhf92rcd13ifvqf50","pricing_plan_id":"cebpf4jnsgd1na2vs0mg"},{"bike_id":"fa1d3426-6924-4679-877d-315e8d2e7c0a","system_id":"levelo_inurba_marseille","lat":43.2511,"lon":5.40327,"is_reserved":false,"is_disabled":false,"rental_uris":{"android":"levelo://app?vid=fa1d3426-6924-4679-877d-315e8d2e7c0a","ios":"levelo://app?vid=fa1d3426-6924-4679-877d-315e8d2e7c0a"},"vehicle_type_id":"4","last_reported":1739218157,"current_range_meters":38800,"station_id":"ce4bhlh2rcd13ifvqgig","pricing_plan_id":"cebpf4jnsgd1na2vs0mg"},{"bike_id":"c6d668f6-941c-4533-8dc4-268029ce8ce4","system_id":"levelo_inurba_marseille","lat":43.27837,"lon":5.39201,"is_reserved":false,"is_disabled":false,"rental_uris":{"android":"levelo://app?vid=c6d668f6-941c-4533-8dc4-268029ce8ce4","ios":"levelo://app?vid=c6d668f6-941c-4533-8dc4-268029ce8ce4"},"vehicle_type_id":"4","last_reported":1739218157,"current_range_meters":34000,"station_id":"ce4bhjp2rcd13ifvqga0","pricing_plan_id":"cebpf4jnsgd1na2vs0mg"},{"bike_id":"e0b3720d-ba96-42b9-b53a-82f817a9fbaf","system_id":"levelo_inurba_marseille","lat":43.26498,"lon":5.39535,"is_reserved":false,"is_disabled":false,"rental_uris":{"android":"levelo://app?vid=e0b3720d-ba96-42b9-b53a-82f817a9fbaf","ios":"levelo://app?vid=e0b3720d-ba96-42b9-b53a-82f817a9fbaf"},"vehicle_type_id":"4","last_reported":1739218157,"current_range_meters":24000,"station_id":"ce4bhi12rcd13ifvqfq0","pricing_plan_id":"cebpf4jnsgd1na2vs0mg"},{"bike_id":"ab8b8851-fc81-4397-b7ae-787e68797f4f","system_id":"levelo_inurba_marseille","lat":43.31742,"lon":5.39026,"is_reserved":false,"is_disabled":false,"rental_uris":{"android":"levelo://app?vid=ab8b8851-fc81-4397-b7ae-787e68797f4f","ios":"levelo://app?vid=ab8b8851-fc81-4397-b7ae-787e68797f4f"},"vehicle_type_id":"4","last_reported":1739218157,"current_range_meters":39200,"station_id":"ce4bhqp2rcd13ifvqhng","pricing_plan_id":"cebpf4jnsgd1na2vs0mg"},{"bike_id":"92f07dea-90ac-401f-aa24-d823119dcbf1","system_id":"levelo_inurba_marseille","lat":43.28849,"lon":5.39324,"is_reserved":false,"is_disabled":false,"rental_uris":{"android":"levelo://app?vid=92f07dea-90ac-401f-aa24-d823119dcbf1","ios":"levelo://app?vid=92f07dea-90ac-401f-aa24-d823119dcbf1"},"vehicle_type_id":"4","last_reported":1739218157,"current_range_meters":38000,"station_id":"ce4bh2p2rcd13ifvqdi0","pricing_plan_id":"cebpf4jnsgd1na2vs0mg"},{"bike_id":"51ab7186-5043-4bed-baca-73708608a302","system_id":"levelo_inurba_marseille","lat":43.29584,"lon":5.37026,"is_reserved":false,"is_disabled":true,"rental_uris":{"android":"levelo://app?vid=51ab7186-5043-4bed-baca-73708608a302","ios":"levelo://app?vid=51ab7186-5043-4bed-baca-73708608a302"},"vehicle_type_id":"4","last_reported":1739218157,"current_range_meters":10800,"station_id":"","pricing_plan_id":"cebpf4jnsgd1na2vs0mg"},{"bike_id":"3664dbbc-23a1-4cc8-b192-1f5bf82ad2ae","system_id":"levelo_inurba_marseille","lat":43.27175,"lon":5.40992,"is_reserved":false,"is_disabled":false,"rental_uris":{"android":"levelo://app?vid=3664dbbc-23a1-4cc8-b192-1f5bf82ad2ae","ios":"levelo://app?vid=3664dbbc-23a1-4cc8-b192-1f5bf82ad2ae"},"vehicle_type_id":"4","last_reported":1739218157,"current_range_meters":38000,"station_id":"ce4bhl12rcd13ifvqgf0","pricing_plan_id":"cebpf4jnsgd1na2vs0mg"},{"bike_id":"7aea78e9-6742-4e6c-8617-877f951312f7","system_id":"levelo_inurba_marseille","lat":43.30094,"lon":5.39084,"is_reserved":false,"is_disabled":false,"rental_uris":{"android":"levelo://app?vid=7aea78e9-6742-4e6c-8617-877f951312f7","ios":"levelo://app?vid=7aea78e9-6742-4e6c-8617-877f951312f7"},"vehicle_type_id":"4","last_reported":1739218157,"current_range_meters":17600,"station_id":"ce4bh192rcd13ifvqdb0","pricing_plan_id":"cebpf4jnsgd1na2vs0mg"},{"bike_id":"a8158c90-43cd-485b-b227-ab2c6a7833b6","system_id":"levelo_inurba_marseille","lat":43.28036,"lon":5.36952,"is_reserved":false,"is_disabled":false,"rental_uris":{"android":"levelo://app?vid=a8158c90-43cd-485b-b227-ab2c6a7833b6","ios":"levelo://app?vid=a8158c90-43cd-485b-b227-ab2c6a7833b6"},"vehicle_type_id":"4","last_reported":1739218157,"current_range_meters":32000,"station_id":"ce4bha12rcd13ifvqef0","pricing_plan_id":"cebpf4jnsgd1na2vs0mg"},{"bike_id":"0b2730f4-2761-48a6-b43d-961c9e696ec1","system_id":"levelo_inurba_marseille","lat":43.28454,"lon":5.35886,"is_reserved":false,"is_disabled":false,"rental_uris":{"android":"levelo://app?vid=0b2730f4-2761-48a6-b43d-961c9e696ec1","ios":"levelo://app?vid=0b2730f4-2761-48a6-b43d-961c9e696ec1"},"vehicle_type_id":"4","last_reported":1739218157,"current_range_meters":38800,"station_id":"ce4bhah2rcd13ifvqei0","pricing_plan_id":"cebpf4jnsgd1na2vs0mg"},{"bike_id":"890464c4-7185-412e-a93b-79d798bd90c9","system_id":"levelo_inurba_marseille","lat":43.284336,"lon":5.391923,"is_reserved":false,"is_disabled":false,"rental_uris":{"android":"levelo://app?vid=890464c4-7185-412e-a93b-79d798bd90c9","ios":"levelo://app?vid=890464c4-7185-412e-a93b-79d798bd90c9"},"vehicle_type_id":"4","last_reported":1739218157,"current_range_meters":39200,"station_id":"ce4bhoh2rcd13ifvqh5g","pricing_plan_id":"cebpf4jnsgd1na2vs0mg"},{"bike_id":"3e4d7c8f-9582-4c93-bb17-a6912e323d2f","system_id":"levelo_inurba_marseille","lat":43.3025,"lon":5.40072,"is_reserved":false,"is_disabled":false,"rental_uris":{"android":"levelo://app?vid=3e4d7c8f-9582-4c93-bb17-a6912e323d2f","ios":"levelo://app?vid=3e4d7c8f-9582-4c93-bb17-a6912e323d2f"},"vehicle_type_id":"4","last_reported":1739218157,"current_range_meters":24800,"station_id":"ce4bgvh2rcd13ifvqcs0","pricing_plan_id":"cebpf4jnsgd1na2vs0mg"},{"bike_id":"8517ba79-8da0-4668-8cee-0db8d18cba54","system_id":"levelo_inurba_marseille","lat":43.29536,"lon":5.39025,"is_reserved":false,"is_disabled":false,"rental_uris":{"android":"levelo://app?vid=8517ba79-8da0-4668-8cee-0db8d18cba54","ios":"levelo://app?vid=8517ba79-8da0-4668-8cee-0db8d18cba54"},"vehicle_type_id":"4","last_reported":1739218157,"current_range_meters":25200,"station_id":"ce4bh3p2rcd13ifvqdp0","pricing_plan_id":"cebpf4jnsgd1na2vs0mg"},{"bike_id":"6a61494c-64e7-4150-8260-115f4cb420a4","system_id":"levelo_inurba_marseille","lat":43.29258,"lon":5.38443,"is_reserved":false,"is_disabled":false,"rental_uris":{"android":"levelo://app?vid=6a61494c-64e7-4150-8260-115f4cb420a4","ios":"levelo://app?vid=6a61494c-64e7-4150-8260-115f4cb420a4"},"vehicle_type_id":"4","last_reported":1739218157,"current_range_meters":12000,"station_id":"ce4bh692rcd13ifvqea0","pricing_plan_id":"cebpf4jnsgd1na2vs0mg"},{"bike_id":"d77ebab4-8330-4bd8-b943-62e52e95c5a3","system_id":"levelo_inurba_marseille","lat":43.29862,"lon":5.3973,"is_reserved":false,"is_disabled":false,"rental_uris":{"android":"levelo://app?vid=d77ebab4-8330-4bd8-b943-62e52e95c5a3","ios":"levelo://app?vid=d77ebab4-8330-4bd8-b943-62e52e95c5a3"},"vehicle_type_id":"4","last_reported":1739218157,"current_range_meters":38000,"station_id":"ce4bh0h2rcd13ifvqd50","pricing_plan_id":"cebpf4jnsgd1na2vs0mg"},{"bike_id":"0cdcc8f7-f674-43f1-9b73-0f1949650402","system_id":"levelo_inurba_marseille","lat":43.23962,"lon":5.36623,"is_reserved":false,"is_disabled":false,"rental_uris":{"android":"levelo://app?vid=0cdcc8f7-f674-43f1-9b73-0f1949650402","ios":"levelo://app?vid=0cdcc8f7-f674-43f1-9b73-0f1949650402"},"vehicle_type_id":"4","last_reported":1739218157,"current_range_meters":37600,"station_id":"ce4bhi12rcd13ifvqfp0","pricing_plan_id":"cebpf4jnsgd1na2vs0mg"},{"bike_id":"50bfa88f-b441-48b8-986d-713543ab2a4a","system_id":"levelo_inurba_marseille","lat":43.29188,"lon":5.35802,"is_reserved":false,"is_disabled":false,"rental_uris":{"android":"levelo://app?vid=50bfa88f-b441-48b8-986d-713543ab2a4a","ios":"levelo://app?vid=50bfa88f-b441-48b8-986d-713543ab2a4a"},"vehicle_type_id":"4","last_reported":1739218157,"current_range_meters":25600,"station_id":"ce4bhb12rcd13ifvqel0","pricing_plan_id":"cebpf4jnsgd1na2vs0mg"},{"bike_id":"de77abfa-6f74-40e9-8131-b7884eda37eb","system_id":"levelo_inurba_marseille","lat":43.29923,"lon":5.39397,"is_reserved":false,"is_disabled":false,"rental_uris":{"android":"levelo://app?vid=de77abfa-6f74-40e9-8131-b7884eda37eb","ios":"levelo://app?vid=de77abfa-6f74-40e9-8131-b7884eda37eb"},"vehicle_type_id":"4","last_reported":1739218157,"current_range_meters":30800,"station_id":"","pricing_plan_id":"cebpf4jnsgd1na2vs0mg"},{"bike_id":"44dd6324-cf8b-4645-bc5d-6f2dbec52f2a","system_id":"levelo_inurba_marseille","lat":43.26589,"lon":5.39016,"is_reserved":false,"is_disabled":false,"rental_uris":{"android":"levelo://app?vid=44dd6324-cf8b-4645-bc5d-6f2dbec52f2a","ios":"levelo://app?vid=44dd6324-cf8b-4645-bc5d-6f2dbec52f2a"},"vehicle_type_id":"4","last_reported":1739218157,"current_range_meters":17600,"station_id":"ce4bhe12rcd13ifvqf30","pricing_plan_id":"cebpf4jnsgd1na2vs0mg"},{"bike_id":"ee079ffa-4416-4a91-bc98-3bd665acea3b","system_id":"levelo_inurba_marseille","lat":43.33737,"lon":5.39181,"is_reserved":false,"is_disabled":false,"rental_uris":{"android":"levelo://app?vid=ee079ffa-4416-4a91-bc98-3bd665acea3b","ios":"levelo://app?vid=ee079ffa-4416-4a91-bc98-3bd665acea3b"},"vehicle_type_id":"4","last_reported":1739218157,"current_range_meters":38800,"station_id":"ce4bhr92rcd13ifvqhsg","pricing_plan_id":"cebpf4jnsgd1na2vs0mg"},{"bike_id":"1fa82dc6-47d4-4356-bbca-393bf4461726","system_id":"levelo_inurba_marseille","lat":43.23956,"lon":5.36631,"is_reserved":false,"is_disabled":false,"rental_uris":{"android":"levelo://app?vid=1fa82dc6-47d4-4356-bbca-393bf4461726","ios":"levelo://app?vid=1fa82dc6-47d4-4356-bbca-393bf4461726"},"vehicle_type_id":"4","last_reported":1739218157,"current_range_meters":22000,"station_id":"ce4bhi12rcd13ifvqfp0","pricing_plan_id":"cebpf4jnsgd1na2vs0mg"},{"bike_id":"f4fec433-2c19-455c-8f42-1874b7f97e33","system_id":"levelo_inurba_marseille","lat":43.29533,"lon":5.39408,"is_reserved":false,"is_disabled":false,"rental_uris":{"android":"levelo://app?vid=f4fec433-2c19-455c-8f42-1874b7f97e33","ios":"levelo://app?vid=f4fec433-2c19-455c-8f42-1874b7f97e33"},"vehicle_type_id":"4","last_reported":1739218157,"current_range_meters":17200,"station_id":"ce4bh292rcd13ifvqdf0","pricing_plan_id":"cebpf4jnsgd1na2vs0mg"},{"bike_id":"80df1ae3-4459-49ef-be8b-4e063df866e1","system_id":"levelo_inurba_marseille","lat":43.29026,"lon":5.39971,"is_reserved":false,"is_disabled":false,"rental_uris":{"android":"levelo://app?vid=80df1ae3-4459-49ef-be8b-4e063df866e1","ios":"levelo://app?vid=80df1ae3-4459-49ef-be8b-4e063df866e1"},"vehicle_type_id":"4","last_reported":1739218157,"current_range_meters":33200,"station_id":"ce4bh392rcd13ifvqdm0","pricing_plan_id":"cebpf4jnsgd1na2vs0mg"},{"bike_id":"1b222d92-0766-4553-98e5-5fe5b4e88883","system_id":"levelo_inurba_marseille","lat":43.230657,"lon":5.354933,"is_reserved":false,"is_disabled":false,"rental_uris":{"android":"levelo://app?vid=1b222d92-0766-4553-98e5-5fe5b4e88883","ios":"levelo://app?vid=1b222d92-0766-4553-98e5-5fe5b4e88883"},"vehicle_type_id":"4","last_reported":1739218157,"current_range_meters":7200,"station_id":"cpo3342slgdg3j2ifvpg","pricing_plan_id":"cebpf4jnsgd1na2vs0mg"},{"bike_id":"3fb479a7-ac98-409e-977d-caf933510e13","system_id":"levelo_inurba_marseille","lat":43.28723,"lon":5.36101,"is_reserved":false,"is_disabled":false,"rental_uris":{"android":"levelo://app?vid=3fb479a7-ac98-409e-977d-caf933510e13","ios":"levelo://app?vid=3fb479a7-ac98-409e-977d-caf933510e13"},"vehicle_type_id":"4","last_reported":1739218157,"current_range_meters":16800,"station_id":"cki0cbj6b192h4jlfktg","pricing_plan_id":"cebpf4jnsgd1na2vs0mg"},{"bike_id":"67c77a93-95e0-4dde-b030-1b6a0f65cf9a","system_id":"levelo_inurba_marseille","lat":43.27175,"lon":5.40995,"is_reserved":false,"is_disabled":false,"rental_uris":{"android":"levelo://app?vid=67c77a93-95e0-4dde-b030-1b6a0f65cf9a","ios":"levelo://app?vid=67c77a93-95e0-4dde-b030-1b6a0f65cf9a"},"vehicle_type_id":"4","last_reported":1739218157,"current_range_meters":11600,"station_id":"ce4bhl12rcd13ifvqgf0","pricing_plan_id":"cebpf4jnsgd1na2vs0mg"},{"bike_id":"d0d8ec2f-c95a-46f3-be60-0d8863b57c52","system_id":"levelo_inurba_marseille","lat":43.28351,"lon":5.38113,"is_reserved":false,"is_disabled":false,"rental_uris":{"android":"levelo://app?vid=d0d8ec2f-c95a-46f3-be60-0d8863b57c52","ios":"levelo://app?vid=d0d8ec2f-c95a-46f3-be60-0d8863b57c52"},"vehicle_type_id":"4","last_reported":1739218157,"current_range_meters":39200,"station_id":"ce4bh412rcd13ifvqdr0","pricing_plan_id":"cebpf4jnsgd1na2vs0mg"},{"bike_id":"496fa2ad-a547-4095-b8b9-a29f1a78ab4b","system_id":"levelo_inurba_marseille","lat":43.27805,"lon":5.40706,"is_reserved":false,"is_disabled":false,"rental_uris":{"android":"levelo://app?vid=496fa2ad-a547-4095-b8b9-a29f1a78ab4b","ios":"levelo://app?vid=496fa2ad-a547-4095-b8b9-a29f1a78ab4b"},"vehicle_type_id":"4","last_reported":1739218157,"current_range_meters":36800,"station_id":"ce4bhnh2rcd13ifvqgtg","pricing_plan_id":"cebpf4jnsgd1na2vs0mg"},{"bike_id":"f53564a4-cbf9-4b55-bb72-8eda8cad3a05","system_id":"levelo_inurba_marseille","lat":43.27069,"lon":5.42298,"is_reserved":false,"is_disabled":false,"rental_uris":{"android":"levelo://app?vid=f53564a4-cbf9-4b55-bb72-8eda8cad3a05","ios":"levelo://app?vid=f53564a4-cbf9-4b55-bb72-8eda8cad3a05"},"vehicle_type_id":"4","last_reported":1739218157,"current_range_meters":21600,"station_id":"ce4bhk92rcd13ifvqgb0","pricing_plan_id":"cebpf4jnsgd1na2vs0mg"},{"bike_id":"01ea49d7-471f-408d-84c4-55b6e9d5f5e2","system_id":"levelo_inurba_marseille","lat":43.28096,"lon":5.37827,"is_reserved":false,"is_disabled":false,"rental_uris":{"android":"levelo://app?vid=01ea49d7-471f-408d-84c4-55b6e9d5f5e2","ios":"levelo://app?vid=01ea49d7-471f-408d-84c4-55b6e9d5f5e2"},"vehicle_type_id":"4","last_reported":1739218157,"current_range_meters":38000,"station_id":"ce4bha12rcd13ifvqee0","pricing_plan_id":"cebpf4jnsgd1na2vs0mg"},{"bike_id":"05f6ac8f-0127-4e39-bd11-d53a74225ef8","system_id":"levelo_inurba_marseille","lat":43.27874,"lon":5.40597,"is_reserved":false,"is_disabled":true,"rental_uris":{"android":"levelo://app?vid=05f6ac8f-0127-4e39-bd11-d53a74225ef8","ios":"levelo://app?vid=05f6ac8f-0127-4e39-bd11-d53a74225ef8"},"vehicle_type_id":"4","last_reported":1739218157,"current_range_meters":0,"station_id":"","pricing_plan_id":"cebpf4jnsgd1na2vs0mg"},{"bike_id":"178f6444-f9fb-46e2-b10e-7aee3a09764c","system_id":"levelo_inurba_marseille","lat":43.310742,"lon":5.383524,"is_reserved":false,"is_disabled":false,"rental_uris":{"android":"levelo://app?vid=178f6444-f9fb-46e2-b10e-7aee3a09764c","ios":"levelo://app?vid=178f6444-f9fb-46e2-b10e-7aee3a09764c"},"vehicle_type_id":"4","last_reported":1739218157,"current_range_meters":21600,"station_id":"ce4bgv92rcd13ifvqcr0","pricing_plan_id":"cebpf4jnsgd1na2vs0mg"},{"bike_id":"5d060918-1952-4a19-9d33-6d60b10a2beb","system_id":"levelo_inurba_marseille","lat":43.26944,"lon":5.40246,"is_reserved":false,"is_disabled":false,"rental_uris":{"android":"levelo://app?vid=5d060918-1952-4a19-9d33-6d60b10a2beb","ios":"levelo://app?vid=5d060918-1952-4a19-9d33-6d60b10a2beb"},"vehicle_type_id":"4","last_reported":1739218157,"current_range_meters":16400,"station_id":"cjm6bp8fraef2m0cb0m0","pricing_plan_id":"cebpf4jnsgd1na2vs0mg"},{"bike_id":"76f3170e-3ff7-41ad-9bc5-e166406e18c1","system_id":"levelo_inurba_marseille","lat":43.28424,"lon":5.34994,"is_reserved":false,"is_disabled":false,"rental_uris":{"android":"levelo://app?vid=76f3170e-3ff7-41ad-9bc5-e166406e18c1","ios":"levelo://app?vid=76f3170e-3ff7-41ad-9bc5-e166406e18c1"},"vehicle_type_id":"4","last_reported":1739218157,"current_range_meters":29600,"station_id":"ce4bhbh2rcd13ifvqepg","pricing_plan_id":"cebpf4jnsgd1na2vs0mg"},{"bike_id":"ff19b20c-ce22-4998-8731-8e01fed701e6","system_id":"levelo_inurba_marseille","lat":43.26553,"lon":5.37281,"is_reserved":false,"is_disabled":false,"rental_uris":{"android":"levelo://app?vid=ff19b20c-ce22-4998-8731-8e01fed701e6","ios":"levelo://app?vid=ff19b20c-ce22-4998-8731-8e01fed701e6"},"vehicle_type_id":"4","last_reported":1739218157,"current_range_meters":6400,"station_id":"ce4bhg12rcd13ifvqf70","pricing_plan_id":"cebpf4jnsgd1na2vs0mg"},{"bike_id":"35565974-4a5a-4f65-a5c9-05cd83300e2b","system_id":"levelo_inurba_marseille","lat":43.27675,"lon":5.38877,"is_reserved":false,"is_disabled":false,"rental_uris":{"android":"levelo://app?vid=35565974-4a5a-4f65-a5c9-05cd83300e2b","ios":"levelo://app?vid=35565974-4a5a-4f65-a5c9-05cd83300e2b"},"vehicle_type_id":"4","last_reported":1739218157,"current_range_meters":35200,"station_id":"ce4bhi12rcd13ifvqfo0","pricing_plan_id":"cebpf4jnsgd1na2vs0mg"},{"bike_id":"71b695c2-fc84-4571-92fe-68de72d84f1f","system_id":"levelo_inurba_marseille","lat":43.29263,"lon":5.38434,"is_reserved":false,"is_disabled":false,"rental_uris":{"android":"levelo://app?vid=71b695c2-fc84-4571-92fe-68de72d84f1f","ios":"levelo://app?vid=71b695c2-fc84-4571-92fe-68de72d84f1f"},"vehicle_type_id":"4","last_reported":1739218157,"current_range_meters":28800,"station_id":"ce4bh692rcd13ifvqea0","pricing_plan_id":"cebpf4jnsgd1na2vs0mg"},{"bike_id":"5c14b59c-1677-4aab-b65a-639a2f319a49","system_id":"levelo_inurba_marseille","lat":43.274255,"lon":5.394195,"is_reserved":false,"is_disabled":false,"rental_uris":{"android":"levelo://app?vid=5c14b59c-1677-4aab-b65a-639a2f319a49","ios":"levelo://app?vid=5c14b59c-1677-4aab-b65a-639a2f319a49"},"vehicle_type_id":"4","last_reported":1739218157,"current_range_meters":35200,"station_id":"ce4bhdp2rcd13ifvqf20","pricing_plan_id":"cebpf4jnsgd1na2vs0mg"},{"bike_id":"021aebcc-7a96-411a-add9-f1926aeb8933","system_id":"levelo_inurba_marseille","lat":43.28379,"lon":5.38618,"is_reserved":false,"is_disabled":false,"rental_uris":{"android":"levelo://app?vid=021aebcc-7a96-411a-add9-f1926aeb8933","ios":"levelo://app?vid=021aebcc-7a96-411a-add9-f1926aeb8933"},"vehicle_type_id":"4","last_reported":1739218157,"current_range_meters":38000,"station_id":"ce4bh492rcd13ifvqdvg","pricing_plan_id":"cebpf4jnsgd1na2vs0mg"},{"bike_id":"04564863-f1f2-443b-b8f1-fcbab471f36d","system_id":"levelo_inurba_marseille","lat":43.29559,"lon":5.39076,"is_reserved":false,"is_disabled":false,"rental_uris":{"android":"levelo://app?vid=04564863-f1f2-443b-b8f1-fcbab471f36d","ios":"levelo://app?vid=04564863-f1f2-443b-b8f1-fcbab471f36d"},"vehicle_type_id":"4","last_reported":1739218157,"current_range_meters":38800,"station_id":"ce4bh3p2rcd13ifvqdp0","pricing_plan_id":"cebpf4jnsgd1na2vs0mg"},{"bike_id":"3eedc124-81a7-4614-9478-cebc39530283","system_id":"levelo_inurba_marseille","lat":43.30261,"lon":5.40076,"is_reserved":false,"is_disabled":false,"rental_uris":{"android":"levelo://app?vid=3eedc124-81a7-4614-9478-cebc39530283","ios":"levelo://app?vid=3eedc124-81a7-4614-9478-cebc39530283"},"vehicle_type_id":"4","last_reported":1739218157,"current_range_meters":24000,"station_id":"ce4bgvh2rcd13ifvqcs0","pricing_plan_id":"cebpf4jnsgd1na2vs0mg"},{"bike_id":"b57e3325-6e54-41f5-9776-1d723778cb56","system_id":"levelo_inurba_marseille","lat":43.28718,"lon":5.37915,"is_reserved":false,"is_disabled":false,"rental_uris":{"android":"levelo://app?vid=b57e3325-6e54-41f5-9776-1d723778cb56","ios":"levelo://app?vid=b57e3325-6e54-41f5-9776-1d723778cb56"},"vehicle_type_id":"4","last_reported":1739218157,"current_range_meters":38800,"station_id":"ce4bh9p2rcd13ifvqec0","pricing_plan_id":"cebpf4jnsgd1na2vs0mg"},{"bike_id":"fd7cd6eb-8023-4160-9061-39fa556cf25c","system_id":"levelo_inurba_marseille","lat":43.30316,"lon":5.40436,"is_reserved":false,"is_disabled":true,"rental_uris":{"android":"levelo://app?vid=fd7cd6eb-8023-4160-9061-39fa556cf25c","ios":"levelo://app?vid=fd7cd6eb-8023-4160-9061-39fa556cf25c"},"vehicle_type_id":"4","last_reported":1739218157,"current_range_meters":31200,"station_id":"ce4bh012rcd13ifvqd10","pricing_plan_id":"cebpf4jnsgd1na2vs0mg"},{"bike_id":"a5168041-1b3d-49a6-9f44-b7b9bc9707e0","system_id":"levelo_inurba_marseille","lat":43.29248,"lon":5.38451,"is_reserved":false,"is_disabled":false,"rental_uris":{"android":"levelo://app?vid=a5168041-1b3d-49a6-9f44-b7b9bc9707e0","ios":"levelo://app?vid=a5168041-1b3d-49a6-9f44-b7b9bc9707e0"},"vehicle_type_id":"4","last_reported":1739218157,"current_range_meters":38000,"station_id":"ce4bh692rcd13ifvqea0","pricing_plan_id":"cebpf4jnsgd1na2vs0mg"},{"bike_id":"d32849cf-4c14-4032-9063-172d06d3f04f","system_id":"levelo_inurba_marseille","lat":43.23194,"lon":5.3558,"is_reserved":false,"is_disabled":false,"rental_uris":{"android":"levelo://app?vid=d32849cf-4c14-4032-9063-172d06d3f04f","ios":"levelo://app?vid=d32849cf-4c14-4032-9063-172d06d3f04f"},"vehicle_type_id":"4","last_reported":1739218157,"current_range_meters":36800,"station_id":"ce4bhu92rcd13ifvqi70","pricing_plan_id":"cebpf4jnsgd1na2vs0mg"},{"bike_id":"8874a213-102d-48ef-b2d7-c6104bb686b2","system_id":"levelo_inurba_marseille","lat":43.29528,"lon":5.42228,"is_reserved":false,"is_disabled":true,"rental_uris":{"android":"levelo://app?vid=8874a213-102d-48ef-b2d7-c6104bb686b2","ios":"levelo://app?vid=8874a213-102d-48ef-b2d7-c6104bb686b2"},"vehicle_type_id":"4","last_reported":1739218157,"current_range_meters":1200,"station_id":"ce4bhph2rcd13ifvqhdg","pricing_plan_id":"cebpf4jnsgd1na2vs0mg"},{"bike_id":"50bd9ed8-ae80-4a33-981d-50c4e23193ac","system_id":"levelo_inurba_marseille","lat":43.27947,"lon":5.38726,"is_reserved":false,"is_disabled":false,"rental_uris":{"android":"levelo://app?vid=50bd9ed8-ae80-4a33-981d-50c4e23193ac","ios":"levelo://app?vid=50bd9ed8-ae80-4a33-981d-50c4e23193ac"},"vehicle_type_id":"4","last_reported":1739218157,"current_range_meters":38800,"station_id":"ce4bhg12rcd13ifvqf80","pricing_plan_id":"cebpf4jnsgd1na2vs0mg"},{"bike_id":"e8fc2879-b3d9-4b04-a54d-53719f8d30ec","system_id":"levelo_inurba_marseille","lat":43.29526,"lon":5.39401,"is_reserved":false,"is_disabled":false,"rental_uris":{"android":"levelo://app?vid=e8fc2879-b3d9-4b04-a54d-53719f8d30ec","ios":"levelo://app?vid=e8fc2879-b3d9-4b04-a54d-53719f8d30ec"},"vehicle_type_id":"4","last_reported":1739218157,"current_range_meters":29600,"station_id":"ce4bh292rcd13ifvqdf0","pricing_plan_id":"cebpf4jnsgd1na2vs0mg"},{"bike_id":"65426c00-2fe6-4730-b1b9-6c23ba8d7fc6","system_id":"levelo_inurba_marseille","lat":43.26784,"lon":5.39414,"is_reserved":false,"is_disabled":false,"rental_uris":{"android":"levelo://app?vid=65426c00-2fe6-4730-b1b9-6c23ba8d7fc6","ios":"levelo://app?vid=65426c00-2fe6-4730-b1b9-6c23ba8d7fc6"},"vehicle_type_id":"4","last_reported":1739218157,"current_range_meters":16800,"station_id":"ce4bhh12rcd13ifvqfg0","pricing_plan_id":"cebpf4jnsgd1na2vs0mg"},{"bike_id":"b7cfafc0-fba3-47fa-8c3d-d96c6bee1f7a","system_id":"levelo_inurba_marseille","lat":43.24396,"lon":5.37021,"is_reserved":false,"is_disabled":false,"rental_uris":{"android":"levelo://app?vid=b7cfafc0-fba3-47fa-8c3d-d96c6bee1f7a","ios":"levelo://app?vid=b7cfafc0-fba3-47fa-8c3d-d96c6bee1f7a"},"vehicle_type_id":"4","last_reported":1739218157,"current_range_meters":36000,"station_id":"ce4bhhh2rcd13ifvqfk0","pricing_plan_id":"cebpf4jnsgd1na2vs0mg"},{"bike_id":"c79da75a-f9cf-415b-a825-570ce0e98b4d","system_id":"levelo_inurba_marseille","lat":43.2884,"lon":5.39323,"is_reserved":false,"is_disabled":false,"rental_uris":{"android":"levelo://app?vid=c79da75a-f9cf-415b-a825-570ce0e98b4d","ios":"levelo://app?vid=c79da75a-f9cf-415b-a825-570ce0e98b4d"},"vehicle_type_id":"4","last_reported":1739218157,"current_range_meters":37600,"station_id":"ce4bh2p2rcd13ifvqdi0","pricing_plan_id":"cebpf4jnsgd1na2vs0mg"},{"bike_id":"7ad2debf-586d-4c17-96ee-4293391683d1","system_id":"levelo_inurba_marseille","lat":43.28151,"lon":5.42622,"is_reserved":false,"is_disabled":false,"rental_uris":{"android":"levelo://app?vid=7ad2debf-586d-4c17-96ee-4293391683d1","ios":"levelo://app?vid=7ad2debf-586d-4c17-96ee-4293391683d1"},"vehicle_type_id":"4","last_reported":1739218157,"current_range_meters":21600,"station_id":"ce4bhnh2rcd13ifvqgug","pricing_plan_id":"cebpf4jnsgd1na2vs0mg"},{"bike_id":"3053beb1-cf70-417b-badc-581ea0c267b6","system_id":"levelo_inurba_marseille","lat":43.3189,"lon":5.40745,"is_reserved":false,"is_disabled":false,"rental_uris":{"android":"levelo://app?vid=3053beb1-cf70-417b-badc-581ea0c267b6","ios":"levelo://app?vid=3053beb1-cf70-417b-badc-581ea0c267b6"},"vehicle_type_id":"4","last_reported":1739218157,"current_range_meters":29600,"station_id":"ce4bhq12rcd13ifvqhig","pricing_plan_id":"cebpf4jnsgd1na2vs0mg"},{"bike_id":"386a5c6b-0374-40ee-8fee-068f2ec38f9b","system_id":"levelo_inurba_marseille","lat":43.23954,"lon":5.36625,"is_reserved":false,"is_disabled":false,"rental_uris":{"android":"levelo://app?vid=386a5c6b-0374-40ee-8fee-068f2ec38f9b","ios":"levelo://app?vid=386a5c6b-0374-40ee-8fee-068f2ec38f9b"},"vehicle_type_id":"4","last_reported":1739218157,"current_range_meters":14800,"station_id":"ce4bhi12rcd13ifvqfp0","pricing_plan_id":"cebpf4jnsgd1na2vs0mg"},{"bike_id":"a6635dcb-e63d-4619-a55b-5c428c50d4ed","system_id":"levelo_inurba_marseille","lat":43.30523,"lon":5.36694,"is_reserved":false,"is_disabled":false,"rental_uris":{"android":"levelo://app?vid=a6635dcb-e63d-4619-a55b-5c428c50d4ed","ios":"levelo://app?vid=a6635dcb-e63d-4619-a55b-5c428c50d4ed"},"vehicle_type_id":"4","last_reported":1739218157,"current_range_meters":25200,"station_id":"ce4bgrp2rcd13ifvqc9g","pricing_plan_id":"cebpf4jnsgd1na2vs0mg"},{"bike_id":"502ef3f2-f2b5-43fe-81f4-a7e02f827024","system_id":"levelo_inurba_marseille","lat":43.32706,"lon":5.41006,"is_reserved":false,"is_disabled":false,"rental_uris":{"android":"levelo://app?vid=502ef3f2-f2b5-43fe-81f4-a7e02f827024","ios":"levelo://app?vid=502ef3f2-f2b5-43fe-81f4-a7e02f827024"},"vehicle_type_id":"4","last_reported":1739218157,"current_range_meters":27200,"station_id":"","pricing_plan_id":"cebpf4jnsgd1na2vs0mg"},{"bike_id":"27970130-9f58-408f-85a6-eea1ca4029cd","system_id":"levelo_inurba_marseille","lat":43.295388,"lon":5.390356,"is_reserved":false,"is_disabled":false,"rental_uris":{"android":"levelo://app?vid=27970130-9f58-408f-85a6-eea1ca4029cd","ios":"levelo://app?vid=27970130-9f58-408f-85a6-eea1ca4029cd"},"vehicle_type_id":"4","last_reported":1739218157,"current_range_meters":38800,"station_id":"ce4bh3p2rcd13ifvqdp0","pricing_plan_id":"cebpf4jnsgd1na2vs0mg"},{"bike_id":"3ad78980-d954-4439-b88d-56e0dcfe7b89","system_id":"levelo_inurba_marseille","lat":43.23953,"lon":5.36638,"is_reserved":false,"is_disabled":false,"rental_uris":{"android":"levelo://app?vid=3ad78980-d954-4439-b88d-56e0dcfe7b89","ios":"levelo://app?vid=3ad78980-d954-4439-b88d-56e0dcfe7b89"},"vehicle_type_id":"4","last_reported":1739218157,"current_range_meters":13600,"station_id":"ce4bhi12rcd13ifvqfp0","pricing_plan_id":"cebpf4jnsgd1na2vs0mg"},{"bike_id":"5fe71351-1266-46bd-a5c5-2cf19802c0db","system_id":"levelo_inurba_marseille","lat":43.29421,"lon":5.38618,"is_reserved":false,"is_disabled":false,"rental_uris":{"android":"levelo://app?vid=5fe71351-1266-46bd-a5c5-2cf19802c0db","ios":"levelo://app?vid=5fe71351-1266-46bd-a5c5-2cf19802c0db"},"vehicle_type_id":"4","last_reported":1739218157,"current_range_meters":30000,"station_id":"ce4bh2h2rcd13ifvqdh0","pricing_plan_id":"cebpf4jnsgd1na2vs0mg"},{"bike_id":"57bb23cc-aacd-4798-9d5f-20a9fef2ce8a","system_id":"levelo_inurba_marseille","lat":43.30662,"lon":5.40092,"is_reserved":false,"is_disabled":false,"rental_uris":{"android":"levelo://app?vid=57bb23cc-aacd-4798-9d5f-20a9fef2ce8a","ios":"levelo://app?vid=57bb23cc-aacd-4798-9d5f-20a9fef2ce8a"},"vehicle_type_id":"4","last_reported":1739218157,"current_range_meters":27600,"station_id":"ce4bh112rcd13ifvqda0","pricing_plan_id":"cebpf4jnsgd1na2vs0mg"},{"bike_id":"f69cd6be-4142-4fae-b32e-2ad56ba1af59","system_id":"levelo_inurba_marseille","lat":43.31707,"lon":5.404426,"is_reserved":false,"is_disabled":false,"rental_uris":{"android":"levelo://app?vid=f69cd6be-4142-4fae-b32e-2ad56ba1af59","ios":"levelo://app?vid=f69cd6be-4142-4fae-b32e-2ad56ba1af59"},"vehicle_type_id":"4","last_reported":1739218157,"current_range_meters":38800,"station_id":"ce4bh012rcd13ifvqd00","pricing_plan_id":"cebpf4jnsgd1na2vs0mg"},{"bike_id":"01b0e03f-7b96-4ac3-a2a1-cc92043b5081","system_id":"levelo_inurba_marseille","lat":43.2919,"lon":5.39333,"is_reserved":false,"is_disabled":true,"rental_uris":{"android":"levelo://app?vid=01b0e03f-7b96-4ac3-a2a1-cc92043b5081","ios":"levelo://app?vid=01b0e03f-7b96-4ac3-a2a1-cc92043b5081"},"vehicle_type_id":"4","last_reported":1739218157,"current_range_meters":26000,"station_id":"ce4bh192rcd13ifvqdd0","pricing_plan_id":"cebpf4jnsgd1na2vs0mg"},{"bike_id":"a89fa4a5-d8a8-4ddc-8598-f264996d0f67","system_id":"levelo_inurba_marseille","lat":43.30267,"lon":5.39697,"is_reserved":false,"is_disabled":false,"rental_uris":{"android":"levelo://app?vid=a89fa4a5-d8a8-4ddc-8598-f264996d0f67","ios":"levelo://app?vid=a89fa4a5-d8a8-4ddc-8598-f264996d0f67"},"vehicle_type_id":"4","last_reported":1739218157,"current_range_meters":33600,"station_id":"","pricing_plan_id":"cebpf4jnsgd1na2vs0mg"},{"bike_id":"0c6f46dc-c218-4346-a97c-49f6de189966","system_id":"levelo_inurba_marseille","lat":43.30925,"lon":5.4014,"is_reserved":false,"is_disabled":false,"rental_uris":{"android":"levelo://app?vid=0c6f46dc-c218-4346-a97c-49f6de189966","ios":"levelo://app?vid=0c6f46dc-c218-4346-a97c-49f6de189966"},"vehicle_type_id":"4","last_reported":1739218157,"current_range_meters":20800,"station_id":"ce4bgvp2rcd13ifvqct0","pricing_plan_id":"cebpf4jnsgd1na2vs0mg"},{"bike_id":"685a393f-51db-46f0-b2e2-fc7a6afd3cdf","system_id":"levelo_inurba_marseille","lat":43.28622,"lon":5.35106,"is_reserved":false,"is_disabled":false,"rental_uris":{"android":"levelo://app?vid=685a393f-51db-46f0-b2e2-fc7a6afd3cdf","ios":"levelo://app?vid=685a393f-51db-46f0-b2e2-fc7a6afd3cdf"},"vehicle_type_id":"4","last_reported":1739218157,"current_range_meters":38000,"station_id":"ce4bhch2rcd13ifvqeug","pricing_plan_id":"cebpf4jnsgd1na2vs0mg"},{"bike_id":"51db92d4-a2c6-47a3-838e-e33df2a5c90f","system_id":"levelo_inurba_marseille","lat":43.29849,"lon":5.36272,"is_reserved":false,"is_disabled":false,"rental_uris":{"android":"levelo://app?vid=51db92d4-a2c6-47a3-838e-e33df2a5c90f","ios":"levelo://app?vid=51db92d4-a2c6-47a3-838e-e33df2a5c90f"},"vehicle_type_id":"4","last_reported":1739218157,"current_range_meters":10800,"station_id":"ce4bgpp2rcd13ifvqc3g","pricing_plan_id":"cebpf4jnsgd1na2vs0mg"},{"bike_id":"93d3a09a-b274-4284-8477-89d862bf6b66","system_id":"levelo_inurba_marseille","lat":43.27436,"lon":5.39407,"is_reserved":false,"is_disabled":false,"rental_uris":{"android":"levelo://app?vid=93d3a09a-b274-4284-8477-89d862bf6b66","ios":"levelo://app?vid=93d3a09a-b274-4284-8477-89d862bf6b66"},"vehicle_type_id":"4","last_reported":1739218157,"current_range_meters":38400,"station_id":"ce4bhdp2rcd13ifvqf20","pricing_plan_id":"cebpf4jnsgd1na2vs0mg"},{"bike_id":"3bb91385-514e-4bb7-bbc6-ce3aa19ccbeb","system_id":"levelo_inurba_marseille","lat":43.31998,"lon":5.38152,"is_reserved":false,"is_disabled":false,"rental_uris":{"android":"levelo://app?vid=3bb91385-514e-4bb7-bbc6-ce3aa19ccbeb","ios":"levelo://app?vid=3bb91385-514e-4bb7-bbc6-ce3aa19ccbeb"},"vehicle_type_id":"4","last_reported":1739218157,"current_range_meters":38000,"station_id":"ce4bhr12rcd13ifvqhpg","pricing_plan_id":"cebpf4jnsgd1na2vs0mg"},{"bike_id":"9f443121-e8ff-4aac-bc9a-d9077c8e664b","system_id":"levelo_inurba_marseille","lat":43.27049,"lon":5.42302,"is_reserved":false,"is_disabled":false,"rental_uris":{"android":"levelo://app?vid=9f443121-e8ff-4aac-bc9a-d9077c8e664b","ios":"levelo://app?vid=9f443121-e8ff-4aac-bc9a-d9077c8e664b"},"vehicle_type_id":"4","last_reported":1739218157,"current_range_meters":28400,"station_id":"ce4bhk92rcd13ifvqgb0","pricing_plan_id":"cebpf4jnsgd1na2vs0mg"},{"bike_id":"ca4ef645-a9d5-4dec-bc8e-46d920a6e7cd","system_id":"levelo_inurba_marseille","lat":43.31123,"lon":5.37764,"is_reserved":false,"is_disabled":false,"rental_uris":{"android":"levelo://app?vid=ca4ef645-a9d5-4dec-bc8e-46d920a6e7cd","ios":"levelo://app?vid=ca4ef645-a9d5-4dec-bc8e-46d920a6e7cd"},"vehicle_type_id":"4","last_reported":1739218157,"current_range_meters":38400,"station_id":"ce4bgt92rcd13ifvqcg0","pricing_plan_id":"cebpf4jnsgd1na2vs0mg"},{"bike_id":"62aecec9-28e9-420e-b00f-f2030f389647","system_id":"levelo_inurba_marseille","lat":43.29711,"lon":5.36596,"is_reserved":false,"is_disabled":false,"rental_uris":{"android":"levelo://app?vid=62aecec9-28e9-420e-b00f-f2030f389647","ios":"levelo://app?vid=62aecec9-28e9-420e-b00f-f2030f389647"},"vehicle_type_id":"4","last_reported":1739218157,"current_range_meters":14000,"station_id":"ce4bgn12rcd13ifvqbt0","pricing_plan_id":"cebpf4jnsgd1na2vs0mg"},{"bike_id":"c03e3e74-2231-4470-8600-8fa32748c474","system_id":"levelo_inurba_marseille","lat":43.24818,"lon":5.37454,"is_reserved":false,"is_disabled":false,"rental_uris":{"android":"levelo://app?vid=c03e3e74-2231-4470-8600-8fa32748c474","ios":"levelo://app?vid=c03e3e74-2231-4470-8600-8fa32748c474"},"vehicle_type_id":"4","last_reported":1739218157,"current_range_meters":37600,"station_id":"ce4bhgh2rcd13ifvqfb0","pricing_plan_id":"cebpf4jnsgd1na2vs0mg"},{"bike_id":"4591023d-5c1e-434a-8f93-a035257c7caf","system_id":"levelo_inurba_marseille","lat":43.283537,"lon":5.381044,"is_reserved":false,"is_disabled":false,"rental_uris":{"android":"levelo://app?vid=4591023d-5c1e-434a-8f93-a035257c7caf","ios":"levelo://app?vid=4591023d-5c1e-434a-8f93-a035257c7caf"},"vehicle_type_id":"4","last_reported":1739218157,"current_range_meters":30000,"station_id":"ce4bh412rcd13ifvqdr0","pricing_plan_id":"cebpf4jnsgd1na2vs0mg"},{"bike_id":"c2250f20-2283-4e17-b7ce-382f2f740aa1","system_id":"levelo_inurba_marseille","lat":43.248052,"lon":5.374523,"is_reserved":false,"is_disabled":false,"rental_uris":{"android":"levelo://app?vid=c2250f20-2283-4e17-b7ce-382f2f740aa1","ios":"levelo://app?vid=c2250f20-2283-4e17-b7ce-382f2f740aa1"},"vehicle_type_id":"4","last_reported":1739218157,"current_range_meters":39200,"station_id":"ce4bhgh2rcd13ifvqfb0","pricing_plan_id":"cebpf4jnsgd1na2vs0mg"},{"bike_id":"f3e6dcd4-0bb7-49b0-8654-b55263181a8d","system_id":"levelo_inurba_marseille","lat":43.28856,"lon":5.39303,"is_reserved":false,"is_disabled":false,"rental_uris":{"android":"levelo://app?vid=f3e6dcd4-0bb7-49b0-8654-b55263181a8d","ios":"levelo://app?vid=f3e6dcd4-0bb7-49b0-8654-b55263181a8d"},"vehicle_type_id":"4","last_reported":1739218157,"current_range_meters":9200,"station_id":"ce4bh2p2rcd13ifvqdi0","pricing_plan_id":"cebpf4jnsgd1na2vs0mg"},{"bike_id":"15dd1a83-8caa-43c7-8d12-1b01002176aa","system_id":"levelo_inurba_marseille","lat":43.2942,"lon":5.3862,"is_reserved":false,"is_disabled":false,"rental_uris":{"android":"levelo://app?vid=15dd1a83-8caa-43c7-8d12-1b01002176aa","ios":"levelo://app?vid=15dd1a83-8caa-43c7-8d12-1b01002176aa"},"vehicle_type_id":"4","last_reported":1739218157,"current_range_meters":28000,"station_id":"ce4bh2h2rcd13ifvqdh0","pricing_plan_id":"cebpf4jnsgd1na2vs0mg"},{"bike_id":"8e7b398d-afd6-49c7-931a-57082626117b","system_id":"levelo_inurba_marseille","lat":43.26559,"lon":5.37277,"is_reserved":false,"is_disabled":false,"rental_uris":{"android":"levelo://app?vid=8e7b398d-afd6-49c7-931a-57082626117b","ios":"levelo://app?vid=8e7b398d-afd6-49c7-931a-57082626117b"},"vehicle_type_id":"4","last_reported":1739218157,"current_range_meters":19200,"station_id":"ce4bhg12rcd13ifvqf70","pricing_plan_id":"cebpf4jnsgd1na2vs0mg"},{"bike_id":"fdcb41f8-a4c8-462f-a3ed-fdbca4069024","system_id":"levelo_inurba_marseille","lat":43.28081,"lon":5.39638,"is_reserved":false,"is_disabled":false,"rental_uris":{"android":"levelo://app?vid=fdcb41f8-a4c8-462f-a3ed-fdbca4069024","ios":"levelo://app?vid=fdcb41f8-a4c8-462f-a3ed-fdbca4069024"},"vehicle_type_id":"4","last_reported":1739218157,"current_range_meters":39200,"station_id":"ce4bho12rcd13ifvqh2g","pricing_plan_id":"cebpf4jnsgd1na2vs0mg"},{"bike_id":"46364d9d-9e7c-4b5a-9d07-d05c87074a64","system_id":"levelo_inurba_marseille","lat":43.295286,"lon":5.390318,"is_reserved":false,"is_disabled":true,"rental_uris":{"android":"levelo://app?vid=46364d9d-9e7c-4b5a-9d07-d05c87074a64","ios":"levelo://app?vid=46364d9d-9e7c-4b5a-9d07-d05c87074a64"},"vehicle_type_id":"4","last_reported":1739218157,"current_range_meters":24000,"station_id":"ce4bh3p2rcd13ifvqdp0","pricing_plan_id":"cebpf4jnsgd1na2vs0mg"},{"bike_id":"5f0ead29-2b8c-4ea2-93f6-5e6a608892f3","system_id":"levelo_inurba_marseille","lat":43.28927,"lon":5.38379,"is_reserved":false,"is_disabled":false,"rental_uris":{"android":"levelo://app?vid=5f0ead29-2b8c-4ea2-93f6-5e6a608892f3","ios":"levelo://app?vid=5f0ead29-2b8c-4ea2-93f6-5e6a608892f3"},"vehicle_type_id":"4","last_reported":1739218157,"current_range_meters":22400,"station_id":"ce4bh612rcd13ifvqe6g","pricing_plan_id":"cebpf4jnsgd1na2vs0mg"},{"bike_id":"a94cc64e-301c-439d-b1df-a149454ed1be","system_id":"levelo_inurba_marseille","lat":43.26552,"lon":5.39013,"is_reserved":false,"is_disabled":false,"rental_uris":{"android":"levelo://app?vid=a94cc64e-301c-439d-b1df-a149454ed1be","ios":"levelo://app?vid=a94cc64e-301c-439d-b1df-a149454ed1be"},"vehicle_type_id":"4","last_reported":1739218157,"current_range_meters":38800,"station_id":"ce4bhe12rcd13ifvqf30","pricing_plan_id":"cebpf4jnsgd1na2vs0mg"},{"bike_id":"afc17562-3144-48d4-9cc5-555f7f658280","system_id":"levelo_inurba_marseille","lat":43.23183,"lon":5.35512,"is_reserved":false,"is_disabled":false,"rental_uris":{"android":"levelo://app?vid=afc17562-3144-48d4-9cc5-555f7f658280","ios":"levelo://app?vid=afc17562-3144-48d4-9cc5-555f7f658280"},"vehicle_type_id":"4","last_reported":1739218157,"current_range_meters":20400,"station_id":"ce4bhu92rcd13ifvqi70","pricing_plan_id":"cebpf4jnsgd1na2vs0mg"},{"bike_id":"9cbd86fe-fa53-4c82-86bc-70e1dc6bf4f7","system_id":"levelo_inurba_marseille","lat":43.29418,"lon":5.38623,"is_reserved":false,"is_disabled":false,"rental_uris":{"android":"levelo://app?vid=9cbd86fe-fa53-4c82-86bc-70e1dc6bf4f7","ios":"levelo://app?vid=9cbd86fe-fa53-4c82-86bc-70e1dc6bf4f7"},"vehicle_type_id":"4","last_reported":1739218157,"current_range_meters":26000,"station_id":"ce4bh2h2rcd13ifvqdh0","pricing_plan_id":"cebpf4jnsgd1na2vs0mg"},{"bike_id":"f2bb126f-643d-4a25-858d-fedf5173828e","system_id":"levelo_inurba_marseille","lat":43.28469,"lon":5.3589,"is_reserved":false,"is_disabled":false,"rental_uris":{"android":"levelo://app?vid=f2bb126f-643d-4a25-858d-fedf5173828e","ios":"levelo://app?vid=f2bb126f-643d-4a25-858d-fedf5173828e"},"vehicle_type_id":"4","last_reported":1739218157,"current_range_meters":35200,"station_id":"ce4bhah2rcd13ifvqei0","pricing_plan_id":"cebpf4jnsgd1na2vs0mg"},{"bike_id":"aa11e593-fb23-42e8-ac9a-9189f6145ec1","system_id":"levelo_inurba_marseille","lat":43.29522,"lon":5.39049,"is_reserved":false,"is_disabled":false,"rental_uris":{"android":"levelo://app?vid=aa11e593-fb23-42e8-ac9a-9189f6145ec1","ios":"levelo://app?vid=aa11e593-fb23-42e8-ac9a-9189f6145ec1"},"vehicle_type_id":"4","last_reported":1739218157,"current_range_meters":10800,"station_id":"ce4bh3p2rcd13ifvqdp0","pricing_plan_id":"cebpf4jnsgd1na2vs0mg"},{"bike_id":"7778ab7e-867c-4916-9ab5-8e4d9b2f9cfc","system_id":"levelo_inurba_marseille","lat":43.28998,"lon":5.356118,"is_reserved":false,"is_disabled":false,"rental_uris":{"android":"levelo://app?vid=7778ab7e-867c-4916-9ab5-8e4d9b2f9cfc","ios":"levelo://app?vid=7778ab7e-867c-4916-9ab5-8e4d9b2f9cfc"},"vehicle_type_id":"4","last_reported":1739218157,"current_range_meters":34800,"station_id":"ce4bhb92rcd13ifvqen0","pricing_plan_id":"cebpf4jnsgd1na2vs0mg"},{"bike_id":"2f016618-2147-48d7-a4c9-c32f1b8bbb3b","system_id":"levelo_inurba_marseille","lat":43.31882,"lon":5.40742,"is_reserved":false,"is_disabled":false,"rental_uris":{"android":"levelo://app?vid=2f016618-2147-48d7-a4c9-c32f1b8bbb3b","ios":"levelo://app?vid=2f016618-2147-48d7-a4c9-c32f1b8bbb3b"},"vehicle_type_id":"4","last_reported":1739218157,"current_range_meters":28400,"station_id":"ce4bhq12rcd13ifvqhig","pricing_plan_id":"cebpf4jnsgd1na2vs0mg"},{"bike_id":"cd26f47f-0d83-4954-b7ce-a41fa79ee461","system_id":"levelo_inurba_marseille","lat":43.27992,"lon":5.40021,"is_reserved":false,"is_disabled":false,"rental_uris":{"android":"levelo://app?vid=cd26f47f-0d83-4954-b7ce-a41fa79ee461","ios":"levelo://app?vid=cd26f47f-0d83-4954-b7ce-a41fa79ee461"},"vehicle_type_id":"4","last_reported":1739218157,"current_range_meters":36800,"station_id":"ce4bho92rcd13ifvqh4g","pricing_plan_id":"cebpf4jnsgd1na2vs0mg"},{"bike_id":"12886e97-e796-47ee-8132-238f166724e7","system_id":"levelo_inurba_marseille","lat":43.29963,"lon":5.38516,"is_reserved":false,"is_disabled":false,"rental_uris":{"android":"levelo://app?vid=12886e97-e796-47ee-8132-238f166724e7","ios":"levelo://app?vid=12886e97-e796-47ee-8132-238f166724e7"},"vehicle_type_id":"4","last_reported":1739218157,"current_range_meters":24400,"station_id":"ce4bgj92rcd13ifvqbd0","pricing_plan_id":"cebpf4jnsgd1na2vs0mg"},{"bike_id":"91c3c342-fc22-4947-b47f-1a2cc2e964fc","system_id":"levelo_inurba_marseille","lat":43.30461,"lon":5.38913,"is_reserved":false,"is_disabled":false,"rental_uris":{"android":"levelo://app?vid=91c3c342-fc22-4947-b47f-1a2cc2e964fc","ios":"levelo://app?vid=91c3c342-fc22-4947-b47f-1a2cc2e964fc"},"vehicle_type_id":"4","last_reported":1739218157,"current_range_meters":12400,"station_id":"ce4bgk12rcd13ifvqbi0","pricing_plan_id":"cebpf4jnsgd1na2vs0mg"},{"bike_id":"1d2000e3-6e82-4c8d-9a0a-5d8181e36eb3","system_id":"levelo_inurba_marseille","lat":43.25018,"lon":5.38919,"is_reserved":false,"is_disabled":false,"rental_uris":{"android":"levelo://app?vid=1d2000e3-6e82-4c8d-9a0a-5d8181e36eb3","ios":"levelo://app?vid=1d2000e3-6e82-4c8d-9a0a-5d8181e36eb3"},"vehicle_type_id":"4","last_reported":1739218157,"current_range_meters":9200,"station_id":"ce4bhgp2rcd13ifvqfd0","pricing_plan_id":"cebpf4jnsgd1na2vs0mg"},{"bike_id":"18de598c-8984-48ca-bcb3-e9d09f7b954c","system_id":"levelo_inurba_marseille","lat":43.2883,"lon":5.35923,"is_reserved":false,"is_disabled":false,"rental_uris":{"android":"levelo://app?vid=18de598c-8984-48ca-bcb3-e9d09f7b954c","ios":"levelo://app?vid=18de598c-8984-48ca-bcb3-e9d09f7b954c"},"vehicle_type_id":"4","last_reported":1739218157,"current_range_meters":27600,"station_id":"","pricing_plan_id":"cebpf4jnsgd1na2vs0mg"},{"bike_id":"288ed061-f3af-4bd4-ae8f-737bd17d8ab1","system_id":"levelo_inurba_marseille","lat":43.317276,"lon":5.423883,"is_reserved":false,"is_disabled":false,"rental_uris":{"android":"levelo://app?vid=288ed061-f3af-4bd4-ae8f-737bd17d8ab1","ios":"levelo://app?vid=288ed061-f3af-4bd4-ae8f-737bd17d8ab1"},"vehicle_type_id":"4","last_reported":1739218157,"current_range_meters":38800,"station_id":"ce4bhp92rcd13ifvqhbg","pricing_plan_id":"cebpf4jnsgd1na2vs0mg"},{"bike_id":"ab056ecb-7c4d-4f3a-98d2-8a94e69e20b2","system_id":"levelo_inurba_marseille","lat":43.28626,"lon":5.35123,"is_reserved":false,"is_disabled":false,"rental_uris":{"android":"levelo://app?vid=ab056ecb-7c4d-4f3a-98d2-8a94e69e20b2","ios":"levelo://app?vid=ab056ecb-7c4d-4f3a-98d2-8a94e69e20b2"},"vehicle_type_id":"4","last_reported":1739218157,"current_range_meters":30000,"station_id":"ce4bhch2rcd13ifvqeug","pricing_plan_id":"cebpf4jnsgd1na2vs0mg"},{"bike_id":"943ba238-d366-46cc-a98f-ba2ce1a87934","system_id":"levelo_inurba_marseille","lat":43.28671,"lon":5.36351,"is_reserved":false,"is_disabled":false,"rental_uris":{"android":"levelo://app?vid=943ba238-d366-46cc-a98f-ba2ce1a87934","ios":"levelo://app?vid=943ba238-d366-46cc-a98f-ba2ce1a87934"},"vehicle_type_id":"4","last_reported":1739218157,"current_range_meters":19600,"station_id":"ce4bhah2rcd13ifvqej0","pricing_plan_id":"cebpf4jnsgd1na2vs0mg"},{"bike_id":"3eac1def-05d3-4a70-82ec-a5e413fe9d17","system_id":"levelo_inurba_marseille","lat":43.28465,"lon":5.38423,"is_reserved":false,"is_disabled":false,"rental_uris":{"android":"levelo://app?vid=3eac1def-05d3-4a70-82ec-a5e413fe9d17","ios":"levelo://app?vid=3eac1def-05d3-4a70-82ec-a5e413fe9d17"},"vehicle_type_id":"4","last_reported":1739218157,"current_range_meters":7200,"station_id":"ce4bh512rcd13ifvqe3g","pricing_plan_id":"cebpf4jnsgd1na2vs0mg"},{"bike_id":"608985ea-b118-4737-bd01-dd2be4e84635","system_id":"levelo_inurba_marseille","lat":43.31483,"lon":5.37303,"is_reserved":false,"is_disabled":false,"rental_uris":{"android":"levelo://app?vid=608985ea-b118-4737-bd01-dd2be4e84635","ios":"levelo://app?vid=608985ea-b118-4737-bd01-dd2be4e84635"},"vehicle_type_id":"4","last_reported":1739218157,"current_range_meters":16400,"station_id":"ce4bgt12rcd13ifvqcd0","pricing_plan_id":"cebpf4jnsgd1na2vs0mg"},{"bike_id":"79c27d1b-6e84-42bc-bef4-d8fc6ca0d19a","system_id":"levelo_inurba_marseille","lat":43.28692,"lon":5.39991,"is_reserved":false,"is_disabled":true,"rental_uris":{"android":"levelo://app?vid=79c27d1b-6e84-42bc-bef4-d8fc6ca0d19a","ios":"levelo://app?vid=79c27d1b-6e84-42bc-bef4-d8fc6ca0d19a"},"vehicle_type_id":"4","last_reported":1739218157,"current_range_meters":38800,"station_id":"ce4bho92rcd13ifvqh3g","pricing_plan_id":"cebpf4jnsgd1na2vs0mg"},{"bike_id":"d5a37605-4e0b-406c-a924-7ca9f964c4e0","system_id":"levelo_inurba_marseille","lat":43.24823,"lon":5.37515,"is_reserved":false,"is_disabled":false,"rental_uris":{"android":"levelo://app?vid=d5a37605-4e0b-406c-a924-7ca9f964c4e0","ios":"levelo://app?vid=d5a37605-4e0b-406c-a924-7ca9f964c4e0"},"vehicle_type_id":"4","last_reported":1739218157,"current_range_meters":28800,"station_id":"","pricing_plan_id":"cebpf4jnsgd1na2vs0mg"},{"bike_id":"2f9906fe-0c89-4b86-a39b-e1b3d8114c06","system_id":"levelo_inurba_marseille","lat":43.28981,"lon":5.36554,"is_reserved":false,"is_disabled":false,"rental_uris":{"android":"levelo://app?vid=2f9906fe-0c89-4b86-a39b-e1b3d8114c06","ios":"levelo://app?vid=2f9906fe-0c89-4b86-a39b-e1b3d8114c06"},"vehicle_type_id":"4","last_reported":1739218157,"current_range_meters":22400,"station_id":"ce4bhap2rcd13ifvqek0","pricing_plan_id":"cebpf4jnsgd1na2vs0mg"},{"bike_id":"ddaf09b0-2c3b-4688-b484-14cdfe4165fc","system_id":"levelo_inurba_marseille","lat":43.287058,"lon":5.373914,"is_reserved":false,"is_disabled":false,"rental_uris":{"android":"levelo://app?vid=ddaf09b0-2c3b-4688-b484-14cdfe4165fc","ios":"levelo://app?vid=ddaf09b0-2c3b-4688-b484-14cdfe4165fc"},"vehicle_type_id":"4","last_reported":1739218157,"current_range_meters":24000,"station_id":"ce4bh3p2rcd13ifvqdq0","pricing_plan_id":"cebpf4jnsgd1na2vs0mg"},{"bike_id":"04d4b8ab-1d4d-44ab-9d49-e10f569c0553","system_id":"levelo_inurba_marseille","lat":43.2984,"lon":5.36263,"is_reserved":false,"is_disabled":false,"rental_uris":{"android":"levelo://app?vid=04d4b8ab-1d4d-44ab-9d49-e10f569c0553","ios":"levelo://app?vid=04d4b8ab-1d4d-44ab-9d49-e10f569c0553"},"vehicle_type_id":"4","last_reported":1739218157,"current_range_meters":12800,"station_id":"ce4bgpp2rcd13ifvqc3g","pricing_plan_id":"cebpf4jnsgd1na2vs0mg"},{"bike_id":"a97f3a8d-e1f7-4ede-af5a-b155aa57a80e","system_id":"levelo_inurba_marseille","lat":43.25582,"lon":5.38222,"is_reserved":false,"is_disabled":false,"rental_uris":{"android":"levelo://app?vid=a97f3a8d-e1f7-4ede-af5a-b155aa57a80e","ios":"levelo://app?vid=a97f3a8d-e1f7-4ede-af5a-b155aa57a80e"},"vehicle_type_id":"4","last_reported":1739218157,"current_range_meters":18000,"station_id":"ce4bhih2rcd13ifvqfs0","pricing_plan_id":"cebpf4jnsgd1na2vs0mg"},{"bike_id":"e7978a9e-c76d-49c3-b991-c2733ada93ec","system_id":"levelo_inurba_marseille","lat":43.26936,"lon":5.40252,"is_reserved":false,"is_disabled":false,"rental_uris":{"android":"levelo://app?vid=e7978a9e-c76d-49c3-b991-c2733ada93ec","ios":"levelo://app?vid=e7978a9e-c76d-49c3-b991-c2733ada93ec"},"vehicle_type_id":"4","last_reported":1739218157,"current_range_meters":38800,"station_id":"cjm6bp8fraef2m0cb0m0","pricing_plan_id":"cebpf4jnsgd1na2vs0mg"},{"bike_id":"07baf43e-fc57-48a3-beea-0bd26e095e21","system_id":"levelo_inurba_marseille","lat":43.29198,"lon":5.3932,"is_reserved":false,"is_disabled":false,"rental_uris":{"android":"levelo://app?vid=07baf43e-fc57-48a3-beea-0bd26e095e21","ios":"levelo://app?vid=07baf43e-fc57-48a3-beea-0bd26e095e21"},"vehicle_type_id":"4","last_reported":1739218157,"current_range_meters":25600,"station_id":"ce4bh192rcd13ifvqdd0","pricing_plan_id":"cebpf4jnsgd1na2vs0mg"},{"bike_id":"1af00a82-b32d-4f50-8686-c27833a37a2d","system_id":"levelo_inurba_marseille","lat":43.303287,"lon":5.404397,"is_reserved":false,"is_disabled":false,"rental_uris":{"android":"levelo://app?vid=1af00a82-b32d-4f50-8686-c27833a37a2d","ios":"levelo://app?vid=1af00a82-b32d-4f50-8686-c27833a37a2d"},"vehicle_type_id":"4","last_reported":1739218157,"current_range_meters":37600,"station_id":"ce4bh012rcd13ifvqd10","pricing_plan_id":"cebpf4jnsgd1na2vs0mg"},{"bike_id":"c4813b27-4250-43ea-8be5-ccd7321d2af3","system_id":"levelo_inurba_marseille","lat":43.28219,"lon":5.36986,"is_reserved":false,"is_disabled":false,"rental_uris":{"android":"levelo://app?vid=c4813b27-4250-43ea-8be5-ccd7321d2af3","ios":"levelo://app?vid=c4813b27-4250-43ea-8be5-ccd7321d2af3"},"vehicle_type_id":"4","last_reported":1739218157,"current_range_meters":24800,"station_id":"","pricing_plan_id":"cebpf4jnsgd1na2vs0mg"},{"bike_id":"93bc07c8-c5e8-4508-b353-1c2773c131f8","system_id":"levelo_inurba_marseille","lat":43.33605,"lon":5.41031,"is_reserved":false,"is_disabled":false,"rental_uris":{"android":"levelo://app?vid=93bc07c8-c5e8-4508-b353-1c2773c131f8","ios":"levelo://app?vid=93bc07c8-c5e8-4508-b353-1c2773c131f8"},"vehicle_type_id":"4","last_reported":1739218157,"current_range_meters":36400,"station_id":"ce4bhqh2rcd13ifvqhmg","pricing_plan_id":"cebpf4jnsgd1na2vs0mg"},{"bike_id":"db45b2ad-8e58-4df6-8875-abc370f12198","system_id":"levelo_inurba_marseille","lat":43.31753,"lon":5.39008,"is_reserved":false,"is_disabled":false,"rental_uris":{"android":"levelo://app?vid=db45b2ad-8e58-4df6-8875-abc370f12198","ios":"levelo://app?vid=db45b2ad-8e58-4df6-8875-abc370f12198"},"vehicle_type_id":"4","last_reported":1739218157,"current_range_meters":24800,"station_id":"ce4bhqp2rcd13ifvqhng","pricing_plan_id":"cebpf4jnsgd1na2vs0mg"},{"bike_id":"e37c9fdc-db44-44ae-b88a-8beacc270b7e","system_id":"levelo_inurba_marseille","lat":43.27947,"lon":5.41044,"is_reserved":false,"is_disabled":false,"rental_uris":{"android":"levelo://app?vid=e37c9fdc-db44-44ae-b88a-8beacc270b7e","ios":"levelo://app?vid=e37c9fdc-db44-44ae-b88a-8beacc270b7e"},"vehicle_type_id":"4","last_reported":1739218157,"current_range_meters":26000,"station_id":"ce4bhnp2rcd13ifvqh0g","pricing_plan_id":"cebpf4jnsgd1na2vs0mg"},{"bike_id":"30040434-0ce6-4639-9cfb-4b7e126d7c60","system_id":"levelo_inurba_marseille","lat":43.27492,"lon":5.42447,"is_reserved":false,"is_disabled":false,"rental_uris":{"android":"levelo://app?vid=30040434-0ce6-4639-9cfb-4b7e126d7c60","ios":"levelo://app?vid=30040434-0ce6-4639-9cfb-4b7e126d7c60"},"vehicle_type_id":"4","last_reported":1739218157,"current_range_meters":38800,"station_id":"ce4bhn92rcd13ifvqgrg","pricing_plan_id":"cebpf4jnsgd1na2vs0mg"},{"bike_id":"68bbcb32-fa77-4964-b22f-993281168362","system_id":"levelo_inurba_marseille","lat":43.29798,"lon":5.40402,"is_reserved":false,"is_disabled":false,"rental_uris":{"android":"levelo://app?vid=68bbcb32-fa77-4964-b22f-993281168362","ios":"levelo://app?vid=68bbcb32-fa77-4964-b22f-993281168362"},"vehicle_type_id":"4","last_reported":1739218157,"current_range_meters":16400,"station_id":"ce4bh112rcd13ifvqd90","pricing_plan_id":"cebpf4jnsgd1na2vs0mg"},{"bike_id":"88e80728-2653-4cc5-b165-3c0335fad05c","system_id":"levelo_inurba_marseille","lat":43.24797,"lon":5.3747,"is_reserved":false,"is_disabled":false,"rental_uris":{"android":"levelo://app?vid=88e80728-2653-4cc5-b165-3c0335fad05c","ios":"levelo://app?vid=88e80728-2653-4cc5-b165-3c0335fad05c"},"vehicle_type_id":"4","last_reported":1739218157,"current_range_meters":30400,"station_id":"ce4bhgh2rcd13ifvqfb0","pricing_plan_id":"cebpf4jnsgd1na2vs0mg"},{"bike_id":"addd07a1-34d8-46c5-813c-e5860355448f","system_id":"levelo_inurba_marseille","lat":43.284,"lon":5.37513,"is_reserved":false,"is_disabled":false,"rental_uris":{"android":"levelo://app?vid=addd07a1-34d8-46c5-813c-e5860355448f","ios":"levelo://app?vid=addd07a1-34d8-46c5-813c-e5860355448f"},"vehicle_type_id":"4","last_reported":1739218157,"current_range_meters":29600,"station_id":"ce4bho92rcd13ifvqh3g","pricing_plan_id":"cebpf4jnsgd1na2vs0mg"},{"bike_id":"868bab58-7fb6-4926-8070-cd9a4296d6f1","system_id":"levelo_inurba_marseille","lat":43.28357,"lon":5.38112,"is_reserved":false,"is_disabled":false,"rental_uris":{"android":"levelo://app?vid=868bab58-7fb6-4926-8070-cd9a4296d6f1","ios":"levelo://app?vid=868bab58-7fb6-4926-8070-cd9a4296d6f1"},"vehicle_type_id":"4","last_reported":1739218157,"current_range_meters":38000,"station_id":"ce4bh412rcd13ifvqdr0","pricing_plan_id":"cebpf4jnsgd1na2vs0mg"},{"bike_id":"ce4a7ce0-e12e-4e73-b43d-a872476e1c85","system_id":"levelo_inurba_marseille","lat":43.30933,"lon":5.40137,"is_reserved":false,"is_disabled":false,"rental_uris":{"android":"levelo://app?vid=ce4a7ce0-e12e-4e73-b43d-a872476e1c85","ios":"levelo://app?vid=ce4a7ce0-e12e-4e73-b43d-a872476e1c85"},"vehicle_type_id":"4","last_reported":1739218157,"current_range_meters":16400,"station_id":"ce4bgvp2rcd13ifvqct0","pricing_plan_id":"cebpf4jnsgd1na2vs0mg"},{"bike_id":"d8e60575-dd75-42cd-9b3b-ddc5b6951e4c","system_id":"levelo_inurba_marseille","lat":43.30354,"lon":5.41872,"is_reserved":false,"is_disabled":false,"rental_uris":{"android":"levelo://app?vid=d8e60575-dd75-42cd-9b3b-ddc5b6951e4c","ios":"levelo://app?vid=d8e60575-dd75-42cd-9b3b-ddc5b6951e4c"},"vehicle_type_id":"4","last_reported":1739218157,"current_range_meters":28800,"station_id":"ce4bhop2rcd13ifvqh7g","pricing_plan_id":"cebpf4jnsgd1na2vs0mg"},{"bike_id":"ce20937a-1fd6-4f65-b36b-3afedd55ee9e","system_id":"levelo_inurba_marseille","lat":43.2938,"lon":5.41266,"is_reserved":false,"is_disabled":false,"rental_uris":{"android":"levelo://app?vid=ce20937a-1fd6-4f65-b36b-3afedd55ee9e","ios":"levelo://app?vid=ce20937a-1fd6-4f65-b36b-3afedd55ee9e"},"vehicle_type_id":"4","last_reported":1739218157,"current_range_meters":24000,"station_id":"","pricing_plan_id":"cebpf4jnsgd1na2vs0mg"},{"bike_id":"841e0f04-b00a-44de-83b7-b9b92c40d93b","system_id":"levelo_inurba_marseille","lat":43.281543,"lon":5.426493,"is_reserved":false,"is_disabled":false,"rental_uris":{"android":"levelo://app?vid=841e0f04-b00a-44de-83b7-b9b92c40d93b","ios":"levelo://app?vid=841e0f04-b00a-44de-83b7-b9b92c40d93b"},"vehicle_type_id":"4","last_reported":1739218157,"current_range_meters":17200,"station_id":"ce4bhnh2rcd13ifvqgug","pricing_plan_id":"cebpf4jnsgd1na2vs0mg"},{"bike_id":"4740ba17-16bf-4c07-b1cb-0cf663b53a6e","system_id":"levelo_inurba_marseille","lat":43.31123,"lon":5.37777,"is_reserved":false,"is_disabled":false,"rental_uris":{"android":"levelo://app?vid=4740ba17-16bf-4c07-b1cb-0cf663b53a6e","ios":"levelo://app?vid=4740ba17-16bf-4c07-b1cb-0cf663b53a6e"},"vehicle_type_id":"4","last_reported":1739218157,"current_range_meters":39200,"station_id":"ce4bgt92rcd13ifvqcg0","pricing_plan_id":"cebpf4jnsgd1na2vs0mg"},{"bike_id":"88379eaf-5a6d-4117-a07a-21ee5231369a","system_id":"levelo_inurba_marseille","lat":43.315291,"lon":5.380349,"is_reserved":false,"is_disabled":false,"rental_uris":{"android":"levelo://app?vid=88379eaf-5a6d-4117-a07a-21ee5231369a","ios":"levelo://app?vid=88379eaf-5a6d-4117-a07a-21ee5231369a"},"vehicle_type_id":"4","last_reported":1739218157,"current_range_meters":38800,"station_id":"ce4bhsp2rcd13ifvqi50","pricing_plan_id":"cebpf4jnsgd1na2vs0mg"},{"bike_id":"9fb1fd31-e5f8-4b71-b9b7-da1bc2cf47d2","system_id":"levelo_inurba_marseille","lat":43.26788,"lon":5.39416,"is_reserved":false,"is_disabled":false,"rental_uris":{"android":"levelo://app?vid=9fb1fd31-e5f8-4b71-b9b7-da1bc2cf47d2","ios":"levelo://app?vid=9fb1fd31-e5f8-4b71-b9b7-da1bc2cf47d2"},"vehicle_type_id":"4","last_reported":1739218157,"current_range_meters":36000,"station_id":"ce4bhh12rcd13ifvqfg0","pricing_plan_id":"cebpf4jnsgd1na2vs0mg"},{"bike_id":"73e31d25-afb3-49ff-b748-3fe454da947d","system_id":"levelo_inurba_marseille","lat":43.28936,"lon":5.3663,"is_reserved":false,"is_disabled":false,"rental_uris":{"android":"levelo://app?vid=73e31d25-afb3-49ff-b748-3fe454da947d","ios":"levelo://app?vid=73e31d25-afb3-49ff-b748-3fe454da947d"},"vehicle_type_id":"4","last_reported":1739218157,"current_range_meters":38800,"station_id":"ce4bhap2rcd13ifvqek0","pricing_plan_id":"cebpf4jnsgd1na2vs0mg"},{"bike_id":"b8cbd248-db62-4d84-b3a4-fd8e7e00f9d3","system_id":"levelo_inurba_marseille","lat":43.28026,"lon":5.36938,"is_reserved":false,"is_disabled":false,"rental_uris":{"android":"levelo://app?vid=b8cbd248-db62-4d84-b3a4-fd8e7e00f9d3","ios":"levelo://app?vid=b8cbd248-db62-4d84-b3a4-fd8e7e00f9d3"},"vehicle_type_id":"4","last_reported":1739218157,"current_range_meters":32400,"station_id":"ce4bha12rcd13ifvqef0","pricing_plan_id":"cebpf4jnsgd1na2vs0mg"},{"bike_id":"1ec14052-2d33-4aa1-9ab8-58cc71db74d1","system_id":"levelo_inurba_marseille","lat":43.2417,"lon":5.36391,"is_reserved":false,"is_disabled":false,"rental_uris":{"android":"levelo://app?vid=1ec14052-2d33-4aa1-9ab8-58cc71db74d1","ios":"levelo://app?vid=1ec14052-2d33-4aa1-9ab8-58cc71db74d1"},"vehicle_type_id":"4","last_reported":1739218157,"current_range_meters":17600,"station_id":"cpo36qri1sfpv3e86is0","pricing_plan_id":"cebpf4jnsgd1na2vs0mg"},{"bike_id":"6e99eac2-ce29-457d-b4dd-f5cd87e6b34c","system_id":"levelo_inurba_marseille","lat":43.28338,"lon":5.38107,"is_reserved":false,"is_disabled":false,"rental_uris":{"android":"levelo://app?vid=6e99eac2-ce29-457d-b4dd-f5cd87e6b34c","ios":"levelo://app?vid=6e99eac2-ce29-457d-b4dd-f5cd87e6b34c"},"vehicle_type_id":"4","last_reported":1739218157,"current_range_meters":39200,"station_id":"ce4bh412rcd13ifvqdr0","pricing_plan_id":"cebpf4jnsgd1na2vs0mg"},{"bike_id":"c86beeaf-5b01-4d20-9850-20eb76f7e99a","system_id":"levelo_inurba_marseille","lat":43.304255,"lon":5.388775,"is_reserved":false,"is_disabled":false,"rental_uris":{"android":"levelo://app?vid=c86beeaf-5b01-4d20-9850-20eb76f7e99a","ios":"levelo://app?vid=c86beeaf-5b01-4d20-9850-20eb76f7e99a"},"vehicle_type_id":"4","last_reported":1739218157,"current_range_meters":25600,"station_id":"ce4bgk12rcd13ifvqbi0","pricing_plan_id":"cebpf4jnsgd1na2vs0mg"},{"bike_id":"a8eb7d54-da88-4020-a71f-24fa02f4c4b2","system_id":"levelo_inurba_marseille","lat":43.3234,"lon":5.40622,"is_reserved":false,"is_disabled":false,"rental_uris":{"android":"levelo://app?vid=a8eb7d54-da88-4020-a71f-24fa02f4c4b2","ios":"levelo://app?vid=a8eb7d54-da88-4020-a71f-24fa02f4c4b2"},"vehicle_type_id":"4","last_reported":1739218157,"current_range_meters":7200,"station_id":"ce4bhq92rcd13ifvqhjg","pricing_plan_id":"cebpf4jnsgd1na2vs0mg"},{"bike_id":"1fc2e01a-39db-473e-9340-05e46c2bfee3","system_id":"levelo_inurba_marseille","lat":43.2856,"lon":5.39497,"is_reserved":false,"is_disabled":false,"rental_uris":{"android":"levelo://app?vid=1fc2e01a-39db-473e-9340-05e46c2bfee3","ios":"levelo://app?vid=1fc2e01a-39db-473e-9340-05e46c2bfee3"},"vehicle_type_id":"4","last_reported":1739218157,"current_range_meters":38800,"station_id":"ce4bh292rcd13ifvqdg0","pricing_plan_id":"cebpf4jnsgd1na2vs0mg"},{"bike_id":"609de531-9d7a-43f1-8281-bbda2a56fe01","system_id":"levelo_inurba_marseille","lat":43.309338,"lon":5.401375,"is_reserved":false,"is_disabled":false,"rental_uris":{"android":"levelo://app?vid=609de531-9d7a-43f1-8281-bbda2a56fe01","ios":"levelo://app?vid=609de531-9d7a-43f1-8281-bbda2a56fe01"},"vehicle_type_id":"4","last_reported":1739218157,"current_range_meters":38800,"station_id":"ce4bgvp2rcd13ifvqct0","pricing_plan_id":"cebpf4jnsgd1na2vs0mg"},{"bike_id":"fbb98623-bd6f-4427-9463-8f7fc3b3bd20","system_id":"levelo_inurba_marseille","lat":43.28039,"lon":5.36952,"is_reserved":false,"is_disabled":false,"rental_uris":{"android":"levelo://app?vid=fbb98623-bd6f-4427-9463-8f7fc3b3bd20","ios":"levelo://app?vid=fbb98623-bd6f-4427-9463-8f7fc3b3bd20"},"vehicle_type_id":"4","last_reported":1739218157,"current_range_meters":31200,"station_id":"ce4bha12rcd13ifvqef0","pricing_plan_id":"cebpf4jnsgd1na2vs0mg"},{"bike_id":"d37a56cf-7136-4e6e-a35d-b588d1bd39ab","system_id":"levelo_inurba_marseille","lat":43.3153,"lon":5.38037,"is_reserved":false,"is_disabled":false,"rental_uris":{"android":"levelo://app?vid=d37a56cf-7136-4e6e-a35d-b588d1bd39ab","ios":"levelo://app?vid=d37a56cf-7136-4e6e-a35d-b588d1bd39ab"},"vehicle_type_id":"4","last_reported":1739218157,"current_range_meters":31200,"station_id":"ce4bhsp2rcd13ifvqi50","pricing_plan_id":"cebpf4jnsgd1na2vs0mg"},{"bike_id":"1f4035c9-8a5c-4fac-87cb-146b8f52eaaa","system_id":"levelo_inurba_marseille","lat":43.28433,"lon":5.39187,"is_reserved":false,"is_disabled":false,"rental_uris":{"android":"levelo://app?vid=1f4035c9-8a5c-4fac-87cb-146b8f52eaaa","ios":"levelo://app?vid=1f4035c9-8a5c-4fac-87cb-146b8f52eaaa"},"vehicle_type_id":"4","last_reported":1739218157,"current_range_meters":32800,"station_id":"ce4bhoh2rcd13ifvqh5g","pricing_plan_id":"cebpf4jnsgd1na2vs0mg"},{"bike_id":"7ed0d402-b754-4ce0-9a11-53924e97981e","system_id":"levelo_inurba_marseille","lat":43.30141,"lon":5.39868,"is_reserved":false,"is_disabled":false,"rental_uris":{"android":"levelo://app?vid=7ed0d402-b754-4ce0-9a11-53924e97981e","ios":"levelo://app?vid=7ed0d402-b754-4ce0-9a11-53924e97981e"},"vehicle_type_id":"4","last_reported":1739218157,"current_range_meters":15200,"station_id":"ce4bh0h2rcd13ifvqd40","pricing_plan_id":"cebpf4jnsgd1na2vs0mg"},{"bike_id":"bc273e0f-e8b2-4c30-8655-61daca2eeed0","system_id":"levelo_inurba_marseille","lat":43.2512,"lon":5.40311,"is_reserved":false,"is_disabled":false,"rental_uris":{"android":"levelo://app?vid=bc273e0f-e8b2-4c30-8655-61daca2eeed0","ios":"levelo://app?vid=bc273e0f-e8b2-4c30-8655-61daca2eeed0"},"vehicle_type_id":"4","last_reported":1739218157,"current_range_meters":32000,"station_id":"ce4bhlh2rcd13ifvqgig","pricing_plan_id":"cebpf4jnsgd1na2vs0mg"},{"bike_id":"5d5b9d52-4005-4b8d-8e03-12940e9796d0","system_id":"levelo_inurba_marseille","lat":43.24063,"lon":5.37757,"is_reserved":false,"is_disabled":true,"rental_uris":{"android":"levelo://app?vid=5d5b9d52-4005-4b8d-8e03-12940e9796d0","ios":"levelo://app?vid=5d5b9d52-4005-4b8d-8e03-12940e9796d0"},"vehicle_type_id":"4","last_reported":1739218157,"current_range_meters":19600,"station_id":"ce4bhnp2rcd13ifvqgvg","pricing_plan_id":"cebpf4jnsgd1na2vs0mg"},{"bike_id":"e74edd37-0ec7-4f56-b77f-e7249fd01314","system_id":"levelo_inurba_marseille","lat":43.3056,"lon":5.36534,"is_reserved":false,"is_disabled":true,"rental_uris":{"android":"levelo://app?vid=e74edd37-0ec7-4f56-b77f-e7249fd01314","ios":"levelo://app?vid=e74edd37-0ec7-4f56-b77f-e7249fd01314"},"vehicle_type_id":"4","last_reported":1739218157,"current_range_meters":17600,"station_id":"ce4bgs12rcd13ifvqcag","pricing_plan_id":"cebpf4jnsgd1na2vs0mg"},{"bike_id":"d65a14c4-ecf3-4048-b05f-9a757ce2f182","system_id":"levelo_inurba_marseille","lat":43.24684,"lon":5.38163,"is_reserved":false,"is_disabled":false,"rental_uris":{"android":"levelo://app?vid=d65a14c4-ecf3-4048-b05f-9a757ce2f182","ios":"levelo://app?vid=d65a14c4-ecf3-4048-b05f-9a757ce2f182"},"vehicle_type_id":"4","last_reported":1739218157,"current_range_meters":38800,"station_id":"ce4bhih2rcd13ifvqfr0","pricing_plan_id":"cebpf4jnsgd1na2vs0mg"},{"bike_id":"30db7edd-65c7-44bd-b75f-c19d0961bc8f","system_id":"levelo_inurba_marseille","lat":43.2756,"lon":5.38415,"is_reserved":false,"is_disabled":false,"rental_uris":{"android":"levelo://app?vid=30db7edd-65c7-44bd-b75f-c19d0961bc8f","ios":"levelo://app?vid=30db7edd-65c7-44bd-b75f-c19d0961bc8f"},"vehicle_type_id":"4","last_reported":1739218157,"current_range_meters":38800,"station_id":"ce4bhh92rcd13ifvqfi0","pricing_plan_id":"cebpf4jnsgd1na2vs0mg"},{"bike_id":"ca63d75f-d551-49cb-bec7-e060cadddd73","system_id":"levelo_inurba_marseille","lat":43.28096,"lon":5.44188,"is_reserved":false,"is_disabled":false,"rental_uris":{"android":"levelo://app?vid=ca63d75f-d551-49cb-bec7-e060cadddd73","ios":"levelo://app?vid=ca63d75f-d551-49cb-bec7-e060cadddd73"},"vehicle_type_id":"4","last_reported":1739218157,"current_range_meters":17600,"station_id":"","pricing_plan_id":"cebpf4jnsgd1na2vs0mg"},{"bike_id":"3f90df2e-02b5-4f5d-a76a-b332dfd1acc3","system_id":"levelo_inurba_marseille","lat":43.27835,"lon":5.39204,"is_reserved":false,"is_disabled":false,"rental_uris":{"android":"levelo://app?vid=3f90df2e-02b5-4f5d-a76a-b332dfd1acc3","ios":"levelo://app?vid=3f90df2e-02b5-4f5d-a76a-b332dfd1acc3"},"vehicle_type_id":"4","last_reported":1739218157,"current_range_meters":34800,"station_id":"ce4bhjp2rcd13ifvqga0","pricing_plan_id":"cebpf4jnsgd1na2vs0mg"},{"bike_id":"e08f16c4-fb96-4c88-a5cf-d1ff71d84e15","system_id":"levelo_inurba_marseille","lat":43.27553,"lon":5.38404,"is_reserved":false,"is_disabled":false,"rental_uris":{"android":"levelo://app?vid=e08f16c4-fb96-4c88-a5cf-d1ff71d84e15","ios":"levelo://app?vid=e08f16c4-fb96-4c88-a5cf-d1ff71d84e15"},"vehicle_type_id":"4","last_reported":1739218157,"current_range_meters":34800,"station_id":"ce4bhh92rcd13ifvqfi0","pricing_plan_id":"cebpf4jnsgd1na2vs0mg"},{"bike_id":"11017eca-f9ec-4c55-9626-3a45d68bb196","system_id":"levelo_inurba_marseille","lat":43.27997,"lon":5.40018,"is_reserved":false,"is_disabled":false,"rental_uris":{"android":"levelo://app?vid=11017eca-f9ec-4c55-9626-3a45d68bb196","ios":"levelo://app?vid=11017eca-f9ec-4c55-9626-3a45d68bb196"},"vehicle_type_id":"4","last_reported":1739218157,"current_range_meters":28000,"station_id":"ce4bho92rcd13ifvqh4g","pricing_plan_id":"cebpf4jnsgd1na2vs0mg"},{"bike_id":"79d0b172-0217-44e3-bae8-123b0260e5bd","system_id":"levelo_inurba_marseille","lat":43.27549,"lon":5.38431,"is_reserved":false,"is_disabled":false,"rental_uris":{"android":"levelo://app?vid=79d0b172-0217-44e3-bae8-123b0260e5bd","ios":"levelo://app?vid=79d0b172-0217-44e3-bae8-123b0260e5bd"},"vehicle_type_id":"4","last_reported":1739218157,"current_range_meters":39200,"station_id":"ce4bhh92rcd13ifvqfi0","pricing_plan_id":"cebpf4jnsgd1na2vs0mg"},{"bike_id":"e5491c41-467c-40d9-b58c-33959b38346b","system_id":"levelo_inurba_marseille","lat":43.2871,"lon":5.36094,"is_reserved":false,"is_disabled":false,"rental_uris":{"android":"levelo://app?vid=e5491c41-467c-40d9-b58c-33959b38346b","ios":"levelo://app?vid=e5491c41-467c-40d9-b58c-33959b38346b"},"vehicle_type_id":"4","last_reported":1739218157,"current_range_meters":14800,"station_id":"cki0cbj6b192h4jlfktg","pricing_plan_id":"cebpf4jnsgd1na2vs0mg"},{"bike_id":"e1918a80-e061-48ff-a7f0-f6cb259b93c9","system_id":"levelo_inurba_marseille","lat":43.29545,"lon":5.39013,"is_reserved":false,"is_disabled":false,"rental_uris":{"android":"levelo://app?vid=e1918a80-e061-48ff-a7f0-f6cb259b93c9","ios":"levelo://app?vid=e1918a80-e061-48ff-a7f0-f6cb259b93c9"},"vehicle_type_id":"4","last_reported":1739218157,"current_range_meters":28000,"station_id":"ce4bh3p2rcd13ifvqdp0","pricing_plan_id":"cebpf4jnsgd1na2vs0mg"},{"bike_id":"de8557f1-ee35-43e4-83b5-e3547c04b732","system_id":"levelo_inurba_marseille","lat":43.25816,"lon":5.39423,"is_reserved":false,"is_disabled":false,"rental_uris":{"android":"levelo://app?vid=de8557f1-ee35-43e4-83b5-e3547c04b732","ios":"levelo://app?vid=de8557f1-ee35-43e4-83b5-e3547c04b732"},"vehicle_type_id":"4","last_reported":1739218157,"current_range_meters":34800,"station_id":"ce4bhip2rcd13ifvqft0","pricing_plan_id":"cebpf4jnsgd1na2vs0mg"},{"bike_id":"f2a19d6d-1c3c-4ae5-a155-e51d34c1aabd","system_id":"levelo_inurba_marseille","lat":43.28571,"lon":5.39524,"is_reserved":false,"is_disabled":false,"rental_uris":{"android":"levelo://app?vid=f2a19d6d-1c3c-4ae5-a155-e51d34c1aabd","ios":"levelo://app?vid=f2a19d6d-1c3c-4ae5-a155-e51d34c1aabd"},"vehicle_type_id":"4","last_reported":1739218157,"current_range_meters":39200,"station_id":"ce4bh292rcd13ifvqdg0","pricing_plan_id":"cebpf4jnsgd1na2vs0mg"},{"bike_id":"118acaa8-c377-4759-a8f9-c3303973ef34","system_id":"levelo_inurba_marseille","lat":43.29864,"lon":5.38886,"is_reserved":false,"is_disabled":false,"rental_uris":{"android":"levelo://app?vid=118acaa8-c377-4759-a8f9-c3303973ef34","ios":"levelo://app?vid=118acaa8-c377-4759-a8f9-c3303973ef34"},"vehicle_type_id":"4","last_reported":1739218157,"current_range_meters":28000,"station_id":"ce4bh392rcd13ifvqdl0","pricing_plan_id":"cebpf4jnsgd1na2vs0mg"},{"bike_id":"0222dd83-169a-4bec-9f83-dcd97173601f","system_id":"levelo_inurba_marseille","lat":43.29781,"lon":5.39346,"is_reserved":false,"is_disabled":false,"rental_uris":{"android":"levelo://app?vid=0222dd83-169a-4bec-9f83-dcd97173601f","ios":"levelo://app?vid=0222dd83-169a-4bec-9f83-dcd97173601f"},"vehicle_type_id":"4","last_reported":1739218157,"current_range_meters":38800,"station_id":"chh1huq6cuj3fo74tm60","pricing_plan_id":"cebpf4jnsgd1na2vs0mg"},{"bike_id":"009c85e4-baec-4633-b1b4-45e9257f05c1","system_id":"levelo_inurba_marseille","lat":43.28353,"lon":5.38098,"is_reserved":false,"is_disabled":false,"rental_uris":{"android":"levelo://app?vid=009c85e4-baec-4633-b1b4-45e9257f05c1","ios":"levelo://app?vid=009c85e4-baec-4633-b1b4-45e9257f05c1"},"vehicle_type_id":"4","last_reported":1739218157,"current_range_meters":36400,"station_id":"ce4bh412rcd13ifvqdr0","pricing_plan_id":"cebpf4jnsgd1na2vs0mg"},{"bike_id":"1578c83e-5788-4e45-b5b9-7c07f927503a","system_id":"levelo_inurba_marseille","lat":43.28691,"lon":5.37399,"is_reserved":false,"is_disabled":false,"rental_uris":{"android":"levelo://app?vid=1578c83e-5788-4e45-b5b9-7c07f927503a","ios":"levelo://app?vid=1578c83e-5788-4e45-b5b9-7c07f927503a"},"vehicle_type_id":"4","last_reported":1739218157,"current_range_meters":28800,"station_id":"ce4bh3p2rcd13ifvqdq0","pricing_plan_id":"cebpf4jnsgd1na2vs0mg"},{"bike_id":"489ac8a5-aa2e-478a-b57e-8f3df1d6a265","system_id":"levelo_inurba_marseille","lat":43.31892,"lon":5.4073,"is_reserved":false,"is_disabled":false,"rental_uris":{"android":"levelo://app?vid=489ac8a5-aa2e-478a-b57e-8f3df1d6a265","ios":"levelo://app?vid=489ac8a5-aa2e-478a-b57e-8f3df1d6a265"},"vehicle_type_id":"4","last_reported":1739218157,"current_range_meters":23200,"station_id":"ce4bhq12rcd13ifvqhig","pricing_plan_id":"cebpf4jnsgd1na2vs0mg"},{"bike_id":"50fdafd8-0e01-4c26-88cd-374400d9e0c2","system_id":"levelo_inurba_marseille","lat":43.29011,"lon":5.35605,"is_reserved":false,"is_disabled":false,"rental_uris":{"android":"levelo://app?vid=50fdafd8-0e01-4c26-88cd-374400d9e0c2","ios":"levelo://app?vid=50fdafd8-0e01-4c26-88cd-374400d9e0c2"},"vehicle_type_id":"4","last_reported":1739218157,"current_range_meters":32800,"station_id":"ce4bhb92rcd13ifvqen0","pricing_plan_id":"cebpf4jnsgd1na2vs0mg"},{"bike_id":"54ce597b-1ca1-4d62-923d-d4b29eec04b3","system_id":"levelo_inurba_marseille","lat":43.31131,"lon":5.38261,"is_reserved":false,"is_disabled":false,"rental_uris":{"android":"levelo://app?vid=54ce597b-1ca1-4d62-923d-d4b29eec04b3","ios":"levelo://app?vid=54ce597b-1ca1-4d62-923d-d4b29eec04b3"},"vehicle_type_id":"4","last_reported":1739218157,"current_range_meters":24400,"station_id":"","pricing_plan_id":"cebpf4jnsgd1na2vs0mg"},{"bike_id":"b4765ae2-b7fb-4718-bf68-ce7ba2c817f9","system_id":"levelo_inurba_marseille","lat":43.27055,"lon":5.42297,"is_reserved":false,"is_disabled":false,"rental_uris":{"android":"levelo://app?vid=b4765ae2-b7fb-4718-bf68-ce7ba2c817f9","ios":"levelo://app?vid=b4765ae2-b7fb-4718-bf68-ce7ba2c817f9"},"vehicle_type_id":"4","last_reported":1739218157,"current_range_meters":27200,"station_id":"ce4bhk92rcd13ifvqgb0","pricing_plan_id":"cebpf4jnsgd1na2vs0mg"},{"bike_id":"a208325e-37e5-4c4e-8da6-ada4810a13ed","system_id":"levelo_inurba_marseille","lat":43.26053,"lon":5.39395,"is_reserved":false,"is_disabled":false,"rental_uris":{"android":"levelo://app?vid=a208325e-37e5-4c4e-8da6-ada4810a13ed","ios":"levelo://app?vid=a208325e-37e5-4c4e-8da6-ada4810a13ed"},"vehicle_type_id":"4","last_reported":1739218157,"current_range_meters":38800,"station_id":"ce4bhh92rcd13ifvqfj0","pricing_plan_id":"cebpf4jnsgd1na2vs0mg"},{"bike_id":"28d378e6-36c4-4b00-a3bf-d0ec65a75739","system_id":"levelo_inurba_marseille","lat":43.28283,"lon":5.35098,"is_reserved":false,"is_disabled":false,"rental_uris":{"android":"levelo://app?vid=28d378e6-36c4-4b00-a3bf-d0ec65a75739","ios":"levelo://app?vid=28d378e6-36c4-4b00-a3bf-d0ec65a75739"},"vehicle_type_id":"4","last_reported":1739218157,"current_range_meters":18800,"station_id":"ce4bhbp2rcd13ifvqerg","pricing_plan_id":"cebpf4jnsgd1na2vs0mg"},{"bike_id":"167eaca1-9e1d-4ce9-a26a-0579d2b87a25","system_id":"levelo_inurba_marseille","lat":43.28933,"lon":5.38386,"is_reserved":false,"is_disabled":false,"rental_uris":{"android":"levelo://app?vid=167eaca1-9e1d-4ce9-a26a-0579d2b87a25","ios":"levelo://app?vid=167eaca1-9e1d-4ce9-a26a-0579d2b87a25"},"vehicle_type_id":"4","last_reported":1739218157,"current_range_meters":19200,"station_id":"ce4bh612rcd13ifvqe6g","pricing_plan_id":"cebpf4jnsgd1na2vs0mg"},