{"last_updated":1702238816,"ttl":30,"version":"2.2","data":{"bikes":[{"bike_id":"533cfa35-017d-4349-a108-51e9f8a576a2","system_id":"levelo_inurba_marseille","lat":43.312239,"lon":5.368562,"is_reserved":false,"is_disabled":false,"rental_uris":{"android":"levelo://app?vid=533cfa35-017d-4349-a108-51e9f8a576a2","ios":"levelo://app?vid=533cfa35-017d-4349-a108-51e9f8a576a2"},"vehicle_type_id":"4","last_reported":1702238817,"current_range_meters":14800,"station_id":"ce4bgl92rcd13ifvqbq0","pricing_plan_id":"free"},{"bike_id":"d4409770-c21d-4e3b-ad6b-ab23aee9e5e8","system_id":"levelo_inurba_marseille","lat":43.314811,"lon":5.373103,"is_reserved":false,"is_disabled":false,"rental_uris":{"android":"levelo://app?vid=d4409770-c21d-4e3b-ad6b-ab23aee9e5e8","ios":"levelo://app?vid=d4409770-c21d-4e3b-ad6b-ab23aee9e5e8"},"vehicle_type_id":"4","last_reported":1702238817,"current_range_meters":18400,"station_id":"ce4bgt12rcd13ifvqcd0","pricing_plan_id":"free"},{"bike_id":"73983565-f28c-4d47-b731-2197ff759c27","system_id":"levelo_inurba_marseille","lat":43.314811,"lon":5.373104,"is_reserved":false,"is_disabled":false,"rental_uris":{"android":"levelo://app?vid=73983565-f28c-4d47-b731-2197ff759c27","ios":"levelo://app?vid=73983565-f28c-4d47-b731-2197ff759c27"},"vehicle_type_id":"4","last_reported":1702238817,"current_range_meters":22400,"station_id":"ce4bgt12rcd13ifvqcd0","pricing_plan_id":"free"},{"bike_id":"6168fb62-4fc3-4d05-aa3b-f7a961049b67","system_id":"levelo_inurba_marseille","lat":43.309039,"lon":5.371797,"is_reserved":false,"is_disabled":false,"rental_uris":{"android":"levelo://app?vid=6168fb62-4fc3-4d05-aa3b-f7a961049b67","ios":"levelo://app?vid=6168fb62-4fc3-4d05-aa3b-f7a961049b67"},"vehicle_type_id":"4","last_reported":1702238817,"current_range_meters":10000,"station_id":"ce4bguh2rcd13ifvqckg","pricing_plan_id":"free"},{"bike_id":"77a6c46d-d898-4e4f-8846-efa91689c7f0","system_id":"levelo_inurba_marseille","lat":43.305958,"lon":5.365986,"is_reserved":false,"is_disabled":false,"rental_uris":{"android":"levelo://app?vid=77a6c46d-d898-4e4f-8846-efa91689c7f0","ios":"levelo://app?vid=77a6c46d-d898-4e4f-8846-efa91689c7f0"},"vehicle_type_id":"4","last_reported":1702238817,"current_range_meters":0,"station_id":"","pricing_plan_id":"free"},{"bike_id":"472cedf2-b0a4-4b91-9514-ad57db54eb45","system_id":"levelo_inurba_marseille","lat":43.305989,"lon":5.37225,"is_reserved":false,"is_disabled":false,"rental_uris":{"android":"levelo://app?vid=472cedf2-b0a4-4b91-9514-ad57db54eb45","ios":"levelo://app?vid=472cedf2-b0a4-4b91-9514-ad57db54eb45"},"vehicle_type_id":"4","last_reported":1702238817,"current_range_meters":14800,"station_id":"ce4bgqh2rcd13ifvqc4g","pricing_plan_id":"free"},{"bike_id":"91335686-026f-4e41-919f-7ef7c29e6d1d","system_id":"levelo_inurba_marseille","lat":43.305989,"lon":5.37225,"is_reserved":false,"is_disabled":false,"rental_uris":{"android":"levelo://app?vid=91335686-026f-4e41-919f-7ef7c29e6d1d","ios":"levelo://app?vid=91335686-026f-4e41-919f-7ef7c29e6d1d"},"vehicle_type_id":"4","last_reported":1702238817,"current_range_meters":6800,"station_id":"ce4bgqh2rcd13ifvqc4g","pricing_plan_id":"free"},{"bike_id":"2330bda6-7ff6-47a9-bfa2-86d106547740","system_id":"levelo_inurba_marseille","lat":43.31128,"lon":5.377624,"is_reserved":false,"is_disabled":false,"rental_uris":{"android":"levelo://app?vid=2330bda6-7ff6-47a9-bfa2-86d106547740","ios":"levelo://app?vid=2330bda6-7ff6-47a9-bfa2-86d106547740"},"vehicle_type_id":"4","last_reported":1702238817,"current_range_meters":0,"station_id":"ce4bgt92rcd13ifvqcg0","pricing_plan_id":"free"},{"bike_id":"b925c0ea-2b3a-4107-95dc-8832b3d581af","system_id":"levelo_inurba_marseille","lat":43.317075,"lon":5.377367,"is_reserved":false,"is_disabled":false,"rental_uris":{"android":"levelo://app?vid=b925c0ea-2b3a-4107-95dc-8832b3d581af","ios":"levelo://app?vid=b925c0ea-2b3a-4107-95dc-8832b3d581af"},"vehicle_type_id":"4","last_reported":1702238817,"current_range_meters":21600,"station_id":"ce4bgth2rcd13ifvqch0","pricing_plan_id":"free"},{"bike_id":"98c7773a-ac33-4088-a3f6-5333d9eb3e1a","system_id":"levelo_inurba_marseille","lat":43.317075,"lon":5.377367,"is_reserved":false,"is_disabled":false,"rental_uris":{"android":"levelo://app?vid=98c7773a-ac33-4088-a3f6-5333d9eb3e1a","ios":"levelo://app?vid=98c7773a-ac33-4088-a3f6-5333d9eb3e1a"},"vehicle_type_id":"4","last_reported":1702238817,"current_range_meters":31200,"station_id":"ce4bgth2rcd13ifvqch0","pricing_plan_id":"free"},{"bike_id":"c1656968-21b1-40d4-af20-5558f0d9731a","system_id":"levelo_inurba_marseille","lat":43.317075,"lon":5.377367,"is_reserved":false,"is_disabled":false,"rental_uris":{"android":"levelo://app?vid=c1656968-21b1-40d4-af20-5558f0d9731a","ios":"levelo://app?vid=c1656968-21b1-40d4-af20-5558f0d9731a"},"vehicle_type_id":"4","last_reported":1702238817,"current_range_meters":16400,"station_id":"ce4bgth2rcd13ifvqch0","pricing_plan_id":"free"},{"bike_id":"7f5c0de8-62eb-4362-9249-101b068af657","system_id":"levelo_inurba_marseille","lat":43.303046,"lon":5.368981,"is_reserved":false,"is_disabled":false,"rental_uris":{"android":"levelo://app?vid=7f5c0de8-62eb-4362-9249-101b068af657","ios":"levelo://app?vid=7f5c0de8-62eb-4362-9249-101b068af657"},"vehicle_type_id":"4","last_reported":1702238817,"current_range_meters":28000,"station_id":"ce4bgqh2rcd13ifvqc5g","pricing_plan_id":"free"},{"bike_id":"a1e90a08-2dae-4577-818d-7f4cf81ae672","system_id":"levelo_inurba_marseille","lat":43.301939,"lon":5.366286,"is_reserved":false,"is_disabled":false,"rental_uris":{"android":"levelo://app?vid=a1e90a08-2dae-4577-818d-7f4cf81ae672","ios":"levelo://app?vid=a1e90a08-2dae-4577-818d-7f4cf81ae672"},"vehicle_type_id":"4","last_reported":1702238817,"current_range_meters":16400,"station_id":"ce4bgrh2rcd13ifvqc8g","pricing_plan_id":"free"},{"bike_id":"ff5feeba-b7cd-4fde-b8c7-7a2767a0020f","system_id":"levelo_inurba_marseille","lat":43.308012,"lon":5.381511,"is_reserved":false,"is_disabled":false,"rental_uris":{"android":"levelo://app?vid=ff5feeba-b7cd-4fde-b8c7-7a2767a0020f","ios":"levelo://app?vid=ff5feeba-b7cd-4fde-b8c7-7a2767a0020f"},"vehicle_type_id":"4","last_reported":1702238817,"current_range_meters":21600,"station_id":"ce4bgt12rcd13ifvqce0","pricing_plan_id":"free"},{"bike_id":"b8d7a81d-9e04-4d18-8ac2-e67c84be1b8f","system_id":"levelo_inurba_marseille","lat":43.313571,"lon":5.384829,"is_reserved":false,"is_disabled":false,"rental_uris":{"android":"levelo://app?vid=b8d7a81d-9e04-4d18-8ac2-e67c84be1b8f","ios":"levelo://app?vid=b8d7a81d-9e04-4d18-8ac2-e67c84be1b8f"},"vehicle_type_id":"4","last_reported":1702238817,"current_range_meters":14400,"station_id":"ce4bgt92rcd13ifvqcf0","pricing_plan_id":"free"},{"bike_id":"d8be298e-f4c0-4479-a66b-e307c680d7cc","system_id":"levelo_inurba_marseille","lat":43.31356,"lon":5.38493,"is_reserved":false,"is_disabled":false,"rental_uris":{"android":"levelo://app?vid=d8be298e-f4c0-4479-a66b-e307c680d7cc","ios":"levelo://app?vid=d8be298e-f4c0-4479-a66b-e307c680d7cc"},"vehicle_type_id":"4","last_reported":1702238817,"current_range_meters":19200,"station_id":"ce4bgt92rcd13ifvqcf0","pricing_plan_id":"free"},{"bike_id":"60344bfb-f3a5-4147-98e4-938ea29e89ff","system_id":"levelo_inurba_marseille","lat":43.29935,"lon":5.36552,"is_reserved":false,"is_disabled":false,"rental_uris":{"android":"levelo://app?vid=60344bfb-f3a5-4147-98e4-938ea29e89ff","ios":"levelo://app?vid=60344bfb-f3a5-4147-98e4-938ea29e89ff"},"vehicle_type_id":"4","last_reported":1702238817,"current_range_meters":25200,"station_id":"ce4bgm92rcd13ifvqbr0","pricing_plan_id":"free"},{"bike_id":"5c23f765-5e32-4834-aba3-fc27cbe05687","system_id":"levelo_inurba_marseille","lat":43.299724,"lon":5.371829,"is_reserved":false,"is_disabled":false,"rental_uris":{"android":"levelo://app?vid=5c23f765-5e32-4834-aba3-fc27cbe05687","ios":"levelo://app?vid=5c23f765-5e32-4834-aba3-fc27cbe05687"},"vehicle_type_id":"4","last_reported":1702238817,"current_range_meters":30400,"station_id":"ce4bgr92rcd13ifvqc7g","pricing_plan_id":"free"},{"bike_id":"96e95209-d97a-4a6d-b358-6c8043bfa656","system_id":"levelo_inurba_marseille","lat":43.3054,"lon":5.38429,"is_reserved":false,"is_disabled":false,"rental_uris":{"android":"levelo://app?vid=96e95209-d97a-4a6d-b358-6c8043bfa656","ios":"levelo://app?vid=96e95209-d97a-4a6d-b358-6c8043bfa656"},"vehicle_type_id":"4","last_reported":1702238817,"current_range_meters":0,"station_id":"ce4bgg92rcd13ifvqb30","pricing_plan_id":"free"},{"bike_id":"ccd4fbf7-a0c2-498b-8ecc-15a67004cff0","system_id":"levelo_inurba_marseille","lat":43.322872,"lon":5.382756,"is_reserved":false,"is_disabled":false,"rental_uris":{"android":"levelo://app?vid=ccd4fbf7-a0c2-498b-8ecc-15a67004cff0","ios":"levelo://app?vid=ccd4fbf7-a0c2-498b-8ecc-15a67004cff0"},"vehicle_type_id":"4","last_reported":1702238817,"current_range_meters":28000,"station_id":"ce4bhr12rcd13ifvqhqg","pricing_plan_id":"free"},{"bike_id":"6ac675f1-e0be-498c-ad2f-b742a949d4b0","system_id":"levelo_inurba_marseille","lat":43.298218,"lon":5.374416,"is_reserved":false,"is_disabled":false,"rental_uris":{"android":"levelo://app?vid=6ac675f1-e0be-498c-ad2f-b742a949d4b0","ios":"levelo://app?vid=6ac675f1-e0be-498c-ad2f-b742a949d4b0"},"vehicle_type_id":"4","last_reported":1702238817,"current_range_meters":0,"station_id":"","pricing_plan_id":"free"},{"bike_id":"13bf6281-9789-44ba-a352-3b8cde8a7a5d","system_id":"levelo_inurba_marseille","lat":43.3283,"lon":5.3669,"is_reserved":false,"is_disabled":false,"rental_uris":{"android":"levelo://app?vid=13bf6281-9789-44ba-a352-3b8cde8a7a5d","ios":"levelo://app?vid=13bf6281-9789-44ba-a352-3b8cde8a7a5d"},"vehicle_type_id":"4","last_reported":1702238817,"current_range_meters":9600,"station_id":"ce4bhs92rcd13ifvqi0g","pricing_plan_id":"free"},{"bike_id":"92dc65d6-6823-4de3-93d4-056f738f090c","system_id":"levelo_inurba_marseille","lat":43.316538,"lon":5.38954,"is_reserved":false,"is_disabled":false,"rental_uris":{"android":"levelo://app?vid=92dc65d6-6823-4de3-93d4-056f738f090c","ios":"levelo://app?vid=92dc65d6-6823-4de3-93d4-056f738f090c"},"vehicle_type_id":"4","last_reported":1702238817,"current_range_meters":0,"station_id":"","pricing_plan_id":"free"},{"bike_id":"587cb203-8e4d-444f-9209-e40ac3e543cd","system_id":"levelo_inurba_marseille","lat":43.29618,"lon":5.37149,"is_reserved":false,"is_disabled":false,"rental_uris":{"android":"levelo://app?vid=587cb203-8e4d-444f-9209-e40ac3e543cd","ios":"levelo://app?vid=587cb203-8e4d-444f-9209-e40ac3e543cd"},"vehicle_type_id":"4","last_reported":1702238817,"current_range_meters":0,"station_id":"ce4bgnh2rcd13ifvqc0g","pricing_plan_id":"free"},{"bike_id":"97e56ba2-f24b-4749-8a02-583ac4e92f69","system_id":"levelo_inurba_marseille","lat":43.29573,"lon":5.367355,"is_reserved":false,"is_disabled":false,"rental_uris":{"android":"levelo://app?vid=97e56ba2-f24b-4749-8a02-583ac4e92f69","ios":"levelo://app?vid=97e56ba2-f24b-4749-8a02-583ac4e92f69"},"vehicle_type_id":"4","last_reported":1702238817,"current_range_meters":30400,"station_id":"ce4bgph2rcd13ifvqc2g","pricing_plan_id":"free"},{"bike_id":"cada5130-7313-45c6-b58c-c61697132b43","system_id":"levelo_inurba_marseille","lat":43.317557,"lon":5.390173,"is_reserved":false,"is_disabled":false,"rental_uris":{"android":"levelo://app?vid=cada5130-7313-45c6-b58c-c61697132b43","ios":"levelo://app?vid=cada5130-7313-45c6-b58c-c61697132b43"},"vehicle_type_id":"4","last_reported":1702238817,"current_range_meters":25600,"station_id":"ce4bhqp2rcd13ifvqhng","pricing_plan_id":"free"},{"bike_id":"3f69d37c-1b13-42b6-b9c0-7fafbccfc045","system_id":"levelo_inurba_marseille","lat":43.295748,"lon":5.37522,"is_reserved":false,"is_disabled":false,"rental_uris":{"android":"levelo://app?vid=3f69d37c-1b13-42b6-b9c0-7fafbccfc045","ios":"levelo://app?vid=3f69d37c-1b13-42b6-b9c0-7fafbccfc045"},"vehicle_type_id":"4","last_reported":1702238817,"current_range_meters":4000,"station_id":"ce4bgh92rcd13ifvqb50","pricing_plan_id":"free"},{"bike_id":"4ec495a2-363a-4ad2-aaf0-b5a95fdb7430","system_id":"levelo_inurba_marseille","lat":43.296263,"lon":5.377094,"is_reserved":false,"is_disabled":false,"rental_uris":{"android":"levelo://app?vid=4ec495a2-363a-4ad2-aaf0-b5a95fdb7430","ios":"levelo://app?vid=4ec495a2-363a-4ad2-aaf0-b5a95fdb7430"},"vehicle_type_id":"4","last_reported":1702238817,"current_range_meters":22400,"station_id":"ce4bgi92rcd13ifvqb90","pricing_plan_id":"free"},{"bike_id":"74dedefc-9d72-48e0-bb73-66e097456753","system_id":"levelo_inurba_marseille","lat":43.32368,"lon":5.38885,"is_reserved":false,"is_disabled":false,"rental_uris":{"android":"levelo://app?vid=74dedefc-9d72-48e0-bb73-66e097456753","ios":"levelo://app?vid=74dedefc-9d72-48e0-bb73-66e097456753"},"vehicle_type_id":"4","last_reported":1702238817,"current_range_meters":5200,"station_id":"ce4bhqp2rcd13ifvqhog","pricing_plan_id":"free"},{"bike_id":"89eed82f-3c10-4b6b-b6ee-abbcc3ff304a","system_id":"levelo_inurba_marseille","lat":43.29601,"lon":5.381084,"is_reserved":false,"is_disabled":false,"rental_uris":{"android":"levelo://app?vid=89eed82f-3c10-4b6b-b6ee-abbcc3ff304a","ios":"levelo://app?vid=89eed82f-3c10-4b6b-b6ee-abbcc3ff304a"},"vehicle_type_id":"4","last_reported":1702238817,"current_range_meters":0,"station_id":"ce4bgl12rcd13ifvqbo0","pricing_plan_id":"free"},{"bike_id":"7c8c94e9-225b-4a46-88ee-1e06bffb4f4a","system_id":"levelo_inurba_marseille","lat":43.292134,"lon":5.358018,"is_reserved":false,"is_disabled":false,"rental_uris":{"android":"levelo://app?vid=7c8c94e9-225b-4a46-88ee-1e06bffb4f4a","ios":"levelo://app?vid=7c8c94e9-225b-4a46-88ee-1e06bffb4f4a"},"vehicle_type_id":"4","last_reported":1702238817,"current_range_meters":8800,"station_id":"ce4bhb12rcd13ifvqel0","pricing_plan_id":"free"},{"bike_id":"6223f36a-3eac-42cd-acef-30ef10da90b0","system_id":"levelo_inurba_marseille","lat":43.31332,"lon":5.39695,"is_reserved":false,"is_disabled":false,"rental_uris":{"android":"levelo://app?vid=6223f36a-3eac-42cd-acef-30ef10da90b0","ios":"levelo://app?vid=6223f36a-3eac-42cd-acef-30ef10da90b0"},"vehicle_type_id":"4","last_reported":1702238817,"current_range_meters":0,"station_id":"ce4bgvp2rcd13ifvqcu0","pricing_plan_id":"free"},{"bike_id":"dd1b5a61-ef01-4007-b4ca-201044d24689","system_id":"levelo_inurba_marseille","lat":43.29419,"lon":5.3862,"is_reserved":false,"is_disabled":false,"rental_uris":{"android":"levelo://app?vid=dd1b5a61-ef01-4007-b4ca-201044d24689","ios":"levelo://app?vid=dd1b5a61-ef01-4007-b4ca-201044d24689"},"vehicle_type_id":"4","last_reported":1702238817,"current_range_meters":0,"station_id":"ce4bh2h2rcd13ifvqdh0","pricing_plan_id":"free"},{"bike_id":"0834032b-1a31-494d-afb5-666ddeadc25f","system_id":"levelo_inurba_marseille","lat":43.2894,"lon":5.36626,"is_reserved":false,"is_disabled":false,"rental_uris":{"android":"levelo://app?vid=0834032b-1a31-494d-afb5-666ddeadc25f","ios":"levelo://app?vid=0834032b-1a31-494d-afb5-666ddeadc25f"},"vehicle_type_id":"4","last_reported":1702238817,"current_range_meters":0,"station_id":"ce4bhap2rcd13ifvqek0","pricing_plan_id":"free"},{"bike_id":"0d55287e-6324-4a21-96f1-2aa124f5d1a5","system_id":"levelo_inurba_marseille","lat":43.290161,"lon":5.375651,"is_reserved":false,"is_disabled":false,"rental_uris":{"android":"levelo://app?vid=0d55287e-6324-4a21-96f1-2aa124f5d1a5","ios":"levelo://app?vid=0d55287e-6324-4a21-96f1-2aa124f5d1a5"},"vehicle_type_id":"4","last_reported":1702238817,"current_range_meters":8400,"station_id":"","pricing_plan_id":"free"},{"bike_id":"a02a1b20-1fb1-4951-988a-77389649024d","system_id":"levelo_inurba_marseille","lat":43.289259,"lon":5.366364,"is_reserved":false,"is_disabled":false,"rental_uris":{"android":"levelo://app?vid=a02a1b20-1fb1-4951-988a-77389649024d","ios":"levelo://app?vid=a02a1b20-1fb1-4951-988a-77389649024d"},"vehicle_type_id":"4","last_reported":1702238817,"current_range_meters":7200,"station_id":"","pricing_plan_id":"free"},{"bike_id":"49fed072-ab32-46c6-ba7a-a5ebf33b305f","system_id":"levelo_inurba_marseille","lat":43.33042,"lon":5.3892,"is_reserved":false,"is_disabled":false,"rental_uris":{"android":"levelo://app?vid=49fed072-ab32-46c6-ba7a-a5ebf33b305f","ios":"levelo://app?vid=49fed072-ab32-46c6-ba7a-a5ebf33b305f"},"vehicle_type_id":"4","last_reported":1702238817,"current_range_meters":23200,"station_id":"ce4bhr92rcd13ifvqhrg","pricing_plan_id":"free"},{"bike_id":"2c922e28-5d22-4dd1-bf6c-d686043bce6c","system_id":"levelo_inurba_marseille","lat":43.330442,"lon":5.389148,"is_reserved":false,"is_disabled":false,"rental_uris":{"android":"levelo://app?vid=2c922e28-5d22-4dd1-bf6c-d686043bce6c","ios":"levelo://app?vid=2c922e28-5d22-4dd1-bf6c-d686043bce6c"},"vehicle_type_id":"4","last_reported":1702238817,"current_range_meters":0,"station_id":"ce4bhr92rcd13ifvqhrg","pricing_plan_id":"free"},{"bike_id":"57836237-4b1f-4a82-a4bc-3f67fb0804cc","system_id":"levelo_inurba_marseille","lat":43.330442,"lon":5.389148,"is_reserved":false,"is_disabled":false,"rental_uris":{"android":"levelo://app?vid=57836237-4b1f-4a82-a4bc-3f67fb0804cc","ios":"levelo://app?vid=57836237-4b1f-4a82-a4bc-3f67fb0804cc"},"vehicle_type_id":"4","last_reported":1702238817,"current_range_meters":2400,"station_id":"ce4bhr92rcd13ifvqhrg","pricing_plan_id":"free"},{"bike_id":"b6a058cb-df72-45bf-a5c7-26f5c3fc542f","system_id":"levelo_inurba_marseille","lat":43.297815,"lon":5.393548,"is_reserved":false,"is_disabled":false,"rental_uris":{"android":"levelo://app?vid=b6a058cb-df72-45bf-a5c7-26f5c3fc542f","ios":"levelo://app?vid=b6a058cb-df72-45bf-a5c7-26f5c3fc542f"},"vehicle_type_id":"4","last_reported":1702238817,"current_range_meters":2800,"station_id":"chh1huq6cuj3fo74tm60","pricing_plan_id":"free"},{"bike_id":"4a3e0be9-e3ff-4aeb-b97e-3a7f3d4e7b91","system_id":"levelo_inurba_marseille","lat":43.295132,"lon":5.390323,"is_reserved":false,"is_disabled":false,"rental_uris":{"android":"levelo://app?vid=4a3e0be9-e3ff-4aeb-b97e-3a7f3d4e7b91","ios":"levelo://app?vid=4a3e0be9-e3ff-4aeb-b97e-3a7f3d4e7b91"},"vehicle_type_id":"4","last_reported":1702238817,"current_range_meters":0,"station_id":"ce4bh3p2rcd13ifvqdp0","pricing_plan_id":"free"},{"bike_id":"3a4267ec-eb56-4d43-82a1-817967632c68","system_id":"levelo_inurba_marseille","lat":43.28856,"lon":5.358371,"is_reserved":false,"is_disabled":false,"rental_uris":{"android":"levelo://app?vid=3a4267ec-eb56-4d43-82a1-817967632c68","ios":"levelo://app?vid=3a4267ec-eb56-4d43-82a1-817967632c68"},"vehicle_type_id":"4","last_reported":1702238817,"current_range_meters":0,"station_id":"ce4bhb12rcd13ifvqem0","pricing_plan_id":"free"},{"bike_id":"0dab7f87-af18-467e-9bad-7256c86cf4f3","system_id":"levelo_inurba_marseille","lat":43.2879,"lon":5.37271,"is_reserved":false,"is_disabled":false,"rental_uris":{"android":"levelo://app?vid=0dab7f87-af18-467e-9bad-7256c86cf4f3","ios":"levelo://app?vid=0dab7f87-af18-467e-9bad-7256c86cf4f3"},"vehicle_type_id":"4","last_reported":1702238817,"current_range_meters":0,"station_id":"ce4bh412rcd13ifvqds0","pricing_plan_id":"free"},{"bike_id":"c7dc1baf-2585-4138-9aa9-1bea746ab99a","system_id":"levelo_inurba_marseille","lat":43.312789,"lon":5.401601,"is_reserved":false,"is_disabled":false,"rental_uris":{"android":"levelo://app?vid=c7dc1baf-2585-4138-9aa9-1bea746ab99a","ios":"levelo://app?vid=c7dc1baf-2585-4138-9aa9-1bea746ab99a"},"vehicle_type_id":"4","last_reported":1702238817,"current_range_meters":0,"station_id":"ce4bh092rcd13ifvqd30","pricing_plan_id":"free"},{"bike_id":"1fd051af-bfea-41df-a5c2-275179e333f2","system_id":"levelo_inurba_marseille","lat":43.306412,"lon":5.401035,"is_reserved":false,"is_disabled":false,"rental_uris":{"android":"levelo://app?vid=1fd051af-bfea-41df-a5c2-275179e333f2","ios":"levelo://app?vid=1fd051af-bfea-41df-a5c2-275179e333f2"},"vehicle_type_id":"4","last_reported":1702238817,"current_range_meters":0,"station_id":"ce4bh112rcd13ifvqda0","pricing_plan_id":"free"},{"bike_id":"69cfba77-e17d-498f-b183-c4cbd6a3b74e","system_id":"levelo_inurba_marseille","lat":43.28727,"lon":5.36078,"is_reserved":false,"is_disabled":false,"rental_uris":{"android":"levelo://app?vid=69cfba77-e17d-498f-b183-c4cbd6a3b74e","ios":"levelo://app?vid=69cfba77-e17d-498f-b183-c4cbd6a3b74e"},"vehicle_type_id":"4","last_reported":1702238817,"current_range_meters":6400,"station_id":"cki0cbj6b192h4jlfktg","pricing_plan_id":"free"},{"bike_id":"c4ac555e-ccc4-466f-942d-5681ac4bac72","system_id":"levelo_inurba_marseille","lat":43.301117,"lon":5.398795,"is_reserved":false,"is_disabled":false,"rental_uris":{"android":"levelo://app?vid=c4ac555e-ccc4-466f-942d-5681ac4bac72","ios":"levelo://app?vid=c4ac555e-ccc4-466f-942d-5681ac4bac72"},"vehicle_type_id":"4","last_reported":1702238817,"current_range_meters":28800,"station_id":"ce4bh0h2rcd13ifvqd40","pricing_plan_id":"free"},{"bike_id":"a1b7e675-1fbd-4587-a6f2-26ec9a74ce8e","system_id":"levelo_inurba_marseille","lat":43.28727,"lon":5.36078,"is_reserved":false,"is_disabled":false,"rental_uris":{"android":"levelo://app?vid=a1b7e675-1fbd-4587-a6f2-26ec9a74ce8e","ios":"levelo://app?vid=a1b7e675-1fbd-4587-a6f2-26ec9a74ce8e"},"vehicle_type_id":"4","last_reported":1702238817,"current_range_meters":5600,"station_id":"cki0cbj6b192h4jlfktg","pricing_plan_id":"free"},{"bike_id":"ec895315-dc2d-4277-ac24-20c29d74b8d9","system_id":"levelo_inurba_marseille","lat":43.28727,"lon":5.36078,"is_reserved":false,"is_disabled":false,"rental_uris":{"android":"levelo://app?vid=ec895315-dc2d-4277-ac24-20c29d74b8d9","ios":"levelo://app?vid=ec895315-dc2d-4277-ac24-20c29d74b8d9"},"vehicle_type_id":"4","last_reported":1702238817,"current_range_meters":6000,"station_id":"cki0cbj6b192h4jlfktg","pricing_plan_id":"free"},{"bike_id":"75c92b3f-a2cc-438c-b8dc-8fb28761734d","system_id":"levelo_inurba_marseille","lat":43.28727,"lon":5.36078,"is_reserved":false,"is_disabled":false,"rental_uris":{"android":"levelo://app?vid=75c92b3f-a2cc-438c-b8dc-8fb28761734d","ios":"levelo://app?vid=75c92b3f-a2cc-438c-b8dc-8fb28761734d"},"vehicle_type_id":"4","last_reported":1702238817,"current_range_meters":2000,"station_id":"cki0cbj6b192h4jlfktg","pricing_plan_id":"free"},{"bike_id":"93969e87-34f8-4e80-b564-cb7598527d8d","system_id":"levelo_inurba_marseille","lat":43.286593,"lon":5.363346,"is_reserved":false,"is_disabled":false,"rental_uris":{"android":"levelo://app?vid=93969e87-34f8-4e80-b564-cb7598527d8d","ios":"levelo://app?vid=93969e87-34f8-4e80-b564-cb7598527d8d"},"vehicle_type_id":"4","last_reported":1702238817,"current_range_meters":27200,"station_id":"ce4bhah2rcd13ifvqej0","pricing_plan_id":"free"},{"bike_id":"743c9578-b8f3-4e30-9547-3f47d37efa14","system_id":"levelo_inurba_marseille","lat":43.286591,"lon":5.363346,"is_reserved":false,"is_disabled":false,"rental_uris":{"android":"levelo://app?vid=743c9578-b8f3-4e30-9547-3f47d37efa14","ios":"levelo://app?vid=743c9578-b8f3-4e30-9547-3f47d37efa14"},"vehicle_type_id":"4","last_reported":1702238817,"current_range_meters":31200,"station_id":"ce4bhah2rcd13ifvqej0","pricing_plan_id":"free"},{"bike_id":"55be7eba-580f-41fd-929c-d901781e9cbd","system_id":"levelo_inurba_marseille","lat":43.286591,"lon":5.363346,"is_reserved":false,"is_disabled":false,"rental_uris":{"android":"levelo://app?vid=55be7eba-580f-41fd-929c-d901781e9cbd","ios":"levelo://app?vid=55be7eba-580f-41fd-929c-d901781e9cbd"},"vehicle_type_id":"4","last_reported":1702238817,"current_range_meters":12000,"station_id":"ce4bhah2rcd13ifvqej0","pricing_plan_id":"free"},{"bike_id":"d3a8d062-82a8-469d-b0b3-6eb8e1509e74","system_id":"levelo_inurba_marseille","lat":43.298681,"lon":5.397225,"is_reserved":false,"is_disabled":false,"rental_uris":{"android":"levelo://app?vid=d3a8d062-82a8-469d-b0b3-6eb8e1509e74","ios":"levelo://app?vid=d3a8d062-82a8-469d-b0b3-6eb8e1509e74"},"vehicle_type_id":"4","last_reported":1702238817,"current_range_meters":25600,"station_id":"ce4bh0h2rcd13ifvqd50","pricing_plan_id":"free"},{"bike_id":"5dab38e5-89c9-4cf6-bcd5-2d0768af7d0b","system_id":"levelo_inurba_marseille","lat":43.286961,"lon":5.373785,"is_reserved":false,"is_disabled":false,"rental_uris":{"android":"levelo://app?vid=5dab38e5-89c9-4cf6-bcd5-2d0768af7d0b","ios":"levelo://app?vid=5dab38e5-89c9-4cf6-bcd5-2d0768af7d0b"},"vehicle_type_id":"4","last_reported":1702238817,"current_range_meters":400,"station_id":"ce4bh3p2rcd13ifvqdq0","pricing_plan_id":"free"},{"bike_id":"2391691a-96dd-4748-bfbb-d8aa6dd08ba2","system_id":"levelo_inurba_marseille","lat":43.289307,"lon":5.38406,"is_reserved":false,"is_disabled":false,"rental_uris":{"android":"levelo://app?vid=2391691a-96dd-4748-bfbb-d8aa6dd08ba2","ios":"levelo://app?vid=2391691a-96dd-4748-bfbb-d8aa6dd08ba2"},"vehicle_type_id":"4","last_reported":1702238817,"current_range_meters":10800,"station_id":"ce4bh612rcd13ifvqe6g","pricing_plan_id":"free"},{"bike_id":"af9be162-baaa-4f33-be53-70009e4fa628","system_id":"levelo_inurba_marseille","lat":43.29028,"lon":5.38641,"is_reserved":false,"is_disabled":false,"rental_uris":{"android":"levelo://app?vid=af9be162-baaa-4f33-be53-70009e4fa628","ios":"levelo://app?vid=af9be162-baaa-4f33-be53-70009e4fa628"},"vehicle_type_id":"4","last_reported":1702238817,"current_range_meters":3600,"station_id":"ce4bh4p2rcd13ifvqe0g","pricing_plan_id":"free"},{"bike_id":"e1751702-59bc-4a19-8891-5b3eea8fd38a","system_id":"levelo_inurba_marseille","lat":43.290345,"lon":5.38646,"is_reserved":false,"is_disabled":false,"rental_uris":{"android":"levelo://app?vid=e1751702-59bc-4a19-8891-5b3eea8fd38a","ios":"levelo://app?vid=e1751702-59bc-4a19-8891-5b3eea8fd38a"},"vehicle_type_id":"4","last_reported":1702238817,"current_range_meters":5200,"station_id":"ce4bh4p2rcd13ifvqe0g","pricing_plan_id":"free"},{"bike_id":"06bca111-9661-4572-ad95-8bcccb0d7373","system_id":"levelo_inurba_marseille","lat":43.302759,"lon":5.400793,"is_reserved":false,"is_disabled":false,"rental_uris":{"android":"levelo://app?vid=06bca111-9661-4572-ad95-8bcccb0d7373","ios":"levelo://app?vid=06bca111-9661-4572-ad95-8bcccb0d7373"},"vehicle_type_id":"4","last_reported":1702238817,"current_range_meters":0,"station_id":"ce4bgvh2rcd13ifvqcs0","pricing_plan_id":"free"},{"bike_id":"c9bdfd9d-659c-41a7-9d9b-4c86251ef96c","system_id":"levelo_inurba_marseille","lat":43.28464,"lon":5.35888,"is_reserved":false,"is_disabled":false,"rental_uris":{"android":"levelo://app?vid=c9bdfd9d-659c-41a7-9d9b-4c86251ef96c","ios":"levelo://app?vid=c9bdfd9d-659c-41a7-9d9b-4c86251ef96c"},"vehicle_type_id":"4","last_reported":1702238817,"current_range_meters":20000,"station_id":"ce4bhah2rcd13ifvqei0","pricing_plan_id":"free"},{"bike_id":"64fe99bf-1064-4561-a3b5-f86a9f6b520a","system_id":"levelo_inurba_marseille","lat":43.28461,"lon":5.35885,"is_reserved":false,"is_disabled":false,"rental_uris":{"android":"levelo://app?vid=64fe99bf-1064-4561-a3b5-f86a9f6b520a","ios":"levelo://app?vid=64fe99bf-1064-4561-a3b5-f86a9f6b520a"},"vehicle_type_id":"4","last_reported":1702238817,"current_range_meters":30000,"station_id":"ce4bhah2rcd13ifvqei0","pricing_plan_id":"free"},{"bike_id":"1fe7dae6-be01-4e96-9800-a99a19bfe32c","system_id":"levelo_inurba_marseille","lat":43.284534,"lon":5.358662,"is_reserved":false,"is_disabled":false,"rental_uris":{"android":"levelo://app?vid=1fe7dae6-be01-4e96-9800-a99a19bfe32c","ios":"levelo://app?vid=1fe7dae6-be01-4e96-9800-a99a19bfe32c"},"vehicle_type_id":"4","last_reported":1702238817,"current_range_meters":21600,"station_id":"ce4bhah2rcd13ifvqei0","pricing_plan_id":"free"},{"bike_id":"fa8fc40c-2bf2-4cc0-bee7-a0e4d72c9a1d","system_id":"levelo_inurba_marseille","lat":43.2846,"lon":5.35887,"is_reserved":false,"is_disabled":false,"rental_uris":{"android":"levelo://app?vid=fa8fc40c-2bf2-4cc0-bee7-a0e4d72c9a1d","ios":"levelo://app?vid=fa8fc40c-2bf2-4cc0-bee7-a0e4d72c9a1d"},"vehicle_type_id":"4","last_reported":1702238817,"current_range_meters":15200,"station_id":"ce4bhah2rcd13ifvqei0","pricing_plan_id":"free"},{"bike_id":"ee45295d-d2ac-4bad-b547-2e77e282c6d5","system_id":"levelo_inurba_marseille","lat":43.284598,"lon":5.358864,"is_reserved":false,"is_disabled":false,"rental_uris":{"android":"levelo://app?vid=ee45295d-d2ac-4bad-b547-2e77e282c6d5","ios":"levelo://app?vid=ee45295d-d2ac-4bad-b547-2e77e282c6d5"},"vehicle_type_id":"4","last_reported":1702238817,"current_range_meters":29200,"station_id":"ce4bhah2rcd13ifvqei0","pricing_plan_id":"free"},{"bike_id":"54eca29a-728b-41f2-b50a-77a0d433362e","system_id":"levelo_inurba_marseille","lat":43.28457,"lon":5.358916,"is_reserved":false,"is_disabled":false,"rental_uris":{"android":"levelo://app?vid=54eca29a-728b-41f2-b50a-77a0d433362e","ios":"levelo://app?vid=54eca29a-728b-41f2-b50a-77a0d433362e"},"vehicle_type_id":"4","last_reported":1702238817,"current_range_meters":19200,"station_id":"ce4bhah2rcd13ifvqei0","pricing_plan_id":"free"},{"bike_id":"119ee8e3-fa65-44d6-bb3b-11d0d77085d3","system_id":"levelo_inurba_marseille","lat":43.284564,"lon":5.358935,"is_reserved":false,"is_disabled":false,"rental_uris":{"android":"levelo://app?vid=119ee8e3-fa65-44d6-bb3b-11d0d77085d3","ios":"levelo://app?vid=119ee8e3-fa65-44d6-bb3b-11d0d77085d3"},"vehicle_type_id":"4","last_reported":1702238817,"current_range_meters":18000,"station_id":"ce4bhah2rcd13ifvqei0","pricing_plan_id":"free"},{"bike_id":"a864b496-4175-421d-a32b-6c3b511474cb","system_id":"levelo_inurba_marseille","lat":43.284534,"lon":5.358662,"is_reserved":false,"is_disabled":false,"rental_uris":{"android":"levelo://app?vid=a864b496-4175-421d-a32b-6c3b511474cb","ios":"levelo://app?vid=a864b496-4175-421d-a32b-6c3b511474cb"},"vehicle_type_id":"4","last_reported":1702238817,"current_range_meters":20800,"station_id":"ce4bhah2rcd13ifvqei0","pricing_plan_id":"free"},{"bike_id":"25abb136-3c34-4966-a7ae-66a1e6ac7379","system_id":"levelo_inurba_marseille","lat":43.28456,"lon":5.35894,"is_reserved":false,"is_disabled":false,"rental_uris":{"android":"levelo://app?vid=25abb136-3c34-4966-a7ae-66a1e6ac7379","ios":"levelo://app?vid=25abb136-3c34-4966-a7ae-66a1e6ac7379"},"vehicle_type_id":"4","last_reported":1702238817,"current_range_meters":17200,"station_id":"ce4bhah2rcd13ifvqei0","pricing_plan_id":"free"},{"bike_id":"407293e1-3a88-41e1-af44-9ca5448b3884","system_id":"levelo_inurba_marseille","lat":43.28458,"lon":5.3588,"is_reserved":false,"is_disabled":false,"rental_uris":{"android":"levelo://app?vid=407293e1-3a88-41e1-af44-9ca5448b3884","ios":"levelo://app?vid=407293e1-3a88-41e1-af44-9ca5448b3884"},"vehicle_type_id":"4","last_reported":1702238817,"current_range_meters":7600,"station_id":"ce4bhah2rcd13ifvqei0","pricing_plan_id":"free"},{"bike_id":"7cf1f005-6a13-46e1-8f85-08f50baa4333","system_id":"levelo_inurba_marseille","lat":43.294314,"lon":5.397498,"is_reserved":false,"is_disabled":false,"rental_uris":{"android":"levelo://app?vid=7cf1f005-6a13-46e1-8f85-08f50baa4333","ios":"levelo://app?vid=7cf1f005-6a13-46e1-8f85-08f50baa4333"},"vehicle_type_id":"4","last_reported":1702238817,"current_range_meters":12400,"station_id":"ce4bh3h2rcd13ifvqdo0","pricing_plan_id":"free"},{"bike_id":"b3b29ad6-8443-4304-898f-b53af04e812c","system_id":"levelo_inurba_marseille","lat":43.2862,"lon":5.351,"is_reserved":false,"is_disabled":false,"rental_uris":{"android":"levelo://app?vid=b3b29ad6-8443-4304-898f-b53af04e812c","ios":"levelo://app?vid=b3b29ad6-8443-4304-898f-b53af04e812c"},"vehicle_type_id":"4","last_reported":1702238817,"current_range_meters":18400,"station_id":"ce4bhch2rcd13ifvqeug","pricing_plan_id":"free"},{"bike_id":"f1b5cdb2-7df3-4e18-9ce9-10081cd786b8","system_id":"levelo_inurba_marseille","lat":43.28416,"lon":5.37594,"is_reserved":false,"is_disabled":false,"rental_uris":{"android":"levelo://app?vid=f1b5cdb2-7df3-4e18-9ce9-10081cd786b8","ios":"levelo://app?vid=f1b5cdb2-7df3-4e18-9ce9-10081cd786b8"},"vehicle_type_id":"4","last_reported":1702238817,"current_range_meters":0,"station_id":"","pricing_plan_id":"free"},{"bike_id":"a3861b16-61b5-4704-9757-5a5b60db6b54","system_id":"levelo_inurba_marseille","lat":43.295713,"lon":5.399639,"is_reserved":false,"is_disabled":false,"rental_uris":{"android":"levelo://app?vid=a3861b16-61b5-4704-9757-5a5b60db6b54","ios":"levelo://app?vid=a3861b16-61b5-4704-9757-5a5b60db6b54"},"vehicle_type_id":"4","last_reported":1702238817,"current_range_meters":14000,"station_id":"ce4bh312rcd13ifvqdj0","pricing_plan_id":"free"},{"bike_id":"47a82285-29d3-44bc-a446-b80e06f0098a","system_id":"levelo_inurba_marseille","lat":43.283898,"lon":5.375191,"is_reserved":false,"is_disabled":false,"rental_uris":{"android":"levelo://app?vid=47a82285-29d3-44bc-a446-b80e06f0098a","ios":"levelo://app?vid=47a82285-29d3-44bc-a446-b80e06f0098a"},"vehicle_type_id":"4","last_reported":1702238817,"current_range_meters":800,"station_id":"","pricing_plan_id":"free"},{"bike_id":"b5b7ec68-eb9f-4418-ac90-f694047a4470","system_id":"levelo_inurba_marseille","lat":43.319179,"lon":5.407725,"is_reserved":false,"is_disabled":false,"rental_uris":{"android":"levelo://app?vid=b5b7ec68-eb9f-4418-ac90-f694047a4470","ios":"levelo://app?vid=b5b7ec68-eb9f-4418-ac90-f694047a4470"},"vehicle_type_id":"4","last_reported":1702238817,"current_range_meters":26400,"station_id":"ce4bhq12rcd13ifvqhig","pricing_plan_id":"free"},{"bike_id":"e8b9d767-1294-468f-9b9a-f156850ad894","system_id":"levelo_inurba_marseille","lat":43.297946,"lon":5.404063,"is_reserved":false,"is_disabled":false,"rental_uris":{"android":"levelo://app?vid=e8b9d767-1294-468f-9b9a-f156850ad894","ios":"levelo://app?vid=e8b9d767-1294-468f-9b9a-f156850ad894"},"vehicle_type_id":"4","last_reported":1702238817,"current_range_meters":4800,"station_id":"ce4bh112rcd13ifvqd90","pricing_plan_id":"free"},{"bike_id":"8184dab2-7e20-472a-bf1b-13821ce680d1","system_id":"levelo_inurba_marseille","lat":43.284793,"lon":5.384119,"is_reserved":false,"is_disabled":false,"rental_uris":{"android":"levelo://app?vid=8184dab2-7e20-472a-bf1b-13821ce680d1","ios":"levelo://app?vid=8184dab2-7e20-472a-bf1b-13821ce680d1"},"vehicle_type_id":"4","last_reported":1702238817,"current_range_meters":16400,"station_id":"ce4bh512rcd13ifvqe3g","pricing_plan_id":"free"},{"bike_id":"74aa0d01-cc7f-4347-9a90-8b6d41f50b18","system_id":"levelo_inurba_marseille","lat":43.28352,"lon":5.38108,"is_reserved":false,"is_disabled":false,"rental_uris":{"android":"levelo://app?vid=74aa0d01-cc7f-4347-9a90-8b6d41f50b18","ios":"levelo://app?vid=74aa0d01-cc7f-4347-9a90-8b6d41f50b18"},"vehicle_type_id":"4","last_reported":1702238817,"current_range_meters":0,"station_id":"ce4bh412rcd13ifvqdr0","pricing_plan_id":"free"},{"bike_id":"2f81e9fd-63ae-4d13-8e48-a2921038652f","system_id":"levelo_inurba_marseille","lat":43.289363,"lon":5.396322,"is_reserved":false,"is_disabled":false,"rental_uris":{"android":"levelo://app?vid=2f81e9fd-63ae-4d13-8e48-a2921038652f","ios":"levelo://app?vid=2f81e9fd-63ae-4d13-8e48-a2921038652f"},"vehicle_type_id":"4","last_reported":1702238817,"current_range_meters":2800,"station_id":"ce4bh3h2rcd13ifvqdn0","pricing_plan_id":"free"},{"bike_id":"8892afcc-75a6-406a-8efb-f34202a8eab7","system_id":"levelo_inurba_marseille","lat":43.292724,"lon":5.401131,"is_reserved":false,"is_disabled":false,"rental_uris":{"android":"levelo://app?vid=8892afcc-75a6-406a-8efb-f34202a8eab7","ios":"levelo://app?vid=8892afcc-75a6-406a-8efb-f34202a8eab7"},"vehicle_type_id":"4","last_reported":1702238817,"current_range_meters":0,"station_id":"ce4bh312rcd13ifvqdk0","pricing_plan_id":"free"},{"bike_id":"c41e2956-6036-42aa-9e42-98ca40841730","system_id":"levelo_inurba_marseille","lat":43.282744,"lon":5.350533,"is_reserved":false,"is_disabled":false,"rental_uris":{"android":"levelo://app?vid=c41e2956-6036-42aa-9e42-98ca40841730","ios":"levelo://app?vid=c41e2956-6036-42aa-9e42-98ca40841730"},"vehicle_type_id":"4","last_reported":1702238817,"current_range_meters":28800,"station_id":"ce4bhbp2rcd13ifvqerg","pricing_plan_id":"free"},{"bike_id":"48a4d9fe-fdc0-4cd0-9ac0-baf0bd45d62b","system_id":"levelo_inurba_marseille","lat":43.28039,"lon":5.369297,"is_reserved":false,"is_disabled":false,"rental_uris":{"android":"levelo://app?vid=48a4d9fe-fdc0-4cd0-9ac0-baf0bd45d62b","ios":"levelo://app?vid=48a4d9fe-fdc0-4cd0-9ac0-baf0bd45d62b"},"vehicle_type_id":"4","last_reported":1702238817,"current_range_meters":2800,"station_id":"ce4bha12rcd13ifvqef0","pricing_plan_id":"free"},{"bike_id":"1aa67acc-12be-4634-85c5-4570a37a8ca6","system_id":"levelo_inurba_marseille","lat":43.296263,"lon":5.40601,"is_reserved":false,"is_disabled":false,"rental_uris":{"android":"levelo://app?vid=1aa67acc-12be-4634-85c5-4570a37a8ca6","ios":"levelo://app?vid=1aa67acc-12be-4634-85c5-4570a37a8ca6"},"vehicle_type_id":"4","last_reported":1702238817,"current_range_meters":15600,"station_id":"ce4bh0h2rcd13ifvqd60","pricing_plan_id":"free"},{"bike_id":"429bbc8a-606c-4499-8c2b-d104523412de","system_id":"levelo_inurba_marseille","lat":43.296263,"lon":5.40601,"is_reserved":false,"is_disabled":false,"rental_uris":{"android":"levelo://app?vid=429bbc8a-606c-4499-8c2b-d104523412de","ios":"levelo://app?vid=429bbc8a-606c-4499-8c2b-d104523412de"},"vehicle_type_id":"4","last_reported":1702238817,"current_range_meters":6800,"station_id":"ce4bh0h2rcd13ifvqd60","pricing_plan_id":"free"},{"bike_id":"3e2ebacb-c9e9-48bd-b5fe-b5c791911c8d","system_id":"levelo_inurba_marseille","lat":43.284462,"lon":5.392121,"is_reserved":false,"is_disabled":false,"rental_uris":{"android":"levelo://app?vid=3e2ebacb-c9e9-48bd-b5fe-b5c791911c8d","ios":"levelo://app?vid=3e2ebacb-c9e9-48bd-b5fe-b5c791911c8d"},"vehicle_type_id":"4","last_reported":1702238817,"current_range_meters":2400,"station_id":"ce4bhoh2rcd13ifvqh5g","pricing_plan_id":"free"},{"bike_id":"5ee7e84f-5922-43a2-9c96-8b27c780e2f4","system_id":"levelo_inurba_marseille","lat":43.284462,"lon":5.392121,"is_reserved":false,"is_disabled":false,"rental_uris":{"android":"levelo://app?vid=5ee7e84f-5922-43a2-9c96-8b27c780e2f4","ios":"levelo://app?vid=5ee7e84f-5922-43a2-9c96-8b27c780e2f4"},"vehicle_type_id":"4","last_reported":1702238817,"current_range_meters":26800,"station_id":"ce4bhoh2rcd13ifvqh5g","pricing_plan_id":"free"},{"bike_id":"3909d4ab-5653-4a91-8c2d-2ba90fa93131","system_id":"levelo_inurba_marseille","lat":43.28573,"lon":5.394992,"is_reserved":false,"is_disabled":false,"rental_uris":{"android":"levelo://app?vid=3909d4ab-5653-4a91-8c2d-2ba90fa93131","ios":"levelo://app?vid=3909d4ab-5653-4a91-8c2d-2ba90fa93131"},"vehicle_type_id":"4","last_reported":1702238817,"current_range_meters":26400,"station_id":"ce4bh292rcd13ifvqdg0","pricing_plan_id":"free"},{"bike_id":"8f24570c-8c0e-4baf-b9e9-81d41a12db0c","system_id":"levelo_inurba_marseille","lat":43.304188,"lon":5.412904,"is_reserved":false,"is_disabled":false,"rental_uris":{"android":"levelo://app?vid=8f24570c-8c0e-4baf-b9e9-81d41a12db0c","ios":"levelo://app?vid=8f24570c-8c0e-4baf-b9e9-81d41a12db0c"},"vehicle_type_id":"4","last_reported":1702238817,"current_range_meters":4000,"station_id":"ce4bhop2rcd13ifvqh8g","pricing_plan_id":"free"},{"bike_id":"8a7a80da-d15f-4bb9-bdc4-c2aa32cc3ad1","system_id":"levelo_inurba_marseille","lat":43.304188,"lon":5.412904,"is_reserved":false,"is_disabled":false,"rental_uris":{"android":"levelo://app?vid=8a7a80da-d15f-4bb9-bdc4-c2aa32cc3ad1","ios":"levelo://app?vid=8a7a80da-d15f-4bb9-bdc4-c2aa32cc3ad1"},"vehicle_type_id":"4","last_reported":1702238817,"current_range_meters":19200,"station_id":"ce4bhop2rcd13ifvqh8g","pricing_plan_id":"free"},{"bike_id":"be63195a-c482-4e1e-959e-1849ad617571","system_id":"levelo_inurba_marseille","lat":43.279742,"lon":5.38744,"is_reserved":false,"is_disabled":false,"rental_uris":{"android":"levelo://app?vid=be63195a-c482-4e1e-959e-1849ad617571","ios":"levelo://app?vid=be63195a-c482-4e1e-959e-1849ad617571"},"vehicle_type_id":"4","last_reported":1702238817,"current_range_meters":800,"station_id":"ce4bhg12rcd13ifvqf80","pricing_plan_id":"free"},{"bike_id":"6da20e4a-29d3-46f6-9d42-34f66f2f25f0","system_id":"levelo_inurba_marseille","lat":43.299577,"lon":5.413277,"is_reserved":false,"is_disabled":false,"rental_uris":{"android":"levelo://app?vid=6da20e4a-29d3-46f6-9d42-34f66f2f25f0","ios":"levelo://app?vid=6da20e4a-29d3-46f6-9d42-34f66f2f25f0"},"vehicle_type_id":"4","last_reported":1702238817,"current_range_meters":28400,"station_id":"ce4bhp12rcd13ifvqh9g","pricing_plan_id":"free"},{"bike_id":"2fe11cd5-8533-4f33-b7f4-d46498a35b91","system_id":"levelo_inurba_marseille","lat":43.279742,"lon":5.38744,"is_reserved":false,"is_disabled":false,"rental_uris":{"android":"levelo://app?vid=2fe11cd5-8533-4f33-b7f4-d46498a35b91","ios":"levelo://app?vid=2fe11cd5-8533-4f33-b7f4-d46498a35b91"},"vehicle_type_id":"4","last_reported":1702238817,"current_range_meters":13200,"station_id":"ce4bhg12rcd13ifvqf80","pricing_plan_id":"free"},{"bike_id":"ce0a5dc9-f25c-44b3-8f2f-0e053814c184","system_id":"levelo_inurba_marseille","lat":43.292569,"lon":5.409107,"is_reserved":false,"is_disabled":false,"rental_uris":{"android":"levelo://app?vid=ce0a5dc9-f25c-44b3-8f2f-0e053814c184","ios":"levelo://app?vid=ce0a5dc9-f25c-44b3-8f2f-0e053814c184"},"vehicle_type_id":"4","last_reported":1702238817,"current_range_meters":18000,"station_id":"ce4bh192rcd13ifvqdc0","pricing_plan_id":"free"},{"bike_id":"444e0494-bd0b-488a-8959-45dfceebe5ae","system_id":"levelo_inurba_marseille","lat":43.292571,"lon":5.409107,"is_reserved":false,"is_disabled":false,"rental_uris":{"android":"levelo://app?vid=444e0494-bd0b-488a-8959-45dfceebe5ae","ios":"levelo://app?vid=444e0494-bd0b-488a-8959-45dfceebe5ae"},"vehicle_type_id":"4","last_reported":1702238817,"current_range_meters":7200,"station_id":"ce4bh192rcd13ifvqdc0","pricing_plan_id":"free"},{"bike_id":"8408d889-2f0c-4697-bdc2-9cc8090c15c4","system_id":"levelo_inurba_marseille","lat":43.280784,"lon":5.396622,"is_reserved":false,"is_disabled":false,"rental_uris":{"android":"levelo://app?vid=8408d889-2f0c-4697-bdc2-9cc8090c15c4","ios":"levelo://app?vid=8408d889-2f0c-4697-bdc2-9cc8090c15c4"},"vehicle_type_id":"4","last_reported":1702238817,"current_range_meters":18800,"station_id":"ce4bho12rcd13ifvqh2g","pricing_plan_id":"free"},{"bike_id":"1cad6c3b-ec15-495a-8afe-2099cfc2d3e9","system_id":"levelo_inurba_marseille","lat":43.280784,"lon":5.396622,"is_reserved":false,"is_disabled":false,"rental_uris":{"android":"levelo://app?vid=1cad6c3b-ec15-495a-8afe-2099cfc2d3e9","ios":"levelo://app?vid=1cad6c3b-ec15-495a-8afe-2099cfc2d3e9"},"vehicle_type_id":"4","last_reported":1702238817,"current_range_meters":5200,"station_id":"ce4bho12rcd13ifvqh2g","pricing_plan_id":"free"},{"bike_id":"1d84afc1-b075-43ea-aee3-5ea870e153c1","system_id":"levelo_inurba_marseille","lat":43.336148,"lon":5.410349,"is_reserved":false,"is_disabled":false,"rental_uris":{"android":"levelo://app?vid=1d84afc1-b075-43ea-aee3-5ea870e153c1","ios":"levelo://app?vid=1d84afc1-b075-43ea-aee3-5ea870e153c1"},"vehicle_type_id":"4","last_reported":1702238817,"current_range_meters":20400,"station_id":"ce4bhqh2rcd13ifvqhmg","pricing_plan_id":"free"},{"bike_id":"1a2323a3-432a-41e1-b879-996f7d0dc72a","system_id":"levelo_inurba_marseille","lat":43.275625,"lon":5.384392,"is_reserved":false,"is_disabled":false,"rental_uris":{"android":"levelo://app?vid=1a2323a3-432a-41e1-b879-996f7d0dc72a","ios":"levelo://app?vid=1a2323a3-432a-41e1-b879-996f7d0dc72a"},"vehicle_type_id":"4","last_reported":1702238817,"current_range_meters":16400,"station_id":"ce4bhh92rcd13ifvqfi0","pricing_plan_id":"free"},{"bike_id":"db18f050-a260-43f1-9369-b98a83dbde8d","system_id":"levelo_inurba_marseille","lat":43.279952,"lon":5.400085,"is_reserved":false,"is_disabled":false,"rental_uris":{"android":"levelo://app?vid=db18f050-a260-43f1-9369-b98a83dbde8d","ios":"levelo://app?vid=db18f050-a260-43f1-9369-b98a83dbde8d"},"vehicle_type_id":"4","last_reported":1702238817,"current_range_meters":8800,"station_id":"ce4bho92rcd13ifvqh4g","pricing_plan_id":"free"},{"bike_id":"b49195d1-5252-4b63-9ddd-c39017071e00","system_id":"levelo_inurba_marseille","lat":43.27639,"lon":5.39485,"is_reserved":false,"is_disabled":false,"rental_uris":{"android":"levelo://app?vid=b49195d1-5252-4b63-9ddd-c39017071e00","ios":"levelo://app?vid=b49195d1-5252-4b63-9ddd-c39017071e00"},"vehicle_type_id":"4","last_reported":1702238817,"current_range_meters":17200,"station_id":"","pricing_plan_id":"free"},{"bike_id":"63133364-316e-458e-b234-bbd4926c63fc","system_id":"levelo_inurba_marseille","lat":43.27583,"lon":5.39474,"is_reserved":false,"is_disabled":false,"rental_uris":{"android":"levelo://app?vid=63133364-316e-458e-b234-bbd4926c63fc","ios":"levelo://app?vid=63133364-316e-458e-b234-bbd4926c63fc"},"vehicle_type_id":"4","last_reported":1702238817,"current_range_meters":2400,"station_id":"","pricing_plan_id":"free"},{"bike_id":"ae870a7b-ef76-4fbf-b621-66ea43765260","system_id":"levelo_inurba_marseille","lat":43.295523,"lon":5.422926,"is_reserved":false,"is_disabled":false,"rental_uris":{"android":"levelo://app?vid=ae870a7b-ef76-4fbf-b621-66ea43765260","ios":"levelo://app?vid=ae870a7b-ef76-4fbf-b621-66ea43765260"},"vehicle_type_id":"4","last_reported":1702238817,"current_range_meters":18800,"station_id":"ce4bhph2rcd13ifvqhdg","pricing_plan_id":"free"},{"bike_id":"790aa083-1b5a-427a-9bce-f7efd6cf9eb4","system_id":"levelo_inurba_marseille","lat":43.295511,"lon":5.422926,"is_reserved":false,"is_disabled":false,"rental_uris":{"android":"levelo://app?vid=790aa083-1b5a-427a-9bce-f7efd6cf9eb4","ios":"levelo://app?vid=790aa083-1b5a-427a-9bce-f7efd6cf9eb4"},"vehicle_type_id":"4","last_reported":1702238817,"current_range_meters":27600,"station_id":"ce4bhph2rcd13ifvqhdg","pricing_plan_id":"free"},{"bike_id":"ab82666f-cf85-4681-975d-71ef0049b9d1","system_id":"levelo_inurba_marseille","lat":43.295523,"lon":5.422926,"is_reserved":false,"is_disabled":false,"rental_uris":{"android":"levelo://app?vid=ab82666f-cf85-4681-975d-71ef0049b9d1","ios":"levelo://app?vid=ab82666f-cf85-4681-975d-71ef0049b9d1"},"vehicle_type_id":"4","last_reported":1702238817,"current_range_meters":1600,"station_id":"ce4bhph2rcd13ifvqhdg","pricing_plan_id":"free"},{"bike_id":"8648bdb0-ba2b-4da9-97a2-fe24128721c9","system_id":"levelo_inurba_marseille","lat":43.295511,"lon":5.422926,"is_reserved":false,"is_disabled":false,"rental_uris":{"android":"levelo://app?vid=8648bdb0-ba2b-4da9-97a2-fe24128721c9","ios":"levelo://app?vid=8648bdb0-ba2b-4da9-97a2-fe24128721c9"},"vehicle_type_id":"4","last_reported":1702238817,"current_range_meters":24000,"station_id":"ce4bhph2rcd13ifvqhdg","pricing_plan_id":"free"},{"bike_id":"43811962-79cb-4c05-8ceb-3f2460c49820","system_id":"levelo_inurba_marseille","lat":43.278128,"lon":5.407195,"is_reserved":false,"is_disabled":false,"rental_uris":{"android":"levelo://app?vid=43811962-79cb-4c05-8ceb-3f2460c49820","ios":"levelo://app?vid=43811962-79cb-4c05-8ceb-3f2460c49820"},"vehicle_type_id":"4","last_reported":1702238817,"current_range_meters":23200,"station_id":"ce4bhnh2rcd13ifvqgtg","pricing_plan_id":"free"},{"bike_id":"785aa56a-d909-44d2-b33a-7c27cfa20d05","system_id":"levelo_inurba_marseille","lat":43.278128,"lon":5.407195,"is_reserved":false,"is_disabled":false,"rental_uris":{"android":"levelo://app?vid=785aa56a-d909-44d2-b33a-7c27cfa20d05","ios":"levelo://app?vid=785aa56a-d909-44d2-b33a-7c27cfa20d05"},"vehicle_type_id":"4","last_reported":1702238817,"current_range_meters":24800,"station_id":"ce4bhnh2rcd13ifvqgtg","pricing_plan_id":"free"},{"bike_id":"b97b56e0-6c5f-4636-9523-78734a8d3e3e","system_id":"levelo_inurba_marseille","lat":43.278128,"lon":5.407195,"is_reserved":false,"is_disabled":false,"rental_uris":{"android":"levelo://app?vid=b97b56e0-6c5f-4636-9523-78734a8d3e3e","ios":"levelo://app?vid=b97b56e0-6c5f-4636-9523-78734a8d3e3e"},"vehicle_type_id":"4","last_reported":1702238817,"current_range_meters":29600,"station_id":"ce4bhnh2rcd13ifvqgtg","pricing_plan_id":"free"},{"bike_id":"cc782833-78d1-4a61-b0c7-9863f91d36fc","system_id":"levelo_inurba_marseille","lat":43.278128,"lon":5.407195,"is_reserved":false,"is_disabled":false,"rental_uris":{"android":"levelo://app?vid=cc782833-78d1-4a61-b0c7-9863f91d36fc","ios":"levelo://app?vid=cc782833-78d1-4a61-b0c7-9863f91d36fc"},"vehicle_type_id":"4","last_reported":1702238817,"current_range_meters":22000,"station_id":"ce4bhnh2rcd13ifvqgtg","pricing_plan_id":"free"},{"bike_id":"1d787f7f-5f6c-4dc1-bdec-53143b6ebb0c","system_id":"levelo_inurba_marseille","lat":43.279512,"lon":5.410346,"is_reserved":false,"is_disabled":false,"rental_uris":{"android":"levelo://app?vid=1d787f7f-5f6c-4dc1-bdec-53143b6ebb0c","ios":"levelo://app?vid=1d787f7f-5f6c-4dc1-bdec-53143b6ebb0c"},"vehicle_type_id":"4","last_reported":1702238817,"current_range_meters":8000,"station_id":"ce4bhnp2rcd13ifvqh0g","pricing_plan_id":"free"},{"bike_id":"c92b2869-dae8-4727-a126-c1deb1cd64a7","system_id":"levelo_inurba_marseille","lat":43.279465,"lon":5.410561,"is_reserved":false,"is_disabled":false,"rental_uris":{"android":"levelo://app?vid=c92b2869-dae8-4727-a126-c1deb1cd64a7","ios":"levelo://app?vid=c92b2869-dae8-4727-a126-c1deb1cd64a7"},"vehicle_type_id":"4","last_reported":1702238817,"current_range_meters":17600,"station_id":"ce4bhnp2rcd13ifvqh0g","pricing_plan_id":"free"},{"bike_id":"aaa82718-2267-437c-a3ad-445e41ec0862","system_id":"levelo_inurba_marseille","lat":43.269319,"lon":5.389397,"is_reserved":false,"is_disabled":false,"rental_uris":{"android":"levelo://app?vid=aaa82718-2267-437c-a3ad-445e41ec0862","ios":"levelo://app?vid=aaa82718-2267-437c-a3ad-445e41ec0862"},"vehicle_type_id":"4","last_reported":1702238817,"current_range_meters":12800,"station_id":"ce4bhhh2rcd13ifvqfl0","pricing_plan_id":"free"},{"bike_id":"336e1ad8-8d7e-499f-aa3d-8a0653461583","system_id":"levelo_inurba_marseille","lat":43.27906,"lon":5.41227,"is_reserved":false,"is_disabled":false,"rental_uris":{"android":"levelo://app?vid=336e1ad8-8d7e-499f-aa3d-8a0653461583","ios":"levelo://app?vid=336e1ad8-8d7e-499f-aa3d-8a0653461583"},"vehicle_type_id":"4","last_reported":1702238817,"current_range_meters":23600,"station_id":"","pricing_plan_id":"free"},{"bike_id":"74e07260-28fc-43e4-8acb-2735a5efc6a0","system_id":"levelo_inurba_marseille","lat":43.265714,"lon":5.372891,"is_reserved":false,"is_disabled":false,"rental_uris":{"android":"levelo://app?vid=74e07260-28fc-43e4-8acb-2735a5efc6a0","ios":"levelo://app?vid=74e07260-28fc-43e4-8acb-2735a5efc6a0"},"vehicle_type_id":"4","last_reported":1702238817,"current_range_meters":8400,"station_id":"ce4bhg12rcd13ifvqf70","pricing_plan_id":"free"},{"bike_id":"d802a515-0a57-461b-896d-6ee490b89330","system_id":"levelo_inurba_marseille","lat":43.267966,"lon":5.393976,"is_reserved":false,"is_disabled":false,"rental_uris":{"android":"levelo://app?vid=d802a515-0a57-461b-896d-6ee490b89330","ios":"levelo://app?vid=d802a515-0a57-461b-896d-6ee490b89330"},"vehicle_type_id":"4","last_reported":1702238817,"current_range_meters":800,"station_id":"ce4bhh12rcd13ifvqfg0","pricing_plan_id":"free"},{"bike_id":"b16d2699-0716-4e00-946f-d98588ec2dd2","system_id":"levelo_inurba_marseille","lat":43.26949,"lon":5.40262,"is_reserved":false,"is_disabled":false,"rental_uris":{"android":"levelo://app?vid=b16d2699-0716-4e00-946f-d98588ec2dd2","ios":"levelo://app?vid=b16d2699-0716-4e00-946f-d98588ec2dd2"},"vehicle_type_id":"4","last_reported":1702238817,"current_range_meters":0,"station_id":"cjm6bp8fraef2m0cb0m0","pricing_plan_id":"free"},{"bike_id":"287e9254-f263-4a4d-afd9-500f2b256a68","system_id":"levelo_inurba_marseille","lat":43.2616,"lon":5.37423,"is_reserved":false,"is_disabled":false,"rental_uris":{"android":"levelo://app?vid=287e9254-f263-4a4d-afd9-500f2b256a68","ios":"levelo://app?vid=287e9254-f263-4a4d-afd9-500f2b256a68"},"vehicle_type_id":"4","last_reported":1702238817,"current_range_meters":26400,"station_id":"ce4bhgp2rcd13ifvqfc0","pricing_plan_id":"free"},{"bike_id":"8dbb999f-020b-4680-92a7-f79b383a1e3a","system_id":"levelo_inurba_marseille","lat":43.262012,"lon":5.379307,"is_reserved":false,"is_disabled":false,"rental_uris":{"android":"levelo://app?vid=8dbb999f-020b-4680-92a7-f79b383a1e3a","ios":"levelo://app?vid=8dbb999f-020b-4680-92a7-f79b383a1e3a"},"vehicle_type_id":"4","last_reported":1702238817,"current_range_meters":24000,"station_id":"ce4bhjp2rcd13ifvqg90","pricing_plan_id":"free"},{"bike_id":"bba8858e-2565-4fb8-b7f5-1043d9f538d1","system_id":"levelo_inurba_marseille","lat":43.298768,"lon":5.43643,"is_reserved":false,"is_disabled":false,"rental_uris":{"android":"levelo://app?vid=bba8858e-2565-4fb8-b7f5-1043d9f538d1","ios":"levelo://app?vid=bba8858e-2565-4fb8-b7f5-1043d9f538d1"},"vehicle_type_id":"4","last_reported":1702238817,"current_range_meters":18800,"station_id":"ce4bhpp2rcd13ifvqhfg","pricing_plan_id":"free"},{"bike_id":"3de0a6a1-4453-486c-a1ba-fc284c4c0e2c","system_id":"levelo_inurba_marseille","lat":43.298768,"lon":5.43643,"is_reserved":false,"is_disabled":false,"rental_uris":{"android":"levelo://app?vid=3de0a6a1-4453-486c-a1ba-fc284c4c0e2c","ios":"levelo://app?vid=3de0a6a1-4453-486c-a1ba-fc284c4c0e2c"},"vehicle_type_id":"4","last_reported":1702238817,"current_range_meters":24800,"station_id":"ce4bhpp2rcd13ifvqhfg","pricing_plan_id":"free"},{"bike_id":"1316559d-09bb-47a0-acd5-c23c83976b68","system_id":"levelo_inurba_marseille","lat":43.281548,"lon":5.42643,"is_reserved":false,"is_disabled":false,"rental_uris":{"android":"levelo://app?vid=1316559d-09bb-47a0-acd5-c23c83976b68","ios":"levelo://app?vid=1316559d-09bb-47a0-acd5-c23c83976b68"},"vehicle_type_id":"4","last_reported":1702238817,"current_range_meters":14800,"station_id":"ce4bhnh2rcd13ifvqgug","pricing_plan_id":"free"},{"bike_id":"565786fa-eb1c-4c71-9970-60c79fca54bc","system_id":"levelo_inurba_marseille","lat":43.281548,"lon":5.42643,"is_reserved":false,"is_disabled":false,"rental_uris":{"android":"levelo://app?vid=565786fa-eb1c-4c71-9970-60c79fca54bc","ios":"levelo://app?vid=565786fa-eb1c-4c71-9970-60c79fca54bc"},"vehicle_type_id":"4","last_reported":1702238817,"current_range_meters":12800,"station_id":"ce4bhnh2rcd13ifvqgug","pricing_plan_id":"free"},{"bike_id":"a38287b8-7fab-4730-8fbc-8367f48784f6","system_id":"levelo_inurba_marseille","lat":43.2607,"lon":5.393983,"is_reserved":false,"is_disabled":false,"rental_uris":{"android":"levelo://app?vid=a38287b8-7fab-4730-8fbc-8367f48784f6","ios":"levelo://app?vid=a38287b8-7fab-4730-8fbc-8367f48784f6"},"vehicle_type_id":"4","last_reported":1702238817,"current_range_meters":18800,"station_id":"ce4bhh92rcd13ifvqfj0","pricing_plan_id":"free"},{"bike_id":"08f73c99-b806-4355-a545-d3dafd7c350e","system_id":"levelo_inurba_marseille","lat":43.270721,"lon":5.422764,"is_reserved":false,"is_disabled":false,"rental_uris":{"android":"levelo://app?vid=08f73c99-b806-4355-a545-d3dafd7c350e","ios":"levelo://app?vid=08f73c99-b806-4355-a545-d3dafd7c350e"},"vehicle_type_id":"4","last_reported":1702238817,"current_range_meters":20800,"station_id":"ce4bhk92rcd13ifvqgb0","pricing_plan_id":"free"},{"bike_id":"b4408aed-a663-49ff-a72e-60a86d2103cd","system_id":"levelo_inurba_marseille","lat":43.25929,"lon":5.40919,"is_reserved":false,"is_disabled":false,"rental_uris":{"android":"levelo://app?vid=b4408aed-a663-49ff-a72e-60a86d2103cd","ios":"levelo://app?vid=b4408aed-a663-49ff-a72e-60a86d2103cd"},"vehicle_type_id":"4","last_reported":1702238817,"current_range_meters":2800,"station_id":"ce4bhm92rcd13ifvqglg","pricing_plan_id":"free"},{"bike_id":"12cad532-059e-430e-8687-280170c85cfb","system_id":"levelo_inurba_marseille","lat":43.257079,"lon":5.411051,"is_reserved":false,"is_disabled":false,"rental_uris":{"android":"levelo://app?vid=12cad532-059e-430e-8687-280170c85cfb","ios":"levelo://app?vid=12cad532-059e-430e-8687-280170c85cfb"},"vehicle_type_id":"4","last_reported":1702238817,"current_range_meters":23600,"station_id":"ce4bhkp2rcd13ifvqgd0","pricing_plan_id":"free"},{"bike_id":"53637d02-cb32-49a6-ab6d-29d69306aed3","system_id":"levelo_inurba_marseille","lat":43.257079,"lon":5.411051,"is_reserved":false,"is_disabled":false,"rental_uris":{"android":"levelo://app?vid=53637d02-cb32-49a6-ab6d-29d69306aed3","ios":"levelo://app?vid=53637d02-cb32-49a6-ab6d-29d69306aed3"},"vehicle_type_id":"4","last_reported":1702238817,"current_range_meters":1200,"station_id":"ce4bhkp2rcd13ifvqgd0","pricing_plan_id":"free"},{"bike_id":"548bdd7c-bb01-4420-a166-3de6bf59d824","system_id":"levelo_inurba_marseille","lat":43.25709,"lon":5.41122,"is_reserved":false,"is_disabled":false,"rental_uris":{"android":"levelo://app?vid=548bdd7c-bb01-4420-a166-3de6bf59d824","ios":"levelo://app?vid=548bdd7c-bb01-4420-a166-3de6bf59d824"},"vehicle_type_id":"4","last_reported":1702238817,"current_range_meters":21600,"station_id":"ce4bhkp2rcd13ifvqgd0","pricing_plan_id":"free"},{"bike_id":"e2cf6bb9-5114-4621-9f5c-52d2e7252895","system_id":"levelo_inurba_marseille","lat":43.29376,"lon":5.45152,"is_reserved":false,"is_disabled":false,"rental_uris":{"android":"levelo://app?vid=e2cf6bb9-5114-4621-9f5c-52d2e7252895","ios":"levelo://app?vid=e2cf6bb9-5114-4621-9f5c-52d2e7252895"},"vehicle_type_id":"4","last_reported":1702238817,"current_range_meters":14400,"station_id":"","pricing_plan_id":"free"},{"bike_id":"5692b2e3-9e97-4a3b-b27b-3c61e08b6d8d","system_id":"levelo_inurba_marseille","lat":43.250009,"lon":5.389195,"is_reserved":false,"is_disabled":false,"rental_uris":{"android":"levelo://app?vid=5692b2e3-9e97-4a3b-b27b-3c61e08b6d8d","ios":"levelo://app?vid=5692b2e3-9e97-4a3b-b27b-3c61e08b6d8d"},"vehicle_type_id":"4","last_reported":1702238817,"current_range_meters":29200,"station_id":"ce4bhgp2rcd13ifvqfd0","pricing_plan_id":"free"},{"bike_id":"c1a3a847-3bdb-455a-ac45-12cd33f2c3ba","system_id":"levelo_inurba_marseille","lat":43.250023,"lon":5.38919,"is_reserved":false,"is_disabled":false,"rental_uris":{"android":"levelo://app?vid=c1a3a847-3bdb-455a-ac45-12cd33f2c3ba","ios":"levelo://app?vid=c1a3a847-3bdb-455a-ac45-12cd33f2c3ba"},"vehicle_type_id":"4","last_reported":1702238817,"current_range_meters":6800,"station_id":"ce4bhgp2rcd13ifvqfd0","pricing_plan_id":"free"},{"bike_id":"7d160669-bdc8-487a-955a-10cd0b46ab01","system_id":"levelo_inurba_marseille","lat":43.24802,"lon":5.37454,"is_reserved":false,"is_disabled":false,"rental_uris":{"android":"levelo://app?vid=7d160669-bdc8-487a-955a-10cd0b46ab01","ios":"levelo://app?vid=7d160669-bdc8-487a-955a-10cd0b46ab01"},"vehicle_type_id":"4","last_reported":1702238817,"current_range_meters":16400,"station_id":"ce4bhgh2rcd13ifvqfb0","pricing_plan_id":"free"},{"bike_id":"c58abba1-0886-4999-83b4-5808f55ca642","system_id":"levelo_inurba_marseille","lat":43.2479,"lon":5.374457,"is_reserved":false,"is_disabled":false,"rental_uris":{"android":"levelo://app?vid=c58abba1-0886-4999-83b4-5808f55ca642","ios":"levelo://app?vid=c58abba1-0886-4999-83b4-5808f55ca642"},"vehicle_type_id":"4","last_reported":1702238817,"current_range_meters":26400,"station_id":"ce4bhgh2rcd13ifvqfb0","pricing_plan_id":"free"},{"bike_id":"6c841a86-0db3-43df-89cd-8d77eefd74e9","system_id":"levelo_inurba_marseille","lat":43.250966,"lon":5.395186,"is_reserved":false,"is_disabled":false,"rental_uris":{"android":"levelo://app?vid=6c841a86-0db3-43df-89cd-8d77eefd74e9","ios":"levelo://app?vid=6c841a86-0db3-43df-89cd-8d77eefd74e9"},"vehicle_type_id":"4","last_reported":1702238817,"current_range_meters":10400,"station_id":"ce4bhm12rcd13ifvqgkg","pricing_plan_id":"free"},{"bike_id":"20012db8-0a24-48ec-997c-36b593c9fd5d","system_id":"levelo_inurba_marseille","lat":43.250966,"lon":5.395186,"is_reserved":false,"is_disabled":false,"rental_uris":{"android":"levelo://app?vid=20012db8-0a24-48ec-997c-36b593c9fd5d","ios":"levelo://app?vid=20012db8-0a24-48ec-997c-36b593c9fd5d"},"vehicle_type_id":"4","last_reported":1702238817,"current_range_meters":16400,"station_id":"ce4bhm12rcd13ifvqgkg","pricing_plan_id":"free"},{"bike_id":"e88e9005-7d34-43e0-878e-bcd0266d64e9","system_id":"levelo_inurba_marseille","lat":43.24662,"lon":5.38157,"is_reserved":false,"is_disabled":false,"rental_uris":{"android":"levelo://app?vid=e88e9005-7d34-43e0-878e-bcd0266d64e9","ios":"levelo://app?vid=e88e9005-7d34-43e0-878e-bcd0266d64e9"},"vehicle_type_id":"4","last_reported":1702238817,"current_range_meters":18000,"station_id":"ce4bhih2rcd13ifvqfr0","pricing_plan_id":"free"},{"bike_id":"6cb0fdad-db9b-4752-bbea-dfa544ea4c20","system_id":"levelo_inurba_marseille","lat":43.25102,"lon":5.403214,"is_reserved":false,"is_disabled":false,"rental_uris":{"android":"levelo://app?vid=6cb0fdad-db9b-4752-bbea-dfa544ea4c20","ios":"levelo://app?vid=6cb0fdad-db9b-4752-bbea-dfa544ea4c20"},"vehicle_type_id":"4","last_reported":1702238817,"current_range_meters":20800,"station_id":"ce4bhlh2rcd13ifvqgig","pricing_plan_id":"free"},{"bike_id":"c57c9004-fa75-4a3c-a17b-542a0fac4e37","system_id":"levelo_inurba_marseille","lat":43.25111,"lon":5.40323,"is_reserved":false,"is_disabled":false,"rental_uris":{"android":"levelo://app?vid=c57c9004-fa75-4a3c-a17b-542a0fac4e37","ios":"levelo://app?vid=c57c9004-fa75-4a3c-a17b-542a0fac4e37"},"vehicle_type_id":"4","last_reported":1702238817,"current_range_meters":24400,"station_id":"ce4bhlh2rcd13ifvqgig","pricing_plan_id":"free"},{"bike_id":"72849436-3cfc-45c2-9b41-b5a911e94934","system_id":"levelo_inurba_marseille","lat":43.25105,"lon":5.40322,"is_reserved":false,"is_disabled":false,"rental_uris":{"android":"levelo://app?vid=72849436-3cfc-45c2-9b41-b5a911e94934","ios":"levelo://app?vid=72849436-3cfc-45c2-9b41-b5a911e94934"},"vehicle_type_id":"4","last_reported":1702238817,"current_range_meters":6000,"station_id":"ce4bhlh2rcd13ifvqgig","pricing_plan_id":"free"},{"bike_id":"a94728d5-8fac-4dbb-a538-34fa12863f73","system_id":"levelo_inurba_marseille","lat":43.246467,"lon":5.388984,"is_reserved":false,"is_disabled":false,"rental_uris":{"android":"levelo://app?vid=a94728d5-8fac-4dbb-a538-34fa12863f73","ios":"levelo://app?vid=a94728d5-8fac-4dbb-a538-34fa12863f73"},"vehicle_type_id":"4","last_reported":1702238817,"current_range_meters":10000,"station_id":"ce4bhg12rcd13ifvqf60","pricing_plan_id":"free"},{"bike_id":"e99f7d5f-12a1-4131-b431-e9a618fefa83","system_id":"levelo_inurba_marseille","lat":43.243884,"lon":5.370736,"is_reserved":false,"is_disabled":false,"rental_uris":{"android":"levelo://app?vid=e99f7d5f-12a1-4131-b431-e9a618fefa83","ios":"levelo://app?vid=e99f7d5f-12a1-4131-b431-e9a618fefa83"},"vehicle_type_id":"4","last_reported":1702238817,"current_range_meters":22400,"station_id":"ce4bhhh2rcd13ifvqfk0","pricing_plan_id":"free"},{"bike_id":"1c40486e-a0f3-4905-a7d0-f69269e0ac33","system_id":"levelo_inurba_marseille","lat":43.245456,"lon":5.395208,"is_reserved":false,"is_disabled":false,"rental_uris":{"android":"levelo://app?vid=1c40486e-a0f3-4905-a7d0-f69269e0ac33","ios":"levelo://app?vid=1c40486e-a0f3-4905-a7d0-f69269e0ac33"},"vehicle_type_id":"4","last_reported":1702238817,"current_range_meters":4400,"station_id":"","pricing_plan_id":"free"},{"bike_id":"4e2a1b92-fd1a-4f0e-94a5-beda735ca1ff","system_id":"levelo_inurba_marseille","lat":43.24072,"lon":5.3776,"is_reserved":false,"is_disabled":false,"rental_uris":{"android":"levelo://app?vid=4e2a1b92-fd1a-4f0e-94a5-beda735ca1ff","ios":"levelo://app?vid=4e2a1b92-fd1a-4f0e-94a5-beda735ca1ff"},"vehicle_type_id":"4","last_reported":1702238817,"current_range_meters":3600,"station_id":"ce4bhnp2rcd13ifvqgvg","pricing_plan_id":"free"},{"bike_id":"ba2ffe5d-0854-438d-83e7-4a71cbe644cc","system_id":"levelo_inurba_marseille","lat":43.231794,"lon":5.400052,"is_reserved":false,"is_disabled":false,"rental_uris":{"android":"levelo://app?vid=ba2ffe5d-0854-438d-83e7-4a71cbe644cc","ios":"levelo://app?vid=ba2ffe5d-0854-438d-83e7-4a71cbe644cc"},"vehicle_type_id":"4","last_reported":1702238817,"current_range_meters":22000,"station_id":"ce4bhn12rcd13ifvqgqg","pricing_plan_id":"free"}]}}