{"last_updated":1738048198,"ttl":60,"version":"2.2","data":{"bikes":[{"bike_id":"daecbc3f-f9da-434f-aebf-79d1f22cec49","system_id":"levelo_inurba_marseille","lat":43.25931,"lon":5.40894,"is_reserved":false,"is_disabled":false,"rental_uris":{"android":"levelo://app?vid=daecbc3f-f9da-434f-aebf-79d1f22cec49","ios":"levelo://app?vid=daecbc3f-f9da-434f-aebf-79d1f22cec49"},"vehicle_type_id":"4","last_reported":1738048198,"current_range_meters":33600,"station_id":"ce4bhm92rcd13ifvqglg","pricing_plan_id":"cebpf4jnsgd1na2vs0mg"},{"bike_id":"a8b85f78-1e11-4234-a789-3eb70ce76fa5","system_id":"levelo_inurba_marseille","lat":43.31232,"lon":5.36831,"is_reserved":false,"is_disabled":false,"rental_uris":{"android":"levelo://app?vid=a8b85f78-1e11-4234-a789-3eb70ce76fa5","ios":"levelo://app?vid=a8b85f78-1e11-4234-a789-3eb70ce76fa5"},"vehicle_type_id":"4","last_reported":1738048198,"current_range_meters":39200,"station_id":"ce4bgl92rcd13ifvqbq0","pricing_plan_id":"cebpf4jnsgd1na2vs0mg"},{"bike_id":"ce9c6111-0118-42d1-bfda-6fdbc9033126","system_id":"levelo_inurba_marseille","lat":43.28005,"lon":5.40008,"is_reserved":false,"is_disabled":false,"rental_uris":{"android":"levelo://app?vid=ce9c6111-0118-42d1-bfda-6fdbc9033126","ios":"levelo://app?vid=ce9c6111-0118-42d1-bfda-6fdbc9033126"},"vehicle_type_id":"4","last_reported":1738048198,"current_range_meters":29600,"station_id":"ce4bho92rcd13ifvqh4g","pricing_plan_id":"cebpf4jnsgd1na2vs0mg"},{"bike_id":"2a8246aa-d909-49e4-a225-75c8bda9e81d","system_id":"levelo_inurba_marseille","lat":43.29271,"lon":5.401303,"is_reserved":false,"is_disabled":false,"rental_uris":{"android":"levelo://app?vid=2a8246aa-d909-49e4-a225-75c8bda9e81d","ios":"levelo://app?vid=2a8246aa-d909-49e4-a225-75c8bda9e81d"},"vehicle_type_id":"4","last_reported":1738048198,"current_range_meters":39200,"station_id":"ce4bh312rcd13ifvqdk0","pricing_plan_id":"cebpf4jnsgd1na2vs0mg"},{"bike_id":"c7312033-09c6-42b7-8c70-a23ab7d153a2","system_id":"levelo_inurba_marseille","lat":43.29586,"lon":5.37524,"is_reserved":false,"is_disabled":false,"rental_uris":{"android":"levelo://app?vid=c7312033-09c6-42b7-8c70-a23ab7d153a2","ios":"levelo://app?vid=c7312033-09c6-42b7-8c70-a23ab7d153a2"},"vehicle_type_id":"4","last_reported":1738048198,"current_range_meters":35600,"station_id":"ce4bgh92rcd13ifvqb50","pricing_plan_id":"cebpf4jnsgd1na2vs0mg"},{"bike_id":"8b1098b1-640e-4fd5-a15c-8d21ce3dcecf","system_id":"levelo_inurba_marseille","lat":43.27999,"lon":5.40023,"is_reserved":false,"is_disabled":false,"rental_uris":{"android":"levelo://app?vid=8b1098b1-640e-4fd5-a15c-8d21ce3dcecf","ios":"levelo://app?vid=8b1098b1-640e-4fd5-a15c-8d21ce3dcecf"},"vehicle_type_id":"4","last_reported":1738048198,"current_range_meters":38800,"station_id":"ce4bho92rcd13ifvqh4g","pricing_plan_id":"cebpf4jnsgd1na2vs0mg"},{"bike_id":"12002a0d-d451-483d-824b-d63b3f272173","system_id":"levelo_inurba_marseille","lat":43.30472,"lon":5.37877,"is_reserved":false,"is_disabled":false,"rental_uris":{"android":"levelo://app?vid=12002a0d-d451-483d-824b-d63b3f272173","ios":"levelo://app?vid=12002a0d-d451-483d-824b-d63b3f272173"},"vehicle_type_id":"4","last_reported":1738048198,"current_range_meters":6400,"station_id":"ce4bgup2rcd13ifvqcn0","pricing_plan_id":"cebpf4jnsgd1na2vs0mg"},{"bike_id":"016df488-a883-41f8-ac53-5f03791bc4fe","system_id":"levelo_inurba_marseille","lat":43.30886,"lon":5.39608,"is_reserved":false,"is_disabled":true,"rental_uris":{"android":"levelo://app?vid=016df488-a883-41f8-ac53-5f03791bc4fe","ios":"levelo://app?vid=016df488-a883-41f8-ac53-5f03791bc4fe"},"vehicle_type_id":"4","last_reported":1738048198,"current_range_meters":0,"station_id":"ce4bh012rcd13ifvqcv0","pricing_plan_id":"cebpf4jnsgd1na2vs0mg"},{"bike_id":"22d2d4db-89d7-4981-87a0-21a413664a9f","system_id":"levelo_inurba_marseille","lat":43.29043,"lon":5.39952,"is_reserved":false,"is_disabled":false,"rental_uris":{"android":"levelo://app?vid=22d2d4db-89d7-4981-87a0-21a413664a9f","ios":"levelo://app?vid=22d2d4db-89d7-4981-87a0-21a413664a9f"},"vehicle_type_id":"4","last_reported":1738048198,"current_range_meters":38000,"station_id":"ce4bh392rcd13ifvqdm0","pricing_plan_id":"cebpf4jnsgd1na2vs0mg"},{"bike_id":"b874dfe8-a576-4cac-bf4b-e4184608031e","system_id":"levelo_inurba_marseille","lat":43.30255,"lon":5.40083,"is_reserved":false,"is_disabled":false,"rental_uris":{"android":"levelo://app?vid=b874dfe8-a576-4cac-bf4b-e4184608031e","ios":"levelo://app?vid=b874dfe8-a576-4cac-bf4b-e4184608031e"},"vehicle_type_id":"4","last_reported":1738048198,"current_range_meters":28800,"station_id":"ce4bgvh2rcd13ifvqcs0","pricing_plan_id":"cebpf4jnsgd1na2vs0mg"},{"bike_id":"c2d2d49b-e5df-488d-b462-7be34a33e75e","system_id":"levelo_inurba_marseille","lat":43.27486,"lon":5.42464,"is_reserved":false,"is_disabled":false,"rental_uris":{"android":"levelo://app?vid=c2d2d49b-e5df-488d-b462-7be34a33e75e","ios":"levelo://app?vid=c2d2d49b-e5df-488d-b462-7be34a33e75e"},"vehicle_type_id":"4","last_reported":1738048198,"current_range_meters":33200,"station_id":"ce4bhn92rcd13ifvqgrg","pricing_plan_id":"cebpf4jnsgd1na2vs0mg"},{"bike_id":"32959db6-7c1c-4686-b9c7-a1ceb03ad178","system_id":"levelo_inurba_marseille","lat":43.27798,"lon":5.40696,"is_reserved":false,"is_disabled":false,"rental_uris":{"android":"levelo://app?vid=32959db6-7c1c-4686-b9c7-a1ceb03ad178","ios":"levelo://app?vid=32959db6-7c1c-4686-b9c7-a1ceb03ad178"},"vehicle_type_id":"4","last_reported":1738048198,"current_range_meters":35600,"station_id":"ce4bhnh2rcd13ifvqgtg","pricing_plan_id":"cebpf4jnsgd1na2vs0mg"},{"bike_id":"d1005862-4bfe-477a-9e05-78e14cdb6942","system_id":"levelo_inurba_marseille","lat":43.2956,"lon":5.42267,"is_reserved":false,"is_disabled":false,"rental_uris":{"android":"levelo://app?vid=d1005862-4bfe-477a-9e05-78e14cdb6942","ios":"levelo://app?vid=d1005862-4bfe-477a-9e05-78e14cdb6942"},"vehicle_type_id":"4","last_reported":1738048198,"current_range_meters":38000,"station_id":"ce4bhph2rcd13ifvqhdg","pricing_plan_id":"cebpf4jnsgd1na2vs0mg"},{"bike_id":"db913c79-4ab1-4c85-b882-18e791694c41","system_id":"levelo_inurba_marseille","lat":43.26562,"lon":5.39016,"is_reserved":false,"is_disabled":false,"rental_uris":{"android":"levelo://app?vid=db913c79-4ab1-4c85-b882-18e791694c41","ios":"levelo://app?vid=db913c79-4ab1-4c85-b882-18e791694c41"},"vehicle_type_id":"4","last_reported":1738048198,"current_range_meters":20000,"station_id":"ce4bhe12rcd13ifvqf30","pricing_plan_id":"cebpf4jnsgd1na2vs0mg"},{"bike_id":"be6879a7-2b87-4ff0-b453-c287a13c76c7","system_id":"levelo_inurba_marseille","lat":43.30539,"lon":5.38406,"is_reserved":false,"is_disabled":false,"rental_uris":{"android":"levelo://app?vid=be6879a7-2b87-4ff0-b453-c287a13c76c7","ios":"levelo://app?vid=be6879a7-2b87-4ff0-b453-c287a13c76c7"},"vehicle_type_id":"4","last_reported":1738048198,"current_range_meters":38800,"station_id":"ce4bgg92rcd13ifvqb30","pricing_plan_id":"cebpf4jnsgd1na2vs0mg"},{"bike_id":"0e5577eb-e782-4733-a49d-962e327ff8c3","system_id":"levelo_inurba_marseille","lat":43.33602,"lon":5.41032,"is_reserved":false,"is_disabled":true,"rental_uris":{"android":"levelo://app?vid=0e5577eb-e782-4733-a49d-962e327ff8c3","ios":"levelo://app?vid=0e5577eb-e782-4733-a49d-962e327ff8c3"},"vehicle_type_id":"4","last_reported":1738048198,"current_range_meters":800,"station_id":"ce4bhqh2rcd13ifvqhmg","pricing_plan_id":"cebpf4jnsgd1na2vs0mg"},{"bike_id":"c96545e6-b3fa-4a6b-836e-d89ea478e5d1","system_id":"levelo_inurba_marseille","lat":43.24987,"lon":5.38927,"is_reserved":false,"is_disabled":false,"rental_uris":{"android":"levelo://app?vid=c96545e6-b3fa-4a6b-836e-d89ea478e5d1","ios":"levelo://app?vid=c96545e6-b3fa-4a6b-836e-d89ea478e5d1"},"vehicle_type_id":"4","last_reported":1738048198,"current_range_meters":38800,"station_id":"ce4bhgp2rcd13ifvqfd0","pricing_plan_id":"cebpf4jnsgd1na2vs0mg"},{"bike_id":"446ae097-257a-44f3-86c2-42be592828d8","system_id":"levelo_inurba_marseille","lat":43.27565,"lon":5.38411,"is_reserved":false,"is_disabled":true,"rental_uris":{"android":"levelo://app?vid=446ae097-257a-44f3-86c2-42be592828d8","ios":"levelo://app?vid=446ae097-257a-44f3-86c2-42be592828d8"},"vehicle_type_id":"4","last_reported":1738048198,"current_range_meters":0,"station_id":"ce4bhh92rcd13ifvqfi0","pricing_plan_id":"cebpf4jnsgd1na2vs0mg"},{"bike_id":"cfff1edf-189f-4cb0-80dd-22014a7dc63a","system_id":"levelo_inurba_marseille","lat":43.24806,"lon":5.37458,"is_reserved":false,"is_disabled":false,"rental_uris":{"android":"levelo://app?vid=cfff1edf-189f-4cb0-80dd-22014a7dc63a","ios":"levelo://app?vid=cfff1edf-189f-4cb0-80dd-22014a7dc63a"},"vehicle_type_id":"4","last_reported":1738048198,"current_range_meters":12000,"station_id":"ce4bhgh2rcd13ifvqfb0","pricing_plan_id":"cebpf4jnsgd1na2vs0mg"},{"bike_id":"96c6d005-88bb-4fd6-98f4-0a014c553eb8","system_id":"levelo_inurba_marseille","lat":43.330147,"lon":5.390418,"is_reserved":false,"is_disabled":false,"rental_uris":{"android":"levelo://app?vid=96c6d005-88bb-4fd6-98f4-0a014c553eb8","ios":"levelo://app?vid=96c6d005-88bb-4fd6-98f4-0a014c553eb8"},"vehicle_type_id":"4","last_reported":1738048198,"current_range_meters":38800,"station_id":"ce4bhr92rcd13ifvqhrg","pricing_plan_id":"cebpf4jnsgd1na2vs0mg"},{"bike_id":"84b75094-6b85-43d4-9705-26193b8ae131","system_id":"levelo_inurba_marseille","lat":43.30934,"lon":5.36817,"is_reserved":false,"is_disabled":false,"rental_uris":{"android":"levelo://app?vid=84b75094-6b85-43d4-9705-26193b8ae131","ios":"levelo://app?vid=84b75094-6b85-43d4-9705-26193b8ae131"},"vehicle_type_id":"4","last_reported":1738048198,"current_range_meters":37600,"station_id":"ce4bgn92rcd13ifvqbvg","pricing_plan_id":"cebpf4jnsgd1na2vs0mg"},{"bike_id":"5c388708-e3f2-4bbd-88d9-c199a31e81f9","system_id":"levelo_inurba_marseille","lat":43.28726,"lon":5.39987,"is_reserved":false,"is_disabled":true,"rental_uris":{"android":"levelo://app?vid=5c388708-e3f2-4bbd-88d9-c199a31e81f9","ios":"levelo://app?vid=5c388708-e3f2-4bbd-88d9-c199a31e81f9"},"vehicle_type_id":"4","last_reported":1738048198,"current_range_meters":38000,"station_id":"ce4bho92rcd13ifvqh3g","pricing_plan_id":"cebpf4jnsgd1na2vs0mg"},{"bike_id":"c6b2aeea-8be6-4ed0-8019-7e88f71bd8d8","system_id":"levelo_inurba_marseille","lat":43.29857,"lon":5.36274,"is_reserved":false,"is_disabled":true,"rental_uris":{"android":"levelo://app?vid=c6b2aeea-8be6-4ed0-8019-7e88f71bd8d8","ios":"levelo://app?vid=c6b2aeea-8be6-4ed0-8019-7e88f71bd8d8"},"vehicle_type_id":"4","last_reported":1738048198,"current_range_meters":28000,"station_id":"ce4bgpp2rcd13ifvqc3g","pricing_plan_id":"cebpf4jnsgd1na2vs0mg"},{"bike_id":"7b2f5f64-8d5b-4c7d-a864-3b434ad17a80","system_id":"levelo_inurba_marseille","lat":43.28883,"lon":5.35491,"is_reserved":false,"is_disabled":false,"rental_uris":{"android":"levelo://app?vid=7b2f5f64-8d5b-4c7d-a864-3b434ad17a80","ios":"levelo://app?vid=7b2f5f64-8d5b-4c7d-a864-3b434ad17a80"},"vehicle_type_id":"4","last_reported":1738048198,"current_range_meters":19600,"station_id":"","pricing_plan_id":"cebpf4jnsgd1na2vs0mg"},{"bike_id":"49ac70a6-f431-448f-8b78-0c0b9150bb51","system_id":"levelo_inurba_marseille","lat":43.31288,"lon":5.40164,"is_reserved":false,"is_disabled":false,"rental_uris":{"android":"levelo://app?vid=49ac70a6-f431-448f-8b78-0c0b9150bb51","ios":"levelo://app?vid=49ac70a6-f431-448f-8b78-0c0b9150bb51"},"vehicle_type_id":"4","last_reported":1738048198,"current_range_meters":38800,"station_id":"ce4bh092rcd13ifvqd30","pricing_plan_id":"cebpf4jnsgd1na2vs0mg"},{"bike_id":"1d87a1d8-3de2-49d5-8d88-4919cdf3534b","system_id":"levelo_inurba_marseille","lat":43.27809,"lon":5.4071,"is_reserved":false,"is_disabled":false,"rental_uris":{"android":"levelo://app?vid=1d87a1d8-3de2-49d5-8d88-4919cdf3534b","ios":"levelo://app?vid=1d87a1d8-3de2-49d5-8d88-4919cdf3534b"},"vehicle_type_id":"4","last_reported":1738048198,"current_range_meters":35600,"station_id":"ce4bhnh2rcd13ifvqgtg","pricing_plan_id":"cebpf4jnsgd1na2vs0mg"},{"bike_id":"16732622-179a-4ef6-8562-9c9e8f108fd0","system_id":"levelo_inurba_marseille","lat":43.30486,"lon":5.3904,"is_reserved":false,"is_disabled":false,"rental_uris":{"android":"levelo://app?vid=16732622-179a-4ef6-8562-9c9e8f108fd0","ios":"levelo://app?vid=16732622-179a-4ef6-8562-9c9e8f108fd0"},"vehicle_type_id":"4","last_reported":1738048198,"current_range_meters":6400,"station_id":"","pricing_plan_id":"cebpf4jnsgd1na2vs0mg"},{"bike_id":"616f403c-2634-47c6-a065-b422b1fa4c15","system_id":"levelo_inurba_marseille","lat":43.24156,"lon":5.39745,"is_reserved":false,"is_disabled":false,"rental_uris":{"android":"levelo://app?vid=616f403c-2634-47c6-a065-b422b1fa4c15","ios":"levelo://app?vid=616f403c-2634-47c6-a065-b422b1fa4c15"},"vehicle_type_id":"4","last_reported":1738048198,"current_range_meters":26000,"station_id":"ce4bhn12rcd13ifvqgpg","pricing_plan_id":"cebpf4jnsgd1na2vs0mg"},{"bike_id":"26b11614-6415-40a3-bed2-5926abfaad8a","system_id":"levelo_inurba_marseille","lat":43.26702,"lon":5.38288,"is_reserved":false,"is_disabled":true,"rental_uris":{"android":"levelo://app?vid=26b11614-6415-40a3-bed2-5926abfaad8a","ios":"levelo://app?vid=26b11614-6415-40a3-bed2-5926abfaad8a"},"vehicle_type_id":"4","last_reported":1738048198,"current_range_meters":32800,"station_id":"ce4bhg92rcd13ifvqf90","pricing_plan_id":"cebpf4jnsgd1na2vs0mg"},{"bike_id":"c0b0a7b5-0a74-4265-bd3b-7525b6adf116","system_id":"levelo_inurba_marseille","lat":43.29708,"lon":5.3769,"is_reserved":false,"is_disabled":false,"rental_uris":{"android":"levelo://app?vid=c0b0a7b5-0a74-4265-bd3b-7525b6adf116","ios":"levelo://app?vid=c0b0a7b5-0a74-4265-bd3b-7525b6adf116"},"vehicle_type_id":"4","last_reported":1738048198,"current_range_meters":39200,"station_id":"ce4bgkh2rcd13ifvqbl0","pricing_plan_id":"cebpf4jnsgd1na2vs0mg"},{"bike_id":"d999bd9f-6214-4f0c-9578-310af25f727d","system_id":"levelo_inurba_marseille","lat":43.28636,"lon":5.35112,"is_reserved":false,"is_disabled":false,"rental_uris":{"android":"levelo://app?vid=d999bd9f-6214-4f0c-9578-310af25f727d","ios":"levelo://app?vid=d999bd9f-6214-4f0c-9578-310af25f727d"},"vehicle_type_id":"4","last_reported":1738048198,"current_range_meters":28400,"station_id":"ce4bhch2rcd13ifvqeug","pricing_plan_id":"cebpf4jnsgd1na2vs0mg"},{"bike_id":"f2eeac19-a1a3-4bf8-959a-fcabe948ad45","system_id":"levelo_inurba_marseille","lat":43.33602,"lon":5.41032,"is_reserved":false,"is_disabled":false,"rental_uris":{"android":"levelo://app?vid=f2eeac19-a1a3-4bf8-959a-fcabe948ad45","ios":"levelo://app?vid=f2eeac19-a1a3-4bf8-959a-fcabe948ad45"},"vehicle_type_id":"4","last_reported":1738048198,"current_range_meters":28000,"station_id":"ce4bhqh2rcd13ifvqhmg","pricing_plan_id":"cebpf4jnsgd1na2vs0mg"},{"bike_id":"12f85043-32ca-49b8-bd75-39b0a52fbb53","system_id":"levelo_inurba_marseille","lat":43.27493,"lon":5.42425,"is_reserved":false,"is_disabled":false,"rental_uris":{"android":"levelo://app?vid=12f85043-32ca-49b8-bd75-39b0a52fbb53","ios":"levelo://app?vid=12f85043-32ca-49b8-bd75-39b0a52fbb53"},"vehicle_type_id":"4","last_reported":1738048198,"current_range_meters":30800,"station_id":"ce4bhn92rcd13ifvqgrg","pricing_plan_id":"cebpf4jnsgd1na2vs0mg"},{"bike_id":"4cd885e7-07fa-42ad-a294-3a57579ff57e","system_id":"levelo_inurba_marseille","lat":43.27497,"lon":5.42459,"is_reserved":false,"is_disabled":false,"rental_uris":{"android":"levelo://app?vid=4cd885e7-07fa-42ad-a294-3a57579ff57e","ios":"levelo://app?vid=4cd885e7-07fa-42ad-a294-3a57579ff57e"},"vehicle_type_id":"4","last_reported":1738048198,"current_range_meters":12400,"station_id":"ce4bhn92rcd13ifvqgrg","pricing_plan_id":"cebpf4jnsgd1na2vs0mg"},{"bike_id":"f07e1ec5-0fe7-4cbe-8861-5ff017d088bc","system_id":"levelo_inurba_marseille","lat":43.30152,"lon":5.3808,"is_reserved":false,"is_disabled":false,"rental_uris":{"android":"levelo://app?vid=f07e1ec5-0fe7-4cbe-8861-5ff017d088bc","ios":"levelo://app?vid=f07e1ec5-0fe7-4cbe-8861-5ff017d088bc"},"vehicle_type_id":"4","last_reported":1738048198,"current_range_meters":36800,"station_id":"ce4bgjp2rcd13ifvqbh0","pricing_plan_id":"cebpf4jnsgd1na2vs0mg"},{"bike_id":"d865abeb-2f7f-43b1-9843-1e40b9493dd5","system_id":"levelo_inurba_marseille","lat":43.31224,"lon":5.36859,"is_reserved":false,"is_disabled":false,"rental_uris":{"android":"levelo://app?vid=d865abeb-2f7f-43b1-9843-1e40b9493dd5","ios":"levelo://app?vid=d865abeb-2f7f-43b1-9843-1e40b9493dd5"},"vehicle_type_id":"4","last_reported":1738048198,"current_range_meters":37600,"station_id":"ce4bgl92rcd13ifvqbq0","pricing_plan_id":"cebpf4jnsgd1na2vs0mg"},{"bike_id":"efbdb8cf-f7c0-4e8a-91ef-35df262b82bd","system_id":"levelo_inurba_marseille","lat":43.29446,"lon":5.39749,"is_reserved":false,"is_disabled":false,"rental_uris":{"android":"levelo://app?vid=efbdb8cf-f7c0-4e8a-91ef-35df262b82bd","ios":"levelo://app?vid=efbdb8cf-f7c0-4e8a-91ef-35df262b82bd"},"vehicle_type_id":"4","last_reported":1738048198,"current_range_meters":16400,"station_id":"ce4bh3h2rcd13ifvqdo0","pricing_plan_id":"cebpf4jnsgd1na2vs0mg"},{"bike_id":"75f78423-7bb1-46bc-9291-8f61438106b2","system_id":"levelo_inurba_marseille","lat":43.33028,"lon":5.39048,"is_reserved":false,"is_disabled":false,"rental_uris":{"android":"levelo://app?vid=75f78423-7bb1-46bc-9291-8f61438106b2","ios":"levelo://app?vid=75f78423-7bb1-46bc-9291-8f61438106b2"},"vehicle_type_id":"4","last_reported":1738048198,"current_range_meters":30400,"station_id":"ce4bhr92rcd13ifvqhrg","pricing_plan_id":"cebpf4jnsgd1na2vs0mg"},{"bike_id":"ec0a613b-b1f7-4308-860e-80f99820ebf0","system_id":"levelo_inurba_marseille","lat":43.31217,"lon":5.36845,"is_reserved":false,"is_disabled":false,"rental_uris":{"android":"levelo://app?vid=ec0a613b-b1f7-4308-860e-80f99820ebf0","ios":"levelo://app?vid=ec0a613b-b1f7-4308-860e-80f99820ebf0"},"vehicle_type_id":"4","last_reported":1738048198,"current_range_meters":16800,"station_id":"ce4bgl92rcd13ifvqbq0","pricing_plan_id":"cebpf4jnsgd1na2vs0mg"},{"bike_id":"5b093e90-300a-4b0a-a15d-ae22ef06f7a6","system_id":"levelo_inurba_marseille","lat":43.30542,"lon":5.36539,"is_reserved":false,"is_disabled":false,"rental_uris":{"android":"levelo://app?vid=5b093e90-300a-4b0a-a15d-ae22ef06f7a6","ios":"levelo://app?vid=5b093e90-300a-4b0a-a15d-ae22ef06f7a6"},"vehicle_type_id":"4","last_reported":1738048198,"current_range_meters":33200,"station_id":"ce4bgs12rcd13ifvqcag","pricing_plan_id":"cebpf4jnsgd1na2vs0mg"},{"bike_id":"758ec113-98e0-49e8-8abc-129308041f6e","system_id":"levelo_inurba_marseille","lat":43.29287,"lon":5.40116,"is_reserved":false,"is_disabled":false,"rental_uris":{"android":"levelo://app?vid=758ec113-98e0-49e8-8abc-129308041f6e","ios":"levelo://app?vid=758ec113-98e0-49e8-8abc-129308041f6e"},"vehicle_type_id":"4","last_reported":1738048198,"current_range_meters":19600,"station_id":"ce4bh312rcd13ifvqdk0","pricing_plan_id":"cebpf4jnsgd1na2vs0mg"},{"bike_id":"2f79d83d-b03f-4368-985f-fb495bddc7fe","system_id":"levelo_inurba_marseille","lat":43.302551,"lon":5.400755,"is_reserved":false,"is_disabled":false,"rental_uris":{"android":"levelo://app?vid=2f79d83d-b03f-4368-985f-fb495bddc7fe","ios":"levelo://app?vid=2f79d83d-b03f-4368-985f-fb495bddc7fe"},"vehicle_type_id":"4","last_reported":1738048198,"current_range_meters":17600,"station_id":"ce4bgvh2rcd13ifvqcs0","pricing_plan_id":"cebpf4jnsgd1na2vs0mg"},{"bike_id":"86fbfebb-3448-49ee-ae12-3932206aaf3d","system_id":"levelo_inurba_marseille","lat":43.27828,"lon":5.40723,"is_reserved":false,"is_disabled":false,"rental_uris":{"android":"levelo://app?vid=86fbfebb-3448-49ee-ae12-3932206aaf3d","ios":"levelo://app?vid=86fbfebb-3448-49ee-ae12-3932206aaf3d"},"vehicle_type_id":"4","last_reported":1738048198,"current_range_meters":35600,"station_id":"ce4bhnh2rcd13ifvqgtg","pricing_plan_id":"cebpf4jnsgd1na2vs0mg"},{"bike_id":"a3ce0f1b-0c3b-41cd-b099-6ca8e875ba24","system_id":"levelo_inurba_marseille","lat":43.2602,"lon":5.37554,"is_reserved":false,"is_disabled":false,"rental_uris":{"android":"levelo://app?vid=a3ce0f1b-0c3b-41cd-b099-6ca8e875ba24","ios":"levelo://app?vid=a3ce0f1b-0c3b-41cd-b099-6ca8e875ba24"},"vehicle_type_id":"4","last_reported":1738048198,"current_range_meters":38800,"station_id":"ce4bhgh2rcd13ifvqfa0","pricing_plan_id":"cebpf4jnsgd1na2vs0mg"},{"bike_id":"e4db3a86-3f36-4e5e-9963-a3ab316da563","system_id":"levelo_inurba_marseille","lat":43.29575,"lon":5.38108,"is_reserved":false,"is_disabled":false,"rental_uris":{"android":"levelo://app?vid=e4db3a86-3f36-4e5e-9963-a3ab316da563","ios":"levelo://app?vid=e4db3a86-3f36-4e5e-9963-a3ab316da563"},"vehicle_type_id":"4","last_reported":1738048198,"current_range_meters":30800,"station_id":"ce4bgl12rcd13ifvqbo0","pricing_plan_id":"cebpf4jnsgd1na2vs0mg"},{"bike_id":"a0b9cd6c-c875-49b5-9730-db3796dd717c","system_id":"levelo_inurba_marseille","lat":43.27062,"lon":5.4026,"is_reserved":false,"is_disabled":false,"rental_uris":{"android":"levelo://app?vid=a0b9cd6c-c875-49b5-9730-db3796dd717c","ios":"levelo://app?vid=a0b9cd6c-c875-49b5-9730-db3796dd717c"},"vehicle_type_id":"4","last_reported":1738048198,"current_range_meters":36800,"station_id":"ce4bhk92rcd13ifvqgc0","pricing_plan_id":"cebpf4jnsgd1na2vs0mg"},{"bike_id":"c7830262-ea23-45f4-9a23-990ed17ebf09","system_id":"levelo_inurba_marseille","lat":43.29897,"lon":5.39745,"is_reserved":false,"is_disabled":true,"rental_uris":{"android":"levelo://app?vid=c7830262-ea23-45f4-9a23-990ed17ebf09","ios":"levelo://app?vid=c7830262-ea23-45f4-9a23-990ed17ebf09"},"vehicle_type_id":"4","last_reported":1738048198,"current_range_meters":38000,"station_id":"ce4bh0h2rcd13ifvqd50","pricing_plan_id":"cebpf4jnsgd1na2vs0mg"},{"bike_id":"5fb5e28e-aaa0-45a0-87aa-5ca66208f5af","system_id":"levelo_inurba_marseille","lat":43.28356,"lon":5.3812,"is_reserved":false,"is_disabled":false,"rental_uris":{"android":"levelo://app?vid=5fb5e28e-aaa0-45a0-87aa-5ca66208f5af","ios":"levelo://app?vid=5fb5e28e-aaa0-45a0-87aa-5ca66208f5af"},"vehicle_type_id":"4","last_reported":1738048198,"current_range_meters":29600,"station_id":"","pricing_plan_id":"cebpf4jnsgd1na2vs0mg"},{"bike_id":"033a67b7-40b4-43c6-ad52-45ec6b258154","system_id":"levelo_inurba_marseille","lat":43.28915,"lon":5.38438,"is_reserved":false,"is_disabled":false,"rental_uris":{"android":"levelo://app?vid=033a67b7-40b4-43c6-ad52-45ec6b258154","ios":"levelo://app?vid=033a67b7-40b4-43c6-ad52-45ec6b258154"},"vehicle_type_id":"4","last_reported":1738048198,"current_range_meters":31200,"station_id":"ce4bha12rcd13ifvqef0","pricing_plan_id":"cebpf4jnsgd1na2vs0mg"},{"bike_id":"90ba1315-0e86-48cb-ac47-75fe2427c164","system_id":"levelo_inurba_marseille","lat":43.2749,"lon":5.42444,"is_reserved":false,"is_disabled":false,"rental_uris":{"android":"levelo://app?vid=90ba1315-0e86-48cb-ac47-75fe2427c164","ios":"levelo://app?vid=90ba1315-0e86-48cb-ac47-75fe2427c164"},"vehicle_type_id":"4","last_reported":1738048198,"current_range_meters":26000,"station_id":"ce4bhn92rcd13ifvqgrg","pricing_plan_id":"cebpf4jnsgd1na2vs0mg"},{"bike_id":"9fca1d16-1880-49b9-ab6b-602c97b86f58","system_id":"levelo_inurba_marseille","lat":43.29595,"lon":5.38094,"is_reserved":false,"is_disabled":false,"rental_uris":{"android":"levelo://app?vid=9fca1d16-1880-49b9-ab6b-602c97b86f58","ios":"levelo://app?vid=9fca1d16-1880-49b9-ab6b-602c97b86f58"},"vehicle_type_id":"4","last_reported":1738048198,"current_range_meters":34000,"station_id":"ce4bgl12rcd13ifvqbo0","pricing_plan_id":"cebpf4jnsgd1na2vs0mg"},{"bike_id":"7fc942fc-b8cf-424a-806f-ec87840357cf","system_id":"levelo_inurba_marseille","lat":43.271925,"lon":5.409914,"is_reserved":false,"is_disabled":false,"rental_uris":{"android":"levelo://app?vid=7fc942fc-b8cf-424a-806f-ec87840357cf","ios":"levelo://app?vid=7fc942fc-b8cf-424a-806f-ec87840357cf"},"vehicle_type_id":"4","last_reported":1738048198,"current_range_meters":33200,"station_id":"ce4bhl12rcd13ifvqgf0","pricing_plan_id":"cebpf4jnsgd1na2vs0mg"},{"bike_id":"38540e81-16ab-49ee-bc5b-9723b654df44","system_id":"levelo_inurba_marseille","lat":43.27803,"lon":5.40734,"is_reserved":false,"is_disabled":true,"rental_uris":{"android":"levelo://app?vid=38540e81-16ab-49ee-bc5b-9723b654df44","ios":"levelo://app?vid=38540e81-16ab-49ee-bc5b-9723b654df44"},"vehicle_type_id":"4","last_reported":1738048198,"current_range_meters":11200,"station_id":"ce4bhnh2rcd13ifvqgtg","pricing_plan_id":"cebpf4jnsgd1na2vs0mg"},{"bike_id":"0a3c2fc6-3a3b-4b11-853c-a8532910522d","system_id":"levelo_inurba_marseille","lat":43.31756,"lon":5.39018,"is_reserved":false,"is_disabled":false,"rental_uris":{"android":"levelo://app?vid=0a3c2fc6-3a3b-4b11-853c-a8532910522d","ios":"levelo://app?vid=0a3c2fc6-3a3b-4b11-853c-a8532910522d"},"vehicle_type_id":"4","last_reported":1738048198,"current_range_meters":26000,"station_id":"ce4bhqp2rcd13ifvqhng","pricing_plan_id":"cebpf4jnsgd1na2vs0mg"},{"bike_id":"98a1848f-ac18-43e1-8b20-1c0f9d780370","system_id":"levelo_inurba_marseille","lat":43.30882,"lon":5.37193,"is_reserved":false,"is_disabled":false,"rental_uris":{"android":"levelo://app?vid=98a1848f-ac18-43e1-8b20-1c0f9d780370","ios":"levelo://app?vid=98a1848f-ac18-43e1-8b20-1c0f9d780370"},"vehicle_type_id":"4","last_reported":1738048198,"current_range_meters":38800,"station_id":"ce4bguh2rcd13ifvqckg","pricing_plan_id":"cebpf4jnsgd1na2vs0mg"},{"bike_id":"6e139ae9-11f6-42bd-90e6-e45fd1f43c84","system_id":"levelo_inurba_marseille","lat":43.27067,"lon":5.42278,"is_reserved":false,"is_disabled":false,"rental_uris":{"android":"levelo://app?vid=6e139ae9-11f6-42bd-90e6-e45fd1f43c84","ios":"levelo://app?vid=6e139ae9-11f6-42bd-90e6-e45fd1f43c84"},"vehicle_type_id":"4","last_reported":1738048198,"current_range_meters":36000,"station_id":"ce4bhk92rcd13ifvqgb0","pricing_plan_id":"cebpf4jnsgd1na2vs0mg"},{"bike_id":"7125fabb-d4fe-450e-b9a8-9b858c3dc86d","system_id":"levelo_inurba_marseille","lat":43.3244,"lon":5.36634,"is_reserved":false,"is_disabled":false,"rental_uris":{"android":"levelo://app?vid=7125fabb-d4fe-450e-b9a8-9b858c3dc86d","ios":"levelo://app?vid=7125fabb-d4fe-450e-b9a8-9b858c3dc86d"},"vehicle_type_id":"4","last_reported":1738048198,"current_range_meters":30000,"station_id":"","pricing_plan_id":"cebpf4jnsgd1na2vs0mg"},{"bike_id":"3ec52b4d-cf80-449d-bd30-9db7519a9ed7","system_id":"levelo_inurba_marseille","lat":43.270575,"lon":5.402613,"is_reserved":false,"is_disabled":false,"rental_uris":{"android":"levelo://app?vid=3ec52b4d-cf80-449d-bd30-9db7519a9ed7","ios":"levelo://app?vid=3ec52b4d-cf80-449d-bd30-9db7519a9ed7"},"vehicle_type_id":"4","last_reported":1738048198,"current_range_meters":8800,"station_id":"ce4bhk92rcd13ifvqgc0","pricing_plan_id":"cebpf4jnsgd1na2vs0mg"},{"bike_id":"da0eb52b-4d6e-4869-a01f-f547634f0eba","system_id":"levelo_inurba_marseille","lat":43.24074,"lon":5.37753,"is_reserved":false,"is_disabled":false,"rental_uris":{"android":"levelo://app?vid=da0eb52b-4d6e-4869-a01f-f547634f0eba","ios":"levelo://app?vid=da0eb52b-4d6e-4869-a01f-f547634f0eba"},"vehicle_type_id":"4","last_reported":1738048198,"current_range_meters":28400,"station_id":"ce4bhnp2rcd13ifvqgvg","pricing_plan_id":"cebpf4jnsgd1na2vs0mg"},{"bike_id":"11ccf0c7-a94e-439c-b126-7861ef5ab7ea","system_id":"levelo_inurba_marseille","lat":43.29265,"lon":5.38433,"is_reserved":false,"is_disabled":false,"rental_uris":{"android":"levelo://app?vid=11ccf0c7-a94e-439c-b126-7861ef5ab7ea","ios":"levelo://app?vid=11ccf0c7-a94e-439c-b126-7861ef5ab7ea"},"vehicle_type_id":"4","last_reported":1738048198,"current_range_meters":34800,"station_id":"ce4bh692rcd13ifvqea0","pricing_plan_id":"cebpf4jnsgd1na2vs0mg"},{"bike_id":"ae328ec3-88e1-4cf4-b7cb-126554e6a47b","system_id":"levelo_inurba_marseille","lat":43.31688,"lon":5.40468,"is_reserved":false,"is_disabled":false,"rental_uris":{"android":"levelo://app?vid=ae328ec3-88e1-4cf4-b7cb-126554e6a47b","ios":"levelo://app?vid=ae328ec3-88e1-4cf4-b7cb-126554e6a47b"},"vehicle_type_id":"4","last_reported":1738048198,"current_range_meters":37600,"station_id":"ce4bh012rcd13ifvqd00","pricing_plan_id":"cebpf4jnsgd1na2vs0mg"},{"bike_id":"9838cc78-2b53-49d3-ae13-82df62c4fd64","system_id":"levelo_inurba_marseille","lat":43.28412,"lon":5.40934,"is_reserved":false,"is_disabled":true,"rental_uris":{"android":"levelo://app?vid=9838cc78-2b53-49d3-ae13-82df62c4fd64","ios":"levelo://app?vid=9838cc78-2b53-49d3-ae13-82df62c4fd64"},"vehicle_type_id":"4","last_reported":1738048198,"current_range_meters":0,"station_id":"","pricing_plan_id":"cebpf4jnsgd1na2vs0mg"},{"bike_id":"8f2bb18f-82c5-4bbc-a242-78e009f466c2","system_id":"levelo_inurba_marseille","lat":43.28714,"lon":5.37933,"is_reserved":false,"is_disabled":false,"rental_uris":{"android":"levelo://app?vid=8f2bb18f-82c5-4bbc-a242-78e009f466c2","ios":"levelo://app?vid=8f2bb18f-82c5-4bbc-a242-78e009f466c2"},"vehicle_type_id":"4","last_reported":1738048198,"current_range_meters":28000,"station_id":"ce4bh9p2rcd13ifvqec0","pricing_plan_id":"cebpf4jnsgd1na2vs0mg"},{"bike_id":"f3a886a3-500d-4d32-a120-4a7101c0f911","system_id":"levelo_inurba_marseille","lat":43.26938,"lon":5.40265,"is_reserved":false,"is_disabled":false,"rental_uris":{"android":"levelo://app?vid=f3a886a3-500d-4d32-a120-4a7101c0f911","ios":"levelo://app?vid=f3a886a3-500d-4d32-a120-4a7101c0f911"},"vehicle_type_id":"4","last_reported":1738048198,"current_range_meters":38800,"station_id":"cjm6bp8fraef2m0cb0m0","pricing_plan_id":"cebpf4jnsgd1na2vs0mg"},{"bike_id":"b5d97ed0-9b6a-47d8-8cf1-528d4e8186e3","system_id":"levelo_inurba_marseille","lat":43.29551,"lon":5.42284,"is_reserved":false,"is_disabled":false,"rental_uris":{"android":"levelo://app?vid=b5d97ed0-9b6a-47d8-8cf1-528d4e8186e3","ios":"levelo://app?vid=b5d97ed0-9b6a-47d8-8cf1-528d4e8186e3"},"vehicle_type_id":"4","last_reported":1738048198,"current_range_meters":26000,"station_id":"ce4bhph2rcd13ifvqhdg","pricing_plan_id":"cebpf4jnsgd1na2vs0mg"},{"bike_id":"d9085ec6-e69e-4e53-b0b2-05d8432fb3f0","system_id":"levelo_inurba_marseille","lat":43.29437,"lon":5.39753,"is_reserved":false,"is_disabled":false,"rental_uris":{"android":"levelo://app?vid=d9085ec6-e69e-4e53-b0b2-05d8432fb3f0","ios":"levelo://app?vid=d9085ec6-e69e-4e53-b0b2-05d8432fb3f0"},"vehicle_type_id":"4","last_reported":1738048198,"current_range_meters":10000,"station_id":"ce4bh3h2rcd13ifvqdo0","pricing_plan_id":"cebpf4jnsgd1na2vs0mg"},{"bike_id":"3b5ee920-90bb-4d43-9a34-f39c89b875d2","system_id":"levelo_inurba_marseille","lat":43.28345,"lon":5.381,"is_reserved":false,"is_disabled":false,"rental_uris":{"android":"levelo://app?vid=3b5ee920-90bb-4d43-9a34-f39c89b875d2","ios":"levelo://app?vid=3b5ee920-90bb-4d43-9a34-f39c89b875d2"},"vehicle_type_id":"4","last_reported":1738048198,"current_range_meters":28800,"station_id":"ce4bh412rcd13ifvqdr0","pricing_plan_id":"cebpf4jnsgd1na2vs0mg"},{"bike_id":"8c72d46f-fddb-4f77-acf1-419231691315","system_id":"levelo_inurba_marseille","lat":43.29188,"lon":5.39323,"is_reserved":false,"is_disabled":false,"rental_uris":{"android":"levelo://app?vid=8c72d46f-fddb-4f77-acf1-419231691315","ios":"levelo://app?vid=8c72d46f-fddb-4f77-acf1-419231691315"},"vehicle_type_id":"4","last_reported":1738048198,"current_range_meters":27600,"station_id":"ce4bh192rcd13ifvqdd0","pricing_plan_id":"cebpf4jnsgd1na2vs0mg"},{"bike_id":"8c6478bf-a68b-4f59-8f60-278c687f9aff","system_id":"levelo_inurba_marseille","lat":43.305315,"lon":5.36709,"is_reserved":false,"is_disabled":false,"rental_uris":{"android":"levelo://app?vid=8c6478bf-a68b-4f59-8f60-278c687f9aff","ios":"levelo://app?vid=8c6478bf-a68b-4f59-8f60-278c687f9aff"},"vehicle_type_id":"4","last_reported":1738048198,"current_range_meters":35200,"station_id":"ce4bgrp2rcd13ifvqc9g","pricing_plan_id":"cebpf4jnsgd1na2vs0mg"},{"bike_id":"128c4ccc-6acf-4c66-b6c9-06bfd01e54b2","system_id":"levelo_inurba_marseille","lat":43.3092,"lon":5.36825,"is_reserved":false,"is_disabled":false,"rental_uris":{"android":"levelo://app?vid=128c4ccc-6acf-4c66-b6c9-06bfd01e54b2","ios":"levelo://app?vid=128c4ccc-6acf-4c66-b6c9-06bfd01e54b2"},"vehicle_type_id":"4","last_reported":1738048198,"current_range_meters":35600,"station_id":"ce4bgn92rcd13ifvqbvg","pricing_plan_id":"cebpf4jnsgd1na2vs0mg"},{"bike_id":"99fb79a9-b1e1-48a8-bfe5-3349ad398811","system_id":"levelo_inurba_marseille","lat":43.29582,"lon":5.37515,"is_reserved":false,"is_disabled":false,"rental_uris":{"android":"levelo://app?vid=99fb79a9-b1e1-48a8-bfe5-3349ad398811","ios":"levelo://app?vid=99fb79a9-b1e1-48a8-bfe5-3349ad398811"},"vehicle_type_id":"4","last_reported":1738048198,"current_range_meters":23200,"station_id":"ce4bgh92rcd13ifvqb50","pricing_plan_id":"cebpf4jnsgd1na2vs0mg"},{"bike_id":"4e5bc90a-2973-4125-8399-ba9ae9a7ee72","system_id":"levelo_inurba_marseille","lat":43.2695,"lon":5.3863,"is_reserved":false,"is_disabled":false,"rental_uris":{"android":"levelo://app?vid=4e5bc90a-2973-4125-8399-ba9ae9a7ee72","ios":"levelo://app?vid=4e5bc90a-2973-4125-8399-ba9ae9a7ee72"},"vehicle_type_id":"4","last_reported":1738048198,"current_range_meters":39200,"station_id":"ce4bhh92rcd13ifvqfh0","pricing_plan_id":"cebpf4jnsgd1na2vs0mg"},{"bike_id":"7bac2d4a-c4f9-4029-aa21-e8c1da9ea4fb","system_id":"levelo_inurba_marseille","lat":43.27936,"lon":5.41028,"is_reserved":false,"is_disabled":false,"rental_uris":{"android":"levelo://app?vid=7bac2d4a-c4f9-4029-aa21-e8c1da9ea4fb","ios":"levelo://app?vid=7bac2d4a-c4f9-4029-aa21-e8c1da9ea4fb"},"vehicle_type_id":"4","last_reported":1738048198,"current_range_meters":30000,"station_id":"ce4bhnp2rcd13ifvqh0g","pricing_plan_id":"cebpf4jnsgd1na2vs0mg"},{"bike_id":"2e0a8b86-b457-48a0-8577-213b01080398","system_id":"levelo_inurba_marseille","lat":43.23202,"lon":5.35545,"is_reserved":false,"is_disabled":false,"rental_uris":{"android":"levelo://app?vid=2e0a8b86-b457-48a0-8577-213b01080398","ios":"levelo://app?vid=2e0a8b86-b457-48a0-8577-213b01080398"},"vehicle_type_id":"4","last_reported":1738048198,"current_range_meters":38800,"station_id":"ce4bhu92rcd13ifvqi70","pricing_plan_id":"cebpf4jnsgd1na2vs0mg"},{"bike_id":"de1fc9e1-ac80-4d48-bbfb-bd031efff56d","system_id":"levelo_inurba_marseille","lat":43.29902,"lon":5.39731,"is_reserved":false,"is_disabled":false,"rental_uris":{"android":"levelo://app?vid=de1fc9e1-ac80-4d48-bbfb-bd031efff56d","ios":"levelo://app?vid=de1fc9e1-ac80-4d48-bbfb-bd031efff56d"},"vehicle_type_id":"4","last_reported":1738048198,"current_range_meters":38000,"station_id":"ce4bh0h2rcd13ifvqd50","pricing_plan_id":"cebpf4jnsgd1na2vs0mg"},{"bike_id":"eefc26b4-ceeb-447b-96e9-86927bc262df","system_id":"levelo_inurba_marseille","lat":43.27901,"lon":5.38,"is_reserved":false,"is_disabled":false,"rental_uris":{"android":"levelo://app?vid=eefc26b4-ceeb-447b-96e9-86927bc262df","ios":"levelo://app?vid=eefc26b4-ceeb-447b-96e9-86927bc262df"},"vehicle_type_id":"4","last_reported":1738048198,"current_range_meters":38800,"station_id":"ce4bhf92rcd13ifvqf50","pricing_plan_id":"cebpf4jnsgd1na2vs0mg"},{"bike_id":"d979d8d2-ec65-47af-9229-e4270aab279a","system_id":"levelo_inurba_marseille","lat":43.23076,"lon":5.35502,"is_reserved":false,"is_disabled":false,"rental_uris":{"android":"levelo://app?vid=d979d8d2-ec65-47af-9229-e4270aab279a","ios":"levelo://app?vid=d979d8d2-ec65-47af-9229-e4270aab279a"},"vehicle_type_id":"4","last_reported":1738048198,"current_range_meters":25200,"station_id":"cpo3342slgdg3j2ifvpg","pricing_plan_id":"cebpf4jnsgd1na2vs0mg"},{"bike_id":"beec82ff-6bac-4064-befa-4bdf4421761b","system_id":"levelo_inurba_marseille","lat":43.31728,"lon":5.42378,"is_reserved":false,"is_disabled":false,"rental_uris":{"android":"levelo://app?vid=beec82ff-6bac-4064-befa-4bdf4421761b","ios":"levelo://app?vid=beec82ff-6bac-4064-befa-4bdf4421761b"},"vehicle_type_id":"4","last_reported":1738048198,"current_range_meters":8400,"station_id":"ce4bhp92rcd13ifvqhbg","pricing_plan_id":"cebpf4jnsgd1na2vs0mg"},{"bike_id":"fcd87167-ca69-4acc-9014-02c3d57a54f0","system_id":"levelo_inurba_marseille","lat":43.32526,"lon":5.41467,"is_reserved":false,"is_disabled":false,"rental_uris":{"android":"levelo://app?vid=fcd87167-ca69-4acc-9014-02c3d57a54f0","ios":"levelo://app?vid=fcd87167-ca69-4acc-9014-02c3d57a54f0"},"vehicle_type_id":"4","last_reported":1738048198,"current_range_meters":38800,"station_id":"ce4bhq12rcd13ifvqhhg","pricing_plan_id":"cebpf4jnsgd1na2vs0mg"},{"bike_id":"fbcbe561-42ea-4392-b526-7cee405154b8","system_id":"levelo_inurba_marseille","lat":43.29598,"lon":5.38096,"is_reserved":false,"is_disabled":false,"rental_uris":{"android":"levelo://app?vid=fbcbe561-42ea-4392-b526-7cee405154b8","ios":"levelo://app?vid=fbcbe561-42ea-4392-b526-7cee405154b8"},"vehicle_type_id":"4","last_reported":1738048198,"current_range_meters":9600,"station_id":"ce4bgl12rcd13ifvqbo0","pricing_plan_id":"cebpf4jnsgd1na2vs0mg"},{"bike_id":"04b46ac9-9142-4711-ad13-6604d62d72a6","system_id":"levelo_inurba_marseille","lat":43.29792,"lon":5.38104,"is_reserved":false,"is_disabled":false,"rental_uris":{"android":"levelo://app?vid=04b46ac9-9142-4711-ad13-6604d62d72a6","ios":"levelo://app?vid=04b46ac9-9142-4711-ad13-6604d62d72a6"},"vehicle_type_id":"4","last_reported":1738048198,"current_range_meters":14800,"station_id":"ce4bgip2rcd13ifvqbb0","pricing_plan_id":"cebpf4jnsgd1na2vs0mg"},{"bike_id":"ae00de2f-f31f-40c5-afd5-77a43823ef3d","system_id":"levelo_inurba_marseille","lat":43.3302,"lon":5.39051,"is_reserved":false,"is_disabled":false,"rental_uris":{"android":"levelo://app?vid=ae00de2f-f31f-40c5-afd5-77a43823ef3d","ios":"levelo://app?vid=ae00de2f-f31f-40c5-afd5-77a43823ef3d"},"vehicle_type_id":"4","last_reported":1738048198,"current_range_meters":38800,"station_id":"ce4bhr92rcd13ifvqhrg","pricing_plan_id":"cebpf4jnsgd1na2vs0mg"},{"bike_id":"e0332032-982e-45ef-b730-bdfaebb60761","system_id":"levelo_inurba_marseille","lat":43.30146,"lon":5.38087,"is_reserved":false,"is_disabled":false,"rental_uris":{"android":"levelo://app?vid=e0332032-982e-45ef-b730-bdfaebb60761","ios":"levelo://app?vid=e0332032-982e-45ef-b730-bdfaebb60761"},"vehicle_type_id":"4","last_reported":1738048198,"current_range_meters":34000,"station_id":"ce4bgjp2rcd13ifvqbh0","pricing_plan_id":"cebpf4jnsgd1na2vs0mg"},{"bike_id":"60881969-2b21-4328-b823-e3e5062d06ef","system_id":"levelo_inurba_marseille","lat":43.27488,"lon":5.42454,"is_reserved":false,"is_disabled":false,"rental_uris":{"android":"levelo://app?vid=60881969-2b21-4328-b823-e3e5062d06ef","ios":"levelo://app?vid=60881969-2b21-4328-b823-e3e5062d06ef"},"vehicle_type_id":"4","last_reported":1738048198,"current_range_meters":7200,"station_id":"ce4bhn92rcd13ifvqgrg","pricing_plan_id":"cebpf4jnsgd1na2vs0mg"},{"bike_id":"dea0ba0e-71bb-455f-b78b-38b3051f1b7c","system_id":"levelo_inurba_marseille","lat":43.30248,"lon":5.40056,"is_reserved":false,"is_disabled":false,"rental_uris":{"android":"levelo://app?vid=dea0ba0e-71bb-455f-b78b-38b3051f1b7c","ios":"levelo://app?vid=dea0ba0e-71bb-455f-b78b-38b3051f1b7c"},"vehicle_type_id":"4","last_reported":1738048198,"current_range_meters":34800,"station_id":"ce4bgvh2rcd13ifvqcs0","pricing_plan_id":"cebpf4jnsgd1na2vs0mg"},{"bike_id":"75214a19-3086-4aab-8ba6-a177978da634","system_id":"levelo_inurba_marseille","lat":43.29899,"lon":5.436595,"is_reserved":false,"is_disabled":false,"rental_uris":{"android":"levelo://app?vid=75214a19-3086-4aab-8ba6-a177978da634","ios":"levelo://app?vid=75214a19-3086-4aab-8ba6-a177978da634"},"vehicle_type_id":"4","last_reported":1738048198,"current_range_meters":36800,"station_id":"ce4bhpp2rcd13ifvqhfg","pricing_plan_id":"cebpf4jnsgd1na2vs0mg"},{"bike_id":"30bbb00e-1612-4a25-b2e9-c8ad656fb58a","system_id":"levelo_inurba_marseille","lat":43.33713,"lon":5.39204,"is_reserved":false,"is_disabled":false,"rental_uris":{"android":"levelo://app?vid=30bbb00e-1612-4a25-b2e9-c8ad656fb58a","ios":"levelo://app?vid=30bbb00e-1612-4a25-b2e9-c8ad656fb58a"},"vehicle_type_id":"4","last_reported":1738048198,"current_range_meters":38800,"station_id":"ce4bhr92rcd13ifvqhsg","pricing_plan_id":"cebpf4jnsgd1na2vs0mg"},{"bike_id":"cdba9093-1e92-471c-a6ea-8ba6d1c21ef6","system_id":"levelo_inurba_marseille","lat":43.30438,"lon":5.38896,"is_reserved":false,"is_disabled":true,"rental_uris":{"android":"levelo://app?vid=cdba9093-1e92-471c-a6ea-8ba6d1c21ef6","ios":"levelo://app?vid=cdba9093-1e92-471c-a6ea-8ba6d1c21ef6"},"vehicle_type_id":"4","last_reported":1738048198,"current_range_meters":34800,"station_id":"ce4bgk12rcd13ifvqbi0","pricing_plan_id":"cebpf4jnsgd1na2vs0mg"},{"bike_id":"911a9686-a84c-48d0-8f81-51ea016cf4c6","system_id":"levelo_inurba_marseille","lat":43.30468,"lon":5.37896,"is_reserved":false,"is_disabled":false,"rental_uris":{"android":"levelo://app?vid=911a9686-a84c-48d0-8f81-51ea016cf4c6","ios":"levelo://app?vid=911a9686-a84c-48d0-8f81-51ea016cf4c6"},"vehicle_type_id":"4","last_reported":1738048198,"current_range_meters":38800,"station_id":"ce4bgup2rcd13ifvqcn0","pricing_plan_id":"cebpf4jnsgd1na2vs0mg"},{"bike_id":"489f6534-c1d5-483f-a648-2a087319e607","system_id":"levelo_inurba_marseille","lat":43.32978,"lon":5.39043,"is_reserved":false,"is_disabled":false,"rental_uris":{"android":"levelo://app?vid=489f6534-c1d5-483f-a648-2a087319e607","ios":"levelo://app?vid=489f6534-c1d5-483f-a648-2a087319e607"},"vehicle_type_id":"4","last_reported":1738048198,"current_range_meters":37600,"station_id":"ce4bhr92rcd13ifvqhrg","pricing_plan_id":"cebpf4jnsgd1na2vs0mg"},{"bike_id":"e3766250-3fc1-46f3-9e08-56ff522aec0d","system_id":"levelo_inurba_marseille","lat":43.2903,"lon":5.38635,"is_reserved":false,"is_disabled":false,"rental_uris":{"android":"levelo://app?vid=e3766250-3fc1-46f3-9e08-56ff522aec0d","ios":"levelo://app?vid=e3766250-3fc1-46f3-9e08-56ff522aec0d"},"vehicle_type_id":"4","last_reported":1738048198,"current_range_meters":37600,"station_id":"ce4bh4p2rcd13ifvqe0g","pricing_plan_id":"cebpf4jnsgd1na2vs0mg"},{"bike_id":"580828f0-3b12-422d-95d2-0d346530f1dd","system_id":"levelo_inurba_marseille","lat":43.25072,"lon":5.3957,"is_reserved":false,"is_disabled":false,"rental_uris":{"android":"levelo://app?vid=580828f0-3b12-422d-95d2-0d346530f1dd","ios":"levelo://app?vid=580828f0-3b12-422d-95d2-0d346530f1dd"},"vehicle_type_id":"4","last_reported":1738048198,"current_range_meters":20000,"station_id":"ce4bhm12rcd13ifvqgkg","pricing_plan_id":"cebpf4jnsgd1na2vs0mg"},{"bike_id":"1c11a251-cd73-4f08-868f-b1cd32c09816","system_id":"levelo_inurba_marseille","lat":43.26941,"lon":5.38644,"is_reserved":false,"is_disabled":false,"rental_uris":{"android":"levelo://app?vid=1c11a251-cd73-4f08-868f-b1cd32c09816","ios":"levelo://app?vid=1c11a251-cd73-4f08-868f-b1cd32c09816"},"vehicle_type_id":"4","last_reported":1738048198,"current_range_meters":34000,"station_id":"ce4bhh92rcd13ifvqfh0","pricing_plan_id":"cebpf4jnsgd1na2vs0mg"},{"bike_id":"1b6d1f5b-b5e8-43dd-b451-e58d9fbc5288","system_id":"levelo_inurba_marseille","lat":43.30912,"lon":5.36804,"is_reserved":false,"is_disabled":false,"rental_uris":{"android":"levelo://app?vid=1b6d1f5b-b5e8-43dd-b451-e58d9fbc5288","ios":"levelo://app?vid=1b6d1f5b-b5e8-43dd-b451-e58d9fbc5288"},"vehicle_type_id":"4","last_reported":1738048198,"current_range_meters":14800,"station_id":"ce4bgn92rcd13ifvqbvg","pricing_plan_id":"cebpf4jnsgd1na2vs0mg"},{"bike_id":"ae94094c-8da6-4fa5-9601-26864a6545ca","system_id":"levelo_inurba_marseille","lat":43.29848,"lon":5.36275,"is_reserved":false,"is_disabled":true,"rental_uris":{"android":"levelo://app?vid=ae94094c-8da6-4fa5-9601-26864a6545ca","ios":"levelo://app?vid=ae94094c-8da6-4fa5-9601-26864a6545ca"},"vehicle_type_id":"4","last_reported":1738048198,"current_range_meters":2000,"station_id":"ce4bgpp2rcd13ifvqc3g","pricing_plan_id":"cebpf4jnsgd1na2vs0mg"},{"bike_id":"3c9c9088-9c27-4609-bc62-8218c0dc2be8","system_id":"levelo_inurba_marseille","lat":43.23206,"lon":5.35515,"is_reserved":false,"is_disabled":false,"rental_uris":{"android":"levelo://app?vid=3c9c9088-9c27-4609-bc62-8218c0dc2be8","ios":"levelo://app?vid=3c9c9088-9c27-4609-bc62-8218c0dc2be8"},"vehicle_type_id":"4","last_reported":1738048198,"current_range_meters":34000,"station_id":"ce4bhu92rcd13ifvqi70","pricing_plan_id":"cebpf4jnsgd1na2vs0mg"},{"bike_id":"802ba57e-b132-41ce-a88a-44790a953939","system_id":"levelo_inurba_marseille","lat":43.284055,"lon":5.375093,"is_reserved":false,"is_disabled":false,"rental_uris":{"android":"levelo://app?vid=802ba57e-b132-41ce-a88a-44790a953939","ios":"levelo://app?vid=802ba57e-b132-41ce-a88a-44790a953939"},"vehicle_type_id":"4","last_reported":1738048198,"current_range_meters":18800,"station_id":"ce4bh412rcd13ifvqds0","pricing_plan_id":"cebpf4jnsgd1na2vs0mg"},{"bike_id":"b8566160-b40d-424f-8019-32d28a0dd9c6","system_id":"levelo_inurba_marseille","lat":43.2903,"lon":5.39967,"is_reserved":false,"is_disabled":false,"rental_uris":{"android":"levelo://app?vid=b8566160-b40d-424f-8019-32d28a0dd9c6","ios":"levelo://app?vid=b8566160-b40d-424f-8019-32d28a0dd9c6"},"vehicle_type_id":"4","last_reported":1738048198,"current_range_meters":28400,"station_id":"ce4bh392rcd13ifvqdm0","pricing_plan_id":"cebpf4jnsgd1na2vs0mg"},{"bike_id":"a4ebca99-a7a3-497b-b464-c384db188e87","system_id":"levelo_inurba_marseille","lat":43.27983,"lon":5.40027,"is_reserved":false,"is_disabled":false,"rental_uris":{"android":"levelo://app?vid=a4ebca99-a7a3-497b-b464-c384db188e87","ios":"levelo://app?vid=a4ebca99-a7a3-497b-b464-c384db188e87"},"vehicle_type_id":"4","last_reported":1738048198,"current_range_meters":16400,"station_id":"ce4bho92rcd13ifvqh4g","pricing_plan_id":"cebpf4jnsgd1na2vs0mg"},{"bike_id":"8bf04d12-6bb8-4e9f-b692-41999ad1a095","system_id":"levelo_inurba_marseille","lat":43.30597,"lon":5.39365,"is_reserved":false,"is_disabled":true,"rental_uris":{"android":"levelo://app?vid=8bf04d12-6bb8-4e9f-b692-41999ad1a095","ios":"levelo://app?vid=8bf04d12-6bb8-4e9f-b692-41999ad1a095"},"vehicle_type_id":"4","last_reported":1738048198,"current_range_meters":800,"station_id":"ce4bh0p2rcd13ifvqd80","pricing_plan_id":"cebpf4jnsgd1na2vs0mg"},{"bike_id":"22a59781-1e59-4d60-a925-4551dc6189c8","system_id":"levelo_inurba_marseille","lat":43.30158,"lon":5.38078,"is_reserved":false,"is_disabled":false,"rental_uris":{"android":"levelo://app?vid=22a59781-1e59-4d60-a925-4551dc6189c8","ios":"levelo://app?vid=22a59781-1e59-4d60-a925-4551dc6189c8"},"vehicle_type_id":"4","last_reported":1738048198,"current_range_meters":36800,"station_id":"ce4bgjp2rcd13ifvqbh0","pricing_plan_id":"cebpf4jnsgd1na2vs0mg"},{"bike_id":"25246fbb-1c92-40ce-bb89-4b4ebe21bfad","system_id":"levelo_inurba_marseille","lat":43.28937,"lon":5.36379,"is_reserved":false,"is_disabled":false,"rental_uris":{"android":"levelo://app?vid=25246fbb-1c92-40ce-bb89-4b4ebe21bfad","ios":"levelo://app?vid=25246fbb-1c92-40ce-bb89-4b4ebe21bfad"},"vehicle_type_id":"4","last_reported":1738048198,"current_range_meters":13600,"station_id":"ce4bhc92rcd13ifvqetg","pricing_plan_id":"cebpf4jnsgd1na2vs0mg"},{"bike_id":"a0994a02-8889-4967-9cc2-4e2174b8d66a","system_id":"levelo_inurba_marseille","lat":43.29194,"lon":5.35798,"is_reserved":false,"is_disabled":false,"rental_uris":{"android":"levelo://app?vid=a0994a02-8889-4967-9cc2-4e2174b8d66a","ios":"levelo://app?vid=a0994a02-8889-4967-9cc2-4e2174b8d66a"},"vehicle_type_id":"4","last_reported":1738048198,"current_range_meters":38800,"station_id":"ce4bhb12rcd13ifvqel0","pricing_plan_id":"cebpf4jnsgd1na2vs0mg"},{"bike_id":"df1440ab-6c98-4811-96ed-60cc1ae214b5","system_id":"levelo_inurba_marseille","lat":43.24071,"lon":5.37755,"is_reserved":false,"is_disabled":false,"rental_uris":{"android":"levelo://app?vid=df1440ab-6c98-4811-96ed-60cc1ae214b5","ios":"levelo://app?vid=df1440ab-6c98-4811-96ed-60cc1ae214b5"},"vehicle_type_id":"4","last_reported":1738048198,"current_range_meters":38800,"station_id":"ce4bhnp2rcd13ifvqgvg","pricing_plan_id":"cebpf4jnsgd1na2vs0mg"},{"bike_id":"1c581695-a09f-4d6a-8281-14f18a045579","system_id":"levelo_inurba_marseille","lat":43.28838,"lon":5.35855,"is_reserved":false,"is_disabled":false,"rental_uris":{"android":"levelo://app?vid=1c581695-a09f-4d6a-8281-14f18a045579","ios":"levelo://app?vid=1c581695-a09f-4d6a-8281-14f18a045579"},"vehicle_type_id":"4","last_reported":1738048198,"current_range_meters":8000,"station_id":"ce4bhb12rcd13ifvqem0","pricing_plan_id":"cebpf4jnsgd1na2vs0mg"},{"bike_id":"b58e9c2c-f4fa-4e4d-a3e6-d964f639b0fc","system_id":"levelo_inurba_marseille","lat":43.31356,"lon":5.367112,"is_reserved":false,"is_disabled":false,"rental_uris":{"android":"levelo://app?vid=b58e9c2c-f4fa-4e4d-a3e6-d964f639b0fc","ios":"levelo://app?vid=b58e9c2c-f4fa-4e4d-a3e6-d964f639b0fc"},"vehicle_type_id":"4","last_reported":1738048198,"current_range_meters":39200,"station_id":"ce4bgr92rcd13ifvqc6g","pricing_plan_id":"cebpf4jnsgd1na2vs0mg"},{"bike_id":"8707dca8-5fb6-4e35-a1ec-1f30a01fea05","system_id":"levelo_inurba_marseille","lat":43.29555,"lon":5.42275,"is_reserved":false,"is_disabled":false,"rental_uris":{"android":"levelo://app?vid=8707dca8-5fb6-4e35-a1ec-1f30a01fea05","ios":"levelo://app?vid=8707dca8-5fb6-4e35-a1ec-1f30a01fea05"},"vehicle_type_id":"4","last_reported":1738048198,"current_range_meters":37600,"station_id":"ce4bhph2rcd13ifvqhdg","pricing_plan_id":"cebpf4jnsgd1na2vs0mg"},{"bike_id":"6bb2a1ca-f33d-41d2-bcdf-1120594b0ad6","system_id":"levelo_inurba_marseille","lat":43.30596,"lon":5.39352,"is_reserved":false,"is_disabled":false,"rental_uris":{"android":"levelo://app?vid=6bb2a1ca-f33d-41d2-bcdf-1120594b0ad6","ios":"levelo://app?vid=6bb2a1ca-f33d-41d2-bcdf-1120594b0ad6"},"vehicle_type_id":"4","last_reported":1738048198,"current_range_meters":23200,"station_id":"ce4bh0p2rcd13ifvqd80","pricing_plan_id":"cebpf4jnsgd1na2vs0mg"},{"bike_id":"f49a8797-6197-4b09-b544-c2f42b6a7f2d","system_id":"levelo_inurba_marseille","lat":43.26944,"lon":5.3863,"is_reserved":false,"is_disabled":false,"rental_uris":{"android":"levelo://app?vid=f49a8797-6197-4b09-b544-c2f42b6a7f2d","ios":"levelo://app?vid=f49a8797-6197-4b09-b544-c2f42b6a7f2d"},"vehicle_type_id":"4","last_reported":1738048198,"current_range_meters":34000,"station_id":"ce4bhh92rcd13ifvqfh0","pricing_plan_id":"cebpf4jnsgd1na2vs0mg"},{"bike_id":"bd0a4b3a-0002-476a-9750-d6e2675c7bd4","system_id":"levelo_inurba_marseille","lat":43.29198,"lon":5.35788,"is_reserved":false,"is_disabled":false,"rental_uris":{"android":"levelo://app?vid=bd0a4b3a-0002-476a-9750-d6e2675c7bd4","ios":"levelo://app?vid=bd0a4b3a-0002-476a-9750-d6e2675c7bd4"},"vehicle_type_id":"4","last_reported":1738048198,"current_range_meters":38000,"station_id":"ce4bhb12rcd13ifvqel0","pricing_plan_id":"cebpf4jnsgd1na2vs0mg"},{"bike_id":"4ab1c826-01de-4db1-bc4a-2fac2dfbb3c6","system_id":"levelo_inurba_marseille","lat":43.27993,"lon":5.40013,"is_reserved":false,"is_disabled":false,"rental_uris":{"android":"levelo://app?vid=4ab1c826-01de-4db1-bc4a-2fac2dfbb3c6","ios":"levelo://app?vid=4ab1c826-01de-4db1-bc4a-2fac2dfbb3c6"},"vehicle_type_id":"4","last_reported":1738048198,"current_range_meters":38000,"station_id":"ce4bho92rcd13ifvqh4g","pricing_plan_id":"cebpf4jnsgd1na2vs0mg"},{"bike_id":"a08c9591-e480-4e49-8105-a1f71ed8a08f","system_id":"levelo_inurba_marseille","lat":43.28451,"lon":5.39167,"is_reserved":false,"is_disabled":false,"rental_uris":{"android":"levelo://app?vid=a08c9591-e480-4e49-8105-a1f71ed8a08f","ios":"levelo://app?vid=a08c9591-e480-4e49-8105-a1f71ed8a08f"},"vehicle_type_id":"4","last_reported":1738048198,"current_range_meters":36400,"station_id":"ce4bhoh2rcd13ifvqh5g","pricing_plan_id":"cebpf4jnsgd1na2vs0mg"},{"bike_id":"2256710f-428a-4b6c-afaf-f485da875c48","system_id":"levelo_inurba_marseille","lat":43.28617,"lon":5.35146,"is_reserved":false,"is_disabled":false,"rental_uris":{"android":"levelo://app?vid=2256710f-428a-4b6c-afaf-f485da875c48","ios":"levelo://app?vid=2256710f-428a-4b6c-afaf-f485da875c48"},"vehicle_type_id":"4","last_reported":1738048198,"current_range_meters":16400,"station_id":"ce4bhch2rcd13ifvqeug","pricing_plan_id":"cebpf4jnsgd1na2vs0mg"},{"bike_id":"ab2c796a-c23b-4a3a-9534-777b873d6a05","system_id":"levelo_inurba_marseille","lat":43.24169,"lon":5.36396,"is_reserved":false,"is_disabled":false,"rental_uris":{"android":"levelo://app?vid=ab2c796a-c23b-4a3a-9534-777b873d6a05","ios":"levelo://app?vid=ab2c796a-c23b-4a3a-9534-777b873d6a05"},"vehicle_type_id":"4","last_reported":1738048198,"current_range_meters":22400,"station_id":"cpo36qri1sfpv3e86is0","pricing_plan_id":"cebpf4jnsgd1na2vs0mg"},{"bike_id":"b97e5ebe-a5da-4b6a-bcab-1feef830a30a","system_id":"levelo_inurba_marseille","lat":43.28717,"lon":5.36078,"is_reserved":false,"is_disabled":false,"rental_uris":{"android":"levelo://app?vid=b97e5ebe-a5da-4b6a-bcab-1feef830a30a","ios":"levelo://app?vid=b97e5ebe-a5da-4b6a-bcab-1feef830a30a"},"vehicle_type_id":"4","last_reported":1738048198,"current_range_meters":37600,"station_id":"cki0cbj6b192h4jlfktg","pricing_plan_id":"cebpf4jnsgd1na2vs0mg"},{"bike_id":"47ca1ed0-ef62-4af3-9e98-affec9af63de","system_id":"levelo_inurba_marseille","lat":43.26953,"lon":5.38628,"is_reserved":false,"is_disabled":false,"rental_uris":{"android":"levelo://app?vid=47ca1ed0-ef62-4af3-9e98-affec9af63de","ios":"levelo://app?vid=47ca1ed0-ef62-4af3-9e98-affec9af63de"},"vehicle_type_id":"4","last_reported":1738048198,"current_range_meters":21600,"station_id":"ce4bhh92rcd13ifvqfh0","pricing_plan_id":"cebpf4jnsgd1na2vs0mg"},{"bike_id":"d18065cf-f041-4429-a46a-34b115d4b496","system_id":"levelo_inurba_marseille","lat":43.29589,"lon":5.38084,"is_reserved":false,"is_disabled":false,"rental_uris":{"android":"levelo://app?vid=d18065cf-f041-4429-a46a-34b115d4b496","ios":"levelo://app?vid=d18065cf-f041-4429-a46a-34b115d4b496"},"vehicle_type_id":"4","last_reported":1738048198,"current_range_meters":34800,"station_id":"ce4bgl12rcd13ifvqbo0","pricing_plan_id":"cebpf4jnsgd1na2vs0mg"},{"bike_id":"529f1ab7-390e-41c3-9180-30692697770e","system_id":"levelo_inurba_marseille","lat":43.28622,"lon":5.35065,"is_reserved":false,"is_disabled":false,"rental_uris":{"android":"levelo://app?vid=529f1ab7-390e-41c3-9180-30692697770e","ios":"levelo://app?vid=529f1ab7-390e-41c3-9180-30692697770e"},"vehicle_type_id":"4","last_reported":1738048198,"current_range_meters":15200,"station_id":"ce4bhch2rcd13ifvqeug","pricing_plan_id":"cebpf4jnsgd1na2vs0mg"},{"bike_id":"c4dd3599-c0b7-4c23-bd78-50f26495617f","system_id":"levelo_inurba_marseille","lat":43.30458,"lon":5.37899,"is_reserved":false,"is_disabled":false,"rental_uris":{"android":"levelo://app?vid=c4dd3599-c0b7-4c23-bd78-50f26495617f","ios":"levelo://app?vid=c4dd3599-c0b7-4c23-bd78-50f26495617f"},"vehicle_type_id":"4","last_reported":1738048198,"current_range_meters":30800,"station_id":"ce4bgup2rcd13ifvqcn0","pricing_plan_id":"cebpf4jnsgd1na2vs0mg"},{"bike_id":"252712f4-19e9-4270-aeaa-086f74f4c9d1","system_id":"levelo_inurba_marseille","lat":43.27621,"lon":5.36119,"is_reserved":false,"is_disabled":false,"rental_uris":{"android":"levelo://app?vid=252712f4-19e9-4270-aeaa-086f74f4c9d1","ios":"levelo://app?vid=252712f4-19e9-4270-aeaa-086f74f4c9d1"},"vehicle_type_id":"4","last_reported":1738048198,"current_range_meters":39200,"station_id":"ce4bgj92rcd13ifvqbe0","pricing_plan_id":"cebpf4jnsgd1na2vs0mg"},{"bike_id":"9acd2f02-5b12-41c0-83bb-6cb8fe3e7a11","system_id":"levelo_inurba_marseille","lat":43.28699,"lon":5.39987,"is_reserved":false,"is_disabled":false,"rental_uris":{"android":"levelo://app?vid=9acd2f02-5b12-41c0-83bb-6cb8fe3e7a11","ios":"levelo://app?vid=9acd2f02-5b12-41c0-83bb-6cb8fe3e7a11"},"vehicle_type_id":"4","last_reported":1738048198,"current_range_meters":28800,"station_id":"ce4bho92rcd13ifvqh3g","pricing_plan_id":"cebpf4jnsgd1na2vs0mg"},{"bike_id":"fc054e76-4fed-4afa-9643-6a2c6f4369aa","system_id":"levelo_inurba_marseille","lat":43.28471,"lon":5.38408,"is_reserved":false,"is_disabled":false,"rental_uris":{"android":"levelo://app?vid=fc054e76-4fed-4afa-9643-6a2c6f4369aa","ios":"levelo://app?vid=fc054e76-4fed-4afa-9643-6a2c6f4369aa"},"vehicle_type_id":"4","last_reported":1738048198,"current_range_meters":33200,"station_id":"ce4bh512rcd13ifvqe3g","pricing_plan_id":"cebpf4jnsgd1na2vs0mg"},{"bike_id":"6b544164-ad64-4907-9140-df7ab85fac74","system_id":"levelo_inurba_marseille","lat":43.32343,"lon":5.36765,"is_reserved":false,"is_disabled":false,"rental_uris":{"android":"levelo://app?vid=6b544164-ad64-4907-9140-df7ab85fac74","ios":"levelo://app?vid=6b544164-ad64-4907-9140-df7ab85fac74"},"vehicle_type_id":"4","last_reported":1738048198,"current_range_meters":25600,"station_id":"ce4bhsh2rcd13ifvqi2g","pricing_plan_id":"cebpf4jnsgd1na2vs0mg"},{"bike_id":"ce200621-4a37-4224-9cd0-032fa0353241","system_id":"levelo_inurba_marseille","lat":43.30466,"lon":5.37884,"is_reserved":false,"is_disabled":false,"rental_uris":{"android":"levelo://app?vid=ce200621-4a37-4224-9cd0-032fa0353241","ios":"levelo://app?vid=ce200621-4a37-4224-9cd0-032fa0353241"},"vehicle_type_id":"4","last_reported":1738048198,"current_range_meters":33200,"station_id":"ce4bgup2rcd13ifvqcn0","pricing_plan_id":"cebpf4jnsgd1na2vs0mg"},{"bike_id":"47b92cff-e7d1-4a72-baa9-7afb9bb11f67","system_id":"levelo_inurba_marseille","lat":43.2959,"lon":5.38091,"is_reserved":false,"is_disabled":false,"rental_uris":{"android":"levelo://app?vid=47b92cff-e7d1-4a72-baa9-7afb9bb11f67","ios":"levelo://app?vid=47b92cff-e7d1-4a72-baa9-7afb9bb11f67"},"vehicle_type_id":"4","last_reported":1738048198,"current_range_meters":30000,"station_id":"ce4bgl12rcd13ifvqbo0","pricing_plan_id":"cebpf4jnsgd1na2vs0mg"},{"bike_id":"f8078a53-b959-477a-95b1-ab20955ef315","system_id":"levelo_inurba_marseille","lat":43.28971,"lon":5.37836,"is_reserved":false,"is_disabled":false,"rental_uris":{"android":"levelo://app?vid=f8078a53-b959-477a-95b1-ab20955ef315","ios":"levelo://app?vid=f8078a53-b959-477a-95b1-ab20955ef315"},"vehicle_type_id":"4","last_reported":1738048198,"current_range_meters":38000,"station_id":"ce4bh9p2rcd13ifvqed0","pricing_plan_id":"cebpf4jnsgd1na2vs0mg"},{"bike_id":"796c624c-21a1-499a-900a-2075934c86de","system_id":"levelo_inurba_marseille","lat":43.30425,"lon":5.39744,"is_reserved":false,"is_disabled":false,"rental_uris":{"android":"levelo://app?vid=796c624c-21a1-499a-900a-2075934c86de","ios":"levelo://app?vid=796c624c-21a1-499a-900a-2075934c86de"},"vehicle_type_id":"4","last_reported":1738048198,"current_range_meters":38800,"station_id":"ce4bh092rcd13ifvqd20","pricing_plan_id":"cebpf4jnsgd1na2vs0mg"},{"bike_id":"1b58c9ee-3e65-47fe-9d9e-643319402db1","system_id":"levelo_inurba_marseille","lat":43.30484,"lon":5.37903,"is_reserved":false,"is_disabled":false,"rental_uris":{"android":"levelo://app?vid=1b58c9ee-3e65-47fe-9d9e-643319402db1","ios":"levelo://app?vid=1b58c9ee-3e65-47fe-9d9e-643319402db1"},"vehicle_type_id":"4","last_reported":1738048198,"current_range_meters":28800,"station_id":"ce4bgup2rcd13ifvqcn0","pricing_plan_id":"cebpf4jnsgd1na2vs0mg"},{"bike_id":"63eb7d1a-bc2d-43f5-839f-c5ed980d2703","system_id":"levelo_inurba_marseille","lat":43.29532,"lon":5.38529,"is_reserved":false,"is_disabled":false,"rental_uris":{"android":"levelo://app?vid=63eb7d1a-bc2d-43f5-839f-c5ed980d2703","ios":"levelo://app?vid=63eb7d1a-bc2d-43f5-839f-c5ed980d2703"},"vehicle_type_id":"4","last_reported":1738048198,"current_range_meters":36800,"station_id":"ce4bgih2rcd13ifvqba0","pricing_plan_id":"cebpf4jnsgd1na2vs0mg"},{"bike_id":"f04b8758-2d01-4056-adea-8834212f3d1d","system_id":"levelo_inurba_marseille","lat":43.27992,"lon":5.40027,"is_reserved":false,"is_disabled":false,"rental_uris":{"android":"levelo://app?vid=f04b8758-2d01-4056-adea-8834212f3d1d","ios":"levelo://app?vid=f04b8758-2d01-4056-adea-8834212f3d1d"},"vehicle_type_id":"4","last_reported":1738048198,"current_range_meters":34000,"station_id":"ce4bho92rcd13ifvqh4g","pricing_plan_id":"cebpf4jnsgd1na2vs0mg"},{"bike_id":"7c9ca25f-2add-4275-8295-e6b998ea346e","system_id":"levelo_inurba_marseille","lat":43.28352,"lon":5.38103,"is_reserved":false,"is_disabled":true,"rental_uris":{"android":"levelo://app?vid=7c9ca25f-2add-4275-8295-e6b998ea346e","ios":"levelo://app?vid=7c9ca25f-2add-4275-8295-e6b998ea346e"},"vehicle_type_id":"4","last_reported":1738048198,"current_range_meters":400,"station_id":"ce4bh412rcd13ifvqdr0","pricing_plan_id":"cebpf4jnsgd1na2vs0mg"},{"bike_id":"43cb41c5-439f-4eb6-9ca9-ddeec93fcf1d","system_id":"levelo_inurba_marseille","lat":43.23964,"lon":5.3663,"is_reserved":false,"is_disabled":false,"rental_uris":{"android":"levelo://app?vid=43cb41c5-439f-4eb6-9ca9-ddeec93fcf1d","ios":"levelo://app?vid=43cb41c5-439f-4eb6-9ca9-ddeec93fcf1d"},"vehicle_type_id":"4","last_reported":1738048198,"current_range_meters":8000,"station_id":"ce4bhi12rcd13ifvqfp0","pricing_plan_id":"cebpf4jnsgd1na2vs0mg"},{"bike_id":"8ccef378-70c1-431e-9220-cb8b91a6d43b","system_id":"levelo_inurba_marseille","lat":43.30776,"lon":5.37662,"is_reserved":false,"is_disabled":true,"rental_uris":{"android":"levelo://app?vid=8ccef378-70c1-431e-9220-cb8b91a6d43b","ios":"levelo://app?vid=8ccef378-70c1-431e-9220-cb8b91a6d43b"},"vehicle_type_id":"4","last_reported":1738048198,"current_range_meters":27600,"station_id":"","pricing_plan_id":"cebpf4jnsgd1na2vs0mg"},{"bike_id":"4b4961b5-5e83-4377-a634-c1cb155aefdf","system_id":"levelo_inurba_marseille","lat":43.29214,"lon":5.36075,"is_reserved":false,"is_disabled":false,"rental_uris":{"android":"levelo://app?vid=4b4961b5-5e83-4377-a634-c1cb155aefdf","ios":"levelo://app?vid=4b4961b5-5e83-4377-a634-c1cb155aefdf"},"vehicle_type_id":"4","last_reported":1738048198,"current_range_meters":38400,"station_id":"ce4bhbh2rcd13ifvqeqg","pricing_plan_id":"cebpf4jnsgd1na2vs0mg"},{"bike_id":"f08b700c-fb7a-4471-b7d4-cd62c2909ef2","system_id":"levelo_inurba_marseille","lat":43.23144,"lon":5.4369,"is_reserved":false,"is_disabled":true,"rental_uris":{"android":"levelo://app?vid=f08b700c-fb7a-4471-b7d4-cd62c2909ef2","ios":"levelo://app?vid=f08b700c-fb7a-4471-b7d4-cd62c2909ef2"},"vehicle_type_id":"4","last_reported":1738048198,"current_range_meters":1600,"station_id":"ce4bhmp2rcd13ifvqgog","pricing_plan_id":"cebpf4jnsgd1na2vs0mg"},{"bike_id":"f3d95dfe-c4d9-4135-b6b9-be8eaab842cb","system_id":"levelo_inurba_marseille","lat":43.29596,"lon":5.381,"is_reserved":false,"is_disabled":false,"rental_uris":{"android":"levelo://app?vid=f3d95dfe-c4d9-4135-b6b9-be8eaab842cb","ios":"levelo://app?vid=f3d95dfe-c4d9-4135-b6b9-be8eaab842cb"},"vehicle_type_id":"4","last_reported":1738048198,"current_range_meters":8800,"station_id":"ce4bgl12rcd13ifvqbo0","pricing_plan_id":"cebpf4jnsgd1na2vs0mg"},{"bike_id":"f8239b01-3b23-4214-aeee-b03ebaf1b50d","system_id":"levelo_inurba_marseille","lat":43.30542,"lon":5.36697,"is_reserved":false,"is_disabled":false,"rental_uris":{"android":"levelo://app?vid=f8239b01-3b23-4214-aeee-b03ebaf1b50d","ios":"levelo://app?vid=f8239b01-3b23-4214-aeee-b03ebaf1b50d"},"vehicle_type_id":"4","last_reported":1738048198,"current_range_meters":36000,"station_id":"ce4bgrp2rcd13ifvqc9g","pricing_plan_id":"cebpf4jnsgd1na2vs0mg"},{"bike_id":"76a03fe2-6853-42db-8972-77b89a64555b","system_id":"levelo_inurba_marseille","lat":43.32098,"lon":5.36766,"is_reserved":false,"is_disabled":true,"rental_uris":{"android":"levelo://app?vid=76a03fe2-6853-42db-8972-77b89a64555b","ios":"levelo://app?vid=76a03fe2-6853-42db-8972-77b89a64555b"},"vehicle_type_id":"4","last_reported":1738048198,"current_range_meters":23200,"station_id":"ce4bhrh2rcd13ifvqhug","pricing_plan_id":"cebpf4jnsgd1na2vs0mg"},{"bike_id":"7bf6c71b-a977-4130-ae75-8ea2b18d958b","system_id":"levelo_inurba_marseille","lat":43.2893,"lon":5.36386,"is_reserved":false,"is_disabled":false,"rental_uris":{"android":"levelo://app?vid=7bf6c71b-a977-4130-ae75-8ea2b18d958b","ios":"levelo://app?vid=7bf6c71b-a977-4130-ae75-8ea2b18d958b"},"vehicle_type_id":"4","last_reported":1738048198,"current_range_meters":17600,"station_id":"ce4bhc92rcd13ifvqetg","pricing_plan_id":"cebpf4jnsgd1na2vs0mg"},{"bike_id":"75aec4e9-8c83-4922-b4f3-7c72360cfb91","system_id":"levelo_inurba_marseille","lat":43.24075,"lon":5.37754,"is_reserved":false,"is_disabled":false,"rental_uris":{"android":"levelo://app?vid=75aec4e9-8c83-4922-b4f3-7c72360cfb91","ios":"levelo://app?vid=75aec4e9-8c83-4922-b4f3-7c72360cfb91"},"vehicle_type_id":"4","last_reported":1738048198,"current_range_meters":18800,"station_id":"ce4bhnp2rcd13ifvqgvg","pricing_plan_id":"cebpf4jnsgd1na2vs0mg"},{"bike_id":"d525d691-49ac-4f76-9cea-87a4d83b5a38","system_id":"levelo_inurba_marseille","lat":43.24073,"lon":5.37753,"is_reserved":false,"is_disabled":false,"rental_uris":{"android":"levelo://app?vid=d525d691-49ac-4f76-9cea-87a4d83b5a38","ios":"levelo://app?vid=d525d691-49ac-4f76-9cea-87a4d83b5a38"},"vehicle_type_id":"4","last_reported":1738048198,"current_range_meters":28800,"station_id":"ce4bhnp2rcd13ifvqgvg","pricing_plan_id":"cebpf4jnsgd1na2vs0mg"},{"bike_id":"cd48da39-a655-4dcb-97c2-bcb8d3d8c55b","system_id":"levelo_inurba_marseille","lat":43.23149,"lon":5.43709,"is_reserved":false,"is_disabled":true,"rental_uris":{"android":"levelo://app?vid=cd48da39-a655-4dcb-97c2-bcb8d3d8c55b","ios":"levelo://app?vid=cd48da39-a655-4dcb-97c2-bcb8d3d8c55b"},"vehicle_type_id":"4","last_reported":1738048198,"current_range_meters":0,"station_id":"ce4bhmp2rcd13ifvqgog","pricing_plan_id":"cebpf4jnsgd1na2vs0mg"},{"bike_id":"11084a42-88c7-46ae-aa89-75a33ee30a16","system_id":"levelo_inurba_marseille","lat":43.24073,"lon":5.3776,"is_reserved":false,"is_disabled":false,"rental_uris":{"android":"levelo://app?vid=11084a42-88c7-46ae-aa89-75a33ee30a16","ios":"levelo://app?vid=11084a42-88c7-46ae-aa89-75a33ee30a16"},"vehicle_type_id":"4","last_reported":1738048198,"current_range_meters":31200,"station_id":"ce4bhnp2rcd13ifvqgvg","pricing_plan_id":"cebpf4jnsgd1na2vs0mg"},{"bike_id":"38d3306c-0d8c-4a47-83b2-1006d3644b57","system_id":"levelo_inurba_marseille","lat":43.30957,"lon":5.39039,"is_reserved":false,"is_disabled":false,"rental_uris":{"android":"levelo://app?vid=38d3306c-0d8c-4a47-83b2-1006d3644b57","ios":"levelo://app?vid=38d3306c-0d8c-4a47-83b2-1006d3644b57"},"vehicle_type_id":"4","last_reported":1738048198,"current_range_meters":38400,"station_id":"ce4bgup2rcd13ifvqco0","pricing_plan_id":"cebpf4jnsgd1na2vs0mg"},{"bike_id":"915df6a6-30bf-4e90-9efc-34ebcb795923","system_id":"levelo_inurba_marseille","lat":43.28456,"lon":5.35896,"is_reserved":false,"is_disabled":false,"rental_uris":{"android":"levelo://app?vid=915df6a6-30bf-4e90-9efc-34ebcb795923","ios":"levelo://app?vid=915df6a6-30bf-4e90-9efc-34ebcb795923"},"vehicle_type_id":"4","last_reported":1738048198,"current_range_meters":38800,"station_id":"ce4bhah2rcd13ifvqei0","pricing_plan_id":"cebpf4jnsgd1na2vs0mg"},{"bike_id":"9a454d5d-5966-4085-829e-843c070f0fff","system_id":"levelo_inurba_marseille","lat":43.29455,"lon":5.39746,"is_reserved":false,"is_disabled":false,"rental_uris":{"android":"levelo://app?vid=9a454d5d-5966-4085-829e-843c070f0fff","ios":"levelo://app?vid=9a454d5d-5966-4085-829e-843c070f0fff"},"vehicle_type_id":"4","last_reported":1738048198,"current_range_meters":21600,"station_id":"ce4bh3h2rcd13ifvqdo0","pricing_plan_id":"cebpf4jnsgd1na2vs0mg"},{"bike_id":"99e0fd85-488e-46e2-9592-3c488ed41e9c","system_id":"levelo_inurba_marseille","lat":43.29369,"lon":5.37827,"is_reserved":false,"is_disabled":false,"rental_uris":{"android":"levelo://app?vid=99e0fd85-488e-46e2-9592-3c488ed41e9c","ios":"levelo://app?vid=99e0fd85-488e-46e2-9592-3c488ed41e9c"},"vehicle_type_id":"4","last_reported":1738048198,"current_range_meters":36800,"station_id":"ce4bgjh2rcd13ifvqbf0","pricing_plan_id":"cebpf4jnsgd1na2vs0mg"},{"bike_id":"6bb764e6-4204-4240-a28d-3c5a178bdeed","system_id":"levelo_inurba_marseille","lat":43.298,"lon":5.38102,"is_reserved":false,"is_disabled":false,"rental_uris":{"android":"levelo://app?vid=6bb764e6-4204-4240-a28d-3c5a178bdeed","ios":"levelo://app?vid=6bb764e6-4204-4240-a28d-3c5a178bdeed"},"vehicle_type_id":"4","last_reported":1738048198,"current_range_meters":38800,"station_id":"ce4bgip2rcd13ifvqbb0","pricing_plan_id":"cebpf4jnsgd1na2vs0mg"},{"bike_id":"48cebf44-9b04-4b94-9106-3774cc9f0f01","system_id":"levelo_inurba_marseille","lat":43.28475,"lon":5.38406,"is_reserved":false,"is_disabled":false,"rental_uris":{"android":"levelo://app?vid=48cebf44-9b04-4b94-9106-3774cc9f0f01","ios":"levelo://app?vid=48cebf44-9b04-4b94-9106-3774cc9f0f01"},"vehicle_type_id":"4","last_reported":1738048198,"current_range_meters":36000,"station_id":"ce4bh512rcd13ifvqe3g","pricing_plan_id":"cebpf4jnsgd1na2vs0mg"},{"bike_id":"93a03b7f-b087-426b-aea4-84310305d4a9","system_id":"levelo_inurba_marseille","lat":43.31165,"lon":5.38737,"is_reserved":false,"is_disabled":true,"rental_uris":{"android":"levelo://app?vid=93a03b7f-b087-426b-aea4-84310305d4a9","ios":"levelo://app?vid=93a03b7f-b087-426b-aea4-84310305d4a9"},"vehicle_type_id":"4","last_reported":1738048198,"current_range_meters":38800,"station_id":"ce4bgv12rcd13ifvqcp0","pricing_plan_id":"cebpf4jnsgd1na2vs0mg"},{"bike_id":"438ef96e-576a-42aa-bc1f-ac59ea62970f","system_id":"levelo_inurba_marseille","lat":43.29571,"lon":5.36752,"is_reserved":false,"is_disabled":true,"rental_uris":{"android":"levelo://app?vid=438ef96e-576a-42aa-bc1f-ac59ea62970f","ios":"levelo://app?vid=438ef96e-576a-42aa-bc1f-ac59ea62970f"},"vehicle_type_id":"4","last_reported":1738048198,"current_range_meters":30800,"station_id":"ce4bgph2rcd13ifvqc2g","pricing_plan_id":"cebpf4jnsgd1na2vs0mg"},{"bike_id":"076810f3-e37e-4a24-a2bf-ae6df07f807b","system_id":"levelo_inurba_marseille","lat":43.292991,"lon":5.374442,"is_reserved":false,"is_disabled":true,"rental_uris":{"android":"levelo://app?vid=076810f3-e37e-4a24-a2bf-ae6df07f807b","ios":"levelo://app?vid=076810f3-e37e-4a24-a2bf-ae6df07f807b"},"vehicle_type_id":"4","last_reported":1738048198,"current_range_meters":24000,"station_id":"ce4bgi12rcd13ifvqb70","pricing_plan_id":"cebpf4jnsgd1na2vs0mg"},{"bike_id":"b89e47be-8aed-4fd7-a563-0fc305d071bf","system_id":"levelo_inurba_marseille","lat":43.28352,"lon":5.381,"is_reserved":false,"is_disabled":false,"rental_uris":{"android":"levelo://app?vid=b89e47be-8aed-4fd7-a563-0fc305d071bf","ios":"levelo://app?vid=b89e47be-8aed-4fd7-a563-0fc305d071bf"},"vehicle_type_id":"4","last_reported":1738048198,"current_range_meters":33600,"station_id":"ce4bh412rcd13ifvqdr0","pricing_plan_id":"cebpf4jnsgd1na2vs0mg"},{"bike_id":"ff68af14-5554-4f8d-a3de-4549d987f602","system_id":"levelo_inurba_marseille","lat":43.29891,"lon":5.43703,"is_reserved":false,"is_disabled":false,"rental_uris":{"android":"levelo://app?vid=ff68af14-5554-4f8d-a3de-4549d987f602","ios":"levelo://app?vid=ff68af14-5554-4f8d-a3de-4549d987f602"},"vehicle_type_id":"4","last_reported":1738048198,"current_range_meters":36800,"station_id":"ce4bhpp2rcd13ifvqhfg","pricing_plan_id":"cebpf4jnsgd1na2vs0mg"},{"bike_id":"d3adfc33-f3fc-4b6a-bb4b-0b3d23593eab","system_id":"levelo_inurba_marseille","lat":43.28481,"lon":5.38408,"is_reserved":false,"is_disabled":false,"rental_uris":{"android":"levelo://app?vid=d3adfc33-f3fc-4b6a-bb4b-0b3d23593eab","ios":"levelo://app?vid=d3adfc33-f3fc-4b6a-bb4b-0b3d23593eab"},"vehicle_type_id":"4","last_reported":1738048198,"current_range_meters":38800,"station_id":"ce4bh512rcd13ifvqe3g","pricing_plan_id":"cebpf4jnsgd1na2vs0mg"},{"bike_id":"4e6ab6c8-7483-4e10-9786-cb63c4d100db","system_id":"levelo_inurba_marseille","lat":43.24068,"lon":5.3776,"is_reserved":false,"is_disabled":false,"rental_uris":{"android":"levelo://app?vid=4e6ab6c8-7483-4e10-9786-cb63c4d100db","ios":"levelo://app?vid=4e6ab6c8-7483-4e10-9786-cb63c4d100db"},"vehicle_type_id":"4","last_reported":1738048198,"current_range_meters":32000,"station_id":"ce4bhnp2rcd13ifvqgvg","pricing_plan_id":"cebpf4jnsgd1na2vs0mg"},{"bike_id":"56f5e465-3cae-49ed-b051-549f21f0a43b","system_id":"levelo_inurba_marseille","lat":43.24658,"lon":5.38171,"is_reserved":false,"is_disabled":false,"rental_uris":{"android":"levelo://app?vid=56f5e465-3cae-49ed-b051-549f21f0a43b","ios":"levelo://app?vid=56f5e465-3cae-49ed-b051-549f21f0a43b"},"vehicle_type_id":"4","last_reported":1738048198,"current_range_meters":6800,"station_id":"ce4bhih2rcd13ifvqfr0","pricing_plan_id":"cebpf4jnsgd1na2vs0mg"},{"bike_id":"3c5cbf2e-5914-44e5-adf1-7229185be9cb","system_id":"levelo_inurba_marseille","lat":43.32476,"lon":5.36576,"is_reserved":false,"is_disabled":false,"rental_uris":{"android":"levelo://app?vid=3c5cbf2e-5914-44e5-adf1-7229185be9cb","ios":"levelo://app?vid=3c5cbf2e-5914-44e5-adf1-7229185be9cb"},"vehicle_type_id":"4","last_reported":1738048198,"current_range_meters":14000,"station_id":"ce4bhs12rcd13ifvqhvg","pricing_plan_id":"cebpf4jnsgd1na2vs0mg"},{"bike_id":"810e3bd2-4833-41fb-a98e-621f2369fa84","system_id":"levelo_inurba_marseille","lat":43.3373,"lon":5.39182,"is_reserved":false,"is_disabled":false,"rental_uris":{"android":"levelo://app?vid=810e3bd2-4833-41fb-a98e-621f2369fa84","ios":"levelo://app?vid=810e3bd2-4833-41fb-a98e-621f2369fa84"},"vehicle_type_id":"4","last_reported":1738048198,"current_range_meters":38800,"station_id":"ce4bhr92rcd13ifvqhsg","pricing_plan_id":"cebpf4jnsgd1na2vs0mg"},{"bike_id":"f9b3113d-a999-4331-8471-e72a17a54399","system_id":"levelo_inurba_marseille","lat":43.29804,"lon":5.38082,"is_reserved":false,"is_disabled":false,"rental_uris":{"android":"levelo://app?vid=f9b3113d-a999-4331-8471-e72a17a54399","ios":"levelo://app?vid=f9b3113d-a999-4331-8471-e72a17a54399"},"vehicle_type_id":"4","last_reported":1738048198,"current_range_meters":28400,"station_id":"ce4bgip2rcd13ifvqbb0","pricing_plan_id":"cebpf4jnsgd1na2vs0mg"},{"bike_id":"5ff01d07-3d14-4556-a9cb-73fb20f5e6ca","system_id":"levelo_inurba_marseille","lat":43.31356,"lon":5.3849,"is_reserved":false,"is_disabled":false,"rental_uris":{"android":"levelo://app?vid=5ff01d07-3d14-4556-a9cb-73fb20f5e6ca","ios":"levelo://app?vid=5ff01d07-3d14-4556-a9cb-73fb20f5e6ca"},"vehicle_type_id":"4","last_reported":1738048198,"current_range_meters":24400,"station_id":"ce4bgt92rcd13ifvqcf0","pricing_plan_id":"cebpf4jnsgd1na2vs0mg"},{"bike_id":"04add264-7ffa-44ea-8a2f-32324a7ecc6f","system_id":"levelo_inurba_marseille","lat":43.25701,"lon":5.41131,"is_reserved":false,"is_disabled":false,"rental_uris":{"android":"levelo://app?vid=04add264-7ffa-44ea-8a2f-32324a7ecc6f","ios":"levelo://app?vid=04add264-7ffa-44ea-8a2f-32324a7ecc6f"},"vehicle_type_id":"4","last_reported":1738048198,"current_range_meters":12000,"station_id":"ce4bhkp2rcd13ifvqgd0","pricing_plan_id":"cebpf4jnsgd1na2vs0mg"},{"bike_id":"e3c5a10e-948d-477c-91ce-8c835a7fe362","system_id":"levelo_inurba_marseille","lat":43.280924,"lon":5.39656,"is_reserved":false,"is_disabled":true,"rental_uris":{"android":"levelo://app?vid=e3c5a10e-948d-477c-91ce-8c835a7fe362","ios":"levelo://app?vid=e3c5a10e-948d-477c-91ce-8c835a7fe362"},"vehicle_type_id":"4","last_reported":1738048198,"current_range_meters":0,"station_id":"ce4bho12rcd13ifvqh2g","pricing_plan_id":"cebpf4jnsgd1na2vs0mg"},{"bike_id":"06d02976-dc8b-4906-b836-1b92c3cd8289","system_id":"levelo_inurba_marseille","lat":43.29883,"lon":5.38892,"is_reserved":false,"is_disabled":false,"rental_uris":{"android":"levelo://app?vid=06d02976-dc8b-4906-b836-1b92c3cd8289","ios":"levelo://app?vid=06d02976-dc8b-4906-b836-1b92c3cd8289"},"vehicle_type_id":"4","last_reported":1738048198,"current_range_meters":32000,"station_id":"ce4bh392rcd13ifvqdl0","pricing_plan_id":"cebpf4jnsgd1na2vs0mg"},{"bike_id":"c69dd111-4a16-47d3-919c-b81c76daeb57","system_id":"levelo_inurba_marseille","lat":43.24815,"lon":5.37471,"is_reserved":false,"is_disabled":false,"rental_uris":{"android":"levelo://app?vid=c69dd111-4a16-47d3-919c-b81c76daeb57","ios":"levelo://app?vid=c69dd111-4a16-47d3-919c-b81c76daeb57"},"vehicle_type_id":"4","last_reported":1738048198,"current_range_meters":33600,"station_id":"ce4bhgh2rcd13ifvqfb0","pricing_plan_id":"cebpf4jnsgd1na2vs0mg"},{"bike_id":"f846d495-effa-4e8f-ae39-f2d7b1fc0ba3","system_id":"levelo_inurba_marseille","lat":43.26808,"lon":5.40262,"is_reserved":false,"is_disabled":false,"rental_uris":{"android":"levelo://app?vid=f846d495-effa-4e8f-ae39-f2d7b1fc0ba3","ios":"levelo://app?vid=f846d495-effa-4e8f-ae39-f2d7b1fc0ba3"},"vehicle_type_id":"4","last_reported":1738048198,"current_range_meters":38800,"station_id":"ce501612rcd8frsf0b60","pricing_plan_id":"cebpf4jnsgd1na2vs0mg"},{"bike_id":"a4be99d0-9f57-4d65-9197-81844e4eb908","system_id":"levelo_inurba_marseille","lat":43.32491,"lon":5.36575,"is_reserved":false,"is_disabled":false,"rental_uris":{"android":"levelo://app?vid=a4be99d0-9f57-4d65-9197-81844e4eb908","ios":"levelo://app?vid=a4be99d0-9f57-4d65-9197-81844e4eb908"},"vehicle_type_id":"4","last_reported":1738048198,"current_range_meters":29600,"station_id":"ce4bhs12rcd13ifvqhvg","pricing_plan_id":"cebpf4jnsgd1na2vs0mg"},{"bike_id":"d1e9a39d-8c53-46bf-8978-e830f4e17d3f","system_id":"levelo_inurba_marseille","lat":43.27485,"lon":5.4246,"is_reserved":false,"is_disabled":false,"rental_uris":{"android":"levelo://app?vid=d1e9a39d-8c53-46bf-8978-e830f4e17d3f","ios":"levelo://app?vid=d1e9a39d-8c53-46bf-8978-e830f4e17d3f"},"vehicle_type_id":"4","last_reported":1738048198,"current_range_meters":9600,"station_id":"ce4bhn92rcd13ifvqgrg","pricing_plan_id":"cebpf4jnsgd1na2vs0mg"},{"bike_id":"97b18a4a-bd77-4ae7-9fb5-63f3232dcc4f","system_id":"levelo_inurba_marseille","lat":43.28084,"lon":5.35805,"is_reserved":false,"is_disabled":false,"rental_uris":{"android":"levelo://app?vid=97b18a4a-bd77-4ae7-9fb5-63f3232dcc4f","ios":"levelo://app?vid=97b18a4a-bd77-4ae7-9fb5-63f3232dcc4f"},"vehicle_type_id":"4","last_reported":1738048198,"current_range_meters":30800,"station_id":"","pricing_plan_id":"cebpf4jnsgd1na2vs0mg"},{"bike_id":"f9173de2-2fa5-436f-a76b-3c96bd571284","system_id":"levelo_inurba_marseille","lat":43.29803,"lon":5.40426,"is_reserved":false,"is_disabled":false,"rental_uris":{"android":"levelo://app?vid=f9173de2-2fa5-436f-a76b-3c96bd571284","ios":"levelo://app?vid=f9173de2-2fa5-436f-a76b-3c96bd571284"},"vehicle_type_id":"4","last_reported":1738048198,"current_range_meters":37600,"station_id":"ce4bh112rcd13ifvqd90","pricing_plan_id":"cebpf4jnsgd1na2vs0mg"},{"bike_id":"54a3b066-8322-48b3-9a4e-9afae5461793","system_id":"levelo_inurba_marseille","lat":43.30368,"lon":5.41881,"is_reserved":false,"is_disabled":false,"rental_uris":{"android":"levelo://app?vid=54a3b066-8322-48b3-9a4e-9afae5461793","ios":"levelo://app?vid=54a3b066-8322-48b3-9a4e-9afae5461793"},"vehicle_type_id":"4","last_reported":1738048198,"current_range_meters":39200,"station_id":"ce4bhop2rcd13ifvqh7g","pricing_plan_id":"cebpf4jnsgd1na2vs0mg"},{"bike_id":"c3ae742f-e100-495b-926d-05a25f1fc076","system_id":"levelo_inurba_marseille","lat":43.30471,"lon":5.37912,"is_reserved":false,"is_disabled":false,"rental_uris":{"android":"levelo://app?vid=c3ae742f-e100-495b-926d-05a25f1fc076","ios":"levelo://app?vid=c3ae742f-e100-495b-926d-05a25f1fc076"},"vehicle_type_id":"4","last_reported":1738048198,"current_range_meters":33200,"station_id":"ce4bgup2rcd13ifvqcn0","pricing_plan_id":"cebpf4jnsgd1na2vs0mg"},{"bike_id":"063e9528-f4f2-4171-8443-f7116d779e28","system_id":"levelo_inurba_marseille","lat":43.284763,"lon":5.38435,"is_reserved":false,"is_disabled":true,"rental_uris":{"android":"levelo://app?vid=063e9528-f4f2-4171-8443-f7116d779e28","ios":"levelo://app?vid=063e9528-f4f2-4171-8443-f7116d779e28"},"vehicle_type_id":"4","last_reported":1738048198,"current_range_meters":36400,"station_id":"ce4bh512rcd13ifvqe3g","pricing_plan_id":"cebpf4jnsgd1na2vs0mg"},{"bike_id":"db3aaaa1-2c83-4416-9be0-650e00b3a100","system_id":"levelo_inurba_marseille","lat":43.317574,"lon":5.390134,"is_reserved":false,"is_disabled":false,"rental_uris":{"android":"levelo://app?vid=db3aaaa1-2c83-4416-9be0-650e00b3a100","ios":"levelo://app?vid=db3aaaa1-2c83-4416-9be0-650e00b3a100"},"vehicle_type_id":"4","last_reported":1738048198,"current_range_meters":35600,"station_id":"ce4bhqp2rcd13ifvqhng","pricing_plan_id":"cebpf4jnsgd1na2vs0mg"},{"bike_id":"675c83b1-9957-4927-9e6e-85dc6e5ec694","system_id":"levelo_inurba_marseille","lat":43.29958,"lon":5.38493,"is_reserved":false,"is_disabled":false,"rental_uris":{"android":"levelo://app?vid=675c83b1-9957-4927-9e6e-85dc6e5ec694","ios":"levelo://app?vid=675c83b1-9957-4927-9e6e-85dc6e5ec694"},"vehicle_type_id":"4","last_reported":1738048198,"current_range_meters":8000,"station_id":"ce4bgj92rcd13ifvqbd0","pricing_plan_id":"cebpf4jnsgd1na2vs0mg"},{"bike_id":"ee00a9dd-941e-4f0f-ad3b-62fd438be21c","system_id":"levelo_inurba_marseille","lat":43.27989,"lon":5.40017,"is_reserved":false,"is_disabled":false,"rental_uris":{"android":"levelo://app?vid=ee00a9dd-941e-4f0f-ad3b-62fd438be21c","ios":"levelo://app?vid=ee00a9dd-941e-4f0f-ad3b-62fd438be21c"},"vehicle_type_id":"4","last_reported":1738048198,"current_range_meters":20000,"station_id":"ce4bho92rcd13ifvqh4g","pricing_plan_id":"cebpf4jnsgd1na2vs0mg"},{"bike_id":"36ad2a38-67d7-460a-9cf2-d062c8f3b3aa","system_id":"levelo_inurba_marseille","lat":43.29037,"lon":5.39962,"is_reserved":false,"is_disabled":false,"rental_uris":{"android":"levelo://app?vid=36ad2a38-67d7-460a-9cf2-d062c8f3b3aa","ios":"levelo://app?vid=36ad2a38-67d7-460a-9cf2-d062c8f3b3aa"},"vehicle_type_id":"4","last_reported":1738048198,"current_range_meters":14800,"station_id":"ce4bh392rcd13ifvqdm0","pricing_plan_id":"cebpf4jnsgd1na2vs0mg"},{"bike_id":"ee77105d-fb85-4ff3-b170-8616151c7d95","system_id":"levelo_inurba_marseille","lat":43.33609,"lon":5.41029,"is_reserved":false,"is_disabled":false,"rental_uris":{"android":"levelo://app?vid=ee77105d-fb85-4ff3-b170-8616151c7d95","ios":"levelo://app?vid=ee77105d-fb85-4ff3-b170-8616151c7d95"},"vehicle_type_id":"4","last_reported":1738048198,"current_range_meters":32000,"station_id":"ce4bhqh2rcd13ifvqhmg","pricing_plan_id":"cebpf4jnsgd1na2vs0mg"},{"bike_id":"bef28408-ca70-4466-a607-1979658f4ebc","system_id":"levelo_inurba_marseille","lat":43.30146,"lon":5.38074,"is_reserved":false,"is_disabled":false,"rental_uris":{"android":"levelo://app?vid=bef28408-ca70-4466-a607-1979658f4ebc","ios":"levelo://app?vid=bef28408-ca70-4466-a607-1979658f4ebc"},"vehicle_type_id":"4","last_reported":1738048198,"current_range_meters":35600,"station_id":"ce4bgjp2rcd13ifvqbh0","pricing_plan_id":"cebpf4jnsgd1na2vs0mg"},{"bike_id":"4e819cfc-66d0-44bc-b400-a92f780cb5a7","system_id":"levelo_inurba_marseille","lat":43.33011,"lon":5.39052,"is_reserved":false,"is_disabled":false,"rental_uris":{"android":"levelo://app?vid=4e819cfc-66d0-44bc-b400-a92f780cb5a7","ios":"levelo://app?vid=4e819cfc-66d0-44bc-b400-a92f780cb5a7"},"vehicle_type_id":"4","last_reported":1738048198,"current_range_meters":38000,"station_id":"ce4bhr92rcd13ifvqhrg","pricing_plan_id":"cebpf4jnsgd1na2vs0mg"},{"bike_id":"4ee7a4b2-dea3-4f4a-a76b-2d1e4fcbcafe","system_id":"levelo_inurba_marseille","lat":43.284848,"lon":5.385424,"is_reserved":false,"is_disabled":true,"rental_uris":{"android":"levelo://app?vid=4ee7a4b2-dea3-4f4a-a76b-2d1e4fcbcafe","ios":"levelo://app?vid=4ee7a4b2-dea3-4f4a-a76b-2d1e4fcbcafe"},"vehicle_type_id":"4","last_reported":1738048198,"current_range_meters":0,"station_id":"ce4bh8p2rcd13ifvqeb0","pricing_plan_id":"cebpf4jnsgd1na2vs0mg"},{"bike_id":"f6cff910-bc08-4989-a1d4-fe0be238409e","system_id":"levelo_inurba_marseille","lat":43.31262,"lon":5.40139,"is_reserved":false,"is_disabled":false,"rental_uris":{"android":"levelo://app?vid=f6cff910-bc08-4989-a1d4-fe0be238409e","ios":"levelo://app?vid=f6cff910-bc08-4989-a1d4-fe0be238409e"},"vehicle_type_id":"4","last_reported":1738048198,"current_range_meters":38800,"station_id":"ce4bh092rcd13ifvqd30","pricing_plan_id":"cebpf4jnsgd1na2vs0mg"},{"bike_id":"283c25d8-9fc5-495b-9825-5a72a68442bd","system_id":"levelo_inurba_marseille","lat":43.29252,"lon":5.4091,"is_reserved":false,"is_disabled":true,"rental_uris":{"android":"levelo://app?vid=283c25d8-9fc5-495b-9825-5a72a68442bd","ios":"levelo://app?vid=283c25d8-9fc5-495b-9825-5a72a68442bd"},"vehicle_type_id":"4","last_reported":1738048198,"current_range_meters":0,"station_id":"ce4bh192rcd13ifvqdc0","pricing_plan_id":"cebpf4jnsgd1na2vs0mg"},{"bike_id":"a3d00b76-e3d3-48a4-a596-66088ecb8491","system_id":"levelo_inurba_marseille","lat":43.3361,"lon":5.41021,"is_reserved":false,"is_disabled":false,"rental_uris":{"android":"levelo://app?vid=a3d00b76-e3d3-48a4-a596-66088ecb8491","ios":"levelo://app?vid=a3d00b76-e3d3-48a4-a596-66088ecb8491"},"vehicle_type_id":"4","last_reported":1738048198,"current_range_meters":37600,"station_id":"ce4bhqh2rcd13ifvqhmg","pricing_plan_id":"cebpf4jnsgd1na2vs0mg"},{"bike_id":"e3e26aee-15e1-425c-a48f-db58aa520742","system_id":"levelo_inurba_marseille","lat":43.2309,"lon":5.35475,"is_reserved":false,"is_disabled":false,"rental_uris":{"android":"levelo://app?vid=e3e26aee-15e1-425c-a48f-db58aa520742","ios":"levelo://app?vid=e3e26aee-15e1-425c-a48f-db58aa520742"},"vehicle_type_id":"4","last_reported":1738048198,"current_range_meters":38000,"station_id":"cpo3342slgdg3j2ifvpg","pricing_plan_id":"cebpf4jnsgd1na2vs0mg"},{"bike_id":"9fb813cb-e992-4585-8f3d-d25d13081f3b","system_id":"levelo_inurba_marseille","lat":43.231971,"lon":5.355532,"is_reserved":false,"is_disabled":false,"rental_uris":{"android":"levelo://app?vid=9fb813cb-e992-4585-8f3d-d25d13081f3b","ios":"levelo://app?vid=9fb813cb-e992-4585-8f3d-d25d13081f3b"},"vehicle_type_id":"4","last_reported":1738048198,"current_range_meters":4800,"station_id":"ce4bhu92rcd13ifvqi70","pricing_plan_id":"cebpf4jnsgd1na2vs0mg"},{"bike_id":"e864cbbc-cba7-44b2-84d7-57ee33d77ab6","system_id":"levelo_inurba_marseille","lat":43.24095,"lon":5.37767,"is_reserved":false,"is_disabled":false,"rental_uris":{"android":"levelo://app?vid=e864cbbc-cba7-44b2-84d7-57ee33d77ab6","ios":"levelo://app?vid=e864cbbc-cba7-44b2-84d7-57ee33d77ab6"},"vehicle_type_id":"4","last_reported":1738048198,"current_range_meters":38800,"station_id":"ce4bhnp2rcd13ifvqgvg","pricing_plan_id":"cebpf4jnsgd1na2vs0mg"},{"bike_id":"fa51a7ed-b2da-4349-b9cd-105d4acc8a18","system_id":"levelo_inurba_marseille","lat":43.28346,"lon":5.381,"is_reserved":false,"is_disabled":false,"rental_uris":{"android":"levelo://app?vid=fa51a7ed-b2da-4349-b9cd-105d4acc8a18","ios":"levelo://app?vid=fa51a7ed-b2da-4349-b9cd-105d4acc8a18"},"vehicle_type_id":"4","last_reported":1738048198,"current_range_meters":36800,"station_id":"ce4bh412rcd13ifvqdr0","pricing_plan_id":"cebpf4jnsgd1na2vs0mg"},{"bike_id":"7c78a755-c7f5-4f07-a96b-621451d47948","system_id":"levelo_inurba_marseille","lat":43.29897,"lon":5.43665,"is_reserved":false,"is_disabled":false,"rental_uris":{"android":"levelo://app?vid=7c78a755-c7f5-4f07-a96b-621451d47948","ios":"levelo://app?vid=7c78a755-c7f5-4f07-a96b-621451d47948"},"vehicle_type_id":"4","last_reported":1738048198,"current_range_meters":24800,"station_id":"ce4bhpp2rcd13ifvqhfg","pricing_plan_id":"cebpf4jnsgd1na2vs0mg"},{"bike_id":"72ff5c35-8977-46bf-8e5f-606a7fde9ab4","system_id":"levelo_inurba_marseille","lat":43.27499,"lon":5.42457,"is_reserved":false,"is_disabled":false,"rental_uris":{"android":"levelo://app?vid=72ff5c35-8977-46bf-8e5f-606a7fde9ab4","ios":"levelo://app?vid=72ff5c35-8977-46bf-8e5f-606a7fde9ab4"},"vehicle_type_id":"4","last_reported":1738048198,"current_range_meters":11200,"station_id":"ce4bhn92rcd13ifvqgrg","pricing_plan_id":"cebpf4jnsgd1na2vs0mg"},{"bike_id":"3fffe134-da5e-428c-b263-dc4df491080a","system_id":"levelo_inurba_marseille","lat":43.29392,"lon":5.37851,"is_reserved":false,"is_disabled":true,"rental_uris":{"android":"levelo://app?vid=3fffe134-da5e-428c-b263-dc4df491080a","ios":"levelo://app?vid=3fffe134-da5e-428c-b263-dc4df491080a"},"vehicle_type_id":"4","last_reported":1738048198,"current_range_meters":37600,"station_id":"ce4bgjh2rcd13ifvqbf0","pricing_plan_id":"cebpf4jnsgd1na2vs0mg"},{"bike_id":"418af01d-a676-44df-9948-1d93febb54eb","system_id":"levelo_inurba_marseille","lat":43.25584,"lon":5.38232,"is_reserved":false,"is_disabled":false,"rental_uris":{"android":"levelo://app?vid=418af01d-a676-44df-9948-1d93febb54eb","ios":"levelo://app?vid=418af01d-a676-44df-9948-1d93febb54eb"},"vehicle_type_id":"4","last_reported":1738048198,"current_range_meters":37600,"station_id":"ce4bhih2rcd13ifvqfs0","pricing_plan_id":"cebpf4jnsgd1na2vs0mg"},{"bike_id":"e75721dc-dbb9-4ae1-9388-ab994e8f4141","system_id":"levelo_inurba_marseille","lat":43.32541,"lon":5.41469,"is_reserved":false,"is_disabled":false,"rental_uris":{"android":"levelo://app?vid=e75721dc-dbb9-4ae1-9388-ab994e8f4141","ios":"levelo://app?vid=e75721dc-dbb9-4ae1-9388-ab994e8f4141"},"vehicle_type_id":"4","last_reported":1738048198,"current_range_meters":39200,"station_id":"ce4bhq12rcd13ifvqhhg","pricing_plan_id":"cebpf4jnsgd1na2vs0mg"},{"bike_id":"a48a4fa8-387b-4ecc-bc7a-c3f07822bf47","system_id":"levelo_inurba_marseille","lat":43.270726,"lon":5.392326,"is_reserved":false,"is_disabled":true,"rental_uris":{"android":"levelo://app?vid=a48a4fa8-387b-4ecc-bc7a-c3f07822bf47","ios":"levelo://app?vid=a48a4fa8-387b-4ecc-bc7a-c3f07822bf47"},"vehicle_type_id":"4","last_reported":1738048198,"current_range_meters":0,"station_id":"","pricing_plan_id":"cebpf4jnsgd1na2vs0mg"},{"bike_id":"d8e3e652-bcf6-43e0-be03-ff712527ceec","system_id":"levelo_inurba_marseille","lat":43.27487,"lon":5.42449,"is_reserved":false,"is_disabled":false,"rental_uris":{"android":"levelo://app?vid=d8e3e652-bcf6-43e0-be03-ff712527ceec","ios":"levelo://app?vid=d8e3e652-bcf6-43e0-be03-ff712527ceec"},"vehicle_type_id":"4","last_reported":1738048198,"current_range_meters":7200,"station_id":"ce4bhn92rcd13ifvqgrg","pricing_plan_id":"cebpf4jnsgd1na2vs0mg"},{"bike_id":"5f52cd29-90ea-433d-ad73-70ea1f779142","system_id":"levelo_inurba_marseille","lat":43.3055,"lon":5.38428,"is_reserved":false,"is_disabled":true,"rental_uris":{"android":"levelo://app?vid=5f52cd29-90ea-433d-ad73-70ea1f779142","ios":"levelo://app?vid=5f52cd29-90ea-433d-ad73-70ea1f779142"},"vehicle_type_id":"4","last_reported":1738048198,"current_range_meters":36800,"station_id":"ce4bgg92rcd13ifvqb30","pricing_plan_id":"cebpf4jnsgd1na2vs0mg"},{"bike_id":"a8d0380b-0a88-41c3-845f-e00ffb2cbc88","system_id":"levelo_inurba_marseille","lat":43.27983,"lon":5.40003,"is_reserved":false,"is_disabled":true,"rental_uris":{"android":"levelo://app?vid=a8d0380b-0a88-41c3-845f-e00ffb2cbc88","ios":"levelo://app?vid=a8d0380b-0a88-41c3-845f-e00ffb2cbc88"},"vehicle_type_id":"4","last_reported":1738048198,"current_range_meters":27200,"station_id":"ce4bho92rcd13ifvqh4g","pricing_plan_id":"cebpf4jnsgd1na2vs0mg"},{"bike_id":"960c2b1e-93ba-4e0e-baf5-fd8a6baa3c6b","system_id":"levelo_inurba_marseille","lat":43.25885,"lon":5.39904,"is_reserved":false,"is_disabled":true,"rental_uris":{"android":"levelo://app?vid=960c2b1e-93ba-4e0e-baf5-fd8a6baa3c6b","ios":"levelo://app?vid=960c2b1e-93ba-4e0e-baf5-fd8a6baa3c6b"},"vehicle_type_id":"4","last_reported":1738048198,"current_range_meters":33200,"station_id":"ce4bhl92rcd13ifvqghg","pricing_plan_id":"cebpf4jnsgd1na2vs0mg"},{"bike_id":"688eea87-7c36-4baa-b6b9-0ba0449d07a2","system_id":"levelo_inurba_marseille","lat":43.2807,"lon":5.39655,"is_reserved":false,"is_disabled":true,"rental_uris":{"android":"levelo://app?vid=688eea87-7c36-4baa-b6b9-0ba0449d07a2","ios":"levelo://app?vid=688eea87-7c36-4baa-b6b9-0ba0449d07a2"},"vehicle_type_id":"4","last_reported":1738048198,"current_range_meters":4800,"station_id":"ce4bho12rcd13ifvqh2g","pricing_plan_id":"cebpf4jnsgd1na2vs0mg"},{"bike_id":"9fd6a9f8-bfee-4544-b3a4-9ab360c12895","system_id":"levelo_inurba_marseille","lat":43.28414,"lon":5.37519,"is_reserved":false,"is_disabled":false,"rental_uris":{"android":"levelo://app?vid=9fd6a9f8-bfee-4544-b3a4-9ab360c12895","ios":"levelo://app?vid=9fd6a9f8-bfee-4544-b3a4-9ab360c12895"},"vehicle_type_id":"4","last_reported":1738048198,"current_range_meters":9200,"station_id":"ce4bh412rcd13ifvqds0","pricing_plan_id":"cebpf4jnsgd1na2vs0mg"},{"bike_id":"f5489a71-672f-4a76-b5cc-64a130203e4a","system_id":"levelo_inurba_marseille","lat":43.30148,"lon":5.38095,"is_reserved":false,"is_disabled":false,"rental_uris":{"android":"levelo://app?vid=f5489a71-672f-4a76-b5cc-64a130203e4a","ios":"levelo://app?vid=f5489a71-672f-4a76-b5cc-64a130203e4a"},"vehicle_type_id":"4","last_reported":1738048198,"current_range_meters":20000,"station_id":"ce4bgjp2rcd13ifvqbh0","pricing_plan_id":"cebpf4jnsgd1na2vs0mg"},{"bike_id":"a1c61bfd-6159-42ba-aeb6-9ce864d80d36","system_id":"levelo_inurba_marseille","lat":43.31712,"lon":5.37409,"is_reserved":false,"is_disabled":false,"rental_uris":{"android":"levelo://app?vid=a1c61bfd-6159-42ba-aeb6-9ce864d80d36","ios":"levelo://app?vid=a1c61bfd-6159-42ba-aeb6-9ce864d80d36"},"vehicle_type_id":"4","last_reported":1738048198,"current_range_meters":38400,"station_id":"","pricing_plan_id":"cebpf4jnsgd1na2vs0mg"},{"bike_id":"703188af-3c42-4c7f-9baf-d0e69db5f71c","system_id":"levelo_inurba_marseille","lat":43.30155,"lon":5.38088,"is_reserved":false,"is_disabled":false,"rental_uris":{"android":"levelo://app?vid=703188af-3c42-4c7f-9baf-d0e69db5f71c","ios":"levelo://app?vid=703188af-3c42-4c7f-9baf-d0e69db5f71c"},"vehicle_type_id":"4","last_reported":1738048198,"current_range_meters":34000,"station_id":"ce4bgjp2rcd13ifvqbh0","pricing_plan_id":"cebpf4jnsgd1na2vs0mg"},{"bike_id":"8f123f58-2803-4f70-aa06-7d428b4ad0fc","system_id":"levelo_inurba_marseille","lat":43.28618,"lon":5.35114,"is_reserved":false,"is_disabled":false,"rental_uris":{"android":"levelo://app?vid=8f123f58-2803-4f70-aa06-7d428b4ad0fc","ios":"levelo://app?vid=8f123f58-2803-4f70-aa06-7d428b4ad0fc"},"vehicle_type_id":"4","last_reported":1738048198,"current_range_meters":10800,"station_id":"ce4bhch2rcd13ifvqeug","pricing_plan_id":"cebpf4jnsgd1na2vs0mg"},{"bike_id":"550a8b57-751c-41a0-9696-14ee0b6a0ae3","system_id":"levelo_inurba_marseille","lat":43.28493,"lon":5.38424,"is_reserved":false,"is_disabled":false,"rental_uris":{"android":"levelo://app?vid=550a8b57-751c-41a0-9696-14ee0b6a0ae3","ios":"levelo://app?vid=550a8b57-751c-41a0-9696-14ee0b6a0ae3"},"vehicle_type_id":"4","last_reported":1738048198,"current_range_meters":26800,"station_id":"ce4bh512rcd13ifvqe3g","pricing_plan_id":"cebpf4jnsgd1na2vs0mg"},{"bike_id":"c0a7131b-67d6-407f-ad45-b985ce9da71e","system_id":"levelo_inurba_marseille","lat":43.27494,"lon":5.42446,"is_reserved":false,"is_disabled":false,"rental_uris":{"android":"levelo://app?vid=c0a7131b-67d6-407f-ad45-b985ce9da71e","ios":"levelo://app?vid=c0a7131b-67d6-407f-ad45-b985ce9da71e"},"vehicle_type_id":"4","last_reported":1738048198,"current_range_meters":28000,"station_id":"ce4bhn92rcd13ifvqgrg","pricing_plan_id":"cebpf4jnsgd1na2vs0mg"},{"bike_id":"c438c788-2c8f-4eda-8233-a8485c23c4af","system_id":"levelo_inurba_marseille","lat":43.30414,"lon":5.41281,"is_reserved":false,"is_disabled":true,"rental_uris":{"android":"levelo://app?vid=c438c788-2c8f-4eda-8233-a8485c23c4af","ios":"levelo://app?vid=c438c788-2c8f-4eda-8233-a8485c23c4af"},"vehicle_type_id":"4","last_reported":1738048198,"current_range_meters":0,"station_id":"ce4bhop2rcd13ifvqh8g","pricing_plan_id":"cebpf4jnsgd1na2vs0mg"},{"bike_id":"45a5dbf1-005b-4b83-9842-5bbd3594bfa9","system_id":"levelo_inurba_marseille","lat":43.257166,"lon":5.411071,"is_reserved":false,"is_disabled":false,"rental_uris":{"android":"levelo://app?vid=45a5dbf1-005b-4b83-9842-5bbd3594bfa9","ios":"levelo://app?vid=45a5dbf1-005b-4b83-9842-5bbd3594bfa9"},"vehicle_type_id":"4","last_reported":1738048198,"current_range_meters":24400,"station_id":"ce4bhkp2rcd13ifvqgd0","pricing_plan_id":"cebpf4jnsgd1na2vs0mg"},{"bike_id":"0a5fde81-0685-4894-b805-5edb46505778","system_id":"levelo_inurba_marseille","lat":43.246854,"lon":5.381577,"is_reserved":false,"is_disabled":true,"rental_uris":{"android":"levelo://app?vid=0a5fde81-0685-4894-b805-5edb46505778","ios":"levelo://app?vid=0a5fde81-0685-4894-b805-5edb46505778"},"vehicle_type_id":"4","last_reported":1738048198,"current_range_meters":38000,"station_id":"ce4bhih2rcd13ifvqfr0","pricing_plan_id":"cebpf4jnsgd1na2vs0mg"},{"bike_id":"9c8682a0-e665-42ca-9e8b-8233d9f42b52","system_id":"levelo_inurba_marseille","lat":43.26936,"lon":5.40261,"is_reserved":false,"is_disabled":false,"rental_uris":{"android":"levelo://app?vid=9c8682a0-e665-42ca-9e8b-8233d9f42b52","ios":"levelo://app?vid=9c8682a0-e665-42ca-9e8b-8233d9f42b52"},"vehicle_type_id":"4","last_reported":1738048198,"current_range_meters":8000,"station_id":"cjm6bp8fraef2m0cb0m0","pricing_plan_id":"cebpf4jnsgd1na2vs0mg"},{"bike_id":"f696fbd0-3571-4606-8437-2ec9b780de9c","system_id":"levelo_inurba_marseille","lat":43.3136,"lon":5.38475,"is_reserved":false,"is_disabled":false,"rental_uris":{"android":"levelo://app?vid=f696fbd0-3571-4606-8437-2ec9b780de9c","ios":"levelo://app?vid=f696fbd0-3571-4606-8437-2ec9b780de9c"},"vehicle_type_id":"4","last_reported":1738048198,"current_range_meters":38800,"station_id":"ce4bgt92rcd13ifvqcf0","pricing_plan_id":"cebpf4jnsgd1na2vs0mg"},{"bike_id":"60994902-dc77-47a9-a315-3caab7e06210","system_id":"levelo_inurba_marseille","lat":43.3127,"lon":5.40164,"is_reserved":false,"is_disabled":false,"rental_uris":{"android":"levelo://app?vid=60994902-dc77-47a9-a315-3caab7e06210","ios":"levelo://app?vid=60994902-dc77-47a9-a315-3caab7e06210"},"vehicle_type_id":"4","last_reported":1738048198,"current_range_meters":24800,"station_id":"ce4bh092rcd13ifvqd30","pricing_plan_id":"cebpf4jnsgd1na2vs0mg"},{"bike_id":"f6a78f51-5b6f-4ae0-b9c4-0087afedbc7b","system_id":"levelo_inurba_marseille","lat":43.29264,"lon":5.38437,"is_reserved":false,"is_disabled":false,"rental_uris":{"android":"levelo://app?vid=f6a78f51-5b6f-4ae0-b9c4-0087afedbc7b","ios":"levelo://app?vid=f6a78f51-5b6f-4ae0-b9c4-0087afedbc7b"},"vehicle_type_id":"4","last_reported":1738048198,"current_range_meters":39200,"station_id":"ce4bh692rcd13ifvqea0","pricing_plan_id":"cebpf4jnsgd1na2vs0mg"},{"bike_id":"d61424c6-bad1-4f2e-9939-5aa728a66cf1","system_id":"levelo_inurba_marseille","lat":43.24075,"lon":5.37754,"is_reserved":false,"is_disabled":false,"rental_uris":{"android":"levelo://app?vid=d61424c6-bad1-4f2e-9939-5aa728a66cf1","ios":"levelo://app?vid=d61424c6-bad1-4f2e-9939-5aa728a66cf1"},"vehicle_type_id":"4","last_reported":1738048198,"current_range_meters":39200,"station_id":"ce4bhnp2rcd13ifvqgvg","pricing_plan_id":"cebpf4jnsgd1na2vs0mg"},{"bike_id":"cbba047a-77e8-4327-b424-6fe34d4f7247","system_id":"levelo_inurba_marseille","lat":43.29188,"lon":5.35809,"is_reserved":false,"is_disabled":false,"rental_uris":{"android":"levelo://app?vid=cbba047a-77e8-4327-b424-6fe34d4f7247","ios":"levelo://app?vid=cbba047a-77e8-4327-b424-6fe34d4f7247"},"vehicle_type_id":"4","last_reported":1738048198,"current_range_meters":36400,"station_id":"ce4bhb12rcd13ifvqel0","pricing_plan_id":"cebpf4jnsgd1na2vs0mg"},{"bike_id":"3d98c6ce-e80d-46e8-b577-648cd8c28632","system_id":"levelo_inurba_marseille","lat":43.34699,"lon":5.34741,"is_reserved":false,"is_disabled":true,"rental_uris":{"android":"levelo://app?vid=3d98c6ce-e80d-46e8-b577-648cd8c28632","ios":"levelo://app?vid=3d98c6ce-e80d-46e8-b577-648cd8c28632"},"vehicle_type_id":"4","last_reported":1738048198,"current_range_meters":0,"station_id":"","pricing_plan_id":"cebpf4jnsgd1na2vs0mg"},{"bike_id":"31225d9b-dfe4-4afe-90db-76ff6fb30387","system_id":"levelo_inurba_marseille","lat":43.270534,"lon":5.402678,"is_reserved":false,"is_disabled":false,"rental_uris":{"android":"levelo://app?vid=31225d9b-dfe4-4afe-90db-76ff6fb30387","ios":"levelo://app?vid=31225d9b-dfe4-4afe-90db-76ff6fb30387"},"vehicle_type_id":"4","last_reported":1738048198,"current_range_meters":18000,"station_id":"ce4bhk92rcd13ifvqgc0","pricing_plan_id":"cebpf4jnsgd1na2vs0mg"},{"bike_id":"e2bed4d2-8734-40ef-9c13-6dd111bc0a3a","system_id":"levelo_inurba_marseille","lat":43.28974,"lon":5.37839,"is_reserved":false,"is_disabled":true,"rental_uris":{"android":"levelo://app?vid=e2bed4d2-8734-40ef-9c13-6dd111bc0a3a","ios":"levelo://app?vid=e2bed4d2-8734-40ef-9c13-6dd111bc0a3a"},"vehicle_type_id":"4","last_reported":1738048198,"current_range_meters":38800,"station_id":"ce4bh9p2rcd13ifvqed0","pricing_plan_id":"cebpf4jnsgd1na2vs0mg"},{"bike_id":"16cba4e1-cb10-44ef-b1a1-eca95385335f","system_id":"levelo_inurba_marseille","lat":43.28427,"lon":5.34998,"is_reserved":false,"is_disabled":true,"rental_uris":{"android":"levelo://app?vid=16cba4e1-cb10-44ef-b1a1-eca95385335f","ios":"levelo://app?vid=16cba4e1-cb10-44ef-b1a1-eca95385335f"},"vehicle_type_id":"4","last_reported":1738048198,"current_range_meters":34000,"station_id":"ce4bhbh2rcd13ifvqepg","pricing_plan_id":"cebpf4jnsgd1na2vs0mg"},