{"last_updated":1698617138,"ttl":30,"version":"2.2","data":{"bikes":[{"bike_id":"5842af47-ff77-4f77-8605-3239ede79882","system_id":"levelo_inurba_marseille","lat":43.312239,"lon":5.368562,"is_reserved":false,"is_disabled":false,"rental_uris":{"android":"levelo://app?vid=5842af47-ff77-4f77-8605-3239ede79882","ios":"levelo://app?vid=5842af47-ff77-4f77-8605-3239ede79882"},"vehicle_type_id":"4","last_reported":1698617138,"current_range_meters":21200,"station_id":"ce4bgl92rcd13ifvqbq0","pricing_plan_id":"free"},{"bike_id":"b1cb48cb-22d4-4cd4-97b0-038c1cf723b7","system_id":"levelo_inurba_marseille","lat":43.315186,"lon":5.371432,"is_reserved":false,"is_disabled":false,"rental_uris":{"android":"levelo://app?vid=b1cb48cb-22d4-4cd4-97b0-038c1cf723b7","ios":"levelo://app?vid=b1cb48cb-22d4-4cd4-97b0-038c1cf723b7"},"vehicle_type_id":"4","last_reported":1698617138,"current_range_meters":14000,"station_id":"","pricing_plan_id":"free"},{"bike_id":"c42499bf-529e-449d-b3dd-686d714db680","system_id":"levelo_inurba_marseille","lat":43.314811,"lon":5.373103,"is_reserved":false,"is_disabled":false,"rental_uris":{"android":"levelo://app?vid=c42499bf-529e-449d-b3dd-686d714db680","ios":"levelo://app?vid=c42499bf-529e-449d-b3dd-686d714db680"},"vehicle_type_id":"4","last_reported":1698617138,"current_range_meters":2800,"station_id":"ce4bgt12rcd13ifvqcd0","pricing_plan_id":"free"},{"bike_id":"ac196216-f9b0-460a-86b8-65d764cccbc9","system_id":"levelo_inurba_marseille","lat":43.314811,"lon":5.373103,"is_reserved":false,"is_disabled":false,"rental_uris":{"android":"levelo://app?vid=ac196216-f9b0-460a-86b8-65d764cccbc9","ios":"levelo://app?vid=ac196216-f9b0-460a-86b8-65d764cccbc9"},"vehicle_type_id":"4","last_reported":1698617138,"current_range_meters":6000,"station_id":"ce4bgt12rcd13ifvqcd0","pricing_plan_id":"free"},{"bike_id":"3bfe5ed4-35c6-4c83-8077-cfee0b469202","system_id":"levelo_inurba_marseille","lat":43.314811,"lon":5.373103,"is_reserved":false,"is_disabled":false,"rental_uris":{"android":"levelo://app?vid=3bfe5ed4-35c6-4c83-8077-cfee0b469202","ios":"levelo://app?vid=3bfe5ed4-35c6-4c83-8077-cfee0b469202"},"vehicle_type_id":"4","last_reported":1698617138,"current_range_meters":17600,"station_id":"ce4bgt12rcd13ifvqcd0","pricing_plan_id":"free"},{"bike_id":"1f1870f3-b581-4463-a2bc-5c0facc0e3e3","system_id":"levelo_inurba_marseille","lat":43.309039,"lon":5.371797,"is_reserved":false,"is_disabled":false,"rental_uris":{"android":"levelo://app?vid=1f1870f3-b581-4463-a2bc-5c0facc0e3e3","ios":"levelo://app?vid=1f1870f3-b581-4463-a2bc-5c0facc0e3e3"},"vehicle_type_id":"4","last_reported":1698617138,"current_range_meters":27200,"station_id":"ce4bguh2rcd13ifvqckg","pricing_plan_id":"free"},{"bike_id":"f252b071-dddd-4e5f-ad07-506846af6d1a","system_id":"levelo_inurba_marseille","lat":43.30543,"lon":5.3653,"is_reserved":false,"is_disabled":false,"rental_uris":{"android":"levelo://app?vid=f252b071-dddd-4e5f-ad07-506846af6d1a","ios":"levelo://app?vid=f252b071-dddd-4e5f-ad07-506846af6d1a"},"vehicle_type_id":"4","last_reported":1698617138,"current_range_meters":30800,"station_id":"ce4bgs12rcd13ifvqcag","pricing_plan_id":"free"},{"bike_id":"d7964bb4-3e4a-46be-be71-3eb960212d8d","system_id":"levelo_inurba_marseille","lat":43.311131,"lon":5.377651,"is_reserved":false,"is_disabled":false,"rental_uris":{"android":"levelo://app?vid=d7964bb4-3e4a-46be-be71-3eb960212d8d","ios":"levelo://app?vid=d7964bb4-3e4a-46be-be71-3eb960212d8d"},"vehicle_type_id":"4","last_reported":1698617138,"current_range_meters":11600,"station_id":"ce4bgt92rcd13ifvqcg0","pricing_plan_id":"free"},{"bike_id":"a6463711-ed20-419c-bc16-0c44a75ed012","system_id":"levelo_inurba_marseille","lat":43.311125,"lon":5.377624,"is_reserved":false,"is_disabled":false,"rental_uris":{"android":"levelo://app?vid=a6463711-ed20-419c-bc16-0c44a75ed012","ios":"levelo://app?vid=a6463711-ed20-419c-bc16-0c44a75ed012"},"vehicle_type_id":"4","last_reported":1698617138,"current_range_meters":16000,"station_id":"ce4bgt92rcd13ifvqcg0","pricing_plan_id":"free"},{"bike_id":"4ffa1791-04b8-4a35-b5b8-d859cd622a3d","system_id":"levelo_inurba_marseille","lat":43.311125,"lon":5.377624,"is_reserved":false,"is_disabled":false,"rental_uris":{"android":"levelo://app?vid=4ffa1791-04b8-4a35-b5b8-d859cd622a3d","ios":"levelo://app?vid=4ffa1791-04b8-4a35-b5b8-d859cd622a3d"},"vehicle_type_id":"4","last_reported":1698617138,"current_range_meters":2000,"station_id":"ce4bgt92rcd13ifvqcg0","pricing_plan_id":"free"},{"bike_id":"a2bf4980-45ba-4e09-9dda-74f677699ac0","system_id":"levelo_inurba_marseille","lat":43.317075,"lon":5.377367,"is_reserved":false,"is_disabled":false,"rental_uris":{"android":"levelo://app?vid=a2bf4980-45ba-4e09-9dda-74f677699ac0","ios":"levelo://app?vid=a2bf4980-45ba-4e09-9dda-74f677699ac0"},"vehicle_type_id":"4","last_reported":1698617138,"current_range_meters":16000,"station_id":"ce4bgth2rcd13ifvqch0","pricing_plan_id":"free"},{"bike_id":"2b9931f5-6d99-4091-9d8f-986af16e0ac5","system_id":"levelo_inurba_marseille","lat":43.31529,"lon":5.38031,"is_reserved":false,"is_disabled":false,"rental_uris":{"android":"levelo://app?vid=2b9931f5-6d99-4091-9d8f-986af16e0ac5","ios":"levelo://app?vid=2b9931f5-6d99-4091-9d8f-986af16e0ac5"},"vehicle_type_id":"4","last_reported":1698617138,"current_range_meters":400,"station_id":"ce4bhsp2rcd13ifvqi50","pricing_plan_id":"free"},{"bike_id":"8f31e15b-d085-463c-93d8-0c9cd86c500f","system_id":"levelo_inurba_marseille","lat":43.30804,"lon":5.38144,"is_reserved":false,"is_disabled":false,"rental_uris":{"android":"levelo://app?vid=8f31e15b-d085-463c-93d8-0c9cd86c500f","ios":"levelo://app?vid=8f31e15b-d085-463c-93d8-0c9cd86c500f"},"vehicle_type_id":"4","last_reported":1698617138,"current_range_meters":0,"station_id":"ce4bgt12rcd13ifvqce0","pricing_plan_id":"free"},{"bike_id":"770951e5-5b51-4e4e-a789-e84f0e10b7c9","system_id":"levelo_inurba_marseille","lat":43.30796,"lon":5.38161,"is_reserved":false,"is_disabled":false,"rental_uris":{"android":"levelo://app?vid=770951e5-5b51-4e4e-a789-e84f0e10b7c9","ios":"levelo://app?vid=770951e5-5b51-4e4e-a789-e84f0e10b7c9"},"vehicle_type_id":"4","last_reported":1698617138,"current_range_meters":12400,"station_id":"ce4bgt12rcd13ifvqce0","pricing_plan_id":"free"},{"bike_id":"e3f253a1-9788-4492-938f-39b642fbd881","system_id":"levelo_inurba_marseille","lat":43.3245,"lon":5.36788,"is_reserved":false,"is_disabled":false,"rental_uris":{"android":"levelo://app?vid=e3f253a1-9788-4492-938f-39b642fbd881","ios":"levelo://app?vid=e3f253a1-9788-4492-938f-39b642fbd881"},"vehicle_type_id":"4","last_reported":1698617138,"current_range_meters":4400,"station_id":"","pricing_plan_id":"free"},{"bike_id":"d797f1e6-f3ca-4ad7-8b56-5ed6191da53c","system_id":"levelo_inurba_marseille","lat":43.304606,"lon":5.379026,"is_reserved":false,"is_disabled":false,"rental_uris":{"android":"levelo://app?vid=d797f1e6-f3ca-4ad7-8b56-5ed6191da53c","ios":"levelo://app?vid=d797f1e6-f3ca-4ad7-8b56-5ed6191da53c"},"vehicle_type_id":"4","last_reported":1698617138,"current_range_meters":24400,"station_id":"ce4bgup2rcd13ifvqcn0","pricing_plan_id":"free"},{"bike_id":"33799d3a-1a35-4946-b871-92caf48036ec","system_id":"levelo_inurba_marseille","lat":43.324742,"lon":5.365642,"is_reserved":false,"is_disabled":false,"rental_uris":{"android":"levelo://app?vid=33799d3a-1a35-4946-b871-92caf48036ec","ios":"levelo://app?vid=33799d3a-1a35-4946-b871-92caf48036ec"},"vehicle_type_id":"4","last_reported":1698617138,"current_range_meters":23600,"station_id":"","pricing_plan_id":"free"},{"bike_id":"d177f840-926d-43b5-b656-8750c3d13e8a","system_id":"levelo_inurba_marseille","lat":43.32479,"lon":5.36566,"is_reserved":false,"is_disabled":false,"rental_uris":{"android":"levelo://app?vid=d177f840-926d-43b5-b656-8750c3d13e8a","ios":"levelo://app?vid=d177f840-926d-43b5-b656-8750c3d13e8a"},"vehicle_type_id":"4","last_reported":1698617138,"current_range_meters":24400,"station_id":"","pricing_plan_id":"free"},{"bike_id":"31a6c390-abdc-4b53-9e81-f3d196ca3d02","system_id":"levelo_inurba_marseille","lat":43.30143,"lon":5.37413,"is_reserved":false,"is_disabled":false,"rental_uris":{"android":"levelo://app?vid=31a6c390-abdc-4b53-9e81-f3d196ca3d02","ios":"levelo://app?vid=31a6c390-abdc-4b53-9e81-f3d196ca3d02"},"vehicle_type_id":"4","last_reported":1698617138,"current_range_meters":2400,"station_id":"ce4bgs92rcd13ifvqcc0","pricing_plan_id":"free"},{"bike_id":"9ac00b33-61ae-44db-994b-08765d7a8162","system_id":"levelo_inurba_marseille","lat":43.30143,"lon":5.37413,"is_reserved":false,"is_disabled":false,"rental_uris":{"android":"levelo://app?vid=9ac00b33-61ae-44db-994b-08765d7a8162","ios":"levelo://app?vid=9ac00b33-61ae-44db-994b-08765d7a8162"},"vehicle_type_id":"4","last_reported":1698617138,"current_range_meters":4800,"station_id":"ce4bgs92rcd13ifvqcc0","pricing_plan_id":"free"},{"bike_id":"1908761d-f54d-4e92-9e18-174e086455e1","system_id":"levelo_inurba_marseille","lat":43.30143,"lon":5.37413,"is_reserved":false,"is_disabled":false,"rental_uris":{"android":"levelo://app?vid=1908761d-f54d-4e92-9e18-174e086455e1","ios":"levelo://app?vid=1908761d-f54d-4e92-9e18-174e086455e1"},"vehicle_type_id":"4","last_reported":1698617138,"current_range_meters":25600,"station_id":"ce4bgs92rcd13ifvqcc0","pricing_plan_id":"free"},{"bike_id":"504dadd1-24d1-45d8-bef6-1c3693924251","system_id":"levelo_inurba_marseille","lat":43.319917,"lon":5.381567,"is_reserved":false,"is_disabled":false,"rental_uris":{"android":"levelo://app?vid=504dadd1-24d1-45d8-bef6-1c3693924251","ios":"levelo://app?vid=504dadd1-24d1-45d8-bef6-1c3693924251"},"vehicle_type_id":"4","last_reported":1698617138,"current_range_meters":6400,"station_id":"ce4bhr12rcd13ifvqhpg","pricing_plan_id":"free"},{"bike_id":"cb61aa21-59b5-429a-8468-122a4c5e452c","system_id":"levelo_inurba_marseille","lat":43.31995,"lon":5.38162,"is_reserved":false,"is_disabled":false,"rental_uris":{"android":"levelo://app?vid=cb61aa21-59b5-429a-8468-122a4c5e452c","ios":"levelo://app?vid=cb61aa21-59b5-429a-8468-122a4c5e452c"},"vehicle_type_id":"4","last_reported":1698617138,"current_range_meters":11200,"station_id":"ce4bhr12rcd13ifvqhpg","pricing_plan_id":"free"},{"bike_id":"2f1ab682-82fd-4b0c-bc2e-e244b0ffb1c5","system_id":"levelo_inurba_marseille","lat":43.313571,"lon":5.384829,"is_reserved":false,"is_disabled":false,"rental_uris":{"android":"levelo://app?vid=2f1ab682-82fd-4b0c-bc2e-e244b0ffb1c5","ios":"levelo://app?vid=2f1ab682-82fd-4b0c-bc2e-e244b0ffb1c5"},"vehicle_type_id":"4","last_reported":1698617138,"current_range_meters":30800,"station_id":"ce4bgt92rcd13ifvqcf0","pricing_plan_id":"free"},{"bike_id":"a1b5bccf-b05a-4c32-b853-aabb8ae676e2","system_id":"levelo_inurba_marseille","lat":43.299222,"lon":5.365554,"is_reserved":false,"is_disabled":false,"rental_uris":{"android":"levelo://app?vid=a1b5bccf-b05a-4c32-b853-aabb8ae676e2","ios":"levelo://app?vid=a1b5bccf-b05a-4c32-b853-aabb8ae676e2"},"vehicle_type_id":"4","last_reported":1698617138,"current_range_meters":0,"station_id":"ce4bgm92rcd13ifvqbr0","pricing_plan_id":"free"},{"bike_id":"5ba66772-20b6-408d-a6c3-0df1cd4bb678","system_id":"levelo_inurba_marseille","lat":43.3264,"lon":5.367334,"is_reserved":false,"is_disabled":false,"rental_uris":{"android":"levelo://app?vid=5ba66772-20b6-408d-a6c3-0df1cd4bb678","ios":"levelo://app?vid=5ba66772-20b6-408d-a6c3-0df1cd4bb678"},"vehicle_type_id":"4","last_reported":1698617138,"current_range_meters":12400,"station_id":"","pricing_plan_id":"free"},{"bike_id":"ce1299c9-4ccb-4f72-ae23-51b1c4e88e94","system_id":"levelo_inurba_marseille","lat":43.305364,"lon":5.384119,"is_reserved":false,"is_disabled":false,"rental_uris":{"android":"levelo://app?vid=ce1299c9-4ccb-4f72-ae23-51b1c4e88e94","ios":"levelo://app?vid=ce1299c9-4ccb-4f72-ae23-51b1c4e88e94"},"vehicle_type_id":"4","last_reported":1698617138,"current_range_meters":14000,"station_id":"ce4bgg92rcd13ifvqb30","pricing_plan_id":"free"},{"bike_id":"dd19d9ac-aa90-45a2-8163-da0aeeea09b9","system_id":"levelo_inurba_marseille","lat":43.311722,"lon":5.387247,"is_reserved":false,"is_disabled":false,"rental_uris":{"android":"levelo://app?vid=dd19d9ac-aa90-45a2-8163-da0aeeea09b9","ios":"levelo://app?vid=dd19d9ac-aa90-45a2-8163-da0aeeea09b9"},"vehicle_type_id":"4","last_reported":1698617138,"current_range_meters":31200,"station_id":"ce4bgv12rcd13ifvqcp0","pricing_plan_id":"free"},{"bike_id":"12502785-0416-48b1-ace3-e097f07644a4","system_id":"levelo_inurba_marseille","lat":43.311722,"lon":5.387247,"is_reserved":false,"is_disabled":false,"rental_uris":{"android":"levelo://app?vid=12502785-0416-48b1-ace3-e097f07644a4","ios":"levelo://app?vid=12502785-0416-48b1-ace3-e097f07644a4"},"vehicle_type_id":"4","last_reported":1698617138,"current_range_meters":30000,"station_id":"ce4bgv12rcd13ifvqcp0","pricing_plan_id":"free"},{"bike_id":"5188b664-334e-478e-a6c2-7c462c912c53","system_id":"levelo_inurba_marseille","lat":43.311722,"lon":5.387247,"is_reserved":false,"is_disabled":false,"rental_uris":{"android":"levelo://app?vid=5188b664-334e-478e-a6c2-7c462c912c53","ios":"levelo://app?vid=5188b664-334e-478e-a6c2-7c462c912c53"},"vehicle_type_id":"4","last_reported":1698617138,"current_range_meters":17600,"station_id":"ce4bgv12rcd13ifvqcp0","pricing_plan_id":"free"},{"bike_id":"261ee04e-503f-442a-92b8-9a21484fc4c3","system_id":"levelo_inurba_marseille","lat":43.311722,"lon":5.387247,"is_reserved":false,"is_disabled":false,"rental_uris":{"android":"levelo://app?vid=261ee04e-503f-442a-92b8-9a21484fc4c3","ios":"levelo://app?vid=261ee04e-503f-442a-92b8-9a21484fc4c3"},"vehicle_type_id":"4","last_reported":1698617138,"current_range_meters":31200,"station_id":"ce4bgv12rcd13ifvqcp0","pricing_plan_id":"free"},{"bike_id":"d73bdb55-9b1c-4e22-b38b-50c2237083a0","system_id":"levelo_inurba_marseille","lat":43.311722,"lon":5.387247,"is_reserved":false,"is_disabled":false,"rental_uris":{"android":"levelo://app?vid=d73bdb55-9b1c-4e22-b38b-50c2237083a0","ios":"levelo://app?vid=d73bdb55-9b1c-4e22-b38b-50c2237083a0"},"vehicle_type_id":"4","last_reported":1698617138,"current_range_meters":14400,"station_id":"ce4bgv12rcd13ifvqcp0","pricing_plan_id":"free"},{"bike_id":"49754a0f-6c4f-41ac-9039-11c63b693080","system_id":"levelo_inurba_marseille","lat":43.328371,"lon":5.366909,"is_reserved":false,"is_disabled":false,"rental_uris":{"android":"levelo://app?vid=49754a0f-6c4f-41ac-9039-11c63b693080","ios":"levelo://app?vid=49754a0f-6c4f-41ac-9039-11c63b693080"},"vehicle_type_id":"4","last_reported":1698617138,"current_range_meters":17200,"station_id":"ce4bhs92rcd13ifvqi0g","pricing_plan_id":"free"},{"bike_id":"b268b5a1-f520-4edd-b3be-a567d7dc309c","system_id":"levelo_inurba_marseille","lat":43.328371,"lon":5.366909,"is_reserved":false,"is_disabled":false,"rental_uris":{"android":"levelo://app?vid=b268b5a1-f520-4edd-b3be-a567d7dc309c","ios":"levelo://app?vid=b268b5a1-f520-4edd-b3be-a567d7dc309c"},"vehicle_type_id":"4","last_reported":1698617138,"current_range_meters":22800,"station_id":"ce4bhs92rcd13ifvqi0g","pricing_plan_id":"free"},{"bike_id":"1401713a-906e-435e-8b48-1afc57029fa7","system_id":"levelo_inurba_marseille","lat":43.328371,"lon":5.366909,"is_reserved":false,"is_disabled":false,"rental_uris":{"android":"levelo://app?vid=1401713a-906e-435e-8b48-1afc57029fa7","ios":"levelo://app?vid=1401713a-906e-435e-8b48-1afc57029fa7"},"vehicle_type_id":"4","last_reported":1698617138,"current_range_meters":11600,"station_id":"ce4bhs92rcd13ifvqi0g","pricing_plan_id":"free"},{"bike_id":"2bf09692-7151-4aba-9fa7-8ce1d6106004","system_id":"levelo_inurba_marseille","lat":43.328303,"lon":5.366873,"is_reserved":false,"is_disabled":false,"rental_uris":{"android":"levelo://app?vid=2bf09692-7151-4aba-9fa7-8ce1d6106004","ios":"levelo://app?vid=2bf09692-7151-4aba-9fa7-8ce1d6106004"},"vehicle_type_id":"4","last_reported":1698617138,"current_range_meters":7600,"station_id":"","pricing_plan_id":"free"},{"bike_id":"ca43266d-8f64-4304-9316-b8acc0650052","system_id":"levelo_inurba_marseille","lat":43.328371,"lon":5.366909,"is_reserved":false,"is_disabled":false,"rental_uris":{"android":"levelo://app?vid=ca43266d-8f64-4304-9316-b8acc0650052","ios":"levelo://app?vid=ca43266d-8f64-4304-9316-b8acc0650052"},"vehicle_type_id":"4","last_reported":1698617138,"current_range_meters":3200,"station_id":"ce4bhs92rcd13ifvqi0g","pricing_plan_id":"free"},{"bike_id":"7058fde7-e208-4c67-9c3f-b8160ae07a6d","system_id":"levelo_inurba_marseille","lat":43.328371,"lon":5.366909,"is_reserved":false,"is_disabled":false,"rental_uris":{"android":"levelo://app?vid=7058fde7-e208-4c67-9c3f-b8160ae07a6d","ios":"levelo://app?vid=7058fde7-e208-4c67-9c3f-b8160ae07a6d"},"vehicle_type_id":"4","last_reported":1698617138,"current_range_meters":12400,"station_id":"ce4bhs92rcd13ifvqi0g","pricing_plan_id":"free"},{"bike_id":"86bb0a20-8123-4e0e-84f3-756c4bdb05df","system_id":"levelo_inurba_marseille","lat":43.32833,"lon":5.3669,"is_reserved":false,"is_disabled":false,"rental_uris":{"android":"levelo://app?vid=86bb0a20-8123-4e0e-84f3-756c4bdb05df","ios":"levelo://app?vid=86bb0a20-8123-4e0e-84f3-756c4bdb05df"},"vehicle_type_id":"4","last_reported":1698617138,"current_range_meters":18800,"station_id":"ce4bhs92rcd13ifvqi0g","pricing_plan_id":"free"},{"bike_id":"98cdae56-93ed-4430-a8b5-f41663ddefc0","system_id":"levelo_inurba_marseille","lat":43.328371,"lon":5.366909,"is_reserved":false,"is_disabled":false,"rental_uris":{"android":"levelo://app?vid=98cdae56-93ed-4430-a8b5-f41663ddefc0","ios":"levelo://app?vid=98cdae56-93ed-4430-a8b5-f41663ddefc0"},"vehicle_type_id":"4","last_reported":1698617138,"current_range_meters":30800,"station_id":"ce4bhs92rcd13ifvqi0g","pricing_plan_id":"free"},{"bike_id":"6d3c5a4a-f87b-4a3a-900d-4bda025cce1e","system_id":"levelo_inurba_marseille","lat":43.2968,"lon":5.37291,"is_reserved":false,"is_disabled":false,"rental_uris":{"android":"levelo://app?vid=6d3c5a4a-f87b-4a3a-900d-4bda025cce1e","ios":"levelo://app?vid=6d3c5a4a-f87b-4a3a-900d-4bda025cce1e"},"vehicle_type_id":"4","last_reported":1698617138,"current_range_meters":4400,"station_id":"ce4bgk12rcd13ifvqbj0","pricing_plan_id":"free"},{"bike_id":"dd1c0b20-019a-4f88-ae15-bb2c3eed70ed","system_id":"levelo_inurba_marseille","lat":43.319022,"lon":5.388045,"is_reserved":false,"is_disabled":false,"rental_uris":{"android":"levelo://app?vid=dd1c0b20-019a-4f88-ae15-bb2c3eed70ed","ios":"levelo://app?vid=dd1c0b20-019a-4f88-ae15-bb2c3eed70ed"},"vehicle_type_id":"4","last_reported":1698617138,"current_range_meters":0,"station_id":"","pricing_plan_id":"free"},{"bike_id":"b28fbb3d-8253-4cbb-bd27-64c4536fec86","system_id":"levelo_inurba_marseille","lat":43.29573,"lon":5.367355,"is_reserved":false,"is_disabled":false,"rental_uris":{"android":"levelo://app?vid=b28fbb3d-8253-4cbb-bd27-64c4536fec86","ios":"levelo://app?vid=b28fbb3d-8253-4cbb-bd27-64c4536fec86"},"vehicle_type_id":"4","last_reported":1698617138,"current_range_meters":18000,"station_id":"ce4bgph2rcd13ifvqc2g","pricing_plan_id":"free"},{"bike_id":"f3d0381f-7a2d-409e-a12f-bd3d9095653d","system_id":"levelo_inurba_marseille","lat":43.329673,"lon":5.365468,"is_reserved":false,"is_disabled":false,"rental_uris":{"android":"levelo://app?vid=f3d0381f-7a2d-409e-a12f-bd3d9095653d","ios":"levelo://app?vid=f3d0381f-7a2d-409e-a12f-bd3d9095653d"},"vehicle_type_id":"4","last_reported":1698617138,"current_range_meters":0,"station_id":"","pricing_plan_id":"free"},{"bike_id":"db030a99-cf55-45ef-8227-74482cff3ef8","system_id":"levelo_inurba_marseille","lat":43.309589,"lon":5.390258,"is_reserved":false,"is_disabled":false,"rental_uris":{"android":"levelo://app?vid=db030a99-cf55-45ef-8227-74482cff3ef8","ios":"levelo://app?vid=db030a99-cf55-45ef-8227-74482cff3ef8"},"vehicle_type_id":"4","last_reported":1698617138,"current_range_meters":10800,"station_id":"ce4bgup2rcd13ifvqco0","pricing_plan_id":"free"},{"bike_id":"d2330b69-e424-41d8-a009-0931c9af4488","system_id":"levelo_inurba_marseille","lat":43.317557,"lon":5.390173,"is_reserved":false,"is_disabled":false,"rental_uris":{"android":"levelo://app?vid=d2330b69-e424-41d8-a009-0931c9af4488","ios":"levelo://app?vid=d2330b69-e424-41d8-a009-0931c9af4488"},"vehicle_type_id":"4","last_reported":1698617138,"current_range_meters":11600,"station_id":"ce4bhqp2rcd13ifvqhng","pricing_plan_id":"free"},{"bike_id":"1d2c5514-6961-4ee6-952e-694f4d60fad5","system_id":"levelo_inurba_marseille","lat":43.317557,"lon":5.390173,"is_reserved":false,"is_disabled":false,"rental_uris":{"android":"levelo://app?vid=1d2c5514-6961-4ee6-952e-694f4d60fad5","ios":"levelo://app?vid=1d2c5514-6961-4ee6-952e-694f4d60fad5"},"vehicle_type_id":"4","last_reported":1698617138,"current_range_meters":11200,"station_id":"ce4bhqp2rcd13ifvqhng","pricing_plan_id":"free"},{"bike_id":"579b6710-1e13-49c3-99d8-7ad66c665f85","system_id":"levelo_inurba_marseille","lat":43.298037,"lon":5.381066,"is_reserved":false,"is_disabled":false,"rental_uris":{"android":"levelo://app?vid=579b6710-1e13-49c3-99d8-7ad66c665f85","ios":"levelo://app?vid=579b6710-1e13-49c3-99d8-7ad66c665f85"},"vehicle_type_id":"4","last_reported":1698617138,"current_range_meters":27200,"station_id":"ce4bgip2rcd13ifvqbb0","pricing_plan_id":"free"},{"bike_id":"89105547-2cbc-4891-82db-f74f3b769ad2","system_id":"levelo_inurba_marseille","lat":43.297883,"lon":5.380898,"is_reserved":false,"is_disabled":false,"rental_uris":{"android":"levelo://app?vid=89105547-2cbc-4891-82db-f74f3b769ad2","ios":"levelo://app?vid=89105547-2cbc-4891-82db-f74f3b769ad2"},"vehicle_type_id":"4","last_reported":1698617138,"current_range_meters":18400,"station_id":"","pricing_plan_id":"free"},{"bike_id":"cf61e4a6-a968-40c7-898c-f70b21797abb","system_id":"levelo_inurba_marseille","lat":43.304274,"lon":5.388873,"is_reserved":false,"is_disabled":false,"rental_uris":{"android":"levelo://app?vid=cf61e4a6-a968-40c7-898c-f70b21797abb","ios":"levelo://app?vid=cf61e4a6-a968-40c7-898c-f70b21797abb"},"vehicle_type_id":"4","last_reported":1698617138,"current_range_meters":29200,"station_id":"ce4bgk12rcd13ifvqbi0","pricing_plan_id":"free"},{"bike_id":"be328c6d-4598-44fd-84c7-bc9e91c0afce","system_id":"levelo_inurba_marseille","lat":43.304278,"lon":5.388868,"is_reserved":false,"is_disabled":false,"rental_uris":{"android":"levelo://app?vid=be328c6d-4598-44fd-84c7-bc9e91c0afce","ios":"levelo://app?vid=be328c6d-4598-44fd-84c7-bc9e91c0afce"},"vehicle_type_id":"4","last_reported":1698617138,"current_range_meters":24400,"station_id":"ce4bgk12rcd13ifvqbi0","pricing_plan_id":"free"},{"bike_id":"95de5542-6169-4cc9-ac6c-3d5eadba97c0","system_id":"levelo_inurba_marseille","lat":43.32366,"lon":5.38882,"is_reserved":false,"is_disabled":false,"rental_uris":{"android":"levelo://app?vid=95de5542-6169-4cc9-ac6c-3d5eadba97c0","ios":"levelo://app?vid=95de5542-6169-4cc9-ac6c-3d5eadba97c0"},"vehicle_type_id":"4","last_reported":1698617138,"current_range_meters":0,"station_id":"ce4bhqp2rcd13ifvqhog","pricing_plan_id":"free"},{"bike_id":"59f50a34-44ec-4c1e-849a-f5f6e0c5e7e4","system_id":"levelo_inurba_marseille","lat":43.32367,"lon":5.38882,"is_reserved":false,"is_disabled":false,"rental_uris":{"android":"levelo://app?vid=59f50a34-44ec-4c1e-849a-f5f6e0c5e7e4","ios":"levelo://app?vid=59f50a34-44ec-4c1e-849a-f5f6e0c5e7e4"},"vehicle_type_id":"4","last_reported":1698617138,"current_range_meters":28400,"station_id":"ce4bhqp2rcd13ifvqhog","pricing_plan_id":"free"},{"bike_id":"fffdb89f-d0fa-48b2-8a15-e8865b4139a1","system_id":"levelo_inurba_marseille","lat":43.32367,"lon":5.388836,"is_reserved":false,"is_disabled":false,"rental_uris":{"android":"levelo://app?vid=fffdb89f-d0fa-48b2-8a15-e8865b4139a1","ios":"levelo://app?vid=fffdb89f-d0fa-48b2-8a15-e8865b4139a1"},"vehicle_type_id":"4","last_reported":1698617138,"current_range_meters":1600,"station_id":"ce4bhqp2rcd13ifvqhog","pricing_plan_id":"free"},{"bike_id":"671e2fdc-9d8d-4dcf-9e86-540fefa301cc","system_id":"levelo_inurba_marseille","lat":43.32367,"lon":5.38883,"is_reserved":false,"is_disabled":false,"rental_uris":{"android":"levelo://app?vid=671e2fdc-9d8d-4dcf-9e86-540fefa301cc","ios":"levelo://app?vid=671e2fdc-9d8d-4dcf-9e86-540fefa301cc"},"vehicle_type_id":"4","last_reported":1698617138,"current_range_meters":8400,"station_id":"ce4bhqp2rcd13ifvqhog","pricing_plan_id":"free"},{"bike_id":"67bb7dbe-50ea-4249-bc98-d0ad4814b4a6","system_id":"levelo_inurba_marseille","lat":43.32367,"lon":5.388836,"is_reserved":false,"is_disabled":false,"rental_uris":{"android":"levelo://app?vid=67bb7dbe-50ea-4249-bc98-d0ad4814b4a6","ios":"levelo://app?vid=67bb7dbe-50ea-4249-bc98-d0ad4814b4a6"},"vehicle_type_id":"4","last_reported":1698617138,"current_range_meters":6800,"station_id":"ce4bhqp2rcd13ifvqhog","pricing_plan_id":"free"},{"bike_id":"abd10a78-59c2-400e-a7fb-7c39367f0939","system_id":"levelo_inurba_marseille","lat":43.323858,"lon":5.389273,"is_reserved":false,"is_disabled":false,"rental_uris":{"android":"levelo://app?vid=abd10a78-59c2-400e-a7fb-7c39367f0939","ios":"levelo://app?vid=abd10a78-59c2-400e-a7fb-7c39367f0939"},"vehicle_type_id":"4","last_reported":1698617138,"current_range_meters":0,"station_id":"ce4bhqp2rcd13ifvqhog","pricing_plan_id":"free"},{"bike_id":"e3f8bd11-2852-45ae-85b6-cede6e20a6de","system_id":"levelo_inurba_marseille","lat":43.298433,"lon":5.362774,"is_reserved":false,"is_disabled":false,"rental_uris":{"android":"levelo://app?vid=e3f8bd11-2852-45ae-85b6-cede6e20a6de","ios":"levelo://app?vid=e3f8bd11-2852-45ae-85b6-cede6e20a6de"},"vehicle_type_id":"4","last_reported":1698617138,"current_range_meters":20000,"station_id":"ce4bgpp2rcd13ifvqc3g","pricing_plan_id":"free"},{"bike_id":"3d202fa2-8564-4f69-8e37-5cb96e85e668","system_id":"levelo_inurba_marseille","lat":43.293009,"lon":5.374584,"is_reserved":false,"is_disabled":false,"rental_uris":{"android":"levelo://app?vid=3d202fa2-8564-4f69-8e37-5cb96e85e668","ios":"levelo://app?vid=3d202fa2-8564-4f69-8e37-5cb96e85e668"},"vehicle_type_id":"4","last_reported":1698617138,"current_range_meters":0,"station_id":"ce4bgi12rcd13ifvqb70","pricing_plan_id":"free"},{"bike_id":"70eb2169-7661-4b61-88ad-7ca83747ced7","system_id":"levelo_inurba_marseille","lat":43.303002,"lon":5.392142,"is_reserved":false,"is_disabled":false,"rental_uris":{"android":"levelo://app?vid=70eb2169-7661-4b61-88ad-7ca83747ced7","ios":"levelo://app?vid=70eb2169-7661-4b61-88ad-7ca83747ced7"},"vehicle_type_id":"4","last_reported":1698617138,"current_range_meters":4400,"station_id":"ce4bgkh2rcd13ifvqbk0","pricing_plan_id":"free"},{"bike_id":"2a93eacc-cf23-4637-846d-daaa5326f60b","system_id":"levelo_inurba_marseille","lat":43.29884,"lon":5.38896,"is_reserved":false,"is_disabled":false,"rental_uris":{"android":"levelo://app?vid=2a93eacc-cf23-4637-846d-daaa5326f60b","ios":"levelo://app?vid=2a93eacc-cf23-4637-846d-daaa5326f60b"},"vehicle_type_id":"4","last_reported":1698617138,"current_range_meters":7600,"station_id":"ce4bh392rcd13ifvqdl0","pricing_plan_id":"free"},{"bike_id":"0e8233d2-0d57-470f-8c07-e9f753046a4f","system_id":"levelo_inurba_marseille","lat":43.332197,"lon":5.379064,"is_reserved":false,"is_disabled":false,"rental_uris":{"android":"levelo://app?vid=0e8233d2-0d57-470f-8c07-e9f753046a4f","ios":"levelo://app?vid=0e8233d2-0d57-470f-8c07-e9f753046a4f"},"vehicle_type_id":"4","last_reported":1698617138,"current_range_meters":27600,"station_id":"","pricing_plan_id":"free"},{"bike_id":"5bf87009-e8da-442f-8908-69a19f27125a","system_id":"levelo_inurba_marseille","lat":43.298764,"lon":5.388973,"is_reserved":false,"is_disabled":false,"rental_uris":{"android":"levelo://app?vid=5bf87009-e8da-442f-8908-69a19f27125a","ios":"levelo://app?vid=5bf87009-e8da-442f-8908-69a19f27125a"},"vehicle_type_id":"4","last_reported":1698617138,"current_range_meters":5600,"station_id":"ce4bh392rcd13ifvqdl0","pricing_plan_id":"free"},{"bike_id":"1f580447-7b2c-4630-9a51-33e28281b372","system_id":"levelo_inurba_marseille","lat":43.332219,"lon":5.380002,"is_reserved":false,"is_disabled":false,"rental_uris":{"android":"levelo://app?vid=1f580447-7b2c-4630-9a51-33e28281b372","ios":"levelo://app?vid=1f580447-7b2c-4630-9a51-33e28281b372"},"vehicle_type_id":"4","last_reported":1698617138,"current_range_meters":30800,"station_id":"","pricing_plan_id":"free"},{"bike_id":"3e585604-efbe-4353-840b-177e55fb1fbd","system_id":"levelo_inurba_marseille","lat":43.30876,"lon":5.3963,"is_reserved":false,"is_disabled":false,"rental_uris":{"android":"levelo://app?vid=3e585604-efbe-4353-840b-177e55fb1fbd","ios":"levelo://app?vid=3e585604-efbe-4353-840b-177e55fb1fbd"},"vehicle_type_id":"4","last_reported":1698617138,"current_range_meters":0,"station_id":"ce4bh012rcd13ifvqcv0","pricing_plan_id":"free"},{"bike_id":"f16a7ce8-3f83-440b-923a-0e73860efea7","system_id":"levelo_inurba_marseille","lat":43.291974,"lon":5.357985,"is_reserved":false,"is_disabled":false,"rental_uris":{"android":"levelo://app?vid=f16a7ce8-3f83-440b-923a-0e73860efea7","ios":"levelo://app?vid=f16a7ce8-3f83-440b-923a-0e73860efea7"},"vehicle_type_id":"4","last_reported":1698617138,"current_range_meters":16800,"station_id":"ce4bhb12rcd13ifvqel0","pricing_plan_id":"free"},{"bike_id":"aeeb5a82-e087-4b99-a3b0-ca4d3d77a75b","system_id":"levelo_inurba_marseille","lat":43.313291,"lon":5.396838,"is_reserved":false,"is_disabled":false,"rental_uris":{"android":"levelo://app?vid=aeeb5a82-e087-4b99-a3b0-ca4d3d77a75b","ios":"levelo://app?vid=aeeb5a82-e087-4b99-a3b0-ca4d3d77a75b"},"vehicle_type_id":"4","last_reported":1698617138,"current_range_meters":15600,"station_id":"ce4bgvp2rcd13ifvqcu0","pricing_plan_id":"free"},{"bike_id":"ba30854b-4a68-40b9-a8d7-820ba2e15f23","system_id":"levelo_inurba_marseille","lat":43.29191,"lon":5.35806,"is_reserved":false,"is_disabled":false,"rental_uris":{"android":"levelo://app?vid=ba30854b-4a68-40b9-a8d7-820ba2e15f23","ios":"levelo://app?vid=ba30854b-4a68-40b9-a8d7-820ba2e15f23"},"vehicle_type_id":"4","last_reported":1698617138,"current_range_meters":0,"station_id":"ce4bhb12rcd13ifvqel0","pricing_plan_id":"free"},{"bike_id":"18b45b95-637c-4f0e-b4c7-c0583efea8e4","system_id":"levelo_inurba_marseille","lat":43.313291,"lon":5.396838,"is_reserved":false,"is_disabled":false,"rental_uris":{"android":"levelo://app?vid=18b45b95-637c-4f0e-b4c7-c0583efea8e4","ios":"levelo://app?vid=18b45b95-637c-4f0e-b4c7-c0583efea8e4"},"vehicle_type_id":"4","last_reported":1698617138,"current_range_meters":800,"station_id":"ce4bgvp2rcd13ifvqcu0","pricing_plan_id":"free"},{"bike_id":"1ccea910-e6fd-4ade-beaa-d1141e72e330","system_id":"levelo_inurba_marseille","lat":43.313308,"lon":5.396969,"is_reserved":false,"is_disabled":false,"rental_uris":{"android":"levelo://app?vid=1ccea910-e6fd-4ade-beaa-d1141e72e330","ios":"levelo://app?vid=1ccea910-e6fd-4ade-beaa-d1141e72e330"},"vehicle_type_id":"4","last_reported":1698617138,"current_range_meters":16800,"station_id":"ce4bgvp2rcd13ifvqcu0","pricing_plan_id":"free"},{"bike_id":"edebf079-ab31-4b75-a223-ec0a19373a5a","system_id":"levelo_inurba_marseille","lat":43.290779,"lon":5.371482,"is_reserved":false,"is_disabled":false,"rental_uris":{"android":"levelo://app?vid=edebf079-ab31-4b75-a223-ec0a19373a5a","ios":"levelo://app?vid=edebf079-ab31-4b75-a223-ec0a19373a5a"},"vehicle_type_id":"4","last_reported":1698617138,"current_range_meters":3600,"station_id":"ce4bh5p2rcd13ifvqe4g","pricing_plan_id":"free"},{"bike_id":"9e186f55-d906-4b54-9553-eed70e222375","system_id":"levelo_inurba_marseille","lat":43.331003,"lon":5.385589,"is_reserved":false,"is_disabled":false,"rental_uris":{"android":"levelo://app?vid=9e186f55-d906-4b54-9553-eed70e222375","ios":"levelo://app?vid=9e186f55-d906-4b54-9553-eed70e222375"},"vehicle_type_id":"4","last_reported":1698617138,"current_range_meters":23600,"station_id":"","pricing_plan_id":"free"},{"bike_id":"2d466583-1d2c-4a28-84eb-9e10e8039f51","system_id":"levelo_inurba_marseille","lat":43.290631,"lon":5.359244,"is_reserved":false,"is_disabled":false,"rental_uris":{"android":"levelo://app?vid=2d466583-1d2c-4a28-84eb-9e10e8039f51","ios":"levelo://app?vid=2d466583-1d2c-4a28-84eb-9e10e8039f51"},"vehicle_type_id":"4","last_reported":1698617138,"current_range_meters":8400,"station_id":"ce4bha92rcd13ifvqeg0","pricing_plan_id":"free"},{"bike_id":"b7f9e334-ad60-41e1-b74b-e599907c959c","system_id":"levelo_inurba_marseille","lat":43.290624,"lon":5.359245,"is_reserved":false,"is_disabled":false,"rental_uris":{"android":"levelo://app?vid=b7f9e334-ad60-41e1-b74b-e599907c959c","ios":"levelo://app?vid=b7f9e334-ad60-41e1-b74b-e599907c959c"},"vehicle_type_id":"4","last_reported":1698617138,"current_range_meters":13200,"station_id":"ce4bha92rcd13ifvqeg0","pricing_plan_id":"free"},{"bike_id":"88727dd3-42bb-41aa-8b1e-805680672550","system_id":"levelo_inurba_marseille","lat":43.290631,"lon":5.359244,"is_reserved":false,"is_disabled":false,"rental_uris":{"android":"levelo://app?vid=88727dd3-42bb-41aa-8b1e-805680672550","ios":"levelo://app?vid=88727dd3-42bb-41aa-8b1e-805680672550"},"vehicle_type_id":"4","last_reported":1698617138,"current_range_meters":29600,"station_id":"ce4bha92rcd13ifvqeg0","pricing_plan_id":"free"},{"bike_id":"1773622b-9ee7-451c-a816-7cc525024ce1","system_id":"levelo_inurba_marseille","lat":43.289621,"lon":5.36385,"is_reserved":false,"is_disabled":false,"rental_uris":{"android":"levelo://app?vid=1773622b-9ee7-451c-a816-7cc525024ce1","ios":"levelo://app?vid=1773622b-9ee7-451c-a816-7cc525024ce1"},"vehicle_type_id":"4","last_reported":1698617138,"current_range_meters":1600,"station_id":"ce4bhc92rcd13ifvqetg","pricing_plan_id":"free"},{"bike_id":"a6211470-cd0a-40a4-858e-c8c486bfd8b1","system_id":"levelo_inurba_marseille","lat":43.289468,"lon":5.363719,"is_reserved":false,"is_disabled":false,"rental_uris":{"android":"levelo://app?vid=a6211470-cd0a-40a4-858e-c8c486bfd8b1","ios":"levelo://app?vid=a6211470-cd0a-40a4-858e-c8c486bfd8b1"},"vehicle_type_id":"4","last_reported":1698617138,"current_range_meters":31200,"station_id":"ce4bhc92rcd13ifvqetg","pricing_plan_id":"free"},{"bike_id":"0697a4c7-e9b4-475e-b066-2c4aaff49118","system_id":"levelo_inurba_marseille","lat":43.289468,"lon":5.363719,"is_reserved":false,"is_disabled":false,"rental_uris":{"android":"levelo://app?vid=0697a4c7-e9b4-475e-b066-2c4aaff49118","ios":"levelo://app?vid=0697a4c7-e9b4-475e-b066-2c4aaff49118"},"vehicle_type_id":"4","last_reported":1698617138,"current_range_meters":12400,"station_id":"ce4bhc92rcd13ifvqetg","pricing_plan_id":"free"},{"bike_id":"1e53fc98-da1c-4164-a2c1-5205c991e29c","system_id":"levelo_inurba_marseille","lat":43.292644,"lon":5.384257,"is_reserved":false,"is_disabled":false,"rental_uris":{"android":"levelo://app?vid=1e53fc98-da1c-4164-a2c1-5205c991e29c","ios":"levelo://app?vid=1e53fc98-da1c-4164-a2c1-5205c991e29c"},"vehicle_type_id":"4","last_reported":1698617138,"current_range_meters":24000,"station_id":"ce4bh692rcd13ifvqea0","pricing_plan_id":"free"},{"bike_id":"46b0c2bd-3630-4db3-a1e6-5b1b785f7b6f","system_id":"levelo_inurba_marseille","lat":43.33043,"lon":5.38917,"is_reserved":false,"is_disabled":false,"rental_uris":{"android":"levelo://app?vid=46b0c2bd-3630-4db3-a1e6-5b1b785f7b6f","ios":"levelo://app?vid=46b0c2bd-3630-4db3-a1e6-5b1b785f7b6f"},"vehicle_type_id":"4","last_reported":1698617138,"current_range_meters":7600,"station_id":"ce4bhr92rcd13ifvqhrg","pricing_plan_id":"free"},{"bike_id":"c10da6c2-beda-4ee6-b96c-ba5d86476fb1","system_id":"levelo_inurba_marseille","lat":43.33042,"lon":5.38919,"is_reserved":false,"is_disabled":false,"rental_uris":{"android":"levelo://app?vid=c10da6c2-beda-4ee6-b96c-ba5d86476fb1","ios":"levelo://app?vid=c10da6c2-beda-4ee6-b96c-ba5d86476fb1"},"vehicle_type_id":"4","last_reported":1698617138,"current_range_meters":18400,"station_id":"ce4bhr92rcd13ifvqhrg","pricing_plan_id":"free"},{"bike_id":"d5d3925f-f867-4392-8d62-29b79e249aaa","system_id":"levelo_inurba_marseille","lat":43.330442,"lon":5.389148,"is_reserved":false,"is_disabled":false,"rental_uris":{"android":"levelo://app?vid=d5d3925f-f867-4392-8d62-29b79e249aaa","ios":"levelo://app?vid=d5d3925f-f867-4392-8d62-29b79e249aaa"},"vehicle_type_id":"4","last_reported":1698617138,"current_range_meters":22000,"station_id":"ce4bhr92rcd13ifvqhrg","pricing_plan_id":"free"},{"bike_id":"64144b34-46b8-45e1-aab1-3423b2bc3cdf","system_id":"levelo_inurba_marseille","lat":43.290104,"lon":5.356111,"is_reserved":false,"is_disabled":false,"rental_uris":{"android":"levelo://app?vid=64144b34-46b8-45e1-aab1-3423b2bc3cdf","ios":"levelo://app?vid=64144b34-46b8-45e1-aab1-3423b2bc3cdf"},"vehicle_type_id":"4","last_reported":1698617138,"current_range_meters":23200,"station_id":"ce4bhb92rcd13ifvqen0","pricing_plan_id":"free"},{"bike_id":"0eff0305-e9ce-4a1b-931b-a217ffec80d0","system_id":"levelo_inurba_marseille","lat":43.330442,"lon":5.389148,"is_reserved":false,"is_disabled":false,"rental_uris":{"android":"levelo://app?vid=0eff0305-e9ce-4a1b-931b-a217ffec80d0","ios":"levelo://app?vid=0eff0305-e9ce-4a1b-931b-a217ffec80d0"},"vehicle_type_id":"4","last_reported":1698617138,"current_range_meters":19600,"station_id":"ce4bhr92rcd13ifvqhrg","pricing_plan_id":"free"},{"bike_id":"8ec8b72c-dd6f-469d-aee0-017da7f125f4","system_id":"levelo_inurba_marseille","lat":43.330442,"lon":5.389148,"is_reserved":false,"is_disabled":false,"rental_uris":{"android":"levelo://app?vid=8ec8b72c-dd6f-469d-aee0-017da7f125f4","ios":"levelo://app?vid=8ec8b72c-dd6f-469d-aee0-017da7f125f4"},"vehicle_type_id":"4","last_reported":1698617138,"current_range_meters":4800,"station_id":"ce4bhr92rcd13ifvqhrg","pricing_plan_id":"free"},{"bike_id":"e56fac8a-9820-411e-a6f7-b51b7301494e","system_id":"levelo_inurba_marseille","lat":43.290104,"lon":5.356111,"is_reserved":false,"is_disabled":false,"rental_uris":{"android":"levelo://app?vid=e56fac8a-9820-411e-a6f7-b51b7301494e","ios":"levelo://app?vid=e56fac8a-9820-411e-a6f7-b51b7301494e"},"vehicle_type_id":"4","last_reported":1698617138,"current_range_meters":8000,"station_id":"ce4bhb92rcd13ifvqen0","pricing_plan_id":"free"},{"bike_id":"51a9d447-9f51-4453-ac00-a564b0af2a9f","system_id":"levelo_inurba_marseille","lat":43.290104,"lon":5.356111,"is_reserved":false,"is_disabled":false,"rental_uris":{"android":"levelo://app?vid=51a9d447-9f51-4453-ac00-a564b0af2a9f","ios":"levelo://app?vid=51a9d447-9f51-4453-ac00-a564b0af2a9f"},"vehicle_type_id":"4","last_reported":1698617138,"current_range_meters":30800,"station_id":"ce4bhb92rcd13ifvqen0","pricing_plan_id":"free"},{"bike_id":"dfc692d1-905e-4c58-930b-9b7620817eb4","system_id":"levelo_inurba_marseille","lat":43.290103,"lon":5.356114,"is_reserved":false,"is_disabled":false,"rental_uris":{"android":"levelo://app?vid=dfc692d1-905e-4c58-930b-9b7620817eb4","ios":"levelo://app?vid=dfc692d1-905e-4c58-930b-9b7620817eb4"},"vehicle_type_id":"4","last_reported":1698617138,"current_range_meters":25200,"station_id":"ce4bhb92rcd13ifvqen0","pricing_plan_id":"free"},{"bike_id":"8a4cb22a-a2b6-4aeb-88e9-54480f7d381e","system_id":"levelo_inurba_marseille","lat":43.290104,"lon":5.356111,"is_reserved":false,"is_disabled":false,"rental_uris":{"android":"levelo://app?vid=8a4cb22a-a2b6-4aeb-88e9-54480f7d381e","ios":"levelo://app?vid=8a4cb22a-a2b6-4aeb-88e9-54480f7d381e"},"vehicle_type_id":"4","last_reported":1698617138,"current_range_meters":6400,"station_id":"ce4bhb92rcd13ifvqen0","pricing_plan_id":"free"},{"bike_id":"e0d713cd-ec81-44ec-8ba4-571dd76a2b05","system_id":"levelo_inurba_marseille","lat":43.295169,"lon":5.390426,"is_reserved":false,"is_disabled":false,"rental_uris":{"android":"levelo://app?vid=e0d713cd-ec81-44ec-8ba4-571dd76a2b05","ios":"levelo://app?vid=e0d713cd-ec81-44ec-8ba4-571dd76a2b05"},"vehicle_type_id":"4","last_reported":1698617138,"current_range_meters":23200,"station_id":"ce4bh3p2rcd13ifvqdp0","pricing_plan_id":"free"},{"bike_id":"eb1631ad-21eb-4f5c-8f50-ff6bb461367d","system_id":"levelo_inurba_marseille","lat":43.288383,"lon":5.366551,"is_reserved":false,"is_disabled":false,"rental_uris":{"android":"levelo://app?vid=eb1631ad-21eb-4f5c-8f50-ff6bb461367d","ios":"levelo://app?vid=eb1631ad-21eb-4f5c-8f50-ff6bb461367d"},"vehicle_type_id":"4","last_reported":1698617138,"current_range_meters":14400,"station_id":"","pricing_plan_id":"free"},{"bike_id":"d6c2b89a-784d-47e9-ab63-3f943866ae8c","system_id":"levelo_inurba_marseille","lat":43.297815,"lon":5.393548,"is_reserved":false,"is_disabled":false,"rental_uris":{"android":"levelo://app?vid=d6c2b89a-784d-47e9-ab63-3f943866ae8c","ios":"levelo://app?vid=d6c2b89a-784d-47e9-ab63-3f943866ae8c"},"vehicle_type_id":"4","last_reported":1698617138,"current_range_meters":0,"station_id":"chh1huq6cuj3fo74tm60","pricing_plan_id":"free"},{"bike_id":"162d9f4c-522d-4730-84ee-6144fa4f4405","system_id":"levelo_inurba_marseille","lat":43.2978,"lon":5.39339,"is_reserved":false,"is_disabled":false,"rental_uris":{"android":"levelo://app?vid=162d9f4c-522d-4730-84ee-6144fa4f4405","ios":"levelo://app?vid=162d9f4c-522d-4730-84ee-6144fa4f4405"},"vehicle_type_id":"4","last_reported":1698617138,"current_range_meters":12400,"station_id":"chh1huq6cuj3fo74tm60","pricing_plan_id":"free"},{"bike_id":"13b584be-3b7b-491b-8737-0253eb7d1c6d","system_id":"levelo_inurba_marseille","lat":43.28856,"lon":5.358371,"is_reserved":false,"is_disabled":false,"rental_uris":{"android":"levelo://app?vid=13b584be-3b7b-491b-8737-0253eb7d1c6d","ios":"levelo://app?vid=13b584be-3b7b-491b-8737-0253eb7d1c6d"},"vehicle_type_id":"4","last_reported":1698617138,"current_range_meters":3600,"station_id":"ce4bhb12rcd13ifvqem0","pricing_plan_id":"free"},{"bike_id":"7ee0ef27-faeb-46b1-a529-2252ce86eb86","system_id":"levelo_inurba_marseille","lat":43.28856,"lon":5.358371,"is_reserved":false,"is_disabled":false,"rental_uris":{"android":"levelo://app?vid=7ee0ef27-faeb-46b1-a529-2252ce86eb86","ios":"levelo://app?vid=7ee0ef27-faeb-46b1-a529-2252ce86eb86"},"vehicle_type_id":"4","last_reported":1698617138,"current_range_meters":0,"station_id":"ce4bhb12rcd13ifvqem0","pricing_plan_id":"free"},{"bike_id":"7b79906c-0596-4ff7-857e-75b98276907f","system_id":"levelo_inurba_marseille","lat":43.28856,"lon":5.358371,"is_reserved":false,"is_disabled":false,"rental_uris":{"android":"levelo://app?vid=7b79906c-0596-4ff7-857e-75b98276907f","ios":"levelo://app?vid=7b79906c-0596-4ff7-857e-75b98276907f"},"vehicle_type_id":"4","last_reported":1698617138,"current_range_meters":22000,"station_id":"ce4bhb12rcd13ifvqem0","pricing_plan_id":"free"},{"bike_id":"5ab8e17e-809e-45e4-9dd3-67440142c155","system_id":"levelo_inurba_marseille","lat":43.309371,"lon":5.401449,"is_reserved":false,"is_disabled":false,"rental_uris":{"android":"levelo://app?vid=5ab8e17e-809e-45e4-9dd3-67440142c155","ios":"levelo://app?vid=5ab8e17e-809e-45e4-9dd3-67440142c155"},"vehicle_type_id":"4","last_reported":1698617138,"current_range_meters":3200,"station_id":"ce4bgvp2rcd13ifvqct0","pricing_plan_id":"free"},{"bike_id":"ffc3fe4d-9429-4086-94ef-8f19136b3b3f","system_id":"levelo_inurba_marseille","lat":43.337534,"lon":5.37439,"is_reserved":false,"is_disabled":false,"rental_uris":{"android":"levelo://app?vid=ffc3fe4d-9429-4086-94ef-8f19136b3b3f","ios":"levelo://app?vid=ffc3fe4d-9429-4086-94ef-8f19136b3b3f"},"vehicle_type_id":"4","last_reported":1698617138,"current_range_meters":29200,"station_id":"","pricing_plan_id":"free"},{"bike_id":"008e2b77-78c4-44d7-9932-2f5baf62ff68","system_id":"levelo_inurba_marseille","lat":43.306412,"lon":5.401035,"is_reserved":false,"is_disabled":false,"rental_uris":{"android":"levelo://app?vid=008e2b77-78c4-44d7-9932-2f5baf62ff68","ios":"levelo://app?vid=008e2b77-78c4-44d7-9932-2f5baf62ff68"},"vehicle_type_id":"4","last_reported":1698617138,"current_range_meters":5600,"station_id":"ce4bh112rcd13ifvqda0","pricing_plan_id":"free"},{"bike_id":"b231822a-119b-4312-911c-e2fb07219e92","system_id":"levelo_inurba_marseille","lat":43.337598,"lon":5.374577,"is_reserved":false,"is_disabled":false,"rental_uris":{"android":"levelo://app?vid=b231822a-119b-4312-911c-e2fb07219e92","ios":"levelo://app?vid=b231822a-119b-4312-911c-e2fb07219e92"},"vehicle_type_id":"4","last_reported":1698617138,"current_range_meters":27200,"station_id":"","pricing_plan_id":"free"},{"bike_id":"719733c6-957a-4c3e-b64a-aef2d958712f","system_id":"levelo_inurba_marseille","lat":43.306412,"lon":5.401035,"is_reserved":false,"is_disabled":false,"rental_uris":{"android":"levelo://app?vid=719733c6-957a-4c3e-b64a-aef2d958712f","ios":"levelo://app?vid=719733c6-957a-4c3e-b64a-aef2d958712f"},"vehicle_type_id":"4","last_reported":1698617138,"current_range_meters":3200,"station_id":"ce4bh112rcd13ifvqda0","pricing_plan_id":"free"},{"bike_id":"ea05b300-2454-44b0-a78e-1f53848a01e1","system_id":"levelo_inurba_marseille","lat":43.306412,"lon":5.401035,"is_reserved":false,"is_disabled":false,"rental_uris":{"android":"levelo://app?vid=ea05b300-2454-44b0-a78e-1f53848a01e1","ios":"levelo://app?vid=ea05b300-2454-44b0-a78e-1f53848a01e1"},"vehicle_type_id":"4","last_reported":1698617138,"current_range_meters":7600,"station_id":"ce4bh112rcd13ifvqda0","pricing_plan_id":"free"},{"bike_id":"8fa49ebe-2c54-4f44-92f2-404b7cb9f180","system_id":"levelo_inurba_marseille","lat":43.306412,"lon":5.401035,"is_reserved":false,"is_disabled":false,"rental_uris":{"android":"levelo://app?vid=8fa49ebe-2c54-4f44-92f2-404b7cb9f180","ios":"levelo://app?vid=8fa49ebe-2c54-4f44-92f2-404b7cb9f180"},"vehicle_type_id":"4","last_reported":1698617138,"current_range_meters":28000,"station_id":"ce4bh112rcd13ifvqda0","pricing_plan_id":"free"},{"bike_id":"dbcd3e2b-9d40-43c0-aeb3-996fe6861398","system_id":"levelo_inurba_marseille","lat":43.30135,"lon":5.39862,"is_reserved":false,"is_disabled":false,"rental_uris":{"android":"levelo://app?vid=dbcd3e2b-9d40-43c0-aeb3-996fe6861398","ios":"levelo://app?vid=dbcd3e2b-9d40-43c0-aeb3-996fe6861398"},"vehicle_type_id":"4","last_reported":1698617138,"current_range_meters":22000,"station_id":"ce4bh0h2rcd13ifvqd40","pricing_plan_id":"free"},{"bike_id":"ef1808d4-4ef7-46ef-bd00-143cb54da8ad","system_id":"levelo_inurba_marseille","lat":43.28727,"lon":5.36078,"is_reserved":false,"is_disabled":false,"rental_uris":{"android":"levelo://app?vid=ef1808d4-4ef7-46ef-bd00-143cb54da8ad","ios":"levelo://app?vid=ef1808d4-4ef7-46ef-bd00-143cb54da8ad"},"vehicle_type_id":"4","last_reported":1698617138,"current_range_meters":16800,"station_id":"cki0cbj6b192h4jlfktg","pricing_plan_id":"free"},{"bike_id":"0f6931eb-6f1c-4afb-9de3-a9ff747fac84","system_id":"levelo_inurba_marseille","lat":43.28727,"lon":5.36078,"is_reserved":false,"is_disabled":false,"rental_uris":{"android":"levelo://app?vid=0f6931eb-6f1c-4afb-9de3-a9ff747fac84","ios":"levelo://app?vid=0f6931eb-6f1c-4afb-9de3-a9ff747fac84"},"vehicle_type_id":"4","last_reported":1698617138,"current_range_meters":31200,"station_id":"cki0cbj6b192h4jlfktg","pricing_plan_id":"free"},{"bike_id":"97abed36-146b-4f7a-bf59-cd8799f8738b","system_id":"levelo_inurba_marseille","lat":43.28727,"lon":5.36078,"is_reserved":false,"is_disabled":false,"rental_uris":{"android":"levelo://app?vid=97abed36-146b-4f7a-bf59-cd8799f8738b","ios":"levelo://app?vid=97abed36-146b-4f7a-bf59-cd8799f8738b"},"vehicle_type_id":"4","last_reported":1698617138,"current_range_meters":19600,"station_id":"cki0cbj6b192h4jlfktg","pricing_plan_id":"free"},{"bike_id":"4ff3df2d-e9bc-4065-b4ee-766dab0590af","system_id":"levelo_inurba_marseille","lat":43.298681,"lon":5.397225,"is_reserved":false,"is_disabled":false,"rental_uris":{"android":"levelo://app?vid=4ff3df2d-e9bc-4065-b4ee-766dab0590af","ios":"levelo://app?vid=4ff3df2d-e9bc-4065-b4ee-766dab0590af"},"vehicle_type_id":"4","last_reported":1698617138,"current_range_meters":4800,"station_id":"ce4bh0h2rcd13ifvqd50","pricing_plan_id":"free"},{"bike_id":"288187b6-71b6-4081-ad87-e663384a0fb5","system_id":"levelo_inurba_marseille","lat":43.291994,"lon":5.392907,"is_reserved":false,"is_disabled":false,"rental_uris":{"android":"levelo://app?vid=288187b6-71b6-4081-ad87-e663384a0fb5","ios":"levelo://app?vid=288187b6-71b6-4081-ad87-e663384a0fb5"},"vehicle_type_id":"4","last_reported":1698617138,"current_range_meters":2400,"station_id":"ce4bh192rcd13ifvqdd0","pricing_plan_id":"free"},{"bike_id":"1622a35e-0195-4296-9b74-d4034fae19e8","system_id":"levelo_inurba_marseille","lat":43.295194,"lon":5.39397,"is_reserved":false,"is_disabled":false,"rental_uris":{"android":"levelo://app?vid=1622a35e-0195-4296-9b74-d4034fae19e8","ios":"levelo://app?vid=1622a35e-0195-4296-9b74-d4034fae19e8"},"vehicle_type_id":"4","last_reported":1698617138,"current_range_meters":8800,"station_id":"ce4bh292rcd13ifvqdf0","pricing_plan_id":"free"},{"bike_id":"784f5d2d-5be3-4d28-a6a7-14e353d50978","system_id":"levelo_inurba_marseille","lat":43.289294,"lon":5.383922,"is_reserved":false,"is_disabled":false,"rental_uris":{"android":"levelo://app?vid=784f5d2d-5be3-4d28-a6a7-14e353d50978","ios":"levelo://app?vid=784f5d2d-5be3-4d28-a6a7-14e353d50978"},"vehicle_type_id":"4","last_reported":1698617138,"current_range_meters":20000,"station_id":"ce4bh612rcd13ifvqe6g","pricing_plan_id":"free"},{"bike_id":"a8f2e19f-28dc-4a46-85d9-0b2ef65bb318","system_id":"levelo_inurba_marseille","lat":43.289295,"lon":5.383923,"is_reserved":false,"is_disabled":false,"rental_uris":{"android":"levelo://app?vid=a8f2e19f-28dc-4a46-85d9-0b2ef65bb318","ios":"levelo://app?vid=a8f2e19f-28dc-4a46-85d9-0b2ef65bb318"},"vehicle_type_id":"4","last_reported":1698617138,"current_range_meters":14800,"station_id":"","pricing_plan_id":"free"},{"bike_id":"54994914-4930-48f8-97ee-1f1552fb3885","system_id":"levelo_inurba_marseille","lat":43.289288,"lon":5.383925,"is_reserved":false,"is_disabled":false,"rental_uris":{"android":"levelo://app?vid=54994914-4930-48f8-97ee-1f1552fb3885","ios":"levelo://app?vid=54994914-4930-48f8-97ee-1f1552fb3885"},"vehicle_type_id":"4","last_reported":1698617138,"current_range_meters":31600,"station_id":"ce4bh612rcd13ifvqe6g","pricing_plan_id":"free"},{"bike_id":"164913a9-3f9b-4ec5-9e75-6a34c4c137f2","system_id":"levelo_inurba_marseille","lat":43.29024,"lon":5.38628,"is_reserved":false,"is_disabled":false,"rental_uris":{"android":"levelo://app?vid=164913a9-3f9b-4ec5-9e75-6a34c4c137f2","ios":"levelo://app?vid=164913a9-3f9b-4ec5-9e75-6a34c4c137f2"},"vehicle_type_id":"4","last_reported":1698617138,"current_range_meters":15200,"station_id":"ce4bh4p2rcd13ifvqe0g","pricing_plan_id":"free"},{"bike_id":"b07e15b2-5660-4bc4-8f68-e7f725e4c89c","system_id":"levelo_inurba_marseille","lat":43.29028,"lon":5.38641,"is_reserved":false,"is_disabled":false,"rental_uris":{"android":"levelo://app?vid=b07e15b2-5660-4bc4-8f68-e7f725e4c89c","ios":"levelo://app?vid=b07e15b2-5660-4bc4-8f68-e7f725e4c89c"},"vehicle_type_id":"4","last_reported":1698617138,"current_range_meters":20800,"station_id":"ce4bh4p2rcd13ifvqe0g","pricing_plan_id":"free"},{"bike_id":"35741105-56df-4cbe-9697-e65624c43e1d","system_id":"levelo_inurba_marseille","lat":43.28922,"lon":5.38389,"is_reserved":false,"is_disabled":false,"rental_uris":{"android":"levelo://app?vid=35741105-56df-4cbe-9697-e65624c43e1d","ios":"levelo://app?vid=35741105-56df-4cbe-9697-e65624c43e1d"},"vehicle_type_id":"4","last_reported":1698617138,"current_range_meters":12400,"station_id":"ce4bh612rcd13ifvqe6g","pricing_plan_id":"free"},{"bike_id":"854284a1-c4b1-4dc1-8bc2-300f8bdc61e7","system_id":"levelo_inurba_marseille","lat":43.30246,"lon":5.400608,"is_reserved":false,"is_disabled":false,"rental_uris":{"android":"levelo://app?vid=854284a1-c4b1-4dc1-8bc2-300f8bdc61e7","ios":"levelo://app?vid=854284a1-c4b1-4dc1-8bc2-300f8bdc61e7"},"vehicle_type_id":"4","last_reported":1698617138,"current_range_meters":30000,"station_id":"ce4bgvh2rcd13ifvqcs0","pricing_plan_id":"free"},{"bike_id":"4ae9f7e6-8057-406b-abb8-f0adc03adba3","system_id":"levelo_inurba_marseille","lat":43.289307,"lon":5.38406,"is_reserved":false,"is_disabled":false,"rental_uris":{"android":"levelo://app?vid=4ae9f7e6-8057-406b-abb8-f0adc03adba3","ios":"levelo://app?vid=4ae9f7e6-8057-406b-abb8-f0adc03adba3"},"vehicle_type_id":"4","last_reported":1698617138,"current_range_meters":27600,"station_id":"ce4bh612rcd13ifvqe6g","pricing_plan_id":"free"},{"bike_id":"56dce50a-5fce-48dc-a9f1-3e39a230c0d6","system_id":"levelo_inurba_marseille","lat":43.286039,"lon":5.370679,"is_reserved":false,"is_disabled":false,"rental_uris":{"android":"levelo://app?vid=56dce50a-5fce-48dc-a9f1-3e39a230c0d6","ios":"levelo://app?vid=56dce50a-5fce-48dc-a9f1-3e39a230c0d6"},"vehicle_type_id":"4","last_reported":1698617138,"current_range_meters":31200,"station_id":"ce4bht12rcd13ifvqi60","pricing_plan_id":"free"},{"bike_id":"5fb1fda2-ecf7-47e7-89fa-3666ff7fb54b","system_id":"levelo_inurba_marseille","lat":43.28611,"lon":5.37061,"is_reserved":false,"is_disabled":false,"rental_uris":{"android":"levelo://app?vid=5fb1fda2-ecf7-47e7-89fa-3666ff7fb54b","ios":"levelo://app?vid=5fb1fda2-ecf7-47e7-89fa-3666ff7fb54b"},"vehicle_type_id":"4","last_reported":1698617138,"current_range_meters":25600,"station_id":"ce4bht12rcd13ifvqi60","pricing_plan_id":"free"},{"bike_id":"0db9e5d0-a6a2-4bcc-b616-9f5cc668017f","system_id":"levelo_inurba_marseille","lat":43.286115,"lon":5.370737,"is_reserved":false,"is_disabled":false,"rental_uris":{"android":"levelo://app?vid=0db9e5d0-a6a2-4bcc-b616-9f5cc668017f","ios":"levelo://app?vid=0db9e5d0-a6a2-4bcc-b616-9f5cc668017f"},"vehicle_type_id":"4","last_reported":1698617138,"current_range_meters":4400,"station_id":"ce4bht12rcd13ifvqi60","pricing_plan_id":"free"},{"bike_id":"97e56e19-f979-4114-bb24-a90c55d7f36c","system_id":"levelo_inurba_marseille","lat":43.287185,"lon":5.379373,"is_reserved":false,"is_disabled":false,"rental_uris":{"android":"levelo://app?vid=97e56e19-f979-4114-bb24-a90c55d7f36c","ios":"levelo://app?vid=97e56e19-f979-4114-bb24-a90c55d7f36c"},"vehicle_type_id":"4","last_reported":1698617138,"current_range_meters":25200,"station_id":"ce4bh9p2rcd13ifvqec0","pricing_plan_id":"free"},{"bike_id":"c5aee890-15dd-435e-b99d-549132d9c092","system_id":"levelo_inurba_marseille","lat":43.316487,"lon":5.40432,"is_reserved":false,"is_disabled":false,"rental_uris":{"android":"levelo://app?vid=c5aee890-15dd-435e-b99d-549132d9c092","ios":"levelo://app?vid=c5aee890-15dd-435e-b99d-549132d9c092"},"vehicle_type_id":"4","last_reported":1698617138,"current_range_meters":11600,"station_id":"ce4bh012rcd13ifvqd00","pricing_plan_id":"free"},{"bike_id":"1312867e-8786-4875-92a6-31ba4d0452c7","system_id":"levelo_inurba_marseille","lat":43.291994,"lon":5.392907,"is_reserved":false,"is_disabled":false,"rental_uris":{"android":"levelo://app?vid=1312867e-8786-4875-92a6-31ba4d0452c7","ios":"levelo://app?vid=1312867e-8786-4875-92a6-31ba4d0452c7"},"vehicle_type_id":"4","last_reported":1698617138,"current_range_meters":10400,"station_id":"ce4bh192rcd13ifvqdd0","pricing_plan_id":"free"},{"bike_id":"a86df75d-f45b-4f89-9d84-88e193f220e0","system_id":"levelo_inurba_marseille","lat":43.291994,"lon":5.392907,"is_reserved":false,"is_disabled":false,"rental_uris":{"android":"levelo://app?vid=a86df75d-f45b-4f89-9d84-88e193f220e0","ios":"levelo://app?vid=a86df75d-f45b-4f89-9d84-88e193f220e0"},"vehicle_type_id":"4","last_reported":1698617138,"current_range_meters":400,"station_id":"ce4bh192rcd13ifvqdd0","pricing_plan_id":"free"},{"bike_id":"1481cda6-bacb-4e6f-80f6-e3efbd5c3a44","system_id":"levelo_inurba_marseille","lat":43.291994,"lon":5.392907,"is_reserved":false,"is_disabled":false,"rental_uris":{"android":"levelo://app?vid=1481cda6-bacb-4e6f-80f6-e3efbd5c3a44","ios":"levelo://app?vid=1481cda6-bacb-4e6f-80f6-e3efbd5c3a44"},"vehicle_type_id":"4","last_reported":1698617138,"current_range_meters":21600,"station_id":"ce4bh192rcd13ifvqdd0","pricing_plan_id":"free"},{"bike_id":"a1433d23-5e23-4d67-8941-ba2e7fd5fb13","system_id":"levelo_inurba_marseille","lat":43.291994,"lon":5.392907,"is_reserved":false,"is_disabled":false,"rental_uris":{"android":"levelo://app?vid=a1433d23-5e23-4d67-8941-ba2e7fd5fb13","ios":"levelo://app?vid=a1433d23-5e23-4d67-8941-ba2e7fd5fb13"},"vehicle_type_id":"4","last_reported":1698617138,"current_range_meters":0,"station_id":"ce4bh192rcd13ifvqdd0","pricing_plan_id":"free"},{"bike_id":"ce218e52-a7bd-498a-af2c-898b3512203e","system_id":"levelo_inurba_marseille","lat":43.28462,"lon":5.3588,"is_reserved":false,"is_disabled":false,"rental_uris":{"android":"levelo://app?vid=ce218e52-a7bd-498a-af2c-898b3512203e","ios":"levelo://app?vid=ce218e52-a7bd-498a-af2c-898b3512203e"},"vehicle_type_id":"4","last_reported":1698617138,"current_range_meters":8800,"station_id":"ce4bhah2rcd13ifvqei0","pricing_plan_id":"free"},{"bike_id":"bcd00e1f-8c5e-4ea4-a802-ccbca3d288b9","system_id":"levelo_inurba_marseille","lat":43.28457,"lon":5.35893,"is_reserved":false,"is_disabled":false,"rental_uris":{"android":"levelo://app?vid=bcd00e1f-8c5e-4ea4-a802-ccbca3d288b9","ios":"levelo://app?vid=bcd00e1f-8c5e-4ea4-a802-ccbca3d288b9"},"vehicle_type_id":"4","last_reported":1698617138,"current_range_meters":16000,"station_id":"ce4bhah2rcd13ifvqei0","pricing_plan_id":"free"},{"bike_id":"7b88d97e-8b57-4d71-a61c-212fd1b88409","system_id":"levelo_inurba_marseille","lat":43.28457,"lon":5.35885,"is_reserved":false,"is_disabled":false,"rental_uris":{"android":"levelo://app?vid=7b88d97e-8b57-4d71-a61c-212fd1b88409","ios":"levelo://app?vid=7b88d97e-8b57-4d71-a61c-212fd1b88409"},"vehicle_type_id":"4","last_reported":1698617138,"current_range_meters":0,"station_id":"ce4bhah2rcd13ifvqei0","pricing_plan_id":"free"},{"bike_id":"c25bec2f-f3f7-4b74-aeab-105047b0e59f","system_id":"levelo_inurba_marseille","lat":43.28431,"lon":5.35801,"is_reserved":false,"is_disabled":false,"rental_uris":{"android":"levelo://app?vid=c25bec2f-f3f7-4b74-aeab-105047b0e59f","ios":"levelo://app?vid=c25bec2f-f3f7-4b74-aeab-105047b0e59f"},"vehicle_type_id":"4","last_reported":1698617138,"current_range_meters":4000,"station_id":"","pricing_plan_id":"free"},{"bike_id":"0377452f-25b8-4b46-94cb-dbfbc50b14ca","system_id":"levelo_inurba_marseille","lat":43.28416,"lon":5.37515,"is_reserved":false,"is_disabled":false,"rental_uris":{"android":"levelo://app?vid=0377452f-25b8-4b46-94cb-dbfbc50b14ca","ios":"levelo://app?vid=0377452f-25b8-4b46-94cb-dbfbc50b14ca"},"vehicle_type_id":"4","last_reported":1698617138,"current_range_meters":15600,"station_id":"ce4bh412rcd13ifvqds0","pricing_plan_id":"free"},{"bike_id":"4fdb268d-38cf-4cad-929b-d569b625694f","system_id":"levelo_inurba_marseille","lat":43.283998,"lon":5.375062,"is_reserved":false,"is_disabled":false,"rental_uris":{"android":"levelo://app?vid=4fdb268d-38cf-4cad-929b-d569b625694f","ios":"levelo://app?vid=4fdb268d-38cf-4cad-929b-d569b625694f"},"vehicle_type_id":"4","last_reported":1698617138,"current_range_meters":11600,"station_id":"ce4bh412rcd13ifvqds0","pricing_plan_id":"free"},{"bike_id":"69f289b3-17a6-4fa3-bd05-3f381fa2db06","system_id":"levelo_inurba_marseille","lat":43.283998,"lon":5.375062,"is_reserved":false,"is_disabled":false,"rental_uris":{"android":"levelo://app?vid=69f289b3-17a6-4fa3-bd05-3f381fa2db06","ios":"levelo://app?vid=69f289b3-17a6-4fa3-bd05-3f381fa2db06"},"vehicle_type_id":"4","last_reported":1698617138,"current_range_meters":11600,"station_id":"ce4bh412rcd13ifvqds0","pricing_plan_id":"free"},{"bike_id":"2976457c-5ee5-4fe1-b14d-646a6f689753","system_id":"levelo_inurba_marseille","lat":43.29575,"lon":5.39968,"is_reserved":false,"is_disabled":false,"rental_uris":{"android":"levelo://app?vid=2976457c-5ee5-4fe1-b14d-646a6f689753","ios":"levelo://app?vid=2976457c-5ee5-4fe1-b14d-646a6f689753"},"vehicle_type_id":"4","last_reported":1698617138,"current_range_meters":5200,"station_id":"ce4bh312rcd13ifvqdj0","pricing_plan_id":"free"},{"bike_id":"dbfd99a0-6d42-4b58-94da-1a899b9b80e1","system_id":"levelo_inurba_marseille","lat":43.283998,"lon":5.375062,"is_reserved":false,"is_disabled":false,"rental_uris":{"android":"levelo://app?vid=dbfd99a0-6d42-4b58-94da-1a899b9b80e1","ios":"levelo://app?vid=dbfd99a0-6d42-4b58-94da-1a899b9b80e1"},"vehicle_type_id":"4","last_reported":1698617138,"current_range_meters":22800,"station_id":"ce4bh412rcd13ifvqds0","pricing_plan_id":"free"},{"bike_id":"3cc6b68a-4cba-4d3e-ba27-5ec73b9b8910","system_id":"levelo_inurba_marseille","lat":43.29576,"lon":5.39973,"is_reserved":false,"is_disabled":false,"rental_uris":{"android":"levelo://app?vid=3cc6b68a-4cba-4d3e-ba27-5ec73b9b8910","ios":"levelo://app?vid=3cc6b68a-4cba-4d3e-ba27-5ec73b9b8910"},"vehicle_type_id":"4","last_reported":1698617138,"current_range_meters":27600,"station_id":"ce4bh312rcd13ifvqdj0","pricing_plan_id":"free"},{"bike_id":"1acc451e-d2b2-49c6-b94b-40e4d4a27448","system_id":"levelo_inurba_marseille","lat":43.283998,"lon":5.375062,"is_reserved":false,"is_disabled":false,"rental_uris":{"android":"levelo://app?vid=1acc451e-d2b2-49c6-b94b-40e4d4a27448","ios":"levelo://app?vid=1acc451e-d2b2-49c6-b94b-40e4d4a27448"},"vehicle_type_id":"4","last_reported":1698617138,"current_range_meters":13600,"station_id":"ce4bh412rcd13ifvqds0","pricing_plan_id":"free"},{"bike_id":"b7d4af58-6dda-455a-82ec-d9026e43abcd","system_id":"levelo_inurba_marseille","lat":43.323464,"lon":5.406297,"is_reserved":false,"is_disabled":false,"rental_uris":{"android":"levelo://app?vid=b7d4af58-6dda-455a-82ec-d9026e43abcd","ios":"levelo://app?vid=b7d4af58-6dda-455a-82ec-d9026e43abcd"},"vehicle_type_id":"4","last_reported":1698617138,"current_range_meters":20000,"station_id":"ce4bhq92rcd13ifvqhjg","pricing_plan_id":"free"},{"bike_id":"fceb2f5a-6aa3-462f-83db-0b9253193b47","system_id":"levelo_inurba_marseille","lat":43.323464,"lon":5.406297,"is_reserved":false,"is_disabled":false,"rental_uris":{"android":"levelo://app?vid=fceb2f5a-6aa3-462f-83db-0b9253193b47","ios":"levelo://app?vid=fceb2f5a-6aa3-462f-83db-0b9253193b47"},"vehicle_type_id":"4","last_reported":1698617138,"current_range_meters":17600,"station_id":"ce4bhq92rcd13ifvqhjg","pricing_plan_id":"free"},{"bike_id":"15bdef24-340e-4fcc-8b69-a97001c44759","system_id":"levelo_inurba_marseille","lat":43.340456,"lon":5.384784,"is_reserved":false,"is_disabled":false,"rental_uris":{"android":"levelo://app?vid=15bdef24-340e-4fcc-8b69-a97001c44759","ios":"levelo://app?vid=15bdef24-340e-4fcc-8b69-a97001c44759"},"vehicle_type_id":"4","last_reported":1698617138,"current_range_meters":30400,"station_id":"","pricing_plan_id":"free"},{"bike_id":"2f666bbb-190f-4291-ade2-95e2c0cfd815","system_id":"levelo_inurba_marseille","lat":43.325281,"lon":5.405683,"is_reserved":false,"is_disabled":false,"rental_uris":{"android":"levelo://app?vid=2f666bbb-190f-4291-ade2-95e2c0cfd815","ios":"levelo://app?vid=2f666bbb-190f-4291-ade2-95e2c0cfd815"},"vehicle_type_id":"4","last_reported":1698617138,"current_range_meters":12800,"station_id":"","pricing_plan_id":"free"},{"bike_id":"92b30e7e-6307-4fa5-a097-6a41e5ba3611","system_id":"levelo_inurba_marseille","lat":43.288501,"lon":5.393087,"is_reserved":false,"is_disabled":false,"rental_uris":{"android":"levelo://app?vid=92b30e7e-6307-4fa5-a097-6a41e5ba3611","ios":"levelo://app?vid=92b30e7e-6307-4fa5-a097-6a41e5ba3611"},"vehicle_type_id":"4","last_reported":1698617138,"current_range_meters":8800,"station_id":"ce4bh2p2rcd13ifvqdi0","pricing_plan_id":"free"},{"bike_id":"b5d89aec-e283-408a-9085-8598cf93bebe","system_id":"levelo_inurba_marseille","lat":43.283498,"lon":5.380948,"is_reserved":false,"is_disabled":false,"rental_uris":{"android":"levelo://app?vid=b5d89aec-e283-408a-9085-8598cf93bebe","ios":"levelo://app?vid=b5d89aec-e283-408a-9085-8598cf93bebe"},"vehicle_type_id":"4","last_reported":1698617138,"current_range_meters":13200,"station_id":"ce4bh412rcd13ifvqdr0","pricing_plan_id":"free"},{"bike_id":"32bc8975-dfb7-4518-88c7-b1ca1f6db010","system_id":"levelo_inurba_marseille","lat":43.288468,"lon":5.393368,"is_reserved":false,"is_disabled":false,"rental_uris":{"android":"levelo://app?vid=32bc8975-dfb7-4518-88c7-b1ca1f6db010","ios":"levelo://app?vid=32bc8975-dfb7-4518-88c7-b1ca1f6db010"},"vehicle_type_id":"4","last_reported":1698617138,"current_range_meters":7200,"station_id":"ce4bh2p2rcd13ifvqdi0","pricing_plan_id":"free"},{"bike_id":"6e51dc66-dd65-4188-b21e-ee6d1c2e8c3f","system_id":"levelo_inurba_marseille","lat":43.28541,"lon":5.38806,"is_reserved":false,"is_disabled":false,"rental_uris":{"android":"levelo://app?vid=6e51dc66-dd65-4188-b21e-ee6d1c2e8c3f","ios":"levelo://app?vid=6e51dc66-dd65-4188-b21e-ee6d1c2e8c3f"},"vehicle_type_id":"4","last_reported":1698617138,"current_range_meters":1600,"station_id":"","pricing_plan_id":"free"},{"bike_id":"b748d200-4a39-4515-b645-24678db82baa","system_id":"levelo_inurba_marseille","lat":43.289363,"lon":5.396322,"is_reserved":false,"is_disabled":false,"rental_uris":{"android":"levelo://app?vid=b748d200-4a39-4515-b645-24678db82baa","ios":"levelo://app?vid=b748d200-4a39-4515-b645-24678db82baa"},"vehicle_type_id":"4","last_reported":1698617138,"current_range_meters":12800,"station_id":"ce4bh3h2rcd13ifvqdn0","pricing_plan_id":"free"},{"bike_id":"cd734fb8-634a-4f13-86b5-143037de2c45","system_id":"levelo_inurba_marseille","lat":43.282744,"lon":5.350533,"is_reserved":false,"is_disabled":false,"rental_uris":{"android":"levelo://app?vid=cd734fb8-634a-4f13-86b5-143037de2c45","ios":"levelo://app?vid=cd734fb8-634a-4f13-86b5-143037de2c45"},"vehicle_type_id":"4","last_reported":1698617138,"current_range_meters":6000,"station_id":"ce4bhbp2rcd13ifvqerg","pricing_plan_id":"free"},{"bike_id":"789aae98-0cdb-4fa5-ade0-b32bc4d903d4","system_id":"levelo_inurba_marseille","lat":43.28275,"lon":5.35057,"is_reserved":false,"is_disabled":false,"rental_uris":{"android":"levelo://app?vid=789aae98-0cdb-4fa5-ade0-b32bc4d903d4","ios":"levelo://app?vid=789aae98-0cdb-4fa5-ade0-b32bc4d903d4"},"vehicle_type_id":"4","last_reported":1698617138,"current_range_meters":23200,"station_id":"ce4bhbp2rcd13ifvqerg","pricing_plan_id":"free"},{"bike_id":"021016d5-75d5-4c6a-bb23-a6d7991b7979","system_id":"levelo_inurba_marseille","lat":43.282754,"lon":5.350519,"is_reserved":false,"is_disabled":false,"rental_uris":{"android":"levelo://app?vid=021016d5-75d5-4c6a-bb23-a6d7991b7979","ios":"levelo://app?vid=021016d5-75d5-4c6a-bb23-a6d7991b7979"},"vehicle_type_id":"4","last_reported":1698617138,"current_range_meters":3600,"station_id":"ce4bhbp2rcd13ifvqerg","pricing_plan_id":"free"},{"bike_id":"3f50daa6-5fa1-45bc-8d2f-86ad35da3139","system_id":"levelo_inurba_marseille","lat":43.282754,"lon":5.350519,"is_reserved":false,"is_disabled":false,"rental_uris":{"android":"levelo://app?vid=3f50daa6-5fa1-45bc-8d2f-86ad35da3139","ios":"levelo://app?vid=3f50daa6-5fa1-45bc-8d2f-86ad35da3139"},"vehicle_type_id":"4","last_reported":1698617138,"current_range_meters":16400,"station_id":"ce4bhbp2rcd13ifvqerg","pricing_plan_id":"free"},{"bike_id":"2a0db3e3-11b9-4308-a479-11e1c76c77c2","system_id":"levelo_inurba_marseille","lat":43.28037,"lon":5.36944,"is_reserved":false,"is_disabled":false,"rental_uris":{"android":"levelo://app?vid=2a0db3e3-11b9-4308-a479-11e1c76c77c2","ios":"levelo://app?vid=2a0db3e3-11b9-4308-a479-11e1c76c77c2"},"vehicle_type_id":"4","last_reported":1698617138,"current_range_meters":16400,"station_id":"ce4bha12rcd13ifvqef0","pricing_plan_id":"free"},{"bike_id":"28cfabe5-431c-4b35-abe7-f46cf119c11c","system_id":"levelo_inurba_marseille","lat":43.28112,"lon":5.3783,"is_reserved":false,"is_disabled":false,"rental_uris":{"android":"levelo://app?vid=28cfabe5-431c-4b35-abe7-f46cf119c11c","ios":"levelo://app?vid=28cfabe5-431c-4b35-abe7-f46cf119c11c"},"vehicle_type_id":"4","last_reported":1698617138,"current_range_meters":13200,"station_id":"ce4bha12rcd13ifvqee0","pricing_plan_id":"free"},{"bike_id":"1cd0fdae-eee6-4507-a9b5-daae16a32928","system_id":"levelo_inurba_marseille","lat":43.281083,"lon":5.378322,"is_reserved":false,"is_disabled":false,"rental_uris":{"android":"levelo://app?vid=1cd0fdae-eee6-4507-a9b5-daae16a32928","ios":"levelo://app?vid=1cd0fdae-eee6-4507-a9b5-daae16a32928"},"vehicle_type_id":"4","last_reported":1698617138,"current_range_meters":30000,"station_id":"ce4bha12rcd13ifvqee0","pricing_plan_id":"free"},{"bike_id":"1ca242fe-6084-4f9b-8b54-35d465872844","system_id":"levelo_inurba_marseille","lat":43.29041,"lon":5.399634,"is_reserved":false,"is_disabled":false,"rental_uris":{"android":"levelo://app?vid=1ca242fe-6084-4f9b-8b54-35d465872844","ios":"levelo://app?vid=1ca242fe-6084-4f9b-8b54-35d465872844"},"vehicle_type_id":"4","last_reported":1698617138,"current_range_meters":21600,"station_id":"ce4bh392rcd13ifvqdm0","pricing_plan_id":"free"},{"bike_id":"e92da794-73d6-4e3d-ab70-4ed30ba2f151","system_id":"levelo_inurba_marseille","lat":43.28103,"lon":5.37832,"is_reserved":false,"is_disabled":false,"rental_uris":{"android":"levelo://app?vid=e92da794-73d6-4e3d-ab70-4ed30ba2f151","ios":"levelo://app?vid=e92da794-73d6-4e3d-ab70-4ed30ba2f151"},"vehicle_type_id":"4","last_reported":1698617138,"current_range_meters":19600,"station_id":"ce4bha12rcd13ifvqee0","pricing_plan_id":"free"},{"bike_id":"af3d5c56-48f7-4ec1-a0d9-3519f1ee02ce","system_id":"levelo_inurba_marseille","lat":43.281046,"lon":5.37843,"is_reserved":false,"is_disabled":false,"rental_uris":{"android":"levelo://app?vid=af3d5c56-48f7-4ec1-a0d9-3519f1ee02ce","ios":"levelo://app?vid=af3d5c56-48f7-4ec1-a0d9-3519f1ee02ce"},"vehicle_type_id":"4","last_reported":1698617138,"current_range_meters":26800,"station_id":"ce4bha12rcd13ifvqee0","pricing_plan_id":"free"},{"bike_id":"084930ff-e589-4ce2-b7bd-91d930261db1","system_id":"levelo_inurba_marseille","lat":43.281044,"lon":5.378308,"is_reserved":false,"is_disabled":false,"rental_uris":{"android":"levelo://app?vid=084930ff-e589-4ce2-b7bd-91d930261db1","ios":"levelo://app?vid=084930ff-e589-4ce2-b7bd-91d930261db1"},"vehicle_type_id":"4","last_reported":1698617138,"current_range_meters":3600,"station_id":"ce4bha12rcd13ifvqee0","pricing_plan_id":"free"},{"bike_id":"d445e7dc-8f39-4198-8d15-1838ad42556e","system_id":"levelo_inurba_marseille","lat":43.296263,"lon":5.40601,"is_reserved":false,"is_disabled":false,"rental_uris":{"android":"levelo://app?vid=d445e7dc-8f39-4198-8d15-1838ad42556e","ios":"levelo://app?vid=d445e7dc-8f39-4198-8d15-1838ad42556e"},"vehicle_type_id":"4","last_reported":1698617138,"current_range_meters":20000,"station_id":"ce4bh0h2rcd13ifvqd60","pricing_plan_id":"free"},{"bike_id":"8de9bd78-7d0e-4fd5-8c0c-a01ae883f9b7","system_id":"levelo_inurba_marseille","lat":43.284462,"lon":5.392121,"is_reserved":false,"is_disabled":false,"rental_uris":{"android":"levelo://app?vid=8de9bd78-7d0e-4fd5-8c0c-a01ae883f9b7","ios":"levelo://app?vid=8de9bd78-7d0e-4fd5-8c0c-a01ae883f9b7"},"vehicle_type_id":"4","last_reported":1698617138,"current_range_meters":1600,"station_id":"ce4bhoh2rcd13ifvqh5g","pricing_plan_id":"free"},{"bike_id":"92737f99-f7d2-4c9c-af9a-7b6b57ce46cc","system_id":"levelo_inurba_marseille","lat":43.284462,"lon":5.392121,"is_reserved":false,"is_disabled":false,"rental_uris":{"android":"levelo://app?vid=92737f99-f7d2-4c9c-af9a-7b6b57ce46cc","ios":"levelo://app?vid=92737f99-f7d2-4c9c-af9a-7b6b57ce46cc"},"vehicle_type_id":"4","last_reported":1698617138,"current_range_meters":18400,"station_id":"ce4bhoh2rcd13ifvqh5g","pricing_plan_id":"free"},{"bike_id":"5b145b5c-2448-4b06-ad7d-667870f368db","system_id":"levelo_inurba_marseille","lat":43.284412,"lon":5.392012,"is_reserved":false,"is_disabled":false,"rental_uris":{"android":"levelo://app?vid=5b145b5c-2448-4b06-ad7d-667870f368db","ios":"levelo://app?vid=5b145b5c-2448-4b06-ad7d-667870f368db"},"vehicle_type_id":"4","last_reported":1698617138,"current_range_meters":30800,"station_id":"ce4bhoh2rcd13ifvqh5g","pricing_plan_id":"free"},{"bike_id":"92a108c8-314c-4087-88dc-ace532aca17c","system_id":"levelo_inurba_marseille","lat":43.29529,"lon":5.385581,"is_reserved":false,"is_disabled":false,"rental_uris":{"android":"levelo://app?vid=92a108c8-314c-4087-88dc-ace532aca17c","ios":"levelo://app?vid=92a108c8-314c-4087-88dc-ace532aca17c"},"vehicle_type_id":"4","last_reported":1698617138,"current_range_meters":18400,"station_id":"ce4bgih2rcd13ifvqba0","pricing_plan_id":"free"},{"bike_id":"943a3192-517e-43c2-b8b2-59823953a347","system_id":"levelo_inurba_marseille","lat":43.279087,"lon":5.380114,"is_reserved":false,"is_disabled":false,"rental_uris":{"android":"levelo://app?vid=943a3192-517e-43c2-b8b2-59823953a347","ios":"levelo://app?vid=943a3192-517e-43c2-b8b2-59823953a347"},"vehicle_type_id":"4","last_reported":1698617138,"current_range_meters":8000,"station_id":"ce4bhf92rcd13ifvqf50","pricing_plan_id":"free"},{"bike_id":"1dd398bf-923a-4669-9b88-630d431d528b","system_id":"levelo_inurba_marseille","lat":43.287154,"lon":5.399979,"is_reserved":false,"is_disabled":false,"rental_uris":{"android":"levelo://app?vid=1dd398bf-923a-4669-9b88-630d431d528b","ios":"levelo://app?vid=1dd398bf-923a-4669-9b88-630d431d528b"},"vehicle_type_id":"4","last_reported":1698617138,"current_range_meters":8400,"station_id":"ce4bho92rcd13ifvqh3g","pricing_plan_id":"free"},{"bike_id":"ad59cecb-9f14-4f37-9c44-4887548a6e4f","system_id":"levelo_inurba_marseille","lat":43.287154,"lon":5.399979,"is_reserved":false,"is_disabled":false,"rental_uris":{"android":"levelo://app?vid=ad59cecb-9f14-4f37-9c44-4887548a6e4f","ios":"levelo://app?vid=ad59cecb-9f14-4f37-9c44-4887548a6e4f"},"vehicle_type_id":"4","last_reported":1698617138,"current_range_meters":23200,"station_id":"ce4bho92rcd13ifvqh3g","pricing_plan_id":"free"},{"bike_id":"98451879-2192-4f5e-9b4f-155ee076808f","system_id":"levelo_inurba_marseille","lat":43.287154,"lon":5.399979,"is_reserved":false,"is_disabled":false,"rental_uris":{"android":"levelo://app?vid=98451879-2192-4f5e-9b4f-155ee076808f","ios":"levelo://app?vid=98451879-2192-4f5e-9b4f-155ee076808f"},"vehicle_type_id":"4","last_reported":1698617138,"current_range_meters":0,"station_id":"ce4bho92rcd13ifvqh3g","pricing_plan_id":"free"},{"bike_id":"70d36ca4-6ef0-43f2-884b-3d6377b84e73","system_id":"levelo_inurba_marseille","lat":43.287154,"lon":5.399979,"is_reserved":false,"is_disabled":false,"rental_uris":{"android":"levelo://app?vid=70d36ca4-6ef0-43f2-884b-3d6377b84e73","ios":"levelo://app?vid=70d36ca4-6ef0-43f2-884b-3d6377b84e73"},"vehicle_type_id":"4","last_reported":1698617138,"current_range_meters":7600,"station_id":"ce4bho92rcd13ifvqh3g","pricing_plan_id":"free"},{"bike_id":"75869076-ce17-44d2-88e4-26b554f5f6e3","system_id":"levelo_inurba_marseille","lat":43.320045,"lon":5.415046,"is_reserved":false,"is_disabled":false,"rental_uris":{"android":"levelo://app?vid=75869076-ce17-44d2-88e4-26b554f5f6e3","ios":"levelo://app?vid=75869076-ce17-44d2-88e4-26b554f5f6e3"},"vehicle_type_id":"4","last_reported":1698617138,"current_range_meters":0,"station_id":"ce4bhq92rcd13ifvqhkg","pricing_plan_id":"free"},{"bike_id":"927558f0-a40a-4ac8-ba09-5b25c8a93cad","system_id":"levelo_inurba_marseille","lat":43.320045,"lon":5.415046,"is_reserved":false,"is_disabled":false,"rental_uris":{"android":"levelo://app?vid=927558f0-a40a-4ac8-ba09-5b25c8a93cad","ios":"levelo://app?vid=927558f0-a40a-4ac8-ba09-5b25c8a93cad"},"vehicle_type_id":"4","last_reported":1698617138,"current_range_meters":5200,"station_id":"ce4bhq92rcd13ifvqhkg","pricing_plan_id":"free"},{"bike_id":"ba3361d6-72be-4cac-b81b-535651101d4e","system_id":"levelo_inurba_marseille","lat":43.292569,"lon":5.409107,"is_reserved":false,"is_disabled":false,"rental_uris":{"android":"levelo://app?vid=ba3361d6-72be-4cac-b81b-535651101d4e","ios":"levelo://app?vid=ba3361d6-72be-4cac-b81b-535651101d4e"},"vehicle_type_id":"4","last_reported":1698617138,"current_range_meters":15200,"station_id":"ce4bh192rcd13ifvqdc0","pricing_plan_id":"free"},{"bike_id":"824dabd4-c04b-427c-b708-965b48c96a3c","system_id":"levelo_inurba_marseille","lat":43.325233,"lon":5.414318,"is_reserved":false,"is_disabled":false,"rental_uris":{"android":"levelo://app?vid=824dabd4-c04b-427c-b708-965b48c96a3c","ios":"levelo://app?vid=824dabd4-c04b-427c-b708-965b48c96a3c"},"vehicle_type_id":"4","last_reported":1698617138,"current_range_meters":29200,"station_id":"ce4bhq12rcd13ifvqhhg","pricing_plan_id":"free"},{"bike_id":"e06c6de6-378e-47d0-afbb-06f3a39ee2b0","system_id":"levelo_inurba_marseille","lat":43.325269,"lon":5.414571,"is_reserved":false,"is_disabled":false,"rental_uris":{"android":"levelo://app?vid=e06c6de6-378e-47d0-afbb-06f3a39ee2b0","ios":"levelo://app?vid=e06c6de6-378e-47d0-afbb-06f3a39ee2b0"},"vehicle_type_id":"4","last_reported":1698617138,"current_range_meters":29200,"station_id":"ce4bhq12rcd13ifvqhhg","pricing_plan_id":"free"},{"bike_id":"ab441268-3e03-4104-94cc-7705d60c6788","system_id":"levelo_inurba_marseille","lat":43.347892,"lon":5.348552,"is_reserved":false,"is_disabled":false,"rental_uris":{"android":"levelo://app?vid=ab441268-3e03-4104-94cc-7705d60c6788","ios":"levelo://app?vid=ab441268-3e03-4104-94cc-7705d60c6788"},"vehicle_type_id":"4","last_reported":1698617138,"current_range_meters":14000,"station_id":"","pricing_plan_id":"free"},{"bike_id":"6f388752-a1d1-471a-804d-4e54112a7c61","system_id":"levelo_inurba_marseille","lat":43.280784,"lon":5.396622,"is_reserved":false,"is_disabled":false,"rental_uris":{"android":"levelo://app?vid=6f388752-a1d1-471a-804d-4e54112a7c61","ios":"levelo://app?vid=6f388752-a1d1-471a-804d-4e54112a7c61"},"vehicle_type_id":"4","last_reported":1698617138,"current_range_meters":21200,"station_id":"ce4bho12rcd13ifvqh2g","pricing_plan_id":"free"},{"bike_id":"ad792d74-0fe0-4f28-8273-babb3dc4f382","system_id":"levelo_inurba_marseille","lat":43.273613,"lon":5.362705,"is_reserved":false,"is_disabled":false,"rental_uris":{"android":"levelo://app?vid=ad792d74-0fe0-4f28-8273-babb3dc4f382","ios":"levelo://app?vid=ad792d74-0fe0-4f28-8273-babb3dc4f382"},"vehicle_type_id":"4","last_reported":1698617138,"current_range_meters":0,"station_id":"ce4bhbh2rcd13ifvqeo0","pricing_plan_id":"free"},{"bike_id":"af8426e9-2b53-433f-8139-73b450165afd","system_id":"levelo_inurba_marseille","lat":43.336134,"lon":5.410341,"is_reserved":false,"is_disabled":false,"rental_uris":{"android":"levelo://app?vid=af8426e9-2b53-433f-8139-73b450165afd","ios":"levelo://app?vid=af8426e9-2b53-433f-8139-73b450165afd"},"vehicle_type_id":"4","last_reported":1698617138,"current_range_meters":16000,"station_id":"ce4bhqh2rcd13ifvqhmg","pricing_plan_id":"free"},{"bike_id":"7af969f5-8d84-406b-9e13-40bd95c7537c","system_id":"levelo_inurba_marseille","lat":43.33614,"lon":5.41029,"is_reserved":false,"is_disabled":false,"rental_uris":{"android":"levelo://app?vid=7af969f5-8d84-406b-9e13-40bd95c7537c","ios":"levelo://app?vid=7af969f5-8d84-406b-9e13-40bd95c7537c"},"vehicle_type_id":"4","last_reported":1698617138,"current_range_meters":22400,"station_id":"ce4bhqh2rcd13ifvqhmg","pricing_plan_id":"free"},{"bike_id":"01b14aaf-b7fc-41e8-b11c-f5f9ba41824f","system_id":"levelo_inurba_marseille","lat":43.275525,"lon":5.385654,"is_reserved":false,"is_disabled":false,"rental_uris":{"android":"levelo://app?vid=01b14aaf-b7fc-41e8-b11c-f5f9ba41824f","ios":"levelo://app?vid=01b14aaf-b7fc-41e8-b11c-f5f9ba41824f"},"vehicle_type_id":"4","last_reported":1698617138,"current_range_meters":4400,"station_id":"","pricing_plan_id":"free"},{"bike_id":"cb80a957-90bb-4318-8bed-fb5d9dde24c5","system_id":"levelo_inurba_marseille","lat":43.310785,"lon":5.424305,"is_reserved":false,"is_disabled":false,"rental_uris":{"android":"levelo://app?vid=cb80a957-90bb-4318-8bed-fb5d9dde24c5","ios":"levelo://app?vid=cb80a957-90bb-4318-8bed-fb5d9dde24c5"},"vehicle_type_id":"4","last_reported":1698617138,"current_range_meters":2400,"station_id":"ce4bhp92rcd13ifvqhag","pricing_plan_id":"free"},{"bike_id":"ab4c105f-b95d-4588-b30a-4236f77815dc","system_id":"levelo_inurba_marseille","lat":43.310785,"lon":5.424305,"is_reserved":false,"is_disabled":false,"rental_uris":{"android":"levelo://app?vid=ab4c105f-b95d-4588-b30a-4236f77815dc","ios":"levelo://app?vid=ab4c105f-b95d-4588-b30a-4236f77815dc"},"vehicle_type_id":"4","last_reported":1698617138,"current_range_meters":25600,"station_id":"ce4bhp92rcd13ifvqhag","pricing_plan_id":"free"},{"bike_id":"d58dc1b0-a920-45a9-b8ae-bc43ae7fdaaf","system_id":"levelo_inurba_marseille","lat":43.31078,"lon":5.42433,"is_reserved":false,"is_disabled":false,"rental_uris":{"android":"levelo://app?vid=d58dc1b0-a920-45a9-b8ae-bc43ae7fdaaf","ios":"levelo://app?vid=d58dc1b0-a920-45a9-b8ae-bc43ae7fdaaf"},"vehicle_type_id":"4","last_reported":1698617138,"current_range_meters":12000,"station_id":"ce4bhp92rcd13ifvqhag","pricing_plan_id":"free"},{"bike_id":"cf1669ca-2049-4ae9-9b7e-00a41239a62e","system_id":"levelo_inurba_marseille","lat":43.340804,"lon":5.410219,"is_reserved":false,"is_disabled":false,"rental_uris":{"android":"levelo://app?vid=cf1669ca-2049-4ae9-9b7e-00a41239a62e","ios":"levelo://app?vid=cf1669ca-2049-4ae9-9b7e-00a41239a62e"},"vehicle_type_id":"4","last_reported":1698617138,"current_range_meters":22800,"station_id":"ce4bhqh2rcd13ifvqhlg","pricing_plan_id":"free"},{"bike_id":"7759184d-41d5-433a-9fce-4a881688bcfa","system_id":"levelo_inurba_marseille","lat":43.340804,"lon":5.410219,"is_reserved":false,"is_disabled":false,"rental_uris":{"android":"levelo://app?vid=7759184d-41d5-433a-9fce-4a881688bcfa","ios":"levelo://app?vid=7759184d-41d5-433a-9fce-4a881688bcfa"},"vehicle_type_id":"4","last_reported":1698617138,"current_range_meters":29600,"station_id":"ce4bhqh2rcd13ifvqhlg","pricing_plan_id":"free"},{"bike_id":"5c6740b1-5e78-4e38-9c6a-5024b53863a5","system_id":"levelo_inurba_marseille","lat":43.340804,"lon":5.410219,"is_reserved":false,"is_disabled":false,"rental_uris":{"android":"levelo://app?vid=5c6740b1-5e78-4e38-9c6a-5024b53863a5","ios":"levelo://app?vid=5c6740b1-5e78-4e38-9c6a-5024b53863a5"},"vehicle_type_id":"4","last_reported":1698617138,"current_range_meters":10800,"station_id":"ce4bhqh2rcd13ifvqhlg","pricing_plan_id":"free"},{"bike_id":"a98e2835-0ef0-4e9f-b7c4-d2c740e08dcb","system_id":"levelo_inurba_marseille","lat":43.340804,"lon":5.410219,"is_reserved":false,"is_disabled":false,"rental_uris":{"android":"levelo://app?vid=a98e2835-0ef0-4e9f-b7c4-d2c740e08dcb","ios":"levelo://app?vid=a98e2835-0ef0-4e9f-b7c4-d2c740e08dcb"},"vehicle_type_id":"4","last_reported":1698617138,"current_range_meters":12800,"station_id":"ce4bhqh2rcd13ifvqhlg","pricing_plan_id":"free"},{"bike_id":"83142e0b-2d4a-41bd-a883-c4d9264eba37","system_id":"levelo_inurba_marseille","lat":43.27329,"lon":5.39072,"is_reserved":false,"is_disabled":false,"rental_uris":{"android":"levelo://app?vid=83142e0b-2d4a-41bd-a883-c4d9264eba37","ios":"levelo://app?vid=83142e0b-2d4a-41bd-a883-c4d9264eba37"},"vehicle_type_id":"4","last_reported":1698617138,"current_range_meters":0,"station_id":"","pricing_plan_id":"free"},{"bike_id":"2cab1f97-2048-48bc-9414-0ef22f63e63c","system_id":"levelo_inurba_marseille","lat":43.27322,"lon":5.39082,"is_reserved":false,"is_disabled":false,"rental_uris":{"android":"levelo://app?vid=2cab1f97-2048-48bc-9414-0ef22f63e63c","ios":"levelo://app?vid=2cab1f97-2048-48bc-9414-0ef22f63e63c"},"vehicle_type_id":"4","last_reported":1698617138,"current_range_meters":0,"station_id":"","pricing_plan_id":"free"},{"bike_id":"00ea1848-2b29-49a8-ae9d-4838ecb8e3a1","system_id":"levelo_inurba_marseille","lat":43.295511,"lon":5.422926,"is_reserved":false,"is_disabled":false,"rental_uris":{"android":"levelo://app?vid=00ea1848-2b29-49a8-ae9d-4838ecb8e3a1","ios":"levelo://app?vid=00ea1848-2b29-49a8-ae9d-4838ecb8e3a1"},"vehicle_type_id":"4","last_reported":1698617138,"current_range_meters":6800,"station_id":"ce4bhph2rcd13ifvqhdg","pricing_plan_id":"free"},{"bike_id":"291a32c9-e8fe-4c60-819c-bf8d640a2016","system_id":"levelo_inurba_marseille","lat":43.2936,"lon":5.37835,"is_reserved":false,"is_disabled":false,"rental_uris":{"android":"levelo://app?vid=291a32c9-e8fe-4c60-819c-bf8d640a2016","ios":"levelo://app?vid=291a32c9-e8fe-4c60-819c-bf8d640a2016"},"vehicle_type_id":"4","last_reported":1698617138,"current_range_meters":18400,"station_id":"ce4bgjh2rcd13ifvqbf0","pricing_plan_id":"free"},{"bike_id":"d3997d8b-b06b-473b-808f-ca3e4bd57995","system_id":"levelo_inurba_marseille","lat":43.295511,"lon":5.422926,"is_reserved":false,"is_disabled":false,"rental_uris":{"android":"levelo://app?vid=d3997d8b-b06b-473b-808f-ca3e4bd57995","ios":"levelo://app?vid=d3997d8b-b06b-473b-808f-ca3e4bd57995"},"vehicle_type_id":"4","last_reported":1698617138,"current_range_meters":25200,"station_id":"ce4bhph2rcd13ifvqhdg","pricing_plan_id":"free"},{"bike_id":"c4615ff0-7ac6-4824-a0d3-8d78fff2f329","system_id":"levelo_inurba_marseille","lat":43.27207,"lon":5.39187,"is_reserved":false,"is_disabled":false,"rental_uris":{"android":"levelo://app?vid=c4615ff0-7ac6-4824-a0d3-8d78fff2f329","ios":"levelo://app?vid=c4615ff0-7ac6-4824-a0d3-8d78fff2f329"},"vehicle_type_id":"4","last_reported":1698617138,"current_range_meters":0,"station_id":"ce4bhhp2rcd13ifvqfm0","pricing_plan_id":"free"},{"bike_id":"e5b43416-fdd4-4920-a227-96d0c4917c6e","system_id":"levelo_inurba_marseille","lat":43.278128,"lon":5.407195,"is_reserved":false,"is_disabled":false,"rental_uris":{"android":"levelo://app?vid=e5b43416-fdd4-4920-a227-96d0c4917c6e","ios":"levelo://app?vid=e5b43416-fdd4-4920-a227-96d0c4917c6e"},"vehicle_type_id":"4","last_reported":1698617138,"current_range_meters":30000,"station_id":"ce4bhnh2rcd13ifvqgtg","pricing_plan_id":"free"},{"bike_id":"1680c852-be23-4927-8fba-a5c1ee4aa350","system_id":"levelo_inurba_marseille","lat":43.278128,"lon":5.407195,"is_reserved":false,"is_disabled":false,"rental_uris":{"android":"levelo://app?vid=1680c852-be23-4927-8fba-a5c1ee4aa350","ios":"levelo://app?vid=1680c852-be23-4927-8fba-a5c1ee4aa350"},"vehicle_type_id":"4","last_reported":1698617138,"current_range_meters":30000,"station_id":"ce4bhnh2rcd13ifvqgtg","pricing_plan_id":"free"},{"bike_id":"dcaa3506-1138-4c68-8941-a350600f2356","system_id":"levelo_inurba_marseille","lat":43.279465,"lon":5.410561,"is_reserved":false,"is_disabled":false,"rental_uris":{"android":"levelo://app?vid=dcaa3506-1138-4c68-8941-a350600f2356","ios":"levelo://app?vid=dcaa3506-1138-4c68-8941-a350600f2356"},"vehicle_type_id":"4","last_reported":1698617138,"current_range_meters":16400,"station_id":"ce4bhnp2rcd13ifvqh0g","pricing_plan_id":"free"},{"bike_id":"f513e07b-660f-45ee-8d95-acf33ccffc3c","system_id":"levelo_inurba_marseille","lat":43.279465,"lon":5.410561,"is_reserved":false,"is_disabled":false,"rental_uris":{"android":"levelo://app?vid=f513e07b-660f-45ee-8d95-acf33ccffc3c","ios":"levelo://app?vid=f513e07b-660f-45ee-8d95-acf33ccffc3c"},"vehicle_type_id":"4","last_reported":1698617138,"current_range_meters":20000,"station_id":"ce4bhnp2rcd13ifvqh0g","pricing_plan_id":"free"},{"bike_id":"891e1734-0f2b-4304-8bd4-989a6a3bbdb4","system_id":"levelo_inurba_marseille","lat":43.279426,"lon":5.410434,"is_reserved":false,"is_disabled":false,"rental_uris":{"android":"levelo://app?vid=891e1734-0f2b-4304-8bd4-989a6a3bbdb4","ios":"levelo://app?vid=891e1734-0f2b-4304-8bd4-989a6a3bbdb4"},"vehicle_type_id":"4","last_reported":1698617138,"current_range_meters":20800,"station_id":"ce4bhnp2rcd13ifvqh0g","pricing_plan_id":"free"},{"bike_id":"9b4a9338-3906-4daa-a19a-4de26b50d2e6","system_id":"levelo_inurba_marseille","lat":43.27943,"lon":5.41053,"is_reserved":false,"is_disabled":false,"rental_uris":{"android":"levelo://app?vid=9b4a9338-3906-4daa-a19a-4de26b50d2e6","ios":"levelo://app?vid=9b4a9338-3906-4daa-a19a-4de26b50d2e6"},"vehicle_type_id":"4","last_reported":1698617138,"current_range_meters":13200,"station_id":"ce4bhnp2rcd13ifvqh0g","pricing_plan_id":"free"},{"bike_id":"b12c3713-7a7d-4b52-8b10-fd5554d8ad96","system_id":"levelo_inurba_marseille","lat":43.27949,"lon":5.41072,"is_reserved":false,"is_disabled":false,"rental_uris":{"android":"levelo://app?vid=b12c3713-7a7d-4b52-8b10-fd5554d8ad96","ios":"levelo://app?vid=b12c3713-7a7d-4b52-8b10-fd5554d8ad96"},"vehicle_type_id":"4","last_reported":1698617138,"current_range_meters":2000,"station_id":"ce4bhnp2rcd13ifvqh0g","pricing_plan_id":"free"},{"bike_id":"66a46cce-2509-423f-8e36-ccbf8c1330ab","system_id":"levelo_inurba_marseille","lat":43.269319,"lon":5.389397,"is_reserved":false,"is_disabled":false,"rental_uris":{"android":"levelo://app?vid=66a46cce-2509-423f-8e36-ccbf8c1330ab","ios":"levelo://app?vid=66a46cce-2509-423f-8e36-ccbf8c1330ab"},"vehicle_type_id":"4","last_reported":1698617138,"current_range_meters":21200,"station_id":"ce4bhhh2rcd13ifvqfl0","pricing_plan_id":"free"},{"bike_id":"d04f4b4c-5716-41c1-ba77-6e56dc46c238","system_id":"levelo_inurba_marseille","lat":43.269319,"lon":5.389397,"is_reserved":false,"is_disabled":false,"rental_uris":{"android":"levelo://app?vid=d04f4b4c-5716-41c1-ba77-6e56dc46c238","ios":"levelo://app?vid=d04f4b4c-5716-41c1-ba77-6e56dc46c238"},"vehicle_type_id":"4","last_reported":1698617138,"current_range_meters":800,"station_id":"ce4bhhh2rcd13ifvqfl0","pricing_plan_id":"free"},{"bike_id":"fb210ee2-c31e-4c2e-bdc8-d2646a7c8133","system_id":"levelo_inurba_marseille","lat":43.26548,"lon":5.37285,"is_reserved":false,"is_disabled":false,"rental_uris":{"android":"levelo://app?vid=fb210ee2-c31e-4c2e-bdc8-d2646a7c8133","ios":"levelo://app?vid=fb210ee2-c31e-4c2e-bdc8-d2646a7c8133"},"vehicle_type_id":"4","last_reported":1698617138,"current_range_meters":0,"station_id":"ce4bhg12rcd13ifvqf70","pricing_plan_id":"free"},{"bike_id":"e610933f-f657-4bb4-a514-3746cfe6b8b3","system_id":"levelo_inurba_marseille","lat":43.279924,"lon":5.416578,"is_reserved":false,"is_disabled":false,"rental_uris":{"android":"levelo://app?vid=e610933f-f657-4bb4-a514-3746cfe6b8b3","ios":"levelo://app?vid=e610933f-f657-4bb4-a514-3746cfe6b8b3"},"vehicle_type_id":"4","last_reported":1698617138,"current_range_meters":24800,"station_id":"ce4bho12rcd13ifvqh1g","pricing_plan_id":"free"},{"bike_id":"2687313b-4537-4b0d-956b-7965a5770ee1","system_id":"levelo_inurba_marseille","lat":43.328212,"lon":5.431596,"is_reserved":false,"is_disabled":false,"rental_uris":{"android":"levelo://app?vid=2687313b-4537-4b0d-956b-7965a5770ee1","ios":"levelo://app?vid=2687313b-4537-4b0d-956b-7965a5770ee1"},"vehicle_type_id":"4","last_reported":1698617138,"current_range_meters":14000,"station_id":"","pricing_plan_id":"free"},{"bike_id":"1cb3f577-fb04-4e28-a15d-87951d1577d9","system_id":"levelo_inurba_marseille","lat":43.308051,"lon":5.43527,"is_reserved":false,"is_disabled":false,"rental_uris":{"android":"levelo://app?vid=1cb3f577-fb04-4e28-a15d-87951d1577d9","ios":"levelo://app?vid=1cb3f577-fb04-4e28-a15d-87951d1577d9"},"vehicle_type_id":"4","last_reported":1698617138,"current_range_meters":31200,"station_id":"ce4bhph2rcd13ifvqheg","pricing_plan_id":"free"},{"bike_id":"fa6d149f-4f48-4c4b-8b60-f4e1eed446ae","system_id":"levelo_inurba_marseille","lat":43.308051,"lon":5.43527,"is_reserved":false,"is_disabled":false,"rental_uris":{"android":"levelo://app?vid=fa6d149f-4f48-4c4b-8b60-f4e1eed446ae","ios":"levelo://app?vid=fa6d149f-4f48-4c4b-8b60-f4e1eed446ae"},"vehicle_type_id":"4","last_reported":1698617138,"current_range_meters":10400,"station_id":"ce4bhph2rcd13ifvqheg","pricing_plan_id":"free"},{"bike_id":"ce56f942-f540-46a3-af44-427e7947be87","system_id":"levelo_inurba_marseille","lat":43.308051,"lon":5.43527,"is_reserved":false,"is_disabled":false,"rental_uris":{"android":"levelo://app?vid=ce56f942-f540-46a3-af44-427e7947be87","ios":"levelo://app?vid=ce56f942-f540-46a3-af44-427e7947be87"},"vehicle_type_id":"4","last_reported":1698617138,"current_range_meters":19200,"station_id":"ce4bhph2rcd13ifvqheg","pricing_plan_id":"free"},{"bike_id":"2a8b2b8b-50ee-4cd0-b0e7-7b9bfe48df39","system_id":"levelo_inurba_marseille","lat":43.265571,"lon":5.390032,"is_reserved":false,"is_disabled":false,"rental_uris":{"android":"levelo://app?vid=2a8b2b8b-50ee-4cd0-b0e7-7b9bfe48df39","ios":"levelo://app?vid=2a8b2b8b-50ee-4cd0-b0e7-7b9bfe48df39"},"vehicle_type_id":"4","last_reported":1698617138,"current_range_meters":0,"station_id":"ce4bhe12rcd13ifvqf30","pricing_plan_id":"free"},{"bike_id":"82e4b727-7790-403e-858d-e6dd5bbff0bd","system_id":"levelo_inurba_marseille","lat":43.26564,"lon":5.39007,"is_reserved":false,"is_disabled":false,"rental_uris":{"android":"levelo://app?vid=82e4b727-7790-403e-858d-e6dd5bbff0bd","ios":"levelo://app?vid=82e4b727-7790-403e-858d-e6dd5bbff0bd"},"vehicle_type_id":"4","last_reported":1698617138,"current_range_meters":0,"station_id":"ce4bhe12rcd13ifvqf30","pricing_plan_id":"free"},{"bike_id":"efbbef42-b150-48eb-8784-926fdd2e78dc","system_id":"levelo_inurba_marseille","lat":43.26548,"lon":5.38992,"is_reserved":false,"is_disabled":false,"rental_uris":{"android":"levelo://app?vid=efbbef42-b150-48eb-8784-926fdd2e78dc","ios":"levelo://app?vid=efbbef42-b150-48eb-8784-926fdd2e78dc"},"vehicle_type_id":"4","last_reported":1698617138,"current_range_meters":28800,"station_id":"ce4bhe12rcd13ifvqf30","pricing_plan_id":"free"},{"bike_id":"77bd88b0-94d4-432b-ad78-b34f813520ea","system_id":"levelo_inurba_marseille","lat":43.265486,"lon":5.389989,"is_reserved":false,"is_disabled":false,"rental_uris":{"android":"levelo://app?vid=77bd88b0-94d4-432b-ad78-b34f813520ea","ios":"levelo://app?vid=77bd88b0-94d4-432b-ad78-b34f813520ea"},"vehicle_type_id":"4","last_reported":1698617138,"current_range_meters":1600,"station_id":"ce4bhe12rcd13ifvqf30","pricing_plan_id":"free"},{"bike_id":"2d46cc0c-65c6-4834-956d-7090ad78794e","system_id":"levelo_inurba_marseille","lat":43.265434,"lon":5.389955,"is_reserved":false,"is_disabled":false,"rental_uris":{"android":"levelo://app?vid=2d46cc0c-65c6-4834-956d-7090ad78794e","ios":"levelo://app?vid=2d46cc0c-65c6-4834-956d-7090ad78794e"},"vehicle_type_id":"4","last_reported":1698617138,"current_range_meters":4800,"station_id":"ce4bhe12rcd13ifvqf30","pricing_plan_id":"free"},{"bike_id":"9b2d501e-4a3a-460e-b526-c9592f672145","system_id":"levelo_inurba_marseille","lat":43.26944,"lon":5.40244,"is_reserved":false,"is_disabled":false,"rental_uris":{"android":"levelo://app?vid=9b2d501e-4a3a-460e-b526-c9592f672145","ios":"levelo://app?vid=9b2d501e-4a3a-460e-b526-c9592f672145"},"vehicle_type_id":"4","last_reported":1698617138,"current_range_meters":0,"station_id":"","pricing_plan_id":"free"},{"bike_id":"c51cdcf9-52b8-458e-9230-241d9697b6bf","system_id":"levelo_inurba_marseille","lat":43.26942,"lon":5.40254,"is_reserved":false,"is_disabled":false,"rental_uris":{"android":"levelo://app?vid=c51cdcf9-52b8-458e-9230-241d9697b6bf","ios":"levelo://app?vid=c51cdcf9-52b8-458e-9230-241d9697b6bf"},"vehicle_type_id":"4","last_reported":1698617138,"current_range_meters":0,"station_id":"cjm6bp8fraef2m0cb0m0","pricing_plan_id":"free"},{"bike_id":"b818935e-416e-4c91-bc09-e5a615b36f74","system_id":"levelo_inurba_marseille","lat":43.269278,"lon":5.402363,"is_reserved":false,"is_disabled":false,"rental_uris":{"android":"levelo://app?vid=b818935e-416e-4c91-bc09-e5a615b36f74","ios":"levelo://app?vid=b818935e-416e-4c91-bc09-e5a615b36f74"},"vehicle_type_id":"4","last_reported":1698617138,"current_range_meters":5200,"station_id":"","pricing_plan_id":"free"},{"bike_id":"6972960f-6ecd-4bd9-ace5-3c0d7d26ea39","system_id":"levelo_inurba_marseille","lat":43.331883,"lon":5.431859,"is_reserved":false,"is_disabled":false,"rental_uris":{"android":"levelo://app?vid=6972960f-6ecd-4bd9-ace5-3c0d7d26ea39","ios":"levelo://app?vid=6972960f-6ecd-4bd9-ace5-3c0d7d26ea39"},"vehicle_type_id":"4","last_reported":1698617138,"current_range_meters":0,"station_id":"","pricing_plan_id":"free"},{"bike_id":"9e750478-67fb-4390-b5ff-838f6aa46602","system_id":"levelo_inurba_marseille","lat":43.261782,"lon":5.374515,"is_reserved":false,"is_disabled":false,"rental_uris":{"android":"levelo://app?vid=9e750478-67fb-4390-b5ff-838f6aa46602","ios":"levelo://app?vid=9e750478-67fb-4390-b5ff-838f6aa46602"},"vehicle_type_id":"4","last_reported":1698617138,"current_range_meters":14000,"station_id":"ce4bhgp2rcd13ifvqfc0","pricing_plan_id":"free"},{"bike_id":"a20c9be4-e6b0-43ca-8558-0d0c671ea8f3","system_id":"levelo_inurba_marseille","lat":43.26184,"lon":5.37444,"is_reserved":false,"is_disabled":false,"rental_uris":{"android":"levelo://app?vid=a20c9be4-e6b0-43ca-8558-0d0c671ea8f3","ios":"levelo://app?vid=a20c9be4-e6b0-43ca-8558-0d0c671ea8f3"},"vehicle_type_id":"4","last_reported":1698617138,"current_range_meters":31200,"station_id":"ce4bhgp2rcd13ifvqfc0","pricing_plan_id":"free"},{"bike_id":"55a2577d-9653-4529-8b72-125bcfff7eca","system_id":"levelo_inurba_marseille","lat":43.317104,"lon":5.436818,"is_reserved":false,"is_disabled":false,"rental_uris":{"android":"levelo://app?vid=55a2577d-9653-4529-8b72-125bcfff7eca","ios":"levelo://app?vid=55a2577d-9653-4529-8b72-125bcfff7eca"},"vehicle_type_id":"4","last_reported":1698617138,"current_range_meters":24000,"station_id":"ce4bhp92rcd13ifvqhcg","pricing_plan_id":"free"},{"bike_id":"eba5fcab-3613-46a5-a561-1d39c5b909c7","system_id":"levelo_inurba_marseille","lat":43.317104,"lon":5.436818,"is_reserved":false,"is_disabled":false,"rental_uris":{"android":"levelo://app?vid=eba5fcab-3613-46a5-a561-1d39c5b909c7","ios":"levelo://app?vid=eba5fcab-3613-46a5-a561-1d39c5b909c7"},"vehicle_type_id":"4","last_reported":1698617138,"current_range_meters":18800,"station_id":"ce4bhp92rcd13ifvqhcg","pricing_plan_id":"free"},{"bike_id":"3b15aeb2-4a1c-4b6c-86db-e9b6ed585861","system_id":"levelo_inurba_marseille","lat":43.317104,"lon":5.436818,"is_reserved":false,"is_disabled":false,"rental_uris":{"android":"levelo://app?vid=3b15aeb2-4a1c-4b6c-86db-e9b6ed585861","ios":"levelo://app?vid=3b15aeb2-4a1c-4b6c-86db-e9b6ed585861"},"vehicle_type_id":"4","last_reported":1698617138,"current_range_meters":31600,"station_id":"ce4bhp92rcd13ifvqhcg","pricing_plan_id":"free"},{"bike_id":"379a37f8-5906-4962-b246-dcc5e1990ab5","system_id":"levelo_inurba_marseille","lat":43.261618,"lon":5.373066,"is_reserved":false,"is_disabled":false,"rental_uris":{"android":"levelo://app?vid=379a37f8-5906-4962-b246-dcc5e1990ab5","ios":"levelo://app?vid=379a37f8-5906-4962-b246-dcc5e1990ab5"},"vehicle_type_id":"4","last_reported":1698617138,"current_range_meters":20400,"station_id":"","pricing_plan_id":"free"},{"bike_id":"43d303bb-18e4-4c18-aad9-d6838b746ff6","system_id":"levelo_inurba_marseille","lat":43.271388,"lon":5.409269,"is_reserved":false,"is_disabled":false,"rental_uris":{"android":"levelo://app?vid=43d303bb-18e4-4c18-aad9-d6838b746ff6","ios":"levelo://app?vid=43d303bb-18e4-4c18-aad9-d6838b746ff6"},"vehicle_type_id":"4","last_reported":1698617138,"current_range_meters":31200,"station_id":"ce4bhl12rcd13ifvqgf0","pricing_plan_id":"free"},{"bike_id":"7c4e02f6-874b-4daa-9d79-8818ab05bc7a","system_id":"levelo_inurba_marseille","lat":43.271368,"lon":5.40928,"is_reserved":false,"is_disabled":false,"rental_uris":{"android":"levelo://app?vid=7c4e02f6-874b-4daa-9d79-8818ab05bc7a","ios":"levelo://app?vid=7c4e02f6-874b-4daa-9d79-8818ab05bc7a"},"vehicle_type_id":"4","last_reported":1698617138,"current_range_meters":31600,"station_id":"ce4bhl12rcd13ifvqgf0","pricing_plan_id":"free"},{"bike_id":"4c1676a6-fc6f-4532-9b98-4bc7b363288f","system_id":"levelo_inurba_marseille","lat":43.271368,"lon":5.40928,"is_reserved":false,"is_disabled":false,"rental_uris":{"android":"levelo://app?vid=4c1676a6-fc6f-4532-9b98-4bc7b363288f","ios":"levelo://app?vid=4c1676a6-fc6f-4532-9b98-4bc7b363288f"},"vehicle_type_id":"4","last_reported":1698617138,"current_range_meters":31200,"station_id":"ce4bhl12rcd13ifvqgf0","pricing_plan_id":"free"},{"bike_id":"10ef3b96-8525-4483-8cef-e50556e42626","system_id":"levelo_inurba_marseille","lat":43.271368,"lon":5.40928,"is_reserved":false,"is_disabled":false,"rental_uris":{"android":"levelo://app?vid=10ef3b96-8525-4483-8cef-e50556e42626","ios":"levelo://app?vid=10ef3b96-8525-4483-8cef-e50556e42626"},"vehicle_type_id":"4","last_reported":1698617138,"current_range_meters":0,"station_id":"ce4bhl12rcd13ifvqgf0","pricing_plan_id":"free"},{"bike_id":"4ff1c701-9bf8-4618-9963-5dbea7ea7418","system_id":"levelo_inurba_marseille","lat":43.271388,"lon":5.409269,"is_reserved":false,"is_disabled":false,"rental_uris":{"android":"levelo://app?vid=4ff1c701-9bf8-4618-9963-5dbea7ea7418","ios":"levelo://app?vid=4ff1c701-9bf8-4618-9963-5dbea7ea7418"},"vehicle_type_id":"4","last_reported":1698617138,"current_range_meters":28000,"station_id":"ce4bhl12rcd13ifvqgf0","pricing_plan_id":"free"},