{"last_updated":1727474906,"ttl":60,"version":"2.2","data":{"bikes":[{"bike_id":"39ddebf9-b780-4b91-8fcd-597459aff4a1","system_id":"levelo_inurba_marseille","lat":43.30012,"lon":5.38239,"is_reserved":false,"is_disabled":false,"rental_uris":{"android":"levelo://app?vid=39ddebf9-b780-4b91-8fcd-597459aff4a1","ios":"levelo://app?vid=39ddebf9-b780-4b91-8fcd-597459aff4a1"},"vehicle_type_id":"4","last_reported":1727474906,"current_range_meters":19200,"station_id":"","pricing_plan_id":"cebpf4jnsgd1na2vs0mg"},{"bike_id":"3118ae5a-8285-4653-acf9-25ae2721b33b","system_id":"levelo_inurba_marseille","lat":43.27372,"lon":5.36259,"is_reserved":false,"is_disabled":false,"rental_uris":{"android":"levelo://app?vid=3118ae5a-8285-4653-acf9-25ae2721b33b","ios":"levelo://app?vid=3118ae5a-8285-4653-acf9-25ae2721b33b"},"vehicle_type_id":"4","last_reported":1727474906,"current_range_meters":3600,"station_id":"ce4bhbh2rcd13ifvqeo0","pricing_plan_id":"cebpf4jnsgd1na2vs0mg"},{"bike_id":"b6317fbb-a67c-426d-b7a3-0c32723c64b7","system_id":"levelo_inurba_marseille","lat":43.2792,"lon":5.39576,"is_reserved":false,"is_disabled":false,"rental_uris":{"android":"levelo://app?vid=b6317fbb-a67c-426d-b7a3-0c32723c64b7","ios":"levelo://app?vid=b6317fbb-a67c-426d-b7a3-0c32723c64b7"},"vehicle_type_id":"4","last_reported":1727474906,"current_range_meters":31200,"station_id":"ce4bhf92rcd13ifvqf40","pricing_plan_id":"cebpf4jnsgd1na2vs0mg"},{"bike_id":"c005912a-7950-45f7-800d-555b2d625fc0","system_id":"levelo_inurba_marseille","lat":43.34498,"lon":5.41629,"is_reserved":false,"is_disabled":false,"rental_uris":{"android":"levelo://app?vid=c005912a-7950-45f7-800d-555b2d625fc0","ios":"levelo://app?vid=c005912a-7950-45f7-800d-555b2d625fc0"},"vehicle_type_id":"4","last_reported":1727474906,"current_range_meters":8400,"station_id":"","pricing_plan_id":"cebpf4jnsgd1na2vs0mg"},{"bike_id":"c65dcbee-f416-470f-b961-e9f842c89988","system_id":"levelo_inurba_marseille","lat":43.24663,"lon":5.3813,"is_reserved":false,"is_disabled":false,"rental_uris":{"android":"levelo://app?vid=c65dcbee-f416-470f-b961-e9f842c89988","ios":"levelo://app?vid=c65dcbee-f416-470f-b961-e9f842c89988"},"vehicle_type_id":"4","last_reported":1727474906,"current_range_meters":34000,"station_id":"ce4bhih2rcd13ifvqfr0","pricing_plan_id":"cebpf4jnsgd1na2vs0mg"},{"bike_id":"6efdec3a-8ec7-4828-94a4-9149e91a53e6","system_id":"levelo_inurba_marseille","lat":43.28616,"lon":5.35102,"is_reserved":false,"is_disabled":false,"rental_uris":{"android":"levelo://app?vid=6efdec3a-8ec7-4828-94a4-9149e91a53e6","ios":"levelo://app?vid=6efdec3a-8ec7-4828-94a4-9149e91a53e6"},"vehicle_type_id":"4","last_reported":1727474906,"current_range_meters":33200,"station_id":"ce4bhch2rcd13ifvqeug","pricing_plan_id":"cebpf4jnsgd1na2vs0mg"},{"bike_id":"6dfba5ca-3691-4f39-a530-9f2ddef8d771","system_id":"levelo_inurba_marseille","lat":43.31481,"lon":5.37297,"is_reserved":false,"is_disabled":false,"rental_uris":{"android":"levelo://app?vid=6dfba5ca-3691-4f39-a530-9f2ddef8d771","ios":"levelo://app?vid=6dfba5ca-3691-4f39-a530-9f2ddef8d771"},"vehicle_type_id":"4","last_reported":1727474906,"current_range_meters":39200,"station_id":"ce4bgt12rcd13ifvqcd0","pricing_plan_id":"cebpf4jnsgd1na2vs0mg"},{"bike_id":"1e11f74d-4db3-4b5b-837c-e8e2de7eecbe","system_id":"levelo_inurba_marseille","lat":43.27901,"lon":5.38005,"is_reserved":false,"is_disabled":false,"rental_uris":{"android":"levelo://app?vid=1e11f74d-4db3-4b5b-837c-e8e2de7eecbe","ios":"levelo://app?vid=1e11f74d-4db3-4b5b-837c-e8e2de7eecbe"},"vehicle_type_id":"4","last_reported":1727474906,"current_range_meters":20400,"station_id":"ce4bhf92rcd13ifvqf50","pricing_plan_id":"cebpf4jnsgd1na2vs0mg"},{"bike_id":"4dd2d48e-7ed9-45f7-9616-99d38c7d4684","system_id":"levelo_inurba_marseille","lat":43.32367,"lon":5.38882,"is_reserved":false,"is_disabled":false,"rental_uris":{"android":"levelo://app?vid=4dd2d48e-7ed9-45f7-9616-99d38c7d4684","ios":"levelo://app?vid=4dd2d48e-7ed9-45f7-9616-99d38c7d4684"},"vehicle_type_id":"4","last_reported":1727474906,"current_range_meters":26800,"station_id":"ce4bhqp2rcd13ifvqhog","pricing_plan_id":"cebpf4jnsgd1na2vs0mg"},{"bike_id":"a7a19a3a-9797-4b32-a0e4-f2a72c455a17","system_id":"levelo_inurba_marseille","lat":43.23184,"lon":5.39989,"is_reserved":false,"is_disabled":false,"rental_uris":{"android":"levelo://app?vid=a7a19a3a-9797-4b32-a0e4-f2a72c455a17","ios":"levelo://app?vid=a7a19a3a-9797-4b32-a0e4-f2a72c455a17"},"vehicle_type_id":"4","last_reported":1727474906,"current_range_meters":26000,"station_id":"ce4bhn12rcd13ifvqgqg","pricing_plan_id":"cebpf4jnsgd1na2vs0mg"},{"bike_id":"cf2f3482-23ce-424c-af8e-e0504e1e5cd2","system_id":"levelo_inurba_marseille","lat":43.32835,"lon":5.40497,"is_reserved":false,"is_disabled":false,"rental_uris":{"android":"levelo://app?vid=cf2f3482-23ce-424c-af8e-e0504e1e5cd2","ios":"levelo://app?vid=cf2f3482-23ce-424c-af8e-e0504e1e5cd2"},"vehicle_type_id":"4","last_reported":1727474906,"current_range_meters":6400,"station_id":"","pricing_plan_id":"cebpf4jnsgd1na2vs0mg"},{"bike_id":"c04a42fe-8919-4d57-91e8-3acd68cc6cf6","system_id":"levelo_inurba_marseille","lat":43.27909,"lon":5.37992,"is_reserved":false,"is_disabled":false,"rental_uris":{"android":"levelo://app?vid=c04a42fe-8919-4d57-91e8-3acd68cc6cf6","ios":"levelo://app?vid=c04a42fe-8919-4d57-91e8-3acd68cc6cf6"},"vehicle_type_id":"4","last_reported":1727474906,"current_range_meters":6800,"station_id":"ce4bhf92rcd13ifvqf50","pricing_plan_id":"cebpf4jnsgd1na2vs0mg"},{"bike_id":"b168ce65-7b47-4816-ac58-4c6f4c98221c","system_id":"levelo_inurba_marseille","lat":43.33025,"lon":5.39044,"is_reserved":false,"is_disabled":false,"rental_uris":{"android":"levelo://app?vid=b168ce65-7b47-4816-ac58-4c6f4c98221c","ios":"levelo://app?vid=b168ce65-7b47-4816-ac58-4c6f4c98221c"},"vehicle_type_id":"4","last_reported":1727474906,"current_range_meters":20800,"station_id":"ce4bhr92rcd13ifvqhrg","pricing_plan_id":"cebpf4jnsgd1na2vs0mg"},{"bike_id":"536e6358-203d-45da-b0c5-34d7e8e8be62","system_id":"levelo_inurba_marseille","lat":43.28069,"lon":5.39644,"is_reserved":false,"is_disabled":false,"rental_uris":{"android":"levelo://app?vid=536e6358-203d-45da-b0c5-34d7e8e8be62","ios":"levelo://app?vid=536e6358-203d-45da-b0c5-34d7e8e8be62"},"vehicle_type_id":"4","last_reported":1727474906,"current_range_meters":39200,"station_id":"ce4bho12rcd13ifvqh2g","pricing_plan_id":"cebpf4jnsgd1na2vs0mg"},{"bike_id":"057f12cc-7465-4b8e-97a8-a8f15556c919","system_id":"levelo_inurba_marseille","lat":43.29636,"lon":5.40596,"is_reserved":false,"is_disabled":false,"rental_uris":{"android":"levelo://app?vid=057f12cc-7465-4b8e-97a8-a8f15556c919","ios":"levelo://app?vid=057f12cc-7465-4b8e-97a8-a8f15556c919"},"vehicle_type_id":"4","last_reported":1727474906,"current_range_meters":4400,"station_id":"ce4bh0h2rcd13ifvqd60","pricing_plan_id":"cebpf4jnsgd1na2vs0mg"},{"bike_id":"ac7e4442-02e6-4ff8-8ead-442972d1f361","system_id":"levelo_inurba_marseille","lat":43.32364,"lon":5.38871,"is_reserved":false,"is_disabled":false,"rental_uris":{"android":"levelo://app?vid=ac7e4442-02e6-4ff8-8ead-442972d1f361","ios":"levelo://app?vid=ac7e4442-02e6-4ff8-8ead-442972d1f361"},"vehicle_type_id":"4","last_reported":1727474906,"current_range_meters":7200,"station_id":"ce4bhqp2rcd13ifvqhog","pricing_plan_id":"cebpf4jnsgd1na2vs0mg"},{"bike_id":"70b8bbd4-b9e7-478f-ac4d-162e85affd14","system_id":"levelo_inurba_marseille","lat":43.28046,"lon":5.36949,"is_reserved":false,"is_disabled":false,"rental_uris":{"android":"levelo://app?vid=70b8bbd4-b9e7-478f-ac4d-162e85affd14","ios":"levelo://app?vid=70b8bbd4-b9e7-478f-ac4d-162e85affd14"},"vehicle_type_id":"4","last_reported":1727474906,"current_range_meters":5600,"station_id":"ce4bha12rcd13ifvqef0","pricing_plan_id":"cebpf4jnsgd1na2vs0mg"},{"bike_id":"06a0a4a5-f821-448a-8c9a-8f0fee962b55","system_id":"levelo_inurba_marseille","lat":43.28932,"lon":5.3663,"is_reserved":false,"is_disabled":false,"rental_uris":{"android":"levelo://app?vid=06a0a4a5-f821-448a-8c9a-8f0fee962b55","ios":"levelo://app?vid=06a0a4a5-f821-448a-8c9a-8f0fee962b55"},"vehicle_type_id":"4","last_reported":1727474906,"current_range_meters":5600,"station_id":"ce4bhap2rcd13ifvqek0","pricing_plan_id":"cebpf4jnsgd1na2vs0mg"},{"bike_id":"399212e0-3454-41d4-bcd4-464c7c545a78","system_id":"levelo_inurba_marseille","lat":43.22934,"lon":5.35374,"is_reserved":false,"is_disabled":false,"rental_uris":{"android":"levelo://app?vid=399212e0-3454-41d4-bcd4-464c7c545a78","ios":"levelo://app?vid=399212e0-3454-41d4-bcd4-464c7c545a78"},"vehicle_type_id":"4","last_reported":1727474906,"current_range_meters":38800,"station_id":"cpo3532slgdg3j2ikp40","pricing_plan_id":"cebpf4jnsgd1na2vs0mg"},{"bike_id":"091b19f6-15a9-47d2-8c1c-5ad8e8097f76","system_id":"levelo_inurba_marseille","lat":43.30949,"lon":5.39035,"is_reserved":false,"is_disabled":false,"rental_uris":{"android":"levelo://app?vid=091b19f6-15a9-47d2-8c1c-5ad8e8097f76","ios":"levelo://app?vid=091b19f6-15a9-47d2-8c1c-5ad8e8097f76"},"vehicle_type_id":"4","last_reported":1727474906,"current_range_meters":20000,"station_id":"ce4bgup2rcd13ifvqco0","pricing_plan_id":"cebpf4jnsgd1na2vs0mg"},{"bike_id":"66d73b18-4c68-444d-b604-022a59e67ce2","system_id":"levelo_inurba_marseille","lat":43.29555,"lon":5.42275,"is_reserved":false,"is_disabled":false,"rental_uris":{"android":"levelo://app?vid=66d73b18-4c68-444d-b604-022a59e67ce2","ios":"levelo://app?vid=66d73b18-4c68-444d-b604-022a59e67ce2"},"vehicle_type_id":"4","last_reported":1727474906,"current_range_meters":14000,"station_id":"ce4bhph2rcd13ifvqhdg","pricing_plan_id":"cebpf4jnsgd1na2vs0mg"},{"bike_id":"ed20c315-5e25-4fc6-ab77-b4d968224ce0","system_id":"levelo_inurba_marseille","lat":43.31082,"lon":5.38353,"is_reserved":false,"is_disabled":false,"rental_uris":{"android":"levelo://app?vid=ed20c315-5e25-4fc6-ab77-b4d968224ce0","ios":"levelo://app?vid=ed20c315-5e25-4fc6-ab77-b4d968224ce0"},"vehicle_type_id":"4","last_reported":1727474906,"current_range_meters":18000,"station_id":"ce4bgv92rcd13ifvqcr0","pricing_plan_id":"cebpf4jnsgd1na2vs0mg"},{"bike_id":"7ec1c3e8-ff45-4f43-93d9-7981d666f20f","system_id":"levelo_inurba_marseille","lat":43.30886,"lon":5.39625,"is_reserved":false,"is_disabled":false,"rental_uris":{"android":"levelo://app?vid=7ec1c3e8-ff45-4f43-93d9-7981d666f20f","ios":"levelo://app?vid=7ec1c3e8-ff45-4f43-93d9-7981d666f20f"},"vehicle_type_id":"4","last_reported":1727474906,"current_range_meters":23200,"station_id":"ce4bh012rcd13ifvqcv0","pricing_plan_id":"cebpf4jnsgd1na2vs0mg"},{"bike_id":"5ddf2d2e-8d7a-425f-866f-4acf4064e8fa","system_id":"levelo_inurba_marseille","lat":43.25827,"lon":5.39428,"is_reserved":false,"is_disabled":false,"rental_uris":{"android":"levelo://app?vid=5ddf2d2e-8d7a-425f-866f-4acf4064e8fa","ios":"levelo://app?vid=5ddf2d2e-8d7a-425f-866f-4acf4064e8fa"},"vehicle_type_id":"4","last_reported":1727474906,"current_range_meters":38800,"station_id":"ce4bhip2rcd13ifvqft0","pricing_plan_id":"cebpf4jnsgd1na2vs0mg"},{"bike_id":"2619bd3c-aafc-4790-adc9-09493075d381","system_id":"levelo_inurba_marseille","lat":43.31176,"lon":5.38707,"is_reserved":false,"is_disabled":false,"rental_uris":{"android":"levelo://app?vid=2619bd3c-aafc-4790-adc9-09493075d381","ios":"levelo://app?vid=2619bd3c-aafc-4790-adc9-09493075d381"},"vehicle_type_id":"4","last_reported":1727474906,"current_range_meters":33200,"station_id":"ce4bgv12rcd13ifvqcp0","pricing_plan_id":"cebpf4jnsgd1na2vs0mg"},{"bike_id":"cedc07a9-5694-452c-8a22-6ebdfd4f2894","system_id":"levelo_inurba_marseille","lat":43.25819,"lon":5.39425,"is_reserved":false,"is_disabled":false,"rental_uris":{"android":"levelo://app?vid=cedc07a9-5694-452c-8a22-6ebdfd4f2894","ios":"levelo://app?vid=cedc07a9-5694-452c-8a22-6ebdfd4f2894"},"vehicle_type_id":"4","last_reported":1727474906,"current_range_meters":9200,"station_id":"ce4bhip2rcd13ifvqft0","pricing_plan_id":"cebpf4jnsgd1na2vs0mg"},{"bike_id":"24947b9e-d6cd-4075-885c-f648db26585b","system_id":"levelo_inurba_marseille","lat":43.31533,"lon":5.38031,"is_reserved":false,"is_disabled":false,"rental_uris":{"android":"levelo://app?vid=24947b9e-d6cd-4075-885c-f648db26585b","ios":"levelo://app?vid=24947b9e-d6cd-4075-885c-f648db26585b"},"vehicle_type_id":"4","last_reported":1727474906,"current_range_meters":38800,"station_id":"ce4bhsp2rcd13ifvqi50","pricing_plan_id":"cebpf4jnsgd1na2vs0mg"},{"bike_id":"a2b9d2b4-51f1-4267-9f91-7857b7d24fea","system_id":"levelo_inurba_marseille","lat":43.31125,"lon":5.3775,"is_reserved":false,"is_disabled":false,"rental_uris":{"android":"levelo://app?vid=a2b9d2b4-51f1-4267-9f91-7857b7d24fea","ios":"levelo://app?vid=a2b9d2b4-51f1-4267-9f91-7857b7d24fea"},"vehicle_type_id":"4","last_reported":1727474906,"current_range_meters":28800,"station_id":"ce4bgt92rcd13ifvqcg0","pricing_plan_id":"cebpf4jnsgd1na2vs0mg"},{"bike_id":"94fe8acf-f2b2-4369-9c9e-3981f2418028","system_id":"levelo_inurba_marseille","lat":43.33752,"lon":5.37361,"is_reserved":false,"is_disabled":false,"rental_uris":{"android":"levelo://app?vid=94fe8acf-f2b2-4369-9c9e-3981f2418028","ios":"levelo://app?vid=94fe8acf-f2b2-4369-9c9e-3981f2418028"},"vehicle_type_id":"4","last_reported":1727474906,"current_range_meters":25200,"station_id":"","pricing_plan_id":"cebpf4jnsgd1na2vs0mg"},{"bike_id":"ac8b5c28-327e-4fe2-8817-4e667389163d","system_id":"levelo_inurba_marseille","lat":43.3171,"lon":5.43709,"is_reserved":false,"is_disabled":false,"rental_uris":{"android":"levelo://app?vid=ac8b5c28-327e-4fe2-8817-4e667389163d","ios":"levelo://app?vid=ac8b5c28-327e-4fe2-8817-4e667389163d"},"vehicle_type_id":"4","last_reported":1727474906,"current_range_meters":24800,"station_id":"ce4bhp92rcd13ifvqhcg","pricing_plan_id":"cebpf4jnsgd1na2vs0mg"},{"bike_id":"0f703534-fd5b-4b5b-b5fa-f72466bb8302","system_id":"levelo_inurba_marseille","lat":43.24805,"lon":5.37455,"is_reserved":false,"is_disabled":false,"rental_uris":{"android":"levelo://app?vid=0f703534-fd5b-4b5b-b5fa-f72466bb8302","ios":"levelo://app?vid=0f703534-fd5b-4b5b-b5fa-f72466bb8302"},"vehicle_type_id":"4","last_reported":1727474906,"current_range_meters":8400,"station_id":"ce4bhgh2rcd13ifvqfb0","pricing_plan_id":"cebpf4jnsgd1na2vs0mg"},{"bike_id":"c3eb6ba7-08a9-429a-be7d-e78a05d03c90","system_id":"levelo_inurba_marseille","lat":43.26501,"lon":5.39542,"is_reserved":false,"is_disabled":false,"rental_uris":{"android":"levelo://app?vid=c3eb6ba7-08a9-429a-be7d-e78a05d03c90","ios":"levelo://app?vid=c3eb6ba7-08a9-429a-be7d-e78a05d03c90"},"vehicle_type_id":"4","last_reported":1727474906,"current_range_meters":38400,"station_id":"ce4bhi12rcd13ifvqfq0","pricing_plan_id":"cebpf4jnsgd1na2vs0mg"},{"bike_id":"b2292de1-c7cc-402c-a2c1-9a7645c0eccd","system_id":"levelo_inurba_marseille","lat":43.29575,"lon":5.39973,"is_reserved":false,"is_disabled":false,"rental_uris":{"android":"levelo://app?vid=b2292de1-c7cc-402c-a2c1-9a7645c0eccd","ios":"levelo://app?vid=b2292de1-c7cc-402c-a2c1-9a7645c0eccd"},"vehicle_type_id":"4","last_reported":1727474906,"current_range_meters":22400,"station_id":"ce4bh312rcd13ifvqdj0","pricing_plan_id":"cebpf4jnsgd1na2vs0mg"},{"bike_id":"7ce2e88b-815d-411c-a226-2de383c10738","system_id":"levelo_inurba_marseille","lat":43.292635,"lon":5.384392,"is_reserved":false,"is_disabled":false,"rental_uris":{"android":"levelo://app?vid=7ce2e88b-815d-411c-a226-2de383c10738","ios":"levelo://app?vid=7ce2e88b-815d-411c-a226-2de383c10738"},"vehicle_type_id":"4","last_reported":1727474906,"current_range_meters":24000,"station_id":"ce4bh692rcd13ifvqea0","pricing_plan_id":"cebpf4jnsgd1na2vs0mg"},{"bike_id":"6ab69009-f97f-4c46-9b52-37e57cc06b65","system_id":"levelo_inurba_marseille","lat":43.24387,"lon":5.37056,"is_reserved":false,"is_disabled":false,"rental_uris":{"android":"levelo://app?vid=6ab69009-f97f-4c46-9b52-37e57cc06b65","ios":"levelo://app?vid=6ab69009-f97f-4c46-9b52-37e57cc06b65"},"vehicle_type_id":"4","last_reported":1727474906,"current_range_meters":38000,"station_id":"ce4bhhh2rcd13ifvqfk0","pricing_plan_id":"cebpf4jnsgd1na2vs0mg"},{"bike_id":"9d7f27f1-59c9-407a-ab50-9301a82e6bf5","system_id":"levelo_inurba_marseille","lat":43.337444,"lon":5.374475,"is_reserved":false,"is_disabled":false,"rental_uris":{"android":"levelo://app?vid=9d7f27f1-59c9-407a-ab50-9301a82e6bf5","ios":"levelo://app?vid=9d7f27f1-59c9-407a-ab50-9301a82e6bf5"},"vehicle_type_id":"4","last_reported":1727474906,"current_range_meters":14800,"station_id":"","pricing_plan_id":"cebpf4jnsgd1na2vs0mg"},{"bike_id":"921dbe49-00bd-4caf-987e-4fb204cfbe19","system_id":"levelo_inurba_marseille","lat":43.30951,"lon":5.39015,"is_reserved":false,"is_disabled":false,"rental_uris":{"android":"levelo://app?vid=921dbe49-00bd-4caf-987e-4fb204cfbe19","ios":"levelo://app?vid=921dbe49-00bd-4caf-987e-4fb204cfbe19"},"vehicle_type_id":"4","last_reported":1727474906,"current_range_meters":8800,"station_id":"ce4bgup2rcd13ifvqco0","pricing_plan_id":"cebpf4jnsgd1na2vs0mg"},{"bike_id":"7ac17f94-66fa-4ca5-8a1f-8c1c4683e1c6","system_id":"levelo_inurba_marseille","lat":43.2978,"lon":5.39339,"is_reserved":false,"is_disabled":false,"rental_uris":{"android":"levelo://app?vid=7ac17f94-66fa-4ca5-8a1f-8c1c4683e1c6","ios":"levelo://app?vid=7ac17f94-66fa-4ca5-8a1f-8c1c4683e1c6"},"vehicle_type_id":"4","last_reported":1727474906,"current_range_meters":35600,"station_id":"chh1huq6cuj3fo74tm60","pricing_plan_id":"cebpf4jnsgd1na2vs0mg"},{"bike_id":"a8293dbe-9603-4efa-bfa3-1a4c64d0e764","system_id":"levelo_inurba_marseille","lat":43.31135,"lon":5.37756,"is_reserved":false,"is_disabled":false,"rental_uris":{"android":"levelo://app?vid=a8293dbe-9603-4efa-bfa3-1a4c64d0e764","ios":"levelo://app?vid=a8293dbe-9603-4efa-bfa3-1a4c64d0e764"},"vehicle_type_id":"4","last_reported":1727474906,"current_range_meters":21600,"station_id":"ce4bgt92rcd13ifvqcg0","pricing_plan_id":"cebpf4jnsgd1na2vs0mg"},{"bike_id":"a8346a96-6a50-4f23-a8a3-87173fd63249","system_id":"levelo_inurba_marseille","lat":43.307922,"lon":5.376404,"is_reserved":false,"is_disabled":false,"rental_uris":{"android":"levelo://app?vid=a8346a96-6a50-4f23-a8a3-87173fd63249","ios":"levelo://app?vid=a8346a96-6a50-4f23-a8a3-87173fd63249"},"vehicle_type_id":"4","last_reported":1727474906,"current_range_meters":20800,"station_id":"ce4bgv92rcd13ifvqcq0","pricing_plan_id":"cebpf4jnsgd1na2vs0mg"},{"bike_id":"fc7165fd-80a4-4306-98f7-c18548d70317","system_id":"levelo_inurba_marseille","lat":43.31993,"lon":5.38155,"is_reserved":false,"is_disabled":false,"rental_uris":{"android":"levelo://app?vid=fc7165fd-80a4-4306-98f7-c18548d70317","ios":"levelo://app?vid=fc7165fd-80a4-4306-98f7-c18548d70317"},"vehicle_type_id":"4","last_reported":1727474906,"current_range_meters":39200,"station_id":"ce4bhr12rcd13ifvqhpg","pricing_plan_id":"cebpf4jnsgd1na2vs0mg"},{"bike_id":"795e37c3-47ed-4803-8a9c-610564c3182e","system_id":"levelo_inurba_marseille","lat":43.29793,"lon":5.40404,"is_reserved":false,"is_disabled":false,"rental_uris":{"android":"levelo://app?vid=795e37c3-47ed-4803-8a9c-610564c3182e","ios":"levelo://app?vid=795e37c3-47ed-4803-8a9c-610564c3182e"},"vehicle_type_id":"4","last_reported":1727474906,"current_range_meters":10800,"station_id":"ce4bh112rcd13ifvqd90","pricing_plan_id":"cebpf4jnsgd1na2vs0mg"},{"bike_id":"9932817c-2e79-4dd0-8725-589d669fce04","system_id":"levelo_inurba_marseille","lat":43.31065,"lon":5.38346,"is_reserved":false,"is_disabled":false,"rental_uris":{"android":"levelo://app?vid=9932817c-2e79-4dd0-8725-589d669fce04","ios":"levelo://app?vid=9932817c-2e79-4dd0-8725-589d669fce04"},"vehicle_type_id":"4","last_reported":1727474906,"current_range_meters":24800,"station_id":"ce4bgv92rcd13ifvqcr0","pricing_plan_id":"cebpf4jnsgd1na2vs0mg"},{"bike_id":"0a7ac8ba-caaf-4563-8038-3e3d7f5ee861","system_id":"levelo_inurba_marseille","lat":43.30814,"lon":5.38155,"is_reserved":false,"is_disabled":false,"rental_uris":{"android":"levelo://app?vid=0a7ac8ba-caaf-4563-8038-3e3d7f5ee861","ios":"levelo://app?vid=0a7ac8ba-caaf-4563-8038-3e3d7f5ee861"},"vehicle_type_id":"4","last_reported":1727474906,"current_range_meters":39200,"station_id":"ce4bgt12rcd13ifvqce0","pricing_plan_id":"cebpf4jnsgd1na2vs0mg"},{"bike_id":"42dff045-a9d4-4b05-a53e-6d488d6d027d","system_id":"levelo_inurba_marseille","lat":43.31482,"lon":5.37294,"is_reserved":false,"is_disabled":false,"rental_uris":{"android":"levelo://app?vid=42dff045-a9d4-4b05-a53e-6d488d6d027d","ios":"levelo://app?vid=42dff045-a9d4-4b05-a53e-6d488d6d027d"},"vehicle_type_id":"4","last_reported":1727474906,"current_range_meters":28400,"station_id":"ce4bgt12rcd13ifvqcd0","pricing_plan_id":"cebpf4jnsgd1na2vs0mg"},{"bike_id":"02224f8c-d6bb-41b4-bc82-e278253b681c","system_id":"levelo_inurba_marseille","lat":43.31677,"lon":5.4048,"is_reserved":false,"is_disabled":false,"rental_uris":{"android":"levelo://app?vid=02224f8c-d6bb-41b4-bc82-e278253b681c","ios":"levelo://app?vid=02224f8c-d6bb-41b4-bc82-e278253b681c"},"vehicle_type_id":"4","last_reported":1727474906,"current_range_meters":38400,"station_id":"ce4bh012rcd13ifvqd00","pricing_plan_id":"cebpf4jnsgd1na2vs0mg"},{"bike_id":"b8bae6cc-7d26-425f-8d26-f35dbac90fff","system_id":"levelo_inurba_marseille","lat":43.23188,"lon":5.39988,"is_reserved":false,"is_disabled":false,"rental_uris":{"android":"levelo://app?vid=b8bae6cc-7d26-425f-8d26-f35dbac90fff","ios":"levelo://app?vid=b8bae6cc-7d26-425f-8d26-f35dbac90fff"},"vehicle_type_id":"4","last_reported":1727474906,"current_range_meters":24400,"station_id":"ce4bhn12rcd13ifvqgqg","pricing_plan_id":"cebpf4jnsgd1na2vs0mg"},{"bike_id":"3cb69089-2daf-46be-bd32-51ff7c39298a","system_id":"levelo_inurba_marseille","lat":43.32667,"lon":5.40984,"is_reserved":false,"is_disabled":false,"rental_uris":{"android":"levelo://app?vid=3cb69089-2daf-46be-bd32-51ff7c39298a","ios":"levelo://app?vid=3cb69089-2daf-46be-bd32-51ff7c39298a"},"vehicle_type_id":"4","last_reported":1727474906,"current_range_meters":38800,"station_id":"ce4bhpp2rcd13ifvqhgg","pricing_plan_id":"cebpf4jnsgd1na2vs0mg"},{"bike_id":"ae775227-904a-4704-946a-5e96698aef42","system_id":"levelo_inurba_marseille","lat":43.31887,"lon":5.40734,"is_reserved":false,"is_disabled":false,"rental_uris":{"android":"levelo://app?vid=ae775227-904a-4704-946a-5e96698aef42","ios":"levelo://app?vid=ae775227-904a-4704-946a-5e96698aef42"},"vehicle_type_id":"4","last_reported":1727474906,"current_range_meters":38400,"station_id":"ce4bhq12rcd13ifvqhig","pricing_plan_id":"cebpf4jnsgd1na2vs0mg"},{"bike_id":"448d6747-519f-43e7-b72d-062d18648a3e","system_id":"levelo_inurba_marseille","lat":43.29268,"lon":5.38435,"is_reserved":false,"is_disabled":false,"rental_uris":{"android":"levelo://app?vid=448d6747-519f-43e7-b72d-062d18648a3e","ios":"levelo://app?vid=448d6747-519f-43e7-b72d-062d18648a3e"},"vehicle_type_id":"4","last_reported":1727474906,"current_range_meters":27200,"station_id":"ce4bh492rcd13ifvqdug","pricing_plan_id":"cebpf4jnsgd1na2vs0mg"},{"bike_id":"1e4514bc-401b-4c66-8120-58cf7bc16319","system_id":"levelo_inurba_marseille","lat":43.28439,"lon":5.39181,"is_reserved":false,"is_disabled":false,"rental_uris":{"android":"levelo://app?vid=1e4514bc-401b-4c66-8120-58cf7bc16319","ios":"levelo://app?vid=1e4514bc-401b-4c66-8120-58cf7bc16319"},"vehicle_type_id":"4","last_reported":1727474906,"current_range_meters":6400,"station_id":"ce4bhoh2rcd13ifvqh5g","pricing_plan_id":"cebpf4jnsgd1na2vs0mg"},{"bike_id":"00404e41-219a-445f-a7ce-a6a6be59d205","system_id":"levelo_inurba_marseille","lat":43.25002,"lon":5.38925,"is_reserved":false,"is_disabled":false,"rental_uris":{"android":"levelo://app?vid=00404e41-219a-445f-a7ce-a6a6be59d205","ios":"levelo://app?vid=00404e41-219a-445f-a7ce-a6a6be59d205"},"vehicle_type_id":"4","last_reported":1727474906,"current_range_meters":16400,"station_id":"ce4bhgp2rcd13ifvqfd0","pricing_plan_id":"cebpf4jnsgd1na2vs0mg"},{"bike_id":"039cc69e-0e82-4908-9e61-a8573dcdcd77","system_id":"levelo_inurba_marseille","lat":43.29299,"lon":5.374635,"is_reserved":false,"is_disabled":false,"rental_uris":{"android":"levelo://app?vid=039cc69e-0e82-4908-9e61-a8573dcdcd77","ios":"levelo://app?vid=039cc69e-0e82-4908-9e61-a8573dcdcd77"},"vehicle_type_id":"4","last_reported":1727474906,"current_range_meters":20400,"station_id":"ce4bgi12rcd13ifvqb70","pricing_plan_id":"cebpf4jnsgd1na2vs0mg"},{"bike_id":"cbdd1a1b-a72f-4ef7-aca2-9fcb33cfe7f5","system_id":"levelo_inurba_marseille","lat":43.23972,"lon":5.3662,"is_reserved":false,"is_disabled":false,"rental_uris":{"android":"levelo://app?vid=cbdd1a1b-a72f-4ef7-aca2-9fcb33cfe7f5","ios":"levelo://app?vid=cbdd1a1b-a72f-4ef7-aca2-9fcb33cfe7f5"},"vehicle_type_id":"4","last_reported":1727474906,"current_range_meters":38800,"station_id":"ce4bhi12rcd13ifvqfp0","pricing_plan_id":"cebpf4jnsgd1na2vs0mg"},{"bike_id":"c24ed25a-0333-456a-9e7a-1b20dcfbb9d1","system_id":"levelo_inurba_marseille","lat":43.30588,"lon":5.39342,"is_reserved":false,"is_disabled":false,"rental_uris":{"android":"levelo://app?vid=c24ed25a-0333-456a-9e7a-1b20dcfbb9d1","ios":"levelo://app?vid=c24ed25a-0333-456a-9e7a-1b20dcfbb9d1"},"vehicle_type_id":"4","last_reported":1727474906,"current_range_meters":17600,"station_id":"ce4bh0p2rcd13ifvqd80","pricing_plan_id":"cebpf4jnsgd1na2vs0mg"},{"bike_id":"793211c1-f1bd-46e5-8d03-4516b62c68da","system_id":"levelo_inurba_marseille","lat":43.2439,"lon":5.37062,"is_reserved":false,"is_disabled":false,"rental_uris":{"android":"levelo://app?vid=793211c1-f1bd-46e5-8d03-4516b62c68da","ios":"levelo://app?vid=793211c1-f1bd-46e5-8d03-4516b62c68da"},"vehicle_type_id":"4","last_reported":1727474906,"current_range_meters":38400,"station_id":"ce4bhhh2rcd13ifvqfk0","pricing_plan_id":"cebpf4jnsgd1na2vs0mg"},{"bike_id":"87078ebc-7c36-4f75-80e4-250b9a9f2af8","system_id":"levelo_inurba_marseille","lat":43.28708,"lon":5.37378,"is_reserved":false,"is_disabled":false,"rental_uris":{"android":"levelo://app?vid=87078ebc-7c36-4f75-80e4-250b9a9f2af8","ios":"levelo://app?vid=87078ebc-7c36-4f75-80e4-250b9a9f2af8"},"vehicle_type_id":"4","last_reported":1727474906,"current_range_meters":38400,"station_id":"ce4bh3p2rcd13ifvqdq0","pricing_plan_id":"cebpf4jnsgd1na2vs0mg"},{"bike_id":"825b33d2-8422-4340-b2e0-4a4ce451e1bc","system_id":"levelo_inurba_marseille","lat":43.28669,"lon":5.36346,"is_reserved":false,"is_disabled":false,"rental_uris":{"android":"levelo://app?vid=825b33d2-8422-4340-b2e0-4a4ce451e1bc","ios":"levelo://app?vid=825b33d2-8422-4340-b2e0-4a4ce451e1bc"},"vehicle_type_id":"4","last_reported":1727474906,"current_range_meters":16000,"station_id":"ce4bhah2rcd13ifvqej0","pricing_plan_id":"cebpf4jnsgd1na2vs0mg"},{"bike_id":"9b31f7c2-4582-439a-99c5-8be874a75c71","system_id":"levelo_inurba_marseille","lat":43.30962,"lon":5.39038,"is_reserved":false,"is_disabled":false,"rental_uris":{"android":"levelo://app?vid=9b31f7c2-4582-439a-99c5-8be874a75c71","ios":"levelo://app?vid=9b31f7c2-4582-439a-99c5-8be874a75c71"},"vehicle_type_id":"4","last_reported":1727474906,"current_range_meters":36800,"station_id":"ce4bgup2rcd13ifvqco0","pricing_plan_id":"cebpf4jnsgd1na2vs0mg"},{"bike_id":"392bd197-a326-46b1-b4a8-a55f93e1327d","system_id":"levelo_inurba_marseille","lat":43.23188,"lon":5.3998,"is_reserved":false,"is_disabled":false,"rental_uris":{"android":"levelo://app?vid=392bd197-a326-46b1-b4a8-a55f93e1327d","ios":"levelo://app?vid=392bd197-a326-46b1-b4a8-a55f93e1327d"},"vehicle_type_id":"4","last_reported":1727474906,"current_range_meters":19200,"station_id":"ce4bhn12rcd13ifvqgqg","pricing_plan_id":"cebpf4jnsgd1na2vs0mg"},{"bike_id":"a15b60e8-4cb4-4798-8949-e232ce39b91f","system_id":"levelo_inurba_marseille","lat":43.23177,"lon":5.39984,"is_reserved":false,"is_disabled":false,"rental_uris":{"android":"levelo://app?vid=a15b60e8-4cb4-4798-8949-e232ce39b91f","ios":"levelo://app?vid=a15b60e8-4cb4-4798-8949-e232ce39b91f"},"vehicle_type_id":"4","last_reported":1727474906,"current_range_meters":38400,"station_id":"ce4bhn12rcd13ifvqgqg","pricing_plan_id":"cebpf4jnsgd1na2vs0mg"},{"bike_id":"4e9e4c02-21a1-4304-b578-a2c7b1a12348","system_id":"levelo_inurba_marseille","lat":43.29259,"lon":5.40903,"is_reserved":false,"is_disabled":false,"rental_uris":{"android":"levelo://app?vid=4e9e4c02-21a1-4304-b578-a2c7b1a12348","ios":"levelo://app?vid=4e9e4c02-21a1-4304-b578-a2c7b1a12348"},"vehicle_type_id":"4","last_reported":1727474906,"current_range_meters":4000,"station_id":"ce4bh192rcd13ifvqdc0","pricing_plan_id":"cebpf4jnsgd1na2vs0mg"},{"bike_id":"17291eee-f1e8-444f-897d-64236aae520c","system_id":"levelo_inurba_marseille","lat":43.27367,"lon":5.36263,"is_reserved":false,"is_disabled":false,"rental_uris":{"android":"levelo://app?vid=17291eee-f1e8-444f-897d-64236aae520c","ios":"levelo://app?vid=17291eee-f1e8-444f-897d-64236aae520c"},"vehicle_type_id":"4","last_reported":1727474906,"current_range_meters":32400,"station_id":"ce4bhbh2rcd13ifvqeo0","pricing_plan_id":"cebpf4jnsgd1na2vs0mg"},{"bike_id":"c46caf16-9c18-4371-ac6c-67d2248af867","system_id":"levelo_inurba_marseille","lat":43.28674,"lon":5.36355,"is_reserved":false,"is_disabled":false,"rental_uris":{"android":"levelo://app?vid=c46caf16-9c18-4371-ac6c-67d2248af867","ios":"levelo://app?vid=c46caf16-9c18-4371-ac6c-67d2248af867"},"vehicle_type_id":"4","last_reported":1727474906,"current_range_meters":38800,"station_id":"ce4bhah2rcd13ifvqej0","pricing_plan_id":"cebpf4jnsgd1na2vs0mg"},{"bike_id":"552f669a-f86f-412d-81f3-4e8a07f1d4c1","system_id":"levelo_inurba_marseille","lat":43.31126,"lon":5.37754,"is_reserved":false,"is_disabled":false,"rental_uris":{"android":"levelo://app?vid=552f669a-f86f-412d-81f3-4e8a07f1d4c1","ios":"levelo://app?vid=552f669a-f86f-412d-81f3-4e8a07f1d4c1"},"vehicle_type_id":"4","last_reported":1727474906,"current_range_meters":30400,"station_id":"ce4bgt92rcd13ifvqcg0","pricing_plan_id":"cebpf4jnsgd1na2vs0mg"},{"bike_id":"d7fe12fe-e038-479a-8964-cbb2c18e49c6","system_id":"levelo_inurba_marseille","lat":43.28932,"lon":5.39624,"is_reserved":false,"is_disabled":false,"rental_uris":{"android":"levelo://app?vid=d7fe12fe-e038-479a-8964-cbb2c18e49c6","ios":"levelo://app?vid=d7fe12fe-e038-479a-8964-cbb2c18e49c6"},"vehicle_type_id":"4","last_reported":1727474906,"current_range_meters":6400,"station_id":"ce4bh3h2rcd13ifvqdn0","pricing_plan_id":"cebpf4jnsgd1na2vs0mg"},{"bike_id":"cca55aa7-3310-4736-b9da-84e54c5441c0","system_id":"levelo_inurba_marseille","lat":43.27836,"lon":5.39206,"is_reserved":false,"is_disabled":false,"rental_uris":{"android":"levelo://app?vid=cca55aa7-3310-4736-b9da-84e54c5441c0","ios":"levelo://app?vid=cca55aa7-3310-4736-b9da-84e54c5441c0"},"vehicle_type_id":"4","last_reported":1727474906,"current_range_meters":38000,"station_id":"ce4bhjp2rcd13ifvqga0","pricing_plan_id":"cebpf4jnsgd1na2vs0mg"},{"bike_id":"c30853c8-b61a-4085-98d1-cc2786e876c2","system_id":"levelo_inurba_marseille","lat":43.31326,"lon":5.39693,"is_reserved":false,"is_disabled":false,"rental_uris":{"android":"levelo://app?vid=c30853c8-b61a-4085-98d1-cc2786e876c2","ios":"levelo://app?vid=c30853c8-b61a-4085-98d1-cc2786e876c2"},"vehicle_type_id":"4","last_reported":1727474906,"current_range_meters":39200,"station_id":"ce4bgvp2rcd13ifvqcu0","pricing_plan_id":"cebpf4jnsgd1na2vs0mg"},{"bike_id":"638c8d28-034f-42f3-a51f-cd96f91eef50","system_id":"levelo_inurba_marseille","lat":43.31186,"lon":5.38716,"is_reserved":false,"is_disabled":false,"rental_uris":{"android":"levelo://app?vid=638c8d28-034f-42f3-a51f-cd96f91eef50","ios":"levelo://app?vid=638c8d28-034f-42f3-a51f-cd96f91eef50"},"vehicle_type_id":"4","last_reported":1727474906,"current_range_meters":39200,"station_id":"ce4bgv12rcd13ifvqcp0","pricing_plan_id":"cebpf4jnsgd1na2vs0mg"},{"bike_id":"6bdba3f7-438d-4941-94ae-1fa8a6dc5dc8","system_id":"levelo_inurba_marseille","lat":43.30956,"lon":5.39035,"is_reserved":false,"is_disabled":false,"rental_uris":{"android":"levelo://app?vid=6bdba3f7-438d-4941-94ae-1fa8a6dc5dc8","ios":"levelo://app?vid=6bdba3f7-438d-4941-94ae-1fa8a6dc5dc8"},"vehicle_type_id":"4","last_reported":1727474906,"current_range_meters":18000,"station_id":"ce4bgup2rcd13ifvqco0","pricing_plan_id":"cebpf4jnsgd1na2vs0mg"},{"bike_id":"f1cff38b-7529-43da-8edf-a17851036559","system_id":"levelo_inurba_marseille","lat":43.32659,"lon":5.41003,"is_reserved":false,"is_disabled":false,"rental_uris":{"android":"levelo://app?vid=f1cff38b-7529-43da-8edf-a17851036559","ios":"levelo://app?vid=f1cff38b-7529-43da-8edf-a17851036559"},"vehicle_type_id":"4","last_reported":1727474906,"current_range_meters":13600,"station_id":"ce4bhpp2rcd13ifvqhgg","pricing_plan_id":"cebpf4jnsgd1na2vs0mg"},{"bike_id":"0a8fe6ef-f5da-4b08-a547-2fc6dee7de76","system_id":"levelo_inurba_marseille","lat":43.33739,"lon":5.37468,"is_reserved":false,"is_disabled":false,"rental_uris":{"android":"levelo://app?vid=0a8fe6ef-f5da-4b08-a547-2fc6dee7de76","ios":"levelo://app?vid=0a8fe6ef-f5da-4b08-a547-2fc6dee7de76"},"vehicle_type_id":"4","last_reported":1727474906,"current_range_meters":27600,"station_id":"","pricing_plan_id":"cebpf4jnsgd1na2vs0mg"},{"bike_id":"a89f2707-bc7c-4758-b248-dda8f6a0f8c5","system_id":"levelo_inurba_marseille","lat":43.28538,"lon":5.39036,"is_reserved":false,"is_disabled":false,"rental_uris":{"android":"levelo://app?vid=a89f2707-bc7c-4758-b248-dda8f6a0f8c5","ios":"levelo://app?vid=a89f2707-bc7c-4758-b248-dda8f6a0f8c5"},"vehicle_type_id":"4","last_reported":1727474906,"current_range_meters":3200,"station_id":"ce4bhoh2rcd13ifvqh5g","pricing_plan_id":"cebpf4jnsgd1na2vs0mg"},{"bike_id":"1930657d-7b1f-47d1-8c77-1755b21769bc","system_id":"levelo_inurba_marseille","lat":43.30597,"lon":5.3935,"is_reserved":false,"is_disabled":false,"rental_uris":{"android":"levelo://app?vid=1930657d-7b1f-47d1-8c77-1755b21769bc","ios":"levelo://app?vid=1930657d-7b1f-47d1-8c77-1755b21769bc"},"vehicle_type_id":"4","last_reported":1727474906,"current_range_meters":39200,"station_id":"ce4bh0p2rcd13ifvqd80","pricing_plan_id":"cebpf4jnsgd1na2vs0mg"},{"bike_id":"43bd92ac-497b-4055-8a20-f313a062ffa5","system_id":"levelo_inurba_marseille","lat":43.280449,"lon":5.36944,"is_reserved":false,"is_disabled":false,"rental_uris":{"android":"levelo://app?vid=43bd92ac-497b-4055-8a20-f313a062ffa5","ios":"levelo://app?vid=43bd92ac-497b-4055-8a20-f313a062ffa5"},"vehicle_type_id":"4","last_reported":1727474906,"current_range_meters":23200,"station_id":"ce4bha12rcd13ifvqef0","pricing_plan_id":"cebpf4jnsgd1na2vs0mg"},{"bike_id":"e6867537-5e68-46bb-aa3b-a49f7423f842","system_id":"levelo_inurba_marseille","lat":43.29775,"lon":5.37063,"is_reserved":false,"is_disabled":false,"rental_uris":{"android":"levelo://app?vid=e6867537-5e68-46bb-aa3b-a49f7423f842","ios":"levelo://app?vid=e6867537-5e68-46bb-aa3b-a49f7423f842"},"vehicle_type_id":"4","last_reported":1727474906,"current_range_meters":23200,"station_id":"ce4bgop2rcd13ifvqc1g","pricing_plan_id":"cebpf4jnsgd1na2vs0mg"},{"bike_id":"ae9abc3a-92f5-4526-b792-0cf3e53de28a","system_id":"levelo_inurba_marseille","lat":43.30881,"lon":5.39625,"is_reserved":false,"is_disabled":false,"rental_uris":{"android":"levelo://app?vid=ae9abc3a-92f5-4526-b792-0cf3e53de28a","ios":"levelo://app?vid=ae9abc3a-92f5-4526-b792-0cf3e53de28a"},"vehicle_type_id":"4","last_reported":1727474906,"current_range_meters":38800,"station_id":"ce4bh012rcd13ifvqcv0","pricing_plan_id":"cebpf4jnsgd1na2vs0mg"},{"bike_id":"9139b4fa-b84b-4bc2-b60e-2fb2782c55db","system_id":"levelo_inurba_marseille","lat":43.29404,"lon":5.38891,"is_reserved":false,"is_disabled":false,"rental_uris":{"android":"levelo://app?vid=9139b4fa-b84b-4bc2-b60e-2fb2782c55db","ios":"levelo://app?vid=9139b4fa-b84b-4bc2-b60e-2fb2782c55db"},"vehicle_type_id":"4","last_reported":1727474906,"current_range_meters":31200,"station_id":"","pricing_plan_id":"cebpf4jnsgd1na2vs0mg"},{"bike_id":"3060ef89-a6f7-47c9-af04-12c38d1c0866","system_id":"levelo_inurba_marseille","lat":43.23182,"lon":5.39991,"is_reserved":false,"is_disabled":false,"rental_uris":{"android":"levelo://app?vid=3060ef89-a6f7-47c9-af04-12c38d1c0866","ios":"levelo://app?vid=3060ef89-a6f7-47c9-af04-12c38d1c0866"},"vehicle_type_id":"4","last_reported":1727474906,"current_range_meters":38800,"station_id":"ce4bhn12rcd13ifvqgqg","pricing_plan_id":"cebpf4jnsgd1na2vs0mg"},{"bike_id":"fdc23bf6-d5b5-40e8-bb72-2ff53bc44dc8","system_id":"levelo_inurba_marseille","lat":43.2582,"lon":5.39426,"is_reserved":false,"is_disabled":false,"rental_uris":{"android":"levelo://app?vid=fdc23bf6-d5b5-40e8-bb72-2ff53bc44dc8","ios":"levelo://app?vid=fdc23bf6-d5b5-40e8-bb72-2ff53bc44dc8"},"vehicle_type_id":"4","last_reported":1727474906,"current_range_meters":39200,"station_id":"ce4bhip2rcd13ifvqft0","pricing_plan_id":"cebpf4jnsgd1na2vs0mg"},{"bike_id":"f04e816e-e3e5-4e57-af41-f0c1c7f8e8d3","system_id":"levelo_inurba_marseille","lat":43.29555,"lon":5.42281,"is_reserved":false,"is_disabled":false,"rental_uris":{"android":"levelo://app?vid=f04e816e-e3e5-4e57-af41-f0c1c7f8e8d3","ios":"levelo://app?vid=f04e816e-e3e5-4e57-af41-f0c1c7f8e8d3"},"vehicle_type_id":"4","last_reported":1727474906,"current_range_meters":25600,"station_id":"ce4bhph2rcd13ifvqhdg","pricing_plan_id":"cebpf4jnsgd1na2vs0mg"},{"bike_id":"8ee8e501-51ab-4950-96fd-b46b09e34fd6","system_id":"levelo_inurba_marseille","lat":43.31486,"lon":5.37307,"is_reserved":false,"is_disabled":false,"rental_uris":{"android":"levelo://app?vid=8ee8e501-51ab-4950-96fd-b46b09e34fd6","ios":"levelo://app?vid=8ee8e501-51ab-4950-96fd-b46b09e34fd6"},"vehicle_type_id":"4","last_reported":1727474906,"current_range_meters":38000,"station_id":"ce4bgt12rcd13ifvqcd0","pricing_plan_id":"cebpf4jnsgd1na2vs0mg"},{"bike_id":"9a2a74c1-9004-4e29-a710-8cfcc2d20f12","system_id":"levelo_inurba_marseille","lat":43.28467,"lon":5.35879,"is_reserved":false,"is_disabled":false,"rental_uris":{"android":"levelo://app?vid=9a2a74c1-9004-4e29-a710-8cfcc2d20f12","ios":"levelo://app?vid=9a2a74c1-9004-4e29-a710-8cfcc2d20f12"},"vehicle_type_id":"4","last_reported":1727474906,"current_range_meters":24400,"station_id":"ce4bhah2rcd13ifvqei0","pricing_plan_id":"cebpf4jnsgd1na2vs0mg"},{"bike_id":"f9ed180a-c0ab-4c49-b3ed-facd912e15b5","system_id":"levelo_inurba_marseille","lat":43.30775,"lon":5.37647,"is_reserved":false,"is_disabled":false,"rental_uris":{"android":"levelo://app?vid=f9ed180a-c0ab-4c49-b3ed-facd912e15b5","ios":"levelo://app?vid=f9ed180a-c0ab-4c49-b3ed-facd912e15b5"},"vehicle_type_id":"4","last_reported":1727474906,"current_range_meters":38000,"station_id":"ce4bgv92rcd13ifvqcq0","pricing_plan_id":"cebpf4jnsgd1na2vs0mg"},{"bike_id":"082dd033-1d2e-4aad-abef-8710026c02a2","system_id":"levelo_inurba_marseille","lat":43.31277,"lon":5.40172,"is_reserved":false,"is_disabled":false,"rental_uris":{"android":"levelo://app?vid=082dd033-1d2e-4aad-abef-8710026c02a2","ios":"levelo://app?vid=082dd033-1d2e-4aad-abef-8710026c02a2"},"vehicle_type_id":"4","last_reported":1727474906,"current_range_meters":27600,"station_id":"ce4bh092rcd13ifvqd30","pricing_plan_id":"cebpf4jnsgd1na2vs0mg"},{"bike_id":"0ac9606e-4f2b-4f0d-ba6e-fa5e7937b70f","system_id":"levelo_inurba_marseille","lat":43.33026,"lon":5.39045,"is_reserved":false,"is_disabled":false,"rental_uris":{"android":"levelo://app?vid=0ac9606e-4f2b-4f0d-ba6e-fa5e7937b70f","ios":"levelo://app?vid=0ac9606e-4f2b-4f0d-ba6e-fa5e7937b70f"},"vehicle_type_id":"4","last_reported":1727474906,"current_range_meters":39200,"station_id":"ce4bhr92rcd13ifvqhrg","pricing_plan_id":"cebpf4jnsgd1na2vs0mg"},{"bike_id":"887085ef-3dc4-41b3-9706-8a55039c00e8","system_id":"levelo_inurba_marseille","lat":43.3009,"lon":5.39059,"is_reserved":false,"is_disabled":false,"rental_uris":{"android":"levelo://app?vid=887085ef-3dc4-41b3-9706-8a55039c00e8","ios":"levelo://app?vid=887085ef-3dc4-41b3-9706-8a55039c00e8"},"vehicle_type_id":"4","last_reported":1727474906,"current_range_meters":4800,"station_id":"ce4bh192rcd13ifvqdb0","pricing_plan_id":"cebpf4jnsgd1na2vs0mg"},{"bike_id":"cf5aef97-52c0-4266-9dc2-63884b834b5b","system_id":"levelo_inurba_marseille","lat":43.30961,"lon":5.39045,"is_reserved":false,"is_disabled":false,"rental_uris":{"android":"levelo://app?vid=cf5aef97-52c0-4266-9dc2-63884b834b5b","ios":"levelo://app?vid=cf5aef97-52c0-4266-9dc2-63884b834b5b"},"vehicle_type_id":"4","last_reported":1727474906,"current_range_meters":8000,"station_id":"ce4bgup2rcd13ifvqco0","pricing_plan_id":"cebpf4jnsgd1na2vs0mg"},{"bike_id":"ab2feb23-4a73-4605-8279-f110cab2ed2c","system_id":"levelo_inurba_marseille","lat":43.3095,"lon":5.39042,"is_reserved":false,"is_disabled":false,"rental_uris":{"android":"levelo://app?vid=ab2feb23-4a73-4605-8279-f110cab2ed2c","ios":"levelo://app?vid=ab2feb23-4a73-4605-8279-f110cab2ed2c"},"vehicle_type_id":"4","last_reported":1727474906,"current_range_meters":8400,"station_id":"ce4bgup2rcd13ifvqco0","pricing_plan_id":"cebpf4jnsgd1na2vs0mg"},{"bike_id":"760af170-f304-4677-970c-365aad8b818c","system_id":"levelo_inurba_marseille","lat":43.32482,"lon":5.36569,"is_reserved":false,"is_disabled":false,"rental_uris":{"android":"levelo://app?vid=760af170-f304-4677-970c-365aad8b818c","ios":"levelo://app?vid=760af170-f304-4677-970c-365aad8b818c"},"vehicle_type_id":"4","last_reported":1727474906,"current_range_meters":16000,"station_id":"ce4bhs12rcd13ifvqhvg","pricing_plan_id":"cebpf4jnsgd1na2vs0mg"},{"bike_id":"a241afcf-2219-4764-86df-c6fff344741d","system_id":"levelo_inurba_marseille","lat":43.28447,"lon":5.39184,"is_reserved":false,"is_disabled":false,"rental_uris":{"android":"levelo://app?vid=a241afcf-2219-4764-86df-c6fff344741d","ios":"levelo://app?vid=a241afcf-2219-4764-86df-c6fff344741d"},"vehicle_type_id":"4","last_reported":1727474906,"current_range_meters":38000,"station_id":"ce4bhoh2rcd13ifvqh5g","pricing_plan_id":"cebpf4jnsgd1na2vs0mg"},{"bike_id":"d9208d1d-0e33-4532-8bff-8a2bfcdaffcc","system_id":"levelo_inurba_marseille","lat":43.32001,"lon":5.38158,"is_reserved":false,"is_disabled":false,"rental_uris":{"android":"levelo://app?vid=d9208d1d-0e33-4532-8bff-8a2bfcdaffcc","ios":"levelo://app?vid=d9208d1d-0e33-4532-8bff-8a2bfcdaffcc"},"vehicle_type_id":"4","last_reported":1727474906,"current_range_meters":38000,"station_id":"ce4bhr12rcd13ifvqhpg","pricing_plan_id":"cebpf4jnsgd1na2vs0mg"},{"bike_id":"333c0e1d-8911-4f13-94de-fbf670058ab2","system_id":"levelo_inurba_marseille","lat":43.30288,"lon":5.37687,"is_reserved":false,"is_disabled":false,"rental_uris":{"android":"levelo://app?vid=333c0e1d-8911-4f13-94de-fbf670058ab2","ios":"levelo://app?vid=333c0e1d-8911-4f13-94de-fbf670058ab2"},"vehicle_type_id":"4","last_reported":1727474906,"current_range_meters":39200,"station_id":"ce4bguh2rcd13ifvqcj0","pricing_plan_id":"cebpf4jnsgd1na2vs0mg"},{"bike_id":"ff268b1c-bebe-498f-b18d-8af92a58eab5","system_id":"levelo_inurba_marseille","lat":43.25823,"lon":5.39423,"is_reserved":false,"is_disabled":false,"rental_uris":{"android":"levelo://app?vid=ff268b1c-bebe-498f-b18d-8af92a58eab5","ios":"levelo://app?vid=ff268b1c-bebe-498f-b18d-8af92a58eab5"},"vehicle_type_id":"4","last_reported":1727474906,"current_range_meters":39200,"station_id":"ce4bhip2rcd13ifvqft0","pricing_plan_id":"cebpf4jnsgd1na2vs0mg"},{"bike_id":"cd9d20f8-e1e6-46ff-a0df-9e27f06f3539","system_id":"levelo_inurba_marseille","lat":43.31888,"lon":5.4073,"is_reserved":false,"is_disabled":false,"rental_uris":{"android":"levelo://app?vid=cd9d20f8-e1e6-46ff-a0df-9e27f06f3539","ios":"levelo://app?vid=cd9d20f8-e1e6-46ff-a0df-9e27f06f3539"},"vehicle_type_id":"4","last_reported":1727474906,"current_range_meters":18800,"station_id":"ce4bhq12rcd13ifvqhig","pricing_plan_id":"cebpf4jnsgd1na2vs0mg"},{"bike_id":"00eade19-1a24-4683-a566-4392a012b7aa","system_id":"levelo_inurba_marseille","lat":43.31683,"lon":5.37778,"is_reserved":false,"is_disabled":false,"rental_uris":{"android":"levelo://app?vid=00eade19-1a24-4683-a566-4392a012b7aa","ios":"levelo://app?vid=00eade19-1a24-4683-a566-4392a012b7aa"},"vehicle_type_id":"4","last_reported":1727474906,"current_range_meters":19200,"station_id":"ce4bgth2rcd13ifvqch0","pricing_plan_id":"cebpf4jnsgd1na2vs0mg"},{"bike_id":"201177f7-715a-4950-b83b-63c9af4c250f","system_id":"levelo_inurba_marseille","lat":43.23183,"lon":5.39987,"is_reserved":false,"is_disabled":false,"rental_uris":{"android":"levelo://app?vid=201177f7-715a-4950-b83b-63c9af4c250f","ios":"levelo://app?vid=201177f7-715a-4950-b83b-63c9af4c250f"},"vehicle_type_id":"4","last_reported":1727474906,"current_range_meters":38000,"station_id":"ce4bhn12rcd13ifvqgqg","pricing_plan_id":"cebpf4jnsgd1na2vs0mg"},{"bike_id":"02b141c8-df15-41a0-9a33-bbef24193c7d","system_id":"levelo_inurba_marseille","lat":43.25495,"lon":5.37646,"is_reserved":false,"is_disabled":false,"rental_uris":{"android":"levelo://app?vid=02b141c8-df15-41a0-9a33-bbef24193c7d","ios":"levelo://app?vid=02b141c8-df15-41a0-9a33-bbef24193c7d"},"vehicle_type_id":"4","last_reported":1727474906,"current_range_meters":14000,"station_id":"ce4bhh12rcd13ifvqff0","pricing_plan_id":"cebpf4jnsgd1na2vs0mg"},{"bike_id":"ec8fde83-0f24-4850-8976-43e98a5611e2","system_id":"levelo_inurba_marseille","lat":43.30884,"lon":5.39628,"is_reserved":false,"is_disabled":false,"rental_uris":{"android":"levelo://app?vid=ec8fde83-0f24-4850-8976-43e98a5611e2","ios":"levelo://app?vid=ec8fde83-0f24-4850-8976-43e98a5611e2"},"vehicle_type_id":"4","last_reported":1727474906,"current_range_meters":14400,"station_id":"ce4bh012rcd13ifvqcv0","pricing_plan_id":"cebpf4jnsgd1na2vs0mg"},{"bike_id":"36536e9c-3c7d-4e18-a69c-470f93d0ed90","system_id":"levelo_inurba_marseille","lat":43.30811,"lon":5.38147,"is_reserved":false,"is_disabled":false,"rental_uris":{"android":"levelo://app?vid=36536e9c-3c7d-4e18-a69c-470f93d0ed90","ios":"levelo://app?vid=36536e9c-3c7d-4e18-a69c-470f93d0ed90"},"vehicle_type_id":"4","last_reported":1727474906,"current_range_meters":39200,"station_id":"ce4bgt12rcd13ifvqce0","pricing_plan_id":"cebpf4jnsgd1na2vs0mg"},{"bike_id":"f19191c0-7561-4f87-9973-5bd2a624eb79","system_id":"levelo_inurba_marseille","lat":43.32335,"lon":5.40621,"is_reserved":false,"is_disabled":false,"rental_uris":{"android":"levelo://app?vid=f19191c0-7561-4f87-9973-5bd2a624eb79","ios":"levelo://app?vid=f19191c0-7561-4f87-9973-5bd2a624eb79"},"vehicle_type_id":"4","last_reported":1727474906,"current_range_meters":22400,"station_id":"ce4bhq92rcd13ifvqhjg","pricing_plan_id":"cebpf4jnsgd1na2vs0mg"},{"bike_id":"e4563da4-42c5-4da8-a7a7-879e9bc186fb","system_id":"levelo_inurba_marseille","lat":43.23156,"lon":5.43702,"is_reserved":false,"is_disabled":false,"rental_uris":{"android":"levelo://app?vid=e4563da4-42c5-4da8-a7a7-879e9bc186fb","ios":"levelo://app?vid=e4563da4-42c5-4da8-a7a7-879e9bc186fb"},"vehicle_type_id":"4","last_reported":1727474906,"current_range_meters":19200,"station_id":"ce4bhmp2rcd13ifvqgog","pricing_plan_id":"cebpf4jnsgd1na2vs0mg"},{"bike_id":"d802ed8a-af7c-4480-a2e1-a90f33055ba1","system_id":"levelo_inurba_marseille","lat":43.30307,"lon":5.386134,"is_reserved":false,"is_disabled":false,"rental_uris":{"android":"levelo://app?vid=d802ed8a-af7c-4480-a2e1-a90f33055ba1","ios":"levelo://app?vid=d802ed8a-af7c-4480-a2e1-a90f33055ba1"},"vehicle_type_id":"4","last_reported":1727474906,"current_range_meters":6400,"station_id":"","pricing_plan_id":"cebpf4jnsgd1na2vs0mg"},{"bike_id":"9c9d20fb-8513-4c79-b73b-995650a04ed4","system_id":"levelo_inurba_marseille","lat":43.279935,"lon":5.416603,"is_reserved":false,"is_disabled":false,"rental_uris":{"android":"levelo://app?vid=9c9d20fb-8513-4c79-b73b-995650a04ed4","ios":"levelo://app?vid=9c9d20fb-8513-4c79-b73b-995650a04ed4"},"vehicle_type_id":"4","last_reported":1727474906,"current_range_meters":12400,"station_id":"ce4bho12rcd13ifvqh1g","pricing_plan_id":"cebpf4jnsgd1na2vs0mg"},{"bike_id":"e28129b9-07c0-4a37-b549-147690875241","system_id":"levelo_inurba_marseille","lat":43.28729,"lon":5.36075,"is_reserved":false,"is_disabled":false,"rental_uris":{"android":"levelo://app?vid=e28129b9-07c0-4a37-b549-147690875241","ios":"levelo://app?vid=e28129b9-07c0-4a37-b549-147690875241"},"vehicle_type_id":"4","last_reported":1727474906,"current_range_meters":35600,"station_id":"cki0cbj6b192h4jlfktg","pricing_plan_id":"cebpf4jnsgd1na2vs0mg"},{"bike_id":"85513814-42ae-4cbd-a71a-fd6fb42fb835","system_id":"levelo_inurba_marseille","lat":43.29792,"lon":5.40406,"is_reserved":false,"is_disabled":false,"rental_uris":{"android":"levelo://app?vid=85513814-42ae-4cbd-a71a-fd6fb42fb835","ios":"levelo://app?vid=85513814-42ae-4cbd-a71a-fd6fb42fb835"},"vehicle_type_id":"4","last_reported":1727474906,"current_range_meters":6000,"station_id":"ce4bh112rcd13ifvqd90","pricing_plan_id":"cebpf4jnsgd1na2vs0mg"},{"bike_id":"f0ba53ed-5a22-41f0-a70c-9a63dc1f8750","system_id":"levelo_inurba_marseille","lat":43.29443,"lon":5.3975,"is_reserved":false,"is_disabled":false,"rental_uris":{"android":"levelo://app?vid=f0ba53ed-5a22-41f0-a70c-9a63dc1f8750","ios":"levelo://app?vid=f0ba53ed-5a22-41f0-a70c-9a63dc1f8750"},"vehicle_type_id":"4","last_reported":1727474906,"current_range_meters":27200,"station_id":"ce4bh3h2rcd13ifvqdo0","pricing_plan_id":"cebpf4jnsgd1na2vs0mg"},{"bike_id":"36e47cf1-714c-4f56-8199-0fce9c18c9c0","system_id":"levelo_inurba_marseille","lat":43.262038,"lon":5.379459,"is_reserved":false,"is_disabled":false,"rental_uris":{"android":"levelo://app?vid=36e47cf1-714c-4f56-8199-0fce9c18c9c0","ios":"levelo://app?vid=36e47cf1-714c-4f56-8199-0fce9c18c9c0"},"vehicle_type_id":"4","last_reported":1727474906,"current_range_meters":39200,"station_id":"ce4bhjp2rcd13ifvqg90","pricing_plan_id":"cebpf4jnsgd1na2vs0mg"},{"bike_id":"38cfc844-e642-4408-89bf-d0ba1f3ff0b7","system_id":"levelo_inurba_marseille","lat":43.31714,"lon":5.43696,"is_reserved":false,"is_disabled":false,"rental_uris":{"android":"levelo://app?vid=38cfc844-e642-4408-89bf-d0ba1f3ff0b7","ios":"levelo://app?vid=38cfc844-e642-4408-89bf-d0ba1f3ff0b7"},"vehicle_type_id":"4","last_reported":1727474906,"current_range_meters":8800,"station_id":"ce4bhp92rcd13ifvqhcg","pricing_plan_id":"cebpf4jnsgd1na2vs0mg"},{"bike_id":"8dd6b04b-77b3-4a3b-b7f3-69822272074a","system_id":"levelo_inurba_marseille","lat":43.31489,"lon":5.37296,"is_reserved":false,"is_disabled":false,"rental_uris":{"android":"levelo://app?vid=8dd6b04b-77b3-4a3b-b7f3-69822272074a","ios":"levelo://app?vid=8dd6b04b-77b3-4a3b-b7f3-69822272074a"},"vehicle_type_id":"4","last_reported":1727474906,"current_range_meters":38800,"station_id":"ce4bgt12rcd13ifvqcd0","pricing_plan_id":"cebpf4jnsgd1na2vs0mg"},{"bike_id":"6af5885d-346a-4ad9-a5fd-51d424ce7d24","system_id":"levelo_inurba_marseille","lat":43.28935,"lon":5.36402,"is_reserved":false,"is_disabled":false,"rental_uris":{"android":"levelo://app?vid=6af5885d-346a-4ad9-a5fd-51d424ce7d24","ios":"levelo://app?vid=6af5885d-346a-4ad9-a5fd-51d424ce7d24"},"vehicle_type_id":"4","last_reported":1727474906,"current_range_meters":24400,"station_id":"ce4bhc92rcd13ifvqetg","pricing_plan_id":"cebpf4jnsgd1na2vs0mg"},{"bike_id":"21cd9748-3292-44f5-9949-31b4e3d04086","system_id":"levelo_inurba_marseille","lat":43.31265,"lon":5.40163,"is_reserved":false,"is_disabled":false,"rental_uris":{"android":"levelo://app?vid=21cd9748-3292-44f5-9949-31b4e3d04086","ios":"levelo://app?vid=21cd9748-3292-44f5-9949-31b4e3d04086"},"vehicle_type_id":"4","last_reported":1727474906,"current_range_meters":38800,"station_id":"ce4bh092rcd13ifvqd30","pricing_plan_id":"cebpf4jnsgd1na2vs0mg"},{"bike_id":"0deb0198-7529-4419-8cbd-c256d5c93e93","system_id":"levelo_inurba_marseille","lat":43.22928,"lon":5.3538,"is_reserved":false,"is_disabled":false,"rental_uris":{"android":"levelo://app?vid=0deb0198-7529-4419-8cbd-c256d5c93e93","ios":"levelo://app?vid=0deb0198-7529-4419-8cbd-c256d5c93e93"},"vehicle_type_id":"4","last_reported":1727474906,"current_range_meters":8400,"station_id":"cpo3532slgdg3j2ikp40","pricing_plan_id":"cebpf4jnsgd1na2vs0mg"},{"bike_id":"8922949e-f363-4391-8704-2cf442e34747","system_id":"levelo_inurba_marseille","lat":43.30944,"lon":5.40142,"is_reserved":false,"is_disabled":false,"rental_uris":{"android":"levelo://app?vid=8922949e-f363-4391-8704-2cf442e34747","ios":"levelo://app?vid=8922949e-f363-4391-8704-2cf442e34747"},"vehicle_type_id":"4","last_reported":1727474906,"current_range_meters":18800,"station_id":"ce4bgvp2rcd13ifvqct0","pricing_plan_id":"cebpf4jnsgd1na2vs0mg"},{"bike_id":"a2a01358-5e88-4829-90a4-28681f80e762","system_id":"levelo_inurba_marseille","lat":43.30937,"lon":5.40138,"is_reserved":false,"is_disabled":false,"rental_uris":{"android":"levelo://app?vid=a2a01358-5e88-4829-90a4-28681f80e762","ios":"levelo://app?vid=a2a01358-5e88-4829-90a4-28681f80e762"},"vehicle_type_id":"4","last_reported":1727474906,"current_range_meters":6400,"station_id":"ce4bgvp2rcd13ifvqct0","pricing_plan_id":"cebpf4jnsgd1na2vs0mg"},{"bike_id":"be905bd4-7795-45df-9780-ccf6138e2d68","system_id":"levelo_inurba_marseille","lat":43.27836,"lon":5.39208,"is_reserved":false,"is_disabled":false,"rental_uris":{"android":"levelo://app?vid=be905bd4-7795-45df-9780-ccf6138e2d68","ios":"levelo://app?vid=be905bd4-7795-45df-9780-ccf6138e2d68"},"vehicle_type_id":"4","last_reported":1727474906,"current_range_meters":24400,"station_id":"ce4bhjp2rcd13ifvqga0","pricing_plan_id":"cebpf4jnsgd1na2vs0mg"},{"bike_id":"6d23b00a-29d6-4c0d-bf86-13c0c6fb726e","system_id":"levelo_inurba_marseille","lat":43.29101,"lon":5.38143,"is_reserved":false,"is_disabled":false,"rental_uris":{"android":"levelo://app?vid=6d23b00a-29d6-4c0d-bf86-13c0c6fb726e","ios":"levelo://app?vid=6d23b00a-29d6-4c0d-bf86-13c0c6fb726e"},"vehicle_type_id":"4","last_reported":1727474906,"current_range_meters":6400,"station_id":"ce4bh512rcd13ifvqe2g","pricing_plan_id":"cebpf4jnsgd1na2vs0mg"},{"bike_id":"f14223d1-5311-47c1-bd17-3706a2586972","system_id":"levelo_inurba_marseille","lat":43.31124,"lon":5.37762,"is_reserved":false,"is_disabled":false,"rental_uris":{"android":"levelo://app?vid=f14223d1-5311-47c1-bd17-3706a2586972","ios":"levelo://app?vid=f14223d1-5311-47c1-bd17-3706a2586972"},"vehicle_type_id":"4","last_reported":1727474906,"current_range_meters":39200,"station_id":"ce4bgt92rcd13ifvqcg0","pricing_plan_id":"cebpf4jnsgd1na2vs0mg"},{"bike_id":"6a33ced0-3cba-4c63-b97b-04ef5fb13e69","system_id":"levelo_inurba_marseille","lat":43.30287,"lon":5.36899,"is_reserved":false,"is_disabled":false,"rental_uris":{"android":"levelo://app?vid=6a33ced0-3cba-4c63-b97b-04ef5fb13e69","ios":"levelo://app?vid=6a33ced0-3cba-4c63-b97b-04ef5fb13e69"},"vehicle_type_id":"4","last_reported":1727474906,"current_range_meters":26000,"station_id":"ce4bgqh2rcd13ifvqc5g","pricing_plan_id":"cebpf4jnsgd1na2vs0mg"},{"bike_id":"00f93a78-dd34-4494-a1e8-92972733ddd7","system_id":"levelo_inurba_marseille","lat":43.2962,"lon":5.37733,"is_reserved":false,"is_disabled":false,"rental_uris":{"android":"levelo://app?vid=00f93a78-dd34-4494-a1e8-92972733ddd7","ios":"levelo://app?vid=00f93a78-dd34-4494-a1e8-92972733ddd7"},"vehicle_type_id":"4","last_reported":1727474906,"current_range_meters":35600,"station_id":"ce4bgi92rcd13ifvqb90","pricing_plan_id":"cebpf4jnsgd1na2vs0mg"},{"bike_id":"0de0f83c-32a9-462d-ad56-beb060c1bc9f","system_id":"levelo_inurba_marseille","lat":43.26964,"lon":5.38624,"is_reserved":false,"is_disabled":false,"rental_uris":{"android":"levelo://app?vid=0de0f83c-32a9-462d-ad56-beb060c1bc9f","ios":"levelo://app?vid=0de0f83c-32a9-462d-ad56-beb060c1bc9f"},"vehicle_type_id":"4","last_reported":1727474906,"current_range_meters":12400,"station_id":"ce4bhh92rcd13ifvqfh0","pricing_plan_id":"cebpf4jnsgd1na2vs0mg"},{"bike_id":"6565aa41-f86a-4e13-9332-7c37e10416d1","system_id":"levelo_inurba_marseille","lat":43.26024,"lon":5.37557,"is_reserved":false,"is_disabled":false,"rental_uris":{"android":"levelo://app?vid=6565aa41-f86a-4e13-9332-7c37e10416d1","ios":"levelo://app?vid=6565aa41-f86a-4e13-9332-7c37e10416d1"},"vehicle_type_id":"4","last_reported":1727474906,"current_range_meters":38800,"station_id":"ce4bhgh2rcd13ifvqfa0","pricing_plan_id":"cebpf4jnsgd1na2vs0mg"},{"bike_id":"28be0ca8-d09d-477a-93e0-d2bcf270fcf6","system_id":"levelo_inurba_marseille","lat":43.24077,"lon":5.37754,"is_reserved":false,"is_disabled":false,"rental_uris":{"android":"levelo://app?vid=28be0ca8-d09d-477a-93e0-d2bcf270fcf6","ios":"levelo://app?vid=28be0ca8-d09d-477a-93e0-d2bcf270fcf6"},"vehicle_type_id":"4","last_reported":1727474906,"current_range_meters":17200,"station_id":"ce4bhnp2rcd13ifvqgvg","pricing_plan_id":"cebpf4jnsgd1na2vs0mg"},{"bike_id":"0eaceb3e-d0ca-4ba3-95c5-7e8ff87c5c80","system_id":"levelo_inurba_marseille","lat":43.28057,"lon":5.36944,"is_reserved":false,"is_disabled":false,"rental_uris":{"android":"levelo://app?vid=0eaceb3e-d0ca-4ba3-95c5-7e8ff87c5c80","ios":"levelo://app?vid=0eaceb3e-d0ca-4ba3-95c5-7e8ff87c5c80"},"vehicle_type_id":"4","last_reported":1727474906,"current_range_meters":34000,"station_id":"ce4bha12rcd13ifvqef0","pricing_plan_id":"cebpf4jnsgd1na2vs0mg"},{"bike_id":"d401a54b-7853-4880-b6ac-a6d0b8e95596","system_id":"levelo_inurba_marseille","lat":43.30356,"lon":5.41879,"is_reserved":false,"is_disabled":false,"rental_uris":{"android":"levelo://app?vid=d401a54b-7853-4880-b6ac-a6d0b8e95596","ios":"levelo://app?vid=d401a54b-7853-4880-b6ac-a6d0b8e95596"},"vehicle_type_id":"4","last_reported":1727474906,"current_range_meters":16000,"station_id":"ce4bhop2rcd13ifvqh7g","pricing_plan_id":"cebpf4jnsgd1na2vs0mg"},{"bike_id":"ae811018-bf5b-4e7e-9168-9173ef4135d6","system_id":"levelo_inurba_marseille","lat":43.28377,"lon":5.37293,"is_reserved":false,"is_disabled":false,"rental_uris":{"android":"levelo://app?vid=ae811018-bf5b-4e7e-9168-9173ef4135d6","ios":"levelo://app?vid=ae811018-bf5b-4e7e-9168-9173ef4135d6"},"vehicle_type_id":"4","last_reported":1727474906,"current_range_meters":19600,"station_id":"","pricing_plan_id":"cebpf4jnsgd1na2vs0mg"},{"bike_id":"adf93a5a-50d7-4c45-b9d5-978abc2565ae","system_id":"levelo_inurba_marseille","lat":43.28728,"lon":5.36083,"is_reserved":false,"is_disabled":false,"rental_uris":{"android":"levelo://app?vid=adf93a5a-50d7-4c45-b9d5-978abc2565ae","ios":"levelo://app?vid=adf93a5a-50d7-4c45-b9d5-978abc2565ae"},"vehicle_type_id":"4","last_reported":1727474906,"current_range_meters":29600,"station_id":"cki0cbj6b192h4jlfktg","pricing_plan_id":"cebpf4jnsgd1na2vs0mg"},{"bike_id":"68fc233c-8a28-4057-a1a0-e032e295ac1d","system_id":"levelo_inurba_marseille","lat":43.29549,"lon":5.42277,"is_reserved":false,"is_disabled":false,"rental_uris":{"android":"levelo://app?vid=68fc233c-8a28-4057-a1a0-e032e295ac1d","ios":"levelo://app?vid=68fc233c-8a28-4057-a1a0-e032e295ac1d"},"vehicle_type_id":"4","last_reported":1727474906,"current_range_meters":33600,"station_id":"ce4bhph2rcd13ifvqhdg","pricing_plan_id":"cebpf4jnsgd1na2vs0mg"},{"bike_id":"786d7c51-ad54-4915-a581-9ec931b004e6","system_id":"levelo_inurba_marseille","lat":43.30777,"lon":5.37651,"is_reserved":false,"is_disabled":false,"rental_uris":{"android":"levelo://app?vid=786d7c51-ad54-4915-a581-9ec931b004e6","ios":"levelo://app?vid=786d7c51-ad54-4915-a581-9ec931b004e6"},"vehicle_type_id":"4","last_reported":1727474906,"current_range_meters":18800,"station_id":"ce4bgv92rcd13ifvqcq0","pricing_plan_id":"cebpf4jnsgd1na2vs0mg"},{"bike_id":"4d1a9658-ee35-422f-a6cb-14259e928eed","system_id":"levelo_inurba_marseille","lat":43.31083,"lon":5.40132,"is_reserved":false,"is_disabled":false,"rental_uris":{"android":"levelo://app?vid=4d1a9658-ee35-422f-a6cb-14259e928eed","ios":"levelo://app?vid=4d1a9658-ee35-422f-a6cb-14259e928eed"},"vehicle_type_id":"4","last_reported":1727474906,"current_range_meters":11200,"station_id":"","pricing_plan_id":"cebpf4jnsgd1na2vs0mg"},{"bike_id":"76752f37-e655-4cc7-af0a-61528c2e8d7e","system_id":"levelo_inurba_marseille","lat":43.26211,"lon":5.37443,"is_reserved":false,"is_disabled":false,"rental_uris":{"android":"levelo://app?vid=76752f37-e655-4cc7-af0a-61528c2e8d7e","ios":"levelo://app?vid=76752f37-e655-4cc7-af0a-61528c2e8d7e"},"vehicle_type_id":"4","last_reported":1727474906,"current_range_meters":38800,"station_id":"ce4bhgp2rcd13ifvqfc0","pricing_plan_id":"cebpf4jnsgd1na2vs0mg"},{"bike_id":"da443d99-06a5-4766-a504-915cb7bcd0bf","system_id":"levelo_inurba_marseille","lat":43.30306,"lon":5.392,"is_reserved":false,"is_disabled":false,"rental_uris":{"android":"levelo://app?vid=da443d99-06a5-4766-a504-915cb7bcd0bf","ios":"levelo://app?vid=da443d99-06a5-4766-a504-915cb7bcd0bf"},"vehicle_type_id":"4","last_reported":1727474906,"current_range_meters":36800,"station_id":"ce4bgkh2rcd13ifvqbk0","pricing_plan_id":"cebpf4jnsgd1na2vs0mg"},{"bike_id":"7e77c327-ae15-4325-b29f-384f23eaeaaf","system_id":"levelo_inurba_marseille","lat":43.27951,"lon":5.41044,"is_reserved":false,"is_disabled":false,"rental_uris":{"android":"levelo://app?vid=7e77c327-ae15-4325-b29f-384f23eaeaaf","ios":"levelo://app?vid=7e77c327-ae15-4325-b29f-384f23eaeaaf"},"vehicle_type_id":"4","last_reported":1727474906,"current_range_meters":36000,"station_id":"ce4bhnp2rcd13ifvqh0g","pricing_plan_id":"cebpf4jnsgd1na2vs0mg"},{"bike_id":"53c6f2e0-e31f-4bd2-9188-53b83254ae09","system_id":"levelo_inurba_marseille","lat":43.3106,"lon":5.38349,"is_reserved":false,"is_disabled":false,"rental_uris":{"android":"levelo://app?vid=53c6f2e0-e31f-4bd2-9188-53b83254ae09","ios":"levelo://app?vid=53c6f2e0-e31f-4bd2-9188-53b83254ae09"},"vehicle_type_id":"4","last_reported":1727474906,"current_range_meters":6400,"station_id":"ce4bgv92rcd13ifvqcr0","pricing_plan_id":"cebpf4jnsgd1na2vs0mg"},{"bike_id":"5b51f52a-03dc-4814-ab8b-355718300cfc","system_id":"levelo_inurba_marseille","lat":43.28923,"lon":5.38391,"is_reserved":false,"is_disabled":false,"rental_uris":{"android":"levelo://app?vid=5b51f52a-03dc-4814-ab8b-355718300cfc","ios":"levelo://app?vid=5b51f52a-03dc-4814-ab8b-355718300cfc"},"vehicle_type_id":"4","last_reported":1727474906,"current_range_meters":36800,"station_id":"ce4bh612rcd13ifvqe6g","pricing_plan_id":"cebpf4jnsgd1na2vs0mg"},{"bike_id":"81c79a4f-3221-46d7-a845-19df991b0567","system_id":"levelo_inurba_marseille","lat":43.24072,"lon":5.37756,"is_reserved":false,"is_disabled":false,"rental_uris":{"android":"levelo://app?vid=81c79a4f-3221-46d7-a845-19df991b0567","ios":"levelo://app?vid=81c79a4f-3221-46d7-a845-19df991b0567"},"vehicle_type_id":"4","last_reported":1727474906,"current_range_meters":28400,"station_id":"ce4bhnp2rcd13ifvqgvg","pricing_plan_id":"cebpf4jnsgd1na2vs0mg"},{"bike_id":"132d8f2a-20f7-4c08-b73f-6c85a3180290","system_id":"levelo_inurba_marseille","lat":43.25825,"lon":5.39426,"is_reserved":false,"is_disabled":false,"rental_uris":{"android":"levelo://app?vid=132d8f2a-20f7-4c08-b73f-6c85a3180290","ios":"levelo://app?vid=132d8f2a-20f7-4c08-b73f-6c85a3180290"},"vehicle_type_id":"4","last_reported":1727474906,"current_range_meters":38800,"station_id":"ce4bhip2rcd13ifvqft0","pricing_plan_id":"cebpf4jnsgd1na2vs0mg"},{"bike_id":"ce13001c-eda7-4717-aac4-68b45e2406a6","system_id":"levelo_inurba_marseille","lat":43.31992,"lon":5.38148,"is_reserved":false,"is_disabled":false,"rental_uris":{"android":"levelo://app?vid=ce13001c-eda7-4717-aac4-68b45e2406a6","ios":"levelo://app?vid=ce13001c-eda7-4717-aac4-68b45e2406a6"},"vehicle_type_id":"4","last_reported":1727474906,"current_range_meters":25600,"station_id":"ce4bhr12rcd13ifvqhpg","pricing_plan_id":"cebpf4jnsgd1na2vs0mg"},{"bike_id":"24feb5ad-6e7e-4661-bebb-8818660b86da","system_id":"levelo_inurba_marseille","lat":43.30972,"lon":5.3904,"is_reserved":false,"is_disabled":false,"rental_uris":{"android":"levelo://app?vid=24feb5ad-6e7e-4661-bebb-8818660b86da","ios":"levelo://app?vid=24feb5ad-6e7e-4661-bebb-8818660b86da"},"vehicle_type_id":"4","last_reported":1727474906,"current_range_meters":25200,"station_id":"ce4bgup2rcd13ifvqco0","pricing_plan_id":"cebpf4jnsgd1na2vs0mg"},{"bike_id":"a6a8658c-f679-4e9f-b123-07188255b169","system_id":"levelo_inurba_marseille","lat":43.28989,"lon":5.375888,"is_reserved":false,"is_disabled":false,"rental_uris":{"android":"levelo://app?vid=a6a8658c-f679-4e9f-b123-07188255b169","ios":"levelo://app?vid=a6a8658c-f679-4e9f-b123-07188255b169"},"vehicle_type_id":"4","last_reported":1727474906,"current_range_meters":31200,"station_id":"","pricing_plan_id":"cebpf4jnsgd1na2vs0mg"},{"bike_id":"0ce97a46-ce47-49bd-8c13-658eaf9179fd","system_id":"levelo_inurba_marseille","lat":43.30303,"lon":5.39204,"is_reserved":false,"is_disabled":false,"rental_uris":{"android":"levelo://app?vid=0ce97a46-ce47-49bd-8c13-658eaf9179fd","ios":"levelo://app?vid=0ce97a46-ce47-49bd-8c13-658eaf9179fd"},"vehicle_type_id":"4","last_reported":1727474906,"current_range_meters":9200,"station_id":"ce4bgkh2rcd13ifvqbk0","pricing_plan_id":"cebpf4jnsgd1na2vs0mg"},{"bike_id":"3be74aaf-9c2f-44a5-b8a7-b2e48b5bbeb2","system_id":"levelo_inurba_marseille","lat":43.29031,"lon":5.38649,"is_reserved":false,"is_disabled":false,"rental_uris":{"android":"levelo://app?vid=3be74aaf-9c2f-44a5-b8a7-b2e48b5bbeb2","ios":"levelo://app?vid=3be74aaf-9c2f-44a5-b8a7-b2e48b5bbeb2"},"vehicle_type_id":"4","last_reported":1727474906,"current_range_meters":39200,"station_id":"ce4bh4p2rcd13ifvqe0g","pricing_plan_id":"cebpf4jnsgd1na2vs0mg"},{"bike_id":"94415f13-7547-4e2b-babc-614baa3098dc","system_id":"levelo_inurba_marseille","lat":43.30593,"lon":5.39348,"is_reserved":false,"is_disabled":false,"rental_uris":{"android":"levelo://app?vid=94415f13-7547-4e2b-babc-614baa3098dc","ios":"levelo://app?vid=94415f13-7547-4e2b-babc-614baa3098dc"},"vehicle_type_id":"4","last_reported":1727474906,"current_range_meters":25200,"station_id":"ce4bh0p2rcd13ifvqd80","pricing_plan_id":"cebpf4jnsgd1na2vs0mg"},{"bike_id":"2bc2b117-8390-460a-a762-154c1a7c50d6","system_id":"levelo_inurba_marseille","lat":43.284415,"lon":5.358493,"is_reserved":false,"is_disabled":false,"rental_uris":{"android":"levelo://app?vid=2bc2b117-8390-460a-a762-154c1a7c50d6","ios":"levelo://app?vid=2bc2b117-8390-460a-a762-154c1a7c50d6"},"vehicle_type_id":"4","last_reported":1727474906,"current_range_meters":28400,"station_id":"ce4bhah2rcd13ifvqei0","pricing_plan_id":"cebpf4jnsgd1na2vs0mg"},{"bike_id":"b542da08-92c3-497f-b2a7-9b29fc91ccce","system_id":"levelo_inurba_marseille","lat":43.30312,"lon":5.369,"is_reserved":false,"is_disabled":false,"rental_uris":{"android":"levelo://app?vid=b542da08-92c3-497f-b2a7-9b29fc91ccce","ios":"levelo://app?vid=b542da08-92c3-497f-b2a7-9b29fc91ccce"},"vehicle_type_id":"4","last_reported":1727474906,"current_range_meters":6800,"station_id":"ce4bgqh2rcd13ifvqc5g","pricing_plan_id":"cebpf4jnsgd1na2vs0mg"},{"bike_id":"5379eb60-93b5-496b-9719-fe385f527a88","system_id":"levelo_inurba_marseille","lat":43.2586,"lon":5.39901,"is_reserved":false,"is_disabled":false,"rental_uris":{"android":"levelo://app?vid=5379eb60-93b5-496b-9719-fe385f527a88","ios":"levelo://app?vid=5379eb60-93b5-496b-9719-fe385f527a88"},"vehicle_type_id":"4","last_reported":1727474906,"current_range_meters":8000,"station_id":"ce4bhl92rcd13ifvqghg","pricing_plan_id":"cebpf4jnsgd1na2vs0mg"},{"bike_id":"3af07893-9c1b-4f33-b224-f4310b42b9ca","system_id":"levelo_inurba_marseille","lat":43.28081,"lon":5.39663,"is_reserved":false,"is_disabled":false,"rental_uris":{"android":"levelo://app?vid=3af07893-9c1b-4f33-b224-f4310b42b9ca","ios":"levelo://app?vid=3af07893-9c1b-4f33-b224-f4310b42b9ca"},"vehicle_type_id":"4","last_reported":1727474906,"current_range_meters":37600,"station_id":"ce4bho12rcd13ifvqh2g","pricing_plan_id":"cebpf4jnsgd1na2vs0mg"},{"bike_id":"5c874cf8-80df-4d12-be22-fe2e6d6314f6","system_id":"levelo_inurba_marseille","lat":43.30432,"lon":5.38888,"is_reserved":false,"is_disabled":false,"rental_uris":{"android":"levelo://app?vid=5c874cf8-80df-4d12-be22-fe2e6d6314f6","ios":"levelo://app?vid=5c874cf8-80df-4d12-be22-fe2e6d6314f6"},"vehicle_type_id":"4","last_reported":1727474906,"current_range_meters":30000,"station_id":"ce4bgk12rcd13ifvqbi0","pricing_plan_id":"cebpf4jnsgd1na2vs0mg"},{"bike_id":"6eaf898e-bc7a-482c-a711-4804a5162386","system_id":"levelo_inurba_marseille","lat":43.286163,"lon":5.377358,"is_reserved":false,"is_disabled":false,"rental_uris":{"android":"levelo://app?vid=6eaf898e-bc7a-482c-a711-4804a5162386","ios":"levelo://app?vid=6eaf898e-bc7a-482c-a711-4804a5162386"},"vehicle_type_id":"4","last_reported":1727474906,"current_range_meters":6000,"station_id":"ce4bha12rcd13ifvqee0","pricing_plan_id":"cebpf4jnsgd1na2vs0mg"},{"bike_id":"d277fab4-5d7b-4c5a-9f3d-ca3974840de6","system_id":"levelo_inurba_marseille","lat":43.31173,"lon":5.38709,"is_reserved":false,"is_disabled":false,"rental_uris":{"android":"levelo://app?vid=d277fab4-5d7b-4c5a-9f3d-ca3974840de6","ios":"levelo://app?vid=d277fab4-5d7b-4c5a-9f3d-ca3974840de6"},"vehicle_type_id":"4","last_reported":1727474906,"current_range_meters":20800,"station_id":"ce4bgv12rcd13ifvqcp0","pricing_plan_id":"cebpf4jnsgd1na2vs0mg"},{"bike_id":"a22c3c5f-aaca-4d61-8278-f1801ba75371","system_id":"levelo_inurba_marseille","lat":43.23184,"lon":5.39989,"is_reserved":false,"is_disabled":false,"rental_uris":{"android":"levelo://app?vid=a22c3c5f-aaca-4d61-8278-f1801ba75371","ios":"levelo://app?vid=a22c3c5f-aaca-4d61-8278-f1801ba75371"},"vehicle_type_id":"4","last_reported":1727474906,"current_range_meters":34800,"station_id":"ce4bhn12rcd13ifvqgqg","pricing_plan_id":"cebpf4jnsgd1na2vs0mg"},{"bike_id":"1859c045-2509-4b9f-8e39-f3c6f6ce3709","system_id":"levelo_inurba_marseille","lat":43.24183,"lon":5.39733,"is_reserved":false,"is_disabled":false,"rental_uris":{"android":"levelo://app?vid=1859c045-2509-4b9f-8e39-f3c6f6ce3709","ios":"levelo://app?vid=1859c045-2509-4b9f-8e39-f3c6f6ce3709"},"vehicle_type_id":"4","last_reported":1727474906,"current_range_meters":30400,"station_id":"ce4bhn12rcd13ifvqgpg","pricing_plan_id":"cebpf4jnsgd1na2vs0mg"},{"bike_id":"e8394f53-ad6d-4807-b679-5193e1242268","system_id":"levelo_inurba_marseille","lat":43.31757,"lon":5.39018,"is_reserved":false,"is_disabled":false,"rental_uris":{"android":"levelo://app?vid=e8394f53-ad6d-4807-b679-5193e1242268","ios":"levelo://app?vid=e8394f53-ad6d-4807-b679-5193e1242268"},"vehicle_type_id":"4","last_reported":1727474906,"current_range_meters":2800,"station_id":"ce4bhqp2rcd13ifvqhng","pricing_plan_id":"cebpf4jnsgd1na2vs0mg"},{"bike_id":"cde5d2f6-781b-477e-ae75-bcdf15041b0d","system_id":"levelo_inurba_marseille","lat":43.25507,"lon":5.37652,"is_reserved":false,"is_disabled":false,"rental_uris":{"android":"levelo://app?vid=cde5d2f6-781b-477e-ae75-bcdf15041b0d","ios":"levelo://app?vid=cde5d2f6-781b-477e-ae75-bcdf15041b0d"},"vehicle_type_id":"4","last_reported":1727474906,"current_range_meters":38400,"station_id":"ce4bhh12rcd13ifvqff0","pricing_plan_id":"cebpf4jnsgd1na2vs0mg"},{"bike_id":"84cfac83-0b3c-42a5-9270-99ddcb4631f3","system_id":"levelo_inurba_marseille","lat":43.30114,"lon":5.39084,"is_reserved":false,"is_disabled":false,"rental_uris":{"android":"levelo://app?vid=84cfac83-0b3c-42a5-9270-99ddcb4631f3","ios":"levelo://app?vid=84cfac83-0b3c-42a5-9270-99ddcb4631f3"},"vehicle_type_id":"4","last_reported":1727474906,"current_range_meters":12800,"station_id":"ce4bh192rcd13ifvqdb0","pricing_plan_id":"cebpf4jnsgd1na2vs0mg"},{"bike_id":"108521b4-d2ba-4851-86b3-ebd78c9034f0","system_id":"levelo_inurba_marseille","lat":43.30863,"lon":5.3685,"is_reserved":false,"is_disabled":false,"rental_uris":{"android":"levelo://app?vid=108521b4-d2ba-4851-86b3-ebd78c9034f0","ios":"levelo://app?vid=108521b4-d2ba-4851-86b3-ebd78c9034f0"},"vehicle_type_id":"4","last_reported":1727474906,"current_range_meters":13600,"station_id":"ce4bgn92rcd13ifvqbvg","pricing_plan_id":"cebpf4jnsgd1na2vs0mg"},{"bike_id":"6cbe58bb-edba-443b-a252-e015b5a87291","system_id":"levelo_inurba_marseille","lat":43.27367,"lon":5.41221,"is_reserved":false,"is_disabled":false,"rental_uris":{"android":"levelo://app?vid=6cbe58bb-edba-443b-a252-e015b5a87291","ios":"levelo://app?vid=6cbe58bb-edba-443b-a252-e015b5a87291"},"vehicle_type_id":"4","last_reported":1727474906,"current_range_meters":30800,"station_id":"","pricing_plan_id":"cebpf4jnsgd1na2vs0mg"},{"bike_id":"21ad1958-6fe2-4720-9869-1bfce8792d32","system_id":"levelo_inurba_marseille","lat":43.266962,"lon":5.382817,"is_reserved":false,"is_disabled":false,"rental_uris":{"android":"levelo://app?vid=21ad1958-6fe2-4720-9869-1bfce8792d32","ios":"levelo://app?vid=21ad1958-6fe2-4720-9869-1bfce8792d32"},"vehicle_type_id":"4","last_reported":1727474906,"current_range_meters":38800,"station_id":"ce4bhg92rcd13ifvqf90","pricing_plan_id":"cebpf4jnsgd1na2vs0mg"},{"bike_id":"29910bcc-132d-4c64-8ac3-821343437bc6","system_id":"levelo_inurba_marseille","lat":43.31361,"lon":5.38502,"is_reserved":false,"is_disabled":false,"rental_uris":{"android":"levelo://app?vid=29910bcc-132d-4c64-8ac3-821343437bc6","ios":"levelo://app?vid=29910bcc-132d-4c64-8ac3-821343437bc6"},"vehicle_type_id":"4","last_reported":1727474906,"current_range_meters":38800,"station_id":"ce4bgt92rcd13ifvqcf0","pricing_plan_id":"cebpf4jnsgd1na2vs0mg"},{"bike_id":"34f7f495-0508-4033-88f6-426b655fc5a0","system_id":"levelo_inurba_marseille","lat":43.22933,"lon":5.35379,"is_reserved":false,"is_disabled":false,"rental_uris":{"android":"levelo://app?vid=34f7f495-0508-4033-88f6-426b655fc5a0","ios":"levelo://app?vid=34f7f495-0508-4033-88f6-426b655fc5a0"},"vehicle_type_id":"4","last_reported":1727474906,"current_range_meters":36800,"station_id":"cpo3532slgdg3j2ikp40","pricing_plan_id":"cebpf4jnsgd1na2vs0mg"},{"bike_id":"6099fb65-86b8-4a02-8e51-9b9b9b7da160","system_id":"levelo_inurba_marseille","lat":43.28519,"lon":5.39121,"is_reserved":false,"is_disabled":false,"rental_uris":{"android":"levelo://app?vid=6099fb65-86b8-4a02-8e51-9b9b9b7da160","ios":"levelo://app?vid=6099fb65-86b8-4a02-8e51-9b9b9b7da160"},"vehicle_type_id":"4","last_reported":1727474906,"current_range_meters":36800,"station_id":"ce4bh3p2rcd13ifvqdp0","pricing_plan_id":"cebpf4jnsgd1na2vs0mg"},{"bike_id":"30e6f83c-d0cb-46f4-9b0b-2083e708a338","system_id":"levelo_inurba_marseille","lat":43.24664,"lon":5.38166,"is_reserved":false,"is_disabled":false,"rental_uris":{"android":"levelo://app?vid=30e6f83c-d0cb-46f4-9b0b-2083e708a338","ios":"levelo://app?vid=30e6f83c-d0cb-46f4-9b0b-2083e708a338"},"vehicle_type_id":"4","last_reported":1727474906,"current_range_meters":9200,"station_id":"ce4bhih2rcd13ifvqfr0","pricing_plan_id":"cebpf4jnsgd1na2vs0mg"},{"bike_id":"bdfb8d7b-b09c-4ec5-9a27-191477b4774a","system_id":"levelo_inurba_marseille","lat":43.27562,"lon":5.38419,"is_reserved":false,"is_disabled":false,"rental_uris":{"android":"levelo://app?vid=bdfb8d7b-b09c-4ec5-9a27-191477b4774a","ios":"levelo://app?vid=bdfb8d7b-b09c-4ec5-9a27-191477b4774a"},"vehicle_type_id":"4","last_reported":1727474906,"current_range_meters":22800,"station_id":"ce4bhh92rcd13ifvqfi0","pricing_plan_id":"cebpf4jnsgd1na2vs0mg"},{"bike_id":"6ae9206f-8c56-4851-b789-adc33847d262","system_id":"levelo_inurba_marseille","lat":43.323425,"lon":5.406286,"is_reserved":false,"is_disabled":false,"rental_uris":{"android":"levelo://app?vid=6ae9206f-8c56-4851-b789-adc33847d262","ios":"levelo://app?vid=6ae9206f-8c56-4851-b789-adc33847d262"},"vehicle_type_id":"4","last_reported":1727474906,"current_range_meters":28000,"station_id":"ce4bhq92rcd13ifvqhjg","pricing_plan_id":"cebpf4jnsgd1na2vs0mg"},{"bike_id":"eeae30ea-5520-4a25-81a4-4490a562ef2b","system_id":"levelo_inurba_marseille","lat":43.279449,"lon":5.410468,"is_reserved":false,"is_disabled":false,"rental_uris":{"android":"levelo://app?vid=eeae30ea-5520-4a25-81a4-4490a562ef2b","ios":"levelo://app?vid=eeae30ea-5520-4a25-81a4-4490a562ef2b"},"vehicle_type_id":"4","last_reported":1727474906,"current_range_meters":37600,"station_id":"ce4bhnp2rcd13ifvqh0g","pricing_plan_id":"cebpf4jnsgd1na2vs0mg"},{"bike_id":"c340e68f-2734-4fef-ba0a-63225a606015","system_id":"levelo_inurba_marseille","lat":43.29569,"lon":5.39967,"is_reserved":false,"is_disabled":false,"rental_uris":{"android":"levelo://app?vid=c340e68f-2734-4fef-ba0a-63225a606015","ios":"levelo://app?vid=c340e68f-2734-4fef-ba0a-63225a606015"},"vehicle_type_id":"4","last_reported":1727474906,"current_range_meters":8000,"station_id":"ce4bh312rcd13ifvqdj0","pricing_plan_id":"cebpf4jnsgd1na2vs0mg"},{"bike_id":"1d4c35c4-b4cf-4efc-a457-99543112971f","system_id":"levelo_inurba_marseille","lat":43.30785,"lon":5.38152,"is_reserved":false,"is_disabled":false,"rental_uris":{"android":"levelo://app?vid=1d4c35c4-b4cf-4efc-a457-99543112971f","ios":"levelo://app?vid=1d4c35c4-b4cf-4efc-a457-99543112971f"},"vehicle_type_id":"4","last_reported":1727474906,"current_range_meters":36800,"station_id":"ce4bgt12rcd13ifvqce0","pricing_plan_id":"cebpf4jnsgd1na2vs0mg"},{"bike_id":"855dccb2-30f6-457f-8c71-c53f540c4943","system_id":"levelo_inurba_marseille","lat":43.29994,"lon":5.41536,"is_reserved":false,"is_disabled":false,"rental_uris":{"android":"levelo://app?vid=855dccb2-30f6-457f-8c71-c53f540c4943","ios":"levelo://app?vid=855dccb2-30f6-457f-8c71-c53f540c4943"},"vehicle_type_id":"4","last_reported":1727474906,"current_range_meters":9600,"station_id":"","pricing_plan_id":"cebpf4jnsgd1na2vs0mg"},{"bike_id":"2988b1da-e672-45a3-81d6-2ab6d67ab647","system_id":"levelo_inurba_marseille","lat":43.32301,"lon":5.3826,"is_reserved":false,"is_disabled":false,"rental_uris":{"android":"levelo://app?vid=2988b1da-e672-45a3-81d6-2ab6d67ab647","ios":"levelo://app?vid=2988b1da-e672-45a3-81d6-2ab6d67ab647"},"vehicle_type_id":"4","last_reported":1727474906,"current_range_meters":39200,"station_id":"ce4bhr12rcd13ifvqhqg","pricing_plan_id":"cebpf4jnsgd1na2vs0mg"},{"bike_id":"dfc6713b-cb1a-4c7a-91b2-3e26e8b2b20c","system_id":"levelo_inurba_marseille","lat":43.310734,"lon":5.383512,"is_reserved":false,"is_disabled":false,"rental_uris":{"android":"levelo://app?vid=dfc6713b-cb1a-4c7a-91b2-3e26e8b2b20c","ios":"levelo://app?vid=dfc6713b-cb1a-4c7a-91b2-3e26e8b2b20c"},"vehicle_type_id":"4","last_reported":1727474906,"current_range_meters":14800,"station_id":"ce4bgv92rcd13ifvqcr0","pricing_plan_id":"cebpf4jnsgd1na2vs0mg"},{"bike_id":"a615c499-343a-4dd6-97e1-f07ce021aa8a","system_id":"levelo_inurba_marseille","lat":43.25088,"lon":5.39513,"is_reserved":false,"is_disabled":false,"rental_uris":{"android":"levelo://app?vid=a615c499-343a-4dd6-97e1-f07ce021aa8a","ios":"levelo://app?vid=a615c499-343a-4dd6-97e1-f07ce021aa8a"},"vehicle_type_id":"4","last_reported":1727474906,"current_range_meters":38800,"station_id":"ce4bhm12rcd13ifvqgkg","pricing_plan_id":"cebpf4jnsgd1na2vs0mg"},{"bike_id":"68074c19-06c1-4c4e-815a-35842d489ec5","system_id":"levelo_inurba_marseille","lat":43.31275,"lon":5.40174,"is_reserved":false,"is_disabled":false,"rental_uris":{"android":"levelo://app?vid=68074c19-06c1-4c4e-815a-35842d489ec5","ios":"levelo://app?vid=68074c19-06c1-4c4e-815a-35842d489ec5"},"vehicle_type_id":"4","last_reported":1727474906,"current_range_meters":7200,"station_id":"ce4bh092rcd13ifvqd30","pricing_plan_id":"cebpf4jnsgd1na2vs0mg"},{"bike_id":"dcd7646c-9731-4b4e-a7c3-ba4548734412","system_id":"levelo_inurba_marseille","lat":43.337444,"lon":5.374475,"is_reserved":false,"is_disabled":false,"rental_uris":{"android":"levelo://app?vid=dcd7646c-9731-4b4e-a7c3-ba4548734412","ios":"levelo://app?vid=dcd7646c-9731-4b4e-a7c3-ba4548734412"},"vehicle_type_id":"4","last_reported":1727474906,"current_range_meters":33200,"station_id":"","pricing_plan_id":"cebpf4jnsgd1na2vs0mg"},{"bike_id":"ebe01908-fd16-48dd-b727-aff921a35ecc","system_id":"levelo_inurba_marseille","lat":43.31231,"lon":5.36861,"is_reserved":false,"is_disabled":false,"rental_uris":{"android":"levelo://app?vid=ebe01908-fd16-48dd-b727-aff921a35ecc","ios":"levelo://app?vid=ebe01908-fd16-48dd-b727-aff921a35ecc"},"vehicle_type_id":"4","last_reported":1727474906,"current_range_meters":31200,"station_id":"ce4bgl92rcd13ifvqbq0","pricing_plan_id":"cebpf4jnsgd1na2vs0mg"},{"bike_id":"cf2b5c88-ba52-4fde-a378-46c9ff72e196","system_id":"levelo_inurba_marseille","lat":43.28932,"lon":5.36634,"is_reserved":false,"is_disabled":false,"rental_uris":{"android":"levelo://app?vid=cf2b5c88-ba52-4fde-a378-46c9ff72e196","ios":"levelo://app?vid=cf2b5c88-ba52-4fde-a378-46c9ff72e196"},"vehicle_type_id":"4","last_reported":1727474906,"current_range_meters":13600,"station_id":"ce4bhap2rcd13ifvqek0","pricing_plan_id":"cebpf4jnsgd1na2vs0mg"},{"bike_id":"d4a782fe-9579-4bcc-a923-3394b9770311","system_id":"levelo_inurba_marseille","lat":43.285736,"lon":5.395027,"is_reserved":false,"is_disabled":false,"rental_uris":{"android":"levelo://app?vid=d4a782fe-9579-4bcc-a923-3394b9770311","ios":"levelo://app?vid=d4a782fe-9579-4bcc-a923-3394b9770311"},"vehicle_type_id":"4","last_reported":1727474906,"current_range_meters":14000,"station_id":"ce4bh292rcd13ifvqdg0","pricing_plan_id":"cebpf4jnsgd1na2vs0mg"},{"bike_id":"8cdfa3c6-f7a3-40bd-95e5-72d83246a46b","system_id":"levelo_inurba_marseille","lat":43.2318,"lon":5.39988,"is_reserved":false,"is_disabled":false,"rental_uris":{"android":"levelo://app?vid=8cdfa3c6-f7a3-40bd-95e5-72d83246a46b","ios":"levelo://app?vid=8cdfa3c6-f7a3-40bd-95e5-72d83246a46b"},"vehicle_type_id":"4","last_reported":1727474906,"current_range_meters":39200,"station_id":"ce4bhn12rcd13ifvqgqg","pricing_plan_id":"cebpf4jnsgd1na2vs0mg"},{"bike_id":"febafa71-0750-4e9d-a8b2-9d5aaccdff2a","system_id":"levelo_inurba_marseille","lat":43.29553,"lon":5.42282,"is_reserved":false,"is_disabled":false,"rental_uris":{"android":"levelo://app?vid=febafa71-0750-4e9d-a8b2-9d5aaccdff2a","ios":"levelo://app?vid=febafa71-0750-4e9d-a8b2-9d5aaccdff2a"},"vehicle_type_id":"4","last_reported":1727474906,"current_range_meters":23200,"station_id":"ce4bhph2rcd13ifvqhdg","pricing_plan_id":"cebpf4jnsgd1na2vs0mg"},{"bike_id":"5c0c6233-8464-4d55-a462-c9165dcba121","system_id":"levelo_inurba_marseille","lat":43.28033,"lon":5.36943,"is_reserved":false,"is_disabled":false,"rental_uris":{"android":"levelo://app?vid=5c0c6233-8464-4d55-a462-c9165dcba121","ios":"levelo://app?vid=5c0c6233-8464-4d55-a462-c9165dcba121"},"vehicle_type_id":"4","last_reported":1727474906,"current_range_meters":38000,"station_id":"ce4bha12rcd13ifvqef0","pricing_plan_id":"cebpf4jnsgd1na2vs0mg"},{"bike_id":"3207f0ec-4133-4bbf-88a3-e8402a9d1bd3","system_id":"levelo_inurba_marseille","lat":43.31715,"lon":5.4371,"is_reserved":false,"is_disabled":false,"rental_uris":{"android":"levelo://app?vid=3207f0ec-4133-4bbf-88a3-e8402a9d1bd3","ios":"levelo://app?vid=3207f0ec-4133-4bbf-88a3-e8402a9d1bd3"},"vehicle_type_id":"4","last_reported":1727474906,"current_range_meters":11200,"station_id":"ce4bhp92rcd13ifvqhcg","pricing_plan_id":"cebpf4jnsgd1na2vs0mg"},{"bike_id":"18f7362c-d2d6-46aa-8fe9-afa06a6ba624","system_id":"levelo_inurba_marseille","lat":43.31888,"lon":5.40741,"is_reserved":false,"is_disabled":false,"rental_uris":{"android":"levelo://app?vid=18f7362c-d2d6-46aa-8fe9-afa06a6ba624","ios":"levelo://app?vid=18f7362c-d2d6-46aa-8fe9-afa06a6ba624"},"vehicle_type_id":"4","last_reported":1727474906,"current_range_meters":25600,"station_id":"ce4bhq12rcd13ifvqhig","pricing_plan_id":"cebpf4jnsgd1na2vs0mg"},{"bike_id":"993528d0-7153-4fc1-8ab5-6eeb3da65c22","system_id":"levelo_inurba_marseille","lat":43.28657,"lon":5.36355,"is_reserved":false,"is_disabled":false,"rental_uris":{"android":"levelo://app?vid=993528d0-7153-4fc1-8ab5-6eeb3da65c22","ios":"levelo://app?vid=993528d0-7153-4fc1-8ab5-6eeb3da65c22"},"vehicle_type_id":"4","last_reported":1727474906,"current_range_meters":24000,"station_id":"ce4bhah2rcd13ifvqej0","pricing_plan_id":"cebpf4jnsgd1na2vs0mg"},{"bike_id":"eba05926-f17e-4e29-8a11-eba8ae48bf9d","system_id":"levelo_inurba_marseille","lat":43.30206,"lon":5.39468,"is_reserved":false,"is_disabled":false,"rental_uris":{"android":"levelo://app?vid=eba05926-f17e-4e29-8a11-eba8ae48bf9d","ios":"levelo://app?vid=eba05926-f17e-4e29-8a11-eba8ae48bf9d"},"vehicle_type_id":"4","last_reported":1727474906,"current_range_meters":37600,"station_id":"ce4bh0p2rcd13ifvqd70","pricing_plan_id":"cebpf4jnsgd1na2vs0mg"},{"bike_id":"6d4aaef9-71c2-43a8-be24-88d3cac3fe60","system_id":"levelo_inurba_marseille","lat":43.28266,"lon":5.35055,"is_reserved":false,"is_disabled":false,"rental_uris":{"android":"levelo://app?vid=6d4aaef9-71c2-43a8-be24-88d3cac3fe60","ios":"levelo://app?vid=6d4aaef9-71c2-43a8-be24-88d3cac3fe60"},"vehicle_type_id":"4","last_reported":1727474906,"current_range_meters":28400,"station_id":"ce4bhbp2rcd13ifvqerg","pricing_plan_id":"cebpf4jnsgd1na2vs0mg"},{"bike_id":"fa3bdc34-9a61-4a0f-92b7-ad87b3524500","system_id":"levelo_inurba_marseille","lat":43.31758,"lon":5.39028,"is_reserved":false,"is_disabled":false,"rental_uris":{"android":"levelo://app?vid=fa3bdc34-9a61-4a0f-92b7-ad87b3524500","ios":"levelo://app?vid=fa3bdc34-9a61-4a0f-92b7-ad87b3524500"},"vehicle_type_id":"4","last_reported":1727474906,"current_range_meters":17600,"station_id":"ce4bhqp2rcd13ifvqhng","pricing_plan_id":"cebpf4jnsgd1na2vs0mg"},{"bike_id":"513a00a9-48f8-496b-8482-e16277dd2423","system_id":"levelo_inurba_marseille","lat":43.30784,"lon":5.37634,"is_reserved":false,"is_disabled":false,"rental_uris":{"android":"levelo://app?vid=513a00a9-48f8-496b-8482-e16277dd2423","ios":"levelo://app?vid=513a00a9-48f8-496b-8482-e16277dd2423"},"vehicle_type_id":"4","last_reported":1727474906,"current_range_meters":9200,"station_id":"ce4bgv92rcd13ifvqcq0","pricing_plan_id":"cebpf4jnsgd1na2vs0mg"},{"bike_id":"80f89720-5416-450a-8ff5-8385c9f21f47","system_id":"levelo_inurba_marseille","lat":43.32479,"lon":5.36562,"is_reserved":false,"is_disabled":false,"rental_uris":{"android":"levelo://app?vid=80f89720-5416-450a-8ff5-8385c9f21f47","ios":"levelo://app?vid=80f89720-5416-450a-8ff5-8385c9f21f47"},"vehicle_type_id":"4","last_reported":1727474906,"current_range_meters":36400,"station_id":"ce4bhs12rcd13ifvqhvg","pricing_plan_id":"cebpf4jnsgd1na2vs0mg"},{"bike_id":"a4aa33d8-d04f-4a0d-8152-b9d1c32efe23","system_id":"levelo_inurba_marseille","lat":43.29638,"lon":5.406,"is_reserved":false,"is_disabled":false,"rental_uris":{"android":"levelo://app?vid=a4aa33d8-d04f-4a0d-8152-b9d1c32efe23","ios":"levelo://app?vid=a4aa33d8-d04f-4a0d-8152-b9d1c32efe23"},"vehicle_type_id":"4","last_reported":1727474906,"current_range_meters":39200,"station_id":"ce4bh0h2rcd13ifvqd60","pricing_plan_id":"cebpf4jnsgd1na2vs0mg"},{"bike_id":"9167b006-4717-445d-8638-8f9c49c9befb","system_id":"levelo_inurba_marseille","lat":43.28924,"lon":5.3839,"is_reserved":false,"is_disabled":false,"rental_uris":{"android":"levelo://app?vid=9167b006-4717-445d-8638-8f9c49c9befb","ios":"levelo://app?vid=9167b006-4717-445d-8638-8f9c49c9befb"},"vehicle_type_id":"4","last_reported":1727474906,"current_range_meters":30000,"station_id":"ce4bh612rcd13ifvqe6g","pricing_plan_id":"cebpf4jnsgd1na2vs0mg"},{"bike_id":"983d7f66-9483-4b4a-a508-1e8548050abc","system_id":"levelo_inurba_marseille","lat":43.23182,"lon":5.39985,"is_reserved":false,"is_disabled":false,"rental_uris":{"android":"levelo://app?vid=983d7f66-9483-4b4a-a508-1e8548050abc","ios":"levelo://app?vid=983d7f66-9483-4b4a-a508-1e8548050abc"},"vehicle_type_id":"4","last_reported":1727474906,"current_range_meters":38000,"station_id":"ce4bhn12rcd13ifvqgqg","pricing_plan_id":"cebpf4jnsgd1na2vs0mg"},{"bike_id":"2caf35bc-5f19-4b1d-b56f-cc20b5e3bb64","system_id":"levelo_inurba_marseille","lat":43.31358,"lon":5.38495,"is_reserved":false,"is_disabled":false,"rental_uris":{"android":"levelo://app?vid=2caf35bc-5f19-4b1d-b56f-cc20b5e3bb64","ios":"levelo://app?vid=2caf35bc-5f19-4b1d-b56f-cc20b5e3bb64"},"vehicle_type_id":"4","last_reported":1727474906,"current_range_meters":22800,"station_id":"ce4bgt92rcd13ifvqcf0","pricing_plan_id":"cebpf4jnsgd1na2vs0mg"},{"bike_id":"971f938f-51cb-4601-86c6-be6ff9e4855e","system_id":"levelo_inurba_marseille","lat":43.309518,"lon":5.390403,"is_reserved":false,"is_disabled":false,"rental_uris":{"android":"levelo://app?vid=971f938f-51cb-4601-86c6-be6ff9e4855e","ios":"levelo://app?vid=971f938f-51cb-4601-86c6-be6ff9e4855e"},"vehicle_type_id":"4","last_reported":1727474906,"current_range_meters":24800,"station_id":"ce4bgup2rcd13ifvqco0","pricing_plan_id":"cebpf4jnsgd1na2vs0mg"},{"bike_id":"2a1ec231-ee59-4dde-b39f-8f244980146a","system_id":"levelo_inurba_marseille","lat":43.29027,"lon":5.38136,"is_reserved":false,"is_disabled":false,"rental_uris":{"android":"levelo://app?vid=2a1ec231-ee59-4dde-b39f-8f244980146a","ios":"levelo://app?vid=2a1ec231-ee59-4dde-b39f-8f244980146a"},"vehicle_type_id":"4","last_reported":1727474906,"current_range_meters":8800,"station_id":"ce4bh4p2rcd13ifvqe1g","pricing_plan_id":"cebpf4jnsgd1na2vs0mg"},{"bike_id":"2cf8aa4a-7aa1-4bc7-a6d7-8ed7ac40f229","system_id":"levelo_inurba_marseille","lat":43.28669,"lon":5.38675,"is_reserved":false,"is_disabled":false,"rental_uris":{"android":"levelo://app?vid=2cf8aa4a-7aa1-4bc7-a6d7-8ed7ac40f229","ios":"levelo://app?vid=2cf8aa4a-7aa1-4bc7-a6d7-8ed7ac40f229"},"vehicle_type_id":"4","last_reported":1727474906,"current_range_meters":34000,"station_id":"ce4bh492rcd13ifvqdug","pricing_plan_id":"cebpf4jnsgd1na2vs0mg"},{"bike_id":"59ed1976-6411-45f0-888c-c6180d9e91e3","system_id":"levelo_inurba_marseille","lat":43.29622,"lon":5.40017,"is_reserved":false,"is_disabled":false,"rental_uris":{"android":"levelo://app?vid=59ed1976-6411-45f0-888c-c6180d9e91e3","ios":"levelo://app?vid=59ed1976-6411-45f0-888c-c6180d9e91e3"},"vehicle_type_id":"4","last_reported":1727474906,"current_range_meters":30000,"station_id":"","pricing_plan_id":"cebpf4jnsgd1na2vs0mg"},{"bike_id":"5c7637df-de5b-418e-a02b-7b8306b2e73f","system_id":"levelo_inurba_marseille","lat":43.29256,"lon":5.40907,"is_reserved":false,"is_disabled":false,"rental_uris":{"android":"levelo://app?vid=5c7637df-de5b-418e-a02b-7b8306b2e73f","ios":"levelo://app?vid=5c7637df-de5b-418e-a02b-7b8306b2e73f"},"vehicle_type_id":"4","last_reported":1727474906,"current_range_meters":39200,"station_id":"ce4bh192rcd13ifvqdc0","pricing_plan_id":"cebpf4jnsgd1na2vs0mg"},{"bike_id":"6bc3d31b-cd12-404f-8128-33d6db4b9461","system_id":"levelo_inurba_marseille","lat":43.2737,"lon":5.3626,"is_reserved":false,"is_disabled":false,"rental_uris":{"android":"levelo://app?vid=6bc3d31b-cd12-404f-8128-33d6db4b9461","ios":"levelo://app?vid=6bc3d31b-cd12-404f-8128-33d6db4b9461"},"vehicle_type_id":"4","last_reported":1727474906,"current_range_meters":39200,"station_id":"ce4bhbh2rcd13ifvqeo0","pricing_plan_id":"cebpf4jnsgd1na2vs0mg"},{"bike_id":"d7ba1f00-d4d4-43b2-badb-19b38e203c48","system_id":"levelo_inurba_marseille","lat":43.23181,"lon":5.39991,"is_reserved":false,"is_disabled":false,"rental_uris":{"android":"levelo://app?vid=d7ba1f00-d4d4-43b2-badb-19b38e203c48","ios":"levelo://app?vid=d7ba1f00-d4d4-43b2-badb-19b38e203c48"},"vehicle_type_id":"4","last_reported":1727474906,"current_range_meters":13600,"station_id":"ce4bhn12rcd13ifvqgqg","pricing_plan_id":"cebpf4jnsgd1na2vs0mg"},{"bike_id":"79d296e2-c7b8-4213-856c-4a9859dbe60f","system_id":"levelo_inurba_marseille","lat":43.25,"lon":5.38924,"is_reserved":false,"is_disabled":false,"rental_uris":{"android":"levelo://app?vid=79d296e2-c7b8-4213-856c-4a9859dbe60f","ios":"levelo://app?vid=79d296e2-c7b8-4213-856c-4a9859dbe60f"},"vehicle_type_id":"4","last_reported":1727474906,"current_range_meters":8000,"station_id":"ce4bhgp2rcd13ifvqfd0","pricing_plan_id":"cebpf4jnsgd1na2vs0mg"},{"bike_id":"b3cab539-938e-4b9a-9984-69ec9f811d29","system_id":"levelo_inurba_marseille","lat":43.23181,"lon":5.39978,"is_reserved":false,"is_disabled":false,"rental_uris":{"android":"levelo://app?vid=b3cab539-938e-4b9a-9984-69ec9f811d29","ios":"levelo://app?vid=b3cab539-938e-4b9a-9984-69ec9f811d29"},"vehicle_type_id":"4","last_reported":1727474906,"current_range_meters":39200,"station_id":"ce4bhn12rcd13ifvqgqg","pricing_plan_id":"cebpf4jnsgd1na2vs0mg"},{"bike_id":"9b420d53-2b32-4f33-b8ce-23d1bf2c3c8b","system_id":"levelo_inurba_marseille","lat":43.29033,"lon":5.3757,"is_reserved":false,"is_disabled":false,"rental_uris":{"android":"levelo://app?vid=9b420d53-2b32-4f33-b8ce-23d1bf2c3c8b","ios":"levelo://app?vid=9b420d53-2b32-4f33-b8ce-23d1bf2c3c8b"},"vehicle_type_id":"4","last_reported":1727474906,"current_range_meters":12400,"station_id":"ce4bh692rcd13ifvqe90","pricing_plan_id":"cebpf4jnsgd1na2vs0mg"},{"bike_id":"934a7cbd-de3c-4074-bc6b-aa81397593d7","system_id":"levelo_inurba_marseille","lat":43.24669,"lon":5.3816,"is_reserved":false,"is_disabled":false,"rental_uris":{"android":"levelo://app?vid=934a7cbd-de3c-4074-bc6b-aa81397593d7","ios":"levelo://app?vid=934a7cbd-de3c-4074-bc6b-aa81397593d7"},"vehicle_type_id":"4","last_reported":1727474906,"current_range_meters":19200,"station_id":"ce4bhih2rcd13ifvqfr0","pricing_plan_id":"cebpf4jnsgd1na2vs0mg"},{"bike_id":"d6bc20db-8271-4b6d-a404-627475b955e3","system_id":"levelo_inurba_marseille","lat":43.25723,"lon":5.41111,"is_reserved":false,"is_disabled":false,"rental_uris":{"android":"levelo://app?vid=d6bc20db-8271-4b6d-a404-627475b955e3","ios":"levelo://app?vid=d6bc20db-8271-4b6d-a404-627475b955e3"},"vehicle_type_id":"4","last_reported":1727474906,"current_range_meters":38000,"station_id":"ce4bhkp2rcd13ifvqgd0","pricing_plan_id":"cebpf4jnsgd1na2vs0mg"},{"bike_id":"88be1982-2b52-472f-8bb6-8e170d93e804","system_id":"levelo_inurba_marseille","lat":43.30644,"lon":5.40079,"is_reserved":false,"is_disabled":false,"rental_uris":{"android":"levelo://app?vid=88be1982-2b52-472f-8bb6-8e170d93e804","ios":"levelo://app?vid=88be1982-2b52-472f-8bb6-8e170d93e804"},"vehicle_type_id":"4","last_reported":1727474906,"current_range_meters":7200,"station_id":"ce4bh112rcd13ifvqda0","pricing_plan_id":"cebpf4jnsgd1na2vs0mg"},{"bike_id":"629c1db9-09b4-4e56-87fb-472b5f9d2487","system_id":"levelo_inurba_marseille","lat":43.31327,"lon":5.39696,"is_reserved":false,"is_disabled":false,"rental_uris":{"android":"levelo://app?vid=629c1db9-09b4-4e56-87fb-472b5f9d2487","ios":"levelo://app?vid=629c1db9-09b4-4e56-87fb-472b5f9d2487"},"vehicle_type_id":"4","last_reported":1727474906,"current_range_meters":38800,"station_id":"ce4bgvp2rcd13ifvqcu0","pricing_plan_id":"cebpf4jnsgd1na2vs0mg"},{"bike_id":"59ec41a8-a3bf-4414-8157-6bbc2f111dd7","system_id":"levelo_inurba_marseille","lat":43.24393,"lon":5.37059,"is_reserved":false,"is_disabled":false,"rental_uris":{"android":"levelo://app?vid=59ec41a8-a3bf-4414-8157-6bbc2f111dd7","ios":"levelo://app?vid=59ec41a8-a3bf-4414-8157-6bbc2f111dd7"},"vehicle_type_id":"4","last_reported":1727474906,"current_range_meters":25600,"station_id":"ce4bhhh2rcd13ifvqfk0","pricing_plan_id":"cebpf4jnsgd1na2vs0mg"},{"bike_id":"4279fd5c-2327-4bb1-b1c1-49ea4d62d5be","system_id":"levelo_inurba_marseille","lat":43.2582,"lon":5.39432,"is_reserved":false,"is_disabled":false,"rental_uris":{"android":"levelo://app?vid=4279fd5c-2327-4bb1-b1c1-49ea4d62d5be","ios":"levelo://app?vid=4279fd5c-2327-4bb1-b1c1-49ea4d62d5be"},"vehicle_type_id":"4","last_reported":1727474906,"current_range_meters":39200,"station_id":"ce4bhip2rcd13ifvqft0","pricing_plan_id":"cebpf4jnsgd1na2vs0mg"},{"bike_id":"17df6cb7-9806-4348-8544-4e67d396303b","system_id":"levelo_inurba_marseille","lat":43.22932,"lon":5.35382,"is_reserved":false,"is_disabled":false,"rental_uris":{"android":"levelo://app?vid=17df6cb7-9806-4348-8544-4e67d396303b","ios":"levelo://app?vid=17df6cb7-9806-4348-8544-4e67d396303b"},"vehicle_type_id":"4","last_reported":1727474906,"current_range_meters":38800,"station_id":"cpo3532slgdg3j2ikp40","pricing_plan_id":"cebpf4jnsgd1na2vs0mg"},{"bike_id":"eab9298e-4baa-4a49-a182-4f74b0b1212b","system_id":"levelo_inurba_marseille","lat":43.292603,"lon":5.409148,"is_reserved":false,"is_disabled":false,"rental_uris":{"android":"levelo://app?vid=eab9298e-4baa-4a49-a182-4f74b0b1212b","ios":"levelo://app?vid=eab9298e-4baa-4a49-a182-4f74b0b1212b"},"vehicle_type_id":"4","last_reported":1727474906,"current_range_meters":3200,"station_id":"ce4bh192rcd13ifvqdc0","pricing_plan_id":"cebpf4jnsgd1na2vs0mg"},{"bike_id":"1203d1df-317e-49d9-bc53-7c991c18be94","system_id":"levelo_inurba_marseille","lat":43.2894,"lon":5.3639,"is_reserved":false,"is_disabled":false,"rental_uris":{"android":"levelo://app?vid=1203d1df-317e-49d9-bc53-7c991c18be94","ios":"levelo://app?vid=1203d1df-317e-49d9-bc53-7c991c18be94"},"vehicle_type_id":"4","last_reported":1727474906,"current_range_meters":38800,"station_id":"ce4bhc92rcd13ifvqetg","pricing_plan_id":"cebpf4jnsgd1na2vs0mg"},{"bike_id":"3b5defaf-7f36-42c1-b65b-df83d3c801b5","system_id":"levelo_inurba_marseille","lat":43.3033,"lon":5.40431,"is_reserved":false,"is_disabled":false,"rental_uris":{"android":"levelo://app?vid=3b5defaf-7f36-42c1-b65b-df83d3c801b5","ios":"levelo://app?vid=3b5defaf-7f36-42c1-b65b-df83d3c801b5"},"vehicle_type_id":"4","last_reported":1727474906,"current_range_meters":17200,"station_id":"ce4bh012rcd13ifvqd10","pricing_plan_id":"cebpf4jnsgd1na2vs0mg"},{"bike_id":"ccc24039-9e73-403b-8f6a-7419f1fc657c","system_id":"levelo_inurba_marseille","lat":43.30885,"lon":5.39634,"is_reserved":false,"is_disabled":false,"rental_uris":{"android":"levelo://app?vid=ccc24039-9e73-403b-8f6a-7419f1fc657c","ios":"levelo://app?vid=ccc24039-9e73-403b-8f6a-7419f1fc657c"},"vehicle_type_id":"4","last_reported":1727474906,"current_range_meters":35200,"station_id":"ce4bh012rcd13ifvqcv0","pricing_plan_id":"cebpf4jnsgd1na2vs0mg"},{"bike_id":"5037a3ab-cc8a-40fc-8925-431f3046eb1e","system_id":"levelo_inurba_marseille","lat":43.30304,"lon":5.39199,"is_reserved":false,"is_disabled":false,"rental_uris":{"android":"levelo://app?vid=5037a3ab-cc8a-40fc-8925-431f3046eb1e","ios":"levelo://app?vid=5037a3ab-cc8a-40fc-8925-431f3046eb1e"},"vehicle_type_id":"4","last_reported":1727474906,"current_range_meters":26000,"station_id":"ce4bgkh2rcd13ifvqbk0","pricing_plan_id":"cebpf4jnsgd1na2vs0mg"},{"bike_id":"c6e270ba-49d5-4fa4-be65-dae26a873f56","system_id":"levelo_inurba_marseille","lat":43.31727,"lon":5.42404,"is_reserved":false,"is_disabled":false,"rental_uris":{"android":"levelo://app?vid=c6e270ba-49d5-4fa4-be65-dae26a873f56","ios":"levelo://app?vid=c6e270ba-49d5-4fa4-be65-dae26a873f56"},"vehicle_type_id":"4","last_reported":1727474906,"current_range_meters":19600,"station_id":"ce4bhp92rcd13ifvqhbg","pricing_plan_id":"cebpf4jnsgd1na2vs0mg"},{"bike_id":"5ff8aded-3318-40e1-8abe-896d0b62f252","system_id":"levelo_inurba_marseille","lat":43.25106,"lon":5.40321,"is_reserved":false,"is_disabled":false,"rental_uris":{"android":"levelo://app?vid=5ff8aded-3318-40e1-8abe-896d0b62f252","ios":"levelo://app?vid=5ff8aded-3318-40e1-8abe-896d0b62f252"},"vehicle_type_id":"4","last_reported":1727474906,"current_range_meters":29600,"station_id":"ce4bhlh2rcd13ifvqgig","pricing_plan_id":"cebpf4jnsgd1na2vs0mg"},{"bike_id":"c2f6d82b-e00d-4d4b-9f53-71c05afc522f","system_id":"levelo_inurba_marseille","lat":43.31896,"lon":5.40724,"is_reserved":false,"is_disabled":false,"rental_uris":{"android":"levelo://app?vid=c2f6d82b-e00d-4d4b-9f53-71c05afc522f","ios":"levelo://app?vid=c2f6d82b-e00d-4d4b-9f53-71c05afc522f"},"vehicle_type_id":"4","last_reported":1727474906,"current_range_meters":39200,"station_id":"ce4bhq12rcd13ifvqhig","pricing_plan_id":"cebpf4jnsgd1na2vs0mg"},{"bike_id":"d5dfe84e-b8c6-4262-8076-d16bfcbd5245","system_id":"levelo_inurba_marseille","lat":43.23972,"lon":5.36624,"is_reserved":false,"is_disabled":false,"rental_uris":{"android":"levelo://app?vid=d5dfe84e-b8c6-4262-8076-d16bfcbd5245","ios":"levelo://app?vid=d5dfe84e-b8c6-4262-8076-d16bfcbd5245"},"vehicle_type_id":"4","last_reported":1727474906,"current_range_meters":33200,"station_id":"ce4bhi12rcd13ifvqfp0","pricing_plan_id":"cebpf4jnsgd1na2vs0mg"},{"bike_id":"2bfa5082-a236-4d4e-8f68-ea070ebef0ab","system_id":"levelo_inurba_marseille","lat":43.30789,"lon":5.38146,"is_reserved":false,"is_disabled":false,"rental_uris":{"android":"levelo://app?vid=2bfa5082-a236-4d4e-8f68-ea070ebef0ab","ios":"levelo://app?vid=2bfa5082-a236-4d4e-8f68-ea070ebef0ab"},"vehicle_type_id":"4","last_reported":1727474906,"current_range_meters":8400,"station_id":"ce4bgt12rcd13ifvqce0","pricing_plan_id":"cebpf4jnsgd1na2vs0mg"},{"bike_id":"bc5c93bb-1593-446e-ad3a-ae0e3b9ea65d","system_id":"levelo_inurba_marseille","lat":43.30789,"lon":5.37657,"is_reserved":false,"is_disabled":false,"rental_uris":{"android":"levelo://app?vid=bc5c93bb-1593-446e-ad3a-ae0e3b9ea65d","ios":"levelo://app?vid=bc5c93bb-1593-446e-ad3a-ae0e3b9ea65d"},"vehicle_type_id":"4","last_reported":1727474906,"current_range_meters":13600,"station_id":"ce4bgv92rcd13ifvqcq0","pricing_plan_id":"cebpf4jnsgd1na2vs0mg"},