{"last_updated":1721754445,"ttl":30,"version":"2.2","data":{"bikes":[{"bike_id":"a2610bec-28cf-4e46-bfa7-b619ea248969","system_id":"levelo_inurba_marseille","lat":43.31257,"lon":5.36767,"is_reserved":false,"is_disabled":false,"rental_uris":{"android":"levelo://app?vid=a2610bec-28cf-4e46-bfa7-b619ea248969","ios":"levelo://app?vid=a2610bec-28cf-4e46-bfa7-b619ea248969"},"vehicle_type_id":"4","last_reported":1721754445,"current_range_meters":6400,"station_id":"","pricing_plan_id":"cebpf4jnsgd1na2vs0mg"},{"bike_id":"709da99c-ad5d-4c00-a445-700352b418bb","system_id":"levelo_inurba_marseille","lat":43.31341,"lon":5.367098,"is_reserved":false,"is_disabled":false,"rental_uris":{"android":"levelo://app?vid=709da99c-ad5d-4c00-a445-700352b418bb","ios":"levelo://app?vid=709da99c-ad5d-4c00-a445-700352b418bb"},"vehicle_type_id":"4","last_reported":1721754445,"current_range_meters":0,"station_id":"ce4bgr92rcd13ifvqc6g","pricing_plan_id":"cebpf4jnsgd1na2vs0mg"},{"bike_id":"0e276330-d778-4a1b-abfe-ba13ba3b4975","system_id":"levelo_inurba_marseille","lat":43.312239,"lon":5.368562,"is_reserved":false,"is_disabled":false,"rental_uris":{"android":"levelo://app?vid=0e276330-d778-4a1b-abfe-ba13ba3b4975","ios":"levelo://app?vid=0e276330-d778-4a1b-abfe-ba13ba3b4975"},"vehicle_type_id":"4","last_reported":1721754445,"current_range_meters":0,"station_id":"ce4bgl92rcd13ifvqbq0","pricing_plan_id":"cebpf4jnsgd1na2vs0mg"},{"bike_id":"f73d9013-8086-419c-a87f-64bd4db78279","system_id":"levelo_inurba_marseille","lat":43.318002,"lon":5.37021,"is_reserved":false,"is_disabled":false,"rental_uris":{"android":"levelo://app?vid=f73d9013-8086-419c-a87f-64bd4db78279","ios":"levelo://app?vid=f73d9013-8086-419c-a87f-64bd4db78279"},"vehicle_type_id":"4","last_reported":1721754445,"current_range_meters":19600,"station_id":"","pricing_plan_id":"cebpf4jnsgd1na2vs0mg"},{"bike_id":"50238825-e5ae-4583-bba2-17a892a5cfb2","system_id":"levelo_inurba_marseille","lat":43.30545,"lon":5.36553,"is_reserved":false,"is_disabled":false,"rental_uris":{"android":"levelo://app?vid=50238825-e5ae-4583-bba2-17a892a5cfb2","ios":"levelo://app?vid=50238825-e5ae-4583-bba2-17a892a5cfb2"},"vehicle_type_id":"4","last_reported":1721754445,"current_range_meters":6800,"station_id":"ce4bgs12rcd13ifvqcag","pricing_plan_id":"cebpf4jnsgd1na2vs0mg"},{"bike_id":"321cafeb-3642-444a-9069-f7148c946189","system_id":"levelo_inurba_marseille","lat":43.30541,"lon":5.36559,"is_reserved":false,"is_disabled":false,"rental_uris":{"android":"levelo://app?vid=321cafeb-3642-444a-9069-f7148c946189","ios":"levelo://app?vid=321cafeb-3642-444a-9069-f7148c946189"},"vehicle_type_id":"4","last_reported":1721754445,"current_range_meters":0,"station_id":"ce4bgs12rcd13ifvqcag","pricing_plan_id":"cebpf4jnsgd1na2vs0mg"},{"bike_id":"f51712a1-3990-40c2-9266-cd3d72e03f85","system_id":"levelo_inurba_marseille","lat":43.30541,"lon":5.36545,"is_reserved":false,"is_disabled":false,"rental_uris":{"android":"levelo://app?vid=f51712a1-3990-40c2-9266-cd3d72e03f85","ios":"levelo://app?vid=f51712a1-3990-40c2-9266-cd3d72e03f85"},"vehicle_type_id":"4","last_reported":1721754445,"current_range_meters":0,"station_id":"ce4bgs12rcd13ifvqcag","pricing_plan_id":"cebpf4jnsgd1na2vs0mg"},{"bike_id":"548280c8-9145-4a5e-8089-e2e45eab5e3b","system_id":"levelo_inurba_marseille","lat":43.305989,"lon":5.37225,"is_reserved":false,"is_disabled":false,"rental_uris":{"android":"levelo://app?vid=548280c8-9145-4a5e-8089-e2e45eab5e3b","ios":"levelo://app?vid=548280c8-9145-4a5e-8089-e2e45eab5e3b"},"vehicle_type_id":"4","last_reported":1721754445,"current_range_meters":31200,"station_id":"ce4bgqh2rcd13ifvqc4g","pricing_plan_id":"cebpf4jnsgd1na2vs0mg"},{"bike_id":"4a0fca48-102c-4bdf-a8c5-0c0e8b9e5b52","system_id":"levelo_inurba_marseille","lat":43.305989,"lon":5.37225,"is_reserved":false,"is_disabled":false,"rental_uris":{"android":"levelo://app?vid=4a0fca48-102c-4bdf-a8c5-0c0e8b9e5b52","ios":"levelo://app?vid=4a0fca48-102c-4bdf-a8c5-0c0e8b9e5b52"},"vehicle_type_id":"4","last_reported":1721754445,"current_range_meters":0,"station_id":"ce4bgqh2rcd13ifvqc4g","pricing_plan_id":"cebpf4jnsgd1na2vs0mg"},{"bike_id":"44c7a22b-1011-48ba-9a6b-5b5f2abb10f6","system_id":"levelo_inurba_marseille","lat":43.305053,"lon":5.365583,"is_reserved":false,"is_disabled":false,"rental_uris":{"android":"levelo://app?vid=44c7a22b-1011-48ba-9a6b-5b5f2abb10f6","ios":"levelo://app?vid=44c7a22b-1011-48ba-9a6b-5b5f2abb10f6"},"vehicle_type_id":"4","last_reported":1721754445,"current_range_meters":2400,"station_id":"","pricing_plan_id":"cebpf4jnsgd1na2vs0mg"},{"bike_id":"44291cc3-a0f8-493b-b23b-04871e357df8","system_id":"levelo_inurba_marseille","lat":43.314811,"lon":5.373103,"is_reserved":false,"is_disabled":false,"rental_uris":{"android":"levelo://app?vid=44291cc3-a0f8-493b-b23b-04871e357df8","ios":"levelo://app?vid=44291cc3-a0f8-493b-b23b-04871e357df8"},"vehicle_type_id":"4","last_reported":1721754445,"current_range_meters":13200,"station_id":"ce4bgt12rcd13ifvqcd0","pricing_plan_id":"cebpf4jnsgd1na2vs0mg"},{"bike_id":"96fce6f1-d397-4ca9-bd2d-44379a53f3f1","system_id":"levelo_inurba_marseille","lat":43.307945,"lon":5.376487,"is_reserved":false,"is_disabled":false,"rental_uris":{"android":"levelo://app?vid=96fce6f1-d397-4ca9-bd2d-44379a53f3f1","ios":"levelo://app?vid=96fce6f1-d397-4ca9-bd2d-44379a53f3f1"},"vehicle_type_id":"4","last_reported":1721754445,"current_range_meters":12000,"station_id":"ce4bgv92rcd13ifvqcq0","pricing_plan_id":"cebpf4jnsgd1na2vs0mg"},{"bike_id":"a2e1dd23-63ad-4b47-bf09-519ed7c5a889","system_id":"levelo_inurba_marseille","lat":43.317075,"lon":5.377367,"is_reserved":false,"is_disabled":false,"rental_uris":{"android":"levelo://app?vid=a2e1dd23-63ad-4b47-bf09-519ed7c5a889","ios":"levelo://app?vid=a2e1dd23-63ad-4b47-bf09-519ed7c5a889"},"vehicle_type_id":"4","last_reported":1721754445,"current_range_meters":14800,"station_id":"ce4bgth2rcd13ifvqch0","pricing_plan_id":"cebpf4jnsgd1na2vs0mg"},{"bike_id":"5b0f8b03-0b43-43e7-a108-b4041e768eb6","system_id":"levelo_inurba_marseille","lat":43.315289,"lon":5.380349,"is_reserved":false,"is_disabled":false,"rental_uris":{"android":"levelo://app?vid=5b0f8b03-0b43-43e7-a108-b4041e768eb6","ios":"levelo://app?vid=5b0f8b03-0b43-43e7-a108-b4041e768eb6"},"vehicle_type_id":"4","last_reported":1721754445,"current_range_meters":2800,"station_id":"ce4bhsp2rcd13ifvqi50","pricing_plan_id":"cebpf4jnsgd1na2vs0mg"},{"bike_id":"60c89516-8e70-4326-aaa7-4d5f97cec2c1","system_id":"levelo_inurba_marseille","lat":43.315289,"lon":5.380349,"is_reserved":false,"is_disabled":false,"rental_uris":{"android":"levelo://app?vid=60c89516-8e70-4326-aaa7-4d5f97cec2c1","ios":"levelo://app?vid=60c89516-8e70-4326-aaa7-4d5f97cec2c1"},"vehicle_type_id":"4","last_reported":1721754445,"current_range_meters":6800,"station_id":"ce4bhsp2rcd13ifvqi50","pricing_plan_id":"cebpf4jnsgd1na2vs0mg"},{"bike_id":"64a74f85-baf3-4518-bee2-b368a7f3c107","system_id":"levelo_inurba_marseille","lat":43.31892,"lon":5.37801,"is_reserved":false,"is_disabled":false,"rental_uris":{"android":"levelo://app?vid=64a74f85-baf3-4518-bee2-b368a7f3c107","ios":"levelo://app?vid=64a74f85-baf3-4518-bee2-b368a7f3c107"},"vehicle_type_id":"4","last_reported":1721754445,"current_range_meters":18000,"station_id":"","pricing_plan_id":"cebpf4jnsgd1na2vs0mg"},{"bike_id":"245d3c13-e53c-4215-a8a0-6bdd801707f9","system_id":"levelo_inurba_marseille","lat":43.32474,"lon":5.36569,"is_reserved":false,"is_disabled":false,"rental_uris":{"android":"levelo://app?vid=245d3c13-e53c-4215-a8a0-6bdd801707f9","ios":"levelo://app?vid=245d3c13-e53c-4215-a8a0-6bdd801707f9"},"vehicle_type_id":"4","last_reported":1721754445,"current_range_meters":25600,"station_id":"ce4bhs12rcd13ifvqhvg","pricing_plan_id":"cebpf4jnsgd1na2vs0mg"},{"bike_id":"e72651a0-bf93-4b9e-b079-81e45c2c5ef0","system_id":"levelo_inurba_marseille","lat":43.324771,"lon":5.36557,"is_reserved":false,"is_disabled":false,"rental_uris":{"android":"levelo://app?vid=e72651a0-bf93-4b9e-b079-81e45c2c5ef0","ios":"levelo://app?vid=e72651a0-bf93-4b9e-b079-81e45c2c5ef0"},"vehicle_type_id":"4","last_reported":1721754445,"current_range_meters":29200,"station_id":"ce4bhs12rcd13ifvqhvg","pricing_plan_id":"cebpf4jnsgd1na2vs0mg"},{"bike_id":"ba144c93-1974-4518-9943-a75f7f4fde8a","system_id":"levelo_inurba_marseille","lat":43.32485,"lon":5.36573,"is_reserved":false,"is_disabled":false,"rental_uris":{"android":"levelo://app?vid=ba144c93-1974-4518-9943-a75f7f4fde8a","ios":"levelo://app?vid=ba144c93-1974-4518-9943-a75f7f4fde8a"},"vehicle_type_id":"4","last_reported":1721754445,"current_range_meters":0,"station_id":"ce4bhs12rcd13ifvqhvg","pricing_plan_id":"cebpf4jnsgd1na2vs0mg"},{"bike_id":"03c7e3f3-59ff-4ce0-a0d5-301cae816487","system_id":"levelo_inurba_marseille","lat":43.310804,"lon":5.38359,"is_reserved":false,"is_disabled":false,"rental_uris":{"android":"levelo://app?vid=03c7e3f3-59ff-4ce0-a0d5-301cae816487","ios":"levelo://app?vid=03c7e3f3-59ff-4ce0-a0d5-301cae816487"},"vehicle_type_id":"4","last_reported":1721754445,"current_range_meters":0,"station_id":"ce4bgv92rcd13ifvqcr0","pricing_plan_id":"cebpf4jnsgd1na2vs0mg"},{"bike_id":"4a1a7ce1-37a3-4b0e-94b3-8a5d57c9cc99","system_id":"levelo_inurba_marseille","lat":43.310804,"lon":5.38359,"is_reserved":false,"is_disabled":false,"rental_uris":{"android":"levelo://app?vid=4a1a7ce1-37a3-4b0e-94b3-8a5d57c9cc99","ios":"levelo://app?vid=4a1a7ce1-37a3-4b0e-94b3-8a5d57c9cc99"},"vehicle_type_id":"4","last_reported":1721754445,"current_range_meters":0,"station_id":"ce4bgv92rcd13ifvqcr0","pricing_plan_id":"cebpf4jnsgd1na2vs0mg"},{"bike_id":"8d3f7484-81cf-4978-b18b-ce834ee9e49b","system_id":"levelo_inurba_marseille","lat":43.30143,"lon":5.37413,"is_reserved":false,"is_disabled":false,"rental_uris":{"android":"levelo://app?vid=8d3f7484-81cf-4978-b18b-ce834ee9e49b","ios":"levelo://app?vid=8d3f7484-81cf-4978-b18b-ce834ee9e49b"},"vehicle_type_id":"4","last_reported":1721754445,"current_range_meters":2400,"station_id":"ce4bgs92rcd13ifvqcc0","pricing_plan_id":"cebpf4jnsgd1na2vs0mg"},{"bike_id":"6bf126b1-5ab8-4673-b1e2-f195fb67a24a","system_id":"levelo_inurba_marseille","lat":43.301429,"lon":5.37413,"is_reserved":false,"is_disabled":false,"rental_uris":{"android":"levelo://app?vid=6bf126b1-5ab8-4673-b1e2-f195fb67a24a","ios":"levelo://app?vid=6bf126b1-5ab8-4673-b1e2-f195fb67a24a"},"vehicle_type_id":"4","last_reported":1721754445,"current_range_meters":1200,"station_id":"ce4bgs92rcd13ifvqcc0","pricing_plan_id":"cebpf4jnsgd1na2vs0mg"},{"bike_id":"f7f46089-2666-4f98-a6b2-e7379274e68b","system_id":"levelo_inurba_marseille","lat":43.31621,"lon":5.3834,"is_reserved":false,"is_disabled":false,"rental_uris":{"android":"levelo://app?vid=f7f46089-2666-4f98-a6b2-e7379274e68b","ios":"levelo://app?vid=f7f46089-2666-4f98-a6b2-e7379274e68b"},"vehicle_type_id":"4","last_reported":1721754445,"current_range_meters":12400,"station_id":"","pricing_plan_id":"cebpf4jnsgd1na2vs0mg"},{"bike_id":"177b643a-3dcd-44f3-b71f-4fc7c66875d1","system_id":"levelo_inurba_marseille","lat":43.319935,"lon":5.381699,"is_reserved":false,"is_disabled":false,"rental_uris":{"android":"levelo://app?vid=177b643a-3dcd-44f3-b71f-4fc7c66875d1","ios":"levelo://app?vid=177b643a-3dcd-44f3-b71f-4fc7c66875d1"},"vehicle_type_id":"4","last_reported":1721754445,"current_range_meters":24000,"station_id":"ce4bhr12rcd13ifvqhpg","pricing_plan_id":"cebpf4jnsgd1na2vs0mg"},{"bike_id":"a092858c-aca9-4072-b94e-c7452ff90cd2","system_id":"levelo_inurba_marseille","lat":43.30558,"lon":5.38169,"is_reserved":false,"is_disabled":false,"rental_uris":{"android":"levelo://app?vid=a092858c-aca9-4072-b94e-c7452ff90cd2","ios":"levelo://app?vid=a092858c-aca9-4072-b94e-c7452ff90cd2"},"vehicle_type_id":"4","last_reported":1721754445,"current_range_meters":20800,"station_id":"","pricing_plan_id":"cebpf4jnsgd1na2vs0mg"},{"bike_id":"1386179e-6e23-4d2e-b73b-3aa16ad7ff45","system_id":"levelo_inurba_marseille","lat":43.299222,"lon":5.365554,"is_reserved":false,"is_disabled":false,"rental_uris":{"android":"levelo://app?vid=1386179e-6e23-4d2e-b73b-3aa16ad7ff45","ios":"levelo://app?vid=1386179e-6e23-4d2e-b73b-3aa16ad7ff45"},"vehicle_type_id":"4","last_reported":1721754445,"current_range_meters":3200,"station_id":"ce4bgm92rcd13ifvqbr0","pricing_plan_id":"cebpf4jnsgd1na2vs0mg"},{"bike_id":"c09cf8a9-41ae-46a7-9640-9f72479dee72","system_id":"levelo_inurba_marseille","lat":43.29932,"lon":5.36546,"is_reserved":false,"is_disabled":false,"rental_uris":{"android":"levelo://app?vid=c09cf8a9-41ae-46a7-9640-9f72479dee72","ios":"levelo://app?vid=c09cf8a9-41ae-46a7-9640-9f72479dee72"},"vehicle_type_id":"4","last_reported":1721754445,"current_range_meters":0,"station_id":"ce4bgm92rcd13ifvqbr0","pricing_plan_id":"cebpf4jnsgd1na2vs0mg"},{"bike_id":"b3c97d5e-b6ba-43c6-af10-30c8437cef6b","system_id":"levelo_inurba_marseille","lat":43.309404,"lon":5.386331,"is_reserved":false,"is_disabled":false,"rental_uris":{"android":"levelo://app?vid=b3c97d5e-b6ba-43c6-af10-30c8437cef6b","ios":"levelo://app?vid=b3c97d5e-b6ba-43c6-af10-30c8437cef6b"},"vehicle_type_id":"4","last_reported":1721754445,"current_range_meters":6400,"station_id":"","pricing_plan_id":"cebpf4jnsgd1na2vs0mg"},{"bike_id":"2cb3ce0c-af5f-4f87-acee-ebacfeb4e1d9","system_id":"levelo_inurba_marseille","lat":43.305994,"lon":5.393687,"is_reserved":false,"is_disabled":false,"rental_uris":{"android":"levelo://app?vid=2cb3ce0c-af5f-4f87-acee-ebacfeb4e1d9","ios":"levelo://app?vid=2cb3ce0c-af5f-4f87-acee-ebacfeb4e1d9"},"vehicle_type_id":"4","last_reported":1721754445,"current_range_meters":22400,"station_id":"ce4bh0p2rcd13ifvqd80","pricing_plan_id":"cebpf4jnsgd1na2vs0mg"},{"bike_id":"c35b388e-e3c9-4fcc-91b7-5672aa48325d","system_id":"levelo_inurba_marseille","lat":43.32293,"lon":5.38255,"is_reserved":false,"is_disabled":false,"rental_uris":{"android":"levelo://app?vid=c35b388e-e3c9-4fcc-91b7-5672aa48325d","ios":"levelo://app?vid=c35b388e-e3c9-4fcc-91b7-5672aa48325d"},"vehicle_type_id":"4","last_reported":1721754445,"current_range_meters":23200,"station_id":"ce4bhr12rcd13ifvqhqg","pricing_plan_id":"cebpf4jnsgd1na2vs0mg"},{"bike_id":"e3c24ac5-5055-4239-a023-d9f998b9101c","system_id":"levelo_inurba_marseille","lat":43.297163,"lon":5.365866,"is_reserved":false,"is_disabled":false,"rental_uris":{"android":"levelo://app?vid=e3c24ac5-5055-4239-a023-d9f998b9101c","ios":"levelo://app?vid=e3c24ac5-5055-4239-a023-d9f998b9101c"},"vehicle_type_id":"4","last_reported":1721754445,"current_range_meters":18000,"station_id":"ce4bgn12rcd13ifvqbt0","pricing_plan_id":"cebpf4jnsgd1na2vs0mg"},{"bike_id":"c2f225db-9257-4dc4-8997-aa1de115408a","system_id":"levelo_inurba_marseille","lat":43.296131,"lon":5.370791,"is_reserved":false,"is_disabled":false,"rental_uris":{"android":"levelo://app?vid=c2f225db-9257-4dc4-8997-aa1de115408a","ios":"levelo://app?vid=c2f225db-9257-4dc4-8997-aa1de115408a"},"vehicle_type_id":"4","last_reported":1721754445,"current_range_meters":31600,"station_id":"ce4bgnh2rcd13ifvqc0g","pricing_plan_id":"cebpf4jnsgd1na2vs0mg"},{"bike_id":"aca6ff4b-cf49-4355-b206-ecc2d3da5149","system_id":"levelo_inurba_marseille","lat":43.31755,"lon":5.39015,"is_reserved":false,"is_disabled":false,"rental_uris":{"android":"levelo://app?vid=aca6ff4b-cf49-4355-b206-ecc2d3da5149","ios":"levelo://app?vid=aca6ff4b-cf49-4355-b206-ecc2d3da5149"},"vehicle_type_id":"4","last_reported":1721754445,"current_range_meters":4400,"station_id":"ce4bhqp2rcd13ifvqhng","pricing_plan_id":"cebpf4jnsgd1na2vs0mg"},{"bike_id":"1df3e72f-4834-4df0-8cb1-da50bfec0800","system_id":"levelo_inurba_marseille","lat":43.317557,"lon":5.390173,"is_reserved":false,"is_disabled":false,"rental_uris":{"android":"levelo://app?vid=1df3e72f-4834-4df0-8cb1-da50bfec0800","ios":"levelo://app?vid=1df3e72f-4834-4df0-8cb1-da50bfec0800"},"vehicle_type_id":"4","last_reported":1721754445,"current_range_meters":12800,"station_id":"ce4bhqp2rcd13ifvqhng","pricing_plan_id":"cebpf4jnsgd1na2vs0mg"},{"bike_id":"9f812e3e-7baa-4f90-bb61-d5544d855ad0","system_id":"levelo_inurba_marseille","lat":43.317557,"lon":5.390173,"is_reserved":false,"is_disabled":false,"rental_uris":{"android":"levelo://app?vid=9f812e3e-7baa-4f90-bb61-d5544d855ad0","ios":"levelo://app?vid=9f812e3e-7baa-4f90-bb61-d5544d855ad0"},"vehicle_type_id":"4","last_reported":1721754445,"current_range_meters":1600,"station_id":"ce4bhqp2rcd13ifvqhng","pricing_plan_id":"cebpf4jnsgd1na2vs0mg"},{"bike_id":"3748e580-4673-47ce-adc0-2e3dccf6ebeb","system_id":"levelo_inurba_marseille","lat":43.32914,"lon":5.37564,"is_reserved":false,"is_disabled":false,"rental_uris":{"android":"levelo://app?vid=3748e580-4673-47ce-adc0-2e3dccf6ebeb","ios":"levelo://app?vid=3748e580-4673-47ce-adc0-2e3dccf6ebeb"},"vehicle_type_id":"4","last_reported":1721754445,"current_range_meters":17200,"station_id":"","pricing_plan_id":"cebpf4jnsgd1na2vs0mg"},{"bike_id":"160d1f3f-4cbe-4d1c-b9d0-13adacd0d8f3","system_id":"levelo_inurba_marseille","lat":43.317557,"lon":5.390173,"is_reserved":false,"is_disabled":false,"rental_uris":{"android":"levelo://app?vid=160d1f3f-4cbe-4d1c-b9d0-13adacd0d8f3","ios":"levelo://app?vid=160d1f3f-4cbe-4d1c-b9d0-13adacd0d8f3"},"vehicle_type_id":"4","last_reported":1721754445,"current_range_meters":7200,"station_id":"ce4bhqp2rcd13ifvqhng","pricing_plan_id":"cebpf4jnsgd1na2vs0mg"},{"bike_id":"c94a2371-9761-4556-b19a-acff46258ea2","system_id":"levelo_inurba_marseille","lat":43.298037,"lon":5.381066,"is_reserved":false,"is_disabled":false,"rental_uris":{"android":"levelo://app?vid=c94a2371-9761-4556-b19a-acff46258ea2","ios":"levelo://app?vid=c94a2371-9761-4556-b19a-acff46258ea2"},"vehicle_type_id":"4","last_reported":1721754445,"current_range_meters":0,"station_id":"ce4bgip2rcd13ifvqbb0","pricing_plan_id":"cebpf4jnsgd1na2vs0mg"},{"bike_id":"c6ca11df-c0d6-4ed4-845a-84aafc42cd82","system_id":"levelo_inurba_marseille","lat":43.298037,"lon":5.381066,"is_reserved":false,"is_disabled":false,"rental_uris":{"android":"levelo://app?vid=c6ca11df-c0d6-4ed4-845a-84aafc42cd82","ios":"levelo://app?vid=c6ca11df-c0d6-4ed4-845a-84aafc42cd82"},"vehicle_type_id":"4","last_reported":1721754445,"current_range_meters":15200,"station_id":"ce4bgip2rcd13ifvqbb0","pricing_plan_id":"cebpf4jnsgd1na2vs0mg"},{"bike_id":"a32ca7fd-da05-44c8-bc5a-055f0d732137","system_id":"levelo_inurba_marseille","lat":43.29574,"lon":5.37498,"is_reserved":false,"is_disabled":false,"rental_uris":{"android":"levelo://app?vid=a32ca7fd-da05-44c8-bc5a-055f0d732137","ios":"levelo://app?vid=a32ca7fd-da05-44c8-bc5a-055f0d732137"},"vehicle_type_id":"4","last_reported":1721754445,"current_range_meters":0,"station_id":"ce4bgh92rcd13ifvqb50","pricing_plan_id":"cebpf4jnsgd1na2vs0mg"},{"bike_id":"c4354144-d746-4124-9cb2-53d9f76fce0c","system_id":"levelo_inurba_marseille","lat":43.29573,"lon":5.37508,"is_reserved":false,"is_disabled":false,"rental_uris":{"android":"levelo://app?vid=c4354144-d746-4124-9cb2-53d9f76fce0c","ios":"levelo://app?vid=c4354144-d746-4124-9cb2-53d9f76fce0c"},"vehicle_type_id":"4","last_reported":1721754445,"current_range_meters":0,"station_id":"ce4bgh92rcd13ifvqb50","pricing_plan_id":"cebpf4jnsgd1na2vs0mg"},{"bike_id":"2c4edbab-5396-484c-b514-27b942fa4113","system_id":"levelo_inurba_marseille","lat":43.296263,"lon":5.377094,"is_reserved":false,"is_disabled":false,"rental_uris":{"android":"levelo://app?vid=2c4edbab-5396-484c-b514-27b942fa4113","ios":"levelo://app?vid=2c4edbab-5396-484c-b514-27b942fa4113"},"vehicle_type_id":"4","last_reported":1721754445,"current_range_meters":17600,"station_id":"ce4bgi92rcd13ifvqb90","pricing_plan_id":"cebpf4jnsgd1na2vs0mg"},{"bike_id":"af8dae9d-be17-4fc4-87bf-d16947f976df","system_id":"levelo_inurba_marseille","lat":43.29541,"lon":5.37497,"is_reserved":false,"is_disabled":false,"rental_uris":{"android":"levelo://app?vid=af8dae9d-be17-4fc4-87bf-d16947f976df","ios":"levelo://app?vid=af8dae9d-be17-4fc4-87bf-d16947f976df"},"vehicle_type_id":"4","last_reported":1721754445,"current_range_meters":1200,"station_id":"ce4bgkp2rcd13ifvqbmg","pricing_plan_id":"cebpf4jnsgd1na2vs0mg"},{"bike_id":"a971d978-83ab-4146-9b78-588e7278db6f","system_id":"levelo_inurba_marseille","lat":43.298037,"lon":5.381066,"is_reserved":false,"is_disabled":false,"rental_uris":{"android":"levelo://app?vid=a971d978-83ab-4146-9b78-588e7278db6f","ios":"levelo://app?vid=a971d978-83ab-4146-9b78-588e7278db6f"},"vehicle_type_id":"4","last_reported":1721754445,"current_range_meters":0,"station_id":"ce4bgip2rcd13ifvqbb0","pricing_plan_id":"cebpf4jnsgd1na2vs0mg"},{"bike_id":"d3180f20-a0a3-4feb-a8d7-19059eb86412","system_id":"levelo_inurba_marseille","lat":43.32367,"lon":5.388836,"is_reserved":false,"is_disabled":false,"rental_uris":{"android":"levelo://app?vid=d3180f20-a0a3-4feb-a8d7-19059eb86412","ios":"levelo://app?vid=d3180f20-a0a3-4feb-a8d7-19059eb86412"},"vehicle_type_id":"4","last_reported":1721754445,"current_range_meters":6000,"station_id":"ce4bhqp2rcd13ifvqhog","pricing_plan_id":"cebpf4jnsgd1na2vs0mg"},{"bike_id":"9419db32-f6ee-45da-9e89-9119bc169f9c","system_id":"levelo_inurba_marseille","lat":43.293249,"lon":5.371578,"is_reserved":false,"is_disabled":false,"rental_uris":{"android":"levelo://app?vid=9419db32-f6ee-45da-9e89-9119bc169f9c","ios":"levelo://app?vid=9419db32-f6ee-45da-9e89-9119bc169f9c"},"vehicle_type_id":"4","last_reported":1721754445,"current_range_meters":18800,"station_id":"ce4bgh92rcd13ifvqb40","pricing_plan_id":"cebpf4jnsgd1na2vs0mg"},{"bike_id":"a60bc282-e4eb-46c9-95fe-3056ca6373a3","system_id":"levelo_inurba_marseille","lat":43.2931,"lon":5.3716,"is_reserved":false,"is_disabled":false,"rental_uris":{"android":"levelo://app?vid=a60bc282-e4eb-46c9-95fe-3056ca6373a3","ios":"levelo://app?vid=a60bc282-e4eb-46c9-95fe-3056ca6373a3"},"vehicle_type_id":"4","last_reported":1721754445,"current_range_meters":0,"station_id":"ce4bgh92rcd13ifvqb40","pricing_plan_id":"cebpf4jnsgd1na2vs0mg"},{"bike_id":"0019f5c6-da97-4782-9bc8-831a24538d56","system_id":"levelo_inurba_marseille","lat":43.292749,"lon":5.368398,"is_reserved":false,"is_disabled":false,"rental_uris":{"android":"levelo://app?vid=0019f5c6-da97-4782-9bc8-831a24538d56","ios":"levelo://app?vid=0019f5c6-da97-4782-9bc8-831a24538d56"},"vehicle_type_id":"4","last_reported":1721754445,"current_range_meters":0,"station_id":"ce4bhbp2rcd13ifvqesg","pricing_plan_id":"cebpf4jnsgd1na2vs0mg"},{"bike_id":"619b734e-ad90-4006-ad7d-85fedfa8d344","system_id":"levelo_inurba_marseille","lat":43.29311,"lon":5.374487,"is_reserved":false,"is_disabled":false,"rental_uris":{"android":"levelo://app?vid=619b734e-ad90-4006-ad7d-85fedfa8d344","ios":"levelo://app?vid=619b734e-ad90-4006-ad7d-85fedfa8d344"},"vehicle_type_id":"4","last_reported":1721754445,"current_range_meters":12400,"station_id":"ce4bgi12rcd13ifvqb70","pricing_plan_id":"cebpf4jnsgd1na2vs0mg"},{"bike_id":"7a45ae5d-2967-4b34-87c8-4e7c5f0a0247","system_id":"levelo_inurba_marseille","lat":43.293009,"lon":5.374584,"is_reserved":false,"is_disabled":false,"rental_uris":{"android":"levelo://app?vid=7a45ae5d-2967-4b34-87c8-4e7c5f0a0247","ios":"levelo://app?vid=7a45ae5d-2967-4b34-87c8-4e7c5f0a0247"},"vehicle_type_id":"4","last_reported":1721754445,"current_range_meters":0,"station_id":"ce4bgi12rcd13ifvqb70","pricing_plan_id":"cebpf4jnsgd1na2vs0mg"},{"bike_id":"d07b01c4-259c-4633-8a59-96b2d2e491c7","system_id":"levelo_inurba_marseille","lat":43.303002,"lon":5.392142,"is_reserved":false,"is_disabled":false,"rental_uris":{"android":"levelo://app?vid=d07b01c4-259c-4633-8a59-96b2d2e491c7","ios":"levelo://app?vid=d07b01c4-259c-4633-8a59-96b2d2e491c7"},"vehicle_type_id":"4","last_reported":1721754445,"current_range_meters":23200,"station_id":"ce4bgkh2rcd13ifvqbk0","pricing_plan_id":"cebpf4jnsgd1na2vs0mg"},{"bike_id":"9d1494c4-8448-468c-b9d1-61cd4461eb7a","system_id":"levelo_inurba_marseille","lat":43.30302,"lon":5.39201,"is_reserved":false,"is_disabled":false,"rental_uris":{"android":"levelo://app?vid=9d1494c4-8448-468c-b9d1-61cd4461eb7a","ios":"levelo://app?vid=9d1494c4-8448-468c-b9d1-61cd4461eb7a"},"vehicle_type_id":"4","last_reported":1721754445,"current_range_meters":31200,"station_id":"ce4bgkh2rcd13ifvqbk0","pricing_plan_id":"cebpf4jnsgd1na2vs0mg"},{"bike_id":"f663da12-e5a4-44d2-ae53-f4e7d53e53de","system_id":"levelo_inurba_marseille","lat":43.302992,"lon":5.392136,"is_reserved":false,"is_disabled":false,"rental_uris":{"android":"levelo://app?vid=f663da12-e5a4-44d2-ae53-f4e7d53e53de","ios":"levelo://app?vid=f663da12-e5a4-44d2-ae53-f4e7d53e53de"},"vehicle_type_id":"4","last_reported":1721754445,"current_range_meters":29200,"station_id":"ce4bgkh2rcd13ifvqbk0","pricing_plan_id":"cebpf4jnsgd1na2vs0mg"},{"bike_id":"ad42bd4f-ff05-46fa-873f-704eead945da","system_id":"levelo_inurba_marseille","lat":43.302992,"lon":5.392136,"is_reserved":false,"is_disabled":false,"rental_uris":{"android":"levelo://app?vid=ad42bd4f-ff05-46fa-873f-704eead945da","ios":"levelo://app?vid=ad42bd4f-ff05-46fa-873f-704eead945da"},"vehicle_type_id":"4","last_reported":1721754445,"current_range_meters":28400,"station_id":"ce4bgkh2rcd13ifvqbk0","pricing_plan_id":"cebpf4jnsgd1na2vs0mg"},{"bike_id":"98c8306a-74eb-47ae-a3ff-892af3134219","system_id":"levelo_inurba_marseille","lat":43.2936,"lon":5.37835,"is_reserved":false,"is_disabled":false,"rental_uris":{"android":"levelo://app?vid=98c8306a-74eb-47ae-a3ff-892af3134219","ios":"levelo://app?vid=98c8306a-74eb-47ae-a3ff-892af3134219"},"vehicle_type_id":"4","last_reported":1721754445,"current_range_meters":2400,"station_id":"ce4bgjh2rcd13ifvqbf0","pricing_plan_id":"cebpf4jnsgd1na2vs0mg"},{"bike_id":"d9772d9e-eae3-495e-8269-8aa7cfced54c","system_id":"levelo_inurba_marseille","lat":43.292311,"lon":5.360731,"is_reserved":false,"is_disabled":false,"rental_uris":{"android":"levelo://app?vid=d9772d9e-eae3-495e-8269-8aa7cfced54c","ios":"levelo://app?vid=d9772d9e-eae3-495e-8269-8aa7cfced54c"},"vehicle_type_id":"4","last_reported":1721754445,"current_range_meters":27200,"station_id":"ce4bhbh2rcd13ifvqeqg","pricing_plan_id":"cebpf4jnsgd1na2vs0mg"},{"bike_id":"2b5694c1-5765-4b72-ae99-e1d1894de74a","system_id":"levelo_inurba_marseille","lat":43.2923,"lon":5.36058,"is_reserved":false,"is_disabled":false,"rental_uris":{"android":"levelo://app?vid=2b5694c1-5765-4b72-ae99-e1d1894de74a","ios":"levelo://app?vid=2b5694c1-5765-4b72-ae99-e1d1894de74a"},"vehicle_type_id":"4","last_reported":1721754445,"current_range_meters":31600,"station_id":"","pricing_plan_id":"cebpf4jnsgd1na2vs0mg"},{"bike_id":"ab59d642-0648-496c-9f3b-fe75011ce4db","system_id":"levelo_inurba_marseille","lat":43.29224,"lon":5.36069,"is_reserved":false,"is_disabled":false,"rental_uris":{"android":"levelo://app?vid=ab59d642-0648-496c-9f3b-fe75011ce4db","ios":"levelo://app?vid=ab59d642-0648-496c-9f3b-fe75011ce4db"},"vehicle_type_id":"4","last_reported":1721754445,"current_range_meters":30800,"station_id":"ce4bhbh2rcd13ifvqeqg","pricing_plan_id":"cebpf4jnsgd1na2vs0mg"},{"bike_id":"26a16ec4-e329-4828-8dc3-3225ac973dc7","system_id":"levelo_inurba_marseille","lat":43.292311,"lon":5.360731,"is_reserved":false,"is_disabled":false,"rental_uris":{"android":"levelo://app?vid=26a16ec4-e329-4828-8dc3-3225ac973dc7","ios":"levelo://app?vid=26a16ec4-e329-4828-8dc3-3225ac973dc7"},"vehicle_type_id":"4","last_reported":1721754445,"current_range_meters":31200,"station_id":"ce4bhbh2rcd13ifvqeqg","pricing_plan_id":"cebpf4jnsgd1na2vs0mg"},{"bike_id":"fd2414ef-ee50-4f7d-a55c-34d2e1d2660b","system_id":"levelo_inurba_marseille","lat":43.30085,"lon":5.390856,"is_reserved":false,"is_disabled":false,"rental_uris":{"android":"levelo://app?vid=fd2414ef-ee50-4f7d-a55c-34d2e1d2660b","ios":"levelo://app?vid=fd2414ef-ee50-4f7d-a55c-34d2e1d2660b"},"vehicle_type_id":"4","last_reported":1721754445,"current_range_meters":24400,"station_id":"ce4bh192rcd13ifvqdb0","pricing_plan_id":"cebpf4jnsgd1na2vs0mg"},{"bike_id":"6278ebca-2727-4dcd-85a8-2bc81d19c2c1","system_id":"levelo_inurba_marseille","lat":43.30085,"lon":5.390856,"is_reserved":false,"is_disabled":false,"rental_uris":{"android":"levelo://app?vid=6278ebca-2727-4dcd-85a8-2bc81d19c2c1","ios":"levelo://app?vid=6278ebca-2727-4dcd-85a8-2bc81d19c2c1"},"vehicle_type_id":"4","last_reported":1721754445,"current_range_meters":0,"station_id":"ce4bh192rcd13ifvqdb0","pricing_plan_id":"cebpf4jnsgd1na2vs0mg"},{"bike_id":"782825e8-b1f9-4b0f-a333-bbdcbfac8708","system_id":"levelo_inurba_marseille","lat":43.29213,"lon":5.36044,"is_reserved":false,"is_disabled":false,"rental_uris":{"android":"levelo://app?vid=782825e8-b1f9-4b0f-a333-bbdcbfac8708","ios":"levelo://app?vid=782825e8-b1f9-4b0f-a333-bbdcbfac8708"},"vehicle_type_id":"4","last_reported":1721754445,"current_range_meters":31200,"station_id":"ce4bhbh2rcd13ifvqeqg","pricing_plan_id":"cebpf4jnsgd1na2vs0mg"},{"bike_id":"ae36aa1b-ba18-4f77-a68a-cfca5908ecb5","system_id":"levelo_inurba_marseille","lat":43.29201,"lon":5.35799,"is_reserved":false,"is_disabled":false,"rental_uris":{"android":"levelo://app?vid=ae36aa1b-ba18-4f77-a68a-cfca5908ecb5","ios":"levelo://app?vid=ae36aa1b-ba18-4f77-a68a-cfca5908ecb5"},"vehicle_type_id":"4","last_reported":1721754445,"current_range_meters":0,"station_id":"ce4bhb12rcd13ifvqel0","pricing_plan_id":"cebpf4jnsgd1na2vs0mg"},{"bike_id":"04b572b2-a525-49ca-aacf-56a748e70b0a","system_id":"levelo_inurba_marseille","lat":43.291981,"lon":5.358018,"is_reserved":false,"is_disabled":false,"rental_uris":{"android":"levelo://app?vid=04b572b2-a525-49ca-aacf-56a748e70b0a","ios":"levelo://app?vid=04b572b2-a525-49ca-aacf-56a748e70b0a"},"vehicle_type_id":"4","last_reported":1721754445,"current_range_meters":27600,"station_id":"","pricing_plan_id":"cebpf4jnsgd1na2vs0mg"},{"bike_id":"57b2fba8-ddd4-4bc8-a486-4ffd1522360e","system_id":"levelo_inurba_marseille","lat":43.291999,"lon":5.357935,"is_reserved":false,"is_disabled":false,"rental_uris":{"android":"levelo://app?vid=57b2fba8-ddd4-4bc8-a486-4ffd1522360e","ios":"levelo://app?vid=57b2fba8-ddd4-4bc8-a486-4ffd1522360e"},"vehicle_type_id":"4","last_reported":1721754445,"current_range_meters":22800,"station_id":"ce4bhb12rcd13ifvqel0","pricing_plan_id":"cebpf4jnsgd1na2vs0mg"},{"bike_id":"f26d9c49-07b5-4969-9b3a-d83caf4463d1","system_id":"levelo_inurba_marseille","lat":43.313291,"lon":5.396838,"is_reserved":false,"is_disabled":false,"rental_uris":{"android":"levelo://app?vid=f26d9c49-07b5-4969-9b3a-d83caf4463d1","ios":"levelo://app?vid=f26d9c49-07b5-4969-9b3a-d83caf4463d1"},"vehicle_type_id":"4","last_reported":1721754445,"current_range_meters":800,"station_id":"ce4bgvp2rcd13ifvqcu0","pricing_plan_id":"cebpf4jnsgd1na2vs0mg"},{"bike_id":"0b029255-95ac-44ee-aee1-75a83ac448b3","system_id":"levelo_inurba_marseille","lat":43.313291,"lon":5.396838,"is_reserved":false,"is_disabled":false,"rental_uris":{"android":"levelo://app?vid=0b029255-95ac-44ee-aee1-75a83ac448b3","ios":"levelo://app?vid=0b029255-95ac-44ee-aee1-75a83ac448b3"},"vehicle_type_id":"4","last_reported":1721754445,"current_range_meters":0,"station_id":"ce4bgvp2rcd13ifvqcu0","pricing_plan_id":"cebpf4jnsgd1na2vs0mg"},{"bike_id":"dbd77acd-c33c-4908-ac37-88725f48a7a1","system_id":"levelo_inurba_marseille","lat":43.313291,"lon":5.396838,"is_reserved":false,"is_disabled":false,"rental_uris":{"android":"levelo://app?vid=dbd77acd-c33c-4908-ac37-88725f48a7a1","ios":"levelo://app?vid=dbd77acd-c33c-4908-ac37-88725f48a7a1"},"vehicle_type_id":"4","last_reported":1721754445,"current_range_meters":1600,"station_id":"ce4bgvp2rcd13ifvqcu0","pricing_plan_id":"cebpf4jnsgd1na2vs0mg"},{"bike_id":"cf3df9bf-1e94-4337-a2b1-aece169f7dd7","system_id":"levelo_inurba_marseille","lat":43.313291,"lon":5.396838,"is_reserved":false,"is_disabled":false,"rental_uris":{"android":"levelo://app?vid=cf3df9bf-1e94-4337-a2b1-aece169f7dd7","ios":"levelo://app?vid=cf3df9bf-1e94-4337-a2b1-aece169f7dd7"},"vehicle_type_id":"4","last_reported":1721754445,"current_range_meters":0,"station_id":"ce4bgvp2rcd13ifvqcu0","pricing_plan_id":"cebpf4jnsgd1na2vs0mg"},{"bike_id":"081bcd8c-01ea-4dcf-9b22-2fa773f8c3d2","system_id":"levelo_inurba_marseille","lat":43.291994,"lon":5.357886,"is_reserved":false,"is_disabled":false,"rental_uris":{"android":"levelo://app?vid=081bcd8c-01ea-4dcf-9b22-2fa773f8c3d2","ios":"levelo://app?vid=081bcd8c-01ea-4dcf-9b22-2fa773f8c3d2"},"vehicle_type_id":"4","last_reported":1721754445,"current_range_meters":4800,"station_id":"ce4bhb12rcd13ifvqel0","pricing_plan_id":"cebpf4jnsgd1na2vs0mg"},{"bike_id":"45dc525c-3ab1-419a-bac7-7e69177ddc52","system_id":"levelo_inurba_marseille","lat":43.29529,"lon":5.385581,"is_reserved":false,"is_disabled":false,"rental_uris":{"android":"levelo://app?vid=45dc525c-3ab1-419a-bac7-7e69177ddc52","ios":"levelo://app?vid=45dc525c-3ab1-419a-bac7-7e69177ddc52"},"vehicle_type_id":"4","last_reported":1721754445,"current_range_meters":0,"station_id":"ce4bgih2rcd13ifvqba0","pricing_plan_id":"cebpf4jnsgd1na2vs0mg"},{"bike_id":"2b21b232-a7f3-4d27-ad8f-bb9112e9826b","system_id":"levelo_inurba_marseille","lat":43.29529,"lon":5.385581,"is_reserved":false,"is_disabled":false,"rental_uris":{"android":"levelo://app?vid=2b21b232-a7f3-4d27-ad8f-bb9112e9826b","ios":"levelo://app?vid=2b21b232-a7f3-4d27-ad8f-bb9112e9826b"},"vehicle_type_id":"4","last_reported":1721754445,"current_range_meters":400,"station_id":"ce4bgih2rcd13ifvqba0","pricing_plan_id":"cebpf4jnsgd1na2vs0mg"},{"bike_id":"c6b01c6e-4199-4dbf-bd8a-505c4e3abbb9","system_id":"levelo_inurba_marseille","lat":43.314479,"lon":5.398303,"is_reserved":false,"is_disabled":false,"rental_uris":{"android":"levelo://app?vid=c6b01c6e-4199-4dbf-bd8a-505c4e3abbb9","ios":"levelo://app?vid=c6b01c6e-4199-4dbf-bd8a-505c4e3abbb9"},"vehicle_type_id":"4","last_reported":1721754445,"current_range_meters":14400,"station_id":"","pricing_plan_id":"cebpf4jnsgd1na2vs0mg"},{"bike_id":"948e4292-f83a-401e-94a4-b18e0732e02f","system_id":"levelo_inurba_marseille","lat":43.289184,"lon":5.366408,"is_reserved":false,"is_disabled":false,"rental_uris":{"android":"levelo://app?vid=948e4292-f83a-401e-94a4-b18e0732e02f","ios":"levelo://app?vid=948e4292-f83a-401e-94a4-b18e0732e02f"},"vehicle_type_id":"4","last_reported":1721754445,"current_range_meters":10000,"station_id":"ce4bhap2rcd13ifvqek0","pricing_plan_id":"cebpf4jnsgd1na2vs0mg"},{"bike_id":"8ac360aa-56da-4ce7-80f0-886a040f5ec8","system_id":"levelo_inurba_marseille","lat":43.290631,"lon":5.359244,"is_reserved":false,"is_disabled":false,"rental_uris":{"android":"levelo://app?vid=8ac360aa-56da-4ce7-80f0-886a040f5ec8","ios":"levelo://app?vid=8ac360aa-56da-4ce7-80f0-886a040f5ec8"},"vehicle_type_id":"4","last_reported":1721754445,"current_range_meters":5200,"station_id":"ce4bha92rcd13ifvqeg0","pricing_plan_id":"cebpf4jnsgd1na2vs0mg"},{"bike_id":"6bfbb53b-cf94-410c-a6b5-85d6f01cebe7","system_id":"levelo_inurba_marseille","lat":43.29418,"lon":5.38623,"is_reserved":false,"is_disabled":false,"rental_uris":{"android":"levelo://app?vid=6bfbb53b-cf94-410c-a6b5-85d6f01cebe7","ios":"levelo://app?vid=6bfbb53b-cf94-410c-a6b5-85d6f01cebe7"},"vehicle_type_id":"4","last_reported":1721754445,"current_range_meters":0,"station_id":"ce4bh2h2rcd13ifvqdh0","pricing_plan_id":"cebpf4jnsgd1na2vs0mg"},{"bike_id":"64185351-444b-4016-a2fd-6b59ca13d8bc","system_id":"levelo_inurba_marseille","lat":43.289184,"lon":5.366408,"is_reserved":false,"is_disabled":false,"rental_uris":{"android":"levelo://app?vid=64185351-444b-4016-a2fd-6b59ca13d8bc","ios":"levelo://app?vid=64185351-444b-4016-a2fd-6b59ca13d8bc"},"vehicle_type_id":"4","last_reported":1721754445,"current_range_meters":20000,"station_id":"ce4bhap2rcd13ifvqek0","pricing_plan_id":"cebpf4jnsgd1na2vs0mg"},{"bike_id":"9917385a-fab6-49ef-9929-7332046feb39","system_id":"levelo_inurba_marseille","lat":43.289184,"lon":5.366408,"is_reserved":false,"is_disabled":false,"rental_uris":{"android":"levelo://app?vid=9917385a-fab6-49ef-9929-7332046feb39","ios":"levelo://app?vid=9917385a-fab6-49ef-9929-7332046feb39"},"vehicle_type_id":"4","last_reported":1721754445,"current_range_meters":31600,"station_id":"ce4bhap2rcd13ifvqek0","pricing_plan_id":"cebpf4jnsgd1na2vs0mg"},{"bike_id":"4644fd43-5e10-4c64-a5af-70f55fd06380","system_id":"levelo_inurba_marseille","lat":43.289184,"lon":5.366408,"is_reserved":false,"is_disabled":false,"rental_uris":{"android":"levelo://app?vid=4644fd43-5e10-4c64-a5af-70f55fd06380","ios":"levelo://app?vid=4644fd43-5e10-4c64-a5af-70f55fd06380"},"vehicle_type_id":"4","last_reported":1721754445,"current_range_meters":10400,"station_id":"ce4bhap2rcd13ifvqek0","pricing_plan_id":"cebpf4jnsgd1na2vs0mg"},{"bike_id":"e2af0da9-249a-4104-87f6-52673802472c","system_id":"levelo_inurba_marseille","lat":43.289468,"lon":5.363719,"is_reserved":false,"is_disabled":false,"rental_uris":{"android":"levelo://app?vid=e2af0da9-249a-4104-87f6-52673802472c","ios":"levelo://app?vid=e2af0da9-249a-4104-87f6-52673802472c"},"vehicle_type_id":"4","last_reported":1721754445,"current_range_meters":31200,"station_id":"ce4bhc92rcd13ifvqetg","pricing_plan_id":"cebpf4jnsgd1na2vs0mg"},{"bike_id":"a67f9f76-754c-4531-ae7e-3e75c7780918","system_id":"levelo_inurba_marseille","lat":43.289184,"lon":5.366408,"is_reserved":false,"is_disabled":false,"rental_uris":{"android":"levelo://app?vid=a67f9f76-754c-4531-ae7e-3e75c7780918","ios":"levelo://app?vid=a67f9f76-754c-4531-ae7e-3e75c7780918"},"vehicle_type_id":"4","last_reported":1721754445,"current_range_meters":20400,"station_id":"ce4bhap2rcd13ifvqek0","pricing_plan_id":"cebpf4jnsgd1na2vs0mg"},{"bike_id":"7bdcfef9-7a4c-4cb1-917a-3f44cd42e73a","system_id":"levelo_inurba_marseille","lat":43.290104,"lon":5.356111,"is_reserved":false,"is_disabled":false,"rental_uris":{"android":"levelo://app?vid=7bdcfef9-7a4c-4cb1-917a-3f44cd42e73a","ios":"levelo://app?vid=7bdcfef9-7a4c-4cb1-917a-3f44cd42e73a"},"vehicle_type_id":"4","last_reported":1721754445,"current_range_meters":4400,"station_id":"ce4bhb92rcd13ifvqen0","pricing_plan_id":"cebpf4jnsgd1na2vs0mg"},{"bike_id":"04e648d4-5b11-46df-b198-43972c0ac123","system_id":"levelo_inurba_marseille","lat":43.290104,"lon":5.356111,"is_reserved":false,"is_disabled":false,"rental_uris":{"android":"levelo://app?vid=04e648d4-5b11-46df-b198-43972c0ac123","ios":"levelo://app?vid=04e648d4-5b11-46df-b198-43972c0ac123"},"vehicle_type_id":"4","last_reported":1721754445,"current_range_meters":7600,"station_id":"ce4bhb92rcd13ifvqen0","pricing_plan_id":"cebpf4jnsgd1na2vs0mg"},{"bike_id":"4a7e8be2-ed54-447b-aac5-9026001a4bde","system_id":"levelo_inurba_marseille","lat":43.312609,"lon":5.401662,"is_reserved":false,"is_disabled":false,"rental_uris":{"android":"levelo://app?vid=4a7e8be2-ed54-447b-aac5-9026001a4bde","ios":"levelo://app?vid=4a7e8be2-ed54-447b-aac5-9026001a4bde"},"vehicle_type_id":"4","last_reported":1721754445,"current_range_meters":400,"station_id":"ce4bh092rcd13ifvqd30","pricing_plan_id":"cebpf4jnsgd1na2vs0mg"},{"bike_id":"b182030a-901d-44f1-9cba-a21312bf74e2","system_id":"levelo_inurba_marseille","lat":43.290073,"lon":5.355243,"is_reserved":false,"is_disabled":false,"rental_uris":{"android":"levelo://app?vid=b182030a-901d-44f1-9cba-a21312bf74e2","ios":"levelo://app?vid=b182030a-901d-44f1-9cba-a21312bf74e2"},"vehicle_type_id":"4","last_reported":1721754445,"current_range_meters":17200,"station_id":"","pricing_plan_id":"cebpf4jnsgd1na2vs0mg"},{"bike_id":"099a2832-d521-46e5-bf03-07bc1f4eaecf","system_id":"levelo_inurba_marseille","lat":43.28955,"lon":5.35726,"is_reserved":false,"is_disabled":false,"rental_uris":{"android":"levelo://app?vid=099a2832-d521-46e5-bf03-07bc1f4eaecf","ios":"levelo://app?vid=099a2832-d521-46e5-bf03-07bc1f4eaecf"},"vehicle_type_id":"4","last_reported":1721754445,"current_range_meters":13200,"station_id":"ce4bhbh2rcd13ifvqepg","pricing_plan_id":"cebpf4jnsgd1na2vs0mg"},{"bike_id":"fc832a90-dbbc-4b8a-8461-11d0b114c9e5","system_id":"levelo_inurba_marseille","lat":43.33043,"lon":5.39005,"is_reserved":false,"is_disabled":false,"rental_uris":{"android":"levelo://app?vid=fc832a90-dbbc-4b8a-8461-11d0b114c9e5","ios":"levelo://app?vid=fc832a90-dbbc-4b8a-8461-11d0b114c9e5"},"vehicle_type_id":"4","last_reported":1721754445,"current_range_meters":10000,"station_id":"ce4bhr92rcd13ifvqhrg","pricing_plan_id":"cebpf4jnsgd1na2vs0mg"},{"bike_id":"ddcf22a3-f534-482f-a971-8f862565c476","system_id":"levelo_inurba_marseille","lat":43.33022,"lon":5.39038,"is_reserved":false,"is_disabled":false,"rental_uris":{"android":"levelo://app?vid=ddcf22a3-f534-482f-a971-8f862565c476","ios":"levelo://app?vid=ddcf22a3-f534-482f-a971-8f862565c476"},"vehicle_type_id":"4","last_reported":1721754445,"current_range_meters":22800,"station_id":"ce4bhr92rcd13ifvqhrg","pricing_plan_id":"cebpf4jnsgd1na2vs0mg"},{"bike_id":"9bf282a1-4a38-4617-830d-9877ef4a9be0","system_id":"levelo_inurba_marseille","lat":43.330442,"lon":5.389148,"is_reserved":false,"is_disabled":false,"rental_uris":{"android":"levelo://app?vid=9bf282a1-4a38-4617-830d-9877ef4a9be0","ios":"levelo://app?vid=9bf282a1-4a38-4617-830d-9877ef4a9be0"},"vehicle_type_id":"4","last_reported":1721754445,"current_range_meters":0,"station_id":"ce4bhr92rcd13ifvqhrg","pricing_plan_id":"cebpf4jnsgd1na2vs0mg"},{"bike_id":"fc5df5eb-fa54-4f37-95a3-86d6ae6f1908","system_id":"levelo_inurba_marseille","lat":43.29527,"lon":5.39049,"is_reserved":false,"is_disabled":false,"rental_uris":{"android":"levelo://app?vid=fc5df5eb-fa54-4f37-95a3-86d6ae6f1908","ios":"levelo://app?vid=fc5df5eb-fa54-4f37-95a3-86d6ae6f1908"},"vehicle_type_id":"4","last_reported":1721754445,"current_range_meters":0,"station_id":"ce4bh3p2rcd13ifvqdp0","pricing_plan_id":"cebpf4jnsgd1na2vs0mg"},{"bike_id":"71d3da65-2fdf-4d51-8f0a-680ce0f03dca","system_id":"levelo_inurba_marseille","lat":43.28874,"lon":5.35889,"is_reserved":false,"is_disabled":false,"rental_uris":{"android":"levelo://app?vid=71d3da65-2fdf-4d51-8f0a-680ce0f03dca","ios":"levelo://app?vid=71d3da65-2fdf-4d51-8f0a-680ce0f03dca"},"vehicle_type_id":"4","last_reported":1721754445,"current_range_meters":8400,"station_id":"ce4bhb12rcd13ifvqem0","pricing_plan_id":"cebpf4jnsgd1na2vs0mg"},{"bike_id":"3989dd35-b3cb-4f6c-a559-5716c6865866","system_id":"levelo_inurba_marseille","lat":43.290094,"lon":5.381264,"is_reserved":false,"is_disabled":false,"rental_uris":{"android":"levelo://app?vid=3989dd35-b3cb-4f6c-a559-5716c6865866","ios":"levelo://app?vid=3989dd35-b3cb-4f6c-a559-5716c6865866"},"vehicle_type_id":"4","last_reported":1721754445,"current_range_meters":400,"station_id":"ce4bh4p2rcd13ifvqe1g","pricing_plan_id":"cebpf4jnsgd1na2vs0mg"},{"bike_id":"a802f7a0-4a7b-45ad-a9a4-0c2b8032448c","system_id":"levelo_inurba_marseille","lat":43.309371,"lon":5.401449,"is_reserved":false,"is_disabled":false,"rental_uris":{"android":"levelo://app?vid=a802f7a0-4a7b-45ad-a9a4-0c2b8032448c","ios":"levelo://app?vid=a802f7a0-4a7b-45ad-a9a4-0c2b8032448c"},"vehicle_type_id":"4","last_reported":1721754445,"current_range_meters":14400,"station_id":"ce4bgvp2rcd13ifvqct0","pricing_plan_id":"cebpf4jnsgd1na2vs0mg"},{"bike_id":"9261c652-f71a-4bba-8e5f-e501a53b9514","system_id":"levelo_inurba_marseille","lat":43.312609,"lon":5.401662,"is_reserved":false,"is_disabled":false,"rental_uris":{"android":"levelo://app?vid=9261c652-f71a-4bba-8e5f-e501a53b9514","ios":"levelo://app?vid=9261c652-f71a-4bba-8e5f-e501a53b9514"},"vehicle_type_id":"4","last_reported":1721754445,"current_range_meters":10800,"station_id":"ce4bh092rcd13ifvqd30","pricing_plan_id":"cebpf4jnsgd1na2vs0mg"},{"bike_id":"6bee14db-9f88-4c59-afa5-da083c1ffbe3","system_id":"levelo_inurba_marseille","lat":43.337487,"lon":5.374497,"is_reserved":false,"is_disabled":false,"rental_uris":{"android":"levelo://app?vid=6bee14db-9f88-4c59-afa5-da083c1ffbe3","ios":"levelo://app?vid=6bee14db-9f88-4c59-afa5-da083c1ffbe3"},"vehicle_type_id":"4","last_reported":1721754445,"current_range_meters":21600,"station_id":"","pricing_plan_id":"cebpf4jnsgd1na2vs0mg"},{"bike_id":"e2ee95bd-88aa-4db5-ab51-27452df24877","system_id":"levelo_inurba_marseille","lat":43.309371,"lon":5.401449,"is_reserved":false,"is_disabled":false,"rental_uris":{"android":"levelo://app?vid=e2ee95bd-88aa-4db5-ab51-27452df24877","ios":"levelo://app?vid=e2ee95bd-88aa-4db5-ab51-27452df24877"},"vehicle_type_id":"4","last_reported":1721754445,"current_range_meters":7200,"station_id":"ce4bgvp2rcd13ifvqct0","pricing_plan_id":"cebpf4jnsgd1na2vs0mg"},{"bike_id":"b7731911-471c-4106-8aef-98c227e2e15a","system_id":"levelo_inurba_marseille","lat":43.309371,"lon":5.401449,"is_reserved":false,"is_disabled":false,"rental_uris":{"android":"levelo://app?vid=b7731911-471c-4106-8aef-98c227e2e15a","ios":"levelo://app?vid=b7731911-471c-4106-8aef-98c227e2e15a"},"vehicle_type_id":"4","last_reported":1721754445,"current_range_meters":7600,"station_id":"ce4bgvp2rcd13ifvqct0","pricing_plan_id":"cebpf4jnsgd1na2vs0mg"},{"bike_id":"a235c800-3c57-4740-a673-3a0ec502d831","system_id":"levelo_inurba_marseille","lat":43.337621,"lon":5.374346,"is_reserved":false,"is_disabled":false,"rental_uris":{"android":"levelo://app?vid=a235c800-3c57-4740-a673-3a0ec502d831","ios":"levelo://app?vid=a235c800-3c57-4740-a673-3a0ec502d831"},"vehicle_type_id":"4","last_reported":1721754445,"current_range_meters":30800,"station_id":"","pricing_plan_id":"cebpf4jnsgd1na2vs0mg"},{"bike_id":"56b6a81f-a86e-45db-b3de-8097b698a36d","system_id":"levelo_inurba_marseille","lat":43.337603,"lon":5.37448,"is_reserved":false,"is_disabled":false,"rental_uris":{"android":"levelo://app?vid=56b6a81f-a86e-45db-b3de-8097b698a36d","ios":"levelo://app?vid=56b6a81f-a86e-45db-b3de-8097b698a36d"},"vehicle_type_id":"4","last_reported":1721754445,"current_range_meters":10800,"station_id":"","pricing_plan_id":"cebpf4jnsgd1na2vs0mg"},{"bike_id":"72742065-b9f9-425b-adb6-911ad375ccc0","system_id":"levelo_inurba_marseille","lat":43.33767,"lon":5.3743,"is_reserved":false,"is_disabled":false,"rental_uris":{"android":"levelo://app?vid=72742065-b9f9-425b-adb6-911ad375ccc0","ios":"levelo://app?vid=72742065-b9f9-425b-adb6-911ad375ccc0"},"vehicle_type_id":"4","last_reported":1721754445,"current_range_meters":26800,"station_id":"","pricing_plan_id":"cebpf4jnsgd1na2vs0mg"},{"bike_id":"77a66306-ea4c-470f-b576-87cc5ae0b3f4","system_id":"levelo_inurba_marseille","lat":43.33771,"lon":5.37423,"is_reserved":false,"is_disabled":false,"rental_uris":{"android":"levelo://app?vid=77a66306-ea4c-470f-b576-87cc5ae0b3f4","ios":"levelo://app?vid=77a66306-ea4c-470f-b576-87cc5ae0b3f4"},"vehicle_type_id":"4","last_reported":1721754445,"current_range_meters":26000,"station_id":"","pricing_plan_id":"cebpf4jnsgd1na2vs0mg"},{"bike_id":"813878f8-5c09-42fc-a565-9c8b9db28a68","system_id":"levelo_inurba_marseille","lat":43.33781,"lon":5.37422,"is_reserved":false,"is_disabled":false,"rental_uris":{"android":"levelo://app?vid=813878f8-5c09-42fc-a565-9c8b9db28a68","ios":"levelo://app?vid=813878f8-5c09-42fc-a565-9c8b9db28a68"},"vehicle_type_id":"4","last_reported":1721754445,"current_range_meters":27200,"station_id":"","pricing_plan_id":"cebpf4jnsgd1na2vs0mg"},{"bike_id":"54f10764-5c39-4e59-98cd-b145c3465520","system_id":"levelo_inurba_marseille","lat":43.301117,"lon":5.398795,"is_reserved":false,"is_disabled":false,"rental_uris":{"android":"levelo://app?vid=54f10764-5c39-4e59-98cd-b145c3465520","ios":"levelo://app?vid=54f10764-5c39-4e59-98cd-b145c3465520"},"vehicle_type_id":"4","last_reported":1721754445,"current_range_meters":7200,"station_id":"ce4bh0h2rcd13ifvqd40","pricing_plan_id":"cebpf4jnsgd1na2vs0mg"},{"bike_id":"50b5e63a-0478-4ea4-92a0-2e1091787dc6","system_id":"levelo_inurba_marseille","lat":43.33782,"lon":5.3742,"is_reserved":false,"is_disabled":false,"rental_uris":{"android":"levelo://app?vid=50b5e63a-0478-4ea4-92a0-2e1091787dc6","ios":"levelo://app?vid=50b5e63a-0478-4ea4-92a0-2e1091787dc6"},"vehicle_type_id":"4","last_reported":1721754445,"current_range_meters":1200,"station_id":"","pricing_plan_id":"cebpf4jnsgd1na2vs0mg"},{"bike_id":"33e2d329-013f-42ff-8776-eb35e8a0103d","system_id":"levelo_inurba_marseille","lat":43.301117,"lon":5.398795,"is_reserved":false,"is_disabled":false,"rental_uris":{"android":"levelo://app?vid=33e2d329-013f-42ff-8776-eb35e8a0103d","ios":"levelo://app?vid=33e2d329-013f-42ff-8776-eb35e8a0103d"},"vehicle_type_id":"4","last_reported":1721754445,"current_range_meters":20800,"station_id":"ce4bh0h2rcd13ifvqd40","pricing_plan_id":"cebpf4jnsgd1na2vs0mg"},{"bike_id":"2b448641-0a6b-4b8c-925a-c8c986024e4f","system_id":"levelo_inurba_marseille","lat":43.301117,"lon":5.398795,"is_reserved":false,"is_disabled":false,"rental_uris":{"android":"levelo://app?vid=2b448641-0a6b-4b8c-925a-c8c986024e4f","ios":"levelo://app?vid=2b448641-0a6b-4b8c-925a-c8c986024e4f"},"vehicle_type_id":"4","last_reported":1721754445,"current_range_meters":31600,"station_id":"ce4bh0h2rcd13ifvqd40","pricing_plan_id":"cebpf4jnsgd1na2vs0mg"},{"bike_id":"9bdadb5f-e371-4f44-9b91-967a7c969c0f","system_id":"levelo_inurba_marseille","lat":43.301117,"lon":5.398795,"is_reserved":false,"is_disabled":false,"rental_uris":{"android":"levelo://app?vid=9bdadb5f-e371-4f44-9b91-967a7c969c0f","ios":"levelo://app?vid=9bdadb5f-e371-4f44-9b91-967a7c969c0f"},"vehicle_type_id":"4","last_reported":1721754445,"current_range_meters":27600,"station_id":"ce4bh0h2rcd13ifvqd40","pricing_plan_id":"cebpf4jnsgd1na2vs0mg"},{"bike_id":"d0bbaa14-8077-456a-9828-15a015f1bc06","system_id":"levelo_inurba_marseille","lat":43.28727,"lon":5.36078,"is_reserved":false,"is_disabled":false,"rental_uris":{"android":"levelo://app?vid=d0bbaa14-8077-456a-9828-15a015f1bc06","ios":"levelo://app?vid=d0bbaa14-8077-456a-9828-15a015f1bc06"},"vehicle_type_id":"4","last_reported":1721754445,"current_range_meters":25200,"station_id":"cki0cbj6b192h4jlfktg","pricing_plan_id":"cebpf4jnsgd1na2vs0mg"},{"bike_id":"f3cc45b0-55ad-431c-9fd8-6db41d7295fb","system_id":"levelo_inurba_marseille","lat":43.301117,"lon":5.398795,"is_reserved":false,"is_disabled":false,"rental_uris":{"android":"levelo://app?vid=f3cc45b0-55ad-431c-9fd8-6db41d7295fb","ios":"levelo://app?vid=f3cc45b0-55ad-431c-9fd8-6db41d7295fb"},"vehicle_type_id":"4","last_reported":1721754445,"current_range_meters":6000,"station_id":"ce4bh0h2rcd13ifvqd40","pricing_plan_id":"cebpf4jnsgd1na2vs0mg"},{"bike_id":"d885d27e-6ac8-4280-8f0a-82203eceb37a","system_id":"levelo_inurba_marseille","lat":43.2872,"lon":5.36083,"is_reserved":false,"is_disabled":false,"rental_uris":{"android":"levelo://app?vid=d885d27e-6ac8-4280-8f0a-82203eceb37a","ios":"levelo://app?vid=d885d27e-6ac8-4280-8f0a-82203eceb37a"},"vehicle_type_id":"4","last_reported":1721754445,"current_range_meters":2400,"station_id":"cki0cbj6b192h4jlfktg","pricing_plan_id":"cebpf4jnsgd1na2vs0mg"},{"bike_id":"7403c8a4-5692-4aa3-9fd7-21da4f9a6871","system_id":"levelo_inurba_marseille","lat":43.301117,"lon":5.398795,"is_reserved":false,"is_disabled":false,"rental_uris":{"android":"levelo://app?vid=7403c8a4-5692-4aa3-9fd7-21da4f9a6871","ios":"levelo://app?vid=7403c8a4-5692-4aa3-9fd7-21da4f9a6871"},"vehicle_type_id":"4","last_reported":1721754445,"current_range_meters":12800,"station_id":"ce4bh0h2rcd13ifvqd40","pricing_plan_id":"cebpf4jnsgd1na2vs0mg"},{"bike_id":"1a71c3d8-4750-434e-addd-b2e2a8c8ee99","system_id":"levelo_inurba_marseille","lat":43.286591,"lon":5.363346,"is_reserved":false,"is_disabled":false,"rental_uris":{"android":"levelo://app?vid=1a71c3d8-4750-434e-addd-b2e2a8c8ee99","ios":"levelo://app?vid=1a71c3d8-4750-434e-addd-b2e2a8c8ee99"},"vehicle_type_id":"4","last_reported":1721754445,"current_range_meters":0,"station_id":"ce4bhah2rcd13ifvqej0","pricing_plan_id":"cebpf4jnsgd1na2vs0mg"},{"bike_id":"a537c542-7f88-4b78-a9d6-83f2080d9c45","system_id":"levelo_inurba_marseille","lat":43.298681,"lon":5.397225,"is_reserved":false,"is_disabled":false,"rental_uris":{"android":"levelo://app?vid=a537c542-7f88-4b78-a9d6-83f2080d9c45","ios":"levelo://app?vid=a537c542-7f88-4b78-a9d6-83f2080d9c45"},"vehicle_type_id":"4","last_reported":1721754445,"current_range_meters":0,"station_id":"ce4bh0h2rcd13ifvqd50","pricing_plan_id":"cebpf4jnsgd1na2vs0mg"},{"bike_id":"9a3cd96e-de28-4eb0-9524-3fc21b0a617b","system_id":"levelo_inurba_marseille","lat":43.298681,"lon":5.397225,"is_reserved":false,"is_disabled":false,"rental_uris":{"android":"levelo://app?vid=9a3cd96e-de28-4eb0-9524-3fc21b0a617b","ios":"levelo://app?vid=9a3cd96e-de28-4eb0-9524-3fc21b0a617b"},"vehicle_type_id":"4","last_reported":1721754445,"current_range_meters":11200,"station_id":"ce4bh0h2rcd13ifvqd50","pricing_plan_id":"cebpf4jnsgd1na2vs0mg"},{"bike_id":"4b1d3281-ea90-49a1-a725-0502cd6358f8","system_id":"levelo_inurba_marseille","lat":43.286961,"lon":5.373785,"is_reserved":false,"is_disabled":false,"rental_uris":{"android":"levelo://app?vid=4b1d3281-ea90-49a1-a725-0502cd6358f8","ios":"levelo://app?vid=4b1d3281-ea90-49a1-a725-0502cd6358f8"},"vehicle_type_id":"4","last_reported":1721754445,"current_range_meters":0,"station_id":"ce4bh3p2rcd13ifvqdq0","pricing_plan_id":"cebpf4jnsgd1na2vs0mg"},{"bike_id":"1004baf7-f67a-4e37-9a79-0c9940a96c51","system_id":"levelo_inurba_marseille","lat":43.302759,"lon":5.400793,"is_reserved":false,"is_disabled":false,"rental_uris":{"android":"levelo://app?vid=1004baf7-f67a-4e37-9a79-0c9940a96c51","ios":"levelo://app?vid=1004baf7-f67a-4e37-9a79-0c9940a96c51"},"vehicle_type_id":"4","last_reported":1721754445,"current_range_meters":6400,"station_id":"ce4bgvh2rcd13ifvqcs0","pricing_plan_id":"cebpf4jnsgd1na2vs0mg"},{"bike_id":"25d07215-7ce2-40b0-9c10-a938e0240f9f","system_id":"levelo_inurba_marseille","lat":43.290336,"lon":5.386425,"is_reserved":false,"is_disabled":false,"rental_uris":{"android":"levelo://app?vid=25d07215-7ce2-40b0-9c10-a938e0240f9f","ios":"levelo://app?vid=25d07215-7ce2-40b0-9c10-a938e0240f9f"},"vehicle_type_id":"4","last_reported":1721754445,"current_range_meters":4000,"station_id":"ce4bh4p2rcd13ifvqe0g","pricing_plan_id":"cebpf4jnsgd1na2vs0mg"},{"bike_id":"22bc287d-8c66-41c3-bf24-a4ccc1f1ba9b","system_id":"levelo_inurba_marseille","lat":43.286039,"lon":5.370679,"is_reserved":false,"is_disabled":false,"rental_uris":{"android":"levelo://app?vid=22bc287d-8c66-41c3-bf24-a4ccc1f1ba9b","ios":"levelo://app?vid=22bc287d-8c66-41c3-bf24-a4ccc1f1ba9b"},"vehicle_type_id":"4","last_reported":1721754445,"current_range_meters":24000,"station_id":"ce4bht12rcd13ifvqi60","pricing_plan_id":"cebpf4jnsgd1na2vs0mg"},{"bike_id":"2e459a7a-75c4-49f1-954c-e05af6dbe21c","system_id":"levelo_inurba_marseille","lat":43.286039,"lon":5.370681,"is_reserved":false,"is_disabled":false,"rental_uris":{"android":"levelo://app?vid=2e459a7a-75c4-49f1-954c-e05af6dbe21c","ios":"levelo://app?vid=2e459a7a-75c4-49f1-954c-e05af6dbe21c"},"vehicle_type_id":"4","last_reported":1721754445,"current_range_meters":800,"station_id":"ce4bht12rcd13ifvqi60","pricing_plan_id":"cebpf4jnsgd1na2vs0mg"},{"bike_id":"97a9e08a-3aa4-46d2-a62e-73d5b472368e","system_id":"levelo_inurba_marseille","lat":43.290104,"lon":5.356111,"is_reserved":false,"is_disabled":false,"rental_uris":{"android":"levelo://app?vid=97a9e08a-3aa4-46d2-a62e-73d5b472368e","ios":"levelo://app?vid=97a9e08a-3aa4-46d2-a62e-73d5b472368e"},"vehicle_type_id":"4","last_reported":1721754445,"current_range_meters":0,"station_id":"ce4bhb92rcd13ifvqen0","pricing_plan_id":"cebpf4jnsgd1na2vs0mg"},{"bike_id":"0fe8ee4c-6c33-44b4-b8b7-9305b42913df","system_id":"levelo_inurba_marseille","lat":43.291994,"lon":5.392907,"is_reserved":false,"is_disabled":false,"rental_uris":{"android":"levelo://app?vid=0fe8ee4c-6c33-44b4-b8b7-9305b42913df","ios":"levelo://app?vid=0fe8ee4c-6c33-44b4-b8b7-9305b42913df"},"vehicle_type_id":"4","last_reported":1721754445,"current_range_meters":3200,"station_id":"ce4bh192rcd13ifvqdd0","pricing_plan_id":"cebpf4jnsgd1na2vs0mg"},{"bike_id":"dc6afcef-035f-4c7c-a0bf-911dd45df3d5","system_id":"levelo_inurba_marseille","lat":43.29192,"lon":5.39324,"is_reserved":false,"is_disabled":false,"rental_uris":{"android":"levelo://app?vid=dc6afcef-035f-4c7c-a0bf-911dd45df3d5","ios":"levelo://app?vid=dc6afcef-035f-4c7c-a0bf-911dd45df3d5"},"vehicle_type_id":"4","last_reported":1721754445,"current_range_meters":400,"station_id":"ce4bh192rcd13ifvqdd0","pricing_plan_id":"cebpf4jnsgd1na2vs0mg"},{"bike_id":"06f5fba0-025c-45d8-8bdf-5cc8f3ff3076","system_id":"levelo_inurba_marseille","lat":43.28464,"lon":5.35881,"is_reserved":false,"is_disabled":false,"rental_uris":{"android":"levelo://app?vid=06f5fba0-025c-45d8-8bdf-5cc8f3ff3076","ios":"levelo://app?vid=06f5fba0-025c-45d8-8bdf-5cc8f3ff3076"},"vehicle_type_id":"4","last_reported":1721754445,"current_range_meters":18400,"station_id":"ce4bhah2rcd13ifvqei0","pricing_plan_id":"cebpf4jnsgd1na2vs0mg"},{"bike_id":"2aaec0ac-c155-4384-bba9-112e556d65ad","system_id":"levelo_inurba_marseille","lat":43.28463,"lon":5.35887,"is_reserved":false,"is_disabled":false,"rental_uris":{"android":"levelo://app?vid=2aaec0ac-c155-4384-bba9-112e556d65ad","ios":"levelo://app?vid=2aaec0ac-c155-4384-bba9-112e556d65ad"},"vehicle_type_id":"4","last_reported":1721754445,"current_range_meters":22400,"station_id":"ce4bhah2rcd13ifvqei0","pricing_plan_id":"cebpf4jnsgd1na2vs0mg"},{"bike_id":"c01b8f6d-72bd-4454-b60c-a1e785c02dce","system_id":"levelo_inurba_marseille","lat":43.284534,"lon":5.358662,"is_reserved":false,"is_disabled":false,"rental_uris":{"android":"levelo://app?vid=c01b8f6d-72bd-4454-b60c-a1e785c02dce","ios":"levelo://app?vid=c01b8f6d-72bd-4454-b60c-a1e785c02dce"},"vehicle_type_id":"4","last_reported":1721754445,"current_range_meters":2000,"station_id":"ce4bhah2rcd13ifvqei0","pricing_plan_id":"cebpf4jnsgd1na2vs0mg"},{"bike_id":"6a6cf38b-7a31-461d-8e5c-24d2b7a70603","system_id":"levelo_inurba_marseille","lat":43.29442,"lon":5.39742,"is_reserved":false,"is_disabled":false,"rental_uris":{"android":"levelo://app?vid=6a6cf38b-7a31-461d-8e5c-24d2b7a70603","ios":"levelo://app?vid=6a6cf38b-7a31-461d-8e5c-24d2b7a70603"},"vehicle_type_id":"4","last_reported":1721754445,"current_range_meters":7600,"station_id":"ce4bh3h2rcd13ifvqdo0","pricing_plan_id":"cebpf4jnsgd1na2vs0mg"},{"bike_id":"63956470-b49a-4a6e-8d14-675d31691d96","system_id":"levelo_inurba_marseille","lat":43.294314,"lon":5.397498,"is_reserved":false,"is_disabled":false,"rental_uris":{"android":"levelo://app?vid=63956470-b49a-4a6e-8d14-675d31691d96","ios":"levelo://app?vid=63956470-b49a-4a6e-8d14-675d31691d96"},"vehicle_type_id":"4","last_reported":1721754445,"current_range_meters":10400,"station_id":"ce4bh3h2rcd13ifvqdo0","pricing_plan_id":"cebpf4jnsgd1na2vs0mg"},{"bike_id":"f0294842-950e-4a51-ada0-18996561b89b","system_id":"levelo_inurba_marseille","lat":43.284534,"lon":5.358662,"is_reserved":false,"is_disabled":false,"rental_uris":{"android":"levelo://app?vid=f0294842-950e-4a51-ada0-18996561b89b","ios":"levelo://app?vid=f0294842-950e-4a51-ada0-18996561b89b"},"vehicle_type_id":"4","last_reported":1721754445,"current_range_meters":0,"station_id":"ce4bhah2rcd13ifvqei0","pricing_plan_id":"cebpf4jnsgd1na2vs0mg"},{"bike_id":"27854e88-6282-4827-9901-d19d4f3f3019","system_id":"levelo_inurba_marseille","lat":43.294314,"lon":5.397498,"is_reserved":false,"is_disabled":false,"rental_uris":{"android":"levelo://app?vid=27854e88-6282-4827-9901-d19d4f3f3019","ios":"levelo://app?vid=27854e88-6282-4827-9901-d19d4f3f3019"},"vehicle_type_id":"4","last_reported":1721754445,"current_range_meters":2800,"station_id":"ce4bh3h2rcd13ifvqdo0","pricing_plan_id":"cebpf4jnsgd1na2vs0mg"},{"bike_id":"bfaae27e-b5a4-450f-9328-cc1410f5cb2c","system_id":"levelo_inurba_marseille","lat":43.285856,"lon":5.350771,"is_reserved":false,"is_disabled":false,"rental_uris":{"android":"levelo://app?vid=bfaae27e-b5a4-450f-9328-cc1410f5cb2c","ios":"levelo://app?vid=bfaae27e-b5a4-450f-9328-cc1410f5cb2c"},"vehicle_type_id":"4","last_reported":1721754445,"current_range_meters":31200,"station_id":"ce4bhch2rcd13ifvqeug","pricing_plan_id":"cebpf4jnsgd1na2vs0mg"},{"bike_id":"5654118c-c300-4056-97b8-6ba876db1aeb","system_id":"levelo_inurba_marseille","lat":43.28621,"lon":5.35107,"is_reserved":false,"is_disabled":false,"rental_uris":{"android":"levelo://app?vid=5654118c-c300-4056-97b8-6ba876db1aeb","ios":"levelo://app?vid=5654118c-c300-4056-97b8-6ba876db1aeb"},"vehicle_type_id":"4","last_reported":1721754445,"current_range_meters":4000,"station_id":"ce4bhch2rcd13ifvqeug","pricing_plan_id":"cebpf4jnsgd1na2vs0mg"},{"bike_id":"3a7897f2-9210-42f9-a6c8-dfdc3adac680","system_id":"levelo_inurba_marseille","lat":43.2862,"lon":5.35106,"is_reserved":false,"is_disabled":false,"rental_uris":{"android":"levelo://app?vid=3a7897f2-9210-42f9-a6c8-dfdc3adac680","ios":"levelo://app?vid=3a7897f2-9210-42f9-a6c8-dfdc3adac680"},"vehicle_type_id":"4","last_reported":1721754445,"current_range_meters":31200,"station_id":"ce4bhch2rcd13ifvqeug","pricing_plan_id":"cebpf4jnsgd1na2vs0mg"},{"bike_id":"38938b8d-34b5-4203-b179-a3d2a0d46791","system_id":"levelo_inurba_marseille","lat":43.2862,"lon":5.35104,"is_reserved":false,"is_disabled":false,"rental_uris":{"android":"levelo://app?vid=38938b8d-34b5-4203-b179-a3d2a0d46791","ios":"levelo://app?vid=38938b8d-34b5-4203-b179-a3d2a0d46791"},"vehicle_type_id":"4","last_reported":1721754445,"current_range_meters":800,"station_id":"ce4bhch2rcd13ifvqeug","pricing_plan_id":"cebpf4jnsgd1na2vs0mg"},{"bike_id":"a56ae0ad-b810-4e84-8a5d-070a57a37f5a","system_id":"levelo_inurba_marseille","lat":43.285856,"lon":5.350771,"is_reserved":false,"is_disabled":false,"rental_uris":{"android":"levelo://app?vid=a56ae0ad-b810-4e84-8a5d-070a57a37f5a","ios":"levelo://app?vid=a56ae0ad-b810-4e84-8a5d-070a57a37f5a"},"vehicle_type_id":"4","last_reported":1721754445,"current_range_meters":9600,"station_id":"ce4bhch2rcd13ifvqeug","pricing_plan_id":"cebpf4jnsgd1na2vs0mg"},{"bike_id":"8f96ec03-9103-4364-9961-3a243da0d40c","system_id":"levelo_inurba_marseille","lat":43.285856,"lon":5.350771,"is_reserved":false,"is_disabled":false,"rental_uris":{"android":"levelo://app?vid=8f96ec03-9103-4364-9961-3a243da0d40c","ios":"levelo://app?vid=8f96ec03-9103-4364-9961-3a243da0d40c"},"vehicle_type_id":"4","last_reported":1721754445,"current_range_meters":26000,"station_id":"ce4bhch2rcd13ifvqeug","pricing_plan_id":"cebpf4jnsgd1na2vs0mg"},{"bike_id":"f318def8-2f92-453f-ab01-0c79d502cc25","system_id":"levelo_inurba_marseille","lat":43.285856,"lon":5.350771,"is_reserved":false,"is_disabled":false,"rental_uris":{"android":"levelo://app?vid=f318def8-2f92-453f-ab01-0c79d502cc25","ios":"levelo://app?vid=f318def8-2f92-453f-ab01-0c79d502cc25"},"vehicle_type_id":"4","last_reported":1721754445,"current_range_meters":10400,"station_id":"ce4bhch2rcd13ifvqeug","pricing_plan_id":"cebpf4jnsgd1na2vs0mg"},{"bike_id":"566bae18-9553-480f-8865-82d429aab349","system_id":"levelo_inurba_marseille","lat":43.285856,"lon":5.350771,"is_reserved":false,"is_disabled":false,"rental_uris":{"android":"levelo://app?vid=566bae18-9553-480f-8865-82d429aab349","ios":"levelo://app?vid=566bae18-9553-480f-8865-82d429aab349"},"vehicle_type_id":"4","last_reported":1721754445,"current_range_meters":17200,"station_id":"ce4bhch2rcd13ifvqeug","pricing_plan_id":"cebpf4jnsgd1na2vs0mg"},{"bike_id":"6289ccdf-1b50-448e-a1f9-b02f3e636e57","system_id":"levelo_inurba_marseille","lat":43.28617,"lon":5.35105,"is_reserved":false,"is_disabled":false,"rental_uris":{"android":"levelo://app?vid=6289ccdf-1b50-448e-a1f9-b02f3e636e57","ios":"levelo://app?vid=6289ccdf-1b50-448e-a1f9-b02f3e636e57"},"vehicle_type_id":"4","last_reported":1721754445,"current_range_meters":21600,"station_id":"ce4bhch2rcd13ifvqeug","pricing_plan_id":"cebpf4jnsgd1na2vs0mg"},{"bike_id":"df0c6834-fcd4-42c7-88e0-f2e512273b36","system_id":"levelo_inurba_marseille","lat":43.28617,"lon":5.35105,"is_reserved":false,"is_disabled":false,"rental_uris":{"android":"levelo://app?vid=df0c6834-fcd4-42c7-88e0-f2e512273b36","ios":"levelo://app?vid=df0c6834-fcd4-42c7-88e0-f2e512273b36"},"vehicle_type_id":"4","last_reported":1721754445,"current_range_meters":29600,"station_id":"ce4bhch2rcd13ifvqeug","pricing_plan_id":"cebpf4jnsgd1na2vs0mg"},{"bike_id":"1231718a-6f7e-4bcf-8e45-88edbd16cf8e","system_id":"levelo_inurba_marseille","lat":43.28618,"lon":5.351007,"is_reserved":false,"is_disabled":false,"rental_uris":{"android":"levelo://app?vid=1231718a-6f7e-4bcf-8e45-88edbd16cf8e","ios":"levelo://app?vid=1231718a-6f7e-4bcf-8e45-88edbd16cf8e"},"vehicle_type_id":"4","last_reported":1721754445,"current_range_meters":30400,"station_id":"","pricing_plan_id":"cebpf4jnsgd1na2vs0mg"},{"bike_id":"c92709d2-cd8e-4d3b-a099-f684eb121529","system_id":"levelo_inurba_marseille","lat":43.285856,"lon":5.350771,"is_reserved":false,"is_disabled":false,"rental_uris":{"android":"levelo://app?vid=c92709d2-cd8e-4d3b-a099-f684eb121529","ios":"levelo://app?vid=c92709d2-cd8e-4d3b-a099-f684eb121529"},"vehicle_type_id":"4","last_reported":1721754445,"current_range_meters":31200,"station_id":"ce4bhch2rcd13ifvqeug","pricing_plan_id":"cebpf4jnsgd1na2vs0mg"},{"bike_id":"e23642c2-9da8-4e41-bb52-cc87708fddbf","system_id":"levelo_inurba_marseille","lat":43.286149,"lon":5.351069,"is_reserved":false,"is_disabled":false,"rental_uris":{"android":"levelo://app?vid=e23642c2-9da8-4e41-bb52-cc87708fddbf","ios":"levelo://app?vid=e23642c2-9da8-4e41-bb52-cc87708fddbf"},"vehicle_type_id":"4","last_reported":1721754445,"current_range_meters":3600,"station_id":"ce4bhch2rcd13ifvqeug","pricing_plan_id":"cebpf4jnsgd1na2vs0mg"},{"bike_id":"95ec1fb3-9336-4b8c-9be2-d3b4d36314dc","system_id":"levelo_inurba_marseille","lat":43.28615,"lon":5.35106,"is_reserved":false,"is_disabled":false,"rental_uris":{"android":"levelo://app?vid=95ec1fb3-9336-4b8c-9be2-d3b4d36314dc","ios":"levelo://app?vid=95ec1fb3-9336-4b8c-9be2-d3b4d36314dc"},"vehicle_type_id":"4","last_reported":1721754445,"current_range_meters":31200,"station_id":"ce4bhch2rcd13ifvqeug","pricing_plan_id":"cebpf4jnsgd1na2vs0mg"},{"bike_id":"da25592f-50d8-415b-a919-0cad5f44fd5d","system_id":"levelo_inurba_marseille","lat":43.286157,"lon":5.350997,"is_reserved":false,"is_disabled":false,"rental_uris":{"android":"levelo://app?vid=da25592f-50d8-415b-a919-0cad5f44fd5d","ios":"levelo://app?vid=da25592f-50d8-415b-a919-0cad5f44fd5d"},"vehicle_type_id":"4","last_reported":1721754445,"current_range_meters":31200,"station_id":"ce4bhch2rcd13ifvqeug","pricing_plan_id":"cebpf4jnsgd1na2vs0mg"},{"bike_id":"b825a49f-3b03-4646-9fb0-e0d55b2a84f2","system_id":"levelo_inurba_marseille","lat":43.28615,"lon":5.35098,"is_reserved":false,"is_disabled":false,"rental_uris":{"android":"levelo://app?vid=b825a49f-3b03-4646-9fb0-e0d55b2a84f2","ios":"levelo://app?vid=b825a49f-3b03-4646-9fb0-e0d55b2a84f2"},"vehicle_type_id":"4","last_reported":1721754445,"current_range_meters":0,"station_id":"ce4bhch2rcd13ifvqeug","pricing_plan_id":"cebpf4jnsgd1na2vs0mg"},{"bike_id":"56d1e612-8aff-4efc-b5e2-fd2fc5d62def","system_id":"levelo_inurba_marseille","lat":43.286109,"lon":5.351015,"is_reserved":false,"is_disabled":false,"rental_uris":{"android":"levelo://app?vid=56d1e612-8aff-4efc-b5e2-fd2fc5d62def","ios":"levelo://app?vid=56d1e612-8aff-4efc-b5e2-fd2fc5d62def"},"vehicle_type_id":"4","last_reported":1721754445,"current_range_meters":4400,"station_id":"ce4bhch2rcd13ifvqeug","pricing_plan_id":"cebpf4jnsgd1na2vs0mg"},{"bike_id":"f9b61737-1d99-4ca2-97d4-2082f562917f","system_id":"levelo_inurba_marseille","lat":43.29573,"lon":5.39969,"is_reserved":false,"is_disabled":false,"rental_uris":{"android":"levelo://app?vid=f9b61737-1d99-4ca2-97d4-2082f562917f","ios":"levelo://app?vid=f9b61737-1d99-4ca2-97d4-2082f562917f"},"vehicle_type_id":"4","last_reported":1721754445,"current_range_meters":0,"station_id":"ce4bh312rcd13ifvqdj0","pricing_plan_id":"cebpf4jnsgd1na2vs0mg"},{"bike_id":"42ea2f92-b411-4046-8d28-750b71643270","system_id":"levelo_inurba_marseille","lat":43.295713,"lon":5.399639,"is_reserved":false,"is_disabled":false,"rental_uris":{"android":"levelo://app?vid=42ea2f92-b411-4046-8d28-750b71643270","ios":"levelo://app?vid=42ea2f92-b411-4046-8d28-750b71643270"},"vehicle_type_id":"4","last_reported":1721754445,"current_range_meters":800,"station_id":"ce4bh312rcd13ifvqdj0","pricing_plan_id":"cebpf4jnsgd1na2vs0mg"},{"bike_id":"8639cffd-690f-4944-9e36-9bd393f85968","system_id":"levelo_inurba_marseille","lat":43.29568,"lon":5.39974,"is_reserved":false,"is_disabled":false,"rental_uris":{"android":"levelo://app?vid=8639cffd-690f-4944-9e36-9bd393f85968","ios":"levelo://app?vid=8639cffd-690f-4944-9e36-9bd393f85968"},"vehicle_type_id":"4","last_reported":1721754445,"current_range_meters":0,"station_id":"ce4bh312rcd13ifvqdj0","pricing_plan_id":"cebpf4jnsgd1na2vs0mg"},{"bike_id":"569db640-2f89-4b13-9e8b-7efaf32d2af9","system_id":"levelo_inurba_marseille","lat":43.29568,"lon":5.39977,"is_reserved":false,"is_disabled":false,"rental_uris":{"android":"levelo://app?vid=569db640-2f89-4b13-9e8b-7efaf32d2af9","ios":"levelo://app?vid=569db640-2f89-4b13-9e8b-7efaf32d2af9"},"vehicle_type_id":"4","last_reported":1721754445,"current_range_meters":0,"station_id":"ce4bh312rcd13ifvqdj0","pricing_plan_id":"cebpf4jnsgd1na2vs0mg"},{"bike_id":"1c6e6477-7654-4146-9bfe-3972481eae29","system_id":"levelo_inurba_marseille","lat":43.286595,"lon":5.386795,"is_reserved":false,"is_disabled":false,"rental_uris":{"android":"levelo://app?vid=1c6e6477-7654-4146-9bfe-3972481eae29","ios":"levelo://app?vid=1c6e6477-7654-4146-9bfe-3972481eae29"},"vehicle_type_id":"4","last_reported":1721754445,"current_range_meters":1200,"station_id":"ce4bh492rcd13ifvqdug","pricing_plan_id":"cebpf4jnsgd1na2vs0mg"},{"bike_id":"b6fed96c-c9f6-4d6d-a695-5acd2124b074","system_id":"levelo_inurba_marseille","lat":43.286595,"lon":5.386795,"is_reserved":false,"is_disabled":false,"rental_uris":{"android":"levelo://app?vid=b6fed96c-c9f6-4d6d-a695-5acd2124b074","ios":"levelo://app?vid=b6fed96c-c9f6-4d6d-a695-5acd2124b074"},"vehicle_type_id":"4","last_reported":1721754445,"current_range_meters":27200,"station_id":"ce4bh492rcd13ifvqdug","pricing_plan_id":"cebpf4jnsgd1na2vs0mg"},{"bike_id":"e38531a6-e1db-410e-bf62-06af6f0dc790","system_id":"levelo_inurba_marseille","lat":43.28667,"lon":5.38658,"is_reserved":false,"is_disabled":false,"rental_uris":{"android":"levelo://app?vid=e38531a6-e1db-410e-bf62-06af6f0dc790","ios":"levelo://app?vid=e38531a6-e1db-410e-bf62-06af6f0dc790"},"vehicle_type_id":"4","last_reported":1721754445,"current_range_meters":0,"station_id":"ce4bh492rcd13ifvqdug","pricing_plan_id":"cebpf4jnsgd1na2vs0mg"},{"bike_id":"6500cf4d-e071-4438-b16e-8bdffd572b59","system_id":"levelo_inurba_marseille","lat":43.337168,"lon":5.391825,"is_reserved":false,"is_disabled":false,"rental_uris":{"android":"levelo://app?vid=6500cf4d-e071-4438-b16e-8bdffd572b59","ios":"levelo://app?vid=6500cf4d-e071-4438-b16e-8bdffd572b59"},"vehicle_type_id":"4","last_reported":1721754445,"current_range_meters":12800,"station_id":"ce4bhr92rcd13ifvqhsg","pricing_plan_id":"cebpf4jnsgd1na2vs0mg"},{"bike_id":"c92baf0d-c18d-4402-8821-185d000b30ff","system_id":"levelo_inurba_marseille","lat":43.30367,"lon":5.40629,"is_reserved":false,"is_disabled":false,"rental_uris":{"android":"levelo://app?vid=c92baf0d-c18d-4402-8821-185d000b30ff","ios":"levelo://app?vid=c92baf0d-c18d-4402-8821-185d000b30ff"},"vehicle_type_id":"4","last_reported":1721754445,"current_range_meters":0,"station_id":"","pricing_plan_id":"cebpf4jnsgd1na2vs0mg"},{"bike_id":"3edc4a14-c6c6-4aca-8490-34ed952bbe4f","system_id":"levelo_inurba_marseille","lat":43.31897,"lon":5.40737,"is_reserved":false,"is_disabled":false,"rental_uris":{"android":"levelo://app?vid=3edc4a14-c6c6-4aca-8490-34ed952bbe4f","ios":"levelo://app?vid=3edc4a14-c6c6-4aca-8490-34ed952bbe4f"},"vehicle_type_id":"4","last_reported":1721754445,"current_range_meters":27600,"station_id":"ce4bhq12rcd13ifvqhig","pricing_plan_id":"cebpf4jnsgd1na2vs0mg"},{"bike_id":"c15dc7ed-cd05-434f-836e-b2a864aec6df","system_id":"levelo_inurba_marseille","lat":43.33717,"lon":5.391857,"is_reserved":false,"is_disabled":false,"rental_uris":{"android":"levelo://app?vid=c15dc7ed-cd05-434f-836e-b2a864aec6df","ios":"levelo://app?vid=c15dc7ed-cd05-434f-836e-b2a864aec6df"},"vehicle_type_id":"4","last_reported":1721754445,"current_range_meters":16800,"station_id":"ce4bhr92rcd13ifvqhsg","pricing_plan_id":"cebpf4jnsgd1na2vs0mg"},{"bike_id":"73fe231e-c655-477f-add9-38fc42369806","system_id":"levelo_inurba_marseille","lat":43.337168,"lon":5.391825,"is_reserved":false,"is_disabled":false,"rental_uris":{"android":"levelo://app?vid=73fe231e-c655-477f-add9-38fc42369806","ios":"levelo://app?vid=73fe231e-c655-477f-add9-38fc42369806"},"vehicle_type_id":"4","last_reported":1721754445,"current_range_meters":16400,"station_id":"ce4bhr92rcd13ifvqhsg","pricing_plan_id":"cebpf4jnsgd1na2vs0mg"},{"bike_id":"eebe5cfb-9b2b-49b9-ba57-3e77acc80b51","system_id":"levelo_inurba_marseille","lat":43.33717,"lon":5.391857,"is_reserved":false,"is_disabled":false,"rental_uris":{"android":"levelo://app?vid=eebe5cfb-9b2b-49b9-ba57-3e77acc80b51","ios":"levelo://app?vid=eebe5cfb-9b2b-49b9-ba57-3e77acc80b51"},"vehicle_type_id":"4","last_reported":1721754445,"current_range_meters":19600,"station_id":"ce4bhr92rcd13ifvqhsg","pricing_plan_id":"cebpf4jnsgd1na2vs0mg"},{"bike_id":"03ecd0b2-7d3c-4d59-bbb6-a0261dab98de","system_id":"levelo_inurba_marseille","lat":43.337168,"lon":5.391825,"is_reserved":false,"is_disabled":false,"rental_uris":{"android":"levelo://app?vid=03ecd0b2-7d3c-4d59-bbb6-a0261dab98de","ios":"levelo://app?vid=03ecd0b2-7d3c-4d59-bbb6-a0261dab98de"},"vehicle_type_id":"4","last_reported":1721754445,"current_range_meters":30000,"station_id":"ce4bhr92rcd13ifvqhsg","pricing_plan_id":"cebpf4jnsgd1na2vs0mg"},{"bike_id":"336b3dcc-02cd-4811-9b1d-a25103b14b19","system_id":"levelo_inurba_marseille","lat":43.33717,"lon":5.391857,"is_reserved":false,"is_disabled":false,"rental_uris":{"android":"levelo://app?vid=336b3dcc-02cd-4811-9b1d-a25103b14b19","ios":"levelo://app?vid=336b3dcc-02cd-4811-9b1d-a25103b14b19"},"vehicle_type_id":"4","last_reported":1721754445,"current_range_meters":32000,"station_id":"ce4bhr92rcd13ifvqhsg","pricing_plan_id":"cebpf4jnsgd1na2vs0mg"},{"bike_id":"83a30a49-bc31-418e-a180-37257cb2e9cb","system_id":"levelo_inurba_marseille","lat":43.323464,"lon":5.406297,"is_reserved":false,"is_disabled":false,"rental_uris":{"android":"levelo://app?vid=83a30a49-bc31-418e-a180-37257cb2e9cb","ios":"levelo://app?vid=83a30a49-bc31-418e-a180-37257cb2e9cb"},"vehicle_type_id":"4","last_reported":1721754445,"current_range_meters":10400,"station_id":"ce4bhq92rcd13ifvqhjg","pricing_plan_id":"cebpf4jnsgd1na2vs0mg"},{"bike_id":"1ce0e84a-ed53-4a0f-b9ca-8f23f352faf4","system_id":"levelo_inurba_marseille","lat":43.337168,"lon":5.391825,"is_reserved":false,"is_disabled":false,"rental_uris":{"android":"levelo://app?vid=1ce0e84a-ed53-4a0f-b9ca-8f23f352faf4","ios":"levelo://app?vid=1ce0e84a-ed53-4a0f-b9ca-8f23f352faf4"},"vehicle_type_id":"4","last_reported":1721754445,"current_range_meters":16400,"station_id":"ce4bhr92rcd13ifvqhsg","pricing_plan_id":"cebpf4jnsgd1na2vs0mg"},{"bike_id":"b5165270-f5b4-4061-8c4f-1963e6deda3e","system_id":"levelo_inurba_marseille","lat":43.284787,"lon":5.384116,"is_reserved":false,"is_disabled":false,"rental_uris":{"android":"levelo://app?vid=b5165270-f5b4-4061-8c4f-1963e6deda3e","ios":"levelo://app?vid=b5165270-f5b4-4061-8c4f-1963e6deda3e"},"vehicle_type_id":"4","last_reported":1721754445,"current_range_meters":11600,"station_id":"ce4bh512rcd13ifvqe3g","pricing_plan_id":"cebpf4jnsgd1na2vs0mg"},{"bike_id":"4e9a15ce-23e7-4c29-8551-d5550a621463","system_id":"levelo_inurba_marseille","lat":43.28483,"lon":5.38418,"is_reserved":false,"is_disabled":false,"rental_uris":{"android":"levelo://app?vid=4e9a15ce-23e7-4c29-8551-d5550a621463","ios":"levelo://app?vid=4e9a15ce-23e7-4c29-8551-d5550a621463"},"vehicle_type_id":"4","last_reported":1721754445,"current_range_meters":0,"station_id":"ce4bh512rcd13ifvqe3g","pricing_plan_id":"cebpf4jnsgd1na2vs0mg"},{"bike_id":"4c5e854a-8de0-47d0-9747-62e1ab630c40","system_id":"levelo_inurba_marseille","lat":43.284793,"lon":5.384113,"is_reserved":false,"is_disabled":false,"rental_uris":{"android":"levelo://app?vid=4c5e854a-8de0-47d0-9747-62e1ab630c40","ios":"levelo://app?vid=4c5e854a-8de0-47d0-9747-62e1ab630c40"},"vehicle_type_id":"4","last_reported":1721754445,"current_range_meters":800,"station_id":"ce4bh512rcd13ifvqe3g","pricing_plan_id":"cebpf4jnsgd1na2vs0mg"},{"bike_id":"560865db-f911-4ae0-8904-e267bf5ed31e","system_id":"levelo_inurba_marseille","lat":43.28475,"lon":5.38414,"is_reserved":false,"is_disabled":false,"rental_uris":{"android":"levelo://app?vid=560865db-f911-4ae0-8904-e267bf5ed31e","ios":"levelo://app?vid=560865db-f911-4ae0-8904-e267bf5ed31e"},"vehicle_type_id":"4","last_reported":1721754445,"current_range_meters":28000,"station_id":"ce4bh512rcd13ifvqe3g","pricing_plan_id":"cebpf4jnsgd1na2vs0mg"},{"bike_id":"21e8fe03-489b-4b5d-9753-6681d8e8667c","system_id":"levelo_inurba_marseille","lat":43.284787,"lon":5.384116,"is_reserved":false,"is_disabled":false,"rental_uris":{"android":"levelo://app?vid=21e8fe03-489b-4b5d-9753-6681d8e8667c","ios":"levelo://app?vid=21e8fe03-489b-4b5d-9753-6681d8e8667c"},"vehicle_type_id":"4","last_reported":1721754445,"current_range_meters":21200,"station_id":"ce4bh512rcd13ifvqe3g","pricing_plan_id":"cebpf4jnsgd1na2vs0mg"},{"bike_id":"ff999dc7-e939-4e34-9e84-1be858388b6f","system_id":"levelo_inurba_marseille","lat":43.284787,"lon":5.384116,"is_reserved":false,"is_disabled":false,"rental_uris":{"android":"levelo://app?vid=ff999dc7-e939-4e34-9e84-1be858388b6f","ios":"levelo://app?vid=ff999dc7-e939-4e34-9e84-1be858388b6f"},"vehicle_type_id":"4","last_reported":1721754445,"current_range_meters":16400,"station_id":"ce4bh512rcd13ifvqe3g","pricing_plan_id":"cebpf4jnsgd1na2vs0mg"},{"bike_id":"b6544052-8a69-42ee-bd9e-cc18c49f68e9","system_id":"levelo_inurba_marseille","lat":43.29795,"lon":5.404086,"is_reserved":false,"is_disabled":false,"rental_uris":{"android":"levelo://app?vid=b6544052-8a69-42ee-bd9e-cc18c49f68e9","ios":"levelo://app?vid=b6544052-8a69-42ee-bd9e-cc18c49f68e9"},"vehicle_type_id":"4","last_reported":1721754445,"current_range_meters":1600,"station_id":"ce4bh112rcd13ifvqd90","pricing_plan_id":"cebpf4jnsgd1na2vs0mg"},{"bike_id":"80b9ce0c-ca96-46e1-93fe-fe99cca1c99c","system_id":"levelo_inurba_marseille","lat":43.288501,"lon":5.393087,"is_reserved":false,"is_disabled":false,"rental_uris":{"android":"levelo://app?vid=80b9ce0c-ca96-46e1-93fe-fe99cca1c99c","ios":"levelo://app?vid=80b9ce0c-ca96-46e1-93fe-fe99cca1c99c"},"vehicle_type_id":"4","last_reported":1721754445,"current_range_meters":800,"station_id":"ce4bh2p2rcd13ifvqdi0","pricing_plan_id":"cebpf4jnsgd1na2vs0mg"},{"bike_id":"17f9d256-76f7-4404-84bb-a44c96c1a0d6","system_id":"levelo_inurba_marseille","lat":43.28431,"lon":5.34997,"is_reserved":false,"is_disabled":false,"rental_uris":{"android":"levelo://app?vid=17f9d256-76f7-4404-84bb-a44c96c1a0d6","ios":"levelo://app?vid=17f9d256-76f7-4404-84bb-a44c96c1a0d6"},"vehicle_type_id":"4","last_reported":1721754445,"current_range_meters":19200,"station_id":"ce4bhbh2rcd13ifvqepg","pricing_plan_id":"cebpf4jnsgd1na2vs0mg"},{"bike_id":"f90716e3-c70d-4a3c-814c-0d9308dd39d7","system_id":"levelo_inurba_marseille","lat":43.28431,"lon":5.34995,"is_reserved":false,"is_disabled":false,"rental_uris":{"android":"levelo://app?vid=f90716e3-c70d-4a3c-814c-0d9308dd39d7","ios":"levelo://app?vid=f90716e3-c70d-4a3c-814c-0d9308dd39d7"},"vehicle_type_id":"4","last_reported":1721754445,"current_range_meters":14000,"station_id":"ce4bhbh2rcd13ifvqepg","pricing_plan_id":"cebpf4jnsgd1na2vs0mg"},{"bike_id":"3f4e80d4-39b8-4f0a-8a8f-7ff952b2c256","system_id":"levelo_inurba_marseille","lat":43.284214,"lon":5.349706,"is_reserved":false,"is_disabled":false,"rental_uris":{"android":"levelo://app?vid=3f4e80d4-39b8-4f0a-8a8f-7ff952b2c256","ios":"levelo://app?vid=3f4e80d4-39b8-4f0a-8a8f-7ff952b2c256"},"vehicle_type_id":"4","last_reported":1721754445,"current_range_meters":14800,"station_id":"ce4bhbh2rcd13ifvqepg","pricing_plan_id":"cebpf4jnsgd1na2vs0mg"},{"bike_id":"6c9bef6e-56e4-4326-817e-97a3c2295904","system_id":"levelo_inurba_marseille","lat":43.2843,"lon":5.34993,"is_reserved":false,"is_disabled":false,"rental_uris":{"android":"levelo://app?vid=6c9bef6e-56e4-4326-817e-97a3c2295904","ios":"levelo://app?vid=6c9bef6e-56e4-4326-817e-97a3c2295904"},"vehicle_type_id":"4","last_reported":1721754445,"current_range_meters":22400,"station_id":"ce4bhbh2rcd13ifvqepg","pricing_plan_id":"cebpf4jnsgd1na2vs0mg"},{"bike_id":"409fe07e-069b-4b05-8ca5-089114ae2599","system_id":"levelo_inurba_marseille","lat":43.2843,"lon":5.34988,"is_reserved":false,"is_disabled":false,"rental_uris":{"android":"levelo://app?vid=409fe07e-069b-4b05-8ca5-089114ae2599","ios":"levelo://app?vid=409fe07e-069b-4b05-8ca5-089114ae2599"},"vehicle_type_id":"4","last_reported":1721754445,"current_range_meters":20400,"station_id":"ce4bhbh2rcd13ifvqepg","pricing_plan_id":"cebpf4jnsgd1na2vs0mg"},{"bike_id":"965e084c-dc6f-4bca-b916-48e8921c4782","system_id":"levelo_inurba_marseille","lat":43.28427,"lon":5.34996,"is_reserved":false,"is_disabled":false,"rental_uris":{"android":"levelo://app?vid=965e084c-dc6f-4bca-b916-48e8921c4782","ios":"levelo://app?vid=965e084c-dc6f-4bca-b916-48e8921c4782"},"vehicle_type_id":"4","last_reported":1721754445,"current_range_meters":22800,"station_id":"ce4bhbh2rcd13ifvqepg","pricing_plan_id":"cebpf4jnsgd1na2vs0mg"},{"bike_id":"78eeb27e-efef-4415-8a90-2aa1c83e0295","system_id":"levelo_inurba_marseille","lat":43.28428,"lon":5.3499,"is_reserved":false,"is_disabled":false,"rental_uris":{"android":"levelo://app?vid=78eeb27e-efef-4415-8a90-2aa1c83e0295","ios":"levelo://app?vid=78eeb27e-efef-4415-8a90-2aa1c83e0295"},"vehicle_type_id":"4","last_reported":1721754445,"current_range_meters":18800,"station_id":"ce4bhbh2rcd13ifvqepg","pricing_plan_id":"cebpf4jnsgd1na2vs0mg"},{"bike_id":"433d3eaa-4a05-4507-8a7b-e7b75f985f88","system_id":"levelo_inurba_marseille","lat":43.28345,"lon":5.38107,"is_reserved":false,"is_disabled":false,"rental_uris":{"android":"levelo://app?vid=433d3eaa-4a05-4507-8a7b-e7b75f985f88","ios":"levelo://app?vid=433d3eaa-4a05-4507-8a7b-e7b75f985f88"},"vehicle_type_id":"4","last_reported":1721754445,"current_range_meters":0,"station_id":"ce4bh412rcd13ifvqdr0","pricing_plan_id":"cebpf4jnsgd1na2vs0mg"},{"bike_id":"21f47ab2-e77b-4ddc-b824-aabb409ae46c","system_id":"levelo_inurba_marseille","lat":43.28428,"lon":5.34988,"is_reserved":false,"is_disabled":false,"rental_uris":{"android":"levelo://app?vid=21f47ab2-e77b-4ddc-b824-aabb409ae46c","ios":"levelo://app?vid=21f47ab2-e77b-4ddc-b824-aabb409ae46c"},"vehicle_type_id":"4","last_reported":1721754445,"current_range_meters":14000,"station_id":"ce4bhbh2rcd13ifvqepg","pricing_plan_id":"cebpf4jnsgd1na2vs0mg"},{"bike_id":"eb2e15bc-011d-4039-8097-6cf01ddfdf0b","system_id":"levelo_inurba_marseille","lat":43.284214,"lon":5.349706,"is_reserved":false,"is_disabled":false,"rental_uris":{"android":"levelo://app?vid=eb2e15bc-011d-4039-8097-6cf01ddfdf0b","ios":"levelo://app?vid=eb2e15bc-011d-4039-8097-6cf01ddfdf0b"},"vehicle_type_id":"4","last_reported":1721754445,"current_range_meters":29600,"station_id":"ce4bhbh2rcd13ifvqepg","pricing_plan_id":"cebpf4jnsgd1na2vs0mg"},{"bike_id":"c84dfa88-ba6d-4565-9f8a-5bf4ada2234c","system_id":"levelo_inurba_marseille","lat":43.28424,"lon":5.34996,"is_reserved":false,"is_disabled":false,"rental_uris":{"android":"levelo://app?vid=c84dfa88-ba6d-4565-9f8a-5bf4ada2234c","ios":"levelo://app?vid=c84dfa88-ba6d-4565-9f8a-5bf4ada2234c"},"vehicle_type_id":"4","last_reported":1721754445,"current_range_meters":4400,"station_id":"ce4bhbh2rcd13ifvqepg","pricing_plan_id":"cebpf4jnsgd1na2vs0mg"},{"bike_id":"2555281f-98b8-4a42-ad35-aeb773f4c71b","system_id":"levelo_inurba_marseille","lat":43.28423,"lon":5.34993,"is_reserved":false,"is_disabled":false,"rental_uris":{"android":"levelo://app?vid=2555281f-98b8-4a42-ad35-aeb773f4c71b","ios":"levelo://app?vid=2555281f-98b8-4a42-ad35-aeb773f4c71b"},"vehicle_type_id":"4","last_reported":1721754445,"current_range_meters":30800,"station_id":"ce4bhbh2rcd13ifvqepg","pricing_plan_id":"cebpf4jnsgd1na2vs0mg"},{"bike_id":"cadd9e10-9aa8-4f2b-a4c2-7a6778cd9000","system_id":"levelo_inurba_marseille","lat":43.28422,"lon":5.34995,"is_reserved":false,"is_disabled":false,"rental_uris":{"android":"levelo://app?vid=cadd9e10-9aa8-4f2b-a4c2-7a6778cd9000","ios":"levelo://app?vid=cadd9e10-9aa8-4f2b-a4c2-7a6778cd9000"},"vehicle_type_id":"4","last_reported":1721754445,"current_range_meters":11600,"station_id":"ce4bhbh2rcd13ifvqepg","pricing_plan_id":"cebpf4jnsgd1na2vs0mg"},{"bike_id":"d232ae17-ff4c-4c36-b3c3-01440c56ba66","system_id":"levelo_inurba_marseille","lat":43.28421,"lon":5.34996,"is_reserved":false,"is_disabled":false,"rental_uris":{"android":"levelo://app?vid=d232ae17-ff4c-4c36-b3c3-01440c56ba66","ios":"levelo://app?vid=d232ae17-ff4c-4c36-b3c3-01440c56ba66"},"vehicle_type_id":"4","last_reported":1721754445,"current_range_meters":13600,"station_id":"ce4bhbh2rcd13ifvqepg","pricing_plan_id":"cebpf4jnsgd1na2vs0mg"},{"bike_id":"7188cb53-01dc-4ee5-ac77-c89bdfbebd11","system_id":"levelo_inurba_marseille","lat":43.28426,"lon":5.34979,"is_reserved":false,"is_disabled":false,"rental_uris":{"android":"levelo://app?vid=7188cb53-01dc-4ee5-ac77-c89bdfbebd11","ios":"levelo://app?vid=7188cb53-01dc-4ee5-ac77-c89bdfbebd11"},"vehicle_type_id":"4","last_reported":1721754445,"current_range_meters":25200,"station_id":"ce4bhbh2rcd13ifvqepg","pricing_plan_id":"cebpf4jnsgd1na2vs0mg"},{"bike_id":"59dd212a-e11c-4573-a087-18bc2cdedccc","system_id":"levelo_inurba_marseille","lat":43.284246,"lon":5.349829,"is_reserved":false,"is_disabled":false,"rental_uris":{"android":"levelo://app?vid=59dd212a-e11c-4573-a087-18bc2cdedccc","ios":"levelo://app?vid=59dd212a-e11c-4573-a087-18bc2cdedccc"},"vehicle_type_id":"4","last_reported":1721754445,"current_range_meters":31200,"station_id":"ce4bhbh2rcd13ifvqepg","pricing_plan_id":"cebpf4jnsgd1na2vs0mg"},{"bike_id":"b7d457f9-4801-42e6-a24b-eec75338f26e","system_id":"levelo_inurba_marseille","lat":43.284217,"lon":5.34991,"is_reserved":false,"is_disabled":false,"rental_uris":{"android":"levelo://app?vid=b7d457f9-4801-42e6-a24b-eec75338f26e","ios":"levelo://app?vid=b7d457f9-4801-42e6-a24b-eec75338f26e"},"vehicle_type_id":"4","last_reported":1721754445,"current_range_meters":20800,"station_id":"ce4bhbh2rcd13ifvqepg","pricing_plan_id":"cebpf4jnsgd1na2vs0mg"},{"bike_id":"33f9837b-f2c9-49e8-b620-d26ddf78e927","system_id":"levelo_inurba_marseille","lat":43.28421,"lon":5.34992,"is_reserved":false,"is_disabled":false,"rental_uris":{"android":"levelo://app?vid=33f9837b-f2c9-49e8-b620-d26ddf78e927","ios":"levelo://app?vid=33f9837b-f2c9-49e8-b620-d26ddf78e927"},"vehicle_type_id":"4","last_reported":1721754445,"current_range_meters":19600,"station_id":"ce4bhbh2rcd13ifvqepg","pricing_plan_id":"cebpf4jnsgd1na2vs0mg"},{"bike_id":"91913c80-8e04-4899-b26a-539cbce49d56","system_id":"levelo_inurba_marseille","lat":43.28423,"lon":5.349847,"is_reserved":false,"is_disabled":false,"rental_uris":{"android":"levelo://app?vid=91913c80-8e04-4899-b26a-539cbce49d56","ios":"levelo://app?vid=91913c80-8e04-4899-b26a-539cbce49d56"},"vehicle_type_id":"4","last_reported":1721754445,"current_range_meters":30000,"station_id":"ce4bhbh2rcd13ifvqepg","pricing_plan_id":"cebpf4jnsgd1na2vs0mg"},{"bike_id":"683fab47-8e58-4381-a702-62cc06d56ed9","system_id":"levelo_inurba_marseille","lat":43.28424,"lon":5.34981,"is_reserved":false,"is_disabled":false,"rental_uris":{"android":"levelo://app?vid=683fab47-8e58-4381-a702-62cc06d56ed9","ios":"levelo://app?vid=683fab47-8e58-4381-a702-62cc06d56ed9"},"vehicle_type_id":"4","last_reported":1721754445,"current_range_meters":27600,"station_id":"ce4bhbh2rcd13ifvqepg","pricing_plan_id":"cebpf4jnsgd1na2vs0mg"},{"bike_id":"ce21b6f4-2e7b-4481-80be-e833af7d244c","system_id":"levelo_inurba_marseille","lat":43.284185,"lon":5.349976,"is_reserved":false,"is_disabled":false,"rental_uris":{"android":"levelo://app?vid=ce21b6f4-2e7b-4481-80be-e833af7d244c","ios":"levelo://app?vid=ce21b6f4-2e7b-4481-80be-e833af7d244c"},"vehicle_type_id":"4","last_reported":1721754445,"current_range_meters":27200,"station_id":"ce4bhbh2rcd13ifvqepg","pricing_plan_id":"cebpf4jnsgd1na2vs0mg"},{"bike_id":"abd9a76e-5027-4932-932e-5fe4426bdc97","system_id":"levelo_inurba_marseille","lat":43.284183,"lon":5.349979,"is_reserved":false,"is_disabled":false,"rental_uris":{"android":"levelo://app?vid=abd9a76e-5027-4932-932e-5fe4426bdc97","ios":"levelo://app?vid=abd9a76e-5027-4932-932e-5fe4426bdc97"},"vehicle_type_id":"4","last_reported":1721754445,"current_range_meters":8400,"station_id":"ce4bhbh2rcd13ifvqepg","pricing_plan_id":"cebpf4jnsgd1na2vs0mg"},{"bike_id":"3f27bb1d-1870-4ffa-a08e-0212e790b194","system_id":"levelo_inurba_marseille","lat":43.28417,"lon":5.349998,"is_reserved":false,"is_disabled":false,"rental_uris":{"android":"levelo://app?vid=3f27bb1d-1870-4ffa-a08e-0212e790b194","ios":"levelo://app?vid=3f27bb1d-1870-4ffa-a08e-0212e790b194"},"vehicle_type_id":"4","last_reported":1721754445,"current_range_meters":28000,"station_id":"ce4bhbh2rcd13ifvqepg","pricing_plan_id":"cebpf4jnsgd1na2vs0mg"},{"bike_id":"971c10ce-f70c-4874-a769-0235528d13ab","system_id":"levelo_inurba_marseille","lat":43.28419,"lon":5.34992,"is_reserved":false,"is_disabled":false,"rental_uris":{"android":"levelo://app?vid=971c10ce-f70c-4874-a769-0235528d13ab","ios":"levelo://app?vid=971c10ce-f70c-4874-a769-0235528d13ab"},"vehicle_type_id":"4","last_reported":1721754445,"current_range_meters":21600,"station_id":"ce4bhbh2rcd13ifvqepg","pricing_plan_id":"cebpf4jnsgd1na2vs0mg"},{"bike_id":"4835603a-2675-42a0-ba40-c2d5b0d1276f","system_id":"levelo_inurba_marseille","lat":43.28422,"lon":5.34981,"is_reserved":false,"is_disabled":false,"rental_uris":{"android":"levelo://app?vid=4835603a-2675-42a0-ba40-c2d5b0d1276f","ios":"levelo://app?vid=4835603a-2675-42a0-ba40-c2d5b0d1276f"},"vehicle_type_id":"4","last_reported":1721754445,"current_range_meters":0,"station_id":"ce4bhbh2rcd13ifvqepg","pricing_plan_id":"cebpf4jnsgd1na2vs0mg"},{"bike_id":"de83c384-f40e-430a-b258-4d85ec2428b7","system_id":"levelo_inurba_marseille","lat":43.28424,"lon":5.34974,"is_reserved":false,"is_disabled":false,"rental_uris":{"android":"levelo://app?vid=de83c384-f40e-430a-b258-4d85ec2428b7","ios":"levelo://app?vid=de83c384-f40e-430a-b258-4d85ec2428b7"},"vehicle_type_id":"4","last_reported":1721754445,"current_range_meters":20400,"station_id":"ce4bhbh2rcd13ifvqepg","pricing_plan_id":"cebpf4jnsgd1na2vs0mg"},{"bike_id":"292344be-e417-449e-91f9-6b3aa09812a5","system_id":"levelo_inurba_marseille","lat":43.28422,"lon":5.34979,"is_reserved":false,"is_disabled":false,"rental_uris":{"android":"levelo://app?vid=292344be-e417-449e-91f9-6b3aa09812a5","ios":"levelo://app?vid=292344be-e417-449e-91f9-6b3aa09812a5"},"vehicle_type_id":"4","last_reported":1721754445,"current_range_meters":13200,"station_id":"ce4bhbh2rcd13ifvqepg","pricing_plan_id":"cebpf4jnsgd1na2vs0mg"},{"bike_id":"b9e16e00-103b-4ebf-bfa2-19ffa364215c","system_id":"levelo_inurba_marseille","lat":43.284201,"lon":5.349849,"is_reserved":false,"is_disabled":false,"rental_uris":{"android":"levelo://app?vid=b9e16e00-103b-4ebf-bfa2-19ffa364215c","ios":"levelo://app?vid=b9e16e00-103b-4ebf-bfa2-19ffa364215c"},"vehicle_type_id":"4","last_reported":1721754445,"current_range_meters":31200,"station_id":"ce4bhbh2rcd13ifvqepg","pricing_plan_id":"cebpf4jnsgd1na2vs0mg"},{"bike_id":"66e377d2-2f63-4725-ac00-f3e608151cda","system_id":"levelo_inurba_marseille","lat":43.2842,"lon":5.34985,"is_reserved":false,"is_disabled":false,"rental_uris":{"android":"levelo://app?vid=66e377d2-2f63-4725-ac00-f3e608151cda","ios":"levelo://app?vid=66e377d2-2f63-4725-ac00-f3e608151cda"},"vehicle_type_id":"4","last_reported":1721754445,"current_range_meters":16400,"station_id":"ce4bhbh2rcd13ifvqepg","pricing_plan_id":"cebpf4jnsgd1na2vs0mg"},{"bike_id":"779375c4-7dc5-4e62-815e-785328f4610e","system_id":"levelo_inurba_marseille","lat":43.284168,"lon":5.349945,"is_reserved":false,"is_disabled":false,"rental_uris":{"android":"levelo://app?vid=779375c4-7dc5-4e62-815e-785328f4610e","ios":"levelo://app?vid=779375c4-7dc5-4e62-815e-785328f4610e"},"vehicle_type_id":"4","last_reported":1721754445,"current_range_meters":30800,"station_id":"ce4bhbh2rcd13ifvqepg","pricing_plan_id":"cebpf4jnsgd1na2vs0mg"},{"bike_id":"94ead724-32a2-49e5-a0ef-ef0d43c2e125","system_id":"levelo_inurba_marseille","lat":43.284204,"lon":5.349831,"is_reserved":false,"is_disabled":false,"rental_uris":{"android":"levelo://app?vid=94ead724-32a2-49e5-a0ef-ef0d43c2e125","ios":"levelo://app?vid=94ead724-32a2-49e5-a0ef-ef0d43c2e125"},"vehicle_type_id":"4","last_reported":1721754445,"current_range_meters":19200,"station_id":"ce4bhbh2rcd13ifvqepg","pricing_plan_id":"cebpf4jnsgd1na2vs0mg"},{"bike_id":"65b66301-2f90-4249-8063-a569d19683b4","system_id":"levelo_inurba_marseille","lat":43.284176,"lon":5.34991,"is_reserved":false,"is_disabled":false,"rental_uris":{"android":"levelo://app?vid=65b66301-2f90-4249-8063-a569d19683b4","ios":"levelo://app?vid=65b66301-2f90-4249-8063-a569d19683b4"},"vehicle_type_id":"4","last_reported":1721754445,"current_range_meters":10000,"station_id":"ce4bhbh2rcd13ifvqepg","pricing_plan_id":"cebpf4jnsgd1na2vs0mg"},{"bike_id":"466381a9-b55a-4121-b9f8-2e8ec6db3e76","system_id":"levelo_inurba_marseille","lat":43.28416,"lon":5.34994,"is_reserved":false,"is_disabled":false,"rental_uris":{"android":"levelo://app?vid=466381a9-b55a-4121-b9f8-2e8ec6db3e76","ios":"levelo://app?vid=466381a9-b55a-4121-b9f8-2e8ec6db3e76"},"vehicle_type_id":"4","last_reported":1721754445,"current_range_meters":2000,"station_id":"ce4bhbh2rcd13ifvqepg","pricing_plan_id":"cebpf4jnsgd1na2vs0mg"},{"bike_id":"4fa0505e-8db3-492b-9b18-b4cdba3b5f6d","system_id":"levelo_inurba_marseille","lat":43.294533,"lon":5.401642,"is_reserved":false,"is_disabled":false,"rental_uris":{"android":"levelo://app?vid=4fa0505e-8db3-492b-9b18-b4cdba3b5f6d","ios":"levelo://app?vid=4fa0505e-8db3-492b-9b18-b4cdba3b5f6d"},"vehicle_type_id":"4","last_reported":1721754445,"current_range_meters":0,"station_id":"","pricing_plan_id":"cebpf4jnsgd1na2vs0mg"},{"bike_id":"0e46a4d1-5e35-4336-8415-4c403d04c291","system_id":"levelo_inurba_marseille","lat":43.28424,"lon":5.349663,"is_reserved":false,"is_disabled":false,"rental_uris":{"android":"levelo://app?vid=0e46a4d1-5e35-4336-8415-4c403d04c291","ios":"levelo://app?vid=0e46a4d1-5e35-4336-8415-4c403d04c291"},"vehicle_type_id":"4","last_reported":1721754445,"current_range_meters":30000,"station_id":"ce4bhbh2rcd13ifvqepg","pricing_plan_id":"cebpf4jnsgd1na2vs0mg"},{"bike_id":"5fc8e8d7-5cc9-492a-ad24-9606f3b88df0","system_id":"levelo_inurba_marseille","lat":43.284214,"lon":5.349706,"is_reserved":false,"is_disabled":false,"rental_uris":{"android":"levelo://app?vid=5fc8e8d7-5cc9-492a-ad24-9606f3b88df0","ios":"levelo://app?vid=5fc8e8d7-5cc9-492a-ad24-9606f3b88df0"},"vehicle_type_id":"4","last_reported":1721754445,"current_range_meters":24400,"station_id":"ce4bhbh2rcd13ifvqepg","pricing_plan_id":"cebpf4jnsgd1na2vs0mg"},{"bike_id":"a1a3f8ae-0d77-4d82-b753-0933a6527657","system_id":"levelo_inurba_marseille","lat":43.28421,"lon":5.34973,"is_reserved":false,"is_disabled":false,"rental_uris":{"android":"levelo://app?vid=a1a3f8ae-0d77-4d82-b753-0933a6527657","ios":"levelo://app?vid=a1a3f8ae-0d77-4d82-b753-0933a6527657"},"vehicle_type_id":"4","last_reported":1721754445,"current_range_meters":8400,"station_id":"ce4bhbh2rcd13ifvqepg","pricing_plan_id":"cebpf4jnsgd1na2vs0mg"},{"bike_id":"d42dda03-7cbc-44ef-91f1-d4c810bbe8f8","system_id":"levelo_inurba_marseille","lat":43.28419,"lon":5.34979,"is_reserved":false,"is_disabled":false,"rental_uris":{"android":"levelo://app?vid=d42dda03-7cbc-44ef-91f1-d4c810bbe8f8","ios":"levelo://app?vid=d42dda03-7cbc-44ef-91f1-d4c810bbe8f8"},"vehicle_type_id":"4","last_reported":1721754445,"current_range_meters":24800,"station_id":"ce4bhbh2rcd13ifvqepg","pricing_plan_id":"cebpf4jnsgd1na2vs0mg"},{"bike_id":"8e89fbe0-2919-4dcd-a662-7eaa597307ee","system_id":"levelo_inurba_marseille","lat":43.284149,"lon":5.349906,"is_reserved":false,"is_disabled":false,"rental_uris":{"android":"levelo://app?vid=8e89fbe0-2919-4dcd-a662-7eaa597307ee","ios":"levelo://app?vid=8e89fbe0-2919-4dcd-a662-7eaa597307ee"},"vehicle_type_id":"4","last_reported":1721754445,"current_range_meters":31200,"station_id":"ce4bhbh2rcd13ifvqepg","pricing_plan_id":"cebpf4jnsgd1na2vs0mg"},{"bike_id":"10d0dd55-690c-4e02-83ff-6dd824c35ff4","system_id":"levelo_inurba_marseille","lat":43.284125,"lon":5.349962,"is_reserved":false,"is_disabled":false,"rental_uris":{"android":"levelo://app?vid=10d0dd55-690c-4e02-83ff-6dd824c35ff4","ios":"levelo://app?vid=10d0dd55-690c-4e02-83ff-6dd824c35ff4"},"vehicle_type_id":"4","last_reported":1721754445,"current_range_meters":30400,"station_id":"ce4bhbh2rcd13ifvqepg","pricing_plan_id":"cebpf4jnsgd1na2vs0mg"},{"bike_id":"347fb177-7a64-4cae-9eb7-adfbd98a8052","system_id":"levelo_inurba_marseille","lat":43.284166,"lon":5.349831,"is_reserved":false,"is_disabled":false,"rental_uris":{"android":"levelo://app?vid=347fb177-7a64-4cae-9eb7-adfbd98a8052","ios":"levelo://app?vid=347fb177-7a64-4cae-9eb7-adfbd98a8052"},"vehicle_type_id":"4","last_reported":1721754445,"current_range_meters":22400,"station_id":"ce4bhbh2rcd13ifvqepg","pricing_plan_id":"cebpf4jnsgd1na2vs0mg"},{"bike_id":"6f7cf429-a9e7-4e75-a22c-bd922029e564","system_id":"levelo_inurba_marseille","lat":43.284214,"lon":5.349706,"is_reserved":false,"is_disabled":false,"rental_uris":{"android":"levelo://app?vid=6f7cf429-a9e7-4e75-a22c-bd922029e564","ios":"levelo://app?vid=6f7cf429-a9e7-4e75-a22c-bd922029e564"},"vehicle_type_id":"4","last_reported":1721754445,"current_range_meters":28800,"station_id":"ce4bhbh2rcd13ifvqepg","pricing_plan_id":"cebpf4jnsgd1na2vs0mg"},{"bike_id":"5edcbb99-3b8a-4943-a1ad-8ce7223c5299","system_id":"levelo_inurba_marseille","lat":43.28412,"lon":5.34994,"is_reserved":false,"is_disabled":false,"rental_uris":{"android":"levelo://app?vid=5edcbb99-3b8a-4943-a1ad-8ce7223c5299","ios":"levelo://app?vid=5edcbb99-3b8a-4943-a1ad-8ce7223c5299"},"vehicle_type_id":"4","last_reported":1721754445,"current_range_meters":30800,"station_id":"ce4bhbh2rcd13ifvqepg","pricing_plan_id":"cebpf4jnsgd1na2vs0mg"},{"bike_id":"dc7d1e86-33e5-4264-ba9a-03d5068cc1de","system_id":"levelo_inurba_marseille","lat":43.284214,"lon":5.349706,"is_reserved":false,"is_disabled":false,"rental_uris":{"android":"levelo://app?vid=dc7d1e86-33e5-4264-ba9a-03d5068cc1de","ios":"levelo://app?vid=dc7d1e86-33e5-4264-ba9a-03d5068cc1de"},"vehicle_type_id":"4","last_reported":1721754445,"current_range_meters":21600,"station_id":"ce4bhbh2rcd13ifvqepg","pricing_plan_id":"cebpf4jnsgd1na2vs0mg"},{"bike_id":"a0f37e8c-03c4-4fd8-be74-7a89e3c567f7","system_id":"levelo_inurba_marseille","lat":43.28415,"lon":5.34983,"is_reserved":false,"is_disabled":false,"rental_uris":{"android":"levelo://app?vid=a0f37e8c-03c4-4fd8-be74-7a89e3c567f7","ios":"levelo://app?vid=a0f37e8c-03c4-4fd8-be74-7a89e3c567f7"},"vehicle_type_id":"4","last_reported":1721754445,"current_range_meters":31200,"station_id":"ce4bhbh2rcd13ifvqepg","pricing_plan_id":"cebpf4jnsgd1na2vs0mg"},{"bike_id":"abae9322-ba2a-4606-9ff7-5d84faec23e0","system_id":"levelo_inurba_marseille","lat":43.284174,"lon":5.349752,"is_reserved":false,"is_disabled":false,"rental_uris":{"android":"levelo://app?vid=abae9322-ba2a-4606-9ff7-5d84faec23e0","ios":"levelo://app?vid=abae9322-ba2a-4606-9ff7-5d84faec23e0"},"vehicle_type_id":"4","last_reported":1721754445,"current_range_meters":8000,"station_id":"ce4bhbh2rcd13ifvqepg","pricing_plan_id":"cebpf4jnsgd1na2vs0mg"},{"bike_id":"28397485-7eee-457f-be97-a121543889f3","system_id":"levelo_inurba_marseille","lat":43.284217,"lon":5.349697,"is_reserved":false,"is_disabled":false,"rental_uris":{"android":"levelo://app?vid=28397485-7eee-457f-be97-a121543889f3","ios":"levelo://app?vid=28397485-7eee-457f-be97-a121543889f3"},"vehicle_type_id":"4","last_reported":1721754445,"current_range_meters":31200,"station_id":"ce4bhbh2rcd13ifvqepg","pricing_plan_id":"cebpf4jnsgd1na2vs0mg"},