{"last_updated":1735891917,"ttl":60,"version":"2.2","data":{"bikes":[{"bike_id":"1828231b-04b5-40c3-bd54-4de58633ae39","system_id":"levelo_inurba_marseille","lat":43.32518,"lon":5.37397,"is_reserved":false,"is_disabled":false,"rental_uris":{"android":"levelo://app?vid=1828231b-04b5-40c3-bd54-4de58633ae39","ios":"levelo://app?vid=1828231b-04b5-40c3-bd54-4de58633ae39"},"vehicle_type_id":"4","last_reported":1735891917,"current_range_meters":34800,"station_id":"","pricing_plan_id":"cebpf4jnsgd1na2vs0mg"},{"bike_id":"6d385c51-096d-4e1f-b9dc-fad4b4c50116","system_id":"levelo_inurba_marseille","lat":43.34138,"lon":5.40895,"is_reserved":false,"is_disabled":false,"rental_uris":{"android":"levelo://app?vid=6d385c51-096d-4e1f-b9dc-fad4b4c50116","ios":"levelo://app?vid=6d385c51-096d-4e1f-b9dc-fad4b4c50116"},"vehicle_type_id":"4","last_reported":1735891917,"current_range_meters":38800,"station_id":"ce4bhqh2rcd13ifvqhlg","pricing_plan_id":"cebpf4jnsgd1na2vs0mg"},{"bike_id":"172ccd61-d49f-41ee-9d70-c90aa70835fe","system_id":"levelo_inurba_marseille","lat":43.274384,"lon":5.394091,"is_reserved":false,"is_disabled":false,"rental_uris":{"android":"levelo://app?vid=172ccd61-d49f-41ee-9d70-c90aa70835fe","ios":"levelo://app?vid=172ccd61-d49f-41ee-9d70-c90aa70835fe"},"vehicle_type_id":"4","last_reported":1735891917,"current_range_meters":30800,"station_id":"ce4bhdp2rcd13ifvqf20","pricing_plan_id":"cebpf4jnsgd1na2vs0mg"},{"bike_id":"75cf0a89-a2f4-4a2b-9cf3-3786e56fc764","system_id":"levelo_inurba_marseille","lat":43.33763,"lon":5.37442,"is_reserved":false,"is_disabled":false,"rental_uris":{"android":"levelo://app?vid=75cf0a89-a2f4-4a2b-9cf3-3786e56fc764","ios":"levelo://app?vid=75cf0a89-a2f4-4a2b-9cf3-3786e56fc764"},"vehicle_type_id":"4","last_reported":1735891917,"current_range_meters":29600,"station_id":"","pricing_plan_id":"cebpf4jnsgd1na2vs0mg"},{"bike_id":"3042dbc1-c819-4040-80d9-b25d524d5dea","system_id":"levelo_inurba_marseille","lat":43.284784,"lon":5.384294,"is_reserved":false,"is_disabled":false,"rental_uris":{"android":"levelo://app?vid=3042dbc1-c819-4040-80d9-b25d524d5dea","ios":"levelo://app?vid=3042dbc1-c819-4040-80d9-b25d524d5dea"},"vehicle_type_id":"4","last_reported":1735891917,"current_range_meters":38400,"station_id":"ce4bh512rcd13ifvqe3g","pricing_plan_id":"cebpf4jnsgd1na2vs0mg"},{"bike_id":"27e2e931-efb9-4e2f-be67-8266e417c4e2","system_id":"levelo_inurba_marseille","lat":43.31545,"lon":5.3802,"is_reserved":false,"is_disabled":false,"rental_uris":{"android":"levelo://app?vid=27e2e931-efb9-4e2f-be67-8266e417c4e2","ios":"levelo://app?vid=27e2e931-efb9-4e2f-be67-8266e417c4e2"},"vehicle_type_id":"4","last_reported":1735891917,"current_range_meters":30400,"station_id":"ce4bhsp2rcd13ifvqi50","pricing_plan_id":"cebpf4jnsgd1na2vs0mg"},{"bike_id":"a95f7a4f-b106-47fb-b884-a0e3c27f8867","system_id":"levelo_inurba_marseille","lat":43.2885,"lon":5.39329,"is_reserved":false,"is_disabled":true,"rental_uris":{"android":"levelo://app?vid=a95f7a4f-b106-47fb-b884-a0e3c27f8867","ios":"levelo://app?vid=a95f7a4f-b106-47fb-b884-a0e3c27f8867"},"vehicle_type_id":"4","last_reported":1735891917,"current_range_meters":800,"station_id":"ce4bh2p2rcd13ifvqdi0","pricing_plan_id":"cebpf4jnsgd1na2vs0mg"},{"bike_id":"83cf3ed5-c352-4a39-821d-1f7d95dea627","system_id":"levelo_inurba_marseille","lat":43.25583,"lon":5.38234,"is_reserved":false,"is_disabled":false,"rental_uris":{"android":"levelo://app?vid=83cf3ed5-c352-4a39-821d-1f7d95dea627","ios":"levelo://app?vid=83cf3ed5-c352-4a39-821d-1f7d95dea627"},"vehicle_type_id":"4","last_reported":1735891917,"current_range_meters":23200,"station_id":"ce4bhih2rcd13ifvqfs0","pricing_plan_id":"cebpf4jnsgd1na2vs0mg"},{"bike_id":"0f453fb7-3f08-4636-922c-a01a14218d99","system_id":"levelo_inurba_marseille","lat":43.29955,"lon":5.41317,"is_reserved":false,"is_disabled":false,"rental_uris":{"android":"levelo://app?vid=0f453fb7-3f08-4636-922c-a01a14218d99","ios":"levelo://app?vid=0f453fb7-3f08-4636-922c-a01a14218d99"},"vehicle_type_id":"4","last_reported":1735891917,"current_range_meters":37600,"station_id":"ce4bhp12rcd13ifvqh9g","pricing_plan_id":"cebpf4jnsgd1na2vs0mg"},{"bike_id":"1113b2b6-0da6-44b4-baac-2646c8bc2994","system_id":"levelo_inurba_marseille","lat":43.30306,"lon":5.36891,"is_reserved":false,"is_disabled":false,"rental_uris":{"android":"levelo://app?vid=1113b2b6-0da6-44b4-baac-2646c8bc2994","ios":"levelo://app?vid=1113b2b6-0da6-44b4-baac-2646c8bc2994"},"vehicle_type_id":"4","last_reported":1735891917,"current_range_meters":30000,"station_id":"ce4bgqh2rcd13ifvqc5g","pricing_plan_id":"cebpf4jnsgd1na2vs0mg"},{"bike_id":"c5f1ebc9-c7b3-480d-9f5a-465741babe42","system_id":"levelo_inurba_marseille","lat":43.23184,"lon":5.39953,"is_reserved":false,"is_disabled":false,"rental_uris":{"android":"levelo://app?vid=c5f1ebc9-c7b3-480d-9f5a-465741babe42","ios":"levelo://app?vid=c5f1ebc9-c7b3-480d-9f5a-465741babe42"},"vehicle_type_id":"4","last_reported":1735891917,"current_range_meters":11200,"station_id":"","pricing_plan_id":"cebpf4jnsgd1na2vs0mg"},{"bike_id":"76f0fd63-f178-4d5f-bda4-6962e6a31d92","system_id":"levelo_inurba_marseille","lat":43.29021,"lon":5.38136,"is_reserved":false,"is_disabled":false,"rental_uris":{"android":"levelo://app?vid=76f0fd63-f178-4d5f-bda4-6962e6a31d92","ios":"levelo://app?vid=76f0fd63-f178-4d5f-bda4-6962e6a31d92"},"vehicle_type_id":"4","last_reported":1735891917,"current_range_meters":24800,"station_id":"ce4bh4p2rcd13ifvqe1g","pricing_plan_id":"cebpf4jnsgd1na2vs0mg"},{"bike_id":"0cc226b6-5f36-4e90-9e5b-497bf45d78e0","system_id":"levelo_inurba_marseille","lat":43.28009,"lon":5.40002,"is_reserved":false,"is_disabled":false,"rental_uris":{"android":"levelo://app?vid=0cc226b6-5f36-4e90-9e5b-497bf45d78e0","ios":"levelo://app?vid=0cc226b6-5f36-4e90-9e5b-497bf45d78e0"},"vehicle_type_id":"4","last_reported":1735891917,"current_range_meters":3600,"station_id":"ce4bho92rcd13ifvqh4g","pricing_plan_id":"cebpf4jnsgd1na2vs0mg"},{"bike_id":"8b902440-a132-4276-a4e5-f9d3851d429d","system_id":"levelo_inurba_marseille","lat":43.28498,"lon":5.38546,"is_reserved":false,"is_disabled":false,"rental_uris":{"android":"levelo://app?vid=8b902440-a132-4276-a4e5-f9d3851d429d","ios":"levelo://app?vid=8b902440-a132-4276-a4e5-f9d3851d429d"},"vehicle_type_id":"4","last_reported":1735891917,"current_range_meters":39200,"station_id":"ce4bh8p2rcd13ifvqeb0","pricing_plan_id":"cebpf4jnsgd1na2vs0mg"},{"bike_id":"7fe488eb-12c8-4e00-91f1-2c46d8f6d979","system_id":"levelo_inurba_marseille","lat":43.28466,"lon":5.35875,"is_reserved":false,"is_disabled":false,"rental_uris":{"android":"levelo://app?vid=7fe488eb-12c8-4e00-91f1-2c46d8f6d979","ios":"levelo://app?vid=7fe488eb-12c8-4e00-91f1-2c46d8f6d979"},"vehicle_type_id":"4","last_reported":1735891917,"current_range_meters":38800,"station_id":"ce4bhah2rcd13ifvqei0","pricing_plan_id":"cebpf4jnsgd1na2vs0mg"},{"bike_id":"116f92ae-65b4-4f7c-a23b-1117c0a69b33","system_id":"levelo_inurba_marseille","lat":43.28621,"lon":5.3509,"is_reserved":false,"is_disabled":false,"rental_uris":{"android":"levelo://app?vid=116f92ae-65b4-4f7c-a23b-1117c0a69b33","ios":"levelo://app?vid=116f92ae-65b4-4f7c-a23b-1117c0a69b33"},"vehicle_type_id":"4","last_reported":1735891917,"current_range_meters":28000,"station_id":"ce4bhch2rcd13ifvqeug","pricing_plan_id":"cebpf4jnsgd1na2vs0mg"},{"bike_id":"cf9371cf-b4a6-4f3a-92f4-f898ea85e696","system_id":"levelo_inurba_marseille","lat":43.25583,"lon":5.38226,"is_reserved":false,"is_disabled":false,"rental_uris":{"android":"levelo://app?vid=cf9371cf-b4a6-4f3a-92f4-f898ea85e696","ios":"levelo://app?vid=cf9371cf-b4a6-4f3a-92f4-f898ea85e696"},"vehicle_type_id":"4","last_reported":1735891917,"current_range_meters":7200,"station_id":"ce4bhih2rcd13ifvqfs0","pricing_plan_id":"cebpf4jnsgd1na2vs0mg"},{"bike_id":"2b8ea8a9-0690-406c-a433-e73cfed24c7d","system_id":"levelo_inurba_marseille","lat":43.27813,"lon":5.40707,"is_reserved":false,"is_disabled":false,"rental_uris":{"android":"levelo://app?vid=2b8ea8a9-0690-406c-a433-e73cfed24c7d","ios":"levelo://app?vid=2b8ea8a9-0690-406c-a433-e73cfed24c7d"},"vehicle_type_id":"4","last_reported":1735891917,"current_range_meters":35600,"station_id":"ce4bhnh2rcd13ifvqgtg","pricing_plan_id":"cebpf4jnsgd1na2vs0mg"},{"bike_id":"24ca3e2f-64a4-4b53-bdba-00c6e98625d8","system_id":"levelo_inurba_marseille","lat":43.29709,"lon":5.37749,"is_reserved":false,"is_disabled":false,"rental_uris":{"android":"levelo://app?vid=24ca3e2f-64a4-4b53-bdba-00c6e98625d8","ios":"levelo://app?vid=24ca3e2f-64a4-4b53-bdba-00c6e98625d8"},"vehicle_type_id":"4","last_reported":1735891917,"current_range_meters":38800,"station_id":"ce4bgkh2rcd13ifvqbl0","pricing_plan_id":"cebpf4jnsgd1na2vs0mg"},{"bike_id":"89867fc5-aa88-4405-8a4b-15ec23d678bc","system_id":"levelo_inurba_marseille","lat":43.30128,"lon":5.3987,"is_reserved":false,"is_disabled":false,"rental_uris":{"android":"levelo://app?vid=89867fc5-aa88-4405-8a4b-15ec23d678bc","ios":"levelo://app?vid=89867fc5-aa88-4405-8a4b-15ec23d678bc"},"vehicle_type_id":"4","last_reported":1735891917,"current_range_meters":20400,"station_id":"ce4bh0h2rcd13ifvqd40","pricing_plan_id":"cebpf4jnsgd1na2vs0mg"},{"bike_id":"76d392c8-6dd4-4fbf-b626-27c2990c047b","system_id":"levelo_inurba_marseille","lat":43.281624,"lon":5.428104,"is_reserved":false,"is_disabled":false,"rental_uris":{"android":"levelo://app?vid=76d392c8-6dd4-4fbf-b626-27c2990c047b","ios":"levelo://app?vid=76d392c8-6dd4-4fbf-b626-27c2990c047b"},"vehicle_type_id":"4","last_reported":1735891917,"current_range_meters":20000,"station_id":"","pricing_plan_id":"cebpf4jnsgd1na2vs0mg"},{"bike_id":"ebb56956-e2e2-4f51-8f7a-80ccc26c078c","system_id":"levelo_inurba_marseille","lat":43.28147,"lon":5.42629,"is_reserved":false,"is_disabled":false,"rental_uris":{"android":"levelo://app?vid=ebb56956-e2e2-4f51-8f7a-80ccc26c078c","ios":"levelo://app?vid=ebb56956-e2e2-4f51-8f7a-80ccc26c078c"},"vehicle_type_id":"4","last_reported":1735891917,"current_range_meters":32000,"station_id":"ce4bhnh2rcd13ifvqgug","pricing_plan_id":"cebpf4jnsgd1na2vs0mg"},{"bike_id":"449e9d0f-fb13-4908-913f-2d43c33e9c78","system_id":"levelo_inurba_marseille","lat":43.33607,"lon":5.41013,"is_reserved":false,"is_disabled":false,"rental_uris":{"android":"levelo://app?vid=449e9d0f-fb13-4908-913f-2d43c33e9c78","ios":"levelo://app?vid=449e9d0f-fb13-4908-913f-2d43c33e9c78"},"vehicle_type_id":"4","last_reported":1735891917,"current_range_meters":38800,"station_id":"ce4bhqh2rcd13ifvqhmg","pricing_plan_id":"cebpf4jnsgd1na2vs0mg"},{"bike_id":"2b7188e7-1fb2-4955-a6cb-a0e00d15fce0","system_id":"levelo_inurba_marseille","lat":43.25106,"lon":5.40331,"is_reserved":false,"is_disabled":false,"rental_uris":{"android":"levelo://app?vid=2b7188e7-1fb2-4955-a6cb-a0e00d15fce0","ios":"levelo://app?vid=2b7188e7-1fb2-4955-a6cb-a0e00d15fce0"},"vehicle_type_id":"4","last_reported":1735891917,"current_range_meters":3600,"station_id":"ce4bhlh2rcd13ifvqgig","pricing_plan_id":"cebpf4jnsgd1na2vs0mg"},{"bike_id":"24e02238-d92f-424f-8b72-85c062a83bbe","system_id":"levelo_inurba_marseille","lat":43.27676,"lon":5.38875,"is_reserved":false,"is_disabled":false,"rental_uris":{"android":"levelo://app?vid=24e02238-d92f-424f-8b72-85c062a83bbe","ios":"levelo://app?vid=24e02238-d92f-424f-8b72-85c062a83bbe"},"vehicle_type_id":"4","last_reported":1735891917,"current_range_meters":38400,"station_id":"ce4bhi12rcd13ifvqfo0","pricing_plan_id":"cebpf4jnsgd1na2vs0mg"},{"bike_id":"cb41729f-f8b5-46fd-b11b-2f25f57d2997","system_id":"levelo_inurba_marseille","lat":43.248133,"lon":5.374561,"is_reserved":false,"is_disabled":true,"rental_uris":{"android":"levelo://app?vid=cb41729f-f8b5-46fd-b11b-2f25f57d2997","ios":"levelo://app?vid=cb41729f-f8b5-46fd-b11b-2f25f57d2997"},"vehicle_type_id":"4","last_reported":1735891917,"current_range_meters":34000,"station_id":"ce4bhgh2rcd13ifvqfb0","pricing_plan_id":"cebpf4jnsgd1na2vs0mg"},{"bike_id":"97717a3a-5240-48fe-b29e-9e7f0d2b5fba","system_id":"levelo_inurba_marseille","lat":43.31711,"lon":5.4369,"is_reserved":false,"is_disabled":false,"rental_uris":{"android":"levelo://app?vid=97717a3a-5240-48fe-b29e-9e7f0d2b5fba","ios":"levelo://app?vid=97717a3a-5240-48fe-b29e-9e7f0d2b5fba"},"vehicle_type_id":"4","last_reported":1735891917,"current_range_meters":38800,"station_id":"ce4bhp92rcd13ifvqhcg","pricing_plan_id":"cebpf4jnsgd1na2vs0mg"},{"bike_id":"5d865555-208b-4721-b409-05c99fee75d8","system_id":"levelo_inurba_marseille","lat":43.31336,"lon":5.36724,"is_reserved":false,"is_disabled":false,"rental_uris":{"android":"levelo://app?vid=5d865555-208b-4721-b409-05c99fee75d8","ios":"levelo://app?vid=5d865555-208b-4721-b409-05c99fee75d8"},"vehicle_type_id":"4","last_reported":1735891917,"current_range_meters":12400,"station_id":"ce4bgr92rcd13ifvqc6g","pricing_plan_id":"cebpf4jnsgd1na2vs0mg"},{"bike_id":"b4fe4e0c-5b03-4373-9ca0-6f8f6eef3ef1","system_id":"levelo_inurba_marseille","lat":43.24156,"lon":5.36404,"is_reserved":false,"is_disabled":false,"rental_uris":{"android":"levelo://app?vid=b4fe4e0c-5b03-4373-9ca0-6f8f6eef3ef1","ios":"levelo://app?vid=b4fe4e0c-5b03-4373-9ca0-6f8f6eef3ef1"},"vehicle_type_id":"4","last_reported":1735891917,"current_range_meters":10800,"station_id":"cpo36qri1sfpv3e86is0","pricing_plan_id":"cebpf4jnsgd1na2vs0mg"},{"bike_id":"326ba597-2f41-4f94-a6d7-b83bc4801538","system_id":"levelo_inurba_marseille","lat":43.27813,"lon":5.40704,"is_reserved":false,"is_disabled":false,"rental_uris":{"android":"levelo://app?vid=326ba597-2f41-4f94-a6d7-b83bc4801538","ios":"levelo://app?vid=326ba597-2f41-4f94-a6d7-b83bc4801538"},"vehicle_type_id":"4","last_reported":1735891917,"current_range_meters":6400,"station_id":"ce4bhnh2rcd13ifvqgtg","pricing_plan_id":"cebpf4jnsgd1na2vs0mg"},{"bike_id":"6acc676b-8bbc-455e-a2a0-369d88715ceb","system_id":"levelo_inurba_marseille","lat":43.28703,"lon":5.39976,"is_reserved":false,"is_disabled":false,"rental_uris":{"android":"levelo://app?vid=6acc676b-8bbc-455e-a2a0-369d88715ceb","ios":"levelo://app?vid=6acc676b-8bbc-455e-a2a0-369d88715ceb"},"vehicle_type_id":"4","last_reported":1735891917,"current_range_meters":36400,"station_id":"ce4bho92rcd13ifvqh3g","pricing_plan_id":"cebpf4jnsgd1na2vs0mg"},{"bike_id":"7ffb669c-b38f-42bc-a47b-5d475db6a48b","system_id":"levelo_inurba_marseille","lat":43.295367,"lon":5.385571,"is_reserved":false,"is_disabled":false,"rental_uris":{"android":"levelo://app?vid=7ffb669c-b38f-42bc-a47b-5d475db6a48b","ios":"levelo://app?vid=7ffb669c-b38f-42bc-a47b-5d475db6a48b"},"vehicle_type_id":"4","last_reported":1735891917,"current_range_meters":12000,"station_id":"ce4bgih2rcd13ifvqba0","pricing_plan_id":"cebpf4jnsgd1na2vs0mg"},{"bike_id":"b2743abc-aaf4-4c7d-bfb9-41bdb1d0b066","system_id":"levelo_inurba_marseille","lat":43.280054,"lon":5.394713,"is_reserved":false,"is_disabled":false,"rental_uris":{"android":"levelo://app?vid=b2743abc-aaf4-4c7d-bfb9-41bdb1d0b066","ios":"levelo://app?vid=b2743abc-aaf4-4c7d-bfb9-41bdb1d0b066"},"vehicle_type_id":"4","last_reported":1735891917,"current_range_meters":30000,"station_id":"ce4bh4p2rcd13ifvqe1g","pricing_plan_id":"cebpf4jnsgd1na2vs0mg"},{"bike_id":"106378a8-6245-4d66-b6d9-d0fd3253675c","system_id":"levelo_inurba_marseille","lat":43.30118,"lon":5.39847,"is_reserved":false,"is_disabled":false,"rental_uris":{"android":"levelo://app?vid=106378a8-6245-4d66-b6d9-d0fd3253675c","ios":"levelo://app?vid=106378a8-6245-4d66-b6d9-d0fd3253675c"},"vehicle_type_id":"4","last_reported":1735891917,"current_range_meters":33600,"station_id":"ce4bh0h2rcd13ifvqd40","pricing_plan_id":"cebpf4jnsgd1na2vs0mg"},{"bike_id":"4a1ad4c0-f6d8-4f02-a755-37ff4cc1ad61","system_id":"levelo_inurba_marseille","lat":43.25824,"lon":5.39431,"is_reserved":false,"is_disabled":false,"rental_uris":{"android":"levelo://app?vid=4a1ad4c0-f6d8-4f02-a755-37ff4cc1ad61","ios":"levelo://app?vid=4a1ad4c0-f6d8-4f02-a755-37ff4cc1ad61"},"vehicle_type_id":"4","last_reported":1735891917,"current_range_meters":38000,"station_id":"ce4bhip2rcd13ifvqft0","pricing_plan_id":"cebpf4jnsgd1na2vs0mg"},{"bike_id":"f42e7863-652c-4650-920a-8ae4567b98da","system_id":"levelo_inurba_marseille","lat":43.3236,"lon":5.38882,"is_reserved":false,"is_disabled":false,"rental_uris":{"android":"levelo://app?vid=f42e7863-652c-4650-920a-8ae4567b98da","ios":"levelo://app?vid=f42e7863-652c-4650-920a-8ae4567b98da"},"vehicle_type_id":"4","last_reported":1735891917,"current_range_meters":14000,"station_id":"ce4bhqp2rcd13ifvqhog","pricing_plan_id":"cebpf4jnsgd1na2vs0mg"},{"bike_id":"1edca33b-8d82-4613-945e-057a682428fe","system_id":"levelo_inurba_marseille","lat":43.33127,"lon":5.38221,"is_reserved":false,"is_disabled":false,"rental_uris":{"android":"levelo://app?vid=1edca33b-8d82-4613-945e-057a682428fe","ios":"levelo://app?vid=1edca33b-8d82-4613-945e-057a682428fe"},"vehicle_type_id":"4","last_reported":1735891917,"current_range_meters":35200,"station_id":"","pricing_plan_id":"cebpf4jnsgd1na2vs0mg"},{"bike_id":"90be4ecf-e9e3-49e6-8acd-ca50a85b4085","system_id":"levelo_inurba_marseille","lat":43.31215,"lon":5.36883,"is_reserved":false,"is_disabled":true,"rental_uris":{"android":"levelo://app?vid=90be4ecf-e9e3-49e6-8acd-ca50a85b4085","ios":"levelo://app?vid=90be4ecf-e9e3-49e6-8acd-ca50a85b4085"},"vehicle_type_id":"4","last_reported":1735891917,"current_range_meters":24000,"station_id":"ce4bgl92rcd13ifvqbq0","pricing_plan_id":"cebpf4jnsgd1na2vs0mg"},{"bike_id":"bcc47b98-405a-4d86-8e5f-bbe262abbd0d","system_id":"levelo_inurba_marseille","lat":43.32121,"lon":5.36755,"is_reserved":false,"is_disabled":false,"rental_uris":{"android":"levelo://app?vid=bcc47b98-405a-4d86-8e5f-bbe262abbd0d","ios":"levelo://app?vid=bcc47b98-405a-4d86-8e5f-bbe262abbd0d"},"vehicle_type_id":"4","last_reported":1735891917,"current_range_meters":27200,"station_id":"ce4bhrh2rcd13ifvqhug","pricing_plan_id":"cebpf4jnsgd1na2vs0mg"},{"bike_id":"4ff02992-46d1-4939-b33e-7e9de4ef7281","system_id":"levelo_inurba_marseille","lat":43.25823,"lon":5.39418,"is_reserved":false,"is_disabled":false,"rental_uris":{"android":"levelo://app?vid=4ff02992-46d1-4939-b33e-7e9de4ef7281","ios":"levelo://app?vid=4ff02992-46d1-4939-b33e-7e9de4ef7281"},"vehicle_type_id":"4","last_reported":1735891917,"current_range_meters":28000,"station_id":"ce4bhip2rcd13ifvqft0","pricing_plan_id":"cebpf4jnsgd1na2vs0mg"},{"bike_id":"a9729bac-b14c-4f28-bb26-3ce80633fcc6","system_id":"levelo_inurba_marseille","lat":43.27804,"lon":5.40707,"is_reserved":false,"is_disabled":false,"rental_uris":{"android":"levelo://app?vid=a9729bac-b14c-4f28-bb26-3ce80633fcc6","ios":"levelo://app?vid=a9729bac-b14c-4f28-bb26-3ce80633fcc6"},"vehicle_type_id":"4","last_reported":1735891917,"current_range_meters":36400,"station_id":"ce4bhnh2rcd13ifvqgtg","pricing_plan_id":"cebpf4jnsgd1na2vs0mg"},{"bike_id":"027085de-3c06-4c90-8099-b9537f78e863","system_id":"levelo_inurba_marseille","lat":43.23174,"lon":5.43657,"is_reserved":false,"is_disabled":false,"rental_uris":{"android":"levelo://app?vid=027085de-3c06-4c90-8099-b9537f78e863","ios":"levelo://app?vid=027085de-3c06-4c90-8099-b9537f78e863"},"vehicle_type_id":"4","last_reported":1735891917,"current_range_meters":27200,"station_id":"ce4bhmp2rcd13ifvqgog","pricing_plan_id":"cebpf4jnsgd1na2vs0mg"},{"bike_id":"4b6a41bf-6158-4f95-8733-20938233d170","system_id":"levelo_inurba_marseille","lat":43.25735,"lon":5.4112,"is_reserved":false,"is_disabled":false,"rental_uris":{"android":"levelo://app?vid=4b6a41bf-6158-4f95-8733-20938233d170","ios":"levelo://app?vid=4b6a41bf-6158-4f95-8733-20938233d170"},"vehicle_type_id":"4","last_reported":1735891917,"current_range_meters":39200,"station_id":"ce4bhkp2rcd13ifvqgd0","pricing_plan_id":"cebpf4jnsgd1na2vs0mg"},{"bike_id":"d936b726-436d-4e1d-883d-74d49ddbe842","system_id":"levelo_inurba_marseille","lat":43.31521,"lon":5.38033,"is_reserved":false,"is_disabled":false,"rental_uris":{"android":"levelo://app?vid=d936b726-436d-4e1d-883d-74d49ddbe842","ios":"levelo://app?vid=d936b726-436d-4e1d-883d-74d49ddbe842"},"vehicle_type_id":"4","last_reported":1735891917,"current_range_meters":14400,"station_id":"ce4bhsp2rcd13ifvqi50","pricing_plan_id":"cebpf4jnsgd1na2vs0mg"},{"bike_id":"c962b62b-e6ad-482e-b4f4-072d3250af7f","system_id":"levelo_inurba_marseille","lat":43.257208,"lon":5.411099,"is_reserved":false,"is_disabled":false,"rental_uris":{"android":"levelo://app?vid=c962b62b-e6ad-482e-b4f4-072d3250af7f","ios":"levelo://app?vid=c962b62b-e6ad-482e-b4f4-072d3250af7f"},"vehicle_type_id":"4","last_reported":1735891917,"current_range_meters":28800,"station_id":"ce4bhkp2rcd13ifvqgd0","pricing_plan_id":"cebpf4jnsgd1na2vs0mg"},{"bike_id":"7a63d77d-b3e4-4713-9060-b918ad8247d2","system_id":"levelo_inurba_marseille","lat":43.22944,"lon":5.35356,"is_reserved":false,"is_disabled":false,"rental_uris":{"android":"levelo://app?vid=7a63d77d-b3e4-4713-9060-b918ad8247d2","ios":"levelo://app?vid=7a63d77d-b3e4-4713-9060-b918ad8247d2"},"vehicle_type_id":"4","last_reported":1735891917,"current_range_meters":36400,"station_id":"cpo3532slgdg3j2ikp40","pricing_plan_id":"cebpf4jnsgd1na2vs0mg"},{"bike_id":"55e21000-1bfe-4926-9e9b-bbab942d7159","system_id":"levelo_inurba_marseille","lat":43.28058,"lon":5.39437,"is_reserved":false,"is_disabled":false,"rental_uris":{"android":"levelo://app?vid=55e21000-1bfe-4926-9e9b-bbab942d7159","ios":"levelo://app?vid=55e21000-1bfe-4926-9e9b-bbab942d7159"},"vehicle_type_id":"4","last_reported":1735891917,"current_range_meters":9200,"station_id":"","pricing_plan_id":"cebpf4jnsgd1na2vs0mg"},{"bike_id":"476f1c67-4f19-4375-8b7b-b41b54f926e9","system_id":"levelo_inurba_marseille","lat":43.29988,"lon":5.37159,"is_reserved":false,"is_disabled":false,"rental_uris":{"android":"levelo://app?vid=476f1c67-4f19-4375-8b7b-b41b54f926e9","ios":"levelo://app?vid=476f1c67-4f19-4375-8b7b-b41b54f926e9"},"vehicle_type_id":"4","last_reported":1735891917,"current_range_meters":34800,"station_id":"ce4bgr92rcd13ifvqc7g","pricing_plan_id":"cebpf4jnsgd1na2vs0mg"},{"bike_id":"277d9579-fc29-4ce6-94cb-f3e169453ace","system_id":"levelo_inurba_marseille","lat":43.317593,"lon":5.390117,"is_reserved":false,"is_disabled":false,"rental_uris":{"android":"levelo://app?vid=277d9579-fc29-4ce6-94cb-f3e169453ace","ios":"levelo://app?vid=277d9579-fc29-4ce6-94cb-f3e169453ace"},"vehicle_type_id":"4","last_reported":1735891917,"current_range_meters":38800,"station_id":"ce4bhqp2rcd13ifvqhng","pricing_plan_id":"cebpf4jnsgd1na2vs0mg"},{"bike_id":"3c7472a4-a45c-4f46-a692-aa44ebf92f21","system_id":"levelo_inurba_marseille","lat":43.27423,"lon":5.39427,"is_reserved":false,"is_disabled":false,"rental_uris":{"android":"levelo://app?vid=3c7472a4-a45c-4f46-a692-aa44ebf92f21","ios":"levelo://app?vid=3c7472a4-a45c-4f46-a692-aa44ebf92f21"},"vehicle_type_id":"4","last_reported":1735891917,"current_range_meters":32000,"station_id":"ce4bhdp2rcd13ifvqf20","pricing_plan_id":"cebpf4jnsgd1na2vs0mg"},{"bike_id":"15f428d5-04a0-4b6a-a23c-757c18fbf743","system_id":"levelo_inurba_marseille","lat":43.3088,"lon":5.39636,"is_reserved":false,"is_disabled":false,"rental_uris":{"android":"levelo://app?vid=15f428d5-04a0-4b6a-a23c-757c18fbf743","ios":"levelo://app?vid=15f428d5-04a0-4b6a-a23c-757c18fbf743"},"vehicle_type_id":"4","last_reported":1735891917,"current_range_meters":39200,"station_id":"ce4bh012rcd13ifvqcv0","pricing_plan_id":"cebpf4jnsgd1na2vs0mg"},{"bike_id":"60aa8768-465e-4e59-8359-ab05b91a90a1","system_id":"levelo_inurba_marseille","lat":43.28934,"lon":5.36397,"is_reserved":false,"is_disabled":false,"rental_uris":{"android":"levelo://app?vid=60aa8768-465e-4e59-8359-ab05b91a90a1","ios":"levelo://app?vid=60aa8768-465e-4e59-8359-ab05b91a90a1"},"vehicle_type_id":"4","last_reported":1735891917,"current_range_meters":38800,"station_id":"ce4bhc92rcd13ifvqetg","pricing_plan_id":"cebpf4jnsgd1na2vs0mg"},{"bike_id":"b5b2166a-b0b8-4fc4-9960-24fcf8dddf0c","system_id":"levelo_inurba_marseille","lat":43.30825,"lon":5.38059,"is_reserved":false,"is_disabled":false,"rental_uris":{"android":"levelo://app?vid=b5b2166a-b0b8-4fc4-9960-24fcf8dddf0c","ios":"levelo://app?vid=b5b2166a-b0b8-4fc4-9960-24fcf8dddf0c"},"vehicle_type_id":"4","last_reported":1735891917,"current_range_meters":16000,"station_id":"","pricing_plan_id":"cebpf4jnsgd1na2vs0mg"},{"bike_id":"4b9b3c02-7773-410b-a74d-2537aad0fdc1","system_id":"levelo_inurba_marseille","lat":43.28443,"lon":5.37603,"is_reserved":false,"is_disabled":false,"rental_uris":{"android":"levelo://app?vid=4b9b3c02-7773-410b-a74d-2537aad0fdc1","ios":"levelo://app?vid=4b9b3c02-7773-410b-a74d-2537aad0fdc1"},"vehicle_type_id":"4","last_reported":1735891917,"current_range_meters":23200,"station_id":"ce4bh412rcd13ifvqds0","pricing_plan_id":"cebpf4jnsgd1na2vs0mg"},{"bike_id":"1be7cd26-cea4-4ed2-9f87-bb295a3586b7","system_id":"levelo_inurba_marseille","lat":43.30924,"lon":5.40137,"is_reserved":false,"is_disabled":true,"rental_uris":{"android":"levelo://app?vid=1be7cd26-cea4-4ed2-9f87-bb295a3586b7","ios":"levelo://app?vid=1be7cd26-cea4-4ed2-9f87-bb295a3586b7"},"vehicle_type_id":"4","last_reported":1735891917,"current_range_meters":36400,"station_id":"ce4bgvp2rcd13ifvqct0","pricing_plan_id":"cebpf4jnsgd1na2vs0mg"},{"bike_id":"2d37891b-3e35-407f-964b-7c262ae2b2d0","system_id":"levelo_inurba_marseille","lat":43.29409,"lon":5.38097,"is_reserved":false,"is_disabled":true,"rental_uris":{"android":"levelo://app?vid=2d37891b-3e35-407f-964b-7c262ae2b2d0","ios":"levelo://app?vid=2d37891b-3e35-407f-964b-7c262ae2b2d0"},"vehicle_type_id":"4","last_reported":1735891917,"current_range_meters":0,"station_id":"","pricing_plan_id":"cebpf4jnsgd1na2vs0mg"},{"bike_id":"86383042-09cd-495d-928a-1f9cdc55227c","system_id":"levelo_inurba_marseille","lat":43.29794,"lon":5.38106,"is_reserved":false,"is_disabled":false,"rental_uris":{"android":"levelo://app?vid=86383042-09cd-495d-928a-1f9cdc55227c","ios":"levelo://app?vid=86383042-09cd-495d-928a-1f9cdc55227c"},"vehicle_type_id":"4","last_reported":1735891917,"current_range_meters":30000,"station_id":"ce4bgip2rcd13ifvqbb0","pricing_plan_id":"cebpf4jnsgd1na2vs0mg"},{"bike_id":"a704d00f-fa02-4fe3-91e2-2416c16951bb","system_id":"levelo_inurba_marseille","lat":43.24085,"lon":5.37733,"is_reserved":false,"is_disabled":false,"rental_uris":{"android":"levelo://app?vid=a704d00f-fa02-4fe3-91e2-2416c16951bb","ios":"levelo://app?vid=a704d00f-fa02-4fe3-91e2-2416c16951bb"},"vehicle_type_id":"4","last_reported":1735891917,"current_range_meters":38800,"station_id":"ce4bhnp2rcd13ifvqgvg","pricing_plan_id":"cebpf4jnsgd1na2vs0mg"},{"bike_id":"2332862a-3884-4317-af82-ee9793e9b62c","system_id":"levelo_inurba_marseille","lat":43.24067,"lon":5.37742,"is_reserved":false,"is_disabled":false,"rental_uris":{"android":"levelo://app?vid=2332862a-3884-4317-af82-ee9793e9b62c","ios":"levelo://app?vid=2332862a-3884-4317-af82-ee9793e9b62c"},"vehicle_type_id":"4","last_reported":1735891917,"current_range_meters":22800,"station_id":"ce4bhnp2rcd13ifvqgvg","pricing_plan_id":"cebpf4jnsgd1na2vs0mg"},{"bike_id":"1b0b8897-032a-46c6-aaf7-d764fab8e97a","system_id":"levelo_inurba_marseille","lat":43.258666,"lon":5.399024,"is_reserved":false,"is_disabled":false,"rental_uris":{"android":"levelo://app?vid=1b0b8897-032a-46c6-aaf7-d764fab8e97a","ios":"levelo://app?vid=1b0b8897-032a-46c6-aaf7-d764fab8e97a"},"vehicle_type_id":"4","last_reported":1735891917,"current_range_meters":38800,"station_id":"ce4bhl92rcd13ifvqghg","pricing_plan_id":"cebpf4jnsgd1na2vs0mg"},{"bike_id":"e6fa8bd9-5f74-401a-b12e-57e85af877cf","system_id":"levelo_inurba_marseille","lat":43.30327,"lon":5.36929,"is_reserved":false,"is_disabled":false,"rental_uris":{"android":"levelo://app?vid=e6fa8bd9-5f74-401a-b12e-57e85af877cf","ios":"levelo://app?vid=e6fa8bd9-5f74-401a-b12e-57e85af877cf"},"vehicle_type_id":"4","last_reported":1735891917,"current_range_meters":26000,"station_id":"ce4bgqh2rcd13ifvqc5g","pricing_plan_id":"cebpf4jnsgd1na2vs0mg"},{"bike_id":"4483098c-d27d-4534-ad16-c209ae457c9a","system_id":"levelo_inurba_marseille","lat":43.31529,"lon":5.38025,"is_reserved":false,"is_disabled":false,"rental_uris":{"android":"levelo://app?vid=4483098c-d27d-4534-ad16-c209ae457c9a","ios":"levelo://app?vid=4483098c-d27d-4534-ad16-c209ae457c9a"},"vehicle_type_id":"4","last_reported":1735891917,"current_range_meters":39200,"station_id":"ce4bhsp2rcd13ifvqi50","pricing_plan_id":"cebpf4jnsgd1na2vs0mg"},{"bike_id":"fc8f354a-2b84-4ef3-80b2-0d35daeffb37","system_id":"levelo_inurba_marseille","lat":43.29849,"lon":5.36262,"is_reserved":false,"is_disabled":false,"rental_uris":{"android":"levelo://app?vid=fc8f354a-2b84-4ef3-80b2-0d35daeffb37","ios":"levelo://app?vid=fc8f354a-2b84-4ef3-80b2-0d35daeffb37"},"vehicle_type_id":"4","last_reported":1735891917,"current_range_meters":39200,"station_id":"ce4bgpp2rcd13ifvqc3g","pricing_plan_id":"cebpf4jnsgd1na2vs0mg"},{"bike_id":"b0f40622-14a2-47af-8c8c-4a938f1cf2c3","system_id":"levelo_inurba_marseille","lat":43.28813,"lon":5.35832,"is_reserved":false,"is_disabled":false,"rental_uris":{"android":"levelo://app?vid=b0f40622-14a2-47af-8c8c-4a938f1cf2c3","ios":"levelo://app?vid=b0f40622-14a2-47af-8c8c-4a938f1cf2c3"},"vehicle_type_id":"4","last_reported":1735891917,"current_range_meters":30400,"station_id":"ce4bhb12rcd13ifvqem0","pricing_plan_id":"cebpf4jnsgd1na2vs0mg"},{"bike_id":"bd5f771f-8599-417f-92e1-2bc9c05d304e","system_id":"levelo_inurba_marseille","lat":43.32547,"lon":5.41454,"is_reserved":false,"is_disabled":false,"rental_uris":{"android":"levelo://app?vid=bd5f771f-8599-417f-92e1-2bc9c05d304e","ios":"levelo://app?vid=bd5f771f-8599-417f-92e1-2bc9c05d304e"},"vehicle_type_id":"4","last_reported":1735891917,"current_range_meters":24800,"station_id":"ce4bhq12rcd13ifvqhhg","pricing_plan_id":"cebpf4jnsgd1na2vs0mg"},{"bike_id":"2cad5e9d-f183-4c3f-a642-7c176e4884d1","system_id":"levelo_inurba_marseille","lat":43.25823,"lon":5.39427,"is_reserved":false,"is_disabled":false,"rental_uris":{"android":"levelo://app?vid=2cad5e9d-f183-4c3f-a642-7c176e4884d1","ios":"levelo://app?vid=2cad5e9d-f183-4c3f-a642-7c176e4884d1"},"vehicle_type_id":"4","last_reported":1735891917,"current_range_meters":36400,"station_id":"ce4bhip2rcd13ifvqft0","pricing_plan_id":"cebpf4jnsgd1na2vs0mg"},{"bike_id":"2bc85ea5-00ae-44c0-a255-cc0d04be90b9","system_id":"levelo_inurba_marseille","lat":43.284178,"lon":5.349962,"is_reserved":false,"is_disabled":false,"rental_uris":{"android":"levelo://app?vid=2bc85ea5-00ae-44c0-a255-cc0d04be90b9","ios":"levelo://app?vid=2bc85ea5-00ae-44c0-a255-cc0d04be90b9"},"vehicle_type_id":"4","last_reported":1735891917,"current_range_meters":10000,"station_id":"ce4bhbh2rcd13ifvqepg","pricing_plan_id":"cebpf4jnsgd1na2vs0mg"},{"bike_id":"cbe7ca4a-8c54-4f20-9cd1-e1cc0f5b7628","system_id":"levelo_inurba_marseille","lat":43.25934,"lon":5.409,"is_reserved":false,"is_disabled":true,"rental_uris":{"android":"levelo://app?vid=cbe7ca4a-8c54-4f20-9cd1-e1cc0f5b7628","ios":"levelo://app?vid=cbe7ca4a-8c54-4f20-9cd1-e1cc0f5b7628"},"vehicle_type_id":"4","last_reported":1735891917,"current_range_meters":1200,"station_id":"ce4bhm92rcd13ifvqglg","pricing_plan_id":"cebpf4jnsgd1na2vs0mg"},{"bike_id":"97906f7b-eda2-4c80-8b4b-122bc957a1cd","system_id":"levelo_inurba_marseille","lat":43.28612,"lon":5.35078,"is_reserved":false,"is_disabled":true,"rental_uris":{"android":"levelo://app?vid=97906f7b-eda2-4c80-8b4b-122bc957a1cd","ios":"levelo://app?vid=97906f7b-eda2-4c80-8b4b-122bc957a1cd"},"vehicle_type_id":"4","last_reported":1735891917,"current_range_meters":22400,"station_id":"ce4bhch2rcd13ifvqeug","pricing_plan_id":"cebpf4jnsgd1na2vs0mg"},{"bike_id":"1c062351-f698-4ee4-87ae-fce7281bfbb0","system_id":"levelo_inurba_marseille","lat":43.2954,"lon":5.38536,"is_reserved":false,"is_disabled":false,"rental_uris":{"android":"levelo://app?vid=1c062351-f698-4ee4-87ae-fce7281bfbb0","ios":"levelo://app?vid=1c062351-f698-4ee4-87ae-fce7281bfbb0"},"vehicle_type_id":"4","last_reported":1735891917,"current_range_meters":38000,"station_id":"ce4bgih2rcd13ifvqba0","pricing_plan_id":"cebpf4jnsgd1na2vs0mg"},{"bike_id":"6ae21bf4-723a-4bec-a078-944e55a17a07","system_id":"levelo_inurba_marseille","lat":43.31327,"lon":5.3969,"is_reserved":false,"is_disabled":false,"rental_uris":{"android":"levelo://app?vid=6ae21bf4-723a-4bec-a078-944e55a17a07","ios":"levelo://app?vid=6ae21bf4-723a-4bec-a078-944e55a17a07"},"vehicle_type_id":"4","last_reported":1735891917,"current_range_meters":24000,"station_id":"ce4bgvp2rcd13ifvqcu0","pricing_plan_id":"cebpf4jnsgd1na2vs0mg"},{"bike_id":"8c1a59b4-2c8f-4307-8a5a-eec2cd0e5913","system_id":"levelo_inurba_marseille","lat":43.30253,"lon":5.37714,"is_reserved":false,"is_disabled":false,"rental_uris":{"android":"levelo://app?vid=8c1a59b4-2c8f-4307-8a5a-eec2cd0e5913","ios":"levelo://app?vid=8c1a59b4-2c8f-4307-8a5a-eec2cd0e5913"},"vehicle_type_id":"4","last_reported":1735891917,"current_range_meters":38800,"station_id":"ce4bguh2rcd13ifvqcj0","pricing_plan_id":"cebpf4jnsgd1na2vs0mg"},{"bike_id":"a1c87532-6196-402b-916e-8ad945b95f72","system_id":"levelo_inurba_marseille","lat":43.25124,"lon":5.40302,"is_reserved":false,"is_disabled":false,"rental_uris":{"android":"levelo://app?vid=a1c87532-6196-402b-916e-8ad945b95f72","ios":"levelo://app?vid=a1c87532-6196-402b-916e-8ad945b95f72"},"vehicle_type_id":"4","last_reported":1735891917,"current_range_meters":8800,"station_id":"ce4bhlh2rcd13ifvqgig","pricing_plan_id":"cebpf4jnsgd1na2vs0mg"},{"bike_id":"7b43b124-ad67-4bdd-aff9-422971a63878","system_id":"levelo_inurba_marseille","lat":43.270547,"lon":5.402632,"is_reserved":false,"is_disabled":false,"rental_uris":{"android":"levelo://app?vid=7b43b124-ad67-4bdd-aff9-422971a63878","ios":"levelo://app?vid=7b43b124-ad67-4bdd-aff9-422971a63878"},"vehicle_type_id":"4","last_reported":1735891917,"current_range_meters":26800,"station_id":"ce4bhk92rcd13ifvqgc0","pricing_plan_id":"cebpf4jnsgd1na2vs0mg"},{"bike_id":"249b9bdd-ae2a-4d4a-8d50-4d8b0271c881","system_id":"levelo_inurba_marseille","lat":43.273755,"lon":5.362474,"is_reserved":false,"is_disabled":false,"rental_uris":{"android":"levelo://app?vid=249b9bdd-ae2a-4d4a-8d50-4d8b0271c881","ios":"levelo://app?vid=249b9bdd-ae2a-4d4a-8d50-4d8b0271c881"},"vehicle_type_id":"4","last_reported":1735891917,"current_range_meters":28800,"station_id":"ce4bhbh2rcd13ifvqeo0","pricing_plan_id":"cebpf4jnsgd1na2vs0mg"},{"bike_id":"4d9834e9-3371-4204-9113-d5b77f750081","system_id":"levelo_inurba_marseille","lat":43.29038,"lon":5.39993,"is_reserved":false,"is_disabled":true,"rental_uris":{"android":"levelo://app?vid=4d9834e9-3371-4204-9113-d5b77f750081","ios":"levelo://app?vid=4d9834e9-3371-4204-9113-d5b77f750081"},"vehicle_type_id":"4","last_reported":1735891917,"current_range_meters":29600,"station_id":"ce4bh392rcd13ifvqdm0","pricing_plan_id":"cebpf4jnsgd1na2vs0mg"},{"bike_id":"b6d598ac-7e54-41ab-82ab-ad92cfef8791","system_id":"levelo_inurba_marseille","lat":43.26944,"lon":5.40238,"is_reserved":false,"is_disabled":false,"rental_uris":{"android":"levelo://app?vid=b6d598ac-7e54-41ab-82ab-ad92cfef8791","ios":"levelo://app?vid=b6d598ac-7e54-41ab-82ab-ad92cfef8791"},"vehicle_type_id":"4","last_reported":1735891917,"current_range_meters":38800,"station_id":"cjm6bp8fraef2m0cb0m0","pricing_plan_id":"cebpf4jnsgd1na2vs0mg"},{"bike_id":"5f1486d7-4fae-4801-9d26-fff2da0e4875","system_id":"levelo_inurba_marseille","lat":43.31993,"lon":5.38146,"is_reserved":false,"is_disabled":false,"rental_uris":{"android":"levelo://app?vid=5f1486d7-4fae-4801-9d26-fff2da0e4875","ios":"levelo://app?vid=5f1486d7-4fae-4801-9d26-fff2da0e4875"},"vehicle_type_id":"4","last_reported":1735891917,"current_range_meters":32000,"station_id":"ce4bhr12rcd13ifvqhpg","pricing_plan_id":"cebpf4jnsgd1na2vs0mg"},{"bike_id":"b3c9c756-8404-49d9-9a02-e748fc0751ce","system_id":"levelo_inurba_marseille","lat":43.25815,"lon":5.39432,"is_reserved":false,"is_disabled":false,"rental_uris":{"android":"levelo://app?vid=b3c9c756-8404-49d9-9a02-e748fc0751ce","ios":"levelo://app?vid=b3c9c756-8404-49d9-9a02-e748fc0751ce"},"vehicle_type_id":"4","last_reported":1735891917,"current_range_meters":22800,"station_id":"ce4bhip2rcd13ifvqft0","pricing_plan_id":"cebpf4jnsgd1na2vs0mg"},{"bike_id":"2f857458-45ae-4306-9ffb-5d94252d59a5","system_id":"levelo_inurba_marseille","lat":43.24638,"lon":5.38895,"is_reserved":false,"is_disabled":false,"rental_uris":{"android":"levelo://app?vid=2f857458-45ae-4306-9ffb-5d94252d59a5","ios":"levelo://app?vid=2f857458-45ae-4306-9ffb-5d94252d59a5"},"vehicle_type_id":"4","last_reported":1735891917,"current_range_meters":38800,"station_id":"ce4bhg12rcd13ifvqf60","pricing_plan_id":"cebpf4jnsgd1na2vs0mg"},{"bike_id":"0c44e8cb-6c44-450a-a3ff-5dfd7e18baf3","system_id":"levelo_inurba_marseille","lat":43.279842,"lon":5.416459,"is_reserved":false,"is_disabled":false,"rental_uris":{"android":"levelo://app?vid=0c44e8cb-6c44-450a-a3ff-5dfd7e18baf3","ios":"levelo://app?vid=0c44e8cb-6c44-450a-a3ff-5dfd7e18baf3"},"vehicle_type_id":"4","last_reported":1735891917,"current_range_meters":38400,"station_id":"ce4bho12rcd13ifvqh1g","pricing_plan_id":"cebpf4jnsgd1na2vs0mg"},{"bike_id":"25990fff-4e8a-4c9a-9f77-d0b15d680caa","system_id":"levelo_inurba_marseille","lat":43.26945,"lon":5.38631,"is_reserved":false,"is_disabled":true,"rental_uris":{"android":"levelo://app?vid=25990fff-4e8a-4c9a-9f77-d0b15d680caa","ios":"levelo://app?vid=25990fff-4e8a-4c9a-9f77-d0b15d680caa"},"vehicle_type_id":"4","last_reported":1735891917,"current_range_meters":18000,"station_id":"ce4bhh92rcd13ifvqfh0","pricing_plan_id":"cebpf4jnsgd1na2vs0mg"},{"bike_id":"62c6218f-3333-45b5-a586-ce3a4fd0c7db","system_id":"levelo_inurba_marseille","lat":43.30098,"lon":5.39108,"is_reserved":false,"is_disabled":false,"rental_uris":{"android":"levelo://app?vid=62c6218f-3333-45b5-a586-ce3a4fd0c7db","ios":"levelo://app?vid=62c6218f-3333-45b5-a586-ce3a4fd0c7db"},"vehicle_type_id":"4","last_reported":1735891917,"current_range_meters":22000,"station_id":"ce4bh192rcd13ifvqdb0","pricing_plan_id":"cebpf4jnsgd1na2vs0mg"},{"bike_id":"62d408d0-e0fd-421c-8a1a-168ab701b6d1","system_id":"levelo_inurba_marseille","lat":43.28615,"lon":5.351,"is_reserved":false,"is_disabled":false,"rental_uris":{"android":"levelo://app?vid=62d408d0-e0fd-421c-8a1a-168ab701b6d1","ios":"levelo://app?vid=62d408d0-e0fd-421c-8a1a-168ab701b6d1"},"vehicle_type_id":"4","last_reported":1735891917,"current_range_meters":22400,"station_id":"ce4bhch2rcd13ifvqeug","pricing_plan_id":"cebpf4jnsgd1na2vs0mg"},{"bike_id":"2170d6ca-e81b-4d62-8f72-aeeb5bab1c5b","system_id":"levelo_inurba_marseille","lat":43.261986,"lon":5.374419,"is_reserved":false,"is_disabled":false,"rental_uris":{"android":"levelo://app?vid=2170d6ca-e81b-4d62-8f72-aeeb5bab1c5b","ios":"levelo://app?vid=2170d6ca-e81b-4d62-8f72-aeeb5bab1c5b"},"vehicle_type_id":"4","last_reported":1735891917,"current_range_meters":14800,"station_id":"ce4bhgp2rcd13ifvqfc0","pricing_plan_id":"cebpf4jnsgd1na2vs0mg"},{"bike_id":"51855b67-dd6c-4e75-b660-5384b749b10b","system_id":"levelo_inurba_marseille","lat":43.317111,"lon":5.377851,"is_reserved":false,"is_disabled":false,"rental_uris":{"android":"levelo://app?vid=51855b67-dd6c-4e75-b660-5384b749b10b","ios":"levelo://app?vid=51855b67-dd6c-4e75-b660-5384b749b10b"},"vehicle_type_id":"4","last_reported":1735891917,"current_range_meters":38800,"station_id":"ce4bgth2rcd13ifvqch0","pricing_plan_id":"cebpf4jnsgd1na2vs0mg"},{"bike_id":"db34218a-bf6f-45ed-b3b1-d950245c60a9","system_id":"levelo_inurba_marseille","lat":43.30316,"lon":5.36898,"is_reserved":false,"is_disabled":false,"rental_uris":{"android":"levelo://app?vid=db34218a-bf6f-45ed-b3b1-d950245c60a9","ios":"levelo://app?vid=db34218a-bf6f-45ed-b3b1-d950245c60a9"},"vehicle_type_id":"4","last_reported":1735891917,"current_range_meters":33600,"station_id":"ce4bgqh2rcd13ifvqc5g","pricing_plan_id":"cebpf4jnsgd1na2vs0mg"},{"bike_id":"da749015-9029-4046-8584-d6c914119d73","system_id":"levelo_inurba_marseille","lat":43.24387,"lon":5.37057,"is_reserved":false,"is_disabled":false,"rental_uris":{"android":"levelo://app?vid=da749015-9029-4046-8584-d6c914119d73","ios":"levelo://app?vid=da749015-9029-4046-8584-d6c914119d73"},"vehicle_type_id":"4","last_reported":1735891917,"current_range_meters":12400,"station_id":"ce4bhhh2rcd13ifvqfk0","pricing_plan_id":"cebpf4jnsgd1na2vs0mg"},{"bike_id":"07914263-3d03-4738-b553-ee795a62a79e","system_id":"levelo_inurba_marseille","lat":43.25864,"lon":5.39934,"is_reserved":false,"is_disabled":false,"rental_uris":{"android":"levelo://app?vid=07914263-3d03-4738-b553-ee795a62a79e","ios":"levelo://app?vid=07914263-3d03-4738-b553-ee795a62a79e"},"vehicle_type_id":"4","last_reported":1735891917,"current_range_meters":27200,"station_id":"ce4bhl92rcd13ifvqghg","pricing_plan_id":"cebpf4jnsgd1na2vs0mg"},{"bike_id":"5862ec90-0ecf-4daf-b43a-b43ae1ddb546","system_id":"levelo_inurba_marseille","lat":43.317072,"lon":5.404421,"is_reserved":false,"is_disabled":false,"rental_uris":{"android":"levelo://app?vid=5862ec90-0ecf-4daf-b43a-b43ae1ddb546","ios":"levelo://app?vid=5862ec90-0ecf-4daf-b43a-b43ae1ddb546"},"vehicle_type_id":"4","last_reported":1735891917,"current_range_meters":39200,"station_id":"ce4bh012rcd13ifvqd00","pricing_plan_id":"cebpf4jnsgd1na2vs0mg"},{"bike_id":"15d0178a-864e-4615-a31a-63c2aa43b2ba","system_id":"levelo_inurba_marseille","lat":43.31485,"lon":5.37305,"is_reserved":false,"is_disabled":false,"rental_uris":{"android":"levelo://app?vid=15d0178a-864e-4615-a31a-63c2aa43b2ba","ios":"levelo://app?vid=15d0178a-864e-4615-a31a-63c2aa43b2ba"},"vehicle_type_id":"4","last_reported":1735891917,"current_range_meters":20800,"station_id":"ce4bgt12rcd13ifvqcd0","pricing_plan_id":"cebpf4jnsgd1na2vs0mg"},{"bike_id":"930d1246-af8a-4749-bccd-369ef682eb0b","system_id":"levelo_inurba_marseille","lat":43.28456,"lon":5.3588,"is_reserved":false,"is_disabled":false,"rental_uris":{"android":"levelo://app?vid=930d1246-af8a-4749-bccd-369ef682eb0b","ios":"levelo://app?vid=930d1246-af8a-4749-bccd-369ef682eb0b"},"vehicle_type_id":"4","last_reported":1735891917,"current_range_meters":33200,"station_id":"ce4bhah2rcd13ifvqei0","pricing_plan_id":"cebpf4jnsgd1na2vs0mg"},{"bike_id":"60c4faed-7793-4a3f-838a-f78ec3d7cf12","system_id":"levelo_inurba_marseille","lat":43.29966,"lon":5.3717,"is_reserved":false,"is_disabled":false,"rental_uris":{"android":"levelo://app?vid=60c4faed-7793-4a3f-838a-f78ec3d7cf12","ios":"levelo://app?vid=60c4faed-7793-4a3f-838a-f78ec3d7cf12"},"vehicle_type_id":"4","last_reported":1735891917,"current_range_meters":19600,"station_id":"ce4bgr92rcd13ifvqc7g","pricing_plan_id":"cebpf4jnsgd1na2vs0mg"},{"bike_id":"a85ff2bf-827a-45a1-a10f-61b33091278d","system_id":"levelo_inurba_marseille","lat":43.29953,"lon":5.41319,"is_reserved":false,"is_disabled":false,"rental_uris":{"android":"levelo://app?vid=a85ff2bf-827a-45a1-a10f-61b33091278d","ios":"levelo://app?vid=a85ff2bf-827a-45a1-a10f-61b33091278d"},"vehicle_type_id":"4","last_reported":1735891917,"current_range_meters":23200,"station_id":"ce4bhp12rcd13ifvqh9g","pricing_plan_id":"cebpf4jnsgd1na2vs0mg"},{"bike_id":"827b0813-db3a-45cd-9f07-276eb24a36dd","system_id":"levelo_inurba_marseille","lat":43.31348,"lon":5.36732,"is_reserved":false,"is_disabled":false,"rental_uris":{"android":"levelo://app?vid=827b0813-db3a-45cd-9f07-276eb24a36dd","ios":"levelo://app?vid=827b0813-db3a-45cd-9f07-276eb24a36dd"},"vehicle_type_id":"4","last_reported":1735891917,"current_range_meters":37600,"station_id":"ce4bgr92rcd13ifvqc6g","pricing_plan_id":"cebpf4jnsgd1na2vs0mg"},{"bike_id":"855ff314-cfc9-4f60-ab01-51a8ed494d20","system_id":"levelo_inurba_marseille","lat":43.26694,"lon":5.38256,"is_reserved":false,"is_disabled":false,"rental_uris":{"android":"levelo://app?vid=855ff314-cfc9-4f60-ab01-51a8ed494d20","ios":"levelo://app?vid=855ff314-cfc9-4f60-ab01-51a8ed494d20"},"vehicle_type_id":"4","last_reported":1735891917,"current_range_meters":38800,"station_id":"ce4bhg92rcd13ifvqf90","pricing_plan_id":"cebpf4jnsgd1na2vs0mg"},{"bike_id":"23a3a450-3443-4298-8106-07e1fb9686f1","system_id":"levelo_inurba_marseille","lat":43.31345,"lon":5.36732,"is_reserved":false,"is_disabled":false,"rental_uris":{"android":"levelo://app?vid=23a3a450-3443-4298-8106-07e1fb9686f1","ios":"levelo://app?vid=23a3a450-3443-4298-8106-07e1fb9686f1"},"vehicle_type_id":"4","last_reported":1735891917,"current_range_meters":23200,"station_id":"ce4bgr92rcd13ifvqc6g","pricing_plan_id":"cebpf4jnsgd1na2vs0mg"},{"bike_id":"a6f828f1-5f97-4da7-bf33-7d48a155db3e","system_id":"levelo_inurba_marseille","lat":43.278295,"lon":5.392008,"is_reserved":false,"is_disabled":false,"rental_uris":{"android":"levelo://app?vid=a6f828f1-5f97-4da7-bf33-7d48a155db3e","ios":"levelo://app?vid=a6f828f1-5f97-4da7-bf33-7d48a155db3e"},"vehicle_type_id":"4","last_reported":1735891917,"current_range_meters":31200,"station_id":"ce4bhjp2rcd13ifvqga0","pricing_plan_id":"cebpf4jnsgd1na2vs0mg"},{"bike_id":"bbefe573-2e5c-4fbf-a5d6-e0f28031c10d","system_id":"levelo_inurba_marseille","lat":43.31364,"lon":5.38499,"is_reserved":false,"is_disabled":false,"rental_uris":{"android":"levelo://app?vid=bbefe573-2e5c-4fbf-a5d6-e0f28031c10d","ios":"levelo://app?vid=bbefe573-2e5c-4fbf-a5d6-e0f28031c10d"},"vehicle_type_id":"4","last_reported":1735891917,"current_range_meters":38000,"station_id":"ce4bgt92rcd13ifvqcf0","pricing_plan_id":"cebpf4jnsgd1na2vs0mg"},{"bike_id":"3b8517ec-3add-41f8-9b4c-8bb5b237ee58","system_id":"levelo_inurba_marseille","lat":43.29713,"lon":5.37716,"is_reserved":false,"is_disabled":false,"rental_uris":{"android":"levelo://app?vid=3b8517ec-3add-41f8-9b4c-8bb5b237ee58","ios":"levelo://app?vid=3b8517ec-3add-41f8-9b4c-8bb5b237ee58"},"vehicle_type_id":"4","last_reported":1735891917,"current_range_meters":32400,"station_id":"ce4bgkh2rcd13ifvqbl0","pricing_plan_id":"cebpf4jnsgd1na2vs0mg"},{"bike_id":"2cb73bff-3a8c-4792-af59-167d685e0a29","system_id":"levelo_inurba_marseille","lat":43.31328,"lon":5.37481,"is_reserved":false,"is_disabled":false,"rental_uris":{"android":"levelo://app?vid=2cb73bff-3a8c-4792-af59-167d685e0a29","ios":"levelo://app?vid=2cb73bff-3a8c-4792-af59-167d685e0a29"},"vehicle_type_id":"4","last_reported":1735891917,"current_range_meters":36400,"station_id":"","pricing_plan_id":"cebpf4jnsgd1na2vs0mg"},{"bike_id":"6751c4da-34c9-42f4-9ec7-ca801ac7a24a","system_id":"levelo_inurba_marseille","lat":43.27808,"lon":5.40711,"is_reserved":false,"is_disabled":false,"rental_uris":{"android":"levelo://app?vid=6751c4da-34c9-42f4-9ec7-ca801ac7a24a","ios":"levelo://app?vid=6751c4da-34c9-42f4-9ec7-ca801ac7a24a"},"vehicle_type_id":"4","last_reported":1735891917,"current_range_meters":38400,"station_id":"ce4bhnh2rcd13ifvqgtg","pricing_plan_id":"cebpf4jnsgd1na2vs0mg"},{"bike_id":"0d22c007-f5b2-4481-9b21-08f35f061702","system_id":"levelo_inurba_marseille","lat":43.29639,"lon":5.37173,"is_reserved":false,"is_disabled":true,"rental_uris":{"android":"levelo://app?vid=0d22c007-f5b2-4481-9b21-08f35f061702","ios":"levelo://app?vid=0d22c007-f5b2-4481-9b21-08f35f061702"},"vehicle_type_id":"4","last_reported":1735891917,"current_range_meters":0,"station_id":"ce4bgnh2rcd13ifvqc0g","pricing_plan_id":"cebpf4jnsgd1na2vs0mg"},{"bike_id":"a674cf4e-6283-4ce6-8819-659a9495f9ad","system_id":"levelo_inurba_marseille","lat":43.29042,"lon":5.39949,"is_reserved":false,"is_disabled":false,"rental_uris":{"android":"levelo://app?vid=a674cf4e-6283-4ce6-8819-659a9495f9ad","ios":"levelo://app?vid=a674cf4e-6283-4ce6-8819-659a9495f9ad"},"vehicle_type_id":"4","last_reported":1735891917,"current_range_meters":32400,"station_id":"ce4bh392rcd13ifvqdm0","pricing_plan_id":"cebpf4jnsgd1na2vs0mg"},{"bike_id":"0fb09dc4-c559-469b-b944-d0167194cfca","system_id":"levelo_inurba_marseille","lat":43.27953,"lon":5.41044,"is_reserved":false,"is_disabled":true,"rental_uris":{"android":"levelo://app?vid=0fb09dc4-c559-469b-b944-d0167194cfca","ios":"levelo://app?vid=0fb09dc4-c559-469b-b944-d0167194cfca"},"vehicle_type_id":"4","last_reported":1735891917,"current_range_meters":2000,"station_id":"ce4bhnp2rcd13ifvqh0g","pricing_plan_id":"cebpf4jnsgd1na2vs0mg"},{"bike_id":"e763b9cf-65eb-4131-8b74-455e6f49dde4","system_id":"levelo_inurba_marseille","lat":43.32477,"lon":5.36557,"is_reserved":false,"is_disabled":false,"rental_uris":{"android":"levelo://app?vid=e763b9cf-65eb-4131-8b74-455e6f49dde4","ios":"levelo://app?vid=e763b9cf-65eb-4131-8b74-455e6f49dde4"},"vehicle_type_id":"4","last_reported":1735891917,"current_range_meters":12000,"station_id":"ce4bhs12rcd13ifvqhvg","pricing_plan_id":"cebpf4jnsgd1na2vs0mg"},{"bike_id":"4ec9a40c-8280-4de8-96a4-11e7ba503642","system_id":"levelo_inurba_marseille","lat":43.23862,"lon":5.38984,"is_reserved":false,"is_disabled":true,"rental_uris":{"android":"levelo://app?vid=4ec9a40c-8280-4de8-96a4-11e7ba503642","ios":"levelo://app?vid=4ec9a40c-8280-4de8-96a4-11e7ba503642"},"vehicle_type_id":"4","last_reported":1735891917,"current_range_meters":400,"station_id":"","pricing_plan_id":"cebpf4jnsgd1na2vs0mg"},{"bike_id":"5aa8a99e-4165-495b-8e30-7e69c2b58354","system_id":"levelo_inurba_marseille","lat":43.2668,"lon":5.38264,"is_reserved":false,"is_disabled":false,"rental_uris":{"android":"levelo://app?vid=5aa8a99e-4165-495b-8e30-7e69c2b58354","ios":"levelo://app?vid=5aa8a99e-4165-495b-8e30-7e69c2b58354"},"vehicle_type_id":"4","last_reported":1735891917,"current_range_meters":36800,"station_id":"ce4bhg92rcd13ifvqf90","pricing_plan_id":"cebpf4jnsgd1na2vs0mg"},{"bike_id":"f811a98b-9aa7-419d-8e74-1c4088ab1bbc","system_id":"levelo_inurba_marseille","lat":43.27072,"lon":5.42262,"is_reserved":false,"is_disabled":false,"rental_uris":{"android":"levelo://app?vid=f811a98b-9aa7-419d-8e74-1c4088ab1bbc","ios":"levelo://app?vid=f811a98b-9aa7-419d-8e74-1c4088ab1bbc"},"vehicle_type_id":"4","last_reported":1735891917,"current_range_meters":38800,"station_id":"ce4bhk92rcd13ifvqgb0","pricing_plan_id":"cebpf4jnsgd1na2vs0mg"},{"bike_id":"8f236aa0-69d9-4777-af98-8397a0b1ff94","system_id":"levelo_inurba_marseille","lat":43.281492,"lon":5.426298,"is_reserved":false,"is_disabled":true,"rental_uris":{"android":"levelo://app?vid=8f236aa0-69d9-4777-af98-8397a0b1ff94","ios":"levelo://app?vid=8f236aa0-69d9-4777-af98-8397a0b1ff94"},"vehicle_type_id":"4","last_reported":1735891917,"current_range_meters":6400,"station_id":"ce4bhnh2rcd13ifvqgug","pricing_plan_id":"cebpf4jnsgd1na2vs0mg"},{"bike_id":"f91168e5-3a6a-477b-824d-bfc9fbc12320","system_id":"levelo_inurba_marseille","lat":43.30294,"lon":5.36904,"is_reserved":false,"is_disabled":false,"rental_uris":{"android":"levelo://app?vid=f91168e5-3a6a-477b-824d-bfc9fbc12320","ios":"levelo://app?vid=f91168e5-3a6a-477b-824d-bfc9fbc12320"},"vehicle_type_id":"4","last_reported":1735891917,"current_range_meters":39200,"station_id":"ce4bgqh2rcd13ifvqc5g","pricing_plan_id":"cebpf4jnsgd1na2vs0mg"},{"bike_id":"8e936699-fb94-4c05-a18e-6a31521ab968","system_id":"levelo_inurba_marseille","lat":43.28467,"lon":5.35883,"is_reserved":false,"is_disabled":true,"rental_uris":{"android":"levelo://app?vid=8e936699-fb94-4c05-a18e-6a31521ab968","ios":"levelo://app?vid=8e936699-fb94-4c05-a18e-6a31521ab968"},"vehicle_type_id":"4","last_reported":1735891917,"current_range_meters":36400,"station_id":"ce4bhah2rcd13ifvqei0","pricing_plan_id":"cebpf4jnsgd1na2vs0mg"},{"bike_id":"d2efcfed-5a73-468d-9b41-398f083665f4","system_id":"levelo_inurba_marseille","lat":43.29303,"lon":5.3746,"is_reserved":false,"is_disabled":false,"rental_uris":{"android":"levelo://app?vid=d2efcfed-5a73-468d-9b41-398f083665f4","ios":"levelo://app?vid=d2efcfed-5a73-468d-9b41-398f083665f4"},"vehicle_type_id":"4","last_reported":1735891917,"current_range_meters":8800,"station_id":"ce4bgi12rcd13ifvqb70","pricing_plan_id":"cebpf4jnsgd1na2vs0mg"},{"bike_id":"d9039fb6-1526-43a5-ab47-bf6c74051347","system_id":"levelo_inurba_marseille","lat":43.28155,"lon":5.4265,"is_reserved":false,"is_disabled":false,"rental_uris":{"android":"levelo://app?vid=d9039fb6-1526-43a5-ab47-bf6c74051347","ios":"levelo://app?vid=d9039fb6-1526-43a5-ab47-bf6c74051347"},"vehicle_type_id":"4","last_reported":1735891917,"current_range_meters":38000,"station_id":"ce4bhnh2rcd13ifvqgug","pricing_plan_id":"cebpf4jnsgd1na2vs0mg"},{"bike_id":"4c5b21c9-cceb-4647-bd76-de90a80bb2e5","system_id":"levelo_inurba_marseille","lat":43.26683,"lon":5.38247,"is_reserved":false,"is_disabled":false,"rental_uris":{"android":"levelo://app?vid=4c5b21c9-cceb-4647-bd76-de90a80bb2e5","ios":"levelo://app?vid=4c5b21c9-cceb-4647-bd76-de90a80bb2e5"},"vehicle_type_id":"4","last_reported":1735891917,"current_range_meters":38800,"station_id":"ce4bhg92rcd13ifvqf90","pricing_plan_id":"cebpf4jnsgd1na2vs0mg"},{"bike_id":"a9271c5b-9c9f-499f-a04a-fb3d53712833","system_id":"levelo_inurba_marseille","lat":43.288105,"lon":5.384591,"is_reserved":false,"is_disabled":false,"rental_uris":{"android":"levelo://app?vid=a9271c5b-9c9f-499f-a04a-fb3d53712833","ios":"levelo://app?vid=a9271c5b-9c9f-499f-a04a-fb3d53712833"},"vehicle_type_id":"4","last_reported":1735891917,"current_range_meters":19200,"station_id":"ce4bho12rcd13ifvqh2g","pricing_plan_id":"cebpf4jnsgd1na2vs0mg"},{"bike_id":"e455576a-160a-4968-bd17-a0f8bcc0baae","system_id":"levelo_inurba_marseille","lat":43.28487,"lon":5.38416,"is_reserved":false,"is_disabled":false,"rental_uris":{"android":"levelo://app?vid=e455576a-160a-4968-bd17-a0f8bcc0baae","ios":"levelo://app?vid=e455576a-160a-4968-bd17-a0f8bcc0baae"},"vehicle_type_id":"4","last_reported":1735891917,"current_range_meters":32400,"station_id":"ce4bh512rcd13ifvqe3g","pricing_plan_id":"cebpf4jnsgd1na2vs0mg"},{"bike_id":"022d826a-d31d-48ef-b07e-f8dd0ceaa746","system_id":"levelo_inurba_marseille","lat":43.24996,"lon":5.38935,"is_reserved":false,"is_disabled":false,"rental_uris":{"android":"levelo://app?vid=022d826a-d31d-48ef-b07e-f8dd0ceaa746","ios":"levelo://app?vid=022d826a-d31d-48ef-b07e-f8dd0ceaa746"},"vehicle_type_id":"4","last_reported":1735891917,"current_range_meters":24400,"station_id":"ce4bhgp2rcd13ifvqfd0","pricing_plan_id":"cebpf4jnsgd1na2vs0mg"},{"bike_id":"0672ed57-7d2e-45ac-a9be-79ab7dd676f5","system_id":"levelo_inurba_marseille","lat":43.284742,"lon":5.384095,"is_reserved":false,"is_disabled":false,"rental_uris":{"android":"levelo://app?vid=0672ed57-7d2e-45ac-a9be-79ab7dd676f5","ios":"levelo://app?vid=0672ed57-7d2e-45ac-a9be-79ab7dd676f5"},"vehicle_type_id":"4","last_reported":1735891917,"current_range_meters":35600,"station_id":"ce4bh512rcd13ifvqe3g","pricing_plan_id":"cebpf4jnsgd1na2vs0mg"},{"bike_id":"5f97eee1-4bb9-43f4-8e6e-a0b21a58fdc8","system_id":"levelo_inurba_marseille","lat":43.3188,"lon":5.40726,"is_reserved":false,"is_disabled":false,"rental_uris":{"android":"levelo://app?vid=5f97eee1-4bb9-43f4-8e6e-a0b21a58fdc8","ios":"levelo://app?vid=5f97eee1-4bb9-43f4-8e6e-a0b21a58fdc8"},"vehicle_type_id":"4","last_reported":1735891917,"current_range_meters":38800,"station_id":"ce4bhq12rcd13ifvqhig","pricing_plan_id":"cebpf4jnsgd1na2vs0mg"},{"bike_id":"3ae31120-8eb0-4fad-8daf-2c2f7dd99836","system_id":"levelo_inurba_marseille","lat":43.29959,"lon":5.41319,"is_reserved":false,"is_disabled":false,"rental_uris":{"android":"levelo://app?vid=3ae31120-8eb0-4fad-8daf-2c2f7dd99836","ios":"levelo://app?vid=3ae31120-8eb0-4fad-8daf-2c2f7dd99836"},"vehicle_type_id":"4","last_reported":1735891917,"current_range_meters":28400,"station_id":"ce4bhp12rcd13ifvqh9g","pricing_plan_id":"cebpf4jnsgd1na2vs0mg"},{"bike_id":"aae7a589-9ed7-4381-94e5-2d2dde9f1d1f","system_id":"levelo_inurba_marseille","lat":43.28714,"lon":5.39993,"is_reserved":false,"is_disabled":false,"rental_uris":{"android":"levelo://app?vid=aae7a589-9ed7-4381-94e5-2d2dde9f1d1f","ios":"levelo://app?vid=aae7a589-9ed7-4381-94e5-2d2dde9f1d1f"},"vehicle_type_id":"4","last_reported":1735891917,"current_range_meters":38000,"station_id":"ce4bho92rcd13ifvqh3g","pricing_plan_id":"cebpf4jnsgd1na2vs0mg"},{"bike_id":"fbee9c16-1cc7-4460-b653-41d924f15e3d","system_id":"levelo_inurba_marseille","lat":43.337444,"lon":5.374475,"is_reserved":false,"is_disabled":false,"rental_uris":{"android":"levelo://app?vid=fbee9c16-1cc7-4460-b653-41d924f15e3d","ios":"levelo://app?vid=fbee9c16-1cc7-4460-b653-41d924f15e3d"},"vehicle_type_id":"4","last_reported":1735891917,"current_range_meters":32400,"station_id":"ce4bhp12rcd13ifvqh9g","pricing_plan_id":"cebpf4jnsgd1na2vs0mg"},{"bike_id":"c142a247-dd9f-4d9f-a2f9-072e3030d7fa","system_id":"levelo_inurba_marseille","lat":43.30455,"lon":5.37894,"is_reserved":false,"is_disabled":false,"rental_uris":{"android":"levelo://app?vid=c142a247-dd9f-4d9f-a2f9-072e3030d7fa","ios":"levelo://app?vid=c142a247-dd9f-4d9f-a2f9-072e3030d7fa"},"vehicle_type_id":"4","last_reported":1735891917,"current_range_meters":38800,"station_id":"ce4bgup2rcd13ifvqcn0","pricing_plan_id":"cebpf4jnsgd1na2vs0mg"},{"bike_id":"41ceb840-185c-47e7-a0f3-5a5721651aab","system_id":"levelo_inurba_marseille","lat":43.313225,"lon":5.396976,"is_reserved":false,"is_disabled":false,"rental_uris":{"android":"levelo://app?vid=41ceb840-185c-47e7-a0f3-5a5721651aab","ios":"levelo://app?vid=41ceb840-185c-47e7-a0f3-5a5721651aab"},"vehicle_type_id":"4","last_reported":1735891917,"current_range_meters":38000,"station_id":"ce4bgvp2rcd13ifvqcu0","pricing_plan_id":"cebpf4jnsgd1na2vs0mg"},{"bike_id":"983a939f-0c90-4b41-8e07-1ba37a328643","system_id":"levelo_inurba_marseille","lat":43.24167,"lon":5.36403,"is_reserved":false,"is_disabled":false,"rental_uris":{"android":"levelo://app?vid=983a939f-0c90-4b41-8e07-1ba37a328643","ios":"levelo://app?vid=983a939f-0c90-4b41-8e07-1ba37a328643"},"vehicle_type_id":"4","last_reported":1735891917,"current_range_meters":29600,"station_id":"cpo36qri1sfpv3e86is0","pricing_plan_id":"cebpf4jnsgd1na2vs0mg"},{"bike_id":"658f3f86-23aa-48e9-af5f-b9cb4bbf3b8e","system_id":"levelo_inurba_marseille","lat":43.295515,"lon":5.422869,"is_reserved":false,"is_disabled":false,"rental_uris":{"android":"levelo://app?vid=658f3f86-23aa-48e9-af5f-b9cb4bbf3b8e","ios":"levelo://app?vid=658f3f86-23aa-48e9-af5f-b9cb4bbf3b8e"},"vehicle_type_id":"4","last_reported":1735891917,"current_range_meters":38800,"station_id":"ce4bhph2rcd13ifvqhdg","pricing_plan_id":"cebpf4jnsgd1na2vs0mg"},{"bike_id":"b1bc80ea-a37c-4c59-9a47-5e93a5449456","system_id":"levelo_inurba_marseille","lat":43.2768,"lon":5.38909,"is_reserved":false,"is_disabled":false,"rental_uris":{"android":"levelo://app?vid=b1bc80ea-a37c-4c59-9a47-5e93a5449456","ios":"levelo://app?vid=b1bc80ea-a37c-4c59-9a47-5e93a5449456"},"vehicle_type_id":"4","last_reported":1735891917,"current_range_meters":33200,"station_id":"ce4bhi12rcd13ifvqfo0","pricing_plan_id":"cebpf4jnsgd1na2vs0mg"},{"bike_id":"12fe9bcf-b9b9-4d46-ba46-964aa81e2a67","system_id":"levelo_inurba_marseille","lat":43.30799,"lon":5.43529,"is_reserved":false,"is_disabled":false,"rental_uris":{"android":"levelo://app?vid=12fe9bcf-b9b9-4d46-ba46-964aa81e2a67","ios":"levelo://app?vid=12fe9bcf-b9b9-4d46-ba46-964aa81e2a67"},"vehicle_type_id":"4","last_reported":1735891917,"current_range_meters":38000,"station_id":"ce4bhph2rcd13ifvqheg","pricing_plan_id":"cebpf4jnsgd1na2vs0mg"},{"bike_id":"38010124-a2b0-4a82-bd2d-3d1c166f9f7c","system_id":"levelo_inurba_marseille","lat":43.27964,"lon":5.41009,"is_reserved":false,"is_disabled":false,"rental_uris":{"android":"levelo://app?vid=38010124-a2b0-4a82-bd2d-3d1c166f9f7c","ios":"levelo://app?vid=38010124-a2b0-4a82-bd2d-3d1c166f9f7c"},"vehicle_type_id":"4","last_reported":1735891917,"current_range_meters":5600,"station_id":"ce4bhnp2rcd13ifvqh0g","pricing_plan_id":"cebpf4jnsgd1na2vs0mg"},{"bike_id":"d0030ff6-f8b3-4b75-bb9b-f2175ff4ca9d","system_id":"levelo_inurba_marseille","lat":43.24071,"lon":5.37754,"is_reserved":false,"is_disabled":false,"rental_uris":{"android":"levelo://app?vid=d0030ff6-f8b3-4b75-bb9b-f2175ff4ca9d","ios":"levelo://app?vid=d0030ff6-f8b3-4b75-bb9b-f2175ff4ca9d"},"vehicle_type_id":"4","last_reported":1735891917,"current_range_meters":38000,"station_id":"ce4bhnp2rcd13ifvqgvg","pricing_plan_id":"cebpf4jnsgd1na2vs0mg"},{"bike_id":"1df3f686-7a5b-4b27-a323-3ea93b91e5eb","system_id":"levelo_inurba_marseille","lat":43.28491,"lon":5.38409,"is_reserved":false,"is_disabled":true,"rental_uris":{"android":"levelo://app?vid=1df3f686-7a5b-4b27-a323-3ea93b91e5eb","ios":"levelo://app?vid=1df3f686-7a5b-4b27-a323-3ea93b91e5eb"},"vehicle_type_id":"4","last_reported":1735891917,"current_range_meters":33200,"station_id":"ce4bh512rcd13ifvqe3g","pricing_plan_id":"cebpf4jnsgd1na2vs0mg"},{"bike_id":"288df3f3-407a-4ba2-b112-c5ead5bfabe0","system_id":"levelo_inurba_marseille","lat":43.29004,"lon":5.35606,"is_reserved":false,"is_disabled":false,"rental_uris":{"android":"levelo://app?vid=288df3f3-407a-4ba2-b112-c5ead5bfabe0","ios":"levelo://app?vid=288df3f3-407a-4ba2-b112-c5ead5bfabe0"},"vehicle_type_id":"4","last_reported":1735891917,"current_range_meters":37600,"station_id":"ce4bhb92rcd13ifvqen0","pricing_plan_id":"cebpf4jnsgd1na2vs0mg"},{"bike_id":"349a4ab8-6f13-4948-be71-abaadb9466ee","system_id":"levelo_inurba_marseille","lat":43.24078,"lon":5.37766,"is_reserved":false,"is_disabled":false,"rental_uris":{"android":"levelo://app?vid=349a4ab8-6f13-4948-be71-abaadb9466ee","ios":"levelo://app?vid=349a4ab8-6f13-4948-be71-abaadb9466ee"},"vehicle_type_id":"4","last_reported":1735891917,"current_range_meters":38000,"station_id":"ce4bhnp2rcd13ifvqgvg","pricing_plan_id":"cebpf4jnsgd1na2vs0mg"},{"bike_id":"38df15aa-5f2d-4cd1-b433-59076556bf07","system_id":"levelo_inurba_marseille","lat":43.27678,"lon":5.38902,"is_reserved":false,"is_disabled":false,"rental_uris":{"android":"levelo://app?vid=38df15aa-5f2d-4cd1-b433-59076556bf07","ios":"levelo://app?vid=38df15aa-5f2d-4cd1-b433-59076556bf07"},"vehicle_type_id":"4","last_reported":1735891917,"current_range_meters":24800,"station_id":"ce4bhi12rcd13ifvqfo0","pricing_plan_id":"cebpf4jnsgd1na2vs0mg"},{"bike_id":"97829712-45ed-44f4-98b1-03aec2ad37f0","system_id":"levelo_inurba_marseille","lat":43.26688,"lon":5.38259,"is_reserved":false,"is_disabled":false,"rental_uris":{"android":"levelo://app?vid=97829712-45ed-44f4-98b1-03aec2ad37f0","ios":"levelo://app?vid=97829712-45ed-44f4-98b1-03aec2ad37f0"},"vehicle_type_id":"4","last_reported":1735891917,"current_range_meters":38800,"station_id":"ce4bhg92rcd13ifvqf90","pricing_plan_id":"cebpf4jnsgd1na2vs0mg"},{"bike_id":"e7f232e6-9751-45f4-a24f-005b95d10947","system_id":"levelo_inurba_marseille","lat":43.296018,"lon":5.377205,"is_reserved":false,"is_disabled":true,"rental_uris":{"android":"levelo://app?vid=e7f232e6-9751-45f4-a24f-005b95d10947","ios":"levelo://app?vid=e7f232e6-9751-45f4-a24f-005b95d10947"},"vehicle_type_id":"4","last_reported":1735891917,"current_range_meters":0,"station_id":"ce4bgi92rcd13ifvqb90","pricing_plan_id":"cebpf4jnsgd1na2vs0mg"},{"bike_id":"1abbab89-08d2-4bda-9ed9-67d9a3dd8625","system_id":"levelo_inurba_marseille","lat":43.30576,"lon":5.401036,"is_reserved":false,"is_disabled":false,"rental_uris":{"android":"levelo://app?vid=1abbab89-08d2-4bda-9ed9-67d9a3dd8625","ios":"levelo://app?vid=1abbab89-08d2-4bda-9ed9-67d9a3dd8625"},"vehicle_type_id":"4","last_reported":1735891917,"current_range_meters":10800,"station_id":"","pricing_plan_id":"cebpf4jnsgd1na2vs0mg"},{"bike_id":"f3998a04-3b93-4948-8eb7-aa16047370fd","system_id":"levelo_inurba_marseille","lat":43.27957,"lon":5.41037,"is_reserved":false,"is_disabled":false,"rental_uris":{"android":"levelo://app?vid=f3998a04-3b93-4948-8eb7-aa16047370fd","ios":"levelo://app?vid=f3998a04-3b93-4948-8eb7-aa16047370fd"},"vehicle_type_id":"4","last_reported":1735891917,"current_range_meters":19200,"station_id":"ce4bhnp2rcd13ifvqh0g","pricing_plan_id":"cebpf4jnsgd1na2vs0mg"},{"bike_id":"1c5434c6-81cf-4ea8-9bf2-abfb41c12665","system_id":"levelo_inurba_marseille","lat":43.30891,"lon":5.37197,"is_reserved":false,"is_disabled":true,"rental_uris":{"android":"levelo://app?vid=1c5434c6-81cf-4ea8-9bf2-abfb41c12665","ios":"levelo://app?vid=1c5434c6-81cf-4ea8-9bf2-abfb41c12665"},"vehicle_type_id":"4","last_reported":1735891917,"current_range_meters":36000,"station_id":"ce4bguh2rcd13ifvqckg","pricing_plan_id":"cebpf4jnsgd1na2vs0mg"},{"bike_id":"bbb173c2-5fa6-4439-999a-e24a3ecc81ee","system_id":"levelo_inurba_marseille","lat":43.295543,"lon":5.422786,"is_reserved":false,"is_disabled":false,"rental_uris":{"android":"levelo://app?vid=bbb173c2-5fa6-4439-999a-e24a3ecc81ee","ios":"levelo://app?vid=bbb173c2-5fa6-4439-999a-e24a3ecc81ee"},"vehicle_type_id":"4","last_reported":1735891917,"current_range_meters":28800,"station_id":"ce4bhph2rcd13ifvqhdg","pricing_plan_id":"cebpf4jnsgd1na2vs0mg"},{"bike_id":"bcf02e76-fa50-4f64-90a2-46e6b41ce376","system_id":"levelo_inurba_marseille","lat":43.28362,"lon":5.38116,"is_reserved":false,"is_disabled":false,"rental_uris":{"android":"levelo://app?vid=bcf02e76-fa50-4f64-90a2-46e6b41ce376","ios":"levelo://app?vid=bcf02e76-fa50-4f64-90a2-46e6b41ce376"},"vehicle_type_id":"4","last_reported":1735891917,"current_range_meters":37600,"station_id":"ce4bh412rcd13ifvqdr0","pricing_plan_id":"cebpf4jnsgd1na2vs0mg"},{"bike_id":"bf0134ca-54e1-43be-8b29-8c6ccab6ae0d","system_id":"levelo_inurba_marseille","lat":43.24807,"lon":5.37456,"is_reserved":false,"is_disabled":false,"rental_uris":{"android":"levelo://app?vid=bf0134ca-54e1-43be-8b29-8c6ccab6ae0d","ios":"levelo://app?vid=bf0134ca-54e1-43be-8b29-8c6ccab6ae0d"},"vehicle_type_id":"4","last_reported":1735891917,"current_range_meters":36800,"station_id":"ce4bhgh2rcd13ifvqfb0","pricing_plan_id":"cebpf4jnsgd1na2vs0mg"},{"bike_id":"9a633b20-48e1-4d57-88ca-cc77983ef0f1","system_id":"levelo_inurba_marseille","lat":43.28153,"lon":5.42638,"is_reserved":false,"is_disabled":false,"rental_uris":{"android":"levelo://app?vid=9a633b20-48e1-4d57-88ca-cc77983ef0f1","ios":"levelo://app?vid=9a633b20-48e1-4d57-88ca-cc77983ef0f1"},"vehicle_type_id":"4","last_reported":1735891917,"current_range_meters":12800,"station_id":"ce4bhnh2rcd13ifvqgug","pricing_plan_id":"cebpf4jnsgd1na2vs0mg"},{"bike_id":"e157af35-862f-4ff3-a971-0cec14143385","system_id":"levelo_inurba_marseille","lat":43.2795,"lon":5.41049,"is_reserved":false,"is_disabled":false,"rental_uris":{"android":"levelo://app?vid=e157af35-862f-4ff3-a971-0cec14143385","ios":"levelo://app?vid=e157af35-862f-4ff3-a971-0cec14143385"},"vehicle_type_id":"4","last_reported":1735891917,"current_range_meters":25200,"station_id":"ce4bhnp2rcd13ifvqh0g","pricing_plan_id":"cebpf4jnsgd1na2vs0mg"},{"bike_id":"d5ff11fb-4c05-42fc-a581-44003a2d3503","system_id":"levelo_inurba_marseille","lat":43.31219,"lon":5.36855,"is_reserved":false,"is_disabled":false,"rental_uris":{"android":"levelo://app?vid=d5ff11fb-4c05-42fc-a581-44003a2d3503","ios":"levelo://app?vid=d5ff11fb-4c05-42fc-a581-44003a2d3503"},"vehicle_type_id":"4","last_reported":1735891917,"current_range_meters":39200,"station_id":"ce4bgl92rcd13ifvqbq0","pricing_plan_id":"cebpf4jnsgd1na2vs0mg"},{"bike_id":"a4828b82-6158-43c7-aedb-77476d918880","system_id":"levelo_inurba_marseille","lat":43.28613,"lon":5.35086,"is_reserved":false,"is_disabled":false,"rental_uris":{"android":"levelo://app?vid=a4828b82-6158-43c7-aedb-77476d918880","ios":"levelo://app?vid=a4828b82-6158-43c7-aedb-77476d918880"},"vehicle_type_id":"4","last_reported":1735891917,"current_range_meters":23200,"station_id":"ce4bhch2rcd13ifvqeug","pricing_plan_id":"cebpf4jnsgd1na2vs0mg"},{"bike_id":"43c64af5-9471-4260-89db-8ab112e03a32","system_id":"levelo_inurba_marseille","lat":43.27488,"lon":5.42471,"is_reserved":false,"is_disabled":false,"rental_uris":{"android":"levelo://app?vid=43c64af5-9471-4260-89db-8ab112e03a32","ios":"levelo://app?vid=43c64af5-9471-4260-89db-8ab112e03a32"},"vehicle_type_id":"4","last_reported":1735891917,"current_range_meters":9200,"station_id":"ce4bhn92rcd13ifvqgrg","pricing_plan_id":"cebpf4jnsgd1na2vs0mg"},{"bike_id":"eb18f0bc-8152-4404-ac62-89b93f43f37d","system_id":"levelo_inurba_marseille","lat":43.27315,"lon":5.39118,"is_reserved":false,"is_disabled":false,"rental_uris":{"android":"levelo://app?vid=eb18f0bc-8152-4404-ac62-89b93f43f37d","ios":"levelo://app?vid=eb18f0bc-8152-4404-ac62-89b93f43f37d"},"vehicle_type_id":"4","last_reported":1735891917,"current_range_meters":25200,"station_id":"ce4bhgp2rcd13ifvqfe0","pricing_plan_id":"cebpf4jnsgd1na2vs0mg"},{"bike_id":"a97f469d-d3be-46af-86b7-e0df4902f52c","system_id":"levelo_inurba_marseille","lat":43.276387,"lon":5.426645,"is_reserved":false,"is_disabled":false,"rental_uris":{"android":"levelo://app?vid=a97f469d-d3be-46af-86b7-e0df4902f52c","ios":"levelo://app?vid=a97f469d-d3be-46af-86b7-e0df4902f52c"},"vehicle_type_id":"4","last_reported":1735891917,"current_range_meters":30400,"station_id":"ce4bhnh2rcd13ifvqgug","pricing_plan_id":"cebpf4jnsgd1na2vs0mg"},{"bike_id":"a106e2d5-d5f8-4132-b59f-a0b0becc7d1d","system_id":"levelo_inurba_marseille","lat":43.2799,"lon":5.40033,"is_reserved":false,"is_disabled":false,"rental_uris":{"android":"levelo://app?vid=a106e2d5-d5f8-4132-b59f-a0b0becc7d1d","ios":"levelo://app?vid=a106e2d5-d5f8-4132-b59f-a0b0becc7d1d"},"vehicle_type_id":"4","last_reported":1735891917,"current_range_meters":38800,"station_id":"ce4bho92rcd13ifvqh4g","pricing_plan_id":"cebpf4jnsgd1na2vs0mg"},{"bike_id":"01ff8f59-7e36-40f3-8c14-a4c836affc26","system_id":"levelo_inurba_marseille","lat":43.280806,"lon":5.396541,"is_reserved":false,"is_disabled":false,"rental_uris":{"android":"levelo://app?vid=01ff8f59-7e36-40f3-8c14-a4c836affc26","ios":"levelo://app?vid=01ff8f59-7e36-40f3-8c14-a4c836affc26"},"vehicle_type_id":"4","last_reported":1735891917,"current_range_meters":31200,"station_id":"ce4bho12rcd13ifvqh2g","pricing_plan_id":"cebpf4jnsgd1na2vs0mg"},{"bike_id":"f3c12ef4-82bd-48ff-8ba6-8f2c9a44f8b9","system_id":"levelo_inurba_marseille","lat":43.24806,"lon":5.37458,"is_reserved":false,"is_disabled":false,"rental_uris":{"android":"levelo://app?vid=f3c12ef4-82bd-48ff-8ba6-8f2c9a44f8b9","ios":"levelo://app?vid=f3c12ef4-82bd-48ff-8ba6-8f2c9a44f8b9"},"vehicle_type_id":"4","last_reported":1735891917,"current_range_meters":36400,"station_id":"ce4bhgh2rcd13ifvqfb0","pricing_plan_id":"cebpf4jnsgd1na2vs0mg"},{"bike_id":"1d64e5d9-6db1-4098-b8df-bf1bbd653564","system_id":"levelo_inurba_marseille","lat":43.27353,"lon":5.36272,"is_reserved":false,"is_disabled":true,"rental_uris":{"android":"levelo://app?vid=1d64e5d9-6db1-4098-b8df-bf1bbd653564","ios":"levelo://app?vid=1d64e5d9-6db1-4098-b8df-bf1bbd653564"},"vehicle_type_id":"4","last_reported":1735891917,"current_range_meters":0,"station_id":"ce4bhbh2rcd13ifvqeo0","pricing_plan_id":"cebpf4jnsgd1na2vs0mg"},{"bike_id":"def36ed6-f9e1-48ab-bc0b-b9c1311e69be","system_id":"levelo_inurba_marseille","lat":43.25504,"lon":5.3765,"is_reserved":false,"is_disabled":false,"rental_uris":{"android":"levelo://app?vid=def36ed6-f9e1-48ab-bc0b-b9c1311e69be","ios":"levelo://app?vid=def36ed6-f9e1-48ab-bc0b-b9c1311e69be"},"vehicle_type_id":"4","last_reported":1735891917,"current_range_meters":38800,"station_id":"ce4bhh12rcd13ifvqff0","pricing_plan_id":"cebpf4jnsgd1na2vs0mg"},{"bike_id":"660aed1d-cdeb-4a3c-a6d4-d19ef9a2563b","system_id":"levelo_inurba_marseille","lat":43.29892,"lon":5.4367,"is_reserved":false,"is_disabled":false,"rental_uris":{"android":"levelo://app?vid=660aed1d-cdeb-4a3c-a6d4-d19ef9a2563b","ios":"levelo://app?vid=660aed1d-cdeb-4a3c-a6d4-d19ef9a2563b"},"vehicle_type_id":"4","last_reported":1735891917,"current_range_meters":37600,"station_id":"ce4bhpp2rcd13ifvqhfg","pricing_plan_id":"cebpf4jnsgd1na2vs0mg"},{"bike_id":"725999bb-8b32-4e5b-95fc-d63880a1b626","system_id":"levelo_inurba_marseille","lat":43.3265,"lon":5.40975,"is_reserved":false,"is_disabled":false,"rental_uris":{"android":"levelo://app?vid=725999bb-8b32-4e5b-95fc-d63880a1b626","ios":"levelo://app?vid=725999bb-8b32-4e5b-95fc-d63880a1b626"},"vehicle_type_id":"4","last_reported":1735891917,"current_range_meters":38800,"station_id":"ce4bhpp2rcd13ifvqhgg","pricing_plan_id":"cebpf4jnsgd1na2vs0mg"},{"bike_id":"2af79f06-2f41-443a-8c98-b554c72b55db","system_id":"levelo_inurba_marseille","lat":43.24815,"lon":5.37469,"is_reserved":false,"is_disabled":true,"rental_uris":{"android":"levelo://app?vid=2af79f06-2f41-443a-8c98-b554c72b55db","ios":"levelo://app?vid=2af79f06-2f41-443a-8c98-b554c72b55db"},"vehicle_type_id":"4","last_reported":1735891917,"current_range_meters":38000,"station_id":"ce4bhgh2rcd13ifvqfb0","pricing_plan_id":"cebpf4jnsgd1na2vs0mg"},{"bike_id":"7884a4ce-2ee8-4ff7-9e9f-a95fec00f69b","system_id":"levelo_inurba_marseille","lat":43.28483,"lon":5.38415,"is_reserved":false,"is_disabled":false,"rental_uris":{"android":"levelo://app?vid=7884a4ce-2ee8-4ff7-9e9f-a95fec00f69b","ios":"levelo://app?vid=7884a4ce-2ee8-4ff7-9e9f-a95fec00f69b"},"vehicle_type_id":"4","last_reported":1735891917,"current_range_meters":25600,"station_id":"ce4bh512rcd13ifvqe3g","pricing_plan_id":"cebpf4jnsgd1na2vs0mg"},{"bike_id":"123a3880-66e4-4a19-a99e-7253f12bf50c","system_id":"levelo_inurba_marseille","lat":43.25935,"lon":5.40888,"is_reserved":false,"is_disabled":false,"rental_uris":{"android":"levelo://app?vid=123a3880-66e4-4a19-a99e-7253f12bf50c","ios":"levelo://app?vid=123a3880-66e4-4a19-a99e-7253f12bf50c"},"vehicle_type_id":"4","last_reported":1735891917,"current_range_meters":20000,"station_id":"ce4bhm92rcd13ifvqglg","pricing_plan_id":"cebpf4jnsgd1na2vs0mg"},{"bike_id":"100bcbb9-09a6-4512-91ac-803ee31d820d","system_id":"levelo_inurba_marseille","lat":43.34141,"lon":5.40902,"is_reserved":false,"is_disabled":false,"rental_uris":{"android":"levelo://app?vid=100bcbb9-09a6-4512-91ac-803ee31d820d","ios":"levelo://app?vid=100bcbb9-09a6-4512-91ac-803ee31d820d"},"vehicle_type_id":"4","last_reported":1735891917,"current_range_meters":16000,"station_id":"ce4bhqh2rcd13ifvqhlg","pricing_plan_id":"cebpf4jnsgd1na2vs0mg"},{"bike_id":"96cb6bae-f2f5-4454-84e9-1e631669b024","system_id":"levelo_inurba_marseille","lat":43.25106,"lon":5.4033,"is_reserved":false,"is_disabled":false,"rental_uris":{"android":"levelo://app?vid=96cb6bae-f2f5-4454-84e9-1e631669b024","ios":"levelo://app?vid=96cb6bae-f2f5-4454-84e9-1e631669b024"},"vehicle_type_id":"4","last_reported":1735891917,"current_range_meters":39200,"station_id":"ce4bhlh2rcd13ifvqgig","pricing_plan_id":"cebpf4jnsgd1na2vs0mg"},{"bike_id":"91a65f16-b230-4121-ae51-af8e7934778b","system_id":"levelo_inurba_marseille","lat":43.30528,"lon":5.36716,"is_reserved":false,"is_disabled":false,"rental_uris":{"android":"levelo://app?vid=91a65f16-b230-4121-ae51-af8e7934778b","ios":"levelo://app?vid=91a65f16-b230-4121-ae51-af8e7934778b"},"vehicle_type_id":"4","last_reported":1735891917,"current_range_meters":31200,"station_id":"ce4bgrp2rcd13ifvqc9g","pricing_plan_id":"cebpf4jnsgd1na2vs0mg"},{"bike_id":"fdb25d5f-5042-41f0-ac5b-ae98153a6879","system_id":"levelo_inurba_marseille","lat":43.27994,"lon":5.40012,"is_reserved":false,"is_disabled":false,"rental_uris":{"android":"levelo://app?vid=fdb25d5f-5042-41f0-ac5b-ae98153a6879","ios":"levelo://app?vid=fdb25d5f-5042-41f0-ac5b-ae98153a6879"},"vehicle_type_id":"4","last_reported":1735891917,"current_range_meters":36800,"station_id":"ce4bho92rcd13ifvqh4g","pricing_plan_id":"cebpf4jnsgd1na2vs0mg"},{"bike_id":"921cbbf4-6180-4027-b0b7-152b6fc11410","system_id":"levelo_inurba_marseille","lat":43.27566,"lon":5.38414,"is_reserved":false,"is_disabled":false,"rental_uris":{"android":"levelo://app?vid=921cbbf4-6180-4027-b0b7-152b6fc11410","ios":"levelo://app?vid=921cbbf4-6180-4027-b0b7-152b6fc11410"},"vehicle_type_id":"4","last_reported":1735891917,"current_range_meters":4000,"station_id":"ce4bhh92rcd13ifvqfi0","pricing_plan_id":"cebpf4jnsgd1na2vs0mg"},{"bike_id":"d9e7591d-4e69-4829-a945-5299a0d4f5d3","system_id":"levelo_inurba_marseille","lat":43.31892,"lon":5.40723,"is_reserved":false,"is_disabled":false,"rental_uris":{"android":"levelo://app?vid=d9e7591d-4e69-4829-a945-5299a0d4f5d3","ios":"levelo://app?vid=d9e7591d-4e69-4829-a945-5299a0d4f5d3"},"vehicle_type_id":"4","last_reported":1735891917,"current_range_meters":16000,"station_id":"ce4bhq12rcd13ifvqhig","pricing_plan_id":"cebpf4jnsgd1na2vs0mg"},{"bike_id":"17011feb-119c-489c-906a-b56ce2c555ce","system_id":"levelo_inurba_marseille","lat":43.26496,"lon":5.39562,"is_reserved":false,"is_disabled":false,"rental_uris":{"android":"levelo://app?vid=17011feb-119c-489c-906a-b56ce2c555ce","ios":"levelo://app?vid=17011feb-119c-489c-906a-b56ce2c555ce"},"vehicle_type_id":"4","last_reported":1735891917,"current_range_meters":38800,"station_id":"ce4bhi12rcd13ifvqfq0","pricing_plan_id":"cebpf4jnsgd1na2vs0mg"},{"bike_id":"4e2e926a-cc62-4529-8b24-3abbcf0f0be2","system_id":"levelo_inurba_marseille","lat":43.23188,"lon":5.35553,"is_reserved":false,"is_disabled":false,"rental_uris":{"android":"levelo://app?vid=4e2e926a-cc62-4529-8b24-3abbcf0f0be2","ios":"levelo://app?vid=4e2e926a-cc62-4529-8b24-3abbcf0f0be2"},"vehicle_type_id":"4","last_reported":1735891917,"current_range_meters":34000,"station_id":"ce4bhu92rcd13ifvqi70","pricing_plan_id":"cebpf4jnsgd1na2vs0mg"},{"bike_id":"4a89ebb6-73ff-49a0-aad9-480369e7d9f4","system_id":"levelo_inurba_marseille","lat":43.337444,"lon":5.374475,"is_reserved":false,"is_disabled":false,"rental_uris":{"android":"levelo://app?vid=4a89ebb6-73ff-49a0-aad9-480369e7d9f4","ios":"levelo://app?vid=4a89ebb6-73ff-49a0-aad9-480369e7d9f4"},"vehicle_type_id":"4","last_reported":1735891917,"current_range_meters":16400,"station_id":"ce4bhjp2rcd13ifvqg90","pricing_plan_id":"cebpf4jnsgd1na2vs0mg"},{"bike_id":"ee7da7e1-0487-4a7b-838f-676e9c820e80","system_id":"levelo_inurba_marseille","lat":43.304182,"lon":5.397536,"is_reserved":false,"is_disabled":true,"rental_uris":{"android":"levelo://app?vid=ee7da7e1-0487-4a7b-838f-676e9c820e80","ios":"levelo://app?vid=ee7da7e1-0487-4a7b-838f-676e9c820e80"},"vehicle_type_id":"4","last_reported":1735891917,"current_range_meters":34800,"station_id":"ce4bh092rcd13ifvqd20","pricing_plan_id":"cebpf4jnsgd1na2vs0mg"},{"bike_id":"3ea04de7-4d1d-4387-b485-6cdf6b404c9c","system_id":"levelo_inurba_marseille","lat":43.25726,"lon":5.41109,"is_reserved":false,"is_disabled":false,"rental_uris":{"android":"levelo://app?vid=3ea04de7-4d1d-4387-b485-6cdf6b404c9c","ios":"levelo://app?vid=3ea04de7-4d1d-4387-b485-6cdf6b404c9c"},"vehicle_type_id":"4","last_reported":1735891917,"current_range_meters":6000,"station_id":"ce4bhkp2rcd13ifvqgd0","pricing_plan_id":"cebpf4jnsgd1na2vs0mg"},{"bike_id":"9e59c645-d82a-4b44-9157-8e5695ab60c0","system_id":"levelo_inurba_marseille","lat":43.265,"lon":5.39538,"is_reserved":false,"is_disabled":false,"rental_uris":{"android":"levelo://app?vid=9e59c645-d82a-4b44-9157-8e5695ab60c0","ios":"levelo://app?vid=9e59c645-d82a-4b44-9157-8e5695ab60c0"},"vehicle_type_id":"4","last_reported":1735891917,"current_range_meters":24000,"station_id":"ce4bhi12rcd13ifvqfq0","pricing_plan_id":"cebpf4jnsgd1na2vs0mg"},{"bike_id":"5a81294f-bc67-4290-8a94-afc45e902d73","system_id":"levelo_inurba_marseille","lat":43.26957,"lon":5.38622,"is_reserved":false,"is_disabled":false,"rental_uris":{"android":"levelo://app?vid=5a81294f-bc67-4290-8a94-afc45e902d73","ios":"levelo://app?vid=5a81294f-bc67-4290-8a94-afc45e902d73"},"vehicle_type_id":"4","last_reported":1735891917,"current_range_meters":33200,"station_id":"ce4bhh92rcd13ifvqfh0","pricing_plan_id":"cebpf4jnsgd1na2vs0mg"},{"bike_id":"3c348272-b440-4426-b2c7-621e1bcaa53c","system_id":"levelo_inurba_marseille","lat":43.270722,"lon":5.42281,"is_reserved":false,"is_disabled":false,"rental_uris":{"android":"levelo://app?vid=3c348272-b440-4426-b2c7-621e1bcaa53c","ios":"levelo://app?vid=3c348272-b440-4426-b2c7-621e1bcaa53c"},"vehicle_type_id":"4","last_reported":1735891917,"current_range_meters":33200,"station_id":"ce4bhk92rcd13ifvqgb0","pricing_plan_id":"cebpf4jnsgd1na2vs0mg"},{"bike_id":"e39779cb-dd0b-481e-95ed-043cce584dc4","system_id":"levelo_inurba_marseille","lat":43.24395,"lon":5.37057,"is_reserved":false,"is_disabled":false,"rental_uris":{"android":"levelo://app?vid=e39779cb-dd0b-481e-95ed-043cce584dc4","ios":"levelo://app?vid=e39779cb-dd0b-481e-95ed-043cce584dc4"},"vehicle_type_id":"4","last_reported":1735891917,"current_range_meters":16800,"station_id":"ce4bhhh2rcd13ifvqfk0","pricing_plan_id":"cebpf4jnsgd1na2vs0mg"},{"bike_id":"20877931-d020-4d46-85f9-75614b926481","system_id":"levelo_inurba_marseille","lat":43.29534,"lon":5.37492,"is_reserved":false,"is_disabled":false,"rental_uris":{"android":"levelo://app?vid=20877931-d020-4d46-85f9-75614b926481","ios":"levelo://app?vid=20877931-d020-4d46-85f9-75614b926481"},"vehicle_type_id":"4","last_reported":1735891917,"current_range_meters":22000,"station_id":"ce4bgkp2rcd13ifvqbmg","pricing_plan_id":"cebpf4jnsgd1na2vs0mg"},{"bike_id":"52d5825b-8fdc-4854-992a-dcc3af8afc8b","system_id":"levelo_inurba_marseille","lat":43.29799,"lon":5.38074,"is_reserved":false,"is_disabled":false,"rental_uris":{"android":"levelo://app?vid=52d5825b-8fdc-4854-992a-dcc3af8afc8b","ios":"levelo://app?vid=52d5825b-8fdc-4854-992a-dcc3af8afc8b"},"vehicle_type_id":"4","last_reported":1735891917,"current_range_meters":39200,"station_id":"ce4bgip2rcd13ifvqbb0","pricing_plan_id":"cebpf4jnsgd1na2vs0mg"},{"bike_id":"a10cb38b-c0a9-46c5-81e3-8b36eafcdd96","system_id":"levelo_inurba_marseille","lat":43.28982,"lon":5.37844,"is_reserved":false,"is_disabled":false,"rental_uris":{"android":"levelo://app?vid=a10cb38b-c0a9-46c5-81e3-8b36eafcdd96","ios":"levelo://app?vid=a10cb38b-c0a9-46c5-81e3-8b36eafcdd96"},"vehicle_type_id":"4","last_reported":1735891917,"current_range_meters":32800,"station_id":"ce4bh9p2rcd13ifvqed0","pricing_plan_id":"cebpf4jnsgd1na2vs0mg"},{"bike_id":"9a9bf74d-b93a-4192-8733-08819111a2fb","system_id":"levelo_inurba_marseille","lat":43.26804,"lon":5.40253,"is_reserved":false,"is_disabled":false,"rental_uris":{"android":"levelo://app?vid=9a9bf74d-b93a-4192-8733-08819111a2fb","ios":"levelo://app?vid=9a9bf74d-b93a-4192-8733-08819111a2fb"},"vehicle_type_id":"4","last_reported":1735891917,"current_range_meters":38800,"station_id":"ce501612rcd8frsf0b60","pricing_plan_id":"cebpf4jnsgd1na2vs0mg"},{"bike_id":"e86e8a6b-2981-4147-9bb2-a5ab92db9450","system_id":"levelo_inurba_marseille","lat":43.28163,"lon":5.42659,"is_reserved":false,"is_disabled":false,"rental_uris":{"android":"levelo://app?vid=e86e8a6b-2981-4147-9bb2-a5ab92db9450","ios":"levelo://app?vid=e86e8a6b-2981-4147-9bb2-a5ab92db9450"},"vehicle_type_id":"4","last_reported":1735891917,"current_range_meters":38000,"station_id":"ce4bhnh2rcd13ifvqgug","pricing_plan_id":"cebpf4jnsgd1na2vs0mg"},{"bike_id":"36f6af84-b4ea-4fc7-b4cf-bfa109fbf38e","system_id":"levelo_inurba_marseille","lat":43.28151,"lon":5.42647,"is_reserved":false,"is_disabled":false,"rental_uris":{"android":"levelo://app?vid=36f6af84-b4ea-4fc7-b4cf-bfa109fbf38e","ios":"levelo://app?vid=36f6af84-b4ea-4fc7-b4cf-bfa109fbf38e"},"vehicle_type_id":"4","last_reported":1735891917,"current_range_meters":8400,"station_id":"ce4bhnh2rcd13ifvqgug","pricing_plan_id":"cebpf4jnsgd1na2vs0mg"},{"bike_id":"caa6fa5a-2c99-43f6-ad11-063669c14bd6","system_id":"levelo_inurba_marseille","lat":43.30807,"lon":5.43506,"is_reserved":false,"is_disabled":true,"rental_uris":{"android":"levelo://app?vid=caa6fa5a-2c99-43f6-ad11-063669c14bd6","ios":"levelo://app?vid=caa6fa5a-2c99-43f6-ad11-063669c14bd6"},"vehicle_type_id":"4","last_reported":1735891917,"current_range_meters":24400,"station_id":"ce4bhph2rcd13ifvqheg","pricing_plan_id":"cebpf4jnsgd1na2vs0mg"},{"bike_id":"a14175ed-21b7-4bee-a20f-b5e0add00694","system_id":"levelo_inurba_marseille","lat":43.28441,"lon":5.39148,"is_reserved":false,"is_disabled":false,"rental_uris":{"android":"levelo://app?vid=a14175ed-21b7-4bee-a20f-b5e0add00694","ios":"levelo://app?vid=a14175ed-21b7-4bee-a20f-b5e0add00694"},"vehicle_type_id":"4","last_reported":1735891917,"current_range_meters":38800,"station_id":"ce4bhoh2rcd13ifvqh5g","pricing_plan_id":"cebpf4jnsgd1na2vs0mg"},{"bike_id":"5367a292-5564-4681-91cd-97babb89fc00","system_id":"levelo_inurba_marseille","lat":43.22925,"lon":5.3538,"is_reserved":false,"is_disabled":false,"rental_uris":{"android":"levelo://app?vid=5367a292-5564-4681-91cd-97babb89fc00","ios":"levelo://app?vid=5367a292-5564-4681-91cd-97babb89fc00"},"vehicle_type_id":"4","last_reported":1735891917,"current_range_meters":12400,"station_id":"cpo3532slgdg3j2ikp40","pricing_plan_id":"cebpf4jnsgd1na2vs0mg"},{"bike_id":"e40b8873-a7cf-4e56-b106-d515344f64c4","system_id":"levelo_inurba_marseille","lat":43.23186,"lon":5.35568,"is_reserved":false,"is_disabled":false,"rental_uris":{"android":"levelo://app?vid=e40b8873-a7cf-4e56-b106-d515344f64c4","ios":"levelo://app?vid=e40b8873-a7cf-4e56-b106-d515344f64c4"},"vehicle_type_id":"4","last_reported":1735891917,"current_range_meters":38800,"station_id":"ce4bhu92rcd13ifvqi70","pricing_plan_id":"cebpf4jnsgd1na2vs0mg"},{"bike_id":"323b0c30-3f8d-4739-937d-d0cf8a2a71b6","system_id":"levelo_inurba_marseille","lat":43.24542,"lon":5.39511,"is_reserved":false,"is_disabled":false,"rental_uris":{"android":"levelo://app?vid=323b0c30-3f8d-4739-937d-d0cf8a2a71b6","ios":"levelo://app?vid=323b0c30-3f8d-4739-937d-d0cf8a2a71b6"},"vehicle_type_id":"4","last_reported":1735891917,"current_range_meters":30400,"station_id":"ce4bhlp2rcd13ifvqgjg","pricing_plan_id":"cebpf4jnsgd1na2vs0mg"},{"bike_id":"9027064e-6565-4c6d-8145-3a52c0a6a72f","system_id":"levelo_inurba_marseille","lat":43.2985,"lon":5.3629,"is_reserved":false,"is_disabled":false,"rental_uris":{"android":"levelo://app?vid=9027064e-6565-4c6d-8145-3a52c0a6a72f","ios":"levelo://app?vid=9027064e-6565-4c6d-8145-3a52c0a6a72f"},"vehicle_type_id":"4","last_reported":1735891917,"current_range_meters":38800,"station_id":"ce4bgpp2rcd13ifvqc3g","pricing_plan_id":"cebpf4jnsgd1na2vs0mg"},{"bike_id":"16a79894-6299-4562-af17-8a7f393c1fad","system_id":"levelo_inurba_marseille","lat":43.30907,"lon":5.36851,"is_reserved":false,"is_disabled":false,"rental_uris":{"android":"levelo://app?vid=16a79894-6299-4562-af17-8a7f393c1fad","ios":"levelo://app?vid=16a79894-6299-4562-af17-8a7f393c1fad"},"vehicle_type_id":"4","last_reported":1735891917,"current_range_meters":38400,"station_id":"ce4bgn92rcd13ifvqbvg","pricing_plan_id":"cebpf4jnsgd1na2vs0mg"},{"bike_id":"65e2bb64-1263-48a3-bfd7-bc55b550a7da","system_id":"levelo_inurba_marseille","lat":43.27208,"lon":5.39179,"is_reserved":false,"is_disabled":false,"rental_uris":{"android":"levelo://app?vid=65e2bb64-1263-48a3-bfd7-bc55b550a7da","ios":"levelo://app?vid=65e2bb64-1263-48a3-bfd7-bc55b550a7da"},"vehicle_type_id":"4","last_reported":1735891917,"current_range_meters":24400,"station_id":"ce4bhhp2rcd13ifvqfm0","pricing_plan_id":"cebpf4jnsgd1na2vs0mg"},{"bike_id":"6fce06c9-9bfc-48fb-9d2e-249a3534e237","system_id":"levelo_inurba_marseille","lat":43.2656,"lon":5.39028,"is_reserved":false,"is_disabled":false,"rental_uris":{"android":"levelo://app?vid=6fce06c9-9bfc-48fb-9d2e-249a3534e237","ios":"levelo://app?vid=6fce06c9-9bfc-48fb-9d2e-249a3534e237"},"vehicle_type_id":"4","last_reported":1735891917,"current_range_meters":33200,"station_id":"ce4bhe12rcd13ifvqf30","pricing_plan_id":"cebpf4jnsgd1na2vs0mg"},{"bike_id":"d3bbc23a-977b-4b81-88be-f7e0b1a7ab38","system_id":"levelo_inurba_marseille","lat":43.29431,"lon":5.39743,"is_reserved":false,"is_disabled":true,"rental_uris":{"android":"levelo://app?vid=d3bbc23a-977b-4b81-88be-f7e0b1a7ab38","ios":"levelo://app?vid=d3bbc23a-977b-4b81-88be-f7e0b1a7ab38"},"vehicle_type_id":"4","last_reported":1735891917,"current_range_meters":35200,"station_id":"ce4bh3h2rcd13ifvqdo0","pricing_plan_id":"cebpf4jnsgd1na2vs0mg"},{"bike_id":"a15e5a43-9048-4e25-98eb-1a488d49be6c","system_id":"levelo_inurba_marseille","lat":43.31374,"lon":5.36726,"is_reserved":false,"is_disabled":false,"rental_uris":{"android":"levelo://app?vid=a15e5a43-9048-4e25-98eb-1a488d49be6c","ios":"levelo://app?vid=a15e5a43-9048-4e25-98eb-1a488d49be6c"},"vehicle_type_id":"4","last_reported":1735891917,"current_range_meters":38800,"station_id":"ce4bgr92rcd13ifvqc6g","pricing_plan_id":"cebpf4jnsgd1na2vs0mg"},{"bike_id":"434d88f2-d53d-41a0-8ebc-a04863ce3576","system_id":"levelo_inurba_marseille","lat":43.28614,"lon":5.35108,"is_reserved":false,"is_disabled":false,"rental_uris":{"android":"levelo://app?vid=434d88f2-d53d-41a0-8ebc-a04863ce3576","ios":"levelo://app?vid=434d88f2-d53d-41a0-8ebc-a04863ce3576"},"vehicle_type_id":"4","last_reported":1735891917,"current_range_meters":38000,"station_id":"ce4bhch2rcd13ifvqeug","pricing_plan_id":"cebpf4jnsgd1na2vs0mg"},{"bike_id":"76095340-8592-4dcf-97d6-4e7bc83ec84a","system_id":"levelo_inurba_marseille","lat":43.30222,"lon":5.39464,"is_reserved":false,"is_disabled":false,"rental_uris":{"android":"levelo://app?vid=76095340-8592-4dcf-97d6-4e7bc83ec84a","ios":"levelo://app?vid=76095340-8592-4dcf-97d6-4e7bc83ec84a"},"vehicle_type_id":"4","last_reported":1735891917,"current_range_meters":38000,"station_id":"ce4bh0p2rcd13ifvqd70","pricing_plan_id":"cebpf4jnsgd1na2vs0mg"},{"bike_id":"4b18fc74-124a-4026-8735-302c08bbdf7e","system_id":"levelo_inurba_marseille","lat":43.28678,"lon":5.3865,"is_reserved":false,"is_disabled":false,"rental_uris":{"android":"levelo://app?vid=4b18fc74-124a-4026-8735-302c08bbdf7e","ios":"levelo://app?vid=4b18fc74-124a-4026-8735-302c08bbdf7e"},"vehicle_type_id":"4","last_reported":1735891917,"current_range_meters":31200,"station_id":"ce4bh492rcd13ifvqdug","pricing_plan_id":"cebpf4jnsgd1na2vs0mg"},{"bike_id":"e1f02655-0201-46b8-b55b-0d48d82449ba","system_id":"levelo_inurba_marseille","lat":43.27672,"lon":5.38874,"is_reserved":false,"is_disabled":false,"rental_uris":{"android":"levelo://app?vid=e1f02655-0201-46b8-b55b-0d48d82449ba","ios":"levelo://app?vid=e1f02655-0201-46b8-b55b-0d48d82449ba"},"vehicle_type_id":"4","last_reported":1735891917,"current_range_meters":24400,"station_id":"ce4bhi12rcd13ifvqfo0","pricing_plan_id":"cebpf4jnsgd1na2vs0mg"},{"bike_id":"1c02ae40-e43c-4632-b75b-2df9308dc3fe","system_id":"levelo_inurba_marseille","lat":43.33784,"lon":5.37469,"is_reserved":false,"is_disabled":false,"rental_uris":{"android":"levelo://app?vid=1c02ae40-e43c-4632-b75b-2df9308dc3fe","ios":"levelo://app?vid=1c02ae40-e43c-4632-b75b-2df9308dc3fe"},"vehicle_type_id":"4","last_reported":1735891917,"current_range_meters":35600,"station_id":"","pricing_plan_id":"cebpf4jnsgd1na2vs0mg"},{"bike_id":"567914bc-dc8f-4f7b-88c8-5cbbd020bdfd","system_id":"levelo_inurba_marseille","lat":43.28708,"lon":5.39974,"is_reserved":false,"is_disabled":false,"rental_uris":{"android":"levelo://app?vid=567914bc-dc8f-4f7b-88c8-5cbbd020bdfd","ios":"levelo://app?vid=567914bc-dc8f-4f7b-88c8-5cbbd020bdfd"},"vehicle_type_id":"4","last_reported":1735891917,"current_range_meters":27600,"station_id":"ce4bho92rcd13ifvqh3g","pricing_plan_id":"cebpf4jnsgd1na2vs0mg"},{"bike_id":"24049831-997c-4f9e-95e3-931d66cdb6df","system_id":"levelo_inurba_marseille","lat":43.28615,"lon":5.35154,"is_reserved":false,"is_disabled":false,"rental_uris":{"android":"levelo://app?vid=24049831-997c-4f9e-95e3-931d66cdb6df","ios":"levelo://app?vid=24049831-997c-4f9e-95e3-931d66cdb6df"},"vehicle_type_id":"4","last_reported":1735891917,"current_range_meters":29600,"station_id":"ce4bhch2rcd13ifvqeug","pricing_plan_id":"cebpf4jnsgd1na2vs0mg"},{"bike_id":"bb42e3a6-d2bb-4f8e-95c5-7157b273111e","system_id":"levelo_inurba_marseille","lat":43.29965,"lon":5.41326,"is_reserved":false,"is_disabled":false,"rental_uris":{"android":"levelo://app?vid=bb42e3a6-d2bb-4f8e-95c5-7157b273111e","ios":"levelo://app?vid=bb42e3a6-d2bb-4f8e-95c5-7157b273111e"},"vehicle_type_id":"4","last_reported":1735891917,"current_range_meters":38400,"station_id":"ce4bhp12rcd13ifvqh9g","pricing_plan_id":"cebpf4jnsgd1na2vs0mg"},{"bike_id":"fb228aa6-6386-4266-80f4-b6f71ad0b618","system_id":"levelo_inurba_marseille","lat":43.2957,"lon":5.37519,"is_reserved":false,"is_disabled":false,"rental_uris":{"android":"levelo://app?vid=fb228aa6-6386-4266-80f4-b6f71ad0b618","ios":"levelo://app?vid=fb228aa6-6386-4266-80f4-b6f71ad0b618"},"vehicle_type_id":"4","last_reported":1735891917,"current_range_meters":32000,"station_id":"ce4bgh92rcd13ifvqb50","pricing_plan_id":"cebpf4jnsgd1na2vs0mg"},{"bike_id":"f1cc5b58-5b0b-4725-b680-bba426cc1e23","system_id":"levelo_inurba_marseille","lat":43.29898,"lon":5.43669,"is_reserved":false,"is_disabled":false,"rental_uris":{"android":"levelo://app?vid=f1cc5b58-5b0b-4725-b680-bba426cc1e23","ios":"levelo://app?vid=f1cc5b58-5b0b-4725-b680-bba426cc1e23"},"vehicle_type_id":"4","last_reported":1735891917,"current_range_meters":38800,"station_id":"ce4bhpp2rcd13ifvqhfg","pricing_plan_id":"cebpf4jnsgd1na2vs0mg"},{"bike_id":"5da924b7-1d86-48f2-a906-f2fea708abbd","system_id":"levelo_inurba_marseille","lat":43.27688,"lon":5.38919,"is_reserved":false,"is_disabled":true,"rental_uris":{"android":"levelo://app?vid=5da924b7-1d86-48f2-a906-f2fea708abbd","ios":"levelo://app?vid=5da924b7-1d86-48f2-a906-f2fea708abbd"},"vehicle_type_id":"4","last_reported":1735891917,"current_range_meters":36400,"station_id":"ce4bhi12rcd13ifvqfo0","pricing_plan_id":"cebpf4jnsgd1na2vs0mg"},{"bike_id":"0c8271dd-8613-442e-8826-d856c84fa6ea","system_id":"levelo_inurba_marseille","lat":43.293676,"lon":5.378551,"is_reserved":false,"is_disabled":false,"rental_uris":{"android":"levelo://app?vid=0c8271dd-8613-442e-8826-d856c84fa6ea","ios":"levelo://app?vid=0c8271dd-8613-442e-8826-d856c84fa6ea"},"vehicle_type_id":"4","last_reported":1735891917,"current_range_meters":38000,"station_id":"ce4bha92rcd13ifvqeh0","pricing_plan_id":"cebpf4jnsgd1na2vs0mg"},{"bike_id":"d858f272-5396-4509-83f4-bf8d2e835b76","system_id":"levelo_inurba_marseille","lat":43.23517,"lon":5.39937,"is_reserved":false,"is_disabled":false,"rental_uris":{"android":"levelo://app?vid=d858f272-5396-4509-83f4-bf8d2e835b76","ios":"levelo://app?vid=d858f272-5396-4509-83f4-bf8d2e835b76"},"vehicle_type_id":"4","last_reported":1735891917,"current_range_meters":27200,"station_id":"","pricing_plan_id":"cebpf4jnsgd1na2vs0mg"},{"bike_id":"6014b1e2-35bf-4517-95c5-f4b2b2de8022","system_id":"levelo_inurba_marseille","lat":43.31049,"lon":5.39301,"is_reserved":false,"is_disabled":true,"rental_uris":{"android":"levelo://app?vid=6014b1e2-35bf-4517-95c5-f4b2b2de8022","ios":"levelo://app?vid=6014b1e2-35bf-4517-95c5-f4b2b2de8022"},"vehicle_type_id":"4","last_reported":1735891917,"current_range_meters":0,"station_id":"","pricing_plan_id":"cebpf4jnsgd1na2vs0mg"},{"bike_id":"8d979c36-a643-4f41-94a9-78734d4aeda6","system_id":"levelo_inurba_marseille","lat":43.3059,"lon":5.3935,"is_reserved":false,"is_disabled":false,"rental_uris":{"android":"levelo://app?vid=8d979c36-a643-4f41-94a9-78734d4aeda6","ios":"levelo://app?vid=8d979c36-a643-4f41-94a9-78734d4aeda6"},"vehicle_type_id":"4","last_reported":1735891917,"current_range_meters":38800,"station_id":"ce4bh0p2rcd13ifvqd80","pricing_plan_id":"cebpf4jnsgd1na2vs0mg"},{"bike_id":"eae63234-23b2-4303-bb39-fadc7dc63240","system_id":"levelo_inurba_marseille","lat":43.26932,"lon":5.38925,"is_reserved":false,"is_disabled":false,"rental_uris":{"android":"levelo://app?vid=eae63234-23b2-4303-bb39-fadc7dc63240","ios":"levelo://app?vid=eae63234-23b2-4303-bb39-fadc7dc63240"},"vehicle_type_id":"4","last_reported":1735891917,"current_range_meters":36000,"station_id":"ce4bhhh2rcd13ifvqfl0","pricing_plan_id":"cebpf4jnsgd1na2vs0mg"},{"bike_id":"96d68a9c-0cc4-4ced-927c-b815d6c91283","system_id":"levelo_inurba_marseille","lat":43.2396,"lon":5.36647,"is_reserved":false,"is_disabled":false,"rental_uris":{"android":"levelo://app?vid=96d68a9c-0cc4-4ced-927c-b815d6c91283","ios":"levelo://app?vid=96d68a9c-0cc4-4ced-927c-b815d6c91283"},"vehicle_type_id":"4","last_reported":1735891917,"current_range_meters":18800,"station_id":"ce4bhi12rcd13ifvqfp0","pricing_plan_id":"cebpf4jnsgd1na2vs0mg"},{"bike_id":"3bffce67-ea61-4076-9adf-a48f3341b258","system_id":"levelo_inurba_marseille","lat":43.31349,"lon":5.39691,"is_reserved":false,"is_disabled":true,"rental_uris":{"android":"levelo://app?vid=3bffce67-ea61-4076-9adf-a48f3341b258","ios":"levelo://app?vid=3bffce67-ea61-4076-9adf-a48f3341b258"},"vehicle_type_id":"4","last_reported":1735891917,"current_range_meters":33200,"station_id":"ce4bgvp2rcd13ifvqcu0","pricing_plan_id":"cebpf4jnsgd1na2vs0mg"},{"bike_id":"48dab017-3f42-472f-871a-513ce2bb3aac","system_id":"levelo_inurba_marseille","lat":43.23151,"lon":5.43719,"is_reserved":false,"is_disabled":false,"rental_uris":{"android":"levelo://app?vid=48dab017-3f42-472f-871a-513ce2bb3aac","ios":"levelo://app?vid=48dab017-3f42-472f-871a-513ce2bb3aac"},"vehicle_type_id":"4","last_reported":1735891917,"current_range_meters":35600,"station_id":"ce4bhmp2rcd13ifvqgog","pricing_plan_id":"cebpf4jnsgd1na2vs0mg"},{"bike_id":"8551631d-0b18-4817-a777-2e719449779f","system_id":"levelo_inurba_marseille","lat":43.26553,"lon":5.37292,"is_reserved":false,"is_disabled":false,"rental_uris":{"android":"levelo://app?vid=8551631d-0b18-4817-a777-2e719449779f","ios":"levelo://app?vid=8551631d-0b18-4817-a777-2e719449779f"},"vehicle_type_id":"4","last_reported":1735891917,"current_range_meters":25600,"station_id":"ce4bhg12rcd13ifvqf70","pricing_plan_id":"cebpf4jnsgd1na2vs0mg"},{"bike_id":"234b5537-6ac9-4e84-b503-75c7e8bca3bd","system_id":"levelo_inurba_marseille","lat":43.29351,"lon":5.3785,"is_reserved":false,"is_disabled":false,"rental_uris":{"android":"levelo://app?vid=234b5537-6ac9-4e84-b503-75c7e8bca3bd","ios":"levelo://app?vid=234b5537-6ac9-4e84-b503-75c7e8bca3bd"},"vehicle_type_id":"4","last_reported":1735891917,"current_range_meters":38800,"station_id":"ce4bgjh2rcd13ifvqbf0","pricing_plan_id":"cebpf4jnsgd1na2vs0mg"},{"bike_id":"f8282768-32c6-451e-8468-b6a30a3c9a20","system_id":"levelo_inurba_marseille","lat":43.25941,"lon":5.40908,"is_reserved":false,"is_disabled":false,"rental_uris":{"android":"levelo://app?vid=f8282768-32c6-451e-8468-b6a30a3c9a20","ios":"levelo://app?vid=f8282768-32c6-451e-8468-b6a30a3c9a20"},"vehicle_type_id":"4","last_reported":1735891917,"current_range_meters":7200,"station_id":"ce4bhm92rcd13ifvqglg","pricing_plan_id":"cebpf4jnsgd1na2vs0mg"},{"bike_id":"898ebcfa-1a27-4789-af7e-27b090bbcc03","system_id":"levelo_inurba_marseille","lat":43.28856,"lon":5.39326,"is_reserved":false,"is_disabled":true,"rental_uris":{"android":"levelo://app?vid=898ebcfa-1a27-4789-af7e-27b090bbcc03","ios":"levelo://app?vid=898ebcfa-1a27-4789-af7e-27b090bbcc03"},"vehicle_type_id":"4","last_reported":1735891917,"current_range_meters":15200,"station_id":"ce4bh2p2rcd13ifvqdi0","pricing_plan_id":"cebpf4jnsgd1na2vs0mg"},{"bike_id":"c14d1989-a72f-4241-a582-39661d0bcfcf","system_id":"levelo_inurba_marseille","lat":43.23192,"lon":5.35546,"is_reserved":false,"is_disabled":false,"rental_uris":{"android":"levelo://app?vid=c14d1989-a72f-4241-a582-39661d0bcfcf","ios":"levelo://app?vid=c14d1989-a72f-4241-a582-39661d0bcfcf"},"vehicle_type_id":"4","last_reported":1735891917,"current_range_meters":38800,"station_id":"ce4bhu92rcd13ifvqi70","pricing_plan_id":"cebpf4jnsgd1na2vs0mg"},{"bike_id":"ef72cdb4-465d-4178-b952-49906f159c48","system_id":"levelo_inurba_marseille","lat":43.28163,"lon":5.42607,"is_reserved":false,"is_disabled":false,"rental_uris":{"android":"levelo://app?vid=ef72cdb4-465d-4178-b952-49906f159c48","ios":"levelo://app?vid=ef72cdb4-465d-4178-b952-49906f159c48"},"vehicle_type_id":"4","last_reported":1735891917,"current_range_meters":23200,"station_id":"ce4bhnh2rcd13ifvqgug","pricing_plan_id":"cebpf4jnsgd1na2vs0mg"},{"bike_id":"7dfe26ce-d7ef-4cb2-a642-50e9fb8770b0","system_id":"levelo_inurba_marseille","lat":43.26198,"lon":5.37891,"is_reserved":false,"is_disabled":false,"rental_uris":{"android":"levelo://app?vid=7dfe26ce-d7ef-4cb2-a642-50e9fb8770b0","ios":"levelo://app?vid=7dfe26ce-d7ef-4cb2-a642-50e9fb8770b0"},"vehicle_type_id":"4","last_reported":1735891917,"current_range_meters":38000,"station_id":"ce4bhjp2rcd13ifvqg90","pricing_plan_id":"cebpf4jnsgd1na2vs0mg"},{"bike_id":"cd799ed6-4897-449a-b65c-1cec7ac6afaf","system_id":"levelo_inurba_marseille","lat":43.30804,"lon":5.38157,"is_reserved":false,"is_disabled":true,"rental_uris":{"android":"levelo://app?vid=cd799ed6-4897-449a-b65c-1cec7ac6afaf","ios":"levelo://app?vid=cd799ed6-4897-449a-b65c-1cec7ac6afaf"},"vehicle_type_id":"4","last_reported":1735891917,"current_range_meters":27200,"station_id":"ce4bgt12rcd13ifvqce0","pricing_plan_id":"cebpf4jnsgd1na2vs0mg"},