{"last_updated":1701608860,"ttl":30,"version":"2.2","data":{"bikes":[{"bike_id":"19337c19-12ca-4f3b-a568-40a561779510","system_id":"levelo_inurba_marseille","lat":43.310963,"lon":5.367749,"is_reserved":false,"is_disabled":false,"rental_uris":{"android":"levelo://app?vid=19337c19-12ca-4f3b-a568-40a561779510","ios":"levelo://app?vid=19337c19-12ca-4f3b-a568-40a561779510"},"vehicle_type_id":"4","last_reported":1701608861,"current_range_meters":24400,"station_id":"","pricing_plan_id":"free"},{"bike_id":"105d9e0f-b794-41ff-9e68-e6e4c20938bf","system_id":"levelo_inurba_marseille","lat":43.314811,"lon":5.373103,"is_reserved":false,"is_disabled":false,"rental_uris":{"android":"levelo://app?vid=105d9e0f-b794-41ff-9e68-e6e4c20938bf","ios":"levelo://app?vid=105d9e0f-b794-41ff-9e68-e6e4c20938bf"},"vehicle_type_id":"4","last_reported":1701608861,"current_range_meters":6800,"station_id":"ce4bgt12rcd13ifvqcd0","pricing_plan_id":"free"},{"bike_id":"7b4f861a-086e-4d0a-bf0a-36ef1815cb48","system_id":"levelo_inurba_marseille","lat":43.305706,"lon":5.365654,"is_reserved":false,"is_disabled":false,"rental_uris":{"android":"levelo://app?vid=7b4f861a-086e-4d0a-bf0a-36ef1815cb48","ios":"levelo://app?vid=7b4f861a-086e-4d0a-bf0a-36ef1815cb48"},"vehicle_type_id":"4","last_reported":1701608861,"current_range_meters":3200,"station_id":"ce4bgs12rcd13ifvqcag","pricing_plan_id":"free"},{"bike_id":"613732df-fc2c-43ce-81e5-088c4fb65833","system_id":"levelo_inurba_marseille","lat":43.305989,"lon":5.37225,"is_reserved":false,"is_disabled":false,"rental_uris":{"android":"levelo://app?vid=613732df-fc2c-43ce-81e5-088c4fb65833","ios":"levelo://app?vid=613732df-fc2c-43ce-81e5-088c4fb65833"},"vehicle_type_id":"4","last_reported":1701608861,"current_range_meters":7200,"station_id":"ce4bgqh2rcd13ifvqc4g","pricing_plan_id":"free"},{"bike_id":"f427a2c3-6e4a-446b-ae2f-9be8aa7f4122","system_id":"levelo_inurba_marseille","lat":43.31719,"lon":5.376813,"is_reserved":false,"is_disabled":false,"rental_uris":{"android":"levelo://app?vid=f427a2c3-6e4a-446b-ae2f-9be8aa7f4122","ios":"levelo://app?vid=f427a2c3-6e4a-446b-ae2f-9be8aa7f4122"},"vehicle_type_id":"4","last_reported":1701608861,"current_range_meters":0,"station_id":"","pricing_plan_id":"free"},{"bike_id":"e8378c4a-167d-438f-be38-85109993d91f","system_id":"levelo_inurba_marseille","lat":43.307945,"lon":5.376487,"is_reserved":false,"is_disabled":false,"rental_uris":{"android":"levelo://app?vid=e8378c4a-167d-438f-be38-85109993d91f","ios":"levelo://app?vid=e8378c4a-167d-438f-be38-85109993d91f"},"vehicle_type_id":"4","last_reported":1701608861,"current_range_meters":14000,"station_id":"ce4bgv92rcd13ifvqcq0","pricing_plan_id":"free"},{"bike_id":"e913f328-1e31-4c22-bd87-f809ea246de4","system_id":"levelo_inurba_marseille","lat":43.317168,"lon":5.376883,"is_reserved":false,"is_disabled":false,"rental_uris":{"android":"levelo://app?vid=e913f328-1e31-4c22-bd87-f809ea246de4","ios":"levelo://app?vid=e913f328-1e31-4c22-bd87-f809ea246de4"},"vehicle_type_id":"4","last_reported":1701608861,"current_range_meters":0,"station_id":"","pricing_plan_id":"free"},{"bike_id":"7863d08e-5ca9-4df9-9c99-4cf01a7fa585","system_id":"levelo_inurba_marseille","lat":43.307945,"lon":5.376487,"is_reserved":false,"is_disabled":false,"rental_uris":{"android":"levelo://app?vid=7863d08e-5ca9-4df9-9c99-4cf01a7fa585","ios":"levelo://app?vid=7863d08e-5ca9-4df9-9c99-4cf01a7fa585"},"vehicle_type_id":"4","last_reported":1701608861,"current_range_meters":19600,"station_id":"ce4bgv92rcd13ifvqcq0","pricing_plan_id":"free"},{"bike_id":"52dd13c5-c2e7-48cf-b3d5-fd7f5b154dc9","system_id":"levelo_inurba_marseille","lat":43.317075,"lon":5.377367,"is_reserved":false,"is_disabled":false,"rental_uris":{"android":"levelo://app?vid=52dd13c5-c2e7-48cf-b3d5-fd7f5b154dc9","ios":"levelo://app?vid=52dd13c5-c2e7-48cf-b3d5-fd7f5b154dc9"},"vehicle_type_id":"4","last_reported":1701608861,"current_range_meters":19200,"station_id":"ce4bgth2rcd13ifvqch0","pricing_plan_id":"free"},{"bike_id":"fb6fd937-527b-4585-9058-0dfdc6436ac8","system_id":"levelo_inurba_marseille","lat":43.31351,"lon":5.37909,"is_reserved":false,"is_disabled":false,"rental_uris":{"android":"levelo://app?vid=fb6fd937-527b-4585-9058-0dfdc6436ac8","ios":"levelo://app?vid=fb6fd937-527b-4585-9058-0dfdc6436ac8"},"vehicle_type_id":"4","last_reported":1701608861,"current_range_meters":18000,"station_id":"","pricing_plan_id":"free"},{"bike_id":"1c5be127-a170-451f-a718-647108f14db1","system_id":"levelo_inurba_marseille","lat":43.317075,"lon":5.377367,"is_reserved":false,"is_disabled":false,"rental_uris":{"android":"levelo://app?vid=1c5be127-a170-451f-a718-647108f14db1","ios":"levelo://app?vid=1c5be127-a170-451f-a718-647108f14db1"},"vehicle_type_id":"4","last_reported":1701608861,"current_range_meters":28400,"station_id":"ce4bgth2rcd13ifvqch0","pricing_plan_id":"free"},{"bike_id":"deaa75bb-e8cc-4d8e-b131-8eb8fa374502","system_id":"levelo_inurba_marseille","lat":43.32472,"lon":5.36576,"is_reserved":false,"is_disabled":false,"rental_uris":{"android":"levelo://app?vid=deaa75bb-e8cc-4d8e-b131-8eb8fa374502","ios":"levelo://app?vid=deaa75bb-e8cc-4d8e-b131-8eb8fa374502"},"vehicle_type_id":"4","last_reported":1701608861,"current_range_meters":21600,"station_id":"ce4bhs12rcd13ifvqhvg","pricing_plan_id":"free"},{"bike_id":"c838107d-9805-4866-8332-910cca0cedad","system_id":"levelo_inurba_marseille","lat":43.304606,"lon":5.379026,"is_reserved":false,"is_disabled":false,"rental_uris":{"android":"levelo://app?vid=c838107d-9805-4866-8332-910cca0cedad","ios":"levelo://app?vid=c838107d-9805-4866-8332-910cca0cedad"},"vehicle_type_id":"4","last_reported":1701608861,"current_range_meters":20800,"station_id":"ce4bgup2rcd13ifvqcn0","pricing_plan_id":"free"},{"bike_id":"ccf79808-bfc7-4d99-8fdd-77765f79d3e6","system_id":"levelo_inurba_marseille","lat":43.304606,"lon":5.379026,"is_reserved":false,"is_disabled":false,"rental_uris":{"android":"levelo://app?vid=ccf79808-bfc7-4d99-8fdd-77765f79d3e6","ios":"levelo://app?vid=ccf79808-bfc7-4d99-8fdd-77765f79d3e6"},"vehicle_type_id":"4","last_reported":1701608861,"current_range_meters":26000,"station_id":"ce4bgup2rcd13ifvqcn0","pricing_plan_id":"free"},{"bike_id":"8c6725c5-5ff6-4a6a-9768-66e32939cf43","system_id":"levelo_inurba_marseille","lat":43.32479,"lon":5.36561,"is_reserved":false,"is_disabled":false,"rental_uris":{"android":"levelo://app?vid=8c6725c5-5ff6-4a6a-9768-66e32939cf43","ios":"levelo://app?vid=8c6725c5-5ff6-4a6a-9768-66e32939cf43"},"vehicle_type_id":"4","last_reported":1701608861,"current_range_meters":22000,"station_id":"ce4bhs12rcd13ifvqhvg","pricing_plan_id":"free"},{"bike_id":"bc8eac31-4b5b-48b3-aa99-5c3fdd18d82e","system_id":"levelo_inurba_marseille","lat":43.324809,"lon":5.365706,"is_reserved":false,"is_disabled":false,"rental_uris":{"android":"levelo://app?vid=bc8eac31-4b5b-48b3-aa99-5c3fdd18d82e","ios":"levelo://app?vid=bc8eac31-4b5b-48b3-aa99-5c3fdd18d82e"},"vehicle_type_id":"4","last_reported":1701608861,"current_range_meters":13200,"station_id":"ce4bhs12rcd13ifvqhvg","pricing_plan_id":"free"},{"bike_id":"3e23d073-c6ae-47ef-b224-45e6b030f825","system_id":"levelo_inurba_marseille","lat":43.319982,"lon":5.381532,"is_reserved":false,"is_disabled":false,"rental_uris":{"android":"levelo://app?vid=3e23d073-c6ae-47ef-b224-45e6b030f825","ios":"levelo://app?vid=3e23d073-c6ae-47ef-b224-45e6b030f825"},"vehicle_type_id":"4","last_reported":1701608861,"current_range_meters":22400,"station_id":"ce4bhr12rcd13ifvqhpg","pricing_plan_id":"free"},{"bike_id":"2275aca5-3158-4c2c-8022-ca5d2714bc86","system_id":"levelo_inurba_marseille","lat":43.319997,"lon":5.381594,"is_reserved":false,"is_disabled":false,"rental_uris":{"android":"levelo://app?vid=2275aca5-3158-4c2c-8022-ca5d2714bc86","ios":"levelo://app?vid=2275aca5-3158-4c2c-8022-ca5d2714bc86"},"vehicle_type_id":"4","last_reported":1701608861,"current_range_meters":11600,"station_id":"ce4bhr12rcd13ifvqhpg","pricing_plan_id":"free"},{"bike_id":"290650b3-753e-40fd-b2c4-18ff5d81baa9","system_id":"levelo_inurba_marseille","lat":43.313571,"lon":5.384829,"is_reserved":false,"is_disabled":false,"rental_uris":{"android":"levelo://app?vid=290650b3-753e-40fd-b2c4-18ff5d81baa9","ios":"levelo://app?vid=290650b3-753e-40fd-b2c4-18ff5d81baa9"},"vehicle_type_id":"4","last_reported":1701608861,"current_range_meters":26000,"station_id":"ce4bgt92rcd13ifvqcf0","pricing_plan_id":"free"},{"bike_id":"9fdb7f97-586d-42d2-befd-15216ba2e422","system_id":"levelo_inurba_marseille","lat":43.31183,"lon":5.38523,"is_reserved":false,"is_disabled":false,"rental_uris":{"android":"levelo://app?vid=9fdb7f97-586d-42d2-befd-15216ba2e422","ios":"levelo://app?vid=9fdb7f97-586d-42d2-befd-15216ba2e422"},"vehicle_type_id":"4","last_reported":1701608861,"current_range_meters":0,"station_id":"","pricing_plan_id":"free"},{"bike_id":"82cdda7a-d4ef-43f4-8fb8-590c27cfd2c1","system_id":"levelo_inurba_marseille","lat":43.299222,"lon":5.365554,"is_reserved":false,"is_disabled":false,"rental_uris":{"android":"levelo://app?vid=82cdda7a-d4ef-43f4-8fb8-590c27cfd2c1","ios":"levelo://app?vid=82cdda7a-d4ef-43f4-8fb8-590c27cfd2c1"},"vehicle_type_id":"4","last_reported":1701608861,"current_range_meters":17200,"station_id":"ce4bgm92rcd13ifvqbr0","pricing_plan_id":"free"},{"bike_id":"4609545a-b557-4a81-9600-2398a44cfdb0","system_id":"levelo_inurba_marseille","lat":43.29976,"lon":5.37184,"is_reserved":false,"is_disabled":false,"rental_uris":{"android":"levelo://app?vid=4609545a-b557-4a81-9600-2398a44cfdb0","ios":"levelo://app?vid=4609545a-b557-4a81-9600-2398a44cfdb0"},"vehicle_type_id":"4","last_reported":1701608861,"current_range_meters":14800,"station_id":"ce4bgr92rcd13ifvqc7g","pricing_plan_id":"free"},{"bike_id":"a84f4181-36c7-4849-85af-fda6baf5db9f","system_id":"levelo_inurba_marseille","lat":43.299317,"lon":5.365381,"is_reserved":false,"is_disabled":false,"rental_uris":{"android":"levelo://app?vid=a84f4181-36c7-4849-85af-fda6baf5db9f","ios":"levelo://app?vid=a84f4181-36c7-4849-85af-fda6baf5db9f"},"vehicle_type_id":"4","last_reported":1701608861,"current_range_meters":19200,"station_id":"ce4bgm92rcd13ifvqbr0","pricing_plan_id":"free"},{"bike_id":"0dca239b-947e-45fc-96e1-bc51f1e8c1f9","system_id":"levelo_inurba_marseille","lat":43.299724,"lon":5.371829,"is_reserved":false,"is_disabled":false,"rental_uris":{"android":"levelo://app?vid=0dca239b-947e-45fc-96e1-bc51f1e8c1f9","ios":"levelo://app?vid=0dca239b-947e-45fc-96e1-bc51f1e8c1f9"},"vehicle_type_id":"4","last_reported":1701608861,"current_range_meters":13600,"station_id":"ce4bgr92rcd13ifvqc7g","pricing_plan_id":"free"},{"bike_id":"748d12ab-8e09-4ecd-b2d2-cbe0ea9624f6","system_id":"levelo_inurba_marseille","lat":43.298978,"lon":5.36726,"is_reserved":false,"is_disabled":false,"rental_uris":{"android":"levelo://app?vid=748d12ab-8e09-4ecd-b2d2-cbe0ea9624f6","ios":"levelo://app?vid=748d12ab-8e09-4ecd-b2d2-cbe0ea9624f6"},"vehicle_type_id":"4","last_reported":1701608861,"current_range_meters":1600,"station_id":"","pricing_plan_id":"free"},{"bike_id":"14aa6f0e-730b-45b2-aaa7-f935cdbea959","system_id":"levelo_inurba_marseille","lat":43.2985,"lon":5.36285,"is_reserved":false,"is_disabled":false,"rental_uris":{"android":"levelo://app?vid=14aa6f0e-730b-45b2-aaa7-f935cdbea959","ios":"levelo://app?vid=14aa6f0e-730b-45b2-aaa7-f935cdbea959"},"vehicle_type_id":"4","last_reported":1701608861,"current_range_meters":27200,"station_id":"ce4bgpp2rcd13ifvqc3g","pricing_plan_id":"free"},{"bike_id":"b95271ec-9542-4807-b962-f4e90a30306d","system_id":"levelo_inurba_marseille","lat":43.305364,"lon":5.384119,"is_reserved":false,"is_disabled":false,"rental_uris":{"android":"levelo://app?vid=b95271ec-9542-4807-b962-f4e90a30306d","ios":"levelo://app?vid=b95271ec-9542-4807-b962-f4e90a30306d"},"vehicle_type_id":"4","last_reported":1701608861,"current_range_meters":27200,"station_id":"ce4bgg92rcd13ifvqb30","pricing_plan_id":"free"},{"bike_id":"627c2ef1-d49a-410a-9fef-20072b6bbbb2","system_id":"levelo_inurba_marseille","lat":43.299243,"lon":5.374807,"is_reserved":false,"is_disabled":false,"rental_uris":{"android":"levelo://app?vid=627c2ef1-d49a-410a-9fef-20072b6bbbb2","ios":"levelo://app?vid=627c2ef1-d49a-410a-9fef-20072b6bbbb2"},"vehicle_type_id":"4","last_reported":1701608861,"current_range_meters":21200,"station_id":"ce4bgjh2rcd13ifvqbg0","pricing_plan_id":"free"},{"bike_id":"3f254f42-b90b-4881-9095-a3c04d2a4a1f","system_id":"levelo_inurba_marseille","lat":43.305364,"lon":5.384119,"is_reserved":false,"is_disabled":false,"rental_uris":{"android":"levelo://app?vid=3f254f42-b90b-4881-9095-a3c04d2a4a1f","ios":"levelo://app?vid=3f254f42-b90b-4881-9095-a3c04d2a4a1f"},"vehicle_type_id":"4","last_reported":1701608861,"current_range_meters":26400,"station_id":"ce4bgg92rcd13ifvqb30","pricing_plan_id":"free"},{"bike_id":"d56bd988-23fa-4a5e-a0f7-85c0ab0fae1e","system_id":"levelo_inurba_marseille","lat":43.311722,"lon":5.387247,"is_reserved":false,"is_disabled":false,"rental_uris":{"android":"levelo://app?vid=d56bd988-23fa-4a5e-a0f7-85c0ab0fae1e","ios":"levelo://app?vid=d56bd988-23fa-4a5e-a0f7-85c0ab0fae1e"},"vehicle_type_id":"4","last_reported":1701608861,"current_range_meters":16400,"station_id":"ce4bgv12rcd13ifvqcp0","pricing_plan_id":"free"},{"bike_id":"5c26bdfb-7b7c-43fb-8a01-250128a1a6f8","system_id":"levelo_inurba_marseille","lat":43.32825,"lon":5.36676,"is_reserved":false,"is_disabled":false,"rental_uris":{"android":"levelo://app?vid=5c26bdfb-7b7c-43fb-8a01-250128a1a6f8","ios":"levelo://app?vid=5c26bdfb-7b7c-43fb-8a01-250128a1a6f8"},"vehicle_type_id":"4","last_reported":1701608861,"current_range_meters":19200,"station_id":"ce4bhs92rcd13ifvqi0g","pricing_plan_id":"free"},{"bike_id":"08a721db-bf5d-46b3-9ba3-2a9c6c13bcf6","system_id":"levelo_inurba_marseille","lat":43.328256,"lon":5.366905,"is_reserved":false,"is_disabled":false,"rental_uris":{"android":"levelo://app?vid=08a721db-bf5d-46b3-9ba3-2a9c6c13bcf6","ios":"levelo://app?vid=08a721db-bf5d-46b3-9ba3-2a9c6c13bcf6"},"vehicle_type_id":"4","last_reported":1701608861,"current_range_meters":24800,"station_id":"","pricing_plan_id":"free"},{"bike_id":"50451858-4fd4-406d-badc-776a2e8a63c3","system_id":"levelo_inurba_marseille","lat":43.32827,"lon":5.36689,"is_reserved":false,"is_disabled":false,"rental_uris":{"android":"levelo://app?vid=50451858-4fd4-406d-badc-776a2e8a63c3","ios":"levelo://app?vid=50451858-4fd4-406d-badc-776a2e8a63c3"},"vehicle_type_id":"4","last_reported":1701608861,"current_range_meters":17200,"station_id":"ce4bhs92rcd13ifvqi0g","pricing_plan_id":"free"},{"bike_id":"56c27ac6-d3be-4b1b-a869-2d0f1759ad4a","system_id":"levelo_inurba_marseille","lat":43.29815,"lon":5.37652,"is_reserved":false,"is_disabled":false,"rental_uris":{"android":"levelo://app?vid=56c27ac6-d3be-4b1b-a869-2d0f1759ad4a","ios":"levelo://app?vid=56c27ac6-d3be-4b1b-a869-2d0f1759ad4a"},"vehicle_type_id":"4","last_reported":1701608861,"current_range_meters":400,"station_id":"","pricing_plan_id":"free"},{"bike_id":"eaa0e7e7-2390-47fa-909b-7b240952cbef","system_id":"levelo_inurba_marseille","lat":43.316511,"lon":5.3896,"is_reserved":false,"is_disabled":false,"rental_uris":{"android":"levelo://app?vid=eaa0e7e7-2390-47fa-909b-7b240952cbef","ios":"levelo://app?vid=eaa0e7e7-2390-47fa-909b-7b240952cbef"},"vehicle_type_id":"4","last_reported":1701608861,"current_range_meters":18800,"station_id":"","pricing_plan_id":"free"},{"bike_id":"faed472b-01a9-48a7-9a48-1a26c1de35d4","system_id":"levelo_inurba_marseille","lat":43.29575,"lon":5.37513,"is_reserved":false,"is_disabled":false,"rental_uris":{"android":"levelo://app?vid=faed472b-01a9-48a7-9a48-1a26c1de35d4","ios":"levelo://app?vid=faed472b-01a9-48a7-9a48-1a26c1de35d4"},"vehicle_type_id":"4","last_reported":1701608861,"current_range_meters":19200,"station_id":"ce4bgh92rcd13ifvqb50","pricing_plan_id":"free"},{"bike_id":"bef1f614-a040-4621-b025-d4c49edb741c","system_id":"levelo_inurba_marseille","lat":43.298037,"lon":5.381066,"is_reserved":false,"is_disabled":false,"rental_uris":{"android":"levelo://app?vid=bef1f614-a040-4621-b025-d4c49edb741c","ios":"levelo://app?vid=bef1f614-a040-4621-b025-d4c49edb741c"},"vehicle_type_id":"4","last_reported":1701608861,"current_range_meters":22400,"station_id":"ce4bgip2rcd13ifvqbb0","pricing_plan_id":"free"},{"bike_id":"d481d7b2-2796-45f3-9b3a-5f9a047c4104","system_id":"levelo_inurba_marseille","lat":43.295748,"lon":5.37522,"is_reserved":false,"is_disabled":false,"rental_uris":{"android":"levelo://app?vid=d481d7b2-2796-45f3-9b3a-5f9a047c4104","ios":"levelo://app?vid=d481d7b2-2796-45f3-9b3a-5f9a047c4104"},"vehicle_type_id":"4","last_reported":1701608861,"current_range_meters":30000,"station_id":"ce4bgh92rcd13ifvqb50","pricing_plan_id":"free"},{"bike_id":"2c4f3f8f-5551-4a02-8c1d-d6f530fd4ae6","system_id":"levelo_inurba_marseille","lat":43.295748,"lon":5.37522,"is_reserved":false,"is_disabled":false,"rental_uris":{"android":"levelo://app?vid=2c4f3f8f-5551-4a02-8c1d-d6f530fd4ae6","ios":"levelo://app?vid=2c4f3f8f-5551-4a02-8c1d-d6f530fd4ae6"},"vehicle_type_id":"4","last_reported":1701608861,"current_range_meters":17200,"station_id":"ce4bgh92rcd13ifvqb50","pricing_plan_id":"free"},{"bike_id":"596e950b-4a96-45c8-8bc2-548dbaa9a3c6","system_id":"levelo_inurba_marseille","lat":43.29885,"lon":5.38323,"is_reserved":false,"is_disabled":false,"rental_uris":{"android":"levelo://app?vid=596e950b-4a96-45c8-8bc2-548dbaa9a3c6","ios":"levelo://app?vid=596e950b-4a96-45c8-8bc2-548dbaa9a3c6"},"vehicle_type_id":"4","last_reported":1701608861,"current_range_meters":14400,"station_id":"","pricing_plan_id":"free"},{"bike_id":"663e0a6c-c6bd-40ee-b284-90b57809c579","system_id":"levelo_inurba_marseille","lat":43.295279,"lon":5.375048,"is_reserved":false,"is_disabled":false,"rental_uris":{"android":"levelo://app?vid=663e0a6c-c6bd-40ee-b284-90b57809c579","ios":"levelo://app?vid=663e0a6c-c6bd-40ee-b284-90b57809c579"},"vehicle_type_id":"4","last_reported":1701608861,"current_range_meters":2400,"station_id":"ce4bgkp2rcd13ifvqbmg","pricing_plan_id":"free"},{"bike_id":"51aa11cb-091b-4c1d-9b67-1a843dc68716","system_id":"levelo_inurba_marseille","lat":43.295279,"lon":5.375048,"is_reserved":false,"is_disabled":false,"rental_uris":{"android":"levelo://app?vid=51aa11cb-091b-4c1d-9b67-1a843dc68716","ios":"levelo://app?vid=51aa11cb-091b-4c1d-9b67-1a843dc68716"},"vehicle_type_id":"4","last_reported":1701608861,"current_range_meters":7200,"station_id":"ce4bgkp2rcd13ifvqbmg","pricing_plan_id":"free"},{"bike_id":"08e4f7f1-9979-41d4-a735-b98873319ced","system_id":"levelo_inurba_marseille","lat":43.299707,"lon":5.384859,"is_reserved":false,"is_disabled":false,"rental_uris":{"android":"levelo://app?vid=08e4f7f1-9979-41d4-a735-b98873319ced","ios":"levelo://app?vid=08e4f7f1-9979-41d4-a735-b98873319ced"},"vehicle_type_id":"4","last_reported":1701608861,"current_range_meters":800,"station_id":"ce4bgj92rcd13ifvqbd0","pricing_plan_id":"free"},{"bike_id":"a0ea3222-a8ff-4886-b329-811c8c8030d1","system_id":"levelo_inurba_marseille","lat":43.295279,"lon":5.375048,"is_reserved":false,"is_disabled":false,"rental_uris":{"android":"levelo://app?vid=a0ea3222-a8ff-4886-b329-811c8c8030d1","ios":"levelo://app?vid=a0ea3222-a8ff-4886-b329-811c8c8030d1"},"vehicle_type_id":"4","last_reported":1701608861,"current_range_meters":12000,"station_id":"ce4bgkp2rcd13ifvqbmg","pricing_plan_id":"free"},{"bike_id":"6118c0c7-8f64-4f86-8386-5a9dfba0c63d","system_id":"levelo_inurba_marseille","lat":43.289184,"lon":5.366408,"is_reserved":false,"is_disabled":false,"rental_uris":{"android":"levelo://app?vid=6118c0c7-8f64-4f86-8386-5a9dfba0c63d","ios":"levelo://app?vid=6118c0c7-8f64-4f86-8386-5a9dfba0c63d"},"vehicle_type_id":"4","last_reported":1701608861,"current_range_meters":5600,"station_id":"ce4bhap2rcd13ifvqek0","pricing_plan_id":"free"},{"bike_id":"0255f963-df29-4c28-8ba0-c67215943b88","system_id":"levelo_inurba_marseille","lat":43.29601,"lon":5.381084,"is_reserved":false,"is_disabled":false,"rental_uris":{"android":"levelo://app?vid=0255f963-df29-4c28-8ba0-c67215943b88","ios":"levelo://app?vid=0255f963-df29-4c28-8ba0-c67215943b88"},"vehicle_type_id":"4","last_reported":1701608861,"current_range_meters":24400,"station_id":"ce4bgl12rcd13ifvqbo0","pricing_plan_id":"free"},{"bike_id":"2fcebbe7-9487-4bcd-ad02-f2e6bbba426d","system_id":"levelo_inurba_marseille","lat":43.290779,"lon":5.371482,"is_reserved":false,"is_disabled":false,"rental_uris":{"android":"levelo://app?vid=2fcebbe7-9487-4bcd-ad02-f2e6bbba426d","ios":"levelo://app?vid=2fcebbe7-9487-4bcd-ad02-f2e6bbba426d"},"vehicle_type_id":"4","last_reported":1701608861,"current_range_meters":6000,"station_id":"ce4bh5p2rcd13ifvqe4g","pricing_plan_id":"free"},{"bike_id":"e9385632-a770-42cb-b5d7-ff558f0734e9","system_id":"levelo_inurba_marseille","lat":43.290327,"lon":5.375711,"is_reserved":false,"is_disabled":false,"rental_uris":{"android":"levelo://app?vid=e9385632-a770-42cb-b5d7-ff558f0734e9","ios":"levelo://app?vid=e9385632-a770-42cb-b5d7-ff558f0734e9"},"vehicle_type_id":"4","last_reported":1701608861,"current_range_meters":24000,"station_id":"ce4bh692rcd13ifvqe90","pricing_plan_id":"free"},{"bike_id":"31251c47-fe3a-4618-8485-e4515f53ae3b","system_id":"levelo_inurba_marseille","lat":43.302008,"lon":5.394694,"is_reserved":false,"is_disabled":false,"rental_uris":{"android":"levelo://app?vid=31251c47-fe3a-4618-8485-e4515f53ae3b","ios":"levelo://app?vid=31251c47-fe3a-4618-8485-e4515f53ae3b"},"vehicle_type_id":"4","last_reported":1701608861,"current_range_meters":16000,"station_id":"ce4bh0p2rcd13ifvqd70","pricing_plan_id":"free"},{"bike_id":"492fbad4-650f-4b82-b68a-5a35f2c47b22","system_id":"levelo_inurba_marseille","lat":43.292644,"lon":5.384257,"is_reserved":false,"is_disabled":false,"rental_uris":{"android":"levelo://app?vid=492fbad4-650f-4b82-b68a-5a35f2c47b22","ios":"levelo://app?vid=492fbad4-650f-4b82-b68a-5a35f2c47b22"},"vehicle_type_id":"4","last_reported":1701608861,"current_range_meters":19200,"station_id":"ce4bh692rcd13ifvqea0","pricing_plan_id":"free"},{"bike_id":"48515b03-c41d-4923-a48d-ecbac8315d0a","system_id":"levelo_inurba_marseille","lat":43.291046,"lon":5.380358,"is_reserved":false,"is_disabled":false,"rental_uris":{"android":"levelo://app?vid=48515b03-c41d-4923-a48d-ecbac8315d0a","ios":"levelo://app?vid=48515b03-c41d-4923-a48d-ecbac8315d0a"},"vehicle_type_id":"4","last_reported":1701608861,"current_range_meters":16400,"station_id":"","pricing_plan_id":"free"},{"bike_id":"cf8243f5-a5bc-42da-affc-b79c146d4063","system_id":"levelo_inurba_marseille","lat":43.330442,"lon":5.389148,"is_reserved":false,"is_disabled":false,"rental_uris":{"android":"levelo://app?vid=cf8243f5-a5bc-42da-affc-b79c146d4063","ios":"levelo://app?vid=cf8243f5-a5bc-42da-affc-b79c146d4063"},"vehicle_type_id":"4","last_reported":1701608861,"current_range_meters":21200,"station_id":"ce4bhr92rcd13ifvqhrg","pricing_plan_id":"free"},{"bike_id":"2b0510fb-295c-40ba-8891-c0b7a18c180c","system_id":"levelo_inurba_marseille","lat":43.337627,"lon":5.37448,"is_reserved":false,"is_disabled":false,"rental_uris":{"android":"levelo://app?vid=2b0510fb-295c-40ba-8891-c0b7a18c180c","ios":"levelo://app?vid=2b0510fb-295c-40ba-8891-c0b7a18c180c"},"vehicle_type_id":"4","last_reported":1701608861,"current_range_meters":20400,"station_id":"","pricing_plan_id":"free"},{"bike_id":"54bd4d58-3396-4bac-a7cd-79a2c396b2bf","system_id":"levelo_inurba_marseille","lat":43.337641,"lon":5.374576,"is_reserved":false,"is_disabled":false,"rental_uris":{"android":"levelo://app?vid=54bd4d58-3396-4bac-a7cd-79a2c396b2bf","ios":"levelo://app?vid=54bd4d58-3396-4bac-a7cd-79a2c396b2bf"},"vehicle_type_id":"4","last_reported":1701608861,"current_range_meters":28000,"station_id":"","pricing_plan_id":"free"},{"bike_id":"e0a87a07-d339-4858-8d5c-7329ba23fe0d","system_id":"levelo_inurba_marseille","lat":43.28727,"lon":5.36078,"is_reserved":false,"is_disabled":false,"rental_uris":{"android":"levelo://app?vid=e0a87a07-d339-4858-8d5c-7329ba23fe0d","ios":"levelo://app?vid=e0a87a07-d339-4858-8d5c-7329ba23fe0d"},"vehicle_type_id":"4","last_reported":1701608861,"current_range_meters":26400,"station_id":"cki0cbj6b192h4jlfktg","pricing_plan_id":"free"},{"bike_id":"48e7d41b-d449-418d-9226-c9b8fb71a8a5","system_id":"levelo_inurba_marseille","lat":43.302477,"lon":5.400528,"is_reserved":false,"is_disabled":false,"rental_uris":{"android":"levelo://app?vid=48e7d41b-d449-418d-9226-c9b8fb71a8a5","ios":"levelo://app?vid=48e7d41b-d449-418d-9226-c9b8fb71a8a5"},"vehicle_type_id":"4","last_reported":1701608861,"current_range_meters":0,"station_id":"ce4bgvh2rcd13ifvqcs0","pricing_plan_id":"free"},{"bike_id":"2be91397-ef40-47ef-ab1b-6e8978fd5e28","system_id":"levelo_inurba_marseille","lat":43.286039,"lon":5.370681,"is_reserved":false,"is_disabled":false,"rental_uris":{"android":"levelo://app?vid=2be91397-ef40-47ef-ab1b-6e8978fd5e28","ios":"levelo://app?vid=2be91397-ef40-47ef-ab1b-6e8978fd5e28"},"vehicle_type_id":"4","last_reported":1701608861,"current_range_meters":20400,"station_id":"ce4bht12rcd13ifvqi60","pricing_plan_id":"free"},{"bike_id":"1c294869-d99a-468e-9622-5fd7d725f398","system_id":"levelo_inurba_marseille","lat":43.287185,"lon":5.379373,"is_reserved":false,"is_disabled":false,"rental_uris":{"android":"levelo://app?vid=1c294869-d99a-468e-9622-5fd7d725f398","ios":"levelo://app?vid=1c294869-d99a-468e-9622-5fd7d725f398"},"vehicle_type_id":"4","last_reported":1701608861,"current_range_meters":20000,"station_id":"ce4bh9p2rcd13ifvqec0","pricing_plan_id":"free"},{"bike_id":"cd8b3ea8-b28a-4165-898a-c6dc2e187b62","system_id":"levelo_inurba_marseille","lat":43.29203,"lon":5.3932,"is_reserved":false,"is_disabled":false,"rental_uris":{"android":"levelo://app?vid=cd8b3ea8-b28a-4165-898a-c6dc2e187b62","ios":"levelo://app?vid=cd8b3ea8-b28a-4165-898a-c6dc2e187b62"},"vehicle_type_id":"4","last_reported":1701608861,"current_range_meters":0,"station_id":"ce4bh192rcd13ifvqdd0","pricing_plan_id":"free"},{"bike_id":"e9381b5d-8531-4aac-9be4-0e85720d67e6","system_id":"levelo_inurba_marseille","lat":43.283998,"lon":5.375062,"is_reserved":false,"is_disabled":false,"rental_uris":{"android":"levelo://app?vid=e9381b5d-8531-4aac-9be4-0e85720d67e6","ios":"levelo://app?vid=e9381b5d-8531-4aac-9be4-0e85720d67e6"},"vehicle_type_id":"4","last_reported":1701608861,"current_range_meters":22400,"station_id":"ce4bh412rcd13ifvqds0","pricing_plan_id":"free"},{"bike_id":"65d6921e-2b90-4f8b-8a94-9aad3dbc4ec5","system_id":"levelo_inurba_marseille","lat":43.283998,"lon":5.375062,"is_reserved":false,"is_disabled":false,"rental_uris":{"android":"levelo://app?vid=65d6921e-2b90-4f8b-8a94-9aad3dbc4ec5","ios":"levelo://app?vid=65d6921e-2b90-4f8b-8a94-9aad3dbc4ec5"},"vehicle_type_id":"4","last_reported":1701608861,"current_range_meters":18400,"station_id":"ce4bh412rcd13ifvqds0","pricing_plan_id":"free"},{"bike_id":"75ee5a35-25e5-4210-a426-2d92cbb1b782","system_id":"levelo_inurba_marseille","lat":43.333193,"lon":5.396131,"is_reserved":false,"is_disabled":false,"rental_uris":{"android":"levelo://app?vid=75ee5a35-25e5-4210-a426-2d92cbb1b782","ios":"levelo://app?vid=75ee5a35-25e5-4210-a426-2d92cbb1b782"},"vehicle_type_id":"4","last_reported":1701608861,"current_range_meters":0,"station_id":"","pricing_plan_id":"free"},{"bike_id":"8ad034c4-9c62-4b8e-9a0e-d3aa69b18a1c","system_id":"levelo_inurba_marseille","lat":43.286595,"lon":5.386795,"is_reserved":false,"is_disabled":false,"rental_uris":{"android":"levelo://app?vid=8ad034c4-9c62-4b8e-9a0e-d3aa69b18a1c","ios":"levelo://app?vid=8ad034c4-9c62-4b8e-9a0e-d3aa69b18a1c"},"vehicle_type_id":"4","last_reported":1701608861,"current_range_meters":27200,"station_id":"ce4bh492rcd13ifvqdug","pricing_plan_id":"free"},{"bike_id":"19654310-fa30-439d-b8d4-2953760d93b7","system_id":"levelo_inurba_marseille","lat":43.286595,"lon":5.386795,"is_reserved":false,"is_disabled":false,"rental_uris":{"android":"levelo://app?vid=19654310-fa30-439d-b8d4-2953760d93b7","ios":"levelo://app?vid=19654310-fa30-439d-b8d4-2953760d93b7"},"vehicle_type_id":"4","last_reported":1701608861,"current_range_meters":8400,"station_id":"ce4bh492rcd13ifvqdug","pricing_plan_id":"free"},{"bike_id":"1fd75b62-c040-4c0f-bb20-07db7cee812d","system_id":"levelo_inurba_marseille","lat":43.286595,"lon":5.386795,"is_reserved":false,"is_disabled":false,"rental_uris":{"android":"levelo://app?vid=1fd75b62-c040-4c0f-bb20-07db7cee812d","ios":"levelo://app?vid=1fd75b62-c040-4c0f-bb20-07db7cee812d"},"vehicle_type_id":"4","last_reported":1701608861,"current_range_meters":22400,"station_id":"ce4bh492rcd13ifvqdug","pricing_plan_id":"free"},{"bike_id":"23a6e18e-5ad6-40cf-b6fb-7a4b1a6034c9","system_id":"levelo_inurba_marseille","lat":43.33745,"lon":5.39116,"is_reserved":false,"is_disabled":false,"rental_uris":{"android":"levelo://app?vid=23a6e18e-5ad6-40cf-b6fb-7a4b1a6034c9","ios":"levelo://app?vid=23a6e18e-5ad6-40cf-b6fb-7a4b1a6034c9"},"vehicle_type_id":"4","last_reported":1701608861,"current_range_meters":28400,"station_id":"","pricing_plan_id":"free"},{"bike_id":"ef8b2cf2-0711-4227-b7af-f411b85a8354","system_id":"levelo_inurba_marseille","lat":43.323464,"lon":5.406297,"is_reserved":false,"is_disabled":false,"rental_uris":{"android":"levelo://app?vid=ef8b2cf2-0711-4227-b7af-f411b85a8354","ios":"levelo://app?vid=ef8b2cf2-0711-4227-b7af-f411b85a8354"},"vehicle_type_id":"4","last_reported":1701608861,"current_range_meters":30000,"station_id":"ce4bhq92rcd13ifvqhjg","pricing_plan_id":"free"},{"bike_id":"a5f3e2ed-f3d9-4556-9373-fdec08cfe698","system_id":"levelo_inurba_marseille","lat":43.29041,"lon":5.399634,"is_reserved":false,"is_disabled":false,"rental_uris":{"android":"levelo://app?vid=a5f3e2ed-f3d9-4556-9373-fdec08cfe698","ios":"levelo://app?vid=a5f3e2ed-f3d9-4556-9373-fdec08cfe698"},"vehicle_type_id":"4","last_reported":1701608861,"current_range_meters":12000,"station_id":"ce4bh392rcd13ifvqdm0","pricing_plan_id":"free"},{"bike_id":"66fbc1b9-ca35-469f-b851-76a87b1df0bc","system_id":"levelo_inurba_marseille","lat":43.290412,"lon":5.399633,"is_reserved":false,"is_disabled":false,"rental_uris":{"android":"levelo://app?vid=66fbc1b9-ca35-469f-b851-76a87b1df0bc","ios":"levelo://app?vid=66fbc1b9-ca35-469f-b851-76a87b1df0bc"},"vehicle_type_id":"4","last_reported":1701608861,"current_range_meters":14400,"station_id":"ce4bh392rcd13ifvqdm0","pricing_plan_id":"free"},{"bike_id":"38e89e94-6d0a-406b-8c4b-21d1c27d8e2b","system_id":"levelo_inurba_marseille","lat":43.281044,"lon":5.378308,"is_reserved":false,"is_disabled":false,"rental_uris":{"android":"levelo://app?vid=38e89e94-6d0a-406b-8c4b-21d1c27d8e2b","ios":"levelo://app?vid=38e89e94-6d0a-406b-8c4b-21d1c27d8e2b"},"vehicle_type_id":"4","last_reported":1701608861,"current_range_meters":24800,"station_id":"ce4bha12rcd13ifvqee0","pricing_plan_id":"free"},{"bike_id":"82393103-939b-47ce-92c8-68c41c32d704","system_id":"levelo_inurba_marseille","lat":43.284462,"lon":5.392121,"is_reserved":false,"is_disabled":false,"rental_uris":{"android":"levelo://app?vid=82393103-939b-47ce-92c8-68c41c32d704","ios":"levelo://app?vid=82393103-939b-47ce-92c8-68c41c32d704"},"vehicle_type_id":"4","last_reported":1701608861,"current_range_meters":19600,"station_id":"ce4bhoh2rcd13ifvqh5g","pricing_plan_id":"free"},{"bike_id":"b21af117-871c-4901-957f-0ecb4fff2209","system_id":"levelo_inurba_marseille","lat":43.279087,"lon":5.380114,"is_reserved":false,"is_disabled":false,"rental_uris":{"android":"levelo://app?vid=b21af117-871c-4901-957f-0ecb4fff2209","ios":"levelo://app?vid=b21af117-871c-4901-957f-0ecb4fff2209"},"vehicle_type_id":"4","last_reported":1701608861,"current_range_meters":30000,"station_id":"ce4bhf92rcd13ifvqf50","pricing_plan_id":"free"},{"bike_id":"32382e28-e31d-4617-84f9-1d6d09c3f25d","system_id":"levelo_inurba_marseille","lat":43.32053,"lon":5.41539,"is_reserved":false,"is_disabled":false,"rental_uris":{"android":"levelo://app?vid=32382e28-e31d-4617-84f9-1d6d09c3f25d","ios":"levelo://app?vid=32382e28-e31d-4617-84f9-1d6d09c3f25d"},"vehicle_type_id":"4","last_reported":1701608861,"current_range_meters":31200,"station_id":"ce4bhq92rcd13ifvqhkg","pricing_plan_id":"free"},{"bike_id":"b43c0748-11a3-4c91-854d-ab9ab625e13b","system_id":"levelo_inurba_marseille","lat":43.320045,"lon":5.415048,"is_reserved":false,"is_disabled":false,"rental_uris":{"android":"levelo://app?vid=b43c0748-11a3-4c91-854d-ab9ab625e13b","ios":"levelo://app?vid=b43c0748-11a3-4c91-854d-ab9ab625e13b"},"vehicle_type_id":"4","last_reported":1701608861,"current_range_meters":27600,"station_id":"ce4bhq92rcd13ifvqhkg","pricing_plan_id":"free"},{"bike_id":"94e8a404-f2fa-4fd2-82a6-f864cda2b0a5","system_id":"levelo_inurba_marseille","lat":43.320045,"lon":5.415046,"is_reserved":false,"is_disabled":false,"rental_uris":{"android":"levelo://app?vid=94e8a404-f2fa-4fd2-82a6-f864cda2b0a5","ios":"levelo://app?vid=94e8a404-f2fa-4fd2-82a6-f864cda2b0a5"},"vehicle_type_id":"4","last_reported":1701608861,"current_range_meters":30000,"station_id":"ce4bhq92rcd13ifvqhkg","pricing_plan_id":"free"},{"bike_id":"707be1ce-524e-40e4-a187-a3f53c72434d","system_id":"levelo_inurba_marseille","lat":43.27621,"lon":5.36103,"is_reserved":false,"is_disabled":false,"rental_uris":{"android":"levelo://app?vid=707be1ce-524e-40e4-a187-a3f53c72434d","ios":"levelo://app?vid=707be1ce-524e-40e4-a187-a3f53c72434d"},"vehicle_type_id":"4","last_reported":1701608861,"current_range_meters":12400,"station_id":"ce4bgj92rcd13ifvqbe0","pricing_plan_id":"free"},{"bike_id":"451e5711-912b-4e6f-ba92-14f20d0093e3","system_id":"levelo_inurba_marseille","lat":43.33685,"lon":5.40657,"is_reserved":false,"is_disabled":false,"rental_uris":{"android":"levelo://app?vid=451e5711-912b-4e6f-ba92-14f20d0093e3","ios":"levelo://app?vid=451e5711-912b-4e6f-ba92-14f20d0093e3"},"vehicle_type_id":"4","last_reported":1701608861,"current_range_meters":15600,"station_id":"","pricing_plan_id":"free"},{"bike_id":"2ed76bd7-5d2e-4837-811d-65417a6f33c7","system_id":"levelo_inurba_marseille","lat":43.280784,"lon":5.396622,"is_reserved":false,"is_disabled":false,"rental_uris":{"android":"levelo://app?vid=2ed76bd7-5d2e-4837-811d-65417a6f33c7","ios":"levelo://app?vid=2ed76bd7-5d2e-4837-811d-65417a6f33c7"},"vehicle_type_id":"4","last_reported":1701608861,"current_range_meters":18800,"station_id":"ce4bho12rcd13ifvqh2g","pricing_plan_id":"free"},{"bike_id":"6aaaaa22-b6b5-4c44-b41e-fcacaeedb6b4","system_id":"levelo_inurba_marseille","lat":43.2738,"lon":5.36254,"is_reserved":false,"is_disabled":false,"rental_uris":{"android":"levelo://app?vid=6aaaaa22-b6b5-4c44-b41e-fcacaeedb6b4","ios":"levelo://app?vid=6aaaaa22-b6b5-4c44-b41e-fcacaeedb6b4"},"vehicle_type_id":"4","last_reported":1701608861,"current_range_meters":22400,"station_id":"ce4bhbh2rcd13ifvqeo0","pricing_plan_id":"free"},{"bike_id":"4be87af7-e14d-4138-827e-5660ad58169e","system_id":"levelo_inurba_marseille","lat":43.273613,"lon":5.362705,"is_reserved":false,"is_disabled":false,"rental_uris":{"android":"levelo://app?vid=4be87af7-e14d-4138-827e-5660ad58169e","ios":"levelo://app?vid=4be87af7-e14d-4138-827e-5660ad58169e"},"vehicle_type_id":"4","last_reported":1701608861,"current_range_meters":7600,"station_id":"ce4bhbh2rcd13ifvqeo0","pricing_plan_id":"free"},{"bike_id":"19efdd98-5ce9-4330-9a5f-0697d7daae1b","system_id":"levelo_inurba_marseille","lat":43.273609,"lon":5.362708,"is_reserved":false,"is_disabled":false,"rental_uris":{"android":"levelo://app?vid=19efdd98-5ce9-4330-9a5f-0697d7daae1b","ios":"levelo://app?vid=19efdd98-5ce9-4330-9a5f-0697d7daae1b"},"vehicle_type_id":"4","last_reported":1701608861,"current_range_meters":23600,"station_id":"ce4bhbh2rcd13ifvqeo0","pricing_plan_id":"free"},{"bike_id":"2255962e-f1ca-471b-ab08-aa4b990c6808","system_id":"levelo_inurba_marseille","lat":43.310785,"lon":5.424305,"is_reserved":false,"is_disabled":false,"rental_uris":{"android":"levelo://app?vid=2255962e-f1ca-471b-ab08-aa4b990c6808","ios":"levelo://app?vid=2255962e-f1ca-471b-ab08-aa4b990c6808"},"vehicle_type_id":"4","last_reported":1701608861,"current_range_meters":25600,"station_id":"ce4bhp92rcd13ifvqhag","pricing_plan_id":"free"},{"bike_id":"75269014-fd84-4a1f-9fa5-95a0080041c8","system_id":"levelo_inurba_marseille","lat":43.310785,"lon":5.424305,"is_reserved":false,"is_disabled":false,"rental_uris":{"android":"levelo://app?vid=75269014-fd84-4a1f-9fa5-95a0080041c8","ios":"levelo://app?vid=75269014-fd84-4a1f-9fa5-95a0080041c8"},"vehicle_type_id":"4","last_reported":1701608861,"current_range_meters":31200,"station_id":"ce4bhp92rcd13ifvqhag","pricing_plan_id":"free"},{"bike_id":"910fd3aa-d2e0-4553-894a-6161d41c7fcd","system_id":"levelo_inurba_marseille","lat":43.27609,"lon":5.39475,"is_reserved":false,"is_disabled":false,"rental_uris":{"android":"levelo://app?vid=910fd3aa-d2e0-4553-894a-6161d41c7fcd","ios":"levelo://app?vid=910fd3aa-d2e0-4553-894a-6161d41c7fcd"},"vehicle_type_id":"4","last_reported":1701608861,"current_range_meters":15600,"station_id":"","pricing_plan_id":"free"},{"bike_id":"284b492f-6935-470e-bcfa-775810170911","system_id":"levelo_inurba_marseille","lat":43.340804,"lon":5.410219,"is_reserved":false,"is_disabled":false,"rental_uris":{"android":"levelo://app?vid=284b492f-6935-470e-bcfa-775810170911","ios":"levelo://app?vid=284b492f-6935-470e-bcfa-775810170911"},"vehicle_type_id":"4","last_reported":1701608861,"current_range_meters":25200,"station_id":"ce4bhqh2rcd13ifvqhlg","pricing_plan_id":"free"},{"bike_id":"f5b62f54-19ae-48c7-9295-82acb8bc9812","system_id":"levelo_inurba_marseille","lat":43.278128,"lon":5.407195,"is_reserved":false,"is_disabled":false,"rental_uris":{"android":"levelo://app?vid=f5b62f54-19ae-48c7-9295-82acb8bc9812","ios":"levelo://app?vid=f5b62f54-19ae-48c7-9295-82acb8bc9812"},"vehicle_type_id":"4","last_reported":1701608861,"current_range_meters":28400,"station_id":"ce4bhnh2rcd13ifvqgtg","pricing_plan_id":"free"},{"bike_id":"aedc879a-0164-49bd-8fb0-7515771bd721","system_id":"levelo_inurba_marseille","lat":43.278128,"lon":5.407195,"is_reserved":false,"is_disabled":false,"rental_uris":{"android":"levelo://app?vid=aedc879a-0164-49bd-8fb0-7515771bd721","ios":"levelo://app?vid=aedc879a-0164-49bd-8fb0-7515771bd721"},"vehicle_type_id":"4","last_reported":1701608861,"current_range_meters":29200,"station_id":"ce4bhnh2rcd13ifvqgtg","pricing_plan_id":"free"},{"bike_id":"5ac17fae-8d66-44d1-8f9c-b64d71d7a793","system_id":"levelo_inurba_marseille","lat":43.27946,"lon":5.4105,"is_reserved":false,"is_disabled":false,"rental_uris":{"android":"levelo://app?vid=5ac17fae-8d66-44d1-8f9c-b64d71d7a793","ios":"levelo://app?vid=5ac17fae-8d66-44d1-8f9c-b64d71d7a793"},"vehicle_type_id":"4","last_reported":1701608861,"current_range_meters":28000,"station_id":"ce4bhnp2rcd13ifvqh0g","pricing_plan_id":"free"},{"bike_id":"e876b5e4-88b5-4658-9659-37390ef9bc11","system_id":"levelo_inurba_marseille","lat":43.26681,"lon":5.382694,"is_reserved":false,"is_disabled":false,"rental_uris":{"android":"levelo://app?vid=e876b5e4-88b5-4658-9659-37390ef9bc11","ios":"levelo://app?vid=e876b5e4-88b5-4658-9659-37390ef9bc11"},"vehicle_type_id":"4","last_reported":1701608861,"current_range_meters":25600,"station_id":"ce4bhg92rcd13ifvqf90","pricing_plan_id":"free"},{"bike_id":"c52d6031-bade-41d4-9bdc-ac2359439ebe","system_id":"levelo_inurba_marseille","lat":43.26681,"lon":5.382694,"is_reserved":false,"is_disabled":false,"rental_uris":{"android":"levelo://app?vid=c52d6031-bade-41d4-9bdc-ac2359439ebe","ios":"levelo://app?vid=c52d6031-bade-41d4-9bdc-ac2359439ebe"},"vehicle_type_id":"4","last_reported":1701608861,"current_range_meters":2000,"station_id":"ce4bhg92rcd13ifvqf90","pricing_plan_id":"free"},{"bike_id":"78ade821-e18d-4752-853f-a9042bd128e6","system_id":"levelo_inurba_marseille","lat":43.261782,"lon":5.374515,"is_reserved":false,"is_disabled":false,"rental_uris":{"android":"levelo://app?vid=78ade821-e18d-4752-853f-a9042bd128e6","ios":"levelo://app?vid=78ade821-e18d-4752-853f-a9042bd128e6"},"vehicle_type_id":"4","last_reported":1701608861,"current_range_meters":26400,"station_id":"ce4bhgp2rcd13ifvqfc0","pricing_plan_id":"free"},{"bike_id":"f600ae2f-60bb-4340-bdab-4173ff5d62b6","system_id":"levelo_inurba_marseille","lat":43.317104,"lon":5.436818,"is_reserved":false,"is_disabled":false,"rental_uris":{"android":"levelo://app?vid=f600ae2f-60bb-4340-bdab-4173ff5d62b6","ios":"levelo://app?vid=f600ae2f-60bb-4340-bdab-4173ff5d62b6"},"vehicle_type_id":"4","last_reported":1701608861,"current_range_meters":29200,"station_id":"ce4bhp92rcd13ifvqhcg","pricing_plan_id":"free"},{"bike_id":"a4dcfb43-7dd2-4f3a-94fa-d47edecb08ad","system_id":"levelo_inurba_marseille","lat":43.26212,"lon":5.37929,"is_reserved":false,"is_disabled":false,"rental_uris":{"android":"levelo://app?vid=a4dcfb43-7dd2-4f3a-94fa-d47edecb08ad","ios":"levelo://app?vid=a4dcfb43-7dd2-4f3a-94fa-d47edecb08ad"},"vehicle_type_id":"4","last_reported":1701608861,"current_range_meters":24000,"station_id":"ce4bhjp2rcd13ifvqg90","pricing_plan_id":"free"},{"bike_id":"f9505c4b-c2ce-4bca-bead-e0efb1f24e15","system_id":"levelo_inurba_marseille","lat":43.271368,"lon":5.40928,"is_reserved":false,"is_disabled":false,"rental_uris":{"android":"levelo://app?vid=f9505c4b-c2ce-4bca-bead-e0efb1f24e15","ios":"levelo://app?vid=f9505c4b-c2ce-4bca-bead-e0efb1f24e15"},"vehicle_type_id":"4","last_reported":1701608861,"current_range_meters":16000,"station_id":"ce4bhl12rcd13ifvqgf0","pricing_plan_id":"free"},{"bike_id":"f929a20b-f57b-4b7f-b6a0-7eea96cb730b","system_id":"levelo_inurba_marseille","lat":43.260225,"lon":5.375455,"is_reserved":false,"is_disabled":false,"rental_uris":{"android":"levelo://app?vid=f929a20b-f57b-4b7f-b6a0-7eea96cb730b","ios":"levelo://app?vid=f929a20b-f57b-4b7f-b6a0-7eea96cb730b"},"vehicle_type_id":"4","last_reported":1701608861,"current_range_meters":22400,"station_id":"ce4bhgh2rcd13ifvqfa0","pricing_plan_id":"free"},{"bike_id":"20e438aa-7a2a-40e4-b8b8-d20856dca8a2","system_id":"levelo_inurba_marseille","lat":43.281548,"lon":5.42643,"is_reserved":false,"is_disabled":false,"rental_uris":{"android":"levelo://app?vid=20e438aa-7a2a-40e4-b8b8-d20856dca8a2","ios":"levelo://app?vid=20e438aa-7a2a-40e4-b8b8-d20856dca8a2"},"vehicle_type_id":"4","last_reported":1701608861,"current_range_meters":13600,"station_id":"ce4bhnh2rcd13ifvqgug","pricing_plan_id":"free"},{"bike_id":"4bc7791d-be5f-4e52-a276-f29cc9305fdf","system_id":"levelo_inurba_marseille","lat":43.275028,"lon":5.424534,"is_reserved":false,"is_disabled":false,"rental_uris":{"android":"levelo://app?vid=4bc7791d-be5f-4e52-a276-f29cc9305fdf","ios":"levelo://app?vid=4bc7791d-be5f-4e52-a276-f29cc9305fdf"},"vehicle_type_id":"4","last_reported":1701608861,"current_range_meters":31200,"station_id":"ce4bhn92rcd13ifvqgrg","pricing_plan_id":"free"},{"bike_id":"948c0e71-12c1-4201-951b-c7918df43c16","system_id":"levelo_inurba_marseille","lat":43.255756,"lon":5.382303,"is_reserved":false,"is_disabled":false,"rental_uris":{"android":"levelo://app?vid=948c0e71-12c1-4201-951b-c7918df43c16","ios":"levelo://app?vid=948c0e71-12c1-4201-951b-c7918df43c16"},"vehicle_type_id":"4","last_reported":1701608861,"current_range_meters":12000,"station_id":"ce4bhih2rcd13ifvqfs0","pricing_plan_id":"free"},{"bike_id":"c6d509a4-0052-46c4-a36a-f95be4f7be99","system_id":"levelo_inurba_marseille","lat":43.255756,"lon":5.382303,"is_reserved":false,"is_disabled":false,"rental_uris":{"android":"levelo://app?vid=c6d509a4-0052-46c4-a36a-f95be4f7be99","ios":"levelo://app?vid=c6d509a4-0052-46c4-a36a-f95be4f7be99"},"vehicle_type_id":"4","last_reported":1701608861,"current_range_meters":14000,"station_id":"ce4bhih2rcd13ifvqfs0","pricing_plan_id":"free"},{"bike_id":"bdc72d7c-9d46-4016-8a92-851cd50823f9","system_id":"levelo_inurba_marseille","lat":43.25929,"lon":5.40906,"is_reserved":false,"is_disabled":false,"rental_uris":{"android":"levelo://app?vid=bdc72d7c-9d46-4016-8a92-851cd50823f9","ios":"levelo://app?vid=bdc72d7c-9d46-4016-8a92-851cd50823f9"},"vehicle_type_id":"4","last_reported":1701608861,"current_range_meters":24000,"station_id":"ce4bhm92rcd13ifvqglg","pricing_plan_id":"free"},{"bike_id":"05ffcfcb-20c3-4466-b79e-af248191fe78","system_id":"levelo_inurba_marseille","lat":43.257079,"lon":5.411051,"is_reserved":false,"is_disabled":false,"rental_uris":{"android":"levelo://app?vid=05ffcfcb-20c3-4466-b79e-af248191fe78","ios":"levelo://app?vid=05ffcfcb-20c3-4466-b79e-af248191fe78"},"vehicle_type_id":"4","last_reported":1701608861,"current_range_meters":30400,"station_id":"ce4bhkp2rcd13ifvqgd0","pricing_plan_id":"free"},{"bike_id":"e77397ee-bffc-4358-898c-7ebab9cdc3f5","system_id":"levelo_inurba_marseille","lat":43.257079,"lon":5.411051,"is_reserved":false,"is_disabled":false,"rental_uris":{"android":"levelo://app?vid=e77397ee-bffc-4358-898c-7ebab9cdc3f5","ios":"levelo://app?vid=e77397ee-bffc-4358-898c-7ebab9cdc3f5"},"vehicle_type_id":"4","last_reported":1701608861,"current_range_meters":24800,"station_id":"ce4bhkp2rcd13ifvqgd0","pricing_plan_id":"free"},{"bike_id":"6f60c1fc-829b-436c-a68a-6418ded3178e","system_id":"levelo_inurba_marseille","lat":43.250009,"lon":5.389195,"is_reserved":false,"is_disabled":false,"rental_uris":{"android":"levelo://app?vid=6f60c1fc-829b-436c-a68a-6418ded3178e","ios":"levelo://app?vid=6f60c1fc-829b-436c-a68a-6418ded3178e"},"vehicle_type_id":"4","last_reported":1701608861,"current_range_meters":6800,"station_id":"ce4bhgp2rcd13ifvqfd0","pricing_plan_id":"free"},{"bike_id":"718caeec-1533-4f0e-b9ae-84d57ee89855","system_id":"levelo_inurba_marseille","lat":43.250009,"lon":5.389195,"is_reserved":false,"is_disabled":false,"rental_uris":{"android":"levelo://app?vid=718caeec-1533-4f0e-b9ae-84d57ee89855","ios":"levelo://app?vid=718caeec-1533-4f0e-b9ae-84d57ee89855"},"vehicle_type_id":"4","last_reported":1701608861,"current_range_meters":30000,"station_id":"ce4bhgp2rcd13ifvqfd0","pricing_plan_id":"free"},{"bike_id":"47fe5043-ab51-4fa6-8cb4-f219e62fede6","system_id":"levelo_inurba_marseille","lat":43.24807,"lon":5.37453,"is_reserved":false,"is_disabled":false,"rental_uris":{"android":"levelo://app?vid=47fe5043-ab51-4fa6-8cb4-f219e62fede6","ios":"levelo://app?vid=47fe5043-ab51-4fa6-8cb4-f219e62fede6"},"vehicle_type_id":"4","last_reported":1701608861,"current_range_meters":13600,"station_id":"ce4bhgh2rcd13ifvqfb0","pricing_plan_id":"free"},{"bike_id":"8e19b02e-3ee4-4035-84a7-d382315e4a01","system_id":"levelo_inurba_marseille","lat":43.25089,"lon":5.39524,"is_reserved":false,"is_disabled":false,"rental_uris":{"android":"levelo://app?vid=8e19b02e-3ee4-4035-84a7-d382315e4a01","ios":"levelo://app?vid=8e19b02e-3ee4-4035-84a7-d382315e4a01"},"vehicle_type_id":"4","last_reported":1701608861,"current_range_meters":15200,"station_id":"ce4bhm12rcd13ifvqgkg","pricing_plan_id":"free"},{"bike_id":"317a5e10-b4f0-4b21-84fd-20965563253f","system_id":"levelo_inurba_marseille","lat":43.2508,"lon":5.39514,"is_reserved":false,"is_disabled":false,"rental_uris":{"android":"levelo://app?vid=317a5e10-b4f0-4b21-84fd-20965563253f","ios":"levelo://app?vid=317a5e10-b4f0-4b21-84fd-20965563253f"},"vehicle_type_id":"4","last_reported":1701608861,"current_range_meters":19600,"station_id":"ce4bhm12rcd13ifvqgkg","pricing_plan_id":"free"},{"bike_id":"ca00b93a-5001-4e79-bf36-0ad15544608b","system_id":"levelo_inurba_marseille","lat":43.24693,"lon":5.382096,"is_reserved":false,"is_disabled":false,"rental_uris":{"android":"levelo://app?vid=ca00b93a-5001-4e79-bf36-0ad15544608b","ios":"levelo://app?vid=ca00b93a-5001-4e79-bf36-0ad15544608b"},"vehicle_type_id":"4","last_reported":1701608861,"current_range_meters":22800,"station_id":"ce4bhih2rcd13ifvqfr0","pricing_plan_id":"free"},{"bike_id":"344d2e4e-b54d-4897-ad5f-02f90554f1ce","system_id":"levelo_inurba_marseille","lat":43.24651,"lon":5.38892,"is_reserved":false,"is_disabled":false,"rental_uris":{"android":"levelo://app?vid=344d2e4e-b54d-4897-ad5f-02f90554f1ce","ios":"levelo://app?vid=344d2e4e-b54d-4897-ad5f-02f90554f1ce"},"vehicle_type_id":"4","last_reported":1701608861,"current_range_meters":4000,"station_id":"ce4bhg12rcd13ifvqf60","pricing_plan_id":"free"},{"bike_id":"61a9e6b0-f435-4470-83bd-a67a85c1a979","system_id":"levelo_inurba_marseille","lat":43.243884,"lon":5.370736,"is_reserved":false,"is_disabled":false,"rental_uris":{"android":"levelo://app?vid=61a9e6b0-f435-4470-83bd-a67a85c1a979","ios":"levelo://app?vid=61a9e6b0-f435-4470-83bd-a67a85c1a979"},"vehicle_type_id":"4","last_reported":1701608861,"current_range_meters":31600,"station_id":"ce4bhhh2rcd13ifvqfk0","pricing_plan_id":"free"},{"bike_id":"09b1fa3b-b9e8-43be-b9d7-e1bd5f980398","system_id":"levelo_inurba_marseille","lat":43.243884,"lon":5.370737,"is_reserved":false,"is_disabled":false,"rental_uris":{"android":"levelo://app?vid=09b1fa3b-b9e8-43be-b9d7-e1bd5f980398","ios":"levelo://app?vid=09b1fa3b-b9e8-43be-b9d7-e1bd5f980398"},"vehicle_type_id":"4","last_reported":1701608861,"current_range_meters":12800,"station_id":"ce4bhhh2rcd13ifvqfk0","pricing_plan_id":"free"},{"bike_id":"6579f0ea-c0df-4b2b-b5ec-d26334381be3","system_id":"levelo_inurba_marseille","lat":43.243884,"lon":5.370737,"is_reserved":false,"is_disabled":false,"rental_uris":{"android":"levelo://app?vid=6579f0ea-c0df-4b2b-b5ec-d26334381be3","ios":"levelo://app?vid=6579f0ea-c0df-4b2b-b5ec-d26334381be3"},"vehicle_type_id":"4","last_reported":1701608861,"current_range_meters":20800,"station_id":"ce4bhhh2rcd13ifvqfk0","pricing_plan_id":"free"},{"bike_id":"db7d1696-95c9-4390-8db3-c93591b192fa","system_id":"levelo_inurba_marseille","lat":43.243884,"lon":5.370737,"is_reserved":false,"is_disabled":false,"rental_uris":{"android":"levelo://app?vid=db7d1696-95c9-4390-8db3-c93591b192fa","ios":"levelo://app?vid=db7d1696-95c9-4390-8db3-c93591b192fa"},"vehicle_type_id":"4","last_reported":1701608861,"current_range_meters":18000,"station_id":"ce4bhhh2rcd13ifvqfk0","pricing_plan_id":"free"},{"bike_id":"906eb523-6642-4f1f-bea7-1d9c586e77f4","system_id":"levelo_inurba_marseille","lat":43.243894,"lon":5.370578,"is_reserved":false,"is_disabled":false,"rental_uris":{"android":"levelo://app?vid=906eb523-6642-4f1f-bea7-1d9c586e77f4","ios":"levelo://app?vid=906eb523-6642-4f1f-bea7-1d9c586e77f4"},"vehicle_type_id":"4","last_reported":1701608861,"current_range_meters":31200,"station_id":"ce4bhhh2rcd13ifvqfk0","pricing_plan_id":"free"},{"bike_id":"581b3e3c-f49b-4afa-b904-b2b4fac016e9","system_id":"levelo_inurba_marseille","lat":43.243884,"lon":5.370736,"is_reserved":false,"is_disabled":false,"rental_uris":{"android":"levelo://app?vid=581b3e3c-f49b-4afa-b904-b2b4fac016e9","ios":"levelo://app?vid=581b3e3c-f49b-4afa-b904-b2b4fac016e9"},"vehicle_type_id":"4","last_reported":1701608861,"current_range_meters":21600,"station_id":"ce4bhhh2rcd13ifvqfk0","pricing_plan_id":"free"},{"bike_id":"ce51e83a-ba52-4a85-a18d-96e6e1f1be16","system_id":"levelo_inurba_marseille","lat":43.243884,"lon":5.370737,"is_reserved":false,"is_disabled":false,"rental_uris":{"android":"levelo://app?vid=ce51e83a-ba52-4a85-a18d-96e6e1f1be16","ios":"levelo://app?vid=ce51e83a-ba52-4a85-a18d-96e6e1f1be16"},"vehicle_type_id":"4","last_reported":1701608861,"current_range_meters":16400,"station_id":"ce4bhhh2rcd13ifvqfk0","pricing_plan_id":"free"},{"bike_id":"c861c668-a857-48a4-94de-0f3099189574","system_id":"levelo_inurba_marseille","lat":43.243884,"lon":5.370737,"is_reserved":false,"is_disabled":false,"rental_uris":{"android":"levelo://app?vid=c861c668-a857-48a4-94de-0f3099189574","ios":"levelo://app?vid=c861c668-a857-48a4-94de-0f3099189574"},"vehicle_type_id":"4","last_reported":1701608861,"current_range_meters":12000,"station_id":"ce4bhhh2rcd13ifvqfk0","pricing_plan_id":"free"},{"bike_id":"0912f654-b971-4d60-ad8b-bfa9605c7097","system_id":"levelo_inurba_marseille","lat":43.243884,"lon":5.370736,"is_reserved":false,"is_disabled":false,"rental_uris":{"android":"levelo://app?vid=0912f654-b971-4d60-ad8b-bfa9605c7097","ios":"levelo://app?vid=0912f654-b971-4d60-ad8b-bfa9605c7097"},"vehicle_type_id":"4","last_reported":1701608861,"current_range_meters":28000,"station_id":"ce4bhhh2rcd13ifvqfk0","pricing_plan_id":"free"},{"bike_id":"a468bfa3-0f10-4318-9c6f-0ec62d97356c","system_id":"levelo_inurba_marseille","lat":43.243884,"lon":5.370737,"is_reserved":false,"is_disabled":false,"rental_uris":{"android":"levelo://app?vid=a468bfa3-0f10-4318-9c6f-0ec62d97356c","ios":"levelo://app?vid=a468bfa3-0f10-4318-9c6f-0ec62d97356c"},"vehicle_type_id":"4","last_reported":1701608861,"current_range_meters":31600,"station_id":"ce4bhhh2rcd13ifvqfk0","pricing_plan_id":"free"},{"bike_id":"84bd67a2-517e-4820-a194-7b5c271e738b","system_id":"levelo_inurba_marseille","lat":43.245581,"lon":5.395069,"is_reserved":false,"is_disabled":false,"rental_uris":{"android":"levelo://app?vid=84bd67a2-517e-4820-a194-7b5c271e738b","ios":"levelo://app?vid=84bd67a2-517e-4820-a194-7b5c271e738b"},"vehicle_type_id":"4","last_reported":1701608861,"current_range_meters":21200,"station_id":"ce4bhlp2rcd13ifvqgjg","pricing_plan_id":"free"},{"bike_id":"52479e7a-7c60-4252-b912-b253df9b275f","system_id":"levelo_inurba_marseille","lat":43.245581,"lon":5.395069,"is_reserved":false,"is_disabled":false,"rental_uris":{"android":"levelo://app?vid=52479e7a-7c60-4252-b912-b253df9b275f","ios":"levelo://app?vid=52479e7a-7c60-4252-b912-b253df9b275f"},"vehicle_type_id":"4","last_reported":1701608861,"current_range_meters":27200,"station_id":"ce4bhlp2rcd13ifvqgjg","pricing_plan_id":"free"},{"bike_id":"3af9991c-7b5d-4e9b-a9bf-61e1c2118983","system_id":"levelo_inurba_marseille","lat":43.245581,"lon":5.395069,"is_reserved":false,"is_disabled":false,"rental_uris":{"android":"levelo://app?vid=3af9991c-7b5d-4e9b-a9bf-61e1c2118983","ios":"levelo://app?vid=3af9991c-7b5d-4e9b-a9bf-61e1c2118983"},"vehicle_type_id":"4","last_reported":1701608861,"current_range_meters":16000,"station_id":"ce4bhlp2rcd13ifvqgjg","pricing_plan_id":"free"},{"bike_id":"155e6110-990b-4911-9866-e301eb91228d","system_id":"levelo_inurba_marseille","lat":43.24069,"lon":5.37761,"is_reserved":false,"is_disabled":false,"rental_uris":{"android":"levelo://app?vid=155e6110-990b-4911-9866-e301eb91228d","ios":"levelo://app?vid=155e6110-990b-4911-9866-e301eb91228d"},"vehicle_type_id":"4","last_reported":1701608861,"current_range_meters":12800,"station_id":"ce4bhnp2rcd13ifvqgvg","pricing_plan_id":"free"},{"bike_id":"b35e7f80-a6b5-4c37-aa6a-7c53399b0c14","system_id":"levelo_inurba_marseille","lat":43.23971,"lon":5.36619,"is_reserved":false,"is_disabled":false,"rental_uris":{"android":"levelo://app?vid=b35e7f80-a6b5-4c37-aa6a-7c53399b0c14","ios":"levelo://app?vid=b35e7f80-a6b5-4c37-aa6a-7c53399b0c14"},"vehicle_type_id":"4","last_reported":1701608861,"current_range_meters":24400,"station_id":"ce4bhi12rcd13ifvqfp0","pricing_plan_id":"free"},{"bike_id":"66d07158-1c05-469e-a266-b66692f04cb5","system_id":"levelo_inurba_marseille","lat":43.239588,"lon":5.366238,"is_reserved":false,"is_disabled":false,"rental_uris":{"android":"levelo://app?vid=66d07158-1c05-469e-a266-b66692f04cb5","ios":"levelo://app?vid=66d07158-1c05-469e-a266-b66692f04cb5"},"vehicle_type_id":"4","last_reported":1701608861,"current_range_meters":31600,"station_id":"ce4bhi12rcd13ifvqfp0","pricing_plan_id":"free"},{"bike_id":"9616335e-129b-4f75-ae72-69ae36567887","system_id":"levelo_inurba_marseille","lat":43.239588,"lon":5.366238,"is_reserved":false,"is_disabled":false,"rental_uris":{"android":"levelo://app?vid=9616335e-129b-4f75-ae72-69ae36567887","ios":"levelo://app?vid=9616335e-129b-4f75-ae72-69ae36567887"},"vehicle_type_id":"4","last_reported":1701608861,"current_range_meters":23600,"station_id":"ce4bhi12rcd13ifvqfp0","pricing_plan_id":"free"},{"bike_id":"b090f973-2c95-4f28-bad8-f0fb3cef1d29","system_id":"levelo_inurba_marseille","lat":43.2396,"lon":5.36627,"is_reserved":false,"is_disabled":false,"rental_uris":{"android":"levelo://app?vid=b090f973-2c95-4f28-bad8-f0fb3cef1d29","ios":"levelo://app?vid=b090f973-2c95-4f28-bad8-f0fb3cef1d29"},"vehicle_type_id":"4","last_reported":1701608861,"current_range_meters":19200,"station_id":"ce4bhi12rcd13ifvqfp0","pricing_plan_id":"free"},{"bike_id":"7f4d7cbb-0d43-44d7-be92-f4b1d0c72f6e","system_id":"levelo_inurba_marseille","lat":43.23959,"lon":5.36628,"is_reserved":false,"is_disabled":false,"rental_uris":{"android":"levelo://app?vid=7f4d7cbb-0d43-44d7-be92-f4b1d0c72f6e","ios":"levelo://app?vid=7f4d7cbb-0d43-44d7-be92-f4b1d0c72f6e"},"vehicle_type_id":"4","last_reported":1701608861,"current_range_meters":23200,"station_id":"ce4bhi12rcd13ifvqfp0","pricing_plan_id":"free"},{"bike_id":"b101f295-ac85-402a-8afe-c635c176f114","system_id":"levelo_inurba_marseille","lat":43.28531,"lon":5.46056,"is_reserved":false,"is_disabled":false,"rental_uris":{"android":"levelo://app?vid=b101f295-ac85-402a-8afe-c635c176f114","ios":"levelo://app?vid=b101f295-ac85-402a-8afe-c635c176f114"},"vehicle_type_id":"4","last_reported":1701608861,"current_range_meters":19200,"station_id":"","pricing_plan_id":"free"},{"bike_id":"9c197c92-1b60-46e6-bddf-58cb554302cb","system_id":"levelo_inurba_marseille","lat":43.241782,"lon":5.397261,"is_reserved":false,"is_disabled":false,"rental_uris":{"android":"levelo://app?vid=9c197c92-1b60-46e6-bddf-58cb554302cb","ios":"levelo://app?vid=9c197c92-1b60-46e6-bddf-58cb554302cb"},"vehicle_type_id":"4","last_reported":1701608861,"current_range_meters":16400,"station_id":"ce4bhn12rcd13ifvqgpg","pricing_plan_id":"free"},{"bike_id":"efab28f3-6bbe-4dfe-9e31-ccdc6083347d","system_id":"levelo_inurba_marseille","lat":43.241782,"lon":5.397264,"is_reserved":false,"is_disabled":false,"rental_uris":{"android":"levelo://app?vid=efab28f3-6bbe-4dfe-9e31-ccdc6083347d","ios":"levelo://app?vid=efab28f3-6bbe-4dfe-9e31-ccdc6083347d"},"vehicle_type_id":"4","last_reported":1701608861,"current_range_meters":400,"station_id":"ce4bhn12rcd13ifvqgpg","pricing_plan_id":"free"},{"bike_id":"9f7746be-aa54-4a37-ad70-7bf88b7714fd","system_id":"levelo_inurba_marseille","lat":43.241782,"lon":5.397261,"is_reserved":false,"is_disabled":false,"rental_uris":{"android":"levelo://app?vid=9f7746be-aa54-4a37-ad70-7bf88b7714fd","ios":"levelo://app?vid=9f7746be-aa54-4a37-ad70-7bf88b7714fd"},"vehicle_type_id":"4","last_reported":1701608861,"current_range_meters":16400,"station_id":"ce4bhn12rcd13ifvqgpg","pricing_plan_id":"free"},{"bike_id":"df76bb33-a4ef-4a36-a72d-84c57504fc7a","system_id":"levelo_inurba_marseille","lat":43.231989,"lon":5.355478,"is_reserved":false,"is_disabled":false,"rental_uris":{"android":"levelo://app?vid=df76bb33-a4ef-4a36-a72d-84c57504fc7a","ios":"levelo://app?vid=df76bb33-a4ef-4a36-a72d-84c57504fc7a"},"vehicle_type_id":"4","last_reported":1701608861,"current_range_meters":29600,"station_id":"ce4bhu92rcd13ifvqi70","pricing_plan_id":"free"},{"bike_id":"6573cb36-3c40-4042-8b0f-1356381ee019","system_id":"levelo_inurba_marseille","lat":43.231923,"lon":5.355545,"is_reserved":false,"is_disabled":false,"rental_uris":{"android":"levelo://app?vid=6573cb36-3c40-4042-8b0f-1356381ee019","ios":"levelo://app?vid=6573cb36-3c40-4042-8b0f-1356381ee019"},"vehicle_type_id":"4","last_reported":1701608861,"current_range_meters":28400,"station_id":"ce4bhu92rcd13ifvqi70","pricing_plan_id":"free"},{"bike_id":"58d4edcd-4441-486c-8457-28ebda4ac431","system_id":"levelo_inurba_marseille","lat":43.23198,"lon":5.35551,"is_reserved":false,"is_disabled":false,"rental_uris":{"android":"levelo://app?vid=58d4edcd-4441-486c-8457-28ebda4ac431","ios":"levelo://app?vid=58d4edcd-4441-486c-8457-28ebda4ac431"},"vehicle_type_id":"4","last_reported":1701608861,"current_range_meters":20000,"station_id":"ce4bhu92rcd13ifvqi70","pricing_plan_id":"free"},{"bike_id":"90a66033-92d6-4ce5-9800-5d20674c66dd","system_id":"levelo_inurba_marseille","lat":43.231973,"lon":5.355491,"is_reserved":false,"is_disabled":false,"rental_uris":{"android":"levelo://app?vid=90a66033-92d6-4ce5-9800-5d20674c66dd","ios":"levelo://app?vid=90a66033-92d6-4ce5-9800-5d20674c66dd"},"vehicle_type_id":"4","last_reported":1701608861,"current_range_meters":29200,"station_id":"ce4bhu92rcd13ifvqi70","pricing_plan_id":"free"},{"bike_id":"6041d620-664b-4836-b597-a0e62593a032","system_id":"levelo_inurba_marseille","lat":43.231923,"lon":5.355545,"is_reserved":false,"is_disabled":false,"rental_uris":{"android":"levelo://app?vid=6041d620-664b-4836-b597-a0e62593a032","ios":"levelo://app?vid=6041d620-664b-4836-b597-a0e62593a032"},"vehicle_type_id":"4","last_reported":1701608861,"current_range_meters":28800,"station_id":"ce4bhu92rcd13ifvqi70","pricing_plan_id":"free"},{"bike_id":"6462fbc5-ceb8-47e3-b56d-fc1e69bef19f","system_id":"levelo_inurba_marseille","lat":43.231919,"lon":5.355532,"is_reserved":false,"is_disabled":false,"rental_uris":{"android":"levelo://app?vid=6462fbc5-ceb8-47e3-b56d-fc1e69bef19f","ios":"levelo://app?vid=6462fbc5-ceb8-47e3-b56d-fc1e69bef19f"},"vehicle_type_id":"4","last_reported":1701608861,"current_range_meters":25200,"station_id":"ce4bhu92rcd13ifvqi70","pricing_plan_id":"free"},{"bike_id":"c384cc79-d05c-49b7-9293-603bcf5d3796","system_id":"levelo_inurba_marseille","lat":43.231919,"lon":5.355532,"is_reserved":false,"is_disabled":false,"rental_uris":{"android":"levelo://app?vid=c384cc79-d05c-49b7-9293-603bcf5d3796","ios":"levelo://app?vid=c384cc79-d05c-49b7-9293-603bcf5d3796"},"vehicle_type_id":"4","last_reported":1701608861,"current_range_meters":6400,"station_id":"ce4bhu92rcd13ifvqi70","pricing_plan_id":"free"},{"bike_id":"9e01ee59-41e6-425c-ae1f-3e33312fefcd","system_id":"levelo_inurba_marseille","lat":43.231923,"lon":5.355545,"is_reserved":false,"is_disabled":false,"rental_uris":{"android":"levelo://app?vid=9e01ee59-41e6-425c-ae1f-3e33312fefcd","ios":"levelo://app?vid=9e01ee59-41e6-425c-ae1f-3e33312fefcd"},"vehicle_type_id":"4","last_reported":1701608861,"current_range_meters":16400,"station_id":"ce4bhu92rcd13ifvqi70","pricing_plan_id":"free"},{"bike_id":"4506c45e-2d09-462d-97b5-d051c36d1044","system_id":"levelo_inurba_marseille","lat":43.231919,"lon":5.355532,"is_reserved":false,"is_disabled":false,"rental_uris":{"android":"levelo://app?vid=4506c45e-2d09-462d-97b5-d051c36d1044","ios":"levelo://app?vid=4506c45e-2d09-462d-97b5-d051c36d1044"},"vehicle_type_id":"4","last_reported":1701608861,"current_range_meters":27600,"station_id":"ce4bhu92rcd13ifvqi70","pricing_plan_id":"free"},{"bike_id":"177a82e2-68da-4975-a68b-b32649f3d1f2","system_id":"levelo_inurba_marseille","lat":43.231923,"lon":5.355545,"is_reserved":false,"is_disabled":false,"rental_uris":{"android":"levelo://app?vid=177a82e2-68da-4975-a68b-b32649f3d1f2","ios":"levelo://app?vid=177a82e2-68da-4975-a68b-b32649f3d1f2"},"vehicle_type_id":"4","last_reported":1701608861,"current_range_meters":8400,"station_id":"ce4bhu92rcd13ifvqi70","pricing_plan_id":"free"},{"bike_id":"8d45e79f-ff9f-47c8-88d6-90acf191ca53","system_id":"levelo_inurba_marseille","lat":43.231919,"lon":5.355532,"is_reserved":false,"is_disabled":false,"rental_uris":{"android":"levelo://app?vid=8d45e79f-ff9f-47c8-88d6-90acf191ca53","ios":"levelo://app?vid=8d45e79f-ff9f-47c8-88d6-90acf191ca53"},"vehicle_type_id":"4","last_reported":1701608861,"current_range_meters":13200,"station_id":"ce4bhu92rcd13ifvqi70","pricing_plan_id":"free"},{"bike_id":"2b04708e-eed8-4471-916a-9fdeea01eec7","system_id":"levelo_inurba_marseille","lat":43.231923,"lon":5.355545,"is_reserved":false,"is_disabled":false,"rental_uris":{"android":"levelo://app?vid=2b04708e-eed8-4471-916a-9fdeea01eec7","ios":"levelo://app?vid=2b04708e-eed8-4471-916a-9fdeea01eec7"},"vehicle_type_id":"4","last_reported":1701608861,"current_range_meters":14000,"station_id":"ce4bhu92rcd13ifvqi70","pricing_plan_id":"free"},{"bike_id":"c94cd651-5b31-4f60-81a4-da3f4ff98e56","system_id":"levelo_inurba_marseille","lat":43.231938,"lon":5.355477,"is_reserved":false,"is_disabled":false,"rental_uris":{"android":"levelo://app?vid=c94cd651-5b31-4f60-81a4-da3f4ff98e56","ios":"levelo://app?vid=c94cd651-5b31-4f60-81a4-da3f4ff98e56"},"vehicle_type_id":"4","last_reported":1701608861,"current_range_meters":11200,"station_id":"ce4bhu92rcd13ifvqi70","pricing_plan_id":"free"},{"bike_id":"6382809b-45d0-4ad2-8be7-697249f82077","system_id":"levelo_inurba_marseille","lat":43.231919,"lon":5.355532,"is_reserved":false,"is_disabled":false,"rental_uris":{"android":"levelo://app?vid=6382809b-45d0-4ad2-8be7-697249f82077","ios":"levelo://app?vid=6382809b-45d0-4ad2-8be7-697249f82077"},"vehicle_type_id":"4","last_reported":1701608861,"current_range_meters":31200,"station_id":"ce4bhu92rcd13ifvqi70","pricing_plan_id":"free"},{"bike_id":"4dae0f2e-3beb-46e8-877b-0143e05c3e8e","system_id":"levelo_inurba_marseille","lat":43.231919,"lon":5.355532,"is_reserved":false,"is_disabled":false,"rental_uris":{"android":"levelo://app?vid=4dae0f2e-3beb-46e8-877b-0143e05c3e8e","ios":"levelo://app?vid=4dae0f2e-3beb-46e8-877b-0143e05c3e8e"},"vehicle_type_id":"4","last_reported":1701608861,"current_range_meters":28400,"station_id":"ce4bhu92rcd13ifvqi70","pricing_plan_id":"free"},{"bike_id":"cc63aece-497e-49db-86a0-e2c21e8d86af","system_id":"levelo_inurba_marseille","lat":43.231919,"lon":5.355532,"is_reserved":false,"is_disabled":false,"rental_uris":{"android":"levelo://app?vid=cc63aece-497e-49db-86a0-e2c21e8d86af","ios":"levelo://app?vid=cc63aece-497e-49db-86a0-e2c21e8d86af"},"vehicle_type_id":"4","last_reported":1701608861,"current_range_meters":20000,"station_id":"ce4bhu92rcd13ifvqi70","pricing_plan_id":"free"},{"bike_id":"cf3102c4-88e0-4a41-86b7-69a76932d3e6","system_id":"levelo_inurba_marseille","lat":43.231923,"lon":5.355545,"is_reserved":false,"is_disabled":false,"rental_uris":{"android":"levelo://app?vid=cf3102c4-88e0-4a41-86b7-69a76932d3e6","ios":"levelo://app?vid=cf3102c4-88e0-4a41-86b7-69a76932d3e6"},"vehicle_type_id":"4","last_reported":1701608861,"current_range_meters":31200,"station_id":"ce4bhu92rcd13ifvqi70","pricing_plan_id":"free"},{"bike_id":"b8f295a9-10f8-4746-b4a0-4491480d1fc4","system_id":"levelo_inurba_marseille","lat":43.231919,"lon":5.355532,"is_reserved":false,"is_disabled":false,"rental_uris":{"android":"levelo://app?vid=b8f295a9-10f8-4746-b4a0-4491480d1fc4","ios":"levelo://app?vid=b8f295a9-10f8-4746-b4a0-4491480d1fc4"},"vehicle_type_id":"4","last_reported":1701608861,"current_range_meters":20400,"station_id":"ce4bhu92rcd13ifvqi70","pricing_plan_id":"free"},{"bike_id":"a2778a75-2f32-457d-810c-ad5c32010803","system_id":"levelo_inurba_marseille","lat":43.23192,"lon":5.35553,"is_reserved":false,"is_disabled":false,"rental_uris":{"android":"levelo://app?vid=a2778a75-2f32-457d-810c-ad5c32010803","ios":"levelo://app?vid=a2778a75-2f32-457d-810c-ad5c32010803"},"vehicle_type_id":"4","last_reported":1701608861,"current_range_meters":20400,"station_id":"ce4bhu92rcd13ifvqi70","pricing_plan_id":"free"},{"bike_id":"71bf2f34-6f1d-4c95-bf1c-5bb61de13cd3","system_id":"levelo_inurba_marseille","lat":43.231919,"lon":5.355532,"is_reserved":false,"is_disabled":false,"rental_uris":{"android":"levelo://app?vid=71bf2f34-6f1d-4c95-bf1c-5bb61de13cd3","ios":"levelo://app?vid=71bf2f34-6f1d-4c95-bf1c-5bb61de13cd3"},"vehicle_type_id":"4","last_reported":1701608861,"current_range_meters":8400,"station_id":"ce4bhu92rcd13ifvqi70","pricing_plan_id":"free"},{"bike_id":"384a17af-27e8-4164-b8c0-d8b51c5b0eac","system_id":"levelo_inurba_marseille","lat":43.231923,"lon":5.355545,"is_reserved":false,"is_disabled":false,"rental_uris":{"android":"levelo://app?vid=384a17af-27e8-4164-b8c0-d8b51c5b0eac","ios":"levelo://app?vid=384a17af-27e8-4164-b8c0-d8b51c5b0eac"},"vehicle_type_id":"4","last_reported":1701608861,"current_range_meters":7200,"station_id":"ce4bhu92rcd13ifvqi70","pricing_plan_id":"free"},{"bike_id":"4e176977-ccb9-4a01-b3da-279fd61eadf6","system_id":"levelo_inurba_marseille","lat":43.231919,"lon":5.355532,"is_reserved":false,"is_disabled":false,"rental_uris":{"android":"levelo://app?vid=4e176977-ccb9-4a01-b3da-279fd61eadf6","ios":"levelo://app?vid=4e176977-ccb9-4a01-b3da-279fd61eadf6"},"vehicle_type_id":"4","last_reported":1701608861,"current_range_meters":18400,"station_id":"ce4bhu92rcd13ifvqi70","pricing_plan_id":"free"},{"bike_id":"cb3c5614-5a37-4ab8-a51e-8b81ebb4f897","system_id":"levelo_inurba_marseille","lat":43.231919,"lon":5.355532,"is_reserved":false,"is_disabled":false,"rental_uris":{"android":"levelo://app?vid=cb3c5614-5a37-4ab8-a51e-8b81ebb4f897","ios":"levelo://app?vid=cb3c5614-5a37-4ab8-a51e-8b81ebb4f897"},"vehicle_type_id":"4","last_reported":1701608861,"current_range_meters":12400,"station_id":"ce4bhu92rcd13ifvqi70","pricing_plan_id":"free"},{"bike_id":"88cf855f-bb31-40e0-8afc-686df3c193ab","system_id":"levelo_inurba_marseille","lat":43.231794,"lon":5.400052,"is_reserved":false,"is_disabled":false,"rental_uris":{"android":"levelo://app?vid=88cf855f-bb31-40e0-8afc-686df3c193ab","ios":"levelo://app?vid=88cf855f-bb31-40e0-8afc-686df3c193ab"},"vehicle_type_id":"4","last_reported":1701608861,"current_range_meters":28400,"station_id":"ce4bhn12rcd13ifvqgqg","pricing_plan_id":"free"},{"bike_id":"d0b35396-6769-42d4-8160-8b44cb829902","system_id":"levelo_inurba_marseille","lat":43.231885,"lon":5.399816,"is_reserved":false,"is_disabled":false,"rental_uris":{"android":"levelo://app?vid=d0b35396-6769-42d4-8160-8b44cb829902","ios":"levelo://app?vid=d0b35396-6769-42d4-8160-8b44cb829902"},"vehicle_type_id":"4","last_reported":1701608861,"current_range_meters":29200,"station_id":"ce4bhn12rcd13ifvqgqg","pricing_plan_id":"free"},{"bike_id":"22bd98e3-c33f-4c44-ae2b-f96729d36f4f","system_id":"levelo_inurba_marseille","lat":43.231793,"lon":5.400044,"is_reserved":false,"is_disabled":false,"rental_uris":{"android":"levelo://app?vid=22bd98e3-c33f-4c44-ae2b-f96729d36f4f","ios":"levelo://app?vid=22bd98e3-c33f-4c44-ae2b-f96729d36f4f"},"vehicle_type_id":"4","last_reported":1701608861,"current_range_meters":30400,"station_id":"ce4bhn12rcd13ifvqgqg","pricing_plan_id":"free"},{"bike_id":"d7955d6f-88ae-4e83-97c1-4a0668d076f6","system_id":"levelo_inurba_marseille","lat":43.23188,"lon":5.39986,"is_reserved":false,"is_disabled":false,"rental_uris":{"android":"levelo://app?vid=d7955d6f-88ae-4e83-97c1-4a0668d076f6","ios":"levelo://app?vid=d7955d6f-88ae-4e83-97c1-4a0668d076f6"},"vehicle_type_id":"4","last_reported":1701608861,"current_range_meters":18800,"station_id":"ce4bhn12rcd13ifvqgqg","pricing_plan_id":"free"},{"bike_id":"a926f4bb-1e59-4822-80ea-1d5ff6f2a5c5","system_id":"levelo_inurba_marseille","lat":43.23187,"lon":5.39984,"is_reserved":false,"is_disabled":false,"rental_uris":{"android":"levelo://app?vid=a926f4bb-1e59-4822-80ea-1d5ff6f2a5c5","ios":"levelo://app?vid=a926f4bb-1e59-4822-80ea-1d5ff6f2a5c5"},"vehicle_type_id":"4","last_reported":1701608861,"current_range_meters":14800,"station_id":"ce4bhn12rcd13ifvqgqg","pricing_plan_id":"free"},{"bike_id":"e47e98e0-4256-4c41-ae86-e531a41b9213","system_id":"levelo_inurba_marseille","lat":43.231794,"lon":5.400052,"is_reserved":false,"is_disabled":false,"rental_uris":{"android":"levelo://app?vid=e47e98e0-4256-4c41-ae86-e531a41b9213","ios":"levelo://app?vid=e47e98e0-4256-4c41-ae86-e531a41b9213"},"vehicle_type_id":"4","last_reported":1701608861,"current_range_meters":31600,"station_id":"ce4bhn12rcd13ifvqgqg","pricing_plan_id":"free"},{"bike_id":"77b1a551-da7f-429a-980e-bfc6767a5958","system_id":"levelo_inurba_marseille","lat":43.231794,"lon":5.400052,"is_reserved":false,"is_disabled":false,"rental_uris":{"android":"levelo://app?vid=77b1a551-da7f-429a-980e-bfc6767a5958","ios":"levelo://app?vid=77b1a551-da7f-429a-980e-bfc6767a5958"},"vehicle_type_id":"4","last_reported":1701608861,"current_range_meters":31600,"station_id":"ce4bhn12rcd13ifvqgqg","pricing_plan_id":"free"},{"bike_id":"3fdd6789-d52a-4c7f-96f4-f754cbf436d6","system_id":"levelo_inurba_marseille","lat":43.23183,"lon":5.39977,"is_reserved":false,"is_disabled":false,"rental_uris":{"android":"levelo://app?vid=3fdd6789-d52a-4c7f-96f4-f754cbf436d6","ios":"levelo://app?vid=3fdd6789-d52a-4c7f-96f4-f754cbf436d6"},"vehicle_type_id":"4","last_reported":1701608861,"current_range_meters":12000,"station_id":"ce4bhn12rcd13ifvqgqg","pricing_plan_id":"free"},{"bike_id":"4ee99995-f63f-4ddb-ac4b-88a5ee23324c","system_id":"levelo_inurba_marseille","lat":43.231836,"lon":5.399818,"is_reserved":false,"is_disabled":false,"rental_uris":{"android":"levelo://app?vid=4ee99995-f63f-4ddb-ac4b-88a5ee23324c","ios":"levelo://app?vid=4ee99995-f63f-4ddb-ac4b-88a5ee23324c"},"vehicle_type_id":"4","last_reported":1701608861,"current_range_meters":13600,"station_id":"ce4bhn12rcd13ifvqgqg","pricing_plan_id":"free"},{"bike_id":"27852c29-47dc-4826-817e-c88bd3a0386e","system_id":"levelo_inurba_marseille","lat":43.231854,"lon":5.39992,"is_reserved":false,"is_disabled":false,"rental_uris":{"android":"levelo://app?vid=27852c29-47dc-4826-817e-c88bd3a0386e","ios":"levelo://app?vid=27852c29-47dc-4826-817e-c88bd3a0386e"},"vehicle_type_id":"4","last_reported":1701608861,"current_range_meters":18400,"station_id":"ce4bhn12rcd13ifvqgqg","pricing_plan_id":"free"},{"bike_id":"6bd9f065-50d9-4657-9ca0-a006f413d305","system_id":"levelo_inurba_marseille","lat":43.231794,"lon":5.400052,"is_reserved":false,"is_disabled":false,"rental_uris":{"android":"levelo://app?vid=6bd9f065-50d9-4657-9ca0-a006f413d305","ios":"levelo://app?vid=6bd9f065-50d9-4657-9ca0-a006f413d305"},"vehicle_type_id":"4","last_reported":1701608861,"current_range_meters":31600,"station_id":"ce4bhn12rcd13ifvqgqg","pricing_plan_id":"free"},{"bike_id":"83862a0a-d647-45eb-9884-693fce6366ab","system_id":"levelo_inurba_marseille","lat":43.23183,"lon":5.39985,"is_reserved":false,"is_disabled":false,"rental_uris":{"android":"levelo://app?vid=83862a0a-d647-45eb-9884-693fce6366ab","ios":"levelo://app?vid=83862a0a-d647-45eb-9884-693fce6366ab"},"vehicle_type_id":"4","last_reported":1701608861,"current_range_meters":14000,"station_id":"ce4bhn12rcd13ifvqgqg","pricing_plan_id":"free"},{"bike_id":"ddecb7a7-8295-4a56-96b7-ae63ab6d05c4","system_id":"levelo_inurba_marseille","lat":43.231794,"lon":5.400052,"is_reserved":false,"is_disabled":false,"rental_uris":{"android":"levelo://app?vid=ddecb7a7-8295-4a56-96b7-ae63ab6d05c4","ios":"levelo://app?vid=ddecb7a7-8295-4a56-96b7-ae63ab6d05c4"},"vehicle_type_id":"4","last_reported":1701608861,"current_range_meters":20400,"station_id":"ce4bhn12rcd13ifvqgqg","pricing_plan_id":"free"},{"bike_id":"d8ad9864-eb6b-4faa-b8e1-e2e245ce7f97","system_id":"levelo_inurba_marseille","lat":43.23184,"lon":5.39992,"is_reserved":false,"is_disabled":false,"rental_uris":{"android":"levelo://app?vid=d8ad9864-eb6b-4faa-b8e1-e2e245ce7f97","ios":"levelo://app?vid=d8ad9864-eb6b-4faa-b8e1-e2e245ce7f97"},"vehicle_type_id":"4","last_reported":1701608861,"current_range_meters":16000,"station_id":"ce4bhn12rcd13ifvqgqg","pricing_plan_id":"free"},{"bike_id":"b2dc27fe-d3dd-4dd0-b015-108c88d15d4b","system_id":"levelo_inurba_marseille","lat":43.23182,"lon":5.39985,"is_reserved":false,"is_disabled":false,"rental_uris":{"android":"levelo://app?vid=b2dc27fe-d3dd-4dd0-b015-108c88d15d4b","ios":"levelo://app?vid=b2dc27fe-d3dd-4dd0-b015-108c88d15d4b"},"vehicle_type_id":"4","last_reported":1701608861,"current_range_meters":11200,"station_id":"ce4bhn12rcd13ifvqgqg","pricing_plan_id":"free"},{"bike_id":"3ca2546c-f9ed-464d-b941-53a82f5e8048","system_id":"levelo_inurba_marseille","lat":43.231794,"lon":5.400052,"is_reserved":false,"is_disabled":false,"rental_uris":{"android":"levelo://app?vid=3ca2546c-f9ed-464d-b941-53a82f5e8048","ios":"levelo://app?vid=3ca2546c-f9ed-464d-b941-53a82f5e8048"},"vehicle_type_id":"4","last_reported":1701608861,"current_range_meters":10000,"station_id":"ce4bhn12rcd13ifvqgqg","pricing_plan_id":"free"},{"bike_id":"b105d208-97c4-48d5-92c0-d47140eb7ea4","system_id":"levelo_inurba_marseille","lat":43.23178,"lon":5.39983,"is_reserved":false,"is_disabled":false,"rental_uris":{"android":"levelo://app?vid=b105d208-97c4-48d5-92c0-d47140eb7ea4","ios":"levelo://app?vid=b105d208-97c4-48d5-92c0-d47140eb7ea4"},"vehicle_type_id":"4","last_reported":1701608861,"current_range_meters":20000,"station_id":"ce4bhn12rcd13ifvqgqg","pricing_plan_id":"free"},{"bike_id":"457c552c-8af5-4b7b-9f6b-8c901265a623","system_id":"levelo_inurba_marseille","lat":43.2318,"lon":5.39993,"is_reserved":false,"is_disabled":false,"rental_uris":{"android":"levelo://app?vid=457c552c-8af5-4b7b-9f6b-8c901265a623","ios":"levelo://app?vid=457c552c-8af5-4b7b-9f6b-8c901265a623"},"vehicle_type_id":"4","last_reported":1701608861,"current_range_meters":28400,"station_id":"ce4bhn12rcd13ifvqgqg","pricing_plan_id":"free"},{"bike_id":"16a41787-d883-4833-8e9f-dec99880066b","system_id":"levelo_inurba_marseille","lat":43.231562,"lon":5.436933,"is_reserved":false,"is_disabled":false,"rental_uris":{"android":"levelo://app?vid=16a41787-d883-4833-8e9f-dec99880066b","ios":"levelo://app?vid=16a41787-d883-4833-8e9f-dec99880066b"},"vehicle_type_id":"4","last_reported":1701608861,"current_range_meters":27200,"station_id":"ce4bhmp2rcd13ifvqgog","pricing_plan_id":"free"},{"bike_id":"c843e4be-9452-47bc-86e6-0971bd283d7a","system_id":"levelo_inurba_marseille","lat":43.23154,"lon":5.43715,"is_reserved":false,"is_disabled":false,"rental_uris":{"android":"levelo://app?vid=c843e4be-9452-47bc-86e6-0971bd283d7a","ios":"levelo://app?vid=c843e4be-9452-47bc-86e6-0971bd283d7a"},"vehicle_type_id":"4","last_reported":1701608861,"current_range_meters":14400,"station_id":"ce4bhmp2rcd13ifvqgog","pricing_plan_id":"free"},{"bike_id":"419c9e3c-50b9-4549-9036-421367ac4707","system_id":"levelo_inurba_marseille","lat":43.231562,"lon":5.436933,"is_reserved":false,"is_disabled":false,"rental_uris":{"android":"levelo://app?vid=419c9e3c-50b9-4549-9036-421367ac4707","ios":"levelo://app?vid=419c9e3c-50b9-4549-9036-421367ac4707"},"vehicle_type_id":"4","last_reported":1701608861,"current_range_meters":29200,"station_id":"ce4bhmp2rcd13ifvqgog","pricing_plan_id":"free"}]}}