{"last_updated":1723414084,"ttl":30,"version":"2.2","data":{"bikes":[{"bike_id":"632638a6-f1de-465b-a7cc-da161616e6fa","system_id":"levelo_inurba_marseille","lat":43.313391,"lon":5.36706,"is_reserved":false,"is_disabled":false,"rental_uris":{"android":"levelo://app?vid=632638a6-f1de-465b-a7cc-da161616e6fa","ios":"levelo://app?vid=632638a6-f1de-465b-a7cc-da161616e6fa"},"vehicle_type_id":"4","last_reported":1723414084,"current_range_meters":31200,"station_id":"ce4bgr92rcd13ifvqc6g","pricing_plan_id":"cebpf4jnsgd1na2vs0mg"},{"bike_id":"d5abc75a-c886-4727-b198-5344fff2343a","system_id":"levelo_inurba_marseille","lat":43.31351,"lon":5.36712,"is_reserved":false,"is_disabled":false,"rental_uris":{"android":"levelo://app?vid=d5abc75a-c886-4727-b198-5344fff2343a","ios":"levelo://app?vid=d5abc75a-c886-4727-b198-5344fff2343a"},"vehicle_type_id":"4","last_reported":1723414084,"current_range_meters":5200,"station_id":"ce4bgr92rcd13ifvqc6g","pricing_plan_id":"cebpf4jnsgd1na2vs0mg"},{"bike_id":"d06cc8ab-0954-431c-9226-f36cf418dbaf","system_id":"levelo_inurba_marseille","lat":43.312173,"lon":5.368249,"is_reserved":false,"is_disabled":false,"rental_uris":{"android":"levelo://app?vid=d06cc8ab-0954-431c-9226-f36cf418dbaf","ios":"levelo://app?vid=d06cc8ab-0954-431c-9226-f36cf418dbaf"},"vehicle_type_id":"4","last_reported":1723414084,"current_range_meters":25200,"station_id":"","pricing_plan_id":"cebpf4jnsgd1na2vs0mg"},{"bike_id":"2a7cbac4-cca0-4a90-9bdb-9c72dc86ef4f","system_id":"levelo_inurba_marseille","lat":43.309076,"lon":5.368465,"is_reserved":false,"is_disabled":false,"rental_uris":{"android":"levelo://app?vid=2a7cbac4-cca0-4a90-9bdb-9c72dc86ef4f","ios":"levelo://app?vid=2a7cbac4-cca0-4a90-9bdb-9c72dc86ef4f"},"vehicle_type_id":"4","last_reported":1723414084,"current_range_meters":28400,"station_id":"ce4bgn92rcd13ifvqbvg","pricing_plan_id":"cebpf4jnsgd1na2vs0mg"},{"bike_id":"860126a1-befc-48a1-a77d-80a8bc13c4d6","system_id":"levelo_inurba_marseille","lat":43.309076,"lon":5.368465,"is_reserved":false,"is_disabled":false,"rental_uris":{"android":"levelo://app?vid=860126a1-befc-48a1-a77d-80a8bc13c4d6","ios":"levelo://app?vid=860126a1-befc-48a1-a77d-80a8bc13c4d6"},"vehicle_type_id":"4","last_reported":1723414084,"current_range_meters":18000,"station_id":"ce4bgn92rcd13ifvqbvg","pricing_plan_id":"cebpf4jnsgd1na2vs0mg"},{"bike_id":"8706260f-415f-46b8-abea-9c94e8b15832","system_id":"levelo_inurba_marseille","lat":43.314811,"lon":5.373103,"is_reserved":false,"is_disabled":false,"rental_uris":{"android":"levelo://app?vid=8706260f-415f-46b8-abea-9c94e8b15832","ios":"levelo://app?vid=8706260f-415f-46b8-abea-9c94e8b15832"},"vehicle_type_id":"4","last_reported":1723414084,"current_range_meters":6000,"station_id":"ce4bgt12rcd13ifvqcd0","pricing_plan_id":"cebpf4jnsgd1na2vs0mg"},{"bike_id":"67662e3c-f537-49c9-b557-ec0a973292e7","system_id":"levelo_inurba_marseille","lat":43.314811,"lon":5.373104,"is_reserved":false,"is_disabled":false,"rental_uris":{"android":"levelo://app?vid=67662e3c-f537-49c9-b557-ec0a973292e7","ios":"levelo://app?vid=67662e3c-f537-49c9-b557-ec0a973292e7"},"vehicle_type_id":"4","last_reported":1723414084,"current_range_meters":31200,"station_id":"ce4bgt12rcd13ifvqcd0","pricing_plan_id":"cebpf4jnsgd1na2vs0mg"},{"bike_id":"becd9cff-9f7d-4c6d-acc6-c98d885df55e","system_id":"levelo_inurba_marseille","lat":43.314811,"lon":5.373103,"is_reserved":false,"is_disabled":false,"rental_uris":{"android":"levelo://app?vid=becd9cff-9f7d-4c6d-acc6-c98d885df55e","ios":"levelo://app?vid=becd9cff-9f7d-4c6d-acc6-c98d885df55e"},"vehicle_type_id":"4","last_reported":1723414084,"current_range_meters":31200,"station_id":"ce4bgt12rcd13ifvqcd0","pricing_plan_id":"cebpf4jnsgd1na2vs0mg"},{"bike_id":"085d004a-51a5-4a22-9e72-ea3fc05797ad","system_id":"levelo_inurba_marseille","lat":43.314811,"lon":5.373104,"is_reserved":false,"is_disabled":false,"rental_uris":{"android":"levelo://app?vid=085d004a-51a5-4a22-9e72-ea3fc05797ad","ios":"levelo://app?vid=085d004a-51a5-4a22-9e72-ea3fc05797ad"},"vehicle_type_id":"4","last_reported":1723414084,"current_range_meters":10800,"station_id":"ce4bgt12rcd13ifvqcd0","pricing_plan_id":"cebpf4jnsgd1na2vs0mg"},{"bike_id":"be65ed12-739f-4427-80e2-33cfd42b293b","system_id":"levelo_inurba_marseille","lat":43.309034,"lon":5.371783,"is_reserved":false,"is_disabled":false,"rental_uris":{"android":"levelo://app?vid=be65ed12-739f-4427-80e2-33cfd42b293b","ios":"levelo://app?vid=be65ed12-739f-4427-80e2-33cfd42b293b"},"vehicle_type_id":"4","last_reported":1723414084,"current_range_meters":20000,"station_id":"ce4bguh2rcd13ifvqckg","pricing_plan_id":"cebpf4jnsgd1na2vs0mg"},{"bike_id":"ee85295a-6aa3-4428-8309-0c22ebdab5d9","system_id":"levelo_inurba_marseille","lat":43.309039,"lon":5.371797,"is_reserved":false,"is_disabled":false,"rental_uris":{"android":"levelo://app?vid=ee85295a-6aa3-4428-8309-0c22ebdab5d9","ios":"levelo://app?vid=ee85295a-6aa3-4428-8309-0c22ebdab5d9"},"vehicle_type_id":"4","last_reported":1723414084,"current_range_meters":9600,"station_id":"ce4bguh2rcd13ifvqckg","pricing_plan_id":"cebpf4jnsgd1na2vs0mg"},{"bike_id":"109adda2-1bb9-42cd-8452-5d656e123384","system_id":"levelo_inurba_marseille","lat":43.30892,"lon":5.37201,"is_reserved":false,"is_disabled":false,"rental_uris":{"android":"levelo://app?vid=109adda2-1bb9-42cd-8452-5d656e123384","ios":"levelo://app?vid=109adda2-1bb9-42cd-8452-5d656e123384"},"vehicle_type_id":"4","last_reported":1723414084,"current_range_meters":1200,"station_id":"ce4bguh2rcd13ifvqckg","pricing_plan_id":"cebpf4jnsgd1na2vs0mg"},{"bike_id":"0a0d1504-0816-45d1-a14b-7aedf3610e22","system_id":"levelo_inurba_marseille","lat":43.31476,"lon":5.37394,"is_reserved":false,"is_disabled":false,"rental_uris":{"android":"levelo://app?vid=0a0d1504-0816-45d1-a14b-7aedf3610e22","ios":"levelo://app?vid=0a0d1504-0816-45d1-a14b-7aedf3610e22"},"vehicle_type_id":"4","last_reported":1723414084,"current_range_meters":4800,"station_id":"","pricing_plan_id":"cebpf4jnsgd1na2vs0mg"},{"bike_id":"2596333c-98dd-42ff-903c-7decc23730c8","system_id":"levelo_inurba_marseille","lat":43.305714,"lon":5.365633,"is_reserved":false,"is_disabled":false,"rental_uris":{"android":"levelo://app?vid=2596333c-98dd-42ff-903c-7decc23730c8","ios":"levelo://app?vid=2596333c-98dd-42ff-903c-7decc23730c8"},"vehicle_type_id":"4","last_reported":1723414084,"current_range_meters":4400,"station_id":"ce4bgs12rcd13ifvqcag","pricing_plan_id":"cebpf4jnsgd1na2vs0mg"},{"bike_id":"d5fbbe37-9394-4c13-a89d-0aad31e0287c","system_id":"levelo_inurba_marseille","lat":43.305989,"lon":5.37225,"is_reserved":false,"is_disabled":false,"rental_uris":{"android":"levelo://app?vid=d5fbbe37-9394-4c13-a89d-0aad31e0287c","ios":"levelo://app?vid=d5fbbe37-9394-4c13-a89d-0aad31e0287c"},"vehicle_type_id":"4","last_reported":1723414084,"current_range_meters":13600,"station_id":"ce4bgqh2rcd13ifvqc4g","pricing_plan_id":"cebpf4jnsgd1na2vs0mg"},{"bike_id":"18b34649-8698-4a16-acca-79569828514f","system_id":"levelo_inurba_marseille","lat":43.305989,"lon":5.37225,"is_reserved":false,"is_disabled":false,"rental_uris":{"android":"levelo://app?vid=18b34649-8698-4a16-acca-79569828514f","ios":"levelo://app?vid=18b34649-8698-4a16-acca-79569828514f"},"vehicle_type_id":"4","last_reported":1723414084,"current_range_meters":19600,"station_id":"ce4bgqh2rcd13ifvqc4g","pricing_plan_id":"cebpf4jnsgd1na2vs0mg"},{"bike_id":"dde65a12-0062-4444-a22c-b8c54b32472c","system_id":"levelo_inurba_marseille","lat":43.30525,"lon":5.369325,"is_reserved":false,"is_disabled":false,"rental_uris":{"android":"levelo://app?vid=dde65a12-0062-4444-a22c-b8c54b32472c","ios":"levelo://app?vid=dde65a12-0062-4444-a22c-b8c54b32472c"},"vehicle_type_id":"4","last_reported":1723414084,"current_range_meters":0,"station_id":"","pricing_plan_id":"cebpf4jnsgd1na2vs0mg"},{"bike_id":"382855a4-8325-4465-8ecd-ff7a3a3b6a12","system_id":"levelo_inurba_marseille","lat":43.305989,"lon":5.37225,"is_reserved":false,"is_disabled":false,"rental_uris":{"android":"levelo://app?vid=382855a4-8325-4465-8ecd-ff7a3a3b6a12","ios":"levelo://app?vid=382855a4-8325-4465-8ecd-ff7a3a3b6a12"},"vehicle_type_id":"4","last_reported":1723414084,"current_range_meters":20800,"station_id":"ce4bgqh2rcd13ifvqc4g","pricing_plan_id":"cebpf4jnsgd1na2vs0mg"},{"bike_id":"9b6e96d2-4bcb-4f9b-89c8-7948cde44e5e","system_id":"levelo_inurba_marseille","lat":43.30609,"lon":5.37225,"is_reserved":false,"is_disabled":false,"rental_uris":{"android":"levelo://app?vid=9b6e96d2-4bcb-4f9b-89c8-7948cde44e5e","ios":"levelo://app?vid=9b6e96d2-4bcb-4f9b-89c8-7948cde44e5e"},"vehicle_type_id":"4","last_reported":1723414084,"current_range_meters":14400,"station_id":"ce4bgqh2rcd13ifvqc4g","pricing_plan_id":"cebpf4jnsgd1na2vs0mg"},{"bike_id":"3e329986-5f73-43f3-b829-8b9e6cbdecce","system_id":"levelo_inurba_marseille","lat":43.305989,"lon":5.37225,"is_reserved":false,"is_disabled":false,"rental_uris":{"android":"levelo://app?vid=3e329986-5f73-43f3-b829-8b9e6cbdecce","ios":"levelo://app?vid=3e329986-5f73-43f3-b829-8b9e6cbdecce"},"vehicle_type_id":"4","last_reported":1723414084,"current_range_meters":800,"station_id":"ce4bgqh2rcd13ifvqc4g","pricing_plan_id":"cebpf4jnsgd1na2vs0mg"},{"bike_id":"7f5d3ea4-a566-45d2-977b-ba4b23231857","system_id":"levelo_inurba_marseille","lat":43.306053,"lon":5.37226,"is_reserved":false,"is_disabled":false,"rental_uris":{"android":"levelo://app?vid=7f5d3ea4-a566-45d2-977b-ba4b23231857","ios":"levelo://app?vid=7f5d3ea4-a566-45d2-977b-ba4b23231857"},"vehicle_type_id":"4","last_reported":1723414084,"current_range_meters":0,"station_id":"ce4bgqh2rcd13ifvqc4g","pricing_plan_id":"cebpf4jnsgd1na2vs0mg"},{"bike_id":"49eeeaa0-498f-4028-bf01-79ef5beb1e19","system_id":"levelo_inurba_marseille","lat":43.305989,"lon":5.37225,"is_reserved":false,"is_disabled":false,"rental_uris":{"android":"levelo://app?vid=49eeeaa0-498f-4028-bf01-79ef5beb1e19","ios":"levelo://app?vid=49eeeaa0-498f-4028-bf01-79ef5beb1e19"},"vehicle_type_id":"4","last_reported":1723414084,"current_range_meters":4800,"station_id":"ce4bgqh2rcd13ifvqc4g","pricing_plan_id":"cebpf4jnsgd1na2vs0mg"},{"bike_id":"f440cb35-a322-41e7-b7e4-0c92ee3a5e99","system_id":"levelo_inurba_marseille","lat":43.305989,"lon":5.37225,"is_reserved":false,"is_disabled":false,"rental_uris":{"android":"levelo://app?vid=f440cb35-a322-41e7-b7e4-0c92ee3a5e99","ios":"levelo://app?vid=f440cb35-a322-41e7-b7e4-0c92ee3a5e99"},"vehicle_type_id":"4","last_reported":1723414084,"current_range_meters":16800,"station_id":"ce4bgqh2rcd13ifvqc4g","pricing_plan_id":"cebpf4jnsgd1na2vs0mg"},{"bike_id":"f76cf2db-2c53-4a21-9638-253b94b3a46b","system_id":"levelo_inurba_marseille","lat":43.305989,"lon":5.37225,"is_reserved":false,"is_disabled":false,"rental_uris":{"android":"levelo://app?vid=f76cf2db-2c53-4a21-9638-253b94b3a46b","ios":"levelo://app?vid=f76cf2db-2c53-4a21-9638-253b94b3a46b"},"vehicle_type_id":"4","last_reported":1723414084,"current_range_meters":32000,"station_id":"ce4bgqh2rcd13ifvqc4g","pricing_plan_id":"cebpf4jnsgd1na2vs0mg"},{"bike_id":"d3ff5433-1bd0-4d0f-84bc-09135bb98a63","system_id":"levelo_inurba_marseille","lat":43.311131,"lon":5.377651,"is_reserved":false,"is_disabled":false,"rental_uris":{"android":"levelo://app?vid=d3ff5433-1bd0-4d0f-84bc-09135bb98a63","ios":"levelo://app?vid=d3ff5433-1bd0-4d0f-84bc-09135bb98a63"},"vehicle_type_id":"4","last_reported":1723414084,"current_range_meters":8800,"station_id":"ce4bgt92rcd13ifvqcg0","pricing_plan_id":"cebpf4jnsgd1na2vs0mg"},{"bike_id":"d52f35ed-9b62-406d-bb41-0f4c7c763217","system_id":"levelo_inurba_marseille","lat":43.311131,"lon":5.377651,"is_reserved":false,"is_disabled":false,"rental_uris":{"android":"levelo://app?vid=d52f35ed-9b62-406d-bb41-0f4c7c763217","ios":"levelo://app?vid=d52f35ed-9b62-406d-bb41-0f4c7c763217"},"vehicle_type_id":"4","last_reported":1723414084,"current_range_meters":4800,"station_id":"ce4bgt92rcd13ifvqcg0","pricing_plan_id":"cebpf4jnsgd1na2vs0mg"},{"bike_id":"8b00ab21-75bd-4a6c-b173-840a3e7b3cf1","system_id":"levelo_inurba_marseille","lat":43.311243,"lon":5.37777,"is_reserved":false,"is_disabled":false,"rental_uris":{"android":"levelo://app?vid=8b00ab21-75bd-4a6c-b173-840a3e7b3cf1","ios":"levelo://app?vid=8b00ab21-75bd-4a6c-b173-840a3e7b3cf1"},"vehicle_type_id":"4","last_reported":1723414084,"current_range_meters":30400,"station_id":"ce4bgt92rcd13ifvqcg0","pricing_plan_id":"cebpf4jnsgd1na2vs0mg"},{"bike_id":"3f6622c5-8ca3-41a3-89ed-e45ea7db5de5","system_id":"levelo_inurba_marseille","lat":43.307945,"lon":5.376487,"is_reserved":false,"is_disabled":false,"rental_uris":{"android":"levelo://app?vid=3f6622c5-8ca3-41a3-89ed-e45ea7db5de5","ios":"levelo://app?vid=3f6622c5-8ca3-41a3-89ed-e45ea7db5de5"},"vehicle_type_id":"4","last_reported":1723414084,"current_range_meters":3600,"station_id":"ce4bgv92rcd13ifvqcq0","pricing_plan_id":"cebpf4jnsgd1na2vs0mg"},{"bike_id":"dbab5abd-e8a7-47f9-9a9b-00f2dfa208fa","system_id":"levelo_inurba_marseille","lat":43.307945,"lon":5.376487,"is_reserved":false,"is_disabled":false,"rental_uris":{"android":"levelo://app?vid=dbab5abd-e8a7-47f9-9a9b-00f2dfa208fa","ios":"levelo://app?vid=dbab5abd-e8a7-47f9-9a9b-00f2dfa208fa"},"vehicle_type_id":"4","last_reported":1723414084,"current_range_meters":14400,"station_id":"ce4bgv92rcd13ifvqcq0","pricing_plan_id":"cebpf4jnsgd1na2vs0mg"},{"bike_id":"5fce9ba5-3f56-437a-854c-8a105e93f567","system_id":"levelo_inurba_marseille","lat":43.307945,"lon":5.376487,"is_reserved":false,"is_disabled":false,"rental_uris":{"android":"levelo://app?vid=5fce9ba5-3f56-437a-854c-8a105e93f567","ios":"levelo://app?vid=5fce9ba5-3f56-437a-854c-8a105e93f567"},"vehicle_type_id":"4","last_reported":1723414084,"current_range_meters":26000,"station_id":"ce4bgv92rcd13ifvqcq0","pricing_plan_id":"cebpf4jnsgd1na2vs0mg"},{"bike_id":"02739f30-f201-4d1e-87a2-f58717f0efef","system_id":"levelo_inurba_marseille","lat":43.307945,"lon":5.376487,"is_reserved":false,"is_disabled":false,"rental_uris":{"android":"levelo://app?vid=02739f30-f201-4d1e-87a2-f58717f0efef","ios":"levelo://app?vid=02739f30-f201-4d1e-87a2-f58717f0efef"},"vehicle_type_id":"4","last_reported":1723414084,"current_range_meters":16400,"station_id":"ce4bgv92rcd13ifvqcq0","pricing_plan_id":"cebpf4jnsgd1na2vs0mg"},{"bike_id":"8fcacba4-3cb3-43ee-89db-d3fdf8af5144","system_id":"levelo_inurba_marseille","lat":43.30778,"lon":5.37652,"is_reserved":false,"is_disabled":false,"rental_uris":{"android":"levelo://app?vid=8fcacba4-3cb3-43ee-89db-d3fdf8af5144","ios":"levelo://app?vid=8fcacba4-3cb3-43ee-89db-d3fdf8af5144"},"vehicle_type_id":"4","last_reported":1723414084,"current_range_meters":23200,"station_id":"","pricing_plan_id":"cebpf4jnsgd1na2vs0mg"},{"bike_id":"1ca52eae-461c-488e-a4d5-a74eb422a707","system_id":"levelo_inurba_marseille","lat":43.317075,"lon":5.377367,"is_reserved":false,"is_disabled":false,"rental_uris":{"android":"levelo://app?vid=1ca52eae-461c-488e-a4d5-a74eb422a707","ios":"levelo://app?vid=1ca52eae-461c-488e-a4d5-a74eb422a707"},"vehicle_type_id":"4","last_reported":1723414084,"current_range_meters":14400,"station_id":"ce4bgth2rcd13ifvqch0","pricing_plan_id":"cebpf4jnsgd1na2vs0mg"},{"bike_id":"97b167d6-e90e-46a5-96dc-fd26ac659456","system_id":"levelo_inurba_marseille","lat":43.31712,"lon":5.37729,"is_reserved":false,"is_disabled":false,"rental_uris":{"android":"levelo://app?vid=97b167d6-e90e-46a5-96dc-fd26ac659456","ios":"levelo://app?vid=97b167d6-e90e-46a5-96dc-fd26ac659456"},"vehicle_type_id":"4","last_reported":1723414084,"current_range_meters":11600,"station_id":"ce4bgth2rcd13ifvqch0","pricing_plan_id":"cebpf4jnsgd1na2vs0mg"},{"bike_id":"1342bac2-f51e-442e-b9e0-94b8c3525eac","system_id":"levelo_inurba_marseille","lat":43.31706,"lon":5.3775,"is_reserved":false,"is_disabled":false,"rental_uris":{"android":"levelo://app?vid=1342bac2-f51e-442e-b9e0-94b8c3525eac","ios":"levelo://app?vid=1342bac2-f51e-442e-b9e0-94b8c3525eac"},"vehicle_type_id":"4","last_reported":1723414084,"current_range_meters":18400,"station_id":"ce4bgth2rcd13ifvqch0","pricing_plan_id":"cebpf4jnsgd1na2vs0mg"},{"bike_id":"0b9389c1-fa8e-4691-82d1-cbb6fdcf3c9f","system_id":"levelo_inurba_marseille","lat":43.317075,"lon":5.377367,"is_reserved":false,"is_disabled":false,"rental_uris":{"android":"levelo://app?vid=0b9389c1-fa8e-4691-82d1-cbb6fdcf3c9f","ios":"levelo://app?vid=0b9389c1-fa8e-4691-82d1-cbb6fdcf3c9f"},"vehicle_type_id":"4","last_reported":1723414084,"current_range_meters":9200,"station_id":"ce4bgth2rcd13ifvqch0","pricing_plan_id":"cebpf4jnsgd1na2vs0mg"},{"bike_id":"2617e813-3ddb-421c-8301-25fb39691813","system_id":"levelo_inurba_marseille","lat":43.31832,"lon":5.377106,"is_reserved":false,"is_disabled":false,"rental_uris":{"android":"levelo://app?vid=2617e813-3ddb-421c-8301-25fb39691813","ios":"levelo://app?vid=2617e813-3ddb-421c-8301-25fb39691813"},"vehicle_type_id":"4","last_reported":1723414084,"current_range_meters":15600,"station_id":"ce4bgth2rcd13ifvqch0","pricing_plan_id":"cebpf4jnsgd1na2vs0mg"},{"bike_id":"303137a6-ce0b-4306-b88e-00f89ba0a582","system_id":"levelo_inurba_marseille","lat":43.30318,"lon":5.36669,"is_reserved":false,"is_disabled":false,"rental_uris":{"android":"levelo://app?vid=303137a6-ce0b-4306-b88e-00f89ba0a582","ios":"levelo://app?vid=303137a6-ce0b-4306-b88e-00f89ba0a582"},"vehicle_type_id":"4","last_reported":1723414084,"current_range_meters":0,"station_id":"","pricing_plan_id":"cebpf4jnsgd1na2vs0mg"},{"bike_id":"efa644fd-580e-4e00-af9a-6dbf22909b01","system_id":"levelo_inurba_marseille","lat":43.317075,"lon":5.377367,"is_reserved":false,"is_disabled":false,"rental_uris":{"android":"levelo://app?vid=efa644fd-580e-4e00-af9a-6dbf22909b01","ios":"levelo://app?vid=efa644fd-580e-4e00-af9a-6dbf22909b01"},"vehicle_type_id":"4","last_reported":1723414084,"current_range_meters":22800,"station_id":"ce4bgth2rcd13ifvqch0","pricing_plan_id":"cebpf4jnsgd1na2vs0mg"},{"bike_id":"65f30a9f-aed5-4292-96c4-409b90bbf13b","system_id":"levelo_inurba_marseille","lat":43.308012,"lon":5.381511,"is_reserved":false,"is_disabled":false,"rental_uris":{"android":"levelo://app?vid=65f30a9f-aed5-4292-96c4-409b90bbf13b","ios":"levelo://app?vid=65f30a9f-aed5-4292-96c4-409b90bbf13b"},"vehicle_type_id":"4","last_reported":1723414084,"current_range_meters":29200,"station_id":"ce4bgt12rcd13ifvqce0","pricing_plan_id":"cebpf4jnsgd1na2vs0mg"},{"bike_id":"d2bcc6e0-7fa9-403c-aa78-2965be42dc86","system_id":"levelo_inurba_marseille","lat":43.324771,"lon":5.36557,"is_reserved":false,"is_disabled":false,"rental_uris":{"android":"levelo://app?vid=d2bcc6e0-7fa9-403c-aa78-2965be42dc86","ios":"levelo://app?vid=d2bcc6e0-7fa9-403c-aa78-2965be42dc86"},"vehicle_type_id":"4","last_reported":1723414084,"current_range_meters":19600,"station_id":"ce4bhs12rcd13ifvqhvg","pricing_plan_id":"cebpf4jnsgd1na2vs0mg"},{"bike_id":"84dfeaee-f2aa-4ff6-a3ce-561e65c6ac0b","system_id":"levelo_inurba_marseille","lat":43.324771,"lon":5.36557,"is_reserved":false,"is_disabled":false,"rental_uris":{"android":"levelo://app?vid=84dfeaee-f2aa-4ff6-a3ce-561e65c6ac0b","ios":"levelo://app?vid=84dfeaee-f2aa-4ff6-a3ce-561e65c6ac0b"},"vehicle_type_id":"4","last_reported":1723414084,"current_range_meters":31200,"station_id":"ce4bhs12rcd13ifvqhvg","pricing_plan_id":"cebpf4jnsgd1na2vs0mg"},{"bike_id":"a7ae51a8-1c4d-47ad-baa5-683e7230417c","system_id":"levelo_inurba_marseille","lat":43.324771,"lon":5.36557,"is_reserved":false,"is_disabled":false,"rental_uris":{"android":"levelo://app?vid=a7ae51a8-1c4d-47ad-baa5-683e7230417c","ios":"levelo://app?vid=a7ae51a8-1c4d-47ad-baa5-683e7230417c"},"vehicle_type_id":"4","last_reported":1723414084,"current_range_meters":31200,"station_id":"ce4bhs12rcd13ifvqhvg","pricing_plan_id":"cebpf4jnsgd1na2vs0mg"},{"bike_id":"997c2af1-1f56-4727-a2a8-4a2483b3248c","system_id":"levelo_inurba_marseille","lat":43.324771,"lon":5.36557,"is_reserved":false,"is_disabled":false,"rental_uris":{"android":"levelo://app?vid=997c2af1-1f56-4727-a2a8-4a2483b3248c","ios":"levelo://app?vid=997c2af1-1f56-4727-a2a8-4a2483b3248c"},"vehicle_type_id":"4","last_reported":1723414084,"current_range_meters":20800,"station_id":"ce4bhs12rcd13ifvqhvg","pricing_plan_id":"cebpf4jnsgd1na2vs0mg"},{"bike_id":"410f9c20-9d4f-45b6-a78d-022a04d65468","system_id":"levelo_inurba_marseille","lat":43.324771,"lon":5.36557,"is_reserved":false,"is_disabled":false,"rental_uris":{"android":"levelo://app?vid=410f9c20-9d4f-45b6-a78d-022a04d65468","ios":"levelo://app?vid=410f9c20-9d4f-45b6-a78d-022a04d65468"},"vehicle_type_id":"4","last_reported":1723414084,"current_range_meters":3200,"station_id":"ce4bhs12rcd13ifvqhvg","pricing_plan_id":"cebpf4jnsgd1na2vs0mg"},{"bike_id":"232a80ca-1f3d-46b1-a735-15e53f83d24b","system_id":"levelo_inurba_marseille","lat":43.310804,"lon":5.38359,"is_reserved":false,"is_disabled":false,"rental_uris":{"android":"levelo://app?vid=232a80ca-1f3d-46b1-a735-15e53f83d24b","ios":"levelo://app?vid=232a80ca-1f3d-46b1-a735-15e53f83d24b"},"vehicle_type_id":"4","last_reported":1723414084,"current_range_meters":18000,"station_id":"ce4bgv92rcd13ifvqcr0","pricing_plan_id":"cebpf4jnsgd1na2vs0mg"},{"bike_id":"dd8f8df5-00d0-4db3-adad-ac5dee965ba0","system_id":"levelo_inurba_marseille","lat":43.304606,"lon":5.379026,"is_reserved":false,"is_disabled":false,"rental_uris":{"android":"levelo://app?vid=dd8f8df5-00d0-4db3-adad-ac5dee965ba0","ios":"levelo://app?vid=dd8f8df5-00d0-4db3-adad-ac5dee965ba0"},"vehicle_type_id":"4","last_reported":1723414084,"current_range_meters":24000,"station_id":"ce4bgup2rcd13ifvqcn0","pricing_plan_id":"cebpf4jnsgd1na2vs0mg"},{"bike_id":"a36a2fd7-9289-409c-9301-72dcd565168f","system_id":"levelo_inurba_marseille","lat":43.301429,"lon":5.37413,"is_reserved":false,"is_disabled":false,"rental_uris":{"android":"levelo://app?vid=a36a2fd7-9289-409c-9301-72dcd565168f","ios":"levelo://app?vid=a36a2fd7-9289-409c-9301-72dcd565168f"},"vehicle_type_id":"4","last_reported":1723414084,"current_range_meters":24000,"station_id":"ce4bgs92rcd13ifvqcc0","pricing_plan_id":"cebpf4jnsgd1na2vs0mg"},{"bike_id":"9dcc9751-5378-4a84-bd43-1b22eda1fcc8","system_id":"levelo_inurba_marseille","lat":43.302784,"lon":5.377158,"is_reserved":false,"is_disabled":false,"rental_uris":{"android":"levelo://app?vid=9dcc9751-5378-4a84-bd43-1b22eda1fcc8","ios":"levelo://app?vid=9dcc9751-5378-4a84-bd43-1b22eda1fcc8"},"vehicle_type_id":"4","last_reported":1723414084,"current_range_meters":11200,"station_id":"ce4bguh2rcd13ifvqcj0","pricing_plan_id":"cebpf4jnsgd1na2vs0mg"},{"bike_id":"057ccf9f-39fa-445b-aa8c-1553727eb8e1","system_id":"levelo_inurba_marseille","lat":43.319934,"lon":5.381484,"is_reserved":false,"is_disabled":false,"rental_uris":{"android":"levelo://app?vid=057ccf9f-39fa-445b-aa8c-1553727eb8e1","ios":"levelo://app?vid=057ccf9f-39fa-445b-aa8c-1553727eb8e1"},"vehicle_type_id":"4","last_reported":1723414084,"current_range_meters":29200,"station_id":"ce4bhr12rcd13ifvqhpg","pricing_plan_id":"cebpf4jnsgd1na2vs0mg"},{"bike_id":"db8f5f3d-1278-4ae2-aba9-3d81e832cc94","system_id":"levelo_inurba_marseille","lat":43.316117,"lon":5.383938,"is_reserved":false,"is_disabled":false,"rental_uris":{"android":"levelo://app?vid=db8f5f3d-1278-4ae2-aba9-3d81e832cc94","ios":"levelo://app?vid=db8f5f3d-1278-4ae2-aba9-3d81e832cc94"},"vehicle_type_id":"4","last_reported":1723414084,"current_range_meters":6400,"station_id":"","pricing_plan_id":"cebpf4jnsgd1na2vs0mg"},{"bike_id":"52eb169c-3428-4685-a12a-50b291fd0b04","system_id":"levelo_inurba_marseille","lat":43.319935,"lon":5.381699,"is_reserved":false,"is_disabled":false,"rental_uris":{"android":"levelo://app?vid=52eb169c-3428-4685-a12a-50b291fd0b04","ios":"levelo://app?vid=52eb169c-3428-4685-a12a-50b291fd0b04"},"vehicle_type_id":"4","last_reported":1723414084,"current_range_meters":28800,"station_id":"ce4bhr12rcd13ifvqhpg","pricing_plan_id":"cebpf4jnsgd1na2vs0mg"},{"bike_id":"beb52010-14f1-424b-a2bb-190e8ffb2b0c","system_id":"levelo_inurba_marseille","lat":43.319935,"lon":5.381699,"is_reserved":false,"is_disabled":false,"rental_uris":{"android":"levelo://app?vid=beb52010-14f1-424b-a2bb-190e8ffb2b0c","ios":"levelo://app?vid=beb52010-14f1-424b-a2bb-190e8ffb2b0c"},"vehicle_type_id":"4","last_reported":1723414084,"current_range_meters":10800,"station_id":"ce4bhr12rcd13ifvqhpg","pricing_plan_id":"cebpf4jnsgd1na2vs0mg"},{"bike_id":"d0c3e8f2-e0d6-42e7-94ec-3d680bd966f0","system_id":"levelo_inurba_marseille","lat":43.319935,"lon":5.381699,"is_reserved":false,"is_disabled":false,"rental_uris":{"android":"levelo://app?vid=d0c3e8f2-e0d6-42e7-94ec-3d680bd966f0","ios":"levelo://app?vid=d0c3e8f2-e0d6-42e7-94ec-3d680bd966f0"},"vehicle_type_id":"4","last_reported":1723414084,"current_range_meters":31200,"station_id":"ce4bhr12rcd13ifvqhpg","pricing_plan_id":"cebpf4jnsgd1na2vs0mg"},{"bike_id":"93251842-21e4-4970-8026-f9acb9b172c9","system_id":"levelo_inurba_marseille","lat":43.319935,"lon":5.381699,"is_reserved":false,"is_disabled":false,"rental_uris":{"android":"levelo://app?vid=93251842-21e4-4970-8026-f9acb9b172c9","ios":"levelo://app?vid=93251842-21e4-4970-8026-f9acb9b172c9"},"vehicle_type_id":"4","last_reported":1723414084,"current_range_meters":18800,"station_id":"ce4bhr12rcd13ifvqhpg","pricing_plan_id":"cebpf4jnsgd1na2vs0mg"},{"bike_id":"9b83f0d9-b101-44fc-b89a-7b22e4780209","system_id":"levelo_inurba_marseille","lat":43.313571,"lon":5.384829,"is_reserved":false,"is_disabled":false,"rental_uris":{"android":"levelo://app?vid=9b83f0d9-b101-44fc-b89a-7b22e4780209","ios":"levelo://app?vid=9b83f0d9-b101-44fc-b89a-7b22e4780209"},"vehicle_type_id":"4","last_reported":1723414084,"current_range_meters":14400,"station_id":"ce4bgt92rcd13ifvqcf0","pricing_plan_id":"cebpf4jnsgd1na2vs0mg"},{"bike_id":"00c77f2a-8735-412f-88b8-76f1f46b1321","system_id":"levelo_inurba_marseille","lat":43.313571,"lon":5.384829,"is_reserved":false,"is_disabled":false,"rental_uris":{"android":"levelo://app?vid=00c77f2a-8735-412f-88b8-76f1f46b1321","ios":"levelo://app?vid=00c77f2a-8735-412f-88b8-76f1f46b1321"},"vehicle_type_id":"4","last_reported":1723414084,"current_range_meters":22400,"station_id":"ce4bgt92rcd13ifvqcf0","pricing_plan_id":"cebpf4jnsgd1na2vs0mg"},{"bike_id":"5964830b-80c8-49d5-bd0a-315e6690c607","system_id":"levelo_inurba_marseille","lat":43.313571,"lon":5.384829,"is_reserved":false,"is_disabled":false,"rental_uris":{"android":"levelo://app?vid=5964830b-80c8-49d5-bd0a-315e6690c607","ios":"levelo://app?vid=5964830b-80c8-49d5-bd0a-315e6690c607"},"vehicle_type_id":"4","last_reported":1723414084,"current_range_meters":31200,"station_id":"ce4bgt92rcd13ifvqcf0","pricing_plan_id":"cebpf4jnsgd1na2vs0mg"},{"bike_id":"8e5bf58c-300a-4cd2-ae3d-d8eb91270ea4","system_id":"levelo_inurba_marseille","lat":43.313571,"lon":5.384829,"is_reserved":false,"is_disabled":false,"rental_uris":{"android":"levelo://app?vid=8e5bf58c-300a-4cd2-ae3d-d8eb91270ea4","ios":"levelo://app?vid=8e5bf58c-300a-4cd2-ae3d-d8eb91270ea4"},"vehicle_type_id":"4","last_reported":1723414084,"current_range_meters":27600,"station_id":"ce4bgt92rcd13ifvqcf0","pricing_plan_id":"cebpf4jnsgd1na2vs0mg"},{"bike_id":"ae76959b-58b8-436e-8b52-92e6149193c2","system_id":"levelo_inurba_marseille","lat":43.313571,"lon":5.384829,"is_reserved":false,"is_disabled":false,"rental_uris":{"android":"levelo://app?vid=ae76959b-58b8-436e-8b52-92e6149193c2","ios":"levelo://app?vid=ae76959b-58b8-436e-8b52-92e6149193c2"},"vehicle_type_id":"4","last_reported":1723414084,"current_range_meters":18000,"station_id":"ce4bgt92rcd13ifvqcf0","pricing_plan_id":"cebpf4jnsgd1na2vs0mg"},{"bike_id":"4dd214e8-c3b1-4b3a-ad89-95e0f15a3f73","system_id":"levelo_inurba_marseille","lat":43.315289,"lon":5.380349,"is_reserved":false,"is_disabled":false,"rental_uris":{"android":"levelo://app?vid=4dd214e8-c3b1-4b3a-ad89-95e0f15a3f73","ios":"levelo://app?vid=4dd214e8-c3b1-4b3a-ad89-95e0f15a3f73"},"vehicle_type_id":"4","last_reported":1723414084,"current_range_meters":30400,"station_id":"ce4bhsp2rcd13ifvqi50","pricing_plan_id":"cebpf4jnsgd1na2vs0mg"},{"bike_id":"314b32b7-9f41-40ba-a1c9-67825dfeea43","system_id":"levelo_inurba_marseille","lat":43.299222,"lon":5.365554,"is_reserved":false,"is_disabled":false,"rental_uris":{"android":"levelo://app?vid=314b32b7-9f41-40ba-a1c9-67825dfeea43","ios":"levelo://app?vid=314b32b7-9f41-40ba-a1c9-67825dfeea43"},"vehicle_type_id":"4","last_reported":1723414084,"current_range_meters":6800,"station_id":"ce4bgm92rcd13ifvqbr0","pricing_plan_id":"cebpf4jnsgd1na2vs0mg"},{"bike_id":"d8359872-e897-42dd-8736-dc0709fff818","system_id":"levelo_inurba_marseille","lat":43.299883,"lon":5.371873,"is_reserved":false,"is_disabled":false,"rental_uris":{"android":"levelo://app?vid=d8359872-e897-42dd-8736-dc0709fff818","ios":"levelo://app?vid=d8359872-e897-42dd-8736-dc0709fff818"},"vehicle_type_id":"4","last_reported":1723414084,"current_range_meters":4000,"station_id":"ce4bgr92rcd13ifvqc7g","pricing_plan_id":"cebpf4jnsgd1na2vs0mg"},{"bike_id":"ee1fc1a1-4a53-4696-b998-64ca30cae5e8","system_id":"levelo_inurba_marseille","lat":43.301939,"lon":5.366286,"is_reserved":false,"is_disabled":false,"rental_uris":{"android":"levelo://app?vid=ee1fc1a1-4a53-4696-b998-64ca30cae5e8","ios":"levelo://app?vid=ee1fc1a1-4a53-4696-b998-64ca30cae5e8"},"vehicle_type_id":"4","last_reported":1723414084,"current_range_meters":18800,"station_id":"ce4bgrh2rcd13ifvqc8g","pricing_plan_id":"cebpf4jnsgd1na2vs0mg"},{"bike_id":"18863316-8896-4d2d-b69b-1ab58477b8be","system_id":"levelo_inurba_marseille","lat":43.298433,"lon":5.362774,"is_reserved":false,"is_disabled":false,"rental_uris":{"android":"levelo://app?vid=18863316-8896-4d2d-b69b-1ab58477b8be","ios":"levelo://app?vid=18863316-8896-4d2d-b69b-1ab58477b8be"},"vehicle_type_id":"4","last_reported":1723414084,"current_range_meters":1600,"station_id":"ce4bgpp2rcd13ifvqc3g","pricing_plan_id":"cebpf4jnsgd1na2vs0mg"},{"bike_id":"14d08e7c-092e-4d57-9225-0f172bf1219a","system_id":"levelo_inurba_marseille","lat":43.298433,"lon":5.362774,"is_reserved":false,"is_disabled":false,"rental_uris":{"android":"levelo://app?vid=14d08e7c-092e-4d57-9225-0f172bf1219a","ios":"levelo://app?vid=14d08e7c-092e-4d57-9225-0f172bf1219a"},"vehicle_type_id":"4","last_reported":1723414084,"current_range_meters":30000,"station_id":"ce4bgpp2rcd13ifvqc3g","pricing_plan_id":"cebpf4jnsgd1na2vs0mg"},{"bike_id":"5a297f80-78a1-4609-99a4-4c1fd06d82b2","system_id":"levelo_inurba_marseille","lat":43.311722,"lon":5.387247,"is_reserved":false,"is_disabled":false,"rental_uris":{"android":"levelo://app?vid=5a297f80-78a1-4609-99a4-4c1fd06d82b2","ios":"levelo://app?vid=5a297f80-78a1-4609-99a4-4c1fd06d82b2"},"vehicle_type_id":"4","last_reported":1723414084,"current_range_meters":4800,"station_id":"ce4bgv12rcd13ifvqcp0","pricing_plan_id":"cebpf4jnsgd1na2vs0mg"},{"bike_id":"6d2cf690-b672-47c2-a73c-f74efa7f9f17","system_id":"levelo_inurba_marseille","lat":43.311722,"lon":5.387247,"is_reserved":false,"is_disabled":false,"rental_uris":{"android":"levelo://app?vid=6d2cf690-b672-47c2-a73c-f74efa7f9f17","ios":"levelo://app?vid=6d2cf690-b672-47c2-a73c-f74efa7f9f17"},"vehicle_type_id":"4","last_reported":1723414084,"current_range_meters":31200,"station_id":"ce4bgv12rcd13ifvqcp0","pricing_plan_id":"cebpf4jnsgd1na2vs0mg"},{"bike_id":"9b3dd325-1bec-49a9-97a4-2aed7e788597","system_id":"levelo_inurba_marseille","lat":43.311722,"lon":5.387247,"is_reserved":false,"is_disabled":false,"rental_uris":{"android":"levelo://app?vid=9b3dd325-1bec-49a9-97a4-2aed7e788597","ios":"levelo://app?vid=9b3dd325-1bec-49a9-97a4-2aed7e788597"},"vehicle_type_id":"4","last_reported":1723414084,"current_range_meters":29600,"station_id":"ce4bgv12rcd13ifvqcp0","pricing_plan_id":"cebpf4jnsgd1na2vs0mg"},{"bike_id":"a330e7a8-1e5c-47a1-86ff-fa00d05c8403","system_id":"levelo_inurba_marseille","lat":43.311722,"lon":5.387247,"is_reserved":false,"is_disabled":false,"rental_uris":{"android":"levelo://app?vid=a330e7a8-1e5c-47a1-86ff-fa00d05c8403","ios":"levelo://app?vid=a330e7a8-1e5c-47a1-86ff-fa00d05c8403"},"vehicle_type_id":"4","last_reported":1723414084,"current_range_meters":8400,"station_id":"ce4bgv12rcd13ifvqcp0","pricing_plan_id":"cebpf4jnsgd1na2vs0mg"},{"bike_id":"4e659591-1cbc-4b2e-8f50-dafa44a98a7f","system_id":"levelo_inurba_marseille","lat":43.311722,"lon":5.387247,"is_reserved":false,"is_disabled":false,"rental_uris":{"android":"levelo://app?vid=4e659591-1cbc-4b2e-8f50-dafa44a98a7f","ios":"levelo://app?vid=4e659591-1cbc-4b2e-8f50-dafa44a98a7f"},"vehicle_type_id":"4","last_reported":1723414084,"current_range_meters":32000,"station_id":"ce4bgv12rcd13ifvqcp0","pricing_plan_id":"cebpf4jnsgd1na2vs0mg"},{"bike_id":"301ad31f-589c-48bc-8411-878c6bd8e9e1","system_id":"levelo_inurba_marseille","lat":43.311722,"lon":5.387247,"is_reserved":false,"is_disabled":false,"rental_uris":{"android":"levelo://app?vid=301ad31f-589c-48bc-8411-878c6bd8e9e1","ios":"levelo://app?vid=301ad31f-589c-48bc-8411-878c6bd8e9e1"},"vehicle_type_id":"4","last_reported":1723414084,"current_range_meters":16400,"station_id":"ce4bgv12rcd13ifvqcp0","pricing_plan_id":"cebpf4jnsgd1na2vs0mg"},{"bike_id":"8f633494-f8ae-4628-8d54-2328de51f23f","system_id":"levelo_inurba_marseille","lat":43.311722,"lon":5.387247,"is_reserved":false,"is_disabled":false,"rental_uris":{"android":"levelo://app?vid=8f633494-f8ae-4628-8d54-2328de51f23f","ios":"levelo://app?vid=8f633494-f8ae-4628-8d54-2328de51f23f"},"vehicle_type_id":"4","last_reported":1723414084,"current_range_meters":31200,"station_id":"ce4bgv12rcd13ifvqcp0","pricing_plan_id":"cebpf4jnsgd1na2vs0mg"},{"bike_id":"1f7b93ea-120d-4e07-9dda-b5fdac1fd64f","system_id":"levelo_inurba_marseille","lat":43.32264,"lon":5.38287,"is_reserved":false,"is_disabled":false,"rental_uris":{"android":"levelo://app?vid=1f7b93ea-120d-4e07-9dda-b5fdac1fd64f","ios":"levelo://app?vid=1f7b93ea-120d-4e07-9dda-b5fdac1fd64f"},"vehicle_type_id":"4","last_reported":1723414084,"current_range_meters":17200,"station_id":"ce4bhr12rcd13ifvqhqg","pricing_plan_id":"cebpf4jnsgd1na2vs0mg"},{"bike_id":"12d96f0d-0fce-44c3-a3a6-0c0dd58d0129","system_id":"levelo_inurba_marseille","lat":43.297794,"lon":5.370888,"is_reserved":false,"is_disabled":false,"rental_uris":{"android":"levelo://app?vid=12d96f0d-0fce-44c3-a3a6-0c0dd58d0129","ios":"levelo://app?vid=12d96f0d-0fce-44c3-a3a6-0c0dd58d0129"},"vehicle_type_id":"4","last_reported":1723414084,"current_range_meters":0,"station_id":"ce4bgop2rcd13ifvqc1g","pricing_plan_id":"cebpf4jnsgd1na2vs0mg"},{"bike_id":"b6cedac2-de5e-40f8-bd16-ab726a60f418","system_id":"levelo_inurba_marseille","lat":43.30951,"lon":5.3904,"is_reserved":false,"is_disabled":false,"rental_uris":{"android":"levelo://app?vid=b6cedac2-de5e-40f8-bd16-ab726a60f418","ios":"levelo://app?vid=b6cedac2-de5e-40f8-bd16-ab726a60f418"},"vehicle_type_id":"4","last_reported":1723414084,"current_range_meters":31600,"station_id":"ce4bgup2rcd13ifvqco0","pricing_plan_id":"cebpf4jnsgd1na2vs0mg"},{"bike_id":"569a8b4d-ecdf-478a-81ae-658b0dad4a8e","system_id":"levelo_inurba_marseille","lat":43.317557,"lon":5.390173,"is_reserved":false,"is_disabled":false,"rental_uris":{"android":"levelo://app?vid=569a8b4d-ecdf-478a-81ae-658b0dad4a8e","ios":"levelo://app?vid=569a8b4d-ecdf-478a-81ae-658b0dad4a8e"},"vehicle_type_id":"4","last_reported":1723414084,"current_range_meters":6000,"station_id":"ce4bhqp2rcd13ifvqhng","pricing_plan_id":"cebpf4jnsgd1na2vs0mg"},{"bike_id":"e607c7f8-3bd9-4d66-8809-7ca3902a3a3f","system_id":"levelo_inurba_marseille","lat":43.31757,"lon":5.3902,"is_reserved":false,"is_disabled":false,"rental_uris":{"android":"levelo://app?vid=e607c7f8-3bd9-4d66-8809-7ca3902a3a3f","ios":"levelo://app?vid=e607c7f8-3bd9-4d66-8809-7ca3902a3a3f"},"vehicle_type_id":"4","last_reported":1723414084,"current_range_meters":19200,"station_id":"ce4bhqp2rcd13ifvqhng","pricing_plan_id":"cebpf4jnsgd1na2vs0mg"},{"bike_id":"16018b97-37b1-47d0-b962-8458388b5517","system_id":"levelo_inurba_marseille","lat":43.304274,"lon":5.388873,"is_reserved":false,"is_disabled":false,"rental_uris":{"android":"levelo://app?vid=16018b97-37b1-47d0-b962-8458388b5517","ios":"levelo://app?vid=16018b97-37b1-47d0-b962-8458388b5517"},"vehicle_type_id":"4","last_reported":1723414084,"current_range_meters":400,"station_id":"ce4bgk12rcd13ifvqbi0","pricing_plan_id":"cebpf4jnsgd1na2vs0mg"},{"bike_id":"549dffba-2d00-4aff-99e5-b243767ab7de","system_id":"levelo_inurba_marseille","lat":43.304433,"lon":5.388407,"is_reserved":false,"is_disabled":false,"rental_uris":{"android":"levelo://app?vid=549dffba-2d00-4aff-99e5-b243767ab7de","ios":"levelo://app?vid=549dffba-2d00-4aff-99e5-b243767ab7de"},"vehicle_type_id":"4","last_reported":1723414084,"current_range_meters":12800,"station_id":"ce4bgk12rcd13ifvqbi0","pricing_plan_id":"cebpf4jnsgd1na2vs0mg"},{"bike_id":"c40b8c96-a2cb-4aad-bc43-0a500551864d","system_id":"levelo_inurba_marseille","lat":43.29579,"lon":5.37507,"is_reserved":false,"is_disabled":false,"rental_uris":{"android":"levelo://app?vid=c40b8c96-a2cb-4aad-bc43-0a500551864d","ios":"levelo://app?vid=c40b8c96-a2cb-4aad-bc43-0a500551864d"},"vehicle_type_id":"4","last_reported":1723414084,"current_range_meters":20800,"station_id":"ce4bgh92rcd13ifvqb50","pricing_plan_id":"cebpf4jnsgd1na2vs0mg"},{"bike_id":"682c62c8-5b2b-4438-ac33-12c5f6edb4fb","system_id":"levelo_inurba_marseille","lat":43.287184,"lon":5.37937,"is_reserved":false,"is_disabled":false,"rental_uris":{"android":"levelo://app?vid=682c62c8-5b2b-4438-ac33-12c5f6edb4fb","ios":"levelo://app?vid=682c62c8-5b2b-4438-ac33-12c5f6edb4fb"},"vehicle_type_id":"4","last_reported":1723414084,"current_range_meters":12000,"station_id":"ce4bh9p2rcd13ifvqec0","pricing_plan_id":"cebpf4jnsgd1na2vs0mg"},{"bike_id":"77fa85f0-d993-4301-b7ed-38b06370819a","system_id":"levelo_inurba_marseille","lat":43.32177,"lon":5.38834,"is_reserved":false,"is_disabled":false,"rental_uris":{"android":"levelo://app?vid=77fa85f0-d993-4301-b7ed-38b06370819a","ios":"levelo://app?vid=77fa85f0-d993-4301-b7ed-38b06370819a"},"vehicle_type_id":"4","last_reported":1723414084,"current_range_meters":4400,"station_id":"","pricing_plan_id":"cebpf4jnsgd1na2vs0mg"},{"bike_id":"00827fc3-9918-40db-bf9e-a74ec685cc6f","system_id":"levelo_inurba_marseille","lat":43.295748,"lon":5.37522,"is_reserved":false,"is_disabled":false,"rental_uris":{"android":"levelo://app?vid=00827fc3-9918-40db-bf9e-a74ec685cc6f","ios":"levelo://app?vid=00827fc3-9918-40db-bf9e-a74ec685cc6f"},"vehicle_type_id":"4","last_reported":1723414084,"current_range_meters":1600,"station_id":"ce4bgh92rcd13ifvqb50","pricing_plan_id":"cebpf4jnsgd1na2vs0mg"},{"bike_id":"81af565a-2801-4a85-aa2c-c9804cd5ad2b","system_id":"levelo_inurba_marseille","lat":43.304274,"lon":5.388873,"is_reserved":false,"is_disabled":false,"rental_uris":{"android":"levelo://app?vid=81af565a-2801-4a85-aa2c-c9804cd5ad2b","ios":"levelo://app?vid=81af565a-2801-4a85-aa2c-c9804cd5ad2b"},"vehicle_type_id":"4","last_reported":1723414084,"current_range_meters":5600,"station_id":"ce4bgk12rcd13ifvqbi0","pricing_plan_id":"cebpf4jnsgd1na2vs0mg"},{"bike_id":"cf010010-f51f-431e-8a46-ba3d23729c40","system_id":"levelo_inurba_marseille","lat":43.29569,"lon":5.37503,"is_reserved":false,"is_disabled":false,"rental_uris":{"android":"levelo://app?vid=cf010010-f51f-431e-8a46-ba3d23729c40","ios":"levelo://app?vid=cf010010-f51f-431e-8a46-ba3d23729c40"},"vehicle_type_id":"4","last_reported":1723414084,"current_range_meters":29600,"station_id":"ce4bgh92rcd13ifvqb50","pricing_plan_id":"cebpf4jnsgd1na2vs0mg"},{"bike_id":"a4f94341-61e8-428c-bcd6-8d8ea4300663","system_id":"levelo_inurba_marseille","lat":43.304274,"lon":5.388873,"is_reserved":false,"is_disabled":false,"rental_uris":{"android":"levelo://app?vid=a4f94341-61e8-428c-bcd6-8d8ea4300663","ios":"levelo://app?vid=a4f94341-61e8-428c-bcd6-8d8ea4300663"},"vehicle_type_id":"4","last_reported":1723414084,"current_range_meters":10000,"station_id":"ce4bgk12rcd13ifvqbi0","pricing_plan_id":"cebpf4jnsgd1na2vs0mg"},{"bike_id":"ebd1fd0a-1016-47c3-a696-27b7428dc430","system_id":"levelo_inurba_marseille","lat":43.299707,"lon":5.384859,"is_reserved":false,"is_disabled":false,"rental_uris":{"android":"levelo://app?vid=ebd1fd0a-1016-47c3-a696-27b7428dc430","ios":"levelo://app?vid=ebd1fd0a-1016-47c3-a696-27b7428dc430"},"vehicle_type_id":"4","last_reported":1723414084,"current_range_meters":26400,"station_id":"ce4bgj92rcd13ifvqbd0","pricing_plan_id":"cebpf4jnsgd1na2vs0mg"},{"bike_id":"1c0b8bea-6c11-46eb-a908-ce1fc0d1042c","system_id":"levelo_inurba_marseille","lat":43.2954,"lon":5.37554,"is_reserved":false,"is_disabled":false,"rental_uris":{"android":"levelo://app?vid=1c0b8bea-6c11-46eb-a908-ce1fc0d1042c","ios":"levelo://app?vid=1c0b8bea-6c11-46eb-a908-ce1fc0d1042c"},"vehicle_type_id":"4","last_reported":1723414084,"current_range_meters":17600,"station_id":"ce4bgkp2rcd13ifvqbmg","pricing_plan_id":"cebpf4jnsgd1na2vs0mg"},{"bike_id":"7911194c-a044-46b6-b657-2bdb36a26cae","system_id":"levelo_inurba_marseille","lat":43.299724,"lon":5.384895,"is_reserved":false,"is_disabled":false,"rental_uris":{"android":"levelo://app?vid=7911194c-a044-46b6-b657-2bdb36a26cae","ios":"levelo://app?vid=7911194c-a044-46b6-b657-2bdb36a26cae"},"vehicle_type_id":"4","last_reported":1723414084,"current_range_meters":20400,"station_id":"ce4bgj92rcd13ifvqbd0","pricing_plan_id":"cebpf4jnsgd1na2vs0mg"},{"bike_id":"cdb09101-41d6-4083-8c6b-e52877c3e426","system_id":"levelo_inurba_marseille","lat":43.299724,"lon":5.384848,"is_reserved":false,"is_disabled":false,"rental_uris":{"android":"levelo://app?vid=cdb09101-41d6-4083-8c6b-e52877c3e426","ios":"levelo://app?vid=cdb09101-41d6-4083-8c6b-e52877c3e426"},"vehicle_type_id":"4","last_reported":1723414084,"current_range_meters":0,"station_id":"ce4bgj92rcd13ifvqbd0","pricing_plan_id":"cebpf4jnsgd1na2vs0mg"},{"bike_id":"4789c3d9-1d41-4e4b-8b7b-11e38025845d","system_id":"levelo_inurba_marseille","lat":43.299724,"lon":5.384848,"is_reserved":false,"is_disabled":false,"rental_uris":{"android":"levelo://app?vid=4789c3d9-1d41-4e4b-8b7b-11e38025845d","ios":"levelo://app?vid=4789c3d9-1d41-4e4b-8b7b-11e38025845d"},"vehicle_type_id":"4","last_reported":1723414084,"current_range_meters":5600,"station_id":"ce4bgj92rcd13ifvqbd0","pricing_plan_id":"cebpf4jnsgd1na2vs0mg"},{"bike_id":"0d168d84-3331-4963-99e2-547f0ffd3c67","system_id":"levelo_inurba_marseille","lat":43.304606,"lon":5.379026,"is_reserved":false,"is_disabled":false,"rental_uris":{"android":"levelo://app?vid=0d168d84-3331-4963-99e2-547f0ffd3c67","ios":"levelo://app?vid=0d168d84-3331-4963-99e2-547f0ffd3c67"},"vehicle_type_id":"4","last_reported":1723414084,"current_range_meters":26000,"station_id":"ce4bgup2rcd13ifvqcn0","pricing_plan_id":"cebpf4jnsgd1na2vs0mg"},{"bike_id":"52b6173f-34d0-4c20-a48f-9abaa4764adb","system_id":"levelo_inurba_marseille","lat":43.29916,"lon":5.38548,"is_reserved":false,"is_disabled":false,"rental_uris":{"android":"levelo://app?vid=52b6173f-34d0-4c20-a48f-9abaa4764adb","ios":"levelo://app?vid=52b6173f-34d0-4c20-a48f-9abaa4764adb"},"vehicle_type_id":"4","last_reported":1723414084,"current_range_meters":0,"station_id":"","pricing_plan_id":"cebpf4jnsgd1na2vs0mg"},{"bike_id":"824fe5c0-064e-400a-afad-c5ac6cda6d71","system_id":"levelo_inurba_marseille","lat":43.32367,"lon":5.388836,"is_reserved":false,"is_disabled":false,"rental_uris":{"android":"levelo://app?vid=824fe5c0-064e-400a-afad-c5ac6cda6d71","ios":"levelo://app?vid=824fe5c0-064e-400a-afad-c5ac6cda6d71"},"vehicle_type_id":"4","last_reported":1723414084,"current_range_meters":22400,"station_id":"ce4bhqp2rcd13ifvqhog","pricing_plan_id":"cebpf4jnsgd1na2vs0mg"},{"bike_id":"09a40cb8-9031-4d11-8336-1854b7e492c8","system_id":"levelo_inurba_marseille","lat":43.32367,"lon":5.388836,"is_reserved":false,"is_disabled":false,"rental_uris":{"android":"levelo://app?vid=09a40cb8-9031-4d11-8336-1854b7e492c8","ios":"levelo://app?vid=09a40cb8-9031-4d11-8336-1854b7e492c8"},"vehicle_type_id":"4","last_reported":1723414084,"current_range_meters":13200,"station_id":"ce4bhqp2rcd13ifvqhog","pricing_plan_id":"cebpf4jnsgd1na2vs0mg"},{"bike_id":"52c87a14-40fd-41dc-a107-8ae0776ada12","system_id":"levelo_inurba_marseille","lat":43.32367,"lon":5.38891,"is_reserved":false,"is_disabled":false,"rental_uris":{"android":"levelo://app?vid=52c87a14-40fd-41dc-a107-8ae0776ada12","ios":"levelo://app?vid=52c87a14-40fd-41dc-a107-8ae0776ada12"},"vehicle_type_id":"4","last_reported":1723414084,"current_range_meters":25200,"station_id":"ce4bhqp2rcd13ifvqhog","pricing_plan_id":"cebpf4jnsgd1na2vs0mg"},{"bike_id":"c77dc8cd-b50b-4a34-a424-1dbe723b266a","system_id":"levelo_inurba_marseille","lat":43.29599,"lon":5.381043,"is_reserved":false,"is_disabled":false,"rental_uris":{"android":"levelo://app?vid=c77dc8cd-b50b-4a34-a424-1dbe723b266a","ios":"levelo://app?vid=c77dc8cd-b50b-4a34-a424-1dbe723b266a"},"vehicle_type_id":"4","last_reported":1723414084,"current_range_meters":25600,"station_id":"ce4bgl12rcd13ifvqbo0","pricing_plan_id":"cebpf4jnsgd1na2vs0mg"},{"bike_id":"6ce0af22-5de9-4b30-adab-a46c75695aed","system_id":"levelo_inurba_marseille","lat":43.292803,"lon":5.36839,"is_reserved":false,"is_disabled":false,"rental_uris":{"android":"levelo://app?vid=6ce0af22-5de9-4b30-adab-a46c75695aed","ios":"levelo://app?vid=6ce0af22-5de9-4b30-adab-a46c75695aed"},"vehicle_type_id":"4","last_reported":1723414084,"current_range_meters":28000,"station_id":"ce4bhbp2rcd13ifvqesg","pricing_plan_id":"cebpf4jnsgd1na2vs0mg"},{"bike_id":"41624bf2-6dc9-4324-9a9b-584d163e9bf3","system_id":"levelo_inurba_marseille","lat":43.29278,"lon":5.3684,"is_reserved":false,"is_disabled":false,"rental_uris":{"android":"levelo://app?vid=41624bf2-6dc9-4324-9a9b-584d163e9bf3","ios":"levelo://app?vid=41624bf2-6dc9-4324-9a9b-584d163e9bf3"},"vehicle_type_id":"4","last_reported":1723414084,"current_range_meters":31600,"station_id":"ce4bhbp2rcd13ifvqesg","pricing_plan_id":"cebpf4jnsgd1na2vs0mg"},{"bike_id":"834da4a7-2421-40d9-9e29-45c17cfd4e01","system_id":"levelo_inurba_marseille","lat":43.29277,"lon":5.36841,"is_reserved":false,"is_disabled":false,"rental_uris":{"android":"levelo://app?vid=834da4a7-2421-40d9-9e29-45c17cfd4e01","ios":"levelo://app?vid=834da4a7-2421-40d9-9e29-45c17cfd4e01"},"vehicle_type_id":"4","last_reported":1723414084,"current_range_meters":0,"station_id":"ce4bhbp2rcd13ifvqesg","pricing_plan_id":"cebpf4jnsgd1na2vs0mg"},{"bike_id":"d2db5c68-ee87-4da8-96a6-e0b45baf69da","system_id":"levelo_inurba_marseille","lat":43.29277,"lon":5.36842,"is_reserved":false,"is_disabled":false,"rental_uris":{"android":"levelo://app?vid=d2db5c68-ee87-4da8-96a6-e0b45baf69da","ios":"levelo://app?vid=d2db5c68-ee87-4da8-96a6-e0b45baf69da"},"vehicle_type_id":"4","last_reported":1723414084,"current_range_meters":27600,"station_id":"","pricing_plan_id":"cebpf4jnsgd1na2vs0mg"},{"bike_id":"39102816-61d0-4c1a-8a13-422b8541f640","system_id":"levelo_inurba_marseille","lat":43.29276,"lon":5.36845,"is_reserved":false,"is_disabled":false,"rental_uris":{"android":"levelo://app?vid=39102816-61d0-4c1a-8a13-422b8541f640","ios":"levelo://app?vid=39102816-61d0-4c1a-8a13-422b8541f640"},"vehicle_type_id":"4","last_reported":1723414084,"current_range_meters":4000,"station_id":"ce4bhbp2rcd13ifvqesg","pricing_plan_id":"cebpf4jnsgd1na2vs0mg"},{"bike_id":"0a456c6e-69a6-4df6-88ba-7e003e45863e","system_id":"levelo_inurba_marseille","lat":43.29273,"lon":5.36852,"is_reserved":false,"is_disabled":false,"rental_uris":{"android":"levelo://app?vid=0a456c6e-69a6-4df6-88ba-7e003e45863e","ios":"levelo://app?vid=0a456c6e-69a6-4df6-88ba-7e003e45863e"},"vehicle_type_id":"4","last_reported":1723414084,"current_range_meters":31200,"station_id":"ce4bhbp2rcd13ifvqesg","pricing_plan_id":"cebpf4jnsgd1na2vs0mg"},{"bike_id":"5855ee00-b91c-4985-b6b1-c312ecd80f66","system_id":"levelo_inurba_marseille","lat":43.29272,"lon":5.36855,"is_reserved":false,"is_disabled":false,"rental_uris":{"android":"levelo://app?vid=5855ee00-b91c-4985-b6b1-c312ecd80f66","ios":"levelo://app?vid=5855ee00-b91c-4985-b6b1-c312ecd80f66"},"vehicle_type_id":"4","last_reported":1723414084,"current_range_meters":31200,"station_id":"ce4bhbp2rcd13ifvqesg","pricing_plan_id":"cebpf4jnsgd1na2vs0mg"},{"bike_id":"50b25640-6b49-4b53-be7d-17bd669f9508","system_id":"levelo_inurba_marseille","lat":43.29269,"lon":5.36837,"is_reserved":false,"is_disabled":false,"rental_uris":{"android":"levelo://app?vid=50b25640-6b49-4b53-be7d-17bd669f9508","ios":"levelo://app?vid=50b25640-6b49-4b53-be7d-17bd669f9508"},"vehicle_type_id":"4","last_reported":1723414084,"current_range_meters":23200,"station_id":"ce4bhbp2rcd13ifvqesg","pricing_plan_id":"cebpf4jnsgd1na2vs0mg"},{"bike_id":"b3ef7f5e-f202-4cca-afc1-697612e04945","system_id":"levelo_inurba_marseille","lat":43.292749,"lon":5.368402,"is_reserved":false,"is_disabled":false,"rental_uris":{"android":"levelo://app?vid=b3ef7f5e-f202-4cca-afc1-697612e04945","ios":"levelo://app?vid=b3ef7f5e-f202-4cca-afc1-697612e04945"},"vehicle_type_id":"4","last_reported":1723414084,"current_range_meters":31200,"station_id":"ce4bhbp2rcd13ifvqesg","pricing_plan_id":"cebpf4jnsgd1na2vs0mg"},{"bike_id":"02b9740b-37b1-48f7-b203-195fed64d048","system_id":"levelo_inurba_marseille","lat":43.29268,"lon":5.36848,"is_reserved":false,"is_disabled":false,"rental_uris":{"android":"levelo://app?vid=02b9740b-37b1-48f7-b203-195fed64d048","ios":"levelo://app?vid=02b9740b-37b1-48f7-b203-195fed64d048"},"vehicle_type_id":"4","last_reported":1723414084,"current_range_meters":28000,"station_id":"ce4bhbp2rcd13ifvqesg","pricing_plan_id":"cebpf4jnsgd1na2vs0mg"},{"bike_id":"b3f73f4d-6a24-410b-ba22-34b9c69922f4","system_id":"levelo_inurba_marseille","lat":43.298524,"lon":5.386514,"is_reserved":false,"is_disabled":false,"rental_uris":{"android":"levelo://app?vid=b3f73f4d-6a24-410b-ba22-34b9c69922f4","ios":"levelo://app?vid=b3f73f4d-6a24-410b-ba22-34b9c69922f4"},"vehicle_type_id":"4","last_reported":1723414084,"current_range_meters":30000,"station_id":"","pricing_plan_id":"cebpf4jnsgd1na2vs0mg"},{"bike_id":"aa0c4975-31c5-44df-9e0a-c0bd221bb7d7","system_id":"levelo_inurba_marseille","lat":43.305994,"lon":5.393687,"is_reserved":false,"is_disabled":false,"rental_uris":{"android":"levelo://app?vid=aa0c4975-31c5-44df-9e0a-c0bd221bb7d7","ios":"levelo://app?vid=aa0c4975-31c5-44df-9e0a-c0bd221bb7d7"},"vehicle_type_id":"4","last_reported":1723414084,"current_range_meters":29200,"station_id":"ce4bh0p2rcd13ifvqd80","pricing_plan_id":"cebpf4jnsgd1na2vs0mg"},{"bike_id":"3d8a7506-055a-445d-b918-3a2d4589df79","system_id":"levelo_inurba_marseille","lat":43.305994,"lon":5.393687,"is_reserved":false,"is_disabled":false,"rental_uris":{"android":"levelo://app?vid=3d8a7506-055a-445d-b918-3a2d4589df79","ios":"levelo://app?vid=3d8a7506-055a-445d-b918-3a2d4589df79"},"vehicle_type_id":"4","last_reported":1723414084,"current_range_meters":25200,"station_id":"ce4bh0p2rcd13ifvqd80","pricing_plan_id":"cebpf4jnsgd1na2vs0mg"},{"bike_id":"ac5bf6f3-ca5f-452d-b699-729b77522383","system_id":"levelo_inurba_marseille","lat":43.305994,"lon":5.393687,"is_reserved":false,"is_disabled":false,"rental_uris":{"android":"levelo://app?vid=ac5bf6f3-ca5f-452d-b699-729b77522383","ios":"levelo://app?vid=ac5bf6f3-ca5f-452d-b699-729b77522383"},"vehicle_type_id":"4","last_reported":1723414084,"current_range_meters":12000,"station_id":"ce4bh0p2rcd13ifvqd80","pricing_plan_id":"cebpf4jnsgd1na2vs0mg"},{"bike_id":"f6023fd0-cc2c-4db6-a4e2-a04e714d023a","system_id":"levelo_inurba_marseille","lat":43.305994,"lon":5.393687,"is_reserved":false,"is_disabled":false,"rental_uris":{"android":"levelo://app?vid=f6023fd0-cc2c-4db6-a4e2-a04e714d023a","ios":"levelo://app?vid=f6023fd0-cc2c-4db6-a4e2-a04e714d023a"},"vehicle_type_id":"4","last_reported":1723414084,"current_range_meters":1200,"station_id":"ce4bh0p2rcd13ifvqd80","pricing_plan_id":"cebpf4jnsgd1na2vs0mg"},{"bike_id":"8d37495d-9961-45f8-ba67-ee81725ae3ae","system_id":"levelo_inurba_marseille","lat":43.29228,"lon":5.36363,"is_reserved":false,"is_disabled":false,"rental_uris":{"android":"levelo://app?vid=8d37495d-9961-45f8-ba67-ee81725ae3ae","ios":"levelo://app?vid=8d37495d-9961-45f8-ba67-ee81725ae3ae"},"vehicle_type_id":"4","last_reported":1723414084,"current_range_meters":3600,"station_id":"","pricing_plan_id":"cebpf4jnsgd1na2vs0mg"},{"bike_id":"1b3d00ff-2a5e-4a41-97c4-c836077542be","system_id":"levelo_inurba_marseille","lat":43.29232,"lon":5.36219,"is_reserved":false,"is_disabled":false,"rental_uris":{"android":"levelo://app?vid=1b3d00ff-2a5e-4a41-97c4-c836077542be","ios":"levelo://app?vid=1b3d00ff-2a5e-4a41-97c4-c836077542be"},"vehicle_type_id":"4","last_reported":1723414084,"current_range_meters":0,"station_id":"","pricing_plan_id":"cebpf4jnsgd1na2vs0mg"},{"bike_id":"930adae6-e1ed-4b16-b0c6-28a0c95aeff9","system_id":"levelo_inurba_marseille","lat":43.292311,"lon":5.360731,"is_reserved":false,"is_disabled":false,"rental_uris":{"android":"levelo://app?vid=930adae6-e1ed-4b16-b0c6-28a0c95aeff9","ios":"levelo://app?vid=930adae6-e1ed-4b16-b0c6-28a0c95aeff9"},"vehicle_type_id":"4","last_reported":1723414084,"current_range_meters":17600,"station_id":"ce4bhbh2rcd13ifvqeqg","pricing_plan_id":"cebpf4jnsgd1na2vs0mg"},{"bike_id":"9099b508-9b10-4c4f-af36-8e959adcd297","system_id":"levelo_inurba_marseille","lat":43.292311,"lon":5.360731,"is_reserved":false,"is_disabled":false,"rental_uris":{"android":"levelo://app?vid=9099b508-9b10-4c4f-af36-8e959adcd297","ios":"levelo://app?vid=9099b508-9b10-4c4f-af36-8e959adcd297"},"vehicle_type_id":"4","last_reported":1723414084,"current_range_meters":0,"station_id":"ce4bhbh2rcd13ifvqeqg","pricing_plan_id":"cebpf4jnsgd1na2vs0mg"},{"bike_id":"b87ac339-90e4-4b4e-afee-1f3ac5bfe1ff","system_id":"levelo_inurba_marseille","lat":43.32731,"lon":5.3883,"is_reserved":false,"is_disabled":false,"rental_uris":{"android":"levelo://app?vid=b87ac339-90e4-4b4e-afee-1f3ac5bfe1ff","ios":"levelo://app?vid=b87ac339-90e4-4b4e-afee-1f3ac5bfe1ff"},"vehicle_type_id":"4","last_reported":1723414084,"current_range_meters":22800,"station_id":"","pricing_plan_id":"cebpf4jnsgd1na2vs0mg"},{"bike_id":"a46f4a81-d30f-4a54-9800-52412f4be1ef","system_id":"levelo_inurba_marseille","lat":43.309038,"lon":5.396546,"is_reserved":false,"is_disabled":false,"rental_uris":{"android":"levelo://app?vid=a46f4a81-d30f-4a54-9800-52412f4be1ef","ios":"levelo://app?vid=a46f4a81-d30f-4a54-9800-52412f4be1ef"},"vehicle_type_id":"4","last_reported":1723414084,"current_range_meters":28800,"station_id":"ce4bh012rcd13ifvqcv0","pricing_plan_id":"cebpf4jnsgd1na2vs0mg"},{"bike_id":"b491885b-c043-4460-bc6a-bb35f427580a","system_id":"levelo_inurba_marseille","lat":43.313291,"lon":5.396838,"is_reserved":false,"is_disabled":false,"rental_uris":{"android":"levelo://app?vid=b491885b-c043-4460-bc6a-bb35f427580a","ios":"levelo://app?vid=b491885b-c043-4460-bc6a-bb35f427580a"},"vehicle_type_id":"4","last_reported":1723414084,"current_range_meters":13600,"station_id":"ce4bgvp2rcd13ifvqcu0","pricing_plan_id":"cebpf4jnsgd1na2vs0mg"},{"bike_id":"9d4b68a5-c93f-4844-a235-5ff4a055b660","system_id":"levelo_inurba_marseille","lat":43.292385,"lon":5.37767,"is_reserved":false,"is_disabled":false,"rental_uris":{"android":"levelo://app?vid=9d4b68a5-c93f-4844-a235-5ff4a055b660","ios":"levelo://app?vid=9d4b68a5-c93f-4844-a235-5ff4a055b660"},"vehicle_type_id":"4","last_reported":1723414084,"current_range_meters":6400,"station_id":"","pricing_plan_id":"cebpf4jnsgd1na2vs0mg"},{"bike_id":"bd8aa323-b5be-4337-8891-4d8907e813de","system_id":"levelo_inurba_marseille","lat":43.309038,"lon":5.396546,"is_reserved":false,"is_disabled":false,"rental_uris":{"android":"levelo://app?vid=bd8aa323-b5be-4337-8891-4d8907e813de","ios":"levelo://app?vid=bd8aa323-b5be-4337-8891-4d8907e813de"},"vehicle_type_id":"4","last_reported":1723414084,"current_range_meters":16400,"station_id":"ce4bh012rcd13ifvqcv0","pricing_plan_id":"cebpf4jnsgd1na2vs0mg"},{"bike_id":"14656cc8-d360-4849-80a4-c1e3b3f147a2","system_id":"levelo_inurba_marseille","lat":43.313291,"lon":5.396838,"is_reserved":false,"is_disabled":false,"rental_uris":{"android":"levelo://app?vid=14656cc8-d360-4849-80a4-c1e3b3f147a2","ios":"levelo://app?vid=14656cc8-d360-4849-80a4-c1e3b3f147a2"},"vehicle_type_id":"4","last_reported":1723414084,"current_range_meters":31600,"station_id":"ce4bgvp2rcd13ifvqcu0","pricing_plan_id":"cebpf4jnsgd1na2vs0mg"},{"bike_id":"627278b4-9e30-4cb7-ab49-302f87ef0222","system_id":"levelo_inurba_marseille","lat":43.31337,"lon":5.39696,"is_reserved":false,"is_disabled":false,"rental_uris":{"android":"levelo://app?vid=627278b4-9e30-4cb7-ab49-302f87ef0222","ios":"levelo://app?vid=627278b4-9e30-4cb7-ab49-302f87ef0222"},"vehicle_type_id":"4","last_reported":1723414084,"current_range_meters":31200,"station_id":"ce4bgvp2rcd13ifvqcu0","pricing_plan_id":"cebpf4jnsgd1na2vs0mg"},{"bike_id":"9409ee01-5497-4965-b15e-3ce1a890903c","system_id":"levelo_inurba_marseille","lat":43.313291,"lon":5.396838,"is_reserved":false,"is_disabled":false,"rental_uris":{"android":"levelo://app?vid=9409ee01-5497-4965-b15e-3ce1a890903c","ios":"levelo://app?vid=9409ee01-5497-4965-b15e-3ce1a890903c"},"vehicle_type_id":"4","last_reported":1723414084,"current_range_meters":25200,"station_id":"ce4bgvp2rcd13ifvqcu0","pricing_plan_id":"cebpf4jnsgd1na2vs0mg"},{"bike_id":"9f4a60a2-4abb-438c-8c10-08421067bee0","system_id":"levelo_inurba_marseille","lat":43.313291,"lon":5.396838,"is_reserved":false,"is_disabled":false,"rental_uris":{"android":"levelo://app?vid=9f4a60a2-4abb-438c-8c10-08421067bee0","ios":"levelo://app?vid=9f4a60a2-4abb-438c-8c10-08421067bee0"},"vehicle_type_id":"4","last_reported":1723414084,"current_range_meters":20400,"station_id":"ce4bgvp2rcd13ifvqcu0","pricing_plan_id":"cebpf4jnsgd1na2vs0mg"},{"bike_id":"6b594608-e12a-4e37-a6be-f9630dd39923","system_id":"levelo_inurba_marseille","lat":43.313291,"lon":5.396838,"is_reserved":false,"is_disabled":false,"rental_uris":{"android":"levelo://app?vid=6b594608-e12a-4e37-a6be-f9630dd39923","ios":"levelo://app?vid=6b594608-e12a-4e37-a6be-f9630dd39923"},"vehicle_type_id":"4","last_reported":1723414084,"current_range_meters":9600,"station_id":"ce4bgvp2rcd13ifvqcu0","pricing_plan_id":"cebpf4jnsgd1na2vs0mg"},{"bike_id":"5dae9e24-f5b1-4a55-948a-6ebd367c2027","system_id":"levelo_inurba_marseille","lat":43.309038,"lon":5.396546,"is_reserved":false,"is_disabled":false,"rental_uris":{"android":"levelo://app?vid=5dae9e24-f5b1-4a55-948a-6ebd367c2027","ios":"levelo://app?vid=5dae9e24-f5b1-4a55-948a-6ebd367c2027"},"vehicle_type_id":"4","last_reported":1723414084,"current_range_meters":32000,"station_id":"ce4bh012rcd13ifvqcv0","pricing_plan_id":"cebpf4jnsgd1na2vs0mg"},{"bike_id":"4b2ffdae-1658-405e-9bd6-ea6cf37273a3","system_id":"levelo_inurba_marseille","lat":43.313291,"lon":5.396838,"is_reserved":false,"is_disabled":false,"rental_uris":{"android":"levelo://app?vid=4b2ffdae-1658-405e-9bd6-ea6cf37273a3","ios":"levelo://app?vid=4b2ffdae-1658-405e-9bd6-ea6cf37273a3"},"vehicle_type_id":"4","last_reported":1723414084,"current_range_meters":7600,"station_id":"ce4bgvp2rcd13ifvqcu0","pricing_plan_id":"cebpf4jnsgd1na2vs0mg"},{"bike_id":"50ce5d11-202b-4b16-8ff3-a26147a0e67a","system_id":"levelo_inurba_marseille","lat":43.309038,"lon":5.396546,"is_reserved":false,"is_disabled":false,"rental_uris":{"android":"levelo://app?vid=50ce5d11-202b-4b16-8ff3-a26147a0e67a","ios":"levelo://app?vid=50ce5d11-202b-4b16-8ff3-a26147a0e67a"},"vehicle_type_id":"4","last_reported":1723414084,"current_range_meters":14000,"station_id":"ce4bh012rcd13ifvqcv0","pricing_plan_id":"cebpf4jnsgd1na2vs0mg"},{"bike_id":"3e5c2741-e874-467c-b354-595d1017b6cd","system_id":"levelo_inurba_marseille","lat":43.309047,"lon":5.396551,"is_reserved":false,"is_disabled":false,"rental_uris":{"android":"levelo://app?vid=3e5c2741-e874-467c-b354-595d1017b6cd","ios":"levelo://app?vid=3e5c2741-e874-467c-b354-595d1017b6cd"},"vehicle_type_id":"4","last_reported":1723414084,"current_range_meters":31200,"station_id":"ce4bh012rcd13ifvqcv0","pricing_plan_id":"cebpf4jnsgd1na2vs0mg"},{"bike_id":"3cbfa951-1da7-4b7b-b8fa-1d6f59320df0","system_id":"levelo_inurba_marseille","lat":43.313291,"lon":5.396838,"is_reserved":false,"is_disabled":false,"rental_uris":{"android":"levelo://app?vid=3cbfa951-1da7-4b7b-b8fa-1d6f59320df0","ios":"levelo://app?vid=3cbfa951-1da7-4b7b-b8fa-1d6f59320df0"},"vehicle_type_id":"4","last_reported":1723414084,"current_range_meters":6800,"station_id":"ce4bgvp2rcd13ifvqcu0","pricing_plan_id":"cebpf4jnsgd1na2vs0mg"},{"bike_id":"f487b378-cf2d-4387-b118-1081f1938911","system_id":"levelo_inurba_marseille","lat":43.292917,"lon":5.382573,"is_reserved":false,"is_disabled":false,"rental_uris":{"android":"levelo://app?vid=f487b378-cf2d-4387-b118-1081f1938911","ios":"levelo://app?vid=f487b378-cf2d-4387-b118-1081f1938911"},"vehicle_type_id":"4","last_reported":1723414084,"current_range_meters":0,"station_id":"","pricing_plan_id":"cebpf4jnsgd1na2vs0mg"},{"bike_id":"4c3cfe35-8e10-4829-98d1-a9bed7255e3b","system_id":"levelo_inurba_marseille","lat":43.294162,"lon":5.386292,"is_reserved":false,"is_disabled":false,"rental_uris":{"android":"levelo://app?vid=4c3cfe35-8e10-4829-98d1-a9bed7255e3b","ios":"levelo://app?vid=4c3cfe35-8e10-4829-98d1-a9bed7255e3b"},"vehicle_type_id":"4","last_reported":1723414084,"current_range_meters":24000,"station_id":"ce4bh2h2rcd13ifvqdh0","pricing_plan_id":"cebpf4jnsgd1na2vs0mg"},{"bike_id":"9c6eb698-9c80-4074-a060-8cdc07ccec6a","system_id":"levelo_inurba_marseille","lat":43.29027,"lon":5.37552,"is_reserved":false,"is_disabled":false,"rental_uris":{"android":"levelo://app?vid=9c6eb698-9c80-4074-a060-8cdc07ccec6a","ios":"levelo://app?vid=9c6eb698-9c80-4074-a060-8cdc07ccec6a"},"vehicle_type_id":"4","last_reported":1723414084,"current_range_meters":0,"station_id":"ce4bh692rcd13ifvqe90","pricing_plan_id":"cebpf4jnsgd1na2vs0mg"},{"bike_id":"942a50db-802e-4828-b87e-3224ae6b7a4b","system_id":"levelo_inurba_marseille","lat":43.28932,"lon":5.36641,"is_reserved":false,"is_disabled":false,"rental_uris":{"android":"levelo://app?vid=942a50db-802e-4828-b87e-3224ae6b7a4b","ios":"levelo://app?vid=942a50db-802e-4828-b87e-3224ae6b7a4b"},"vehicle_type_id":"4","last_reported":1723414084,"current_range_meters":0,"station_id":"ce4bhap2rcd13ifvqek0","pricing_plan_id":"cebpf4jnsgd1na2vs0mg"},{"bike_id":"1d5d45de-5125-4203-a7ca-ccf3f519711a","system_id":"levelo_inurba_marseille","lat":43.289205,"lon":5.366465,"is_reserved":false,"is_disabled":false,"rental_uris":{"android":"levelo://app?vid=1d5d45de-5125-4203-a7ca-ccf3f519711a","ios":"levelo://app?vid=1d5d45de-5125-4203-a7ca-ccf3f519711a"},"vehicle_type_id":"4","last_reported":1723414084,"current_range_meters":22000,"station_id":"ce4bhap2rcd13ifvqek0","pricing_plan_id":"cebpf4jnsgd1na2vs0mg"},{"bike_id":"c2d70f30-5ae6-4cd5-86b4-9e6e24e68b21","system_id":"levelo_inurba_marseille","lat":43.29418,"lon":5.38689,"is_reserved":false,"is_disabled":false,"rental_uris":{"android":"levelo://app?vid=c2d70f30-5ae6-4cd5-86b4-9e6e24e68b21","ios":"levelo://app?vid=c2d70f30-5ae6-4cd5-86b4-9e6e24e68b21"},"vehicle_type_id":"4","last_reported":1723414084,"current_range_meters":5600,"station_id":"ce4bh2h2rcd13ifvqdh0","pricing_plan_id":"cebpf4jnsgd1na2vs0mg"},{"bike_id":"0a1ae184-eb77-40ab-b63a-55c589bc7e5a","system_id":"levelo_inurba_marseille","lat":43.304296,"lon":5.397513,"is_reserved":false,"is_disabled":false,"rental_uris":{"android":"levelo://app?vid=0a1ae184-eb77-40ab-b63a-55c589bc7e5a","ios":"levelo://app?vid=0a1ae184-eb77-40ab-b63a-55c589bc7e5a"},"vehicle_type_id":"4","last_reported":1723414084,"current_range_meters":17600,"station_id":"ce4bh092rcd13ifvqd20","pricing_plan_id":"cebpf4jnsgd1na2vs0mg"},{"bike_id":"a4bc70bb-064d-4ab7-86fd-ed5d99d79b7b","system_id":"levelo_inurba_marseille","lat":43.29251,"lon":5.38448,"is_reserved":false,"is_disabled":false,"rental_uris":{"android":"levelo://app?vid=a4bc70bb-064d-4ab7-86fd-ed5d99d79b7b","ios":"levelo://app?vid=a4bc70bb-064d-4ab7-86fd-ed5d99d79b7b"},"vehicle_type_id":"4","last_reported":1723414084,"current_range_meters":2800,"station_id":"ce4bh692rcd13ifvqea0","pricing_plan_id":"cebpf4jnsgd1na2vs0mg"},{"bike_id":"2efb2baf-4174-46b1-8bcb-2c9eb6425f97","system_id":"levelo_inurba_marseille","lat":43.297807,"lon":5.393533,"is_reserved":false,"is_disabled":false,"rental_uris":{"android":"levelo://app?vid=2efb2baf-4174-46b1-8bcb-2c9eb6425f97","ios":"levelo://app?vid=2efb2baf-4174-46b1-8bcb-2c9eb6425f97"},"vehicle_type_id":"4","last_reported":1723414084,"current_range_meters":6800,"station_id":"chh1huq6cuj3fo74tm60","pricing_plan_id":"cebpf4jnsgd1na2vs0mg"},{"bike_id":"76a5c062-9332-4e37-9d80-6dad1e1c02a7","system_id":"levelo_inurba_marseille","lat":43.297807,"lon":5.393533,"is_reserved":false,"is_disabled":false,"rental_uris":{"android":"levelo://app?vid=76a5c062-9332-4e37-9d80-6dad1e1c02a7","ios":"levelo://app?vid=76a5c062-9332-4e37-9d80-6dad1e1c02a7"},"vehicle_type_id":"4","last_reported":1723414084,"current_range_meters":15600,"station_id":"chh1huq6cuj3fo74tm60","pricing_plan_id":"cebpf4jnsgd1na2vs0mg"},{"bike_id":"1a505d43-5f11-47bd-b4e0-7581c6f07952","system_id":"levelo_inurba_marseille","lat":43.297815,"lon":5.393548,"is_reserved":false,"is_disabled":false,"rental_uris":{"android":"levelo://app?vid=1a505d43-5f11-47bd-b4e0-7581c6f07952","ios":"levelo://app?vid=1a505d43-5f11-47bd-b4e0-7581c6f07952"},"vehicle_type_id":"4","last_reported":1723414084,"current_range_meters":25200,"station_id":"chh1huq6cuj3fo74tm60","pricing_plan_id":"cebpf4jnsgd1na2vs0mg"},{"bike_id":"00783961-d1b8-42c2-959a-ea2879e0afb7","system_id":"levelo_inurba_marseille","lat":43.297815,"lon":5.393548,"is_reserved":false,"is_disabled":false,"rental_uris":{"android":"levelo://app?vid=00783961-d1b8-42c2-959a-ea2879e0afb7","ios":"levelo://app?vid=00783961-d1b8-42c2-959a-ea2879e0afb7"},"vehicle_type_id":"4","last_reported":1723414084,"current_range_meters":800,"station_id":"chh1huq6cuj3fo74tm60","pricing_plan_id":"cebpf4jnsgd1na2vs0mg"},{"bike_id":"4c24e6f3-6954-4a91-ab39-259f62775119","system_id":"levelo_inurba_marseille","lat":43.297807,"lon":5.393533,"is_reserved":false,"is_disabled":false,"rental_uris":{"android":"levelo://app?vid=4c24e6f3-6954-4a91-ab39-259f62775119","ios":"levelo://app?vid=4c24e6f3-6954-4a91-ab39-259f62775119"},"vehicle_type_id":"4","last_reported":1723414084,"current_range_meters":10400,"station_id":"chh1huq6cuj3fo74tm60","pricing_plan_id":"cebpf4jnsgd1na2vs0mg"},{"bike_id":"951b639d-65e4-4df0-aa11-f1e1c5aee29f","system_id":"levelo_inurba_marseille","lat":43.297807,"lon":5.393533,"is_reserved":false,"is_disabled":false,"rental_uris":{"android":"levelo://app?vid=951b639d-65e4-4df0-aa11-f1e1c5aee29f","ios":"levelo://app?vid=951b639d-65e4-4df0-aa11-f1e1c5aee29f"},"vehicle_type_id":"4","last_reported":1723414084,"current_range_meters":9600,"station_id":"chh1huq6cuj3fo74tm60","pricing_plan_id":"cebpf4jnsgd1na2vs0mg"},{"bike_id":"9347931e-bef2-427f-8ff2-66b77b95c03c","system_id":"levelo_inurba_marseille","lat":43.33024,"lon":5.39035,"is_reserved":false,"is_disabled":false,"rental_uris":{"android":"levelo://app?vid=9347931e-bef2-427f-8ff2-66b77b95c03c","ios":"levelo://app?vid=9347931e-bef2-427f-8ff2-66b77b95c03c"},"vehicle_type_id":"4","last_reported":1723414084,"current_range_meters":6000,"station_id":"ce4bhr92rcd13ifvqhrg","pricing_plan_id":"cebpf4jnsgd1na2vs0mg"},{"bike_id":"154ab97b-c22b-42ce-b653-2e63c8189255","system_id":"levelo_inurba_marseille","lat":43.289741,"lon":5.378306,"is_reserved":false,"is_disabled":false,"rental_uris":{"android":"levelo://app?vid=154ab97b-c22b-42ce-b653-2e63c8189255","ios":"levelo://app?vid=154ab97b-c22b-42ce-b653-2e63c8189255"},"vehicle_type_id":"4","last_reported":1723414084,"current_range_meters":21600,"station_id":"ce4bh9p2rcd13ifvqed0","pricing_plan_id":"cebpf4jnsgd1na2vs0mg"},{"bike_id":"e7aebf1d-b716-43f0-ae59-f31fa2fc74d7","system_id":"levelo_inurba_marseille","lat":43.289741,"lon":5.378306,"is_reserved":false,"is_disabled":false,"rental_uris":{"android":"levelo://app?vid=e7aebf1d-b716-43f0-ae59-f31fa2fc74d7","ios":"levelo://app?vid=e7aebf1d-b716-43f0-ae59-f31fa2fc74d7"},"vehicle_type_id":"4","last_reported":1723414084,"current_range_meters":20400,"station_id":"ce4bh9p2rcd13ifvqed0","pricing_plan_id":"cebpf4jnsgd1na2vs0mg"},{"bike_id":"3732b07b-2f41-468a-bcfe-60cf8afbda17","system_id":"levelo_inurba_marseille","lat":43.330442,"lon":5.389148,"is_reserved":false,"is_disabled":false,"rental_uris":{"android":"levelo://app?vid=3732b07b-2f41-468a-bcfe-60cf8afbda17","ios":"levelo://app?vid=3732b07b-2f41-468a-bcfe-60cf8afbda17"},"vehicle_type_id":"4","last_reported":1723414084,"current_range_meters":16400,"station_id":"ce4bhr92rcd13ifvqhrg","pricing_plan_id":"cebpf4jnsgd1na2vs0mg"},{"bike_id":"e0510740-9577-447b-a054-c4869c7674c5","system_id":"levelo_inurba_marseille","lat":43.330442,"lon":5.389148,"is_reserved":false,"is_disabled":false,"rental_uris":{"android":"levelo://app?vid=e0510740-9577-447b-a054-c4869c7674c5","ios":"levelo://app?vid=e0510740-9577-447b-a054-c4869c7674c5"},"vehicle_type_id":"4","last_reported":1723414084,"current_range_meters":3600,"station_id":"ce4bhr92rcd13ifvqhrg","pricing_plan_id":"cebpf4jnsgd1na2vs0mg"},{"bike_id":"b8fe4fc7-815d-4b60-870c-d982e56575fa","system_id":"levelo_inurba_marseille","lat":43.330442,"lon":5.389148,"is_reserved":false,"is_disabled":false,"rental_uris":{"android":"levelo://app?vid=b8fe4fc7-815d-4b60-870c-d982e56575fa","ios":"levelo://app?vid=b8fe4fc7-815d-4b60-870c-d982e56575fa"},"vehicle_type_id":"4","last_reported":1723414084,"current_range_meters":17200,"station_id":"ce4bhr92rcd13ifvqhrg","pricing_plan_id":"cebpf4jnsgd1na2vs0mg"},{"bike_id":"2e63a36e-a070-4b90-8452-4b71f9172047","system_id":"levelo_inurba_marseille","lat":43.33025,"lon":5.39045,"is_reserved":false,"is_disabled":false,"rental_uris":{"android":"levelo://app?vid=2e63a36e-a070-4b90-8452-4b71f9172047","ios":"levelo://app?vid=2e63a36e-a070-4b90-8452-4b71f9172047"},"vehicle_type_id":"4","last_reported":1723414084,"current_range_meters":4800,"station_id":"ce4bhr92rcd13ifvqhrg","pricing_plan_id":"cebpf4jnsgd1na2vs0mg"},{"bike_id":"854cf4a3-fd87-4e6a-9a5b-9834c4d7de02","system_id":"levelo_inurba_marseille","lat":43.330442,"lon":5.389148,"is_reserved":false,"is_disabled":false,"rental_uris":{"android":"levelo://app?vid=854cf4a3-fd87-4e6a-9a5b-9834c4d7de02","ios":"levelo://app?vid=854cf4a3-fd87-4e6a-9a5b-9834c4d7de02"},"vehicle_type_id":"4","last_reported":1723414084,"current_range_meters":14800,"station_id":"ce4bhr92rcd13ifvqhrg","pricing_plan_id":"cebpf4jnsgd1na2vs0mg"},{"bike_id":"027cbb86-d5f6-4a09-a599-3c6c56390272","system_id":"levelo_inurba_marseille","lat":43.330442,"lon":5.389148,"is_reserved":false,"is_disabled":false,"rental_uris":{"android":"levelo://app?vid=027cbb86-d5f6-4a09-a599-3c6c56390272","ios":"levelo://app?vid=027cbb86-d5f6-4a09-a599-3c6c56390272"},"vehicle_type_id":"4","last_reported":1723414084,"current_range_meters":8000,"station_id":"ce4bhr92rcd13ifvqhrg","pricing_plan_id":"cebpf4jnsgd1na2vs0mg"},{"bike_id":"8595863f-b529-4b91-be26-7a664feef453","system_id":"levelo_inurba_marseille","lat":43.330442,"lon":5.389148,"is_reserved":false,"is_disabled":false,"rental_uris":{"android":"levelo://app?vid=8595863f-b529-4b91-be26-7a664feef453","ios":"levelo://app?vid=8595863f-b529-4b91-be26-7a664feef453"},"vehicle_type_id":"4","last_reported":1723414084,"current_range_meters":16800,"station_id":"ce4bhr92rcd13ifvqhrg","pricing_plan_id":"cebpf4jnsgd1na2vs0mg"},{"bike_id":"efaaec91-5197-4ccc-9863-45bef67077e2","system_id":"levelo_inurba_marseille","lat":43.2901,"lon":5.381269,"is_reserved":false,"is_disabled":false,"rental_uris":{"android":"levelo://app?vid=efaaec91-5197-4ccc-9863-45bef67077e2","ios":"levelo://app?vid=efaaec91-5197-4ccc-9863-45bef67077e2"},"vehicle_type_id":"4","last_reported":1723414084,"current_range_meters":0,"station_id":"ce4bh4p2rcd13ifvqe1g","pricing_plan_id":"cebpf4jnsgd1na2vs0mg"},{"bike_id":"1cb9ed88-9090-43fc-9d77-ffeaac3247c5","system_id":"levelo_inurba_marseille","lat":43.32994,"lon":5.39137,"is_reserved":false,"is_disabled":false,"rental_uris":{"android":"levelo://app?vid=1cb9ed88-9090-43fc-9d77-ffeaac3247c5","ios":"levelo://app?vid=1cb9ed88-9090-43fc-9d77-ffeaac3247c5"},"vehicle_type_id":"4","last_reported":1723414084,"current_range_meters":2400,"station_id":"","pricing_plan_id":"cebpf4jnsgd1na2vs0mg"},{"bike_id":"4dd3df97-f042-4ef0-9fba-47ec4b401346","system_id":"levelo_inurba_marseille","lat":43.2883,"lon":5.37357,"is_reserved":false,"is_disabled":false,"rental_uris":{"android":"levelo://app?vid=4dd3df97-f042-4ef0-9fba-47ec4b401346","ios":"levelo://app?vid=4dd3df97-f042-4ef0-9fba-47ec4b401346"},"vehicle_type_id":"4","last_reported":1723414084,"current_range_meters":19600,"station_id":"","pricing_plan_id":"cebpf4jnsgd1na2vs0mg"},{"bike_id":"c03816a3-583e-45fa-b982-364811b3c1fa","system_id":"levelo_inurba_marseille","lat":43.28856,"lon":5.358371,"is_reserved":false,"is_disabled":false,"rental_uris":{"android":"levelo://app?vid=c03816a3-583e-45fa-b982-364811b3c1fa","ios":"levelo://app?vid=c03816a3-583e-45fa-b982-364811b3c1fa"},"vehicle_type_id":"4","last_reported":1723414084,"current_range_meters":0,"station_id":"ce4bhb12rcd13ifvqem0","pricing_plan_id":"cebpf4jnsgd1na2vs0mg"},{"bike_id":"c3cf305c-692c-41ed-b07c-7ebbc13f240d","system_id":"levelo_inurba_marseille","lat":43.337405,"lon":5.374624,"is_reserved":false,"is_disabled":false,"rental_uris":{"android":"levelo://app?vid=c3cf305c-692c-41ed-b07c-7ebbc13f240d","ios":"levelo://app?vid=c3cf305c-692c-41ed-b07c-7ebbc13f240d"},"vehicle_type_id":"4","last_reported":1723414084,"current_range_meters":14400,"station_id":"","pricing_plan_id":"cebpf4jnsgd1na2vs0mg"},{"bike_id":"090db84e-1d04-4bbd-a353-0b6756815b17","system_id":"levelo_inurba_marseille","lat":43.309371,"lon":5.401449,"is_reserved":false,"is_disabled":false,"rental_uris":{"android":"levelo://app?vid=090db84e-1d04-4bbd-a353-0b6756815b17","ios":"levelo://app?vid=090db84e-1d04-4bbd-a353-0b6756815b17"},"vehicle_type_id":"4","last_reported":1723414084,"current_range_meters":14800,"station_id":"ce4bgvp2rcd13ifvqct0","pricing_plan_id":"cebpf4jnsgd1na2vs0mg"},{"bike_id":"ac75d8e5-5139-4e43-a64e-51e7994c2517","system_id":"levelo_inurba_marseille","lat":43.337444,"lon":5.374475,"is_reserved":false,"is_disabled":false,"rental_uris":{"android":"levelo://app?vid=ac75d8e5-5139-4e43-a64e-51e7994c2517","ios":"levelo://app?vid=ac75d8e5-5139-4e43-a64e-51e7994c2517"},"vehicle_type_id":"3","last_reported":1723414084,"current_range_meters":24800,"station_id":"","pricing_plan_id":"cebpf4jnsgd1na2vs0mg"},{"bike_id":"43f21911-683d-4ba4-93d3-8a7e20e1c78c","system_id":"levelo_inurba_marseille","lat":43.337419,"lon":5.374638,"is_reserved":false,"is_disabled":false,"rental_uris":{"android":"levelo://app?vid=43f21911-683d-4ba4-93d3-8a7e20e1c78c","ios":"levelo://app?vid=43f21911-683d-4ba4-93d3-8a7e20e1c78c"},"vehicle_type_id":"4","last_reported":1723414084,"current_range_meters":25600,"station_id":"","pricing_plan_id":"cebpf4jnsgd1na2vs0mg"},{"bike_id":"8b5f6228-3582-497c-9919-c849c8ef0c9b","system_id":"levelo_inurba_marseille","lat":43.337436,"lon":5.374589,"is_reserved":false,"is_disabled":false,"rental_uris":{"android":"levelo://app?vid=8b5f6228-3582-497c-9919-c849c8ef0c9b","ios":"levelo://app?vid=8b5f6228-3582-497c-9919-c849c8ef0c9b"},"vehicle_type_id":"4","last_reported":1723414084,"current_range_meters":0,"station_id":"","pricing_plan_id":"cebpf4jnsgd1na2vs0mg"},{"bike_id":"a99690a8-3e4f-41a1-9b6a-5b43249a269f","system_id":"levelo_inurba_marseille","lat":43.33746,"lon":5.37457,"is_reserved":false,"is_disabled":false,"rental_uris":{"android":"levelo://app?vid=a99690a8-3e4f-41a1-9b6a-5b43249a269f","ios":"levelo://app?vid=a99690a8-3e4f-41a1-9b6a-5b43249a269f"},"vehicle_type_id":"4","last_reported":1723414084,"current_range_meters":0,"station_id":"","pricing_plan_id":"cebpf4jnsgd1na2vs0mg"},{"bike_id":"7553d7c6-8eef-4b21-9dca-534ec43256a6","system_id":"levelo_inurba_marseille","lat":43.33747,"lon":5.37464,"is_reserved":false,"is_disabled":false,"rental_uris":{"android":"levelo://app?vid=7553d7c6-8eef-4b21-9dca-534ec43256a6","ios":"levelo://app?vid=7553d7c6-8eef-4b21-9dca-534ec43256a6"},"vehicle_type_id":"4","last_reported":1723414084,"current_range_meters":8000,"station_id":"","pricing_plan_id":"cebpf4jnsgd1na2vs0mg"},{"bike_id":"045cc628-11d2-4fe7-8288-07249f7a842b","system_id":"levelo_inurba_marseille","lat":43.309371,"lon":5.401449,"is_reserved":false,"is_disabled":false,"rental_uris":{"android":"levelo://app?vid=045cc628-11d2-4fe7-8288-07249f7a842b","ios":"levelo://app?vid=045cc628-11d2-4fe7-8288-07249f7a842b"},"vehicle_type_id":"4","last_reported":1723414084,"current_range_meters":29200,"station_id":"ce4bgvp2rcd13ifvqct0","pricing_plan_id":"cebpf4jnsgd1na2vs0mg"},{"bike_id":"f93cccd7-d7cd-46f4-93f4-f651cb6cf80a","system_id":"levelo_inurba_marseille","lat":43.309371,"lon":5.401449,"is_reserved":false,"is_disabled":false,"rental_uris":{"android":"levelo://app?vid=f93cccd7-d7cd-46f4-93f4-f651cb6cf80a","ios":"levelo://app?vid=f93cccd7-d7cd-46f4-93f4-f651cb6cf80a"},"vehicle_type_id":"4","last_reported":1723414084,"current_range_meters":26800,"station_id":"ce4bgvp2rcd13ifvqct0","pricing_plan_id":"cebpf4jnsgd1na2vs0mg"},{"bike_id":"ce33b498-7184-411a-9971-d443f01effcd","system_id":"levelo_inurba_marseille","lat":43.309371,"lon":5.401449,"is_reserved":false,"is_disabled":false,"rental_uris":{"android":"levelo://app?vid=ce33b498-7184-411a-9971-d443f01effcd","ios":"levelo://app?vid=ce33b498-7184-411a-9971-d443f01effcd"},"vehicle_type_id":"4","last_reported":1723414084,"current_range_meters":2400,"station_id":"ce4bgvp2rcd13ifvqct0","pricing_plan_id":"cebpf4jnsgd1na2vs0mg"},{"bike_id":"6137b86e-8de9-4c4f-94ef-bfa372175031","system_id":"levelo_inurba_marseille","lat":43.337513,"lon":5.37454,"is_reserved":false,"is_disabled":false,"rental_uris":{"android":"levelo://app?vid=6137b86e-8de9-4c4f-94ef-bfa372175031","ios":"levelo://app?vid=6137b86e-8de9-4c4f-94ef-bfa372175031"},"vehicle_type_id":"4","last_reported":1723414084,"current_range_meters":10800,"station_id":"","pricing_plan_id":"cebpf4jnsgd1na2vs0mg"},{"bike_id":"1ece39e8-5ec5-465b-b0d5-bdea3554c74d","system_id":"levelo_inurba_marseille","lat":43.337554,"lon":5.374517,"is_reserved":false,"is_disabled":false,"rental_uris":{"android":"levelo://app?vid=1ece39e8-5ec5-465b-b0d5-bdea3554c74d","ios":"levelo://app?vid=1ece39e8-5ec5-465b-b0d5-bdea3554c74d"},"vehicle_type_id":"4","last_reported":1723414084,"current_range_meters":19600,"station_id":"","pricing_plan_id":"cebpf4jnsgd1na2vs0mg"},{"bike_id":"6f8a75ef-cfde-4da5-99c7-85f9ae9b026b","system_id":"levelo_inurba_marseille","lat":43.33765,"lon":5.37432,"is_reserved":false,"is_disabled":false,"rental_uris":{"android":"levelo://app?vid=6f8a75ef-cfde-4da5-99c7-85f9ae9b026b","ios":"levelo://app?vid=6f8a75ef-cfde-4da5-99c7-85f9ae9b026b"},"vehicle_type_id":"4","last_reported":1723414084,"current_range_meters":18800,"station_id":"","pricing_plan_id":"cebpf4jnsgd1na2vs0mg"},{"bike_id":"5cb0d0f3-eacc-40eb-a46e-542fc59e15f6","system_id":"levelo_inurba_marseille","lat":43.33756,"lon":5.37492,"is_reserved":false,"is_disabled":false,"rental_uris":{"android":"levelo://app?vid=5cb0d0f3-eacc-40eb-a46e-542fc59e15f6","ios":"levelo://app?vid=5cb0d0f3-eacc-40eb-a46e-542fc59e15f6"},"vehicle_type_id":"4","last_reported":1723414084,"current_range_meters":28000,"station_id":"","pricing_plan_id":"cebpf4jnsgd1na2vs0mg"},{"bike_id":"ea1cc1bc-b3f0-4093-8f5f-6dfff1fa63d9","system_id":"levelo_inurba_marseille","lat":43.337575,"lon":5.37485,"is_reserved":false,"is_disabled":false,"rental_uris":{"android":"levelo://app?vid=ea1cc1bc-b3f0-4093-8f5f-6dfff1fa63d9","ios":"levelo://app?vid=ea1cc1bc-b3f0-4093-8f5f-6dfff1fa63d9"},"vehicle_type_id":"4","last_reported":1723414084,"current_range_meters":30000,"station_id":"","pricing_plan_id":"cebpf4jnsgd1na2vs0mg"},{"bike_id":"e0da458e-1309-458b-956b-aab617b2ea05","system_id":"levelo_inurba_marseille","lat":43.3376,"lon":5.37473,"is_reserved":false,"is_disabled":false,"rental_uris":{"android":"levelo://app?vid=e0da458e-1309-458b-956b-aab617b2ea05","ios":"levelo://app?vid=e0da458e-1309-458b-956b-aab617b2ea05"},"vehicle_type_id":"4","last_reported":1723414084,"current_range_meters":22400,"station_id":"","pricing_plan_id":"cebpf4jnsgd1na2vs0mg"},{"bike_id":"a7e71684-8757-4c0e-98c0-cd5b05cd0ba7","system_id":"levelo_inurba_marseille","lat":43.337583,"lon":5.374932,"is_reserved":false,"is_disabled":false,"rental_uris":{"android":"levelo://app?vid=a7e71684-8757-4c0e-98c0-cd5b05cd0ba7","ios":"levelo://app?vid=a7e71684-8757-4c0e-98c0-cd5b05cd0ba7"},"vehicle_type_id":"4","last_reported":1723414084,"current_range_meters":28000,"station_id":"","pricing_plan_id":"cebpf4jnsgd1na2vs0mg"},{"bike_id":"9fae7229-82f4-4a06-b6c3-7460c6bef9b3","system_id":"levelo_inurba_marseille","lat":43.306412,"lon":5.401035,"is_reserved":false,"is_disabled":false,"rental_uris":{"android":"levelo://app?vid=9fae7229-82f4-4a06-b6c3-7460c6bef9b3","ios":"levelo://app?vid=9fae7229-82f4-4a06-b6c3-7460c6bef9b3"},"vehicle_type_id":"4","last_reported":1723414084,"current_range_meters":0,"station_id":"ce4bh112rcd13ifvqda0","pricing_plan_id":"cebpf4jnsgd1na2vs0mg"},{"bike_id":"ba349148-d157-4e0f-8411-7c38f581c683","system_id":"levelo_inurba_marseille","lat":43.306412,"lon":5.401035,"is_reserved":false,"is_disabled":false,"rental_uris":{"android":"levelo://app?vid=ba349148-d157-4e0f-8411-7c38f581c683","ios":"levelo://app?vid=ba349148-d157-4e0f-8411-7c38f581c683"},"vehicle_type_id":"4","last_reported":1723414084,"current_range_meters":16000,"station_id":"ce4bh112rcd13ifvqda0","pricing_plan_id":"cebpf4jnsgd1na2vs0mg"},{"bike_id":"b0b078c9-f9e4-40df-903d-6924fb474063","system_id":"levelo_inurba_marseille","lat":43.301117,"lon":5.398795,"is_reserved":false,"is_disabled":false,"rental_uris":{"android":"levelo://app?vid=b0b078c9-f9e4-40df-903d-6924fb474063","ios":"levelo://app?vid=b0b078c9-f9e4-40df-903d-6924fb474063"},"vehicle_type_id":"4","last_reported":1723414084,"current_range_meters":0,"station_id":"ce4bh0h2rcd13ifvqd40","pricing_plan_id":"cebpf4jnsgd1na2vs0mg"},{"bike_id":"475ed14f-5d86-4ce1-9e44-9d4d1bef7035","system_id":"levelo_inurba_marseille","lat":43.33765,"lon":5.37486,"is_reserved":false,"is_disabled":false,"rental_uris":{"android":"levelo://app?vid=475ed14f-5d86-4ce1-9e44-9d4d1bef7035","ios":"levelo://app?vid=475ed14f-5d86-4ce1-9e44-9d4d1bef7035"},"vehicle_type_id":"4","last_reported":1723414084,"current_range_meters":20400,"station_id":"","pricing_plan_id":"cebpf4jnsgd1na2vs0mg"},{"bike_id":"368c9c78-292c-496f-b392-e05934f02bfa","system_id":"levelo_inurba_marseille","lat":43.286961,"lon":5.373785,"is_reserved":false,"is_disabled":false,"rental_uris":{"android":"levelo://app?vid=368c9c78-292c-496f-b392-e05934f02bfa","ios":"levelo://app?vid=368c9c78-292c-496f-b392-e05934f02bfa"},"vehicle_type_id":"4","last_reported":1723414084,"current_range_meters":23200,"station_id":"ce4bh3p2rcd13ifvqdq0","pricing_plan_id":"cebpf4jnsgd1na2vs0mg"},{"bike_id":"2450abab-e5ce-49c8-a9cc-4c72f86d3f8a","system_id":"levelo_inurba_marseille","lat":43.286961,"lon":5.373785,"is_reserved":false,"is_disabled":false,"rental_uris":{"android":"levelo://app?vid=2450abab-e5ce-49c8-a9cc-4c72f86d3f8a","ios":"levelo://app?vid=2450abab-e5ce-49c8-a9cc-4c72f86d3f8a"},"vehicle_type_id":"4","last_reported":1723414084,"current_range_meters":4800,"station_id":"ce4bh3p2rcd13ifvqdq0","pricing_plan_id":"cebpf4jnsgd1na2vs0mg"},{"bike_id":"c4777ff3-5648-4770-b714-538a185d599d","system_id":"levelo_inurba_marseille","lat":43.286591,"lon":5.363346,"is_reserved":false,"is_disabled":false,"rental_uris":{"android":"levelo://app?vid=c4777ff3-5648-4770-b714-538a185d599d","ios":"levelo://app?vid=c4777ff3-5648-4770-b714-538a185d599d"},"vehicle_type_id":"4","last_reported":1723414084,"current_range_meters":7200,"station_id":"ce4bhah2rcd13ifvqej0","pricing_plan_id":"cebpf4jnsgd1na2vs0mg"},{"bike_id":"8fe89d56-03c1-41a9-b313-2421ae8318da","system_id":"levelo_inurba_marseille","lat":43.286961,"lon":5.373785,"is_reserved":false,"is_disabled":false,"rental_uris":{"android":"levelo://app?vid=8fe89d56-03c1-41a9-b313-2421ae8318da","ios":"levelo://app?vid=8fe89d56-03c1-41a9-b313-2421ae8318da"},"vehicle_type_id":"4","last_reported":1723414084,"current_range_meters":21600,"station_id":"ce4bh3p2rcd13ifvqdq0","pricing_plan_id":"cebpf4jnsgd1na2vs0mg"},{"bike_id":"773de0a3-5782-4508-a98f-c7405e39c3fb","system_id":"levelo_inurba_marseille","lat":43.286665,"lon":5.363467,"is_reserved":false,"is_disabled":false,"rental_uris":{"android":"levelo://app?vid=773de0a3-5782-4508-a98f-c7405e39c3fb","ios":"levelo://app?vid=773de0a3-5782-4508-a98f-c7405e39c3fb"},"vehicle_type_id":"4","last_reported":1723414084,"current_range_meters":0,"station_id":"ce4bhah2rcd13ifvqej0","pricing_plan_id":"cebpf4jnsgd1na2vs0mg"},{"bike_id":"7d89eeec-2f56-4eac-b3f1-d89d9d6c6fbe","system_id":"levelo_inurba_marseille","lat":43.289563,"lon":5.383863,"is_reserved":false,"is_disabled":false,"rental_uris":{"android":"levelo://app?vid=7d89eeec-2f56-4eac-b3f1-d89d9d6c6fbe","ios":"levelo://app?vid=7d89eeec-2f56-4eac-b3f1-d89d9d6c6fbe"},"vehicle_type_id":"4","last_reported":1723414084,"current_range_meters":17600,"station_id":"ce4bh612rcd13ifvqe6g","pricing_plan_id":"cebpf4jnsgd1na2vs0mg"},{"bike_id":"ca855bca-c8ef-470f-a020-8c35c33d95f5","system_id":"levelo_inurba_marseille","lat":43.286593,"lon":5.363346,"is_reserved":false,"is_disabled":false,"rental_uris":{"android":"levelo://app?vid=ca855bca-c8ef-470f-a020-8c35c33d95f5","ios":"levelo://app?vid=ca855bca-c8ef-470f-a020-8c35c33d95f5"},"vehicle_type_id":"4","last_reported":1723414084,"current_range_meters":5600,"station_id":"ce4bhah2rcd13ifvqej0","pricing_plan_id":"cebpf4jnsgd1na2vs0mg"},{"bike_id":"e11ee0b1-f0a7-40d6-bb55-40e9b42da50a","system_id":"levelo_inurba_marseille","lat":43.286961,"lon":5.373785,"is_reserved":false,"is_disabled":false,"rental_uris":{"android":"levelo://app?vid=e11ee0b1-f0a7-40d6-bb55-40e9b42da50a","ios":"levelo://app?vid=e11ee0b1-f0a7-40d6-bb55-40e9b42da50a"},"vehicle_type_id":"4","last_reported":1723414084,"current_range_meters":400,"station_id":"ce4bh3p2rcd13ifvqdq0","pricing_plan_id":"cebpf4jnsgd1na2vs0mg"},{"bike_id":"a541ce6b-b29e-4e58-b112-888e9514fb78","system_id":"levelo_inurba_marseille","lat":43.286593,"lon":5.363346,"is_reserved":false,"is_disabled":false,"rental_uris":{"android":"levelo://app?vid=a541ce6b-b29e-4e58-b112-888e9514fb78","ios":"levelo://app?vid=a541ce6b-b29e-4e58-b112-888e9514fb78"},"vehicle_type_id":"4","last_reported":1723414084,"current_range_meters":28800,"station_id":"ce4bhah2rcd13ifvqej0","pricing_plan_id":"cebpf4jnsgd1na2vs0mg"},{"bike_id":"3c94ad7e-9ef2-4e71-94c3-729a220492da","system_id":"levelo_inurba_marseille","lat":43.289307,"lon":5.38406,"is_reserved":false,"is_disabled":false,"rental_uris":{"android":"levelo://app?vid=3c94ad7e-9ef2-4e71-94c3-729a220492da","ios":"levelo://app?vid=3c94ad7e-9ef2-4e71-94c3-729a220492da"},"vehicle_type_id":"4","last_reported":1723414084,"current_range_meters":25200,"station_id":"ce4bh612rcd13ifvqe6g","pricing_plan_id":"cebpf4jnsgd1na2vs0mg"},{"bike_id":"b125a24b-87eb-4403-895a-5a4e3dd4f667","system_id":"levelo_inurba_marseille","lat":43.289307,"lon":5.38406,"is_reserved":false,"is_disabled":false,"rental_uris":{"android":"levelo://app?vid=b125a24b-87eb-4403-895a-5a4e3dd4f667","ios":"levelo://app?vid=b125a24b-87eb-4403-895a-5a4e3dd4f667"},"vehicle_type_id":"4","last_reported":1723414084,"current_range_meters":29200,"station_id":"ce4bh612rcd13ifvqe6g","pricing_plan_id":"cebpf4jnsgd1na2vs0mg"},{"bike_id":"791a5a82-80b8-4e40-94ec-b466900a7169","system_id":"levelo_inurba_marseille","lat":43.289307,"lon":5.38406,"is_reserved":false,"is_disabled":false,"rental_uris":{"android":"levelo://app?vid=791a5a82-80b8-4e40-94ec-b466900a7169","ios":"levelo://app?vid=791a5a82-80b8-4e40-94ec-b466900a7169"},"vehicle_type_id":"4","last_reported":1723414084,"current_range_meters":4000,"station_id":"ce4bh612rcd13ifvqe6g","pricing_plan_id":"cebpf4jnsgd1na2vs0mg"},{"bike_id":"e53b77e4-33e0-471e-8101-e6f089a03b97","system_id":"levelo_inurba_marseille","lat":43.289307,"lon":5.38406,"is_reserved":false,"is_disabled":false,"rental_uris":{"android":"levelo://app?vid=e53b77e4-33e0-471e-8101-e6f089a03b97","ios":"levelo://app?vid=e53b77e4-33e0-471e-8101-e6f089a03b97"},"vehicle_type_id":"4","last_reported":1723414084,"current_range_meters":0,"station_id":"ce4bh612rcd13ifvqe6g","pricing_plan_id":"cebpf4jnsgd1na2vs0mg"},{"bike_id":"ee105235-b96d-44c7-8d64-89092e7fc99d","system_id":"levelo_inurba_marseille","lat":43.289307,"lon":5.38406,"is_reserved":false,"is_disabled":false,"rental_uris":{"android":"levelo://app?vid=ee105235-b96d-44c7-8d64-89092e7fc99d","ios":"levelo://app?vid=ee105235-b96d-44c7-8d64-89092e7fc99d"},"vehicle_type_id":"4","last_reported":1723414084,"current_range_meters":7600,"station_id":"ce4bh612rcd13ifvqe6g","pricing_plan_id":"cebpf4jnsgd1na2vs0mg"},{"bike_id":"d31e66f1-52df-4f05-a581-711ffcecbe35","system_id":"levelo_inurba_marseille","lat":43.289307,"lon":5.38406,"is_reserved":false,"is_disabled":false,"rental_uris":{"android":"levelo://app?vid=d31e66f1-52df-4f05-a581-711ffcecbe35","ios":"levelo://app?vid=d31e66f1-52df-4f05-a581-711ffcecbe35"},"vehicle_type_id":"4","last_reported":1723414084,"current_range_meters":3200,"station_id":"ce4bh612rcd13ifvqe6g","pricing_plan_id":"cebpf4jnsgd1na2vs0mg"},{"bike_id":"a92b5f57-0262-466c-8003-eeddc9ddd941","system_id":"levelo_inurba_marseille","lat":43.289307,"lon":5.38406,"is_reserved":false,"is_disabled":false,"rental_uris":{"android":"levelo://app?vid=a92b5f57-0262-466c-8003-eeddc9ddd941","ios":"levelo://app?vid=a92b5f57-0262-466c-8003-eeddc9ddd941"},"vehicle_type_id":"4","last_reported":1723414084,"current_range_meters":18800,"station_id":"ce4bh612rcd13ifvqe6g","pricing_plan_id":"cebpf4jnsgd1na2vs0mg"},{"bike_id":"efabe2e6-933e-4975-a13b-07778e592086","system_id":"levelo_inurba_marseille","lat":43.289307,"lon":5.38406,"is_reserved":false,"is_disabled":false,"rental_uris":{"android":"levelo://app?vid=efabe2e6-933e-4975-a13b-07778e592086","ios":"levelo://app?vid=efabe2e6-933e-4975-a13b-07778e592086"},"vehicle_type_id":"4","last_reported":1723414084,"current_range_meters":25200,"station_id":"ce4bh612rcd13ifvqe6g","pricing_plan_id":"cebpf4jnsgd1na2vs0mg"},{"bike_id":"78e2d901-3fe8-4b20-9b36-3b25103c9764","system_id":"levelo_inurba_marseille","lat":43.290336,"lon":5.386425,"is_reserved":false,"is_disabled":false,"rental_uris":{"android":"levelo://app?vid=78e2d901-3fe8-4b20-9b36-3b25103c9764","ios":"levelo://app?vid=78e2d901-3fe8-4b20-9b36-3b25103c9764"},"vehicle_type_id":"4","last_reported":1723414084,"current_range_meters":16400,"station_id":"ce4bh4p2rcd13ifvqe0g","pricing_plan_id":"cebpf4jnsgd1na2vs0mg"},{"bike_id":"49dc12f0-0ede-45e3-a15b-af15e4b5d6ef","system_id":"levelo_inurba_marseille","lat":43.289307,"lon":5.38406,"is_reserved":false,"is_disabled":false,"rental_uris":{"android":"levelo://app?vid=49dc12f0-0ede-45e3-a15b-af15e4b5d6ef","ios":"levelo://app?vid=49dc12f0-0ede-45e3-a15b-af15e4b5d6ef"},"vehicle_type_id":"4","last_reported":1723414084,"current_range_meters":15600,"station_id":"ce4bh612rcd13ifvqe6g","pricing_plan_id":"cebpf4jnsgd1na2vs0mg"},{"bike_id":"b996838d-6690-41d6-bd68-e3c4941e999e","system_id":"levelo_inurba_marseille","lat":43.29029,"lon":5.38654,"is_reserved":false,"is_disabled":false,"rental_uris":{"android":"levelo://app?vid=b996838d-6690-41d6-bd68-e3c4941e999e","ios":"levelo://app?vid=b996838d-6690-41d6-bd68-e3c4941e999e"},"vehicle_type_id":"4","last_reported":1723414084,"current_range_meters":0,"station_id":"ce4bh4p2rcd13ifvqe0g","pricing_plan_id":"cebpf4jnsgd1na2vs0mg"},{"bike_id":"defcc37c-f7bf-4d93-9cbc-d1b42b4c5435","system_id":"levelo_inurba_marseille","lat":43.290336,"lon":5.386425,"is_reserved":false,"is_disabled":false,"rental_uris":{"android":"levelo://app?vid=defcc37c-f7bf-4d93-9cbc-d1b42b4c5435","ios":"levelo://app?vid=defcc37c-f7bf-4d93-9cbc-d1b42b4c5435"},"vehicle_type_id":"4","last_reported":1723414084,"current_range_meters":27600,"station_id":"ce4bh4p2rcd13ifvqe0g","pricing_plan_id":"cebpf4jnsgd1na2vs0mg"},{"bike_id":"af5b5b00-3baf-460b-852e-ea1af365054e","system_id":"levelo_inurba_marseille","lat":43.290223,"lon":5.386553,"is_reserved":false,"is_disabled":false,"rental_uris":{"android":"levelo://app?vid=af5b5b00-3baf-460b-852e-ea1af365054e","ios":"levelo://app?vid=af5b5b00-3baf-460b-852e-ea1af365054e"},"vehicle_type_id":"4","last_reported":1723414084,"current_range_meters":0,"station_id":"ce4bh4p2rcd13ifvqe0g","pricing_plan_id":"cebpf4jnsgd1na2vs0mg"},{"bike_id":"09873725-1fa9-4e80-91e4-8c002c000731","system_id":"levelo_inurba_marseille","lat":43.28615,"lon":5.37059,"is_reserved":false,"is_disabled":false,"rental_uris":{"android":"levelo://app?vid=09873725-1fa9-4e80-91e4-8c002c000731","ios":"levelo://app?vid=09873725-1fa9-4e80-91e4-8c002c000731"},"vehicle_type_id":"4","last_reported":1723414084,"current_range_meters":0,"station_id":"ce4bht12rcd13ifvqi60","pricing_plan_id":"cebpf4jnsgd1na2vs0mg"},{"bike_id":"eaba52f3-34fb-48e4-a80a-db4b6e34b688","system_id":"levelo_inurba_marseille","lat":43.286039,"lon":5.370679,"is_reserved":false,"is_disabled":false,"rental_uris":{"android":"levelo://app?vid=eaba52f3-34fb-48e4-a80a-db4b6e34b688","ios":"levelo://app?vid=eaba52f3-34fb-48e4-a80a-db4b6e34b688"},"vehicle_type_id":"4","last_reported":1723414084,"current_range_meters":21200,"station_id":"ce4bht12rcd13ifvqi60","pricing_plan_id":"cebpf4jnsgd1na2vs0mg"},{"bike_id":"9da88abe-0ff7-4fb2-9acf-d2877d380d23","system_id":"levelo_inurba_marseille","lat":43.2861,"lon":5.37067,"is_reserved":false,"is_disabled":false,"rental_uris":{"android":"levelo://app?vid=9da88abe-0ff7-4fb2-9acf-d2877d380d23","ios":"levelo://app?vid=9da88abe-0ff7-4fb2-9acf-d2877d380d23"},"vehicle_type_id":"4","last_reported":1723414084,"current_range_meters":800,"station_id":"ce4bht12rcd13ifvqi60","pricing_plan_id":"cebpf4jnsgd1na2vs0mg"},{"bike_id":"996d9335-1178-45af-90fc-d6d4c239eba1","system_id":"levelo_inurba_marseille","lat":43.287184,"lon":5.379281,"is_reserved":false,"is_disabled":false,"rental_uris":{"android":"levelo://app?vid=996d9335-1178-45af-90fc-d6d4c239eba1","ios":"levelo://app?vid=996d9335-1178-45af-90fc-d6d4c239eba1"},"vehicle_type_id":"4","last_reported":1723414084,"current_range_meters":0,"station_id":"ce4bh9p2rcd13ifvqec0","pricing_plan_id":"cebpf4jnsgd1na2vs0mg"},{"bike_id":"89ae6b9b-806c-40e7-8848-035c040ae6fa","system_id":"levelo_inurba_marseille","lat":43.28716,"lon":5.37944,"is_reserved":false,"is_disabled":false,"rental_uris":{"android":"levelo://app?vid=89ae6b9b-806c-40e7-8848-035c040ae6fa","ios":"levelo://app?vid=89ae6b9b-806c-40e7-8848-035c040ae6fa"},"vehicle_type_id":"4","last_reported":1723414084,"current_range_meters":20400,"station_id":"ce4bh9p2rcd13ifvqec0","pricing_plan_id":"cebpf4jnsgd1na2vs0mg"},{"bike_id":"770ad36c-e5fc-4e19-b44d-0b8466af34de","system_id":"levelo_inurba_marseille","lat":43.28713,"lon":5.37938,"is_reserved":false,"is_disabled":false,"rental_uris":{"android":"levelo://app?vid=770ad36c-e5fc-4e19-b44d-0b8466af34de","ios":"levelo://app?vid=770ad36c-e5fc-4e19-b44d-0b8466af34de"},"vehicle_type_id":"4","last_reported":1723414084,"current_range_meters":18800,"station_id":"ce4bh9p2rcd13ifvqec0","pricing_plan_id":"cebpf4jnsgd1na2vs0mg"},{"bike_id":"f4c6676d-1c60-4beb-96e0-de98240d7fb1","system_id":"levelo_inurba_marseille","lat":43.287114,"lon":5.379379,"is_reserved":false,"is_disabled":false,"rental_uris":{"android":"levelo://app?vid=f4c6676d-1c60-4beb-96e0-de98240d7fb1","ios":"levelo://app?vid=f4c6676d-1c60-4beb-96e0-de98240d7fb1"},"vehicle_type_id":"4","last_reported":1723414084,"current_range_meters":6800,"station_id":"ce4bh9p2rcd13ifvqec0","pricing_plan_id":"cebpf4jnsgd1na2vs0mg"},{"bike_id":"4dd29048-99ba-4789-93db-d7906ae8dc14","system_id":"levelo_inurba_marseille","lat":43.29208,"lon":5.39316,"is_reserved":false,"is_disabled":false,"rental_uris":{"android":"levelo://app?vid=4dd29048-99ba-4789-93db-d7906ae8dc14","ios":"levelo://app?vid=4dd29048-99ba-4789-93db-d7906ae8dc14"},"vehicle_type_id":"4","last_reported":1723414084,"current_range_meters":2000,"station_id":"ce4bh192rcd13ifvqdd0","pricing_plan_id":"cebpf4jnsgd1na2vs0mg"},{"bike_id":"70b99241-7a60-406b-83c7-60cf0ff95704","system_id":"levelo_inurba_marseille","lat":43.291994,"lon":5.392907,"is_reserved":false,"is_disabled":false,"rental_uris":{"android":"levelo://app?vid=70b99241-7a60-406b-83c7-60cf0ff95704","ios":"levelo://app?vid=70b99241-7a60-406b-83c7-60cf0ff95704"},"vehicle_type_id":"4","last_reported":1723414084,"current_range_meters":21600,"station_id":"ce4bh192rcd13ifvqdd0","pricing_plan_id":"cebpf4jnsgd1na2vs0mg"},{"bike_id":"4c5805b5-f646-44e7-b313-6b1651b3b8c2","system_id":"levelo_inurba_marseille","lat":43.29208,"lon":5.39323,"is_reserved":false,"is_disabled":false,"rental_uris":{"android":"levelo://app?vid=4c5805b5-f646-44e7-b313-6b1651b3b8c2","ios":"levelo://app?vid=4c5805b5-f646-44e7-b313-6b1651b3b8c2"},"vehicle_type_id":"4","last_reported":1723414084,"current_range_meters":12400,"station_id":"ce4bh192rcd13ifvqdd0","pricing_plan_id":"cebpf4jnsgd1na2vs0mg"},{"bike_id":"a535f803-be4c-427e-86cb-99e30d34949a","system_id":"levelo_inurba_marseille","lat":43.291994,"lon":5.392907,"is_reserved":false,"is_disabled":false,"rental_uris":{"android":"levelo://app?vid=a535f803-be4c-427e-86cb-99e30d34949a","ios":"levelo://app?vid=a535f803-be4c-427e-86cb-99e30d34949a"},"vehicle_type_id":"4","last_reported":1723414084,"current_range_meters":4000,"station_id":"ce4bh192rcd13ifvqdd0","pricing_plan_id":"cebpf4jnsgd1na2vs0mg"},{"bike_id":"3a5f84ad-7eef-41cc-bc83-5aa192392bfa","system_id":"levelo_inurba_marseille","lat":43.29199,"lon":5.39322,"is_reserved":false,"is_disabled":false,"rental_uris":{"android":"levelo://app?vid=3a5f84ad-7eef-41cc-bc83-5aa192392bfa","ios":"levelo://app?vid=3a5f84ad-7eef-41cc-bc83-5aa192392bfa"},"vehicle_type_id":"4","last_reported":1723414084,"current_range_meters":18400,"station_id":"ce4bh192rcd13ifvqdd0","pricing_plan_id":"cebpf4jnsgd1na2vs0mg"},{"bike_id":"d04a66fa-c321-4ade-8792-831942e8677a","system_id":"levelo_inurba_marseille","lat":43.29203,"lon":5.39331,"is_reserved":false,"is_disabled":false,"rental_uris":{"android":"levelo://app?vid=d04a66fa-c321-4ade-8792-831942e8677a","ios":"levelo://app?vid=d04a66fa-c321-4ade-8792-831942e8677a"},"vehicle_type_id":"4","last_reported":1723414084,"current_range_meters":14400,"station_id":"ce4bh192rcd13ifvqdd0","pricing_plan_id":"cebpf4jnsgd1na2vs0mg"},{"bike_id":"61792e03-d29e-49da-a415-b61756c60be7","system_id":"levelo_inurba_marseille","lat":43.291994,"lon":5.392907,"is_reserved":false,"is_disabled":false,"rental_uris":{"android":"levelo://app?vid=61792e03-d29e-49da-a415-b61756c60be7","ios":"levelo://app?vid=61792e03-d29e-49da-a415-b61756c60be7"},"vehicle_type_id":"4","last_reported":1723414084,"current_range_meters":18400,"station_id":"ce4bh192rcd13ifvqdd0","pricing_plan_id":"cebpf4jnsgd1na2vs0mg"},{"bike_id":"092f0a5f-bda5-415c-9cd4-11d7fa0638ae","system_id":"levelo_inurba_marseille","lat":43.291994,"lon":5.392907,"is_reserved":false,"is_disabled":false,"rental_uris":{"android":"levelo://app?vid=092f0a5f-bda5-415c-9cd4-11d7fa0638ae","ios":"levelo://app?vid=092f0a5f-bda5-415c-9cd4-11d7fa0638ae"},"vehicle_type_id":"4","last_reported":1723414084,"current_range_meters":5200,"station_id":"ce4bh192rcd13ifvqdd0","pricing_plan_id":"cebpf4jnsgd1na2vs0mg"},{"bike_id":"5c522414-07f7-49f3-9bd7-58ec71f4df41","system_id":"levelo_inurba_marseille","lat":43.292015,"lon":5.393375,"is_reserved":false,"is_disabled":false,"rental_uris":{"android":"levelo://app?vid=5c522414-07f7-49f3-9bd7-58ec71f4df41","ios":"levelo://app?vid=5c522414-07f7-49f3-9bd7-58ec71f4df41"},"vehicle_type_id":"4","last_reported":1723414084,"current_range_meters":5200,"station_id":"ce4bh192rcd13ifvqdd0","pricing_plan_id":"cebpf4jnsgd1na2vs0mg"},{"bike_id":"f5dec97d-38a5-4e35-949a-686b91fbbc1a","system_id":"levelo_inurba_marseille","lat":43.291937,"lon":5.393286,"is_reserved":false,"is_disabled":false,"rental_uris":{"android":"levelo://app?vid=f5dec97d-38a5-4e35-949a-686b91fbbc1a","ios":"levelo://app?vid=f5dec97d-38a5-4e35-949a-686b91fbbc1a"},