{"last_updated":1742184747,"ttl":60,"version":"2.2","data":{"bikes":[{"bike_id":"76b415aa-d90d-4b4c-9954-2e46fdae4260","system_id":"levelo_inurba_marseille","lat":43.28994,"lon":5.35635,"is_reserved":false,"is_disabled":true,"rental_uris":{"android":"levelo://app?vid=76b415aa-d90d-4b4c-9954-2e46fdae4260","ios":"levelo://app?vid=76b415aa-d90d-4b4c-9954-2e46fdae4260"},"vehicle_type_id":"4","last_reported":1742184747,"current_range_meters":2800,"station_id":"ce4bhb92rcd13ifvqen0","pricing_plan_id":"cebpf4jnsgd1na2vs0mg"},{"bike_id":"a51e83ee-53b4-4965-b5bb-694ae883e860","system_id":"levelo_inurba_marseille","lat":43.26213,"lon":5.37451,"is_reserved":false,"is_disabled":true,"rental_uris":{"android":"levelo://app?vid=a51e83ee-53b4-4965-b5bb-694ae883e860","ios":"levelo://app?vid=a51e83ee-53b4-4965-b5bb-694ae883e860"},"vehicle_type_id":"4","last_reported":1742184747,"current_range_meters":2800,"station_id":"ce4bhgp2rcd13ifvqfc0","pricing_plan_id":"cebpf4jnsgd1na2vs0mg"},{"bike_id":"22f1ff18-0132-4946-a97a-a47e6f70a6ed","system_id":"levelo_inurba_marseille","lat":43.22926,"lon":5.3538,"is_reserved":false,"is_disabled":true,"rental_uris":{"android":"levelo://app?vid=22f1ff18-0132-4946-a97a-a47e6f70a6ed","ios":"levelo://app?vid=22f1ff18-0132-4946-a97a-a47e6f70a6ed"},"vehicle_type_id":"4","last_reported":1742184747,"current_range_meters":2800,"station_id":"cpo3532slgdg3j2ikp40","pricing_plan_id":"cebpf4jnsgd1na2vs0mg"},{"bike_id":"6f143c5b-933e-4a51-97d8-72a3705988b8","system_id":"levelo_inurba_marseille","lat":43.32234,"lon":5.37956,"is_reserved":false,"is_disabled":false,"rental_uris":{"android":"levelo://app?vid=6f143c5b-933e-4a51-97d8-72a3705988b8","ios":"levelo://app?vid=6f143c5b-933e-4a51-97d8-72a3705988b8"},"vehicle_type_id":"4","last_reported":1742184747,"current_range_meters":2800,"station_id":"","pricing_plan_id":"cebpf4jnsgd1na2vs0mg"},{"bike_id":"a0077075-129c-41b6-a008-934f22aa9c2b","system_id":"levelo_inurba_marseille","lat":43.261933,"lon":5.374526,"is_reserved":false,"is_disabled":true,"rental_uris":{"android":"levelo://app?vid=a0077075-129c-41b6-a008-934f22aa9c2b","ios":"levelo://app?vid=a0077075-129c-41b6-a008-934f22aa9c2b"},"vehicle_type_id":"4","last_reported":1742184747,"current_range_meters":3200,"station_id":"ce4bhgp2rcd13ifvqfc0","pricing_plan_id":"cebpf4jnsgd1na2vs0mg"},{"bike_id":"c8876ad1-79cf-4421-9912-8f75411e76cc","system_id":"levelo_inurba_marseille","lat":43.27231,"lon":5.41009,"is_reserved":false,"is_disabled":true,"rental_uris":{"android":"levelo://app?vid=c8876ad1-79cf-4421-9912-8f75411e76cc","ios":"levelo://app?vid=c8876ad1-79cf-4421-9912-8f75411e76cc"},"vehicle_type_id":"4","last_reported":1742184747,"current_range_meters":3200,"station_id":"ce4bhl12rcd13ifvqgf0","pricing_plan_id":"cebpf4jnsgd1na2vs0mg"},{"bike_id":"fb40bcca-92b3-424a-8389-10870f52798a","system_id":"levelo_inurba_marseille","lat":43.26163,"lon":5.38781,"is_reserved":false,"is_disabled":false,"rental_uris":{"android":"levelo://app?vid=fb40bcca-92b3-424a-8389-10870f52798a","ios":"levelo://app?vid=fb40bcca-92b3-424a-8389-10870f52798a"},"vehicle_type_id":"4","last_reported":1742184747,"current_range_meters":3200,"station_id":"","pricing_plan_id":"cebpf4jnsgd1na2vs0mg"},{"bike_id":"1ac0ebad-6828-4242-99b2-14a9f8209f79","system_id":"levelo_inurba_marseille","lat":43.231944,"lon":5.355561,"is_reserved":false,"is_disabled":false,"rental_uris":{"android":"levelo://app?vid=1ac0ebad-6828-4242-99b2-14a9f8209f79","ios":"levelo://app?vid=1ac0ebad-6828-4242-99b2-14a9f8209f79"},"vehicle_type_id":"4","last_reported":1742184747,"current_range_meters":3600,"station_id":"ce4bhu92rcd13ifvqi70","pricing_plan_id":"cebpf4jnsgd1na2vs0mg"},{"bike_id":"76837955-312a-4300-a00b-4a15c94e44b9","system_id":"levelo_inurba_marseille","lat":43.2656,"lon":5.37293,"is_reserved":false,"is_disabled":false,"rental_uris":{"android":"levelo://app?vid=76837955-312a-4300-a00b-4a15c94e44b9","ios":"levelo://app?vid=76837955-312a-4300-a00b-4a15c94e44b9"},"vehicle_type_id":"4","last_reported":1742184747,"current_range_meters":4000,"station_id":"ce4bhg12rcd13ifvqf70","pricing_plan_id":"cebpf4jnsgd1na2vs0mg"},{"bike_id":"82465aa7-55ed-4055-9cc8-5fdee15ebdd8","system_id":"levelo_inurba_marseille","lat":43.27645,"lon":5.4192,"is_reserved":false,"is_disabled":false,"rental_uris":{"android":"levelo://app?vid=82465aa7-55ed-4055-9cc8-5fdee15ebdd8","ios":"levelo://app?vid=82465aa7-55ed-4055-9cc8-5fdee15ebdd8"},"vehicle_type_id":"4","last_reported":1742184747,"current_range_meters":4000,"station_id":"","pricing_plan_id":"cebpf4jnsgd1na2vs0mg"},{"bike_id":"efb53dda-871b-483c-8dec-e716116f9234","system_id":"levelo_inurba_marseille","lat":43.31091,"lon":5.36753,"is_reserved":false,"is_disabled":false,"rental_uris":{"android":"levelo://app?vid=efb53dda-871b-483c-8dec-e716116f9234","ios":"levelo://app?vid=efb53dda-871b-483c-8dec-e716116f9234"},"vehicle_type_id":"4","last_reported":1742184747,"current_range_meters":4000,"station_id":"","pricing_plan_id":"cebpf4jnsgd1na2vs0mg"},{"bike_id":"6cff3099-fc62-4212-a5e6-1cc54ed7cc41","system_id":"levelo_inurba_marseille","lat":43.250059,"lon":5.389135,"is_reserved":false,"is_disabled":false,"rental_uris":{"android":"levelo://app?vid=6cff3099-fc62-4212-a5e6-1cc54ed7cc41","ios":"levelo://app?vid=6cff3099-fc62-4212-a5e6-1cc54ed7cc41"},"vehicle_type_id":"4","last_reported":1742184747,"current_range_meters":4400,"station_id":"ce4bhgp2rcd13ifvqfd0","pricing_plan_id":"cebpf4jnsgd1na2vs0mg"},{"bike_id":"ae25fe52-db37-435e-90b0-0d9ecc4e1c43","system_id":"levelo_inurba_marseille","lat":43.27842,"lon":5.39215,"is_reserved":false,"is_disabled":false,"rental_uris":{"android":"levelo://app?vid=ae25fe52-db37-435e-90b0-0d9ecc4e1c43","ios":"levelo://app?vid=ae25fe52-db37-435e-90b0-0d9ecc4e1c43"},"vehicle_type_id":"4","last_reported":1742184747,"current_range_meters":4400,"station_id":"ce4bhjp2rcd13ifvqga0","pricing_plan_id":"cebpf4jnsgd1na2vs0mg"},{"bike_id":"2127c283-3bf3-4081-9791-ba201cf5a542","system_id":"levelo_inurba_marseille","lat":43.3046,"lon":5.37386,"is_reserved":false,"is_disabled":true,"rental_uris":{"android":"levelo://app?vid=2127c283-3bf3-4081-9791-ba201cf5a542","ios":"levelo://app?vid=2127c283-3bf3-4081-9791-ba201cf5a542"},"vehicle_type_id":"4","last_reported":1742184747,"current_range_meters":4400,"station_id":"","pricing_plan_id":"cebpf4jnsgd1na2vs0mg"},{"bike_id":"71d6b220-48b3-44b0-9feb-d7bbfca6b232","system_id":"levelo_inurba_marseille","lat":43.25486,"lon":5.37631,"is_reserved":false,"is_disabled":true,"rental_uris":{"android":"levelo://app?vid=71d6b220-48b3-44b0-9feb-d7bbfca6b232","ios":"levelo://app?vid=71d6b220-48b3-44b0-9feb-d7bbfca6b232"},"vehicle_type_id":"4","last_reported":1742184747,"current_range_meters":4400,"station_id":"ce4bhh12rcd13ifvqff0","pricing_plan_id":"cebpf4jnsgd1na2vs0mg"},{"bike_id":"8ac36ff0-95fa-4664-8e37-a03afd0a16e1","system_id":"levelo_inurba_marseille","lat":43.28973,"lon":5.37834,"is_reserved":false,"is_disabled":true,"rental_uris":{"android":"levelo://app?vid=8ac36ff0-95fa-4664-8e37-a03afd0a16e1","ios":"levelo://app?vid=8ac36ff0-95fa-4664-8e37-a03afd0a16e1"},"vehicle_type_id":"4","last_reported":1742184747,"current_range_meters":4400,"station_id":"","pricing_plan_id":"cebpf4jnsgd1na2vs0mg"},{"bike_id":"a5d9a2f8-11e2-445b-9946-70463938f681","system_id":"levelo_inurba_marseille","lat":43.31141,"lon":5.38127,"is_reserved":false,"is_disabled":false,"rental_uris":{"android":"levelo://app?vid=a5d9a2f8-11e2-445b-9946-70463938f681","ios":"levelo://app?vid=a5d9a2f8-11e2-445b-9946-70463938f681"},"vehicle_type_id":"4","last_reported":1742184747,"current_range_meters":4800,"station_id":"","pricing_plan_id":"cebpf4jnsgd1na2vs0mg"},{"bike_id":"19705e0d-3ab1-4385-878f-e702cd54fbac","system_id":"levelo_inurba_marseille","lat":43.24678,"lon":5.38159,"is_reserved":false,"is_disabled":false,"rental_uris":{"android":"levelo://app?vid=19705e0d-3ab1-4385-878f-e702cd54fbac","ios":"levelo://app?vid=19705e0d-3ab1-4385-878f-e702cd54fbac"},"vehicle_type_id":"4","last_reported":1742184747,"current_range_meters":4800,"station_id":"ce4bhih2rcd13ifvqfr0","pricing_plan_id":"cebpf4jnsgd1na2vs0mg"},{"bike_id":"7dd769be-a96c-41b3-8a44-6973fc831e5b","system_id":"levelo_inurba_marseille","lat":43.254943,"lon":5.376494,"is_reserved":false,"is_disabled":true,"rental_uris":{"android":"levelo://app?vid=7dd769be-a96c-41b3-8a44-6973fc831e5b","ios":"levelo://app?vid=7dd769be-a96c-41b3-8a44-6973fc831e5b"},"vehicle_type_id":"4","last_reported":1742184747,"current_range_meters":4800,"station_id":"ce4bhh12rcd13ifvqff0","pricing_plan_id":"cebpf4jnsgd1na2vs0mg"},{"bike_id":"d378659a-b095-4d28-a820-d3bacca7d8f8","system_id":"levelo_inurba_marseille","lat":43.276121,"lon":5.361176,"is_reserved":false,"is_disabled":false,"rental_uris":{"android":"levelo://app?vid=d378659a-b095-4d28-a820-d3bacca7d8f8","ios":"levelo://app?vid=d378659a-b095-4d28-a820-d3bacca7d8f8"},"vehicle_type_id":"4","last_reported":1742184747,"current_range_meters":5600,"station_id":"ce4bgj92rcd13ifvqbe0","pricing_plan_id":"cebpf4jnsgd1na2vs0mg"},{"bike_id":"f2b7b04e-8089-4d6c-9db8-5e21bca75c26","system_id":"levelo_inurba_marseille","lat":43.278371,"lon":5.391998,"is_reserved":false,"is_disabled":true,"rental_uris":{"android":"levelo://app?vid=f2b7b04e-8089-4d6c-9db8-5e21bca75c26","ios":"levelo://app?vid=f2b7b04e-8089-4d6c-9db8-5e21bca75c26"},"vehicle_type_id":"4","last_reported":1742184747,"current_range_meters":5600,"station_id":"ce4bhjp2rcd13ifvqga0","pricing_plan_id":"cebpf4jnsgd1na2vs0mg"},{"bike_id":"226bfa8c-468a-4f7f-bbde-f46c7fc50809","system_id":"levelo_inurba_marseille","lat":43.25703,"lon":5.41132,"is_reserved":false,"is_disabled":false,"rental_uris":{"android":"levelo://app?vid=226bfa8c-468a-4f7f-bbde-f46c7fc50809","ios":"levelo://app?vid=226bfa8c-468a-4f7f-bbde-f46c7fc50809"},"vehicle_type_id":"4","last_reported":1742184747,"current_range_meters":6000,"station_id":"ce4bhkp2rcd13ifvqgd0","pricing_plan_id":"cebpf4jnsgd1na2vs0mg"},{"bike_id":"af004255-93b1-4617-8c69-428414d7ebe9","system_id":"levelo_inurba_marseille","lat":43.25009,"lon":5.389168,"is_reserved":false,"is_disabled":false,"rental_uris":{"android":"levelo://app?vid=af004255-93b1-4617-8c69-428414d7ebe9","ios":"levelo://app?vid=af004255-93b1-4617-8c69-428414d7ebe9"},"vehicle_type_id":"4","last_reported":1742184747,"current_range_meters":6000,"station_id":"ce4bhgp2rcd13ifvqfd0","pricing_plan_id":"cebpf4jnsgd1na2vs0mg"},{"bike_id":"e3acbff3-15e0-47b5-80be-e0b4d7c85f89","system_id":"levelo_inurba_marseille","lat":43.239544,"lon":5.366318,"is_reserved":false,"is_disabled":false,"rental_uris":{"android":"levelo://app?vid=e3acbff3-15e0-47b5-80be-e0b4d7c85f89","ios":"levelo://app?vid=e3acbff3-15e0-47b5-80be-e0b4d7c85f89"},"vehicle_type_id":"4","last_reported":1742184747,"current_range_meters":6000,"station_id":"ce4bhi12rcd13ifvqfp0","pricing_plan_id":"cebpf4jnsgd1na2vs0mg"},{"bike_id":"09384f0e-0fdc-40bd-be41-764e8826ab95","system_id":"levelo_inurba_marseille","lat":43.261952,"lon":5.374456,"is_reserved":false,"is_disabled":false,"rental_uris":{"android":"levelo://app?vid=09384f0e-0fdc-40bd-be41-764e8826ab95","ios":"levelo://app?vid=09384f0e-0fdc-40bd-be41-764e8826ab95"},"vehicle_type_id":"4","last_reported":1742184747,"current_range_meters":6000,"station_id":"ce4bhgp2rcd13ifvqfc0","pricing_plan_id":"cebpf4jnsgd1na2vs0mg"},{"bike_id":"743c9fbf-42df-4986-bc8c-9b4a2bc386be","system_id":"levelo_inurba_marseille","lat":43.24077,"lon":5.37754,"is_reserved":false,"is_disabled":false,"rental_uris":{"android":"levelo://app?vid=743c9fbf-42df-4986-bc8c-9b4a2bc386be","ios":"levelo://app?vid=743c9fbf-42df-4986-bc8c-9b4a2bc386be"},"vehicle_type_id":"4","last_reported":1742184747,"current_range_meters":6000,"station_id":"ce4bhnp2rcd13ifvqgvg","pricing_plan_id":"cebpf4jnsgd1na2vs0mg"},{"bike_id":"50977077-b0a1-4750-bfd7-556b151a7c52","system_id":"levelo_inurba_marseille","lat":43.30883,"lon":5.39625,"is_reserved":false,"is_disabled":false,"rental_uris":{"android":"levelo://app?vid=50977077-b0a1-4750-bfd7-556b151a7c52","ios":"levelo://app?vid=50977077-b0a1-4750-bfd7-556b151a7c52"},"vehicle_type_id":"4","last_reported":1742184747,"current_range_meters":6000,"station_id":"ce4bh012rcd13ifvqcv0","pricing_plan_id":"cebpf4jnsgd1na2vs0mg"},{"bike_id":"c5ff76ac-c5f0-4e6d-872b-0339d85f51aa","system_id":"levelo_inurba_marseille","lat":43.24061,"lon":5.37777,"is_reserved":false,"is_disabled":false,"rental_uris":{"android":"levelo://app?vid=c5ff76ac-c5f0-4e6d-872b-0339d85f51aa","ios":"levelo://app?vid=c5ff76ac-c5f0-4e6d-872b-0339d85f51aa"},"vehicle_type_id":"4","last_reported":1742184747,"current_range_meters":6000,"station_id":"ce4bhnp2rcd13ifvqgvg","pricing_plan_id":"cebpf4jnsgd1na2vs0mg"},{"bike_id":"31710fca-ccfa-43a5-ac6f-5ec923018ebf","system_id":"levelo_inurba_marseille","lat":43.2739,"lon":5.4207,"is_reserved":false,"is_disabled":false,"rental_uris":{"android":"levelo://app?vid=31710fca-ccfa-43a5-ac6f-5ec923018ebf","ios":"levelo://app?vid=31710fca-ccfa-43a5-ac6f-5ec923018ebf"},"vehicle_type_id":"4","last_reported":1742184747,"current_range_meters":6000,"station_id":"","pricing_plan_id":"cebpf4jnsgd1na2vs0mg"},{"bike_id":"5d9a22e0-3e63-4043-aae3-272336597850","system_id":"levelo_inurba_marseille","lat":43.29705,"lon":5.36604,"is_reserved":false,"is_disabled":false,"rental_uris":{"android":"levelo://app?vid=5d9a22e0-3e63-4043-aae3-272336597850","ios":"levelo://app?vid=5d9a22e0-3e63-4043-aae3-272336597850"},"vehicle_type_id":"4","last_reported":1742184747,"current_range_meters":6400,"station_id":"ce4bgn12rcd13ifvqbt0","pricing_plan_id":"cebpf4jnsgd1na2vs0mg"},{"bike_id":"0102a975-ca16-4d1e-8694-d919e87a2584","system_id":"levelo_inurba_marseille","lat":43.29542,"lon":5.42278,"is_reserved":false,"is_disabled":false,"rental_uris":{"android":"levelo://app?vid=0102a975-ca16-4d1e-8694-d919e87a2584","ios":"levelo://app?vid=0102a975-ca16-4d1e-8694-d919e87a2584"},"vehicle_type_id":"4","last_reported":1742184747,"current_range_meters":6400,"station_id":"ce4bhph2rcd13ifvqhdg","pricing_plan_id":"cebpf4jnsgd1na2vs0mg"},{"bike_id":"68f3bcfe-e20f-4ad8-9579-f569150feb8a","system_id":"levelo_inurba_marseille","lat":43.27586,"lon":5.36162,"is_reserved":false,"is_disabled":false,"rental_uris":{"android":"levelo://app?vid=68f3bcfe-e20f-4ad8-9579-f569150feb8a","ios":"levelo://app?vid=68f3bcfe-e20f-4ad8-9579-f569150feb8a"},"vehicle_type_id":"4","last_reported":1742184747,"current_range_meters":6400,"station_id":"","pricing_plan_id":"cebpf4jnsgd1na2vs0mg"},{"bike_id":"75fe710d-59d7-4360-ad6d-acf41a03287f","system_id":"levelo_inurba_marseille","lat":43.314739,"lon":5.368572,"is_reserved":false,"is_disabled":false,"rental_uris":{"android":"levelo://app?vid=75fe710d-59d7-4360-ad6d-acf41a03287f","ios":"levelo://app?vid=75fe710d-59d7-4360-ad6d-acf41a03287f"},"vehicle_type_id":"4","last_reported":1742184747,"current_range_meters":6400,"station_id":"","pricing_plan_id":"cebpf4jnsgd1na2vs0mg"},{"bike_id":"ae2538dc-3b0b-4b98-8b04-c8d59f425822","system_id":"levelo_inurba_marseille","lat":43.30798,"lon":5.38147,"is_reserved":false,"is_disabled":false,"rental_uris":{"android":"levelo://app?vid=ae2538dc-3b0b-4b98-8b04-c8d59f425822","ios":"levelo://app?vid=ae2538dc-3b0b-4b98-8b04-c8d59f425822"},"vehicle_type_id":"4","last_reported":1742184747,"current_range_meters":6400,"station_id":"ce4bgt12rcd13ifvqce0","pricing_plan_id":"cebpf4jnsgd1na2vs0mg"},{"bike_id":"a17866dc-3074-49fc-9a89-48869866e9d8","system_id":"levelo_inurba_marseille","lat":43.27221,"lon":5.391955,"is_reserved":false,"is_disabled":true,"rental_uris":{"android":"levelo://app?vid=a17866dc-3074-49fc-9a89-48869866e9d8","ios":"levelo://app?vid=a17866dc-3074-49fc-9a89-48869866e9d8"},"vehicle_type_id":"4","last_reported":1742184747,"current_range_meters":6400,"station_id":"ce4bhhp2rcd13ifvqfm0","pricing_plan_id":"cebpf4jnsgd1na2vs0mg"},{"bike_id":"82e4859a-e942-44b1-82e8-bca3ed8730b3","system_id":"levelo_inurba_marseille","lat":43.24817,"lon":5.37452,"is_reserved":false,"is_disabled":false,"rental_uris":{"android":"levelo://app?vid=82e4859a-e942-44b1-82e8-bca3ed8730b3","ios":"levelo://app?vid=82e4859a-e942-44b1-82e8-bca3ed8730b3"},"vehicle_type_id":"4","last_reported":1742184747,"current_range_meters":6400,"station_id":"ce4bhgh2rcd13ifvqfb0","pricing_plan_id":"cebpf4jnsgd1na2vs0mg"},{"bike_id":"3a766561-d5df-4bb1-accb-85c347f27a70","system_id":"levelo_inurba_marseille","lat":43.33728,"lon":5.39188,"is_reserved":false,"is_disabled":false,"rental_uris":{"android":"levelo://app?vid=3a766561-d5df-4bb1-accb-85c347f27a70","ios":"levelo://app?vid=3a766561-d5df-4bb1-accb-85c347f27a70"},"vehicle_type_id":"4","last_reported":1742184747,"current_range_meters":6400,"station_id":"ce4bhr92rcd13ifvqhsg","pricing_plan_id":"cebpf4jnsgd1na2vs0mg"},{"bike_id":"d3bd0ca2-58e0-4f19-bd33-980724ab7a39","system_id":"levelo_inurba_marseille","lat":43.30891,"lon":5.39626,"is_reserved":false,"is_disabled":true,"rental_uris":{"android":"levelo://app?vid=d3bd0ca2-58e0-4f19-bd33-980724ab7a39","ios":"levelo://app?vid=d3bd0ca2-58e0-4f19-bd33-980724ab7a39"},"vehicle_type_id":"4","last_reported":1742184747,"current_range_meters":6400,"station_id":"ce4bh012rcd13ifvqcv0","pricing_plan_id":"cebpf4jnsgd1na2vs0mg"},{"bike_id":"2c2b70e5-e895-43c6-973c-cdd69db920eb","system_id":"levelo_inurba_marseille","lat":43.27937,"lon":5.41038,"is_reserved":false,"is_disabled":false,"rental_uris":{"android":"levelo://app?vid=2c2b70e5-e895-43c6-973c-cdd69db920eb","ios":"levelo://app?vid=2c2b70e5-e895-43c6-973c-cdd69db920eb"},"vehicle_type_id":"4","last_reported":1742184747,"current_range_meters":6800,"station_id":"ce4bhnp2rcd13ifvqh0g","pricing_plan_id":"cebpf4jnsgd1na2vs0mg"},{"bike_id":"8bf2e89b-2ebd-4f34-a419-e5c65583077b","system_id":"levelo_inurba_marseille","lat":43.28183,"lon":5.44526,"is_reserved":false,"is_disabled":false,"rental_uris":{"android":"levelo://app?vid=8bf2e89b-2ebd-4f34-a419-e5c65583077b","ios":"levelo://app?vid=8bf2e89b-2ebd-4f34-a419-e5c65583077b"},"vehicle_type_id":"4","last_reported":1742184747,"current_range_meters":6800,"station_id":"","pricing_plan_id":"cebpf4jnsgd1na2vs0mg"},{"bike_id":"dfa76b7e-741a-4edb-9a75-5948b5933f81","system_id":"levelo_inurba_marseille","lat":43.24874,"lon":5.40918,"is_reserved":false,"is_disabled":false,"rental_uris":{"android":"levelo://app?vid=dfa76b7e-741a-4edb-9a75-5948b5933f81","ios":"levelo://app?vid=dfa76b7e-741a-4edb-9a75-5948b5933f81"},"vehicle_type_id":"4","last_reported":1742184747,"current_range_meters":6800,"station_id":"","pricing_plan_id":"cebpf4jnsgd1na2vs0mg"},{"bike_id":"af0e35b3-8dbd-46c7-96d1-8852cbb490f2","system_id":"levelo_inurba_marseille","lat":43.26519,"lon":5.37305,"is_reserved":false,"is_disabled":false,"rental_uris":{"android":"levelo://app?vid=af0e35b3-8dbd-46c7-96d1-8852cbb490f2","ios":"levelo://app?vid=af0e35b3-8dbd-46c7-96d1-8852cbb490f2"},"vehicle_type_id":"4","last_reported":1742184747,"current_range_meters":6800,"station_id":"","pricing_plan_id":"cebpf4jnsgd1na2vs0mg"},{"bike_id":"5ae06dd0-2755-4738-8859-9c7788b1c03e","system_id":"levelo_inurba_marseille","lat":43.27954,"lon":5.41659,"is_reserved":false,"is_disabled":false,"rental_uris":{"android":"levelo://app?vid=5ae06dd0-2755-4738-8859-9c7788b1c03e","ios":"levelo://app?vid=5ae06dd0-2755-4738-8859-9c7788b1c03e"},"vehicle_type_id":"4","last_reported":1742184747,"current_range_meters":6800,"station_id":"ce4bho12rcd13ifvqh1g","pricing_plan_id":"cebpf4jnsgd1na2vs0mg"},{"bike_id":"d52f4dcf-4eb5-4fdd-8e1f-04b5309200a8","system_id":"levelo_inurba_marseille","lat":43.25869,"lon":5.39895,"is_reserved":false,"is_disabled":false,"rental_uris":{"android":"levelo://app?vid=d52f4dcf-4eb5-4fdd-8e1f-04b5309200a8","ios":"levelo://app?vid=d52f4dcf-4eb5-4fdd-8e1f-04b5309200a8"},"vehicle_type_id":"4","last_reported":1742184747,"current_range_meters":6800,"station_id":"ce4bhl92rcd13ifvqghg","pricing_plan_id":"cebpf4jnsgd1na2vs0mg"},{"bike_id":"3f23f4ce-3922-4172-96ed-bf44b4d6f9f5","system_id":"levelo_inurba_marseille","lat":43.26576,"lon":5.37309,"is_reserved":false,"is_disabled":false,"rental_uris":{"android":"levelo://app?vid=3f23f4ce-3922-4172-96ed-bf44b4d6f9f5","ios":"levelo://app?vid=3f23f4ce-3922-4172-96ed-bf44b4d6f9f5"},"vehicle_type_id":"4","last_reported":1742184747,"current_range_meters":6800,"station_id":"ce4bhg12rcd13ifvqf70","pricing_plan_id":"cebpf4jnsgd1na2vs0mg"},{"bike_id":"ca5460c0-6e43-4eb1-a4f5-db3f5051074b","system_id":"levelo_inurba_marseille","lat":43.314864,"lon":5.373016,"is_reserved":false,"is_disabled":false,"rental_uris":{"android":"levelo://app?vid=ca5460c0-6e43-4eb1-a4f5-db3f5051074b","ios":"levelo://app?vid=ca5460c0-6e43-4eb1-a4f5-db3f5051074b"},"vehicle_type_id":"4","last_reported":1742184747,"current_range_meters":6800,"station_id":"ce4bgt12rcd13ifvqcd0","pricing_plan_id":"cebpf4jnsgd1na2vs0mg"},{"bike_id":"25bb2ded-fba6-47cc-8f36-5c53dcdeec58","system_id":"levelo_inurba_marseille","lat":43.24169,"lon":5.39727,"is_reserved":false,"is_disabled":false,"rental_uris":{"android":"levelo://app?vid=25bb2ded-fba6-47cc-8f36-5c53dcdeec58","ios":"levelo://app?vid=25bb2ded-fba6-47cc-8f36-5c53dcdeec58"},"vehicle_type_id":"4","last_reported":1742184747,"current_range_meters":6800,"station_id":"ce4bhn12rcd13ifvqgpg","pricing_plan_id":"cebpf4jnsgd1na2vs0mg"},{"bike_id":"c1ccf9ca-98f0-4eaf-9c83-bb7b5133d125","system_id":"levelo_inurba_marseille","lat":43.321059,"lon":5.367714,"is_reserved":false,"is_disabled":false,"rental_uris":{"android":"levelo://app?vid=c1ccf9ca-98f0-4eaf-9c83-bb7b5133d125","ios":"levelo://app?vid=c1ccf9ca-98f0-4eaf-9c83-bb7b5133d125"},"vehicle_type_id":"4","last_reported":1742184747,"current_range_meters":6800,"station_id":"ce4bhrh2rcd13ifvqhug","pricing_plan_id":"cebpf4jnsgd1na2vs0mg"},{"bike_id":"5f813939-abd0-4724-aebe-15fd911368cc","system_id":"levelo_inurba_marseille","lat":43.23186,"lon":5.35567,"is_reserved":false,"is_disabled":false,"rental_uris":{"android":"levelo://app?vid=5f813939-abd0-4724-aebe-15fd911368cc","ios":"levelo://app?vid=5f813939-abd0-4724-aebe-15fd911368cc"},"vehicle_type_id":"4","last_reported":1742184747,"current_range_meters":6800,"station_id":"ce4bhu92rcd13ifvqi70","pricing_plan_id":"cebpf4jnsgd1na2vs0mg"},{"bike_id":"016dade5-305c-413b-b4da-d6bf6dde41c7","system_id":"levelo_inurba_marseille","lat":43.35821,"lon":5.35912,"is_reserved":false,"is_disabled":false,"rental_uris":{"android":"levelo://app?vid=016dade5-305c-413b-b4da-d6bf6dde41c7","ios":"levelo://app?vid=016dade5-305c-413b-b4da-d6bf6dde41c7"},"vehicle_type_id":"4","last_reported":1742184747,"current_range_meters":6800,"station_id":"","pricing_plan_id":"cebpf4jnsgd1na2vs0mg"},{"bike_id":"23f402d9-dfb0-47f6-9db8-b03d1756c728","system_id":"levelo_inurba_marseille","lat":43.2314,"lon":5.43727,"is_reserved":false,"is_disabled":false,"rental_uris":{"android":"levelo://app?vid=23f402d9-dfb0-47f6-9db8-b03d1756c728","ios":"levelo://app?vid=23f402d9-dfb0-47f6-9db8-b03d1756c728"},"vehicle_type_id":"4","last_reported":1742184747,"current_range_meters":7200,"station_id":"ce4bhmp2rcd13ifvqgog","pricing_plan_id":"cebpf4jnsgd1na2vs0mg"},{"bike_id":"555bf458-d1d6-4a2e-8876-071970d88ebd","system_id":"levelo_inurba_marseille","lat":43.26567,"lon":5.39017,"is_reserved":false,"is_disabled":false,"rental_uris":{"android":"levelo://app?vid=555bf458-d1d6-4a2e-8876-071970d88ebd","ios":"levelo://app?vid=555bf458-d1d6-4a2e-8876-071970d88ebd"},"vehicle_type_id":"4","last_reported":1742184747,"current_range_meters":7200,"station_id":"ce4bhe12rcd13ifvqf30","pricing_plan_id":"cebpf4jnsgd1na2vs0mg"},{"bike_id":"3fb590e8-1c38-4b01-b532-afad17657030","system_id":"levelo_inurba_marseille","lat":43.31173,"lon":5.38707,"is_reserved":false,"is_disabled":false,"rental_uris":{"android":"levelo://app?vid=3fb590e8-1c38-4b01-b532-afad17657030","ios":"levelo://app?vid=3fb590e8-1c38-4b01-b532-afad17657030"},"vehicle_type_id":"4","last_reported":1742184747,"current_range_meters":7200,"station_id":"ce4bgv12rcd13ifvqcp0","pricing_plan_id":"cebpf4jnsgd1na2vs0mg"},{"bike_id":"71b342b8-694b-40d5-99e8-310baf77a970","system_id":"levelo_inurba_marseille","lat":43.23054,"lon":5.35489,"is_reserved":false,"is_disabled":false,"rental_uris":{"android":"levelo://app?vid=71b342b8-694b-40d5-99e8-310baf77a970","ios":"levelo://app?vid=71b342b8-694b-40d5-99e8-310baf77a970"},"vehicle_type_id":"4","last_reported":1742184747,"current_range_meters":7200,"station_id":"cpo3342slgdg3j2ifvpg","pricing_plan_id":"cebpf4jnsgd1na2vs0mg"},{"bike_id":"6582e7c2-5aa5-4e6a-abc5-fa241e74aeb6","system_id":"levelo_inurba_marseille","lat":43.29886,"lon":5.43664,"is_reserved":false,"is_disabled":false,"rental_uris":{"android":"levelo://app?vid=6582e7c2-5aa5-4e6a-abc5-fa241e74aeb6","ios":"levelo://app?vid=6582e7c2-5aa5-4e6a-abc5-fa241e74aeb6"},"vehicle_type_id":"4","last_reported":1742184747,"current_range_meters":7200,"station_id":"ce4bhpp2rcd13ifvqhfg","pricing_plan_id":"cebpf4jnsgd1na2vs0mg"},{"bike_id":"fc071de1-2cc0-488a-a43e-f8037a5a9a49","system_id":"levelo_inurba_marseille","lat":43.23057,"lon":5.35506,"is_reserved":false,"is_disabled":false,"rental_uris":{"android":"levelo://app?vid=fc071de1-2cc0-488a-a43e-f8037a5a9a49","ios":"levelo://app?vid=fc071de1-2cc0-488a-a43e-f8037a5a9a49"},"vehicle_type_id":"4","last_reported":1742184747,"current_range_meters":7200,"station_id":"cpo3342slgdg3j2ifvpg","pricing_plan_id":"cebpf4jnsgd1na2vs0mg"},{"bike_id":"c4c002d3-8c70-4b36-8c7f-5d4af5808201","system_id":"levelo_inurba_marseille","lat":43.291955,"lon":5.39309,"is_reserved":false,"is_disabled":true,"rental_uris":{"android":"levelo://app?vid=c4c002d3-8c70-4b36-8c7f-5d4af5808201","ios":"levelo://app?vid=c4c002d3-8c70-4b36-8c7f-5d4af5808201"},"vehicle_type_id":"4","last_reported":1742184747,"current_range_meters":7200,"station_id":"ce4bh192rcd13ifvqdd0","pricing_plan_id":"cebpf4jnsgd1na2vs0mg"},{"bike_id":"174c9c66-b172-484e-b7f9-5752aa18aabf","system_id":"levelo_inurba_marseille","lat":43.23059,"lon":5.35495,"is_reserved":false,"is_disabled":false,"rental_uris":{"android":"levelo://app?vid=174c9c66-b172-484e-b7f9-5752aa18aabf","ios":"levelo://app?vid=174c9c66-b172-484e-b7f9-5752aa18aabf"},"vehicle_type_id":"4","last_reported":1742184747,"current_range_meters":7200,"station_id":"cpo3342slgdg3j2ifvpg","pricing_plan_id":"cebpf4jnsgd1na2vs0mg"},{"bike_id":"3e2e14c7-f5ed-4573-bf2b-84d788bc9968","system_id":"levelo_inurba_marseille","lat":43.33694,"lon":5.42102,"is_reserved":false,"is_disabled":false,"rental_uris":{"android":"levelo://app?vid=3e2e14c7-f5ed-4573-bf2b-84d788bc9968","ios":"levelo://app?vid=3e2e14c7-f5ed-4573-bf2b-84d788bc9968"},"vehicle_type_id":"4","last_reported":1742184747,"current_range_meters":7200,"station_id":"","pricing_plan_id":"cebpf4jnsgd1na2vs0mg"},{"bike_id":"6b93a5b2-01e6-4713-a550-6a242b167133","system_id":"levelo_inurba_marseille","lat":43.294857,"lon":5.392835,"is_reserved":false,"is_disabled":false,"rental_uris":{"android":"levelo://app?vid=6b93a5b2-01e6-4713-a550-6a242b167133","ios":"levelo://app?vid=6b93a5b2-01e6-4713-a550-6a242b167133"},"vehicle_type_id":"4","last_reported":1742184747,"current_range_meters":7200,"station_id":"ce4bh312rcd13ifvqdk0","pricing_plan_id":"cebpf4jnsgd1na2vs0mg"},{"bike_id":"563d178a-967a-4247-8d09-4a4bd8dce5c0","system_id":"levelo_inurba_marseille","lat":43.3108,"lon":5.38344,"is_reserved":false,"is_disabled":false,"rental_uris":{"android":"levelo://app?vid=563d178a-967a-4247-8d09-4a4bd8dce5c0","ios":"levelo://app?vid=563d178a-967a-4247-8d09-4a4bd8dce5c0"},"vehicle_type_id":"4","last_reported":1742184747,"current_range_meters":7200,"station_id":"ce4bgv92rcd13ifvqcr0","pricing_plan_id":"cebpf4jnsgd1na2vs0mg"},{"bike_id":"f876773a-fec2-4503-8f9a-c65b00603ae5","system_id":"levelo_inurba_marseille","lat":43.24074,"lon":5.377458,"is_reserved":false,"is_disabled":false,"rental_uris":{"android":"levelo://app?vid=f876773a-fec2-4503-8f9a-c65b00603ae5","ios":"levelo://app?vid=f876773a-fec2-4503-8f9a-c65b00603ae5"},"vehicle_type_id":"4","last_reported":1742184747,"current_range_meters":8000,"station_id":"ce4bhnp2rcd13ifvqgvg","pricing_plan_id":"cebpf4jnsgd1na2vs0mg"},{"bike_id":"30a3f5aa-8adb-417a-a2c9-dedb0fb285b3","system_id":"levelo_inurba_marseille","lat":43.28977,"lon":5.37843,"is_reserved":false,"is_disabled":true,"rental_uris":{"android":"levelo://app?vid=30a3f5aa-8adb-417a-a2c9-dedb0fb285b3","ios":"levelo://app?vid=30a3f5aa-8adb-417a-a2c9-dedb0fb285b3"},"vehicle_type_id":"4","last_reported":1742184747,"current_range_meters":8000,"station_id":"ce4bh9p2rcd13ifvqed0","pricing_plan_id":"cebpf4jnsgd1na2vs0mg"},{"bike_id":"f4806f6b-90cc-4357-8538-1ba6d4b0b5e4","system_id":"levelo_inurba_marseille","lat":43.23179,"lon":5.35578,"is_reserved":false,"is_disabled":false,"rental_uris":{"android":"levelo://app?vid=f4806f6b-90cc-4357-8538-1ba6d4b0b5e4","ios":"levelo://app?vid=f4806f6b-90cc-4357-8538-1ba6d4b0b5e4"},"vehicle_type_id":"4","last_reported":1742184747,"current_range_meters":8000,"station_id":"ce4bhu92rcd13ifvqi70","pricing_plan_id":"cebpf4jnsgd1na2vs0mg"},{"bike_id":"9e6dd499-ef79-469a-9c98-e4d20013679e","system_id":"levelo_inurba_marseille","lat":43.26794,"lon":5.40271,"is_reserved":false,"is_disabled":false,"rental_uris":{"android":"levelo://app?vid=9e6dd499-ef79-469a-9c98-e4d20013679e","ios":"levelo://app?vid=9e6dd499-ef79-469a-9c98-e4d20013679e"},"vehicle_type_id":"4","last_reported":1742184747,"current_range_meters":8000,"station_id":"ce501612rcd8frsf0b60","pricing_plan_id":"cebpf4jnsgd1na2vs0mg"},{"bike_id":"dd0e576d-74e2-413f-88a4-0de58301e2c5","system_id":"levelo_inurba_marseille","lat":43.323697,"lon":5.388853,"is_reserved":false,"is_disabled":false,"rental_uris":{"android":"levelo://app?vid=dd0e576d-74e2-413f-88a4-0de58301e2c5","ios":"levelo://app?vid=dd0e576d-74e2-413f-88a4-0de58301e2c5"},"vehicle_type_id":"4","last_reported":1742184747,"current_range_meters":8000,"station_id":"ce4bhqp2rcd13ifvqhog","pricing_plan_id":"cebpf4jnsgd1na2vs0mg"},{"bike_id":"7fb071f1-e1f6-44bd-a976-dc51c0f8c606","system_id":"levelo_inurba_marseille","lat":43.306041,"lon":5.372224,"is_reserved":false,"is_disabled":false,"rental_uris":{"android":"levelo://app?vid=7fb071f1-e1f6-44bd-a976-dc51c0f8c606","ios":"levelo://app?vid=7fb071f1-e1f6-44bd-a976-dc51c0f8c606"},"vehicle_type_id":"4","last_reported":1742184747,"current_range_meters":8000,"station_id":"ce4bgqh2rcd13ifvqc4g","pricing_plan_id":"cebpf4jnsgd1na2vs0mg"},{"bike_id":"c46bec50-c693-405c-875f-3f20e5871328","system_id":"levelo_inurba_marseille","lat":43.24186,"lon":5.39733,"is_reserved":false,"is_disabled":false,"rental_uris":{"android":"levelo://app?vid=c46bec50-c693-405c-875f-3f20e5871328","ios":"levelo://app?vid=c46bec50-c693-405c-875f-3f20e5871328"},"vehicle_type_id":"4","last_reported":1742184747,"current_range_meters":8000,"station_id":"ce4bhn12rcd13ifvqgpg","pricing_plan_id":"cebpf4jnsgd1na2vs0mg"},{"bike_id":"ec4c8fc9-399f-4f5a-b345-e19e03d811c3","system_id":"levelo_inurba_marseille","lat":43.27179,"lon":5.41014,"is_reserved":false,"is_disabled":true,"rental_uris":{"android":"levelo://app?vid=ec4c8fc9-399f-4f5a-b345-e19e03d811c3","ios":"levelo://app?vid=ec4c8fc9-399f-4f5a-b345-e19e03d811c3"},"vehicle_type_id":"4","last_reported":1742184747,"current_range_meters":8000,"station_id":"ce4bhl12rcd13ifvqgf0","pricing_plan_id":"cebpf4jnsgd1na2vs0mg"},{"bike_id":"63ccaa1b-7302-45e3-82a8-d904a69351b6","system_id":"levelo_inurba_marseille","lat":43.23959,"lon":5.36628,"is_reserved":false,"is_disabled":true,"rental_uris":{"android":"levelo://app?vid=63ccaa1b-7302-45e3-82a8-d904a69351b6","ios":"levelo://app?vid=63ccaa1b-7302-45e3-82a8-d904a69351b6"},"vehicle_type_id":"4","last_reported":1742184747,"current_range_meters":8000,"station_id":"ce4bhi12rcd13ifvqfp0","pricing_plan_id":"cebpf4jnsgd1na2vs0mg"},{"bike_id":"38de9398-607b-4e38-b181-28a0e85a0172","system_id":"levelo_inurba_marseille","lat":43.290274,"lon":5.386473,"is_reserved":false,"is_disabled":true,"rental_uris":{"android":"levelo://app?vid=38de9398-607b-4e38-b181-28a0e85a0172","ios":"levelo://app?vid=38de9398-607b-4e38-b181-28a0e85a0172"},"vehicle_type_id":"4","last_reported":1742184747,"current_range_meters":8000,"station_id":"ce4bh4p2rcd13ifvqe0g","pricing_plan_id":"cebpf4jnsgd1na2vs0mg"},{"bike_id":"c0d14a55-0953-4c59-b0cd-c76953277ffe","system_id":"levelo_inurba_marseille","lat":43.297306,"lon":5.447529,"is_reserved":false,"is_disabled":false,"rental_uris":{"android":"levelo://app?vid=c0d14a55-0953-4c59-b0cd-c76953277ffe","ios":"levelo://app?vid=c0d14a55-0953-4c59-b0cd-c76953277ffe"},"vehicle_type_id":"4","last_reported":1742184747,"current_range_meters":8000,"station_id":"","pricing_plan_id":"cebpf4jnsgd1na2vs0mg"},{"bike_id":"4ecd0338-07bc-4df0-962c-ae8b71424d53","system_id":"levelo_inurba_marseille","lat":43.26511,"lon":5.39556,"is_reserved":false,"is_disabled":false,"rental_uris":{"android":"levelo://app?vid=4ecd0338-07bc-4df0-962c-ae8b71424d53","ios":"levelo://app?vid=4ecd0338-07bc-4df0-962c-ae8b71424d53"},"vehicle_type_id":"4","last_reported":1742184747,"current_range_meters":8000,"station_id":"ce4bhi12rcd13ifvqfq0","pricing_plan_id":"cebpf4jnsgd1na2vs0mg"},{"bike_id":"103f4afa-f764-492a-9dc8-ef814a4170ed","system_id":"levelo_inurba_marseille","lat":43.31335,"lon":5.37503,"is_reserved":false,"is_disabled":false,"rental_uris":{"android":"levelo://app?vid=103f4afa-f764-492a-9dc8-ef814a4170ed","ios":"levelo://app?vid=103f4afa-f764-492a-9dc8-ef814a4170ed"},"vehicle_type_id":"4","last_reported":1742184747,"current_range_meters":8400,"station_id":"","pricing_plan_id":"cebpf4jnsgd1na2vs0mg"},{"bike_id":"0a75b9be-4843-49b8-b389-4ce031569179","system_id":"levelo_inurba_marseille","lat":43.27952,"lon":5.40791,"is_reserved":false,"is_disabled":false,"rental_uris":{"android":"levelo://app?vid=0a75b9be-4843-49b8-b389-4ce031569179","ios":"levelo://app?vid=0a75b9be-4843-49b8-b389-4ce031569179"},"vehicle_type_id":"4","last_reported":1742184747,"current_range_meters":8400,"station_id":"","pricing_plan_id":"cebpf4jnsgd1na2vs0mg"},{"bike_id":"02903d83-44bb-40cf-a804-6798606e7bc6","system_id":"levelo_inurba_marseille","lat":43.2481,"lon":5.37472,"is_reserved":false,"is_disabled":false,"rental_uris":{"android":"levelo://app?vid=02903d83-44bb-40cf-a804-6798606e7bc6","ios":"levelo://app?vid=02903d83-44bb-40cf-a804-6798606e7bc6"},"vehicle_type_id":"4","last_reported":1742184747,"current_range_meters":8400,"station_id":"ce4bhgh2rcd13ifvqfb0","pricing_plan_id":"cebpf4jnsgd1na2vs0mg"},{"bike_id":"7099c38a-2986-4dc9-9398-307b562f7d30","system_id":"levelo_inurba_marseille","lat":43.25944,"lon":5.40898,"is_reserved":false,"is_disabled":false,"rental_uris":{"android":"levelo://app?vid=7099c38a-2986-4dc9-9398-307b562f7d30","ios":"levelo://app?vid=7099c38a-2986-4dc9-9398-307b562f7d30"},"vehicle_type_id":"4","last_reported":1742184747,"current_range_meters":8400,"station_id":"ce4bhm92rcd13ifvqglg","pricing_plan_id":"cebpf4jnsgd1na2vs0mg"},{"bike_id":"9fbd07b4-f8ec-47c8-8b77-af3d624fa697","system_id":"levelo_inurba_marseille","lat":43.29903,"lon":5.43663,"is_reserved":false,"is_disabled":false,"rental_uris":{"android":"levelo://app?vid=9fbd07b4-f8ec-47c8-8b77-af3d624fa697","ios":"levelo://app?vid=9fbd07b4-f8ec-47c8-8b77-af3d624fa697"},"vehicle_type_id":"4","last_reported":1742184747,"current_range_meters":8400,"station_id":"ce4bhpp2rcd13ifvqhfg","pricing_plan_id":"cebpf4jnsgd1na2vs0mg"},{"bike_id":"3e494845-24d5-40cf-aeb6-ebebae12044d","system_id":"levelo_inurba_marseille","lat":43.31163,"lon":5.38715,"is_reserved":false,"is_disabled":false,"rental_uris":{"android":"levelo://app?vid=3e494845-24d5-40cf-aeb6-ebebae12044d","ios":"levelo://app?vid=3e494845-24d5-40cf-aeb6-ebebae12044d"},"vehicle_type_id":"4","last_reported":1742184747,"current_range_meters":8400,"station_id":"ce4bgv12rcd13ifvqcp0","pricing_plan_id":"cebpf4jnsgd1na2vs0mg"},{"bike_id":"d2140e8e-fc46-4fb8-a675-866428dbf6bb","system_id":"levelo_inurba_marseille","lat":43.23071,"lon":5.35491,"is_reserved":false,"is_disabled":false,"rental_uris":{"android":"levelo://app?vid=d2140e8e-fc46-4fb8-a675-866428dbf6bb","ios":"levelo://app?vid=d2140e8e-fc46-4fb8-a675-866428dbf6bb"},"vehicle_type_id":"4","last_reported":1742184747,"current_range_meters":8400,"station_id":"cpo3342slgdg3j2ifvpg","pricing_plan_id":"cebpf4jnsgd1na2vs0mg"},{"bike_id":"2e93b8fd-3cc5-47fd-be6f-2a7e66fa1616","system_id":"levelo_inurba_marseille","lat":43.26551,"lon":5.39028,"is_reserved":false,"is_disabled":false,"rental_uris":{"android":"levelo://app?vid=2e93b8fd-3cc5-47fd-be6f-2a7e66fa1616","ios":"levelo://app?vid=2e93b8fd-3cc5-47fd-be6f-2a7e66fa1616"},"vehicle_type_id":"4","last_reported":1742184747,"current_range_meters":8400,"station_id":"ce4bhe12rcd13ifvqf30","pricing_plan_id":"cebpf4jnsgd1na2vs0mg"},{"bike_id":"ab56b08b-bd30-4452-9154-c93ed0756dd8","system_id":"levelo_inurba_marseille","lat":43.27483,"lon":5.42471,"is_reserved":false,"is_disabled":false,"rental_uris":{"android":"levelo://app?vid=ab56b08b-bd30-4452-9154-c93ed0756dd8","ios":"levelo://app?vid=ab56b08b-bd30-4452-9154-c93ed0756dd8"},"vehicle_type_id":"4","last_reported":1742184747,"current_range_meters":8400,"station_id":"ce4bhn92rcd13ifvqgrg","pricing_plan_id":"cebpf4jnsgd1na2vs0mg"},{"bike_id":"886b1561-ec94-4994-aa50-d2b92f6f05ff","system_id":"levelo_inurba_marseille","lat":43.24991,"lon":5.38932,"is_reserved":false,"is_disabled":false,"rental_uris":{"android":"levelo://app?vid=886b1561-ec94-4994-aa50-d2b92f6f05ff","ios":"levelo://app?vid=886b1561-ec94-4994-aa50-d2b92f6f05ff"},"vehicle_type_id":"4","last_reported":1742184747,"current_range_meters":8800,"station_id":"ce4bhgp2rcd13ifvqfd0","pricing_plan_id":"cebpf4jnsgd1na2vs0mg"},{"bike_id":"2e6c3038-6eb8-46ce-bd43-53f0733e5db9","system_id":"levelo_inurba_marseille","lat":43.321,"lon":5.36791,"is_reserved":false,"is_disabled":false,"rental_uris":{"android":"levelo://app?vid=2e6c3038-6eb8-46ce-bd43-53f0733e5db9","ios":"levelo://app?vid=2e6c3038-6eb8-46ce-bd43-53f0733e5db9"},"vehicle_type_id":"4","last_reported":1742184747,"current_range_meters":8800,"station_id":"ce4bhrh2rcd13ifvqhug","pricing_plan_id":"cebpf4jnsgd1na2vs0mg"},{"bike_id":"b3bbb525-edbb-468b-83a2-3a78a4198345","system_id":"levelo_inurba_marseille","lat":43.28572,"lon":5.39482,"is_reserved":false,"is_disabled":false,"rental_uris":{"android":"levelo://app?vid=b3bbb525-edbb-468b-83a2-3a78a4198345","ios":"levelo://app?vid=b3bbb525-edbb-468b-83a2-3a78a4198345"},"vehicle_type_id":"4","last_reported":1742184747,"current_range_meters":8800,"station_id":"ce4bh292rcd13ifvqdg0","pricing_plan_id":"cebpf4jnsgd1na2vs0mg"},{"bike_id":"10a5dfbf-3aa3-4cf3-ac17-cd4d12fd6782","system_id":"levelo_inurba_marseille","lat":43.3235,"lon":5.36753,"is_reserved":false,"is_disabled":false,"rental_uris":{"android":"levelo://app?vid=10a5dfbf-3aa3-4cf3-ac17-cd4d12fd6782","ios":"levelo://app?vid=10a5dfbf-3aa3-4cf3-ac17-cd4d12fd6782"},"vehicle_type_id":"4","last_reported":1742184747,"current_range_meters":8800,"station_id":"ce4bhsh2rcd13ifvqi2g","pricing_plan_id":"cebpf4jnsgd1na2vs0mg"},{"bike_id":"4b1426cb-648f-45df-a095-ae89ed465b04","system_id":"levelo_inurba_marseille","lat":43.25023,"lon":5.38949,"is_reserved":false,"is_disabled":false,"rental_uris":{"android":"levelo://app?vid=4b1426cb-648f-45df-a095-ae89ed465b04","ios":"levelo://app?vid=4b1426cb-648f-45df-a095-ae89ed465b04"},"vehicle_type_id":"4","last_reported":1742184747,"current_range_meters":8800,"station_id":"ce4bhgp2rcd13ifvqfd0","pricing_plan_id":"cebpf4jnsgd1na2vs0mg"},{"bike_id":"2f97e577-a7f2-47bf-ab29-204992553693","system_id":"levelo_inurba_marseille","lat":43.24037,"lon":5.37773,"is_reserved":false,"is_disabled":false,"rental_uris":{"android":"levelo://app?vid=2f97e577-a7f2-47bf-ab29-204992553693","ios":"levelo://app?vid=2f97e577-a7f2-47bf-ab29-204992553693"},"vehicle_type_id":"4","last_reported":1742184747,"current_range_meters":8800,"station_id":"ce4bhnp2rcd13ifvqgvg","pricing_plan_id":"cebpf4jnsgd1na2vs0mg"},{"bike_id":"18f33ae7-3acb-407d-a5a7-4c104a302f2a","system_id":"levelo_inurba_marseille","lat":43.27619,"lon":5.36108,"is_reserved":false,"is_disabled":false,"rental_uris":{"android":"levelo://app?vid=18f33ae7-3acb-407d-a5a7-4c104a302f2a","ios":"levelo://app?vid=18f33ae7-3acb-407d-a5a7-4c104a302f2a"},"vehicle_type_id":"4","last_reported":1742184747,"current_range_meters":8800,"station_id":"ce4bgj92rcd13ifvqbe0","pricing_plan_id":"cebpf4jnsgd1na2vs0mg"},{"bike_id":"41d856e8-014d-42b4-85e9-2a0a980f469f","system_id":"levelo_inurba_marseille","lat":43.23198,"lon":5.35554,"is_reserved":false,"is_disabled":false,"rental_uris":{"android":"levelo://app?vid=41d856e8-014d-42b4-85e9-2a0a980f469f","ios":"levelo://app?vid=41d856e8-014d-42b4-85e9-2a0a980f469f"},"vehicle_type_id":"4","last_reported":1742184747,"current_range_meters":9200,"station_id":"ce4bhu92rcd13ifvqi70","pricing_plan_id":"cebpf4jnsgd1na2vs0mg"},{"bike_id":"b881a216-a8e0-47ad-9c6d-ce879391627c","system_id":"levelo_inurba_marseille","lat":43.29951,"lon":5.3654,"is_reserved":false,"is_disabled":true,"rental_uris":{"android":"levelo://app?vid=b881a216-a8e0-47ad-9c6d-ce879391627c","ios":"levelo://app?vid=b881a216-a8e0-47ad-9c6d-ce879391627c"},"vehicle_type_id":"4","last_reported":1742184747,"current_range_meters":9200,"station_id":"ce4bgm92rcd13ifvqbr0","pricing_plan_id":"cebpf4jnsgd1na2vs0mg"},{"bike_id":"b0d2cd6b-a9b2-49f5-b582-3051ba923f33","system_id":"levelo_inurba_marseille","lat":43.25069,"lon":5.39514,"is_reserved":false,"is_disabled":false,"rental_uris":{"android":"levelo://app?vid=b0d2cd6b-a9b2-49f5-b582-3051ba923f33","ios":"levelo://app?vid=b0d2cd6b-a9b2-49f5-b582-3051ba923f33"},"vehicle_type_id":"4","last_reported":1742184747,"current_range_meters":9200,"station_id":"ce4bhm12rcd13ifvqgkg","pricing_plan_id":"cebpf4jnsgd1na2vs0mg"},{"bike_id":"d6cd0df4-ca0d-407c-ac60-8420479f0dd1","system_id":"levelo_inurba_marseille","lat":43.23055,"lon":5.355,"is_reserved":false,"is_disabled":false,"rental_uris":{"android":"levelo://app?vid=d6cd0df4-ca0d-407c-ac60-8420479f0dd1","ios":"levelo://app?vid=d6cd0df4-ca0d-407c-ac60-8420479f0dd1"},"vehicle_type_id":"4","last_reported":1742184747,"current_range_meters":9200,"station_id":"cpo3342slgdg3j2ifvpg","pricing_plan_id":"cebpf4jnsgd1na2vs0mg"},{"bike_id":"23d4689b-80a0-4957-9106-f572be80fe0e","system_id":"levelo_inurba_marseille","lat":43.27495,"lon":5.42448,"is_reserved":false,"is_disabled":false,"rental_uris":{"android":"levelo://app?vid=23d4689b-80a0-4957-9106-f572be80fe0e","ios":"levelo://app?vid=23d4689b-80a0-4957-9106-f572be80fe0e"},"vehicle_type_id":"4","last_reported":1742184747,"current_range_meters":9200,"station_id":"ce4bhn92rcd13ifvqgrg","pricing_plan_id":"cebpf4jnsgd1na2vs0mg"},{"bike_id":"5a61a616-683f-484d-83ae-d7f61143d634","system_id":"levelo_inurba_marseille","lat":43.29515,"lon":5.42486,"is_reserved":false,"is_disabled":false,"rental_uris":{"android":"levelo://app?vid=5a61a616-683f-484d-83ae-d7f61143d634","ios":"levelo://app?vid=5a61a616-683f-484d-83ae-d7f61143d634"},"vehicle_type_id":"4","last_reported":1742184747,"current_range_meters":9200,"station_id":"","pricing_plan_id":"cebpf4jnsgd1na2vs0mg"},{"bike_id":"7fdaba83-9e71-4d79-962d-8e9bcb4ba61b","system_id":"levelo_inurba_marseille","lat":43.23192,"lon":5.35521,"is_reserved":false,"is_disabled":false,"rental_uris":{"android":"levelo://app?vid=7fdaba83-9e71-4d79-962d-8e9bcb4ba61b","ios":"levelo://app?vid=7fdaba83-9e71-4d79-962d-8e9bcb4ba61b"},"vehicle_type_id":"4","last_reported":1742184747,"current_range_meters":9200,"station_id":"ce4bhu92rcd13ifvqi70","pricing_plan_id":"cebpf4jnsgd1na2vs0mg"},{"bike_id":"659cfc6c-f2ba-4758-b6de-6943e7c2dc48","system_id":"levelo_inurba_marseille","lat":43.286978,"lon":5.373904,"is_reserved":false,"is_disabled":true,"rental_uris":{"android":"levelo://app?vid=659cfc6c-f2ba-4758-b6de-6943e7c2dc48","ios":"levelo://app?vid=659cfc6c-f2ba-4758-b6de-6943e7c2dc48"},"vehicle_type_id":"4","last_reported":1742184747,"current_range_meters":9200,"station_id":"ce4bh3p2rcd13ifvqdq0","pricing_plan_id":"cebpf4jnsgd1na2vs0mg"},{"bike_id":"8fa7ea8d-156d-42f2-95b3-ae3567fc37ee","system_id":"levelo_inurba_marseille","lat":43.23196,"lon":5.39995,"is_reserved":false,"is_disabled":false,"rental_uris":{"android":"levelo://app?vid=8fa7ea8d-156d-42f2-95b3-ae3567fc37ee","ios":"levelo://app?vid=8fa7ea8d-156d-42f2-95b3-ae3567fc37ee"},"vehicle_type_id":"4","last_reported":1742184747,"current_range_meters":9200,"station_id":"ce4bhn12rcd13ifvqgqg","pricing_plan_id":"cebpf4jnsgd1na2vs0mg"},{"bike_id":"7744a398-14ee-4b67-a148-5c9c6471def4","system_id":"levelo_inurba_marseille","lat":43.254874,"lon":5.376577,"is_reserved":false,"is_disabled":true,"rental_uris":{"android":"levelo://app?vid=7744a398-14ee-4b67-a148-5c9c6471def4","ios":"levelo://app?vid=7744a398-14ee-4b67-a148-5c9c6471def4"},"vehicle_type_id":"4","last_reported":1742184747,"current_range_meters":9200,"station_id":"ce4bhh12rcd13ifvqff0","pricing_plan_id":"cebpf4jnsgd1na2vs0mg"},{"bike_id":"801a9631-aa14-450a-a1ac-5b280d35cdcb","system_id":"levelo_inurba_marseille","lat":43.28688,"lon":5.39976,"is_reserved":false,"is_disabled":false,"rental_uris":{"android":"levelo://app?vid=801a9631-aa14-450a-a1ac-5b280d35cdcb","ios":"levelo://app?vid=801a9631-aa14-450a-a1ac-5b280d35cdcb"},"vehicle_type_id":"4","last_reported":1742184747,"current_range_meters":9200,"station_id":"ce4bho92rcd13ifvqh3g","pricing_plan_id":"cebpf4jnsgd1na2vs0mg"},{"bike_id":"1f9a9668-f20a-4b32-9dce-dfb024996834","system_id":"levelo_inurba_marseille","lat":43.29014,"lon":5.3865,"is_reserved":false,"is_disabled":true,"rental_uris":{"android":"levelo://app?vid=1f9a9668-f20a-4b32-9dce-dfb024996834","ios":"levelo://app?vid=1f9a9668-f20a-4b32-9dce-dfb024996834"},"vehicle_type_id":"4","last_reported":1742184747,"current_range_meters":9200,"station_id":"ce4bh4p2rcd13ifvqe0g","pricing_plan_id":"cebpf4jnsgd1na2vs0mg"},{"bike_id":"49fea2c2-9361-4fb5-954f-b44bbf354e43","system_id":"levelo_inurba_marseille","lat":43.323586,"lon":5.367546,"is_reserved":false,"is_disabled":false,"rental_uris":{"android":"levelo://app?vid=49fea2c2-9361-4fb5-954f-b44bbf354e43","ios":"levelo://app?vid=49fea2c2-9361-4fb5-954f-b44bbf354e43"},"vehicle_type_id":"4","last_reported":1742184747,"current_range_meters":9200,"station_id":"ce4bhsh2rcd13ifvqi2g","pricing_plan_id":"cebpf4jnsgd1na2vs0mg"},{"bike_id":"a8feeff1-ea1a-4525-810d-d35e5f3e0edd","system_id":"levelo_inurba_marseille","lat":43.25862,"lon":5.39901,"is_reserved":false,"is_disabled":false,"rental_uris":{"android":"levelo://app?vid=a8feeff1-ea1a-4525-810d-d35e5f3e0edd","ios":"levelo://app?vid=a8feeff1-ea1a-4525-810d-d35e5f3e0edd"},"vehicle_type_id":"4","last_reported":1742184747,"current_range_meters":9200,"station_id":"ce4bhl92rcd13ifvqghg","pricing_plan_id":"cebpf4jnsgd1na2vs0mg"},{"bike_id":"eb9eafbf-18d1-4f66-b457-7c8dee269ad7","system_id":"levelo_inurba_marseille","lat":43.27611,"lon":5.36125,"is_reserved":false,"is_disabled":false,"rental_uris":{"android":"levelo://app?vid=eb9eafbf-18d1-4f66-b457-7c8dee269ad7","ios":"levelo://app?vid=eb9eafbf-18d1-4f66-b457-7c8dee269ad7"},"vehicle_type_id":"4","last_reported":1742184747,"current_range_meters":9600,"station_id":"ce4bgj92rcd13ifvqbe0","pricing_plan_id":"cebpf4jnsgd1na2vs0mg"},{"bike_id":"891a1a97-2701-4a59-8ee2-0aa98fac2d3e","system_id":"levelo_inurba_marseille","lat":43.32359,"lon":5.38889,"is_reserved":false,"is_disabled":false,"rental_uris":{"android":"levelo://app?vid=891a1a97-2701-4a59-8ee2-0aa98fac2d3e","ios":"levelo://app?vid=891a1a97-2701-4a59-8ee2-0aa98fac2d3e"},"vehicle_type_id":"4","last_reported":1742184747,"current_range_meters":9600,"station_id":"ce4bhqp2rcd13ifvqhog","pricing_plan_id":"cebpf4jnsgd1na2vs0mg"},{"bike_id":"c551f2e0-5f8e-4cc9-9464-06b9d0710638","system_id":"levelo_inurba_marseille","lat":43.231552,"lon":5.437129,"is_reserved":false,"is_disabled":false,"rental_uris":{"android":"levelo://app?vid=c551f2e0-5f8e-4cc9-9464-06b9d0710638","ios":"levelo://app?vid=c551f2e0-5f8e-4cc9-9464-06b9d0710638"},"vehicle_type_id":"4","last_reported":1742184747,"current_range_meters":9600,"station_id":"ce4bhmp2rcd13ifvqgog","pricing_plan_id":"cebpf4jnsgd1na2vs0mg"},{"bike_id":"ce157c99-2b38-44c1-b6a5-db708ae225d5","system_id":"levelo_inurba_marseille","lat":43.240775,"lon":5.377409,"is_reserved":false,"is_disabled":false,"rental_uris":{"android":"levelo://app?vid=ce157c99-2b38-44c1-b6a5-db708ae225d5","ios":"levelo://app?vid=ce157c99-2b38-44c1-b6a5-db708ae225d5"},"vehicle_type_id":"4","last_reported":1742184747,"current_range_meters":9600,"station_id":"ce4bhnp2rcd13ifvqgvg","pricing_plan_id":"cebpf4jnsgd1na2vs0mg"},{"bike_id":"079be2be-a608-46fe-887d-3f85252cbb7f","system_id":"levelo_inurba_marseille","lat":43.28628,"lon":5.35088,"is_reserved":false,"is_disabled":false,"rental_uris":{"android":"levelo://app?vid=079be2be-a608-46fe-887d-3f85252cbb7f","ios":"levelo://app?vid=079be2be-a608-46fe-887d-3f85252cbb7f"},"vehicle_type_id":"4","last_reported":1742184747,"current_range_meters":9600,"station_id":"ce4bhch2rcd13ifvqeug","pricing_plan_id":"cebpf4jnsgd1na2vs0mg"},{"bike_id":"502a3b3e-8957-45c1-a4dd-1cb7cf5ee2e2","system_id":"levelo_inurba_marseille","lat":43.321138,"lon":5.367774,"is_reserved":false,"is_disabled":false,"rental_uris":{"android":"levelo://app?vid=502a3b3e-8957-45c1-a4dd-1cb7cf5ee2e2","ios":"levelo://app?vid=502a3b3e-8957-45c1-a4dd-1cb7cf5ee2e2"},"vehicle_type_id":"4","last_reported":1742184747,"current_range_meters":9600,"station_id":"ce4bhrh2rcd13ifvqhug","pricing_plan_id":"cebpf4jnsgd1na2vs0mg"},{"bike_id":"b12504a2-a649-4e69-8759-4dc56a1cd8bd","system_id":"levelo_inurba_marseille","lat":43.279071,"lon":5.382196,"is_reserved":false,"is_disabled":false,"rental_uris":{"android":"levelo://app?vid=b12504a2-a649-4e69-8759-4dc56a1cd8bd","ios":"levelo://app?vid=b12504a2-a649-4e69-8759-4dc56a1cd8bd"},"vehicle_type_id":"4","last_reported":1742184747,"current_range_meters":9600,"station_id":"","pricing_plan_id":"cebpf4jnsgd1na2vs0mg"},{"bike_id":"d258768a-f24f-4c44-97f2-bb4dadff68d3","system_id":"levelo_inurba_marseille","lat":43.31164,"lon":5.38707,"is_reserved":false,"is_disabled":false,"rental_uris":{"android":"levelo://app?vid=d258768a-f24f-4c44-97f2-bb4dadff68d3","ios":"levelo://app?vid=d258768a-f24f-4c44-97f2-bb4dadff68d3"},"vehicle_type_id":"4","last_reported":1742184747,"current_range_meters":9600,"station_id":"ce4bgv12rcd13ifvqcp0","pricing_plan_id":"cebpf4jnsgd1na2vs0mg"},{"bike_id":"ea3faa2e-2727-4cd3-a354-57574da4893b","system_id":"levelo_inurba_marseille","lat":43.24176,"lon":5.36379,"is_reserved":false,"is_disabled":false,"rental_uris":{"android":"levelo://app?vid=ea3faa2e-2727-4cd3-a354-57574da4893b","ios":"levelo://app?vid=ea3faa2e-2727-4cd3-a354-57574da4893b"},"vehicle_type_id":"4","last_reported":1742184747,"current_range_meters":9600,"station_id":"cpo36qri1sfpv3e86is0","pricing_plan_id":"cebpf4jnsgd1na2vs0mg"},{"bike_id":"845d5ebc-e22c-4e30-b410-77f73d55732a","system_id":"levelo_inurba_marseille","lat":43.29749,"lon":5.44725,"is_reserved":false,"is_disabled":false,"rental_uris":{"android":"levelo://app?vid=845d5ebc-e22c-4e30-b410-77f73d55732a","ios":"levelo://app?vid=845d5ebc-e22c-4e30-b410-77f73d55732a"},"vehicle_type_id":"4","last_reported":1742184747,"current_range_meters":9600,"station_id":"","pricing_plan_id":"cebpf4jnsgd1na2vs0mg"},{"bike_id":"fc137773-94c5-4c85-b362-abc199012fb6","system_id":"levelo_inurba_marseille","lat":43.27607,"lon":5.36131,"is_reserved":false,"is_disabled":false,"rental_uris":{"android":"levelo://app?vid=fc137773-94c5-4c85-b362-abc199012fb6","ios":"levelo://app?vid=fc137773-94c5-4c85-b362-abc199012fb6"},"vehicle_type_id":"4","last_reported":1742184747,"current_range_meters":9600,"station_id":"ce4bgj92rcd13ifvqbe0","pricing_plan_id":"cebpf4jnsgd1na2vs0mg"},{"bike_id":"ec9d1174-e42a-443d-b0b1-7488f75aa02a","system_id":"levelo_inurba_marseille","lat":43.25855,"lon":5.39899,"is_reserved":false,"is_disabled":false,"rental_uris":{"android":"levelo://app?vid=ec9d1174-e42a-443d-b0b1-7488f75aa02a","ios":"levelo://app?vid=ec9d1174-e42a-443d-b0b1-7488f75aa02a"},"vehicle_type_id":"4","last_reported":1742184747,"current_range_meters":10000,"station_id":"ce4bhl92rcd13ifvqghg","pricing_plan_id":"cebpf4jnsgd1na2vs0mg"},{"bike_id":"e789255e-840e-4e9d-926a-462347b0eff9","system_id":"levelo_inurba_marseille","lat":43.287048,"lon":5.399893,"is_reserved":false,"is_disabled":false,"rental_uris":{"android":"levelo://app?vid=e789255e-840e-4e9d-926a-462347b0eff9","ios":"levelo://app?vid=e789255e-840e-4e9d-926a-462347b0eff9"},"vehicle_type_id":"4","last_reported":1742184747,"current_range_meters":10000,"station_id":"ce4bho92rcd13ifvqh3g","pricing_plan_id":"cebpf4jnsgd1na2vs0mg"},{"bike_id":"dc361c07-533b-4914-b8db-6c401e1e37b4","system_id":"levelo_inurba_marseille","lat":43.306417,"lon":5.400701,"is_reserved":false,"is_disabled":false,"rental_uris":{"android":"levelo://app?vid=dc361c07-533b-4914-b8db-6c401e1e37b4","ios":"levelo://app?vid=dc361c07-533b-4914-b8db-6c401e1e37b4"},"vehicle_type_id":"4","last_reported":1742184747,"current_range_meters":10000,"station_id":"ce4bh112rcd13ifvqda0","pricing_plan_id":"cebpf4jnsgd1na2vs0mg"},{"bike_id":"9de38d72-396a-428c-a1ae-76d0819616e3","system_id":"levelo_inurba_marseille","lat":43.28443,"lon":5.35886,"is_reserved":false,"is_disabled":false,"rental_uris":{"android":"levelo://app?vid=9de38d72-396a-428c-a1ae-76d0819616e3","ios":"levelo://app?vid=9de38d72-396a-428c-a1ae-76d0819616e3"},"vehicle_type_id":"4","last_reported":1742184747,"current_range_meters":10000,"station_id":"ce4bhah2rcd13ifvqei0","pricing_plan_id":"cebpf4jnsgd1na2vs0mg"},{"bike_id":"1a14b2c2-ed22-4e62-b78b-9923e4e284a3","system_id":"levelo_inurba_marseille","lat":43.28719,"lon":5.37931,"is_reserved":false,"is_disabled":false,"rental_uris":{"android":"levelo://app?vid=1a14b2c2-ed22-4e62-b78b-9923e4e284a3","ios":"levelo://app?vid=1a14b2c2-ed22-4e62-b78b-9923e4e284a3"},"vehicle_type_id":"4","last_reported":1742184747,"current_range_meters":10000,"station_id":"ce4bh9p2rcd13ifvqec0","pricing_plan_id":"cebpf4jnsgd1na2vs0mg"},{"bike_id":"5f3ca911-1fe6-4037-ac11-b79d6d514daf","system_id":"levelo_inurba_marseille","lat":43.309276,"lon":5.401511,"is_reserved":false,"is_disabled":false,"rental_uris":{"android":"levelo://app?vid=5f3ca911-1fe6-4037-ac11-b79d6d514daf","ios":"levelo://app?vid=5f3ca911-1fe6-4037-ac11-b79d6d514daf"},"vehicle_type_id":"4","last_reported":1742184747,"current_range_meters":10000,"station_id":"ce4bgvp2rcd13ifvqct0","pricing_plan_id":"cebpf4jnsgd1na2vs0mg"},{"bike_id":"a03e208e-94c1-4a5f-9d61-9150c74ebe8c","system_id":"levelo_inurba_marseille","lat":43.32352,"lon":5.36763,"is_reserved":false,"is_disabled":false,"rental_uris":{"android":"levelo://app?vid=a03e208e-94c1-4a5f-9d61-9150c74ebe8c","ios":"levelo://app?vid=a03e208e-94c1-4a5f-9d61-9150c74ebe8c"},"vehicle_type_id":"4","last_reported":1742184747,"current_range_meters":10000,"station_id":"ce4bhsh2rcd13ifvqi2g","pricing_plan_id":"cebpf4jnsgd1na2vs0mg"},{"bike_id":"bf41f77d-df19-47c8-bc1c-1ffd015e1b96","system_id":"levelo_inurba_marseille","lat":43.28709,"lon":5.37393,"is_reserved":false,"is_disabled":false,"rental_uris":{"android":"levelo://app?vid=bf41f77d-df19-47c8-bc1c-1ffd015e1b96","ios":"levelo://app?vid=bf41f77d-df19-47c8-bc1c-1ffd015e1b96"},"vehicle_type_id":"4","last_reported":1742184747,"current_range_meters":10000,"station_id":"ce4bh3p2rcd13ifvqdq0","pricing_plan_id":"cebpf4jnsgd1na2vs0mg"},{"bike_id":"54580f69-6b9e-42ce-b607-ee937352a3bd","system_id":"levelo_inurba_marseille","lat":43.24637,"lon":5.38911,"is_reserved":false,"is_disabled":false,"rental_uris":{"android":"levelo://app?vid=54580f69-6b9e-42ce-b607-ee937352a3bd","ios":"levelo://app?vid=54580f69-6b9e-42ce-b607-ee937352a3bd"},"vehicle_type_id":"4","last_reported":1742184747,"current_range_meters":10000,"station_id":"ce4bhg12rcd13ifvqf60","pricing_plan_id":"cebpf4jnsgd1na2vs0mg"},{"bike_id":"5189287a-880a-46a1-bc5e-d4c1d9f06a31","system_id":"levelo_inurba_marseille","lat":43.240785,"lon":5.377534,"is_reserved":false,"is_disabled":false,"rental_uris":{"android":"levelo://app?vid=5189287a-880a-46a1-bc5e-d4c1d9f06a31","ios":"levelo://app?vid=5189287a-880a-46a1-bc5e-d4c1d9f06a31"},"vehicle_type_id":"4","last_reported":1742184747,"current_range_meters":10000,"station_id":"ce4bhnp2rcd13ifvqgvg","pricing_plan_id":"cebpf4jnsgd1na2vs0mg"},{"bike_id":"db819791-27c1-48de-91ad-79208088cf91","system_id":"levelo_inurba_marseille","lat":43.23178,"lon":5.39976,"is_reserved":false,"is_disabled":false,"rental_uris":{"android":"levelo://app?vid=db819791-27c1-48de-91ad-79208088cf91","ios":"levelo://app?vid=db819791-27c1-48de-91ad-79208088cf91"},"vehicle_type_id":"4","last_reported":1742184747,"current_range_meters":10000,"station_id":"ce4bhn12rcd13ifvqgqg","pricing_plan_id":"cebpf4jnsgd1na2vs0mg"},{"bike_id":"dba0ecfc-0bb7-4670-ab8e-e4c122a8d90e","system_id":"levelo_inurba_marseille","lat":43.276314,"lon":5.424891,"is_reserved":false,"is_disabled":false,"rental_uris":{"android":"levelo://app?vid=dba0ecfc-0bb7-4670-ab8e-e4c122a8d90e","ios":"levelo://app?vid=dba0ecfc-0bb7-4670-ab8e-e4c122a8d90e"},"vehicle_type_id":"4","last_reported":1742184747,"current_range_meters":10000,"station_id":"","pricing_plan_id":"cebpf4jnsgd1na2vs0mg"},{"bike_id":"ef73c0a8-9f79-486c-afc3-8c0a9b5935ab","system_id":"levelo_inurba_marseille","lat":43.295501,"lon":5.422873,"is_reserved":false,"is_disabled":false,"rental_uris":{"android":"levelo://app?vid=ef73c0a8-9f79-486c-afc3-8c0a9b5935ab","ios":"levelo://app?vid=ef73c0a8-9f79-486c-afc3-8c0a9b5935ab"},"vehicle_type_id":"4","last_reported":1742184747,"current_range_meters":10000,"station_id":"ce4bhph2rcd13ifvqhdg","pricing_plan_id":"cebpf4jnsgd1na2vs0mg"},{"bike_id":"024afde3-4c7e-4c72-9b6e-ff99a57526a9","system_id":"levelo_inurba_marseille","lat":43.23051,"lon":5.35505,"is_reserved":false,"is_disabled":false,"rental_uris":{"android":"levelo://app?vid=024afde3-4c7e-4c72-9b6e-ff99a57526a9","ios":"levelo://app?vid=024afde3-4c7e-4c72-9b6e-ff99a57526a9"},"vehicle_type_id":"4","last_reported":1742184747,"current_range_meters":10800,"station_id":"cpo3342slgdg3j2ifvpg","pricing_plan_id":"cebpf4jnsgd1na2vs0mg"},{"bike_id":"f6ea2adf-076d-4022-9ca9-c0c59511cfd5","system_id":"levelo_inurba_marseille","lat":43.23181,"lon":5.35592,"is_reserved":false,"is_disabled":false,"rental_uris":{"android":"levelo://app?vid=f6ea2adf-076d-4022-9ca9-c0c59511cfd5","ios":"levelo://app?vid=f6ea2adf-076d-4022-9ca9-c0c59511cfd5"},"vehicle_type_id":"4","last_reported":1742184747,"current_range_meters":10800,"station_id":"ce4bhu92rcd13ifvqi70","pricing_plan_id":"cebpf4jnsgd1na2vs0mg"},{"bike_id":"13e278b3-c9cb-4550-ad8b-8b4c511558ae","system_id":"levelo_inurba_marseille","lat":43.27446,"lon":5.40913,"is_reserved":false,"is_disabled":false,"rental_uris":{"android":"levelo://app?vid=13e278b3-c9cb-4550-ad8b-8b4c511558ae","ios":"levelo://app?vid=13e278b3-c9cb-4550-ad8b-8b4c511558ae"},"vehicle_type_id":"4","last_reported":1742184747,"current_range_meters":10800,"station_id":"","pricing_plan_id":"cebpf4jnsgd1na2vs0mg"},{"bike_id":"77cde221-2746-4ce8-9bb2-82c3a2d59de7","system_id":"levelo_inurba_marseille","lat":43.29892,"lon":5.38132,"is_reserved":false,"is_disabled":true,"rental_uris":{"android":"levelo://app?vid=77cde221-2746-4ce8-9bb2-82c3a2d59de7","ios":"levelo://app?vid=77cde221-2746-4ce8-9bb2-82c3a2d59de7"},"vehicle_type_id":"4","last_reported":1742184747,"current_range_meters":10800,"station_id":"ce4bgj12rcd13ifvqbc0","pricing_plan_id":"cebpf4jnsgd1na2vs0mg"},{"bike_id":"39337130-be29-4abf-92aa-a979db3701f0","system_id":"levelo_inurba_marseille","lat":43.28738,"lon":5.3608,"is_reserved":false,"is_disabled":false,"rental_uris":{"android":"levelo://app?vid=39337130-be29-4abf-92aa-a979db3701f0","ios":"levelo://app?vid=39337130-be29-4abf-92aa-a979db3701f0"},"vehicle_type_id":"4","last_reported":1742184747,"current_range_meters":10800,"station_id":"cki0cbj6b192h4jlfktg","pricing_plan_id":"cebpf4jnsgd1na2vs0mg"},{"bike_id":"dd98f38e-cdd6-4a77-a161-2adc7415e16c","system_id":"levelo_inurba_marseille","lat":43.2829,"lon":5.43127,"is_reserved":false,"is_disabled":false,"rental_uris":{"android":"levelo://app?vid=dd98f38e-cdd6-4a77-a161-2adc7415e16c","ios":"levelo://app?vid=dd98f38e-cdd6-4a77-a161-2adc7415e16c"},"vehicle_type_id":"4","last_reported":1742184747,"current_range_meters":10800,"station_id":"","pricing_plan_id":"cebpf4jnsgd1na2vs0mg"},{"bike_id":"799f2b04-01d7-477b-a427-6f9bfba6306e","system_id":"levelo_inurba_marseille","lat":43.27901,"lon":5.39567,"is_reserved":false,"is_disabled":false,"rental_uris":{"android":"levelo://app?vid=799f2b04-01d7-477b-a427-6f9bfba6306e","ios":"levelo://app?vid=799f2b04-01d7-477b-a427-6f9bfba6306e"},"vehicle_type_id":"4","last_reported":1742184747,"current_range_meters":10800,"station_id":"ce4bhf92rcd13ifvqf40","pricing_plan_id":"cebpf4jnsgd1na2vs0mg"},{"bike_id":"a0226cb6-2cfc-439f-8908-87824371f5c4","system_id":"levelo_inurba_marseille","lat":43.27043,"lon":5.42283,"is_reserved":false,"is_disabled":false,"rental_uris":{"android":"levelo://app?vid=a0226cb6-2cfc-439f-8908-87824371f5c4","ios":"levelo://app?vid=a0226cb6-2cfc-439f-8908-87824371f5c4"},"vehicle_type_id":"4","last_reported":1742184747,"current_range_meters":10800,"station_id":"ce4bhk92rcd13ifvqgb0","pricing_plan_id":"cebpf4jnsgd1na2vs0mg"},{"bike_id":"859f60fc-e905-43d1-b79d-c375474a6202","system_id":"levelo_inurba_marseille","lat":43.295511,"lon":5.42289,"is_reserved":false,"is_disabled":false,"rental_uris":{"android":"levelo://app?vid=859f60fc-e905-43d1-b79d-c375474a6202","ios":"levelo://app?vid=859f60fc-e905-43d1-b79d-c375474a6202"},"vehicle_type_id":"4","last_reported":1742184747,"current_range_meters":10800,"station_id":"ce4bhph2rcd13ifvqhdg","pricing_plan_id":"cebpf4jnsgd1na2vs0mg"},{"bike_id":"e39aff96-0142-46d0-807b-703830dfcf78","system_id":"levelo_inurba_marseille","lat":43.286136,"lon":5.35108,"is_reserved":false,"is_disabled":true,"rental_uris":{"android":"levelo://app?vid=e39aff96-0142-46d0-807b-703830dfcf78","ios":"levelo://app?vid=e39aff96-0142-46d0-807b-703830dfcf78"},"vehicle_type_id":"4","last_reported":1742184747,"current_range_meters":10800,"station_id":"","pricing_plan_id":"cebpf4jnsgd1na2vs0mg"},{"bike_id":"4f47ddcc-cadc-4cab-bd5b-2072bf98685d","system_id":"levelo_inurba_marseille","lat":43.30095,"lon":5.38099,"is_reserved":false,"is_disabled":false,"rental_uris":{"android":"levelo://app?vid=4f47ddcc-cadc-4cab-bd5b-2072bf98685d","ios":"levelo://app?vid=4f47ddcc-cadc-4cab-bd5b-2072bf98685d"},"vehicle_type_id":"4","last_reported":1742184747,"current_range_meters":10800,"station_id":"ce4bgjp2rcd13ifvqbh0","pricing_plan_id":"cebpf4jnsgd1na2vs0mg"},{"bike_id":"a8a9c9d3-5aec-42f7-a069-ccae65806a90","system_id":"levelo_inurba_marseille","lat":43.29262,"lon":5.40889,"is_reserved":false,"is_disabled":false,"rental_uris":{"android":"levelo://app?vid=a8a9c9d3-5aec-42f7-a069-ccae65806a90","ios":"levelo://app?vid=a8a9c9d3-5aec-42f7-a069-ccae65806a90"},"vehicle_type_id":"4","last_reported":1742184747,"current_range_meters":11200,"station_id":"ce4bh192rcd13ifvqdc0","pricing_plan_id":"cebpf4jnsgd1na2vs0mg"},{"bike_id":"1535e3e8-6835-4419-ad7b-8ebaeff97ccf","system_id":"levelo_inurba_marseille","lat":43.28939,"lon":5.36631,"is_reserved":false,"is_disabled":false,"rental_uris":{"android":"levelo://app?vid=1535e3e8-6835-4419-ad7b-8ebaeff97ccf","ios":"levelo://app?vid=1535e3e8-6835-4419-ad7b-8ebaeff97ccf"},"vehicle_type_id":"4","last_reported":1742184747,"current_range_meters":11200,"station_id":"ce4bhap2rcd13ifvqek0","pricing_plan_id":"cebpf4jnsgd1na2vs0mg"},{"bike_id":"a80b708e-9960-477b-bb7d-a21f3fdfea6d","system_id":"levelo_inurba_marseille","lat":43.23182,"lon":5.39986,"is_reserved":false,"is_disabled":false,"rental_uris":{"android":"levelo://app?vid=a80b708e-9960-477b-bb7d-a21f3fdfea6d","ios":"levelo://app?vid=a80b708e-9960-477b-bb7d-a21f3fdfea6d"},"vehicle_type_id":"4","last_reported":1742184747,"current_range_meters":11200,"station_id":"ce4bhn12rcd13ifvqgqg","pricing_plan_id":"cebpf4jnsgd1na2vs0mg"},{"bike_id":"0dba11c1-db3c-4349-bd60-4c1ec38c51b3","system_id":"levelo_inurba_marseille","lat":43.23196,"lon":5.35564,"is_reserved":false,"is_disabled":false,"rental_uris":{"android":"levelo://app?vid=0dba11c1-db3c-4349-bd60-4c1ec38c51b3","ios":"levelo://app?vid=0dba11c1-db3c-4349-bd60-4c1ec38c51b3"},"vehicle_type_id":"4","last_reported":1742184747,"current_range_meters":11200,"station_id":"ce4bhu92rcd13ifvqi70","pricing_plan_id":"cebpf4jnsgd1na2vs0mg"},{"bike_id":"a6b0a040-07e7-4faa-a4d4-f0ae30938573","system_id":"levelo_inurba_marseille","lat":43.24389,"lon":5.37067,"is_reserved":false,"is_disabled":false,"rental_uris":{"android":"levelo://app?vid=a6b0a040-07e7-4faa-a4d4-f0ae30938573","ios":"levelo://app?vid=a6b0a040-07e7-4faa-a4d4-f0ae30938573"},"vehicle_type_id":"4","last_reported":1742184747,"current_range_meters":11200,"station_id":"ce4bhhh2rcd13ifvqfk0","pricing_plan_id":"cebpf4jnsgd1na2vs0mg"},{"bike_id":"840483eb-dec7-490f-b669-ee3773ac063c","system_id":"levelo_inurba_marseille","lat":43.292676,"lon":5.368389,"is_reserved":false,"is_disabled":true,"rental_uris":{"android":"levelo://app?vid=840483eb-dec7-490f-b669-ee3773ac063c","ios":"levelo://app?vid=840483eb-dec7-490f-b669-ee3773ac063c"},"vehicle_type_id":"4","last_reported":1742184747,"current_range_meters":11200,"station_id":"ce4bhbp2rcd13ifvqesg","pricing_plan_id":"cebpf4jnsgd1na2vs0mg"},{"bike_id":"5a4a7d35-0ef8-41e9-9195-6b8c171d9e40","system_id":"levelo_inurba_marseille","lat":43.25936,"lon":5.40905,"is_reserved":false,"is_disabled":false,"rental_uris":{"android":"levelo://app?vid=5a4a7d35-0ef8-41e9-9195-6b8c171d9e40","ios":"levelo://app?vid=5a4a7d35-0ef8-41e9-9195-6b8c171d9e40"},"vehicle_type_id":"4","last_reported":1742184747,"current_range_meters":11200,"station_id":"ce4bhm92rcd13ifvqglg","pricing_plan_id":"cebpf4jnsgd1na2vs0mg"},{"bike_id":"acae015a-47e9-488b-96c7-da5370995513","system_id":"levelo_inurba_marseille","lat":43.23204,"lon":5.35568,"is_reserved":false,"is_disabled":false,"rental_uris":{"android":"levelo://app?vid=acae015a-47e9-488b-96c7-da5370995513","ios":"levelo://app?vid=acae015a-47e9-488b-96c7-da5370995513"},"vehicle_type_id":"4","last_reported":1742184747,"current_range_meters":11200,"station_id":"ce4bhu92rcd13ifvqi70","pricing_plan_id":"cebpf4jnsgd1na2vs0mg"},{"bike_id":"6d7aba10-2ad7-403b-88bc-52c92007007a","system_id":"levelo_inurba_marseille","lat":43.29017,"lon":5.38135,"is_reserved":false,"is_disabled":true,"rental_uris":{"android":"levelo://app?vid=6d7aba10-2ad7-403b-88bc-52c92007007a","ios":"levelo://app?vid=6d7aba10-2ad7-403b-88bc-52c92007007a"},"vehicle_type_id":"4","last_reported":1742184747,"current_range_meters":11200,"station_id":"ce4bh4p2rcd13ifvqe1g","pricing_plan_id":"cebpf4jnsgd1na2vs0mg"},{"bike_id":"982c294b-cc72-4157-a4eb-2a427229807d","system_id":"levelo_inurba_marseille","lat":43.28738,"lon":5.36085,"is_reserved":false,"is_disabled":false,"rental_uris":{"android":"levelo://app?vid=982c294b-cc72-4157-a4eb-2a427229807d","ios":"levelo://app?vid=982c294b-cc72-4157-a4eb-2a427229807d"},"vehicle_type_id":"4","last_reported":1742184747,"current_range_meters":11200,"station_id":"cki0cbj6b192h4jlfktg","pricing_plan_id":"cebpf4jnsgd1na2vs0mg"},{"bike_id":"8582a594-232f-4ecd-9ce1-980b2fb12fee","system_id":"levelo_inurba_marseille","lat":43.2956,"lon":5.42271,"is_reserved":false,"is_disabled":false,"rental_uris":{"android":"levelo://app?vid=8582a594-232f-4ecd-9ce1-980b2fb12fee","ios":"levelo://app?vid=8582a594-232f-4ecd-9ce1-980b2fb12fee"},"vehicle_type_id":"4","last_reported":1742184747,"current_range_meters":11200,"station_id":"ce4bhph2rcd13ifvqhdg","pricing_plan_id":"cebpf4jnsgd1na2vs0mg"},{"bike_id":"c2f488d4-1fa5-41e3-8797-f7db6ced0af9","system_id":"levelo_inurba_marseille","lat":43.28937,"lon":5.36642,"is_reserved":false,"is_disabled":false,"rental_uris":{"android":"levelo://app?vid=c2f488d4-1fa5-41e3-8797-f7db6ced0af9","ios":"levelo://app?vid=c2f488d4-1fa5-41e3-8797-f7db6ced0af9"},"vehicle_type_id":"4","last_reported":1742184747,"current_range_meters":11200,"station_id":"ce4bhap2rcd13ifvqek0","pricing_plan_id":"cebpf4jnsgd1na2vs0mg"},{"bike_id":"24dd4337-618b-4771-83f7-03578c7756e5","system_id":"levelo_inurba_marseille","lat":43.29724,"lon":5.37698,"is_reserved":false,"is_disabled":true,"rental_uris":{"android":"levelo://app?vid=24dd4337-618b-4771-83f7-03578c7756e5","ios":"levelo://app?vid=24dd4337-618b-4771-83f7-03578c7756e5"},"vehicle_type_id":"4","last_reported":1742184747,"current_range_meters":11200,"station_id":"ce4bgkh2rcd13ifvqbl0","pricing_plan_id":"cebpf4jnsgd1na2vs0mg"},{"bike_id":"15114da5-30fb-4fb1-9632-866a9f4be863","system_id":"levelo_inurba_marseille","lat":43.29652,"lon":5.36535,"is_reserved":false,"is_disabled":false,"rental_uris":{"android":"levelo://app?vid=15114da5-30fb-4fb1-9632-866a9f4be863","ios":"levelo://app?vid=15114da5-30fb-4fb1-9632-866a9f4be863"},"vehicle_type_id":"4","last_reported":1742184747,"current_range_meters":11200,"station_id":"","pricing_plan_id":"cebpf4jnsgd1na2vs0mg"},{"bike_id":"a4e011c7-6f19-4681-84ea-4262f143037e","system_id":"levelo_inurba_marseille","lat":43.32343,"lon":5.36733,"is_reserved":false,"is_disabled":false,"rental_uris":{"android":"levelo://app?vid=a4e011c7-6f19-4681-84ea-4262f143037e","ios":"levelo://app?vid=a4e011c7-6f19-4681-84ea-4262f143037e"},"vehicle_type_id":"4","last_reported":1742184747,"current_range_meters":11200,"station_id":"ce4bhsh2rcd13ifvqi2g","pricing_plan_id":"cebpf4jnsgd1na2vs0mg"},{"bike_id":"2f42e19e-22f1-4965-ad6e-662af5324e76","system_id":"levelo_inurba_marseille","lat":43.23189,"lon":5.35551,"is_reserved":false,"is_disabled":false,"rental_uris":{"android":"levelo://app?vid=2f42e19e-22f1-4965-ad6e-662af5324e76","ios":"levelo://app?vid=2f42e19e-22f1-4965-ad6e-662af5324e76"},"vehicle_type_id":"4","last_reported":1742184747,"current_range_meters":11600,"station_id":"ce4bhu92rcd13ifvqi70","pricing_plan_id":"cebpf4jnsgd1na2vs0mg"},{"bike_id":"87441797-c96f-4aec-9920-16ee49264c38","system_id":"levelo_inurba_marseille","lat":43.28838,"lon":5.35866,"is_reserved":false,"is_disabled":false,"rental_uris":{"android":"levelo://app?vid=87441797-c96f-4aec-9920-16ee49264c38","ios":"levelo://app?vid=87441797-c96f-4aec-9920-16ee49264c38"},"vehicle_type_id":"4","last_reported":1742184747,"current_range_meters":11600,"station_id":"ce4bhb12rcd13ifvqem0","pricing_plan_id":"cebpf4jnsgd1na2vs0mg"},{"bike_id":"d5fe6e6d-213d-435a-bd34-bd4dfa98263a","system_id":"levelo_inurba_marseille","lat":43.317587,"lon":5.39021,"is_reserved":false,"is_disabled":false,"rental_uris":{"android":"levelo://app?vid=d5fe6e6d-213d-435a-bd34-bd4dfa98263a","ios":"levelo://app?vid=d5fe6e6d-213d-435a-bd34-bd4dfa98263a"},"vehicle_type_id":"4","last_reported":1742184747,"current_range_meters":11600,"station_id":"ce4bhqp2rcd13ifvqhng","pricing_plan_id":"cebpf4jnsgd1na2vs0mg"},{"bike_id":"f56c7c5e-eda8-494d-9ab8-b4c027672166","system_id":"levelo_inurba_marseille","lat":43.28243,"lon":5.44362,"is_reserved":false,"is_disabled":false,"rental_uris":{"android":"levelo://app?vid=f56c7c5e-eda8-494d-9ab8-b4c027672166","ios":"levelo://app?vid=f56c7c5e-eda8-494d-9ab8-b4c027672166"},"vehicle_type_id":"4","last_reported":1742184747,"current_range_meters":11600,"station_id":"","pricing_plan_id":"cebpf4jnsgd1na2vs0mg"},{"bike_id":"ca40f8d9-4c74-45e9-8112-b26b76ca6ffe","system_id":"levelo_inurba_marseille","lat":43.28709,"lon":5.37404,"is_reserved":false,"is_disabled":true,"rental_uris":{"android":"levelo://app?vid=ca40f8d9-4c74-45e9-8112-b26b76ca6ffe","ios":"levelo://app?vid=ca40f8d9-4c74-45e9-8112-b26b76ca6ffe"},"vehicle_type_id":"4","last_reported":1742184747,"current_range_meters":11600,"station_id":"ce4bh3p2rcd13ifvqdq0","pricing_plan_id":"cebpf4jnsgd1na2vs0mg"},{"bike_id":"76e764b8-1adb-4231-8a1e-b8c7fcf6487a","system_id":"levelo_inurba_marseille","lat":43.31688,"lon":5.37813,"is_reserved":false,"is_disabled":false,"rental_uris":{"android":"levelo://app?vid=76e764b8-1adb-4231-8a1e-b8c7fcf6487a","ios":"levelo://app?vid=76e764b8-1adb-4231-8a1e-b8c7fcf6487a"},"vehicle_type_id":"4","last_reported":1742184747,"current_range_meters":11600,"station_id":"ce4bgth2rcd13ifvqch0","pricing_plan_id":"cebpf4jnsgd1na2vs0mg"},{"bike_id":"c1a5a6c0-c1ea-4bb3-8a09-43399f8c464b","system_id":"levelo_inurba_marseille","lat":43.28703,"lon":5.37396,"is_reserved":false,"is_disabled":false,"rental_uris":{"android":"levelo://app?vid=c1a5a6c0-c1ea-4bb3-8a09-43399f8c464b","ios":"levelo://app?vid=c1a5a6c0-c1ea-4bb3-8a09-43399f8c464b"},"vehicle_type_id":"4","last_reported":1742184747,"current_range_meters":11600,"station_id":"ce4bh3p2rcd13ifvqdq0","pricing_plan_id":"cebpf4jnsgd1na2vs0mg"},{"bike_id":"f1d5c71e-b327-43b7-a76a-ada0c8a4bd02","system_id":"levelo_inurba_marseille","lat":43.2866,"lon":5.36357,"is_reserved":false,"is_disabled":false,"rental_uris":{"android":"levelo://app?vid=f1d5c71e-b327-43b7-a76a-ada0c8a4bd02","ios":"levelo://app?vid=f1d5c71e-b327-43b7-a76a-ada0c8a4bd02"},"vehicle_type_id":"4","last_reported":1742184747,"current_range_meters":11600,"station_id":"ce4bhah2rcd13ifvqej0","pricing_plan_id":"cebpf4jnsgd1na2vs0mg"},{"bike_id":"8a5886bb-0112-468a-bdb1-2d9d5a03e0c1","system_id":"levelo_inurba_marseille","lat":43.278164,"lon":5.407151,"is_reserved":false,"is_disabled":false,"rental_uris":{"android":"levelo://app?vid=8a5886bb-0112-468a-bdb1-2d9d5a03e0c1","ios":"levelo://app?vid=8a5886bb-0112-468a-bdb1-2d9d5a03e0c1"},"vehicle_type_id":"4","last_reported":1742184747,"current_range_meters":12000,"station_id":"ce4bhnh2rcd13ifvqgtg","pricing_plan_id":"cebpf4jnsgd1na2vs0mg"},{"bike_id":"26bffbf6-789c-417e-b283-e9182420cd62","system_id":"levelo_inurba_marseille","lat":43.28954,"lon":5.36404,"is_reserved":false,"is_disabled":false,"rental_uris":{"android":"levelo://app?vid=26bffbf6-789c-417e-b283-e9182420cd62","ios":"levelo://app?vid=26bffbf6-789c-417e-b283-e9182420cd62"},"vehicle_type_id":"4","last_reported":1742184747,"current_range_meters":12000,"station_id":"ce4bhc92rcd13ifvqetg","pricing_plan_id":"cebpf4jnsgd1na2vs0mg"},{"bike_id":"b9ec60f5-613e-4e62-981f-3dbda722d484","system_id":"levelo_inurba_marseille","lat":43.31067,"lon":5.38339,"is_reserved":false,"is_disabled":false,"rental_uris":{"android":"levelo://app?vid=b9ec60f5-613e-4e62-981f-3dbda722d484","ios":"levelo://app?vid=b9ec60f5-613e-4e62-981f-3dbda722d484"},"vehicle_type_id":"4","last_reported":1742184747,"current_range_meters":12000,"station_id":"ce4bgv92rcd13ifvqcr0","pricing_plan_id":"cebpf4jnsgd1na2vs0mg"},{"bike_id":"573143ae-3ef9-4f10-a482-9b6f457a06c2","system_id":"levelo_inurba_marseille","lat":43.23965,"lon":5.36626,"is_reserved":false,"is_disabled":false,"rental_uris":{"android":"levelo://app?vid=573143ae-3ef9-4f10-a482-9b6f457a06c2","ios":"levelo://app?vid=573143ae-3ef9-4f10-a482-9b6f457a06c2"},"vehicle_type_id":"4","last_reported":1742184747,"current_range_meters":12000,"station_id":"ce4bhi12rcd13ifvqfp0","pricing_plan_id":"cebpf4jnsgd1na2vs0mg"},{"bike_id":"20c5e275-c004-4fea-84eb-5e6a013c0e40","system_id":"levelo_inurba_marseille","lat":43.299873,"lon":5.371668,"is_reserved":false,"is_disabled":true,"rental_uris":{"android":"levelo://app?vid=20c5e275-c004-4fea-84eb-5e6a013c0e40","ios":"levelo://app?vid=20c5e275-c004-4fea-84eb-5e6a013c0e40"},"vehicle_type_id":"4","last_reported":1742184747,"current_range_meters":12000,"station_id":"ce4bgr92rcd13ifvqc7g","pricing_plan_id":"cebpf4jnsgd1na2vs0mg"},{"bike_id":"7d6435a8-393e-49c0-b3db-8321af7fabde","system_id":"levelo_inurba_marseille","lat":43.31307,"lon":5.38624,"is_reserved":false,"is_disabled":false,"rental_uris":{"android":"levelo://app?vid=7d6435a8-393e-49c0-b3db-8321af7fabde","ios":"levelo://app?vid=7d6435a8-393e-49c0-b3db-8321af7fabde"},"vehicle_type_id":"4","last_reported":1742184747,"current_range_meters":12400,"station_id":"","pricing_plan_id":"cebpf4jnsgd1na2vs0mg"},{"bike_id":"0c8237b6-b887-4fb3-8bfc-d84cb8935c7a","system_id":"levelo_inurba_marseille","lat":43.28122,"lon":5.42643,"is_reserved":false,"is_disabled":false,"rental_uris":{"android":"levelo://app?vid=0c8237b6-b887-4fb3-8bfc-d84cb8935c7a","ios":"levelo://app?vid=0c8237b6-b887-4fb3-8bfc-d84cb8935c7a"},"vehicle_type_id":"4","last_reported":1742184747,"current_range_meters":12400,"station_id":"ce4bhnh2rcd13ifvqgug","pricing_plan_id":"cebpf4jnsgd1na2vs0mg"},{"bike_id":"54d44332-57ce-4ae1-b078-2a5204f6f497","system_id":"levelo_inurba_marseille","lat":43.27616,"lon":5.36106,"is_reserved":false,"is_disabled":false,"rental_uris":{"android":"levelo://app?vid=54d44332-57ce-4ae1-b078-2a5204f6f497","ios":"levelo://app?vid=54d44332-57ce-4ae1-b078-2a5204f6f497"},"vehicle_type_id":"4","last_reported":1742184747,"current_range_meters":12400,"station_id":"ce4bgj92rcd13ifvqbe0","pricing_plan_id":"cebpf4jnsgd1na2vs0mg"},{"bike_id":"b763467b-fcb1-47ab-9842-1db9f33d174c","system_id":"levelo_inurba_marseille","lat":43.23182,"lon":5.3557,"is_reserved":false,"is_disabled":false,"rental_uris":{"android":"levelo://app?vid=b763467b-fcb1-47ab-9842-1db9f33d174c","ios":"levelo://app?vid=b763467b-fcb1-47ab-9842-1db9f33d174c"},"vehicle_type_id":"4","last_reported":1742184747,"current_range_meters":12400,"station_id":"ce4bhu92rcd13ifvqi70","pricing_plan_id":"cebpf4jnsgd1na2vs0mg"},{"bike_id":"14a072e7-0a56-4aa4-9518-65aaaa98cae6","system_id":"levelo_inurba_marseille","lat":43.27951,"lon":5.41035,"is_reserved":false,"is_disabled":false,"rental_uris":{"android":"levelo://app?vid=14a072e7-0a56-4aa4-9518-65aaaa98cae6","ios":"levelo://app?vid=14a072e7-0a56-4aa4-9518-65aaaa98cae6"},"vehicle_type_id":"4","last_reported":1742184747,"current_range_meters":12400,"station_id":"ce4bhnp2rcd13ifvqh0g","pricing_plan_id":"cebpf4jnsgd1na2vs0mg"},{"bike_id":"d3f49233-0588-4916-a81b-7c61f90be779","system_id":"levelo_inurba_marseille","lat":43.28709,"lon":5.37386,"is_reserved":false,"is_disabled":false,"rental_uris":{"android":"levelo://app?vid=d3f49233-0588-4916-a81b-7c61f90be779","ios":"levelo://app?vid=d3f49233-0588-4916-a81b-7c61f90be779"},"vehicle_type_id":"4","last_reported":1742184747,"current_range_meters":12400,"station_id":"ce4bh3p2rcd13ifvqdq0","pricing_plan_id":"cebpf4jnsgd1na2vs0mg"},{"bike_id":"dcbc9e2d-1eeb-4373-bc45-b0cca4c80eca","system_id":"levelo_inurba_marseille","lat":43.28137,"lon":5.44315,"is_reserved":false,"is_disabled":false,"rental_uris":{"android":"levelo://app?vid=dcbc9e2d-1eeb-4373-bc45-b0cca4c80eca","ios":"levelo://app?vid=dcbc9e2d-1eeb-4373-bc45-b0cca4c80eca"},"vehicle_type_id":"4","last_reported":1742184747,"current_range_meters":12400,"station_id":"","pricing_plan_id":"cebpf4jnsgd1na2vs0mg"},{"bike_id":"7cd200a6-fcbe-4a17-a043-4d9feb6708b3","system_id":"levelo_inurba_marseille","lat":43.27061,"lon":5.40253,"is_reserved":false,"is_disabled":false,"rental_uris":{"android":"levelo://app?vid=7cd200a6-fcbe-4a17-a043-4d9feb6708b3","ios":"levelo://app?vid=7cd200a6-fcbe-4a17-a043-4d9feb6708b3"},"vehicle_type_id":"4","last_reported":1742184747,"current_range_meters":12400,"station_id":"ce4bhk92rcd13ifvqgc0","pricing_plan_id":"cebpf4jnsgd1na2vs0mg"},{"bike_id":"f9eda727-bee7-40df-86c3-742de5d38771","system_id":"levelo_inurba_marseille","lat":43.302088,"lon":5.39459,"is_reserved":false,"is_disabled":true,"rental_uris":{"android":"levelo://app?vid=f9eda727-bee7-40df-86c3-742de5d38771","ios":"levelo://app?vid=f9eda727-bee7-40df-86c3-742de5d38771"},"vehicle_type_id":"4","last_reported":1742184747,"current_range_meters":12400,"station_id":"ce4bh0p2rcd13ifvqd70","pricing_plan_id":"cebpf4jnsgd1na2vs0mg"},{"bike_id":"f93f0d14-91b9-41fc-a4f1-6134ed03420c","system_id":"levelo_inurba_marseille","lat":43.29702,"lon":5.36618,"is_reserved":false,"is_disabled":false,"rental_uris":{"android":"levelo://app?vid=f93f0d14-91b9-41fc-a4f1-6134ed03420c","ios":"levelo://app?vid=f93f0d14-91b9-41fc-a4f1-6134ed03420c"},"vehicle_type_id":"4","last_reported":1742184747,"current_range_meters":12400,"station_id":"ce4bgn12rcd13ifvqbt0","pricing_plan_id":"cebpf4jnsgd1na2vs0mg"},{"bike_id":"aab95aeb-f5d4-4bef-bcdc-d835ba6c3583","system_id":"levelo_inurba_marseille","lat":43.23063,"lon":5.355,"is_reserved":false,"is_disabled":false,"rental_uris":{"android":"levelo://app?vid=aab95aeb-f5d4-4bef-bcdc-d835ba6c3583","ios":"levelo://app?vid=aab95aeb-f5d4-4bef-bcdc-d835ba6c3583"},"vehicle_type_id":"4","last_reported":1742184747,"current_range_meters":12800,"station_id":"cpo3342slgdg3j2ifvpg","pricing_plan_id":"cebpf4jnsgd1na2vs0mg"},{"bike_id":"f8448f78-a39d-491e-a4a8-5b2b39ba3b73","system_id":"levelo_inurba_marseille","lat":43.3106,"lon":5.3715,"is_reserved":false,"is_disabled":false,"rental_uris":{"android":"levelo://app?vid=f8448f78-a39d-491e-a4a8-5b2b39ba3b73","ios":"levelo://app?vid=f8448f78-a39d-491e-a4a8-5b2b39ba3b73"},"vehicle_type_id":"4","last_reported":1742184747,"current_range_meters":12800,"station_id":"","pricing_plan_id":"cebpf4jnsgd1na2vs0mg"},{"bike_id":"da13238e-d41c-45e1-a56d-699763e37342","system_id":"levelo_inurba_marseille","lat":43.274946,"lon":5.424615,"is_reserved":false,"is_disabled":false,"rental_uris":{"android":"levelo://app?vid=da13238e-d41c-45e1-a56d-699763e37342","ios":"levelo://app?vid=da13238e-d41c-45e1-a56d-699763e37342"},"vehicle_type_id":"4","last_reported":1742184747,"current_range_meters":12800,"station_id":"ce4bhn92rcd13ifvqgrg","pricing_plan_id":"cebpf4jnsgd1na2vs0mg"},{"bike_id":"d4832a2f-ed76-4523-b91d-faee2198096b","system_id":"levelo_inurba_marseille","lat":43.258643,"lon":5.398956,"is_reserved":false,"is_disabled":false,"rental_uris":{"android":"levelo://app?vid=d4832a2f-ed76-4523-b91d-faee2198096b","ios":"levelo://app?vid=d4832a2f-ed76-4523-b91d-faee2198096b"},"vehicle_type_id":"4","last_reported":1742184747,"current_range_meters":12800,"station_id":"ce4bhl92rcd13ifvqghg","pricing_plan_id":"cebpf4jnsgd1na2vs0mg"},{"bike_id":"f6d26e90-c8a6-4832-a1c5-767d58aee5bc","system_id":"levelo_inurba_marseille","lat":43.23141,"lon":5.43699,"is_reserved":false,"is_disabled":false,"rental_uris":{"android":"levelo://app?vid=f6d26e90-c8a6-4832-a1c5-767d58aee5bc","ios":"levelo://app?vid=f6d26e90-c8a6-4832-a1c5-767d58aee5bc"},"vehicle_type_id":"4","last_reported":1742184747,"current_range_meters":12800,"station_id":"ce4bhmp2rcd13ifvqgog","pricing_plan_id":"cebpf4jnsgd1na2vs0mg"},{"bike_id":"42f82327-8755-4aa4-8490-c963aacca92c","system_id":"levelo_inurba_marseille","lat":43.26808,"lon":5.40266,"is_reserved":false,"is_disabled":false,"rental_uris":{"android":"levelo://app?vid=42f82327-8755-4aa4-8490-c963aacca92c","ios":"levelo://app?vid=42f82327-8755-4aa4-8490-c963aacca92c"},"vehicle_type_id":"4","last_reported":1742184747,"current_range_meters":12800,"station_id":"ce501612rcd8frsf0b60","pricing_plan_id":"cebpf4jnsgd1na2vs0mg"},{"bike_id":"ab390a76-0a57-4543-a76e-6d96e1e77958","system_id":"levelo_inurba_marseille","lat":43.23048,"lon":5.35497,"is_reserved":false,"is_disabled":false,"rental_uris":{"android":"levelo://app?vid=ab390a76-0a57-4543-a76e-6d96e1e77958","ios":"levelo://app?vid=ab390a76-0a57-4543-a76e-6d96e1e77958"},"vehicle_type_id":"4","last_reported":1742184747,"current_range_meters":12800,"station_id":"cpo3342slgdg3j2ifvpg","pricing_plan_id":"cebpf4jnsgd1na2vs0mg"},{"bike_id":"061c3eab-ebbd-4760-8917-2528d6e29cbc","system_id":"levelo_inurba_marseille","lat":43.270661,"lon":5.422761,"is_reserved":false,"is_disabled":true,"rental_uris":{"android":"levelo://app?vid=061c3eab-ebbd-4760-8917-2528d6e29cbc","ios":"levelo://app?vid=061c3eab-ebbd-4760-8917-2528d6e29cbc"},"vehicle_type_id":"4","last_reported":1742184747,"current_range_meters":12800,"station_id":"ce4bhk92rcd13ifvqgb0","pricing_plan_id":"cebpf4jnsgd1na2vs0mg"},{"bike_id":"4ee66709-29b2-40f6-8f6f-ebc9370d1671","system_id":"levelo_inurba_marseille","lat":43.292929,"lon":5.427536,"is_reserved":false,"is_disabled":false,"rental_uris":{"android":"levelo://app?vid=4ee66709-29b2-40f6-8f6f-ebc9370d1671","ios":"levelo://app?vid=4ee66709-29b2-40f6-8f6f-ebc9370d1671"},"vehicle_type_id":"4","last_reported":1742184747,"current_range_meters":12800,"station_id":"","pricing_plan_id":"cebpf4jnsgd1na2vs0mg"},{"bike_id":"a110c3e8-a146-4d68-a9ad-64c5ddcb51fe","system_id":"levelo_inurba_marseille","lat":43.23153,"lon":5.43719,"is_reserved":false,"is_disabled":false,"rental_uris":{"android":"levelo://app?vid=a110c3e8-a146-4d68-a9ad-64c5ddcb51fe","ios":"levelo://app?vid=a110c3e8-a146-4d68-a9ad-64c5ddcb51fe"},"vehicle_type_id":"4","last_reported":1742184747,"current_range_meters":12800,"station_id":"ce4bhmp2rcd13ifvqgog","pricing_plan_id":"cebpf4jnsgd1na2vs0mg"},{"bike_id":"6e46b814-3eb3-4bc5-8438-aff0326ba365","system_id":"levelo_inurba_marseille","lat":43.24071,"lon":5.37752,"is_reserved":false,"is_disabled":false,"rental_uris":{"android":"levelo://app?vid=6e46b814-3eb3-4bc5-8438-aff0326ba365","ios":"levelo://app?vid=6e46b814-3eb3-4bc5-8438-aff0326ba365"},"vehicle_type_id":"4","last_reported":1742184747,"current_range_meters":13600,"station_id":"ce4bhnp2rcd13ifvqgvg","pricing_plan_id":"cebpf4jnsgd1na2vs0mg"},{"bike_id":"7eb0a939-4502-4fa6-a5b4-4b2393f7bcd9","system_id":"levelo_inurba_marseille","lat":43.28938,"lon":5.36629,"is_reserved":false,"is_disabled":false,"rental_uris":{"android":"levelo://app?vid=7eb0a939-4502-4fa6-a5b4-4b2393f7bcd9","ios":"levelo://app?vid=7eb0a939-4502-4fa6-a5b4-4b2393f7bcd9"},"vehicle_type_id":"4","last_reported":1742184747,"current_range_meters":13600,"station_id":"ce4bhap2rcd13ifvqek0","pricing_plan_id":"cebpf4jnsgd1na2vs0mg"},{"bike_id":"465d732f-a550-43b3-9367-efaea98d1d11","system_id":"levelo_inurba_marseille","lat":43.28709,"lon":5.39967,"is_reserved":false,"is_disabled":false,"rental_uris":{"android":"levelo://app?vid=465d732f-a550-43b3-9367-efaea98d1d11","ios":"levelo://app?vid=465d732f-a550-43b3-9367-efaea98d1d11"},"vehicle_type_id":"4","last_reported":1742184747,"current_range_meters":13600,"station_id":"ce4bho92rcd13ifvqh3g","pricing_plan_id":"cebpf4jnsgd1na2vs0mg"},{"bike_id":"0b2c588e-ad18-4b5f-909d-2d111e78fbae","system_id":"levelo_inurba_marseille","lat":43.28481,"lon":5.38426,"is_reserved":false,"is_disabled":true,"rental_uris":{"android":"levelo://app?vid=0b2c588e-ad18-4b5f-909d-2d111e78fbae","ios":"levelo://app?vid=0b2c588e-ad18-4b5f-909d-2d111e78fbae"},"vehicle_type_id":"4","last_reported":1742184747,"current_range_meters":13600,"station_id":"ce4bh512rcd13ifvqe3g","pricing_plan_id":"cebpf4jnsgd1na2vs0mg"},{"bike_id":"eb68e8b7-38f3-4b46-bcf2-645e79c2103b","system_id":"levelo_inurba_marseille","lat":43.26559,"lon":5.38639,"is_reserved":false,"is_disabled":false,"rental_uris":{"android":"levelo://app?vid=eb68e8b7-38f3-4b46-bcf2-645e79c2103b","ios":"levelo://app?vid=eb68e8b7-38f3-4b46-bcf2-645e79c2103b"},"vehicle_type_id":"4","last_reported":1742184747,"current_range_meters":13600,"station_id":"","pricing_plan_id":"cebpf4jnsgd1na2vs0mg"},{"bike_id":"fc99c4f7-f533-418c-863e-4a1ac01f076c","system_id":"levelo_inurba_marseille","lat":43.288483,"lon":5.358485,"is_reserved":false,"is_disabled":false,"rental_uris":{"android":"levelo://app?vid=fc99c4f7-f533-418c-863e-4a1ac01f076c","ios":"levelo://app?vid=fc99c4f7-f533-418c-863e-4a1ac01f076c"},"vehicle_type_id":"4","last_reported":1742184747,"current_range_meters":13600,"station_id":"ce4bhb12rcd13ifvqem0","pricing_plan_id":"cebpf4jnsgd1na2vs0mg"},{"bike_id":"04779c95-09a2-425e-927f-fb9e05ab6347","system_id":"levelo_inurba_marseille","lat":43.33761,"lon":5.37489,"is_reserved":false,"is_disabled":false,"rental_uris":{"android":"levelo://app?vid=04779c95-09a2-425e-927f-fb9e05ab6347","ios":"levelo://app?vid=04779c95-09a2-425e-927f-fb9e05ab6347"},"vehicle_type_id":"4","last_reported":1742184747,"current_range_meters":13600,"station_id":"","pricing_plan_id":"cebpf4jnsgd1na2vs0mg"},{"bike_id":"077e9534-45a7-4b95-a8e7-f700d2452622","system_id":"levelo_inurba_marseille","lat":43.313657,"lon":5.384868,"is_reserved":false,"is_disabled":false,"rental_uris":{"android":"levelo://app?vid=077e9534-45a7-4b95-a8e7-f700d2452622","ios":"levelo://app?vid=077e9534-45a7-4b95-a8e7-f700d2452622"},"vehicle_type_id":"4","last_reported":1742184747,"current_range_meters":13600,"station_id":"ce4bgt92rcd13ifvqcf0","pricing_plan_id":"cebpf4jnsgd1na2vs0mg"},{"bike_id":"1ccb4900-830f-4b12-b760-e3efc533b26a","system_id":"levelo_inurba_marseille","lat":43.330221,"lon":5.390489,"is_reserved":false,"is_disabled":false,"rental_uris":{"android":"levelo://app?vid=1ccb4900-830f-4b12-b760-e3efc533b26a","ios":"levelo://app?vid=1ccb4900-830f-4b12-b760-e3efc533b26a"},"vehicle_type_id":"4","last_reported":1742184747,"current_range_meters":13600,"station_id":"ce4bhr92rcd13ifvqhrg","pricing_plan_id":"cebpf4jnsgd1na2vs0mg"},{"bike_id":"84cfc446-bf14-431e-a684-b664920352f0","system_id":"levelo_inurba_marseille","lat":43.24162,"lon":5.36394,"is_reserved":false,"is_disabled":true,"rental_uris":{"android":"levelo://app?vid=84cfc446-bf14-431e-a684-b664920352f0","ios":"levelo://app?vid=84cfc446-bf14-431e-a684-b664920352f0"},"vehicle_type_id":"4","last_reported":1742184747,"current_range_meters":13600,"station_id":"cpo36qri1sfpv3e86is0","pricing_plan_id":"cebpf4jnsgd1na2vs0mg"},{"bike_id":"eece42ce-5959-4613-bea8-c41ae30da3f8","system_id":"levelo_inurba_marseille","lat":43.29257,"lon":5.40897,"is_reserved":false,"is_disabled":false,"rental_uris":{"android":"levelo://app?vid=eece42ce-5959-4613-bea8-c41ae30da3f8","ios":"levelo://app?vid=eece42ce-5959-4613-bea8-c41ae30da3f8"},"vehicle_type_id":"4","last_reported":1742184747,"current_range_meters":13600,"station_id":"ce4bh192rcd13ifvqdc0","pricing_plan_id":"cebpf4jnsgd1na2vs0mg"},{"bike_id":"c735a41e-8707-4425-9245-f2bfffe653b8","system_id":"levelo_inurba_marseille","lat":43.259386,"lon":5.409011,"is_reserved":false,"is_disabled":false,"rental_uris":{"android":"levelo://app?vid=c735a41e-8707-4425-9245-f2bfffe653b8","ios":"levelo://app?vid=c735a41e-8707-4425-9245-f2bfffe653b8"},"vehicle_type_id":"4","last_reported":1742184747,"current_range_meters":13600,"station_id":"ce4bhm92rcd13ifvqglg","pricing_plan_id":"cebpf4jnsgd1na2vs0mg"},{"bike_id":"5c7d3af7-81c2-462c-80cb-d705f57b5e51","system_id":"levelo_inurba_marseille","lat":43.25719,"lon":5.41092,"is_reserved":false,"is_disabled":true,"rental_uris":{"android":"levelo://app?vid=5c7d3af7-81c2-462c-80cb-d705f57b5e51","ios":"levelo://app?vid=5c7d3af7-81c2-462c-80cb-d705f57b5e51"},"vehicle_type_id":"4","last_reported":1742184747,"current_range_meters":13600,"station_id":"ce4bhkp2rcd13ifvqgd0","pricing_plan_id":"cebpf4jnsgd1na2vs0mg"},{"bike_id":"fdddf651-a4ce-4fda-974f-fb9d93459460","system_id":"levelo_inurba_marseille","lat":43.231976,"lon":5.355471,"is_reserved":false,"is_disabled":false,"rental_uris":{"android":"levelo://app?vid=fdddf651-a4ce-4fda-974f-fb9d93459460","ios":"levelo://app?vid=fdddf651-a4ce-4fda-974f-fb9d93459460"},"vehicle_type_id":"4","last_reported":1742184747,"current_range_meters":13600,"station_id":"ce4bhu92rcd13ifvqi70","pricing_plan_id":"cebpf4jnsgd1na2vs0mg"},{"bike_id":"986cbafe-57e2-4522-bc1b-a99a1ba08f95","system_id":"levelo_inurba_marseille","lat":43.30896,"lon":5.40187,"is_reserved":false,"is_disabled":false,"rental_uris":{"android":"levelo://app?vid=986cbafe-57e2-4522-bc1b-a99a1ba08f95","ios":"levelo://app?vid=986cbafe-57e2-4522-bc1b-a99a1ba08f95"},"vehicle_type_id":"4","last_reported":1742184747,"current_range_meters":14000,"station_id":"","pricing_plan_id":"cebpf4jnsgd1na2vs0mg"},{"bike_id":"7678d4fe-044b-415e-bbb6-5f97a0548a0c","system_id":"levelo_inurba_marseille","lat":43.231894,"lon":5.399895,"is_reserved":false,"is_disabled":true,"rental_uris":{"android":"levelo://app?vid=7678d4fe-044b-415e-bbb6-5f97a0548a0c","ios":"levelo://app?vid=7678d4fe-044b-415e-bbb6-5f97a0548a0c"},"vehicle_type_id":"4","last_reported":1742184747,"current_range_meters":14000,"station_id":"ce4bhn12rcd13ifvqgqg","pricing_plan_id":"cebpf4jnsgd1na2vs0mg"},{"bike_id":"24a479cc-374a-418f-9144-dac66f4aa10b","system_id":"levelo_inurba_marseille","lat":43.28452,"lon":5.35892,"is_reserved":false,"is_disabled":true,"rental_uris":{"android":"levelo://app?vid=24a479cc-374a-418f-9144-dac66f4aa10b","ios":"levelo://app?vid=24a479cc-374a-418f-9144-dac66f4aa10b"},"vehicle_type_id":"4","last_reported":1742184747,"current_range_meters":14400,"station_id":"ce4bhah2rcd13ifvqei0","pricing_plan_id":"cebpf4jnsgd1na2vs0mg"},{"bike_id":"f3b6156c-2087-4f03-a6ba-2a9b58eef4d8","system_id":"levelo_inurba_marseille","lat":43.24091,"lon":5.37716,"is_reserved":false,"is_disabled":false,"rental_uris":{"android":"levelo://app?vid=f3b6156c-2087-4f03-a6ba-2a9b58eef4d8","ios":"levelo://app?vid=f3b6156c-2087-4f03-a6ba-2a9b58eef4d8"},"vehicle_type_id":"4","last_reported":1742184747,"current_range_meters":14400,"station_id":"ce4bhnp2rcd13ifvqgvg","pricing_plan_id":"cebpf4jnsgd1na2vs0mg"},{"bike_id":"425e256a-56dd-4092-91ae-c8c49ae7ee99","system_id":"levelo_inurba_marseille","lat":43.30856,"lon":5.39666,"is_reserved":false,"is_disabled":false,"rental_uris":{"android":"levelo://app?vid=425e256a-56dd-4092-91ae-c8c49ae7ee99","ios":"levelo://app?vid=425e256a-56dd-4092-91ae-c8c49ae7ee99"},"vehicle_type_id":"4","last_reported":1742184747,"current_range_meters":14400,"station_id":"ce4bh012rcd13ifvqcv0","pricing_plan_id":"cebpf4jnsgd1na2vs0mg"},{"bike_id":"611e1d18-f8ac-41a1-ace3-de54f198d91d","system_id":"levelo_inurba_marseille","lat":43.288417,"lon":5.358378,"is_reserved":false,"is_disabled":true,"rental_uris":{"android":"levelo://app?vid=611e1d18-f8ac-41a1-ace3-de54f198d91d","ios":"levelo://app?vid=611e1d18-f8ac-41a1-ace3-de54f198d91d"},"vehicle_type_id":"4","last_reported":1742184747,"current_range_meters":14400,"station_id":"ce4bhb12rcd13ifvqem0","pricing_plan_id":"cebpf4jnsgd1na2vs0mg"},{"bike_id":"3c0a0b9d-ab1b-4ecc-a265-5e422decaa33","system_id":"levelo_inurba_marseille","lat":43.27352,"lon":5.36246,"is_reserved":false,"is_disabled":true,"rental_uris":{"android":"levelo://app?vid=3c0a0b9d-ab1b-4ecc-a265-5e422decaa33","ios":"levelo://app?vid=3c0a0b9d-ab1b-4ecc-a265-5e422decaa33"},"vehicle_type_id":"4","last_reported":1742184747,"current_range_meters":14400,"station_id":"ce4bhbh2rcd13ifvqeo0","pricing_plan_id":"cebpf4jnsgd1na2vs0mg"},{"bike_id":"60bfd6c5-de39-4bed-9e2d-88f5fdd4f3f6","system_id":"levelo_inurba_marseille","lat":43.27991,"lon":5.40025,"is_reserved":false,"is_disabled":false,"rental_uris":{"android":"levelo://app?vid=60bfd6c5-de39-4bed-9e2d-88f5fdd4f3f6","ios":"levelo://app?vid=60bfd6c5-de39-4bed-9e2d-88f5fdd4f3f6"},"vehicle_type_id":"4","last_reported":1742184747,"current_range_meters":14400,"station_id":"ce4bho92rcd13ifvqh4g","pricing_plan_id":"cebpf4jnsgd1na2vs0mg"},{"bike_id":"287304a2-25c9-4cd9-ae7e-b0c71294e3ec","system_id":"levelo_inurba_marseille","lat":43.2866,"lon":5.3634,"is_reserved":false,"is_disabled":false,"rental_uris":{"android":"levelo://app?vid=287304a2-25c9-4cd9-ae7e-b0c71294e3ec","ios":"levelo://app?vid=287304a2-25c9-4cd9-ae7e-b0c71294e3ec"},"vehicle_type_id":"4","last_reported":1742184747,"current_range_meters":14800,"station_id":"ce4bhah2rcd13ifvqej0","pricing_plan_id":"cebpf4jnsgd1na2vs0mg"},{"bike_id":"9d9f2277-2aaa-427c-9512-588df9579090","system_id":"levelo_inurba_marseille","lat":43.28718,"lon":5.39989,"is_reserved":false,"is_disabled":false,"rental_uris":{"android":"levelo://app?vid=9d9f2277-2aaa-427c-9512-588df9579090","ios":"levelo://app?vid=9d9f2277-2aaa-427c-9512-588df9579090"},"vehicle_type_id":"4","last_reported":1742184747,"current_range_meters":14800,"station_id":"ce4bho92rcd13ifvqh3g","pricing_plan_id":"cebpf4jnsgd1na2vs0mg"},{"bike_id":"f48f1c5a-2070-4919-8ff4-122819d10d1f","system_id":"levelo_inurba_marseille","lat":43.3112,"lon":5.37753,"is_reserved":false,"is_disabled":false,"rental_uris":{"android":"levelo://app?vid=f48f1c5a-2070-4919-8ff4-122819d10d1f","ios":"levelo://app?vid=f48f1c5a-2070-4919-8ff4-122819d10d1f"},"vehicle_type_id":"4","last_reported":1742184747,"current_range_meters":14800,"station_id":"ce4bgt92rcd13ifvqcg0","pricing_plan_id":"cebpf4jnsgd1na2vs0mg"},{"bike_id":"9c88cbe5-3617-4fe4-8bfd-243334d7fe47","system_id":"levelo_inurba_marseille","lat":43.24668,"lon":5.38138,"is_reserved":false,"is_disabled":false,"rental_uris":{"android":"levelo://app?vid=9c88cbe5-3617-4fe4-8bfd-243334d7fe47","ios":"levelo://app?vid=9c88cbe5-3617-4fe4-8bfd-243334d7fe47"},"vehicle_type_id":"4","last_reported":1742184747,"current_range_meters":14800,"station_id":"ce4bhih2rcd13ifvqfr0","pricing_plan_id":"cebpf4jnsgd1na2vs0mg"},{"bike_id":"421ffe78-25bf-4527-9fb4-a76483712f90","system_id":"levelo_inurba_marseille","lat":43.229331,"lon":5.353736,"is_reserved":false,"is_disabled":false,"rental_uris":{"android":"levelo://app?vid=421ffe78-25bf-4527-9fb4-a76483712f90","ios":"levelo://app?vid=421ffe78-25bf-4527-9fb4-a76483712f90"},"vehicle_type_id":"4","last_reported":1742184747,"current_range_meters":14800,"station_id":"cpo3532slgdg3j2ikp40","pricing_plan_id":"cebpf4jnsgd1na2vs0mg"},{"bike_id":"f94de7fa-5e4f-4999-99c8-9c98dc8c7305","system_id":"levelo_inurba_marseille","lat":43.24996,"lon":5.38929,"is_reserved":false,"is_disabled":false,"rental_uris":{"android":"levelo://app?vid=f94de7fa-5e4f-4999-99c8-9c98dc8c7305","ios":"levelo://app?vid=f94de7fa-5e4f-4999-99c8-9c98dc8c7305"},"vehicle_type_id":"4","last_reported":1742184747,"current_range_meters":15200,"station_id":"ce4bhgp2rcd13ifvqfd0","pricing_plan_id":"cebpf4jnsgd1na2vs0mg"},{"bike_id":"d12ca0c9-1c82-41e1-8e38-7feaf441af77","system_id":"levelo_inurba_marseille","lat":43.31122,"lon":5.37775,"is_reserved":false,"is_disabled":false,"rental_uris":{"android":"levelo://app?vid=d12ca0c9-1c82-41e1-8e38-7feaf441af77","ios":"levelo://app?vid=d12ca0c9-1c82-41e1-8e38-7feaf441af77"},"vehicle_type_id":"4","last_reported":1742184747,"current_range_meters":15200,"station_id":"ce4bgt92rcd13ifvqcg0","pricing_plan_id":"cebpf4jnsgd1na2vs0mg"},{"bike_id":"f623f925-d267-46f9-8867-8bad771b20b5","system_id":"levelo_inurba_marseille","lat":43.31357,"lon":5.38494,"is_reserved":false,"is_disabled":false,"rental_uris":{"android":"levelo://app?vid=f623f925-d267-46f9-8867-8bad771b20b5","ios":"levelo://app?vid=f623f925-d267-46f9-8867-8bad771b20b5"},"vehicle_type_id":"4","last_reported":1742184747,"current_range_meters":15200,"station_id":"ce4bgt92rcd13ifvqcf0","pricing_plan_id":"cebpf4jnsgd1na2vs0mg"},{"bike_id":"7c66673a-04c3-4d32-a675-3d59fed633d9","system_id":"levelo_inurba_marseille","lat":43.231956,"lon":5.355504,"is_reserved":false,"is_disabled":false,"rental_uris":{"android":"levelo://app?vid=7c66673a-04c3-4d32-a675-3d59fed633d9","ios":"levelo://app?vid=7c66673a-04c3-4d32-a675-3d59fed633d9"},"vehicle_type_id":"4","last_reported":1742184747,"current_range_meters":15200,"station_id":"ce4bhu92rcd13ifvqi70","pricing_plan_id":"cebpf4jnsgd1na2vs0mg"},{"bike_id":"ecc07fa5-6dc0-4b18-8842-85c2f37a9d32","system_id":"levelo_inurba_marseille","lat":43.288449,"lon":5.35846,"is_reserved":false,"is_disabled":false,"rental_uris":{"android":"levelo://app?vid=ecc07fa5-6dc0-4b18-8842-85c2f37a9d32","ios":"levelo://app?vid=ecc07fa5-6dc0-4b18-8842-85c2f37a9d32"},"vehicle_type_id":"4","last_reported":1742184747,"current_range_meters":15200,"station_id":"ce4bhb12rcd13ifvqem0","pricing_plan_id":"cebpf4jnsgd1na2vs0mg"},{"bike_id":"63d40b2b-3511-429c-a294-29d305f6c8a2","system_id":"levelo_inurba_marseille","lat":43.25703,"lon":5.41114,"is_reserved":false,"is_disabled":false,"rental_uris":{"android":"levelo://app?vid=63d40b2b-3511-429c-a294-29d305f6c8a2","ios":"levelo://app?vid=63d40b2b-3511-429c-a294-29d305f6c8a2"},"vehicle_type_id":"4","last_reported":1742184747,"current_range_meters":15200,"station_id":"ce4bhkp2rcd13ifvqgd0","pricing_plan_id":"cebpf4jnsgd1na2vs0mg"},{"bike_id":"41185e3d-5edc-434f-8dc7-6a844863e74d","system_id":"levelo_inurba_marseille","lat":43.28453,"lon":5.38558,"is_reserved":false,"is_disabled":true,"rental_uris":{"android":"levelo://app?vid=41185e3d-5edc-434f-8dc7-6a844863e74d","ios":"levelo://app?vid=41185e3d-5edc-434f-8dc7-6a844863e74d"},"vehicle_type_id":"4","last_reported":1742184747,"current_range_meters":16000,"station_id":"ce4bh8p2rcd13ifvqeb0","pricing_plan_id":"cebpf4jnsgd1na2vs0mg"},