{"last_updated":1748372889,"ttl":60,"version":"2.2","data":{"bikes":[{"bike_id":"8dc5b322-4fa9-4765-87b8-70235d83f0af","system_id":"levelo_inurba_marseille","lat":43.28462,"lon":5.35898,"is_reserved":false,"is_disabled":false,"rental_uris":{"android":"levelo://app?vid=8dc5b322-4fa9-4765-87b8-70235d83f0af","ios":"levelo://app?vid=8dc5b322-4fa9-4765-87b8-70235d83f0af"},"vehicle_type_id":"4","last_reported":1748372889,"current_range_meters":2000,"station_id":"ce4bhah2rcd13ifvqei0","pricing_plan_id":"cebpf4jnsgd1na2vs0mg"},{"bike_id":"0c747ed9-78bf-414d-ac1a-4e0ad8399362","system_id":"levelo_inurba_marseille","lat":43.29198,"lon":5.39318,"is_reserved":false,"is_disabled":false,"rental_uris":{"android":"levelo://app?vid=0c747ed9-78bf-414d-ac1a-4e0ad8399362","ios":"levelo://app?vid=0c747ed9-78bf-414d-ac1a-4e0ad8399362"},"vehicle_type_id":"4","last_reported":1748372889,"current_range_meters":2800,"station_id":"ce4bh192rcd13ifvqdd0","pricing_plan_id":"cebpf4jnsgd1na2vs0mg"},{"bike_id":"d0f4d136-d412-4cd4-afdb-4dd7acb4ac4d","system_id":"levelo_inurba_marseille","lat":43.28857,"lon":5.39316,"is_reserved":false,"is_disabled":false,"rental_uris":{"android":"levelo://app?vid=d0f4d136-d412-4cd4-afdb-4dd7acb4ac4d","ios":"levelo://app?vid=d0f4d136-d412-4cd4-afdb-4dd7acb4ac4d"},"vehicle_type_id":"4","last_reported":1748372889,"current_range_meters":2800,"station_id":"ce4bh2p2rcd13ifvqdi0","pricing_plan_id":"cebpf4jnsgd1na2vs0mg"},{"bike_id":"fdc7b6b6-20d5-44d4-8f7a-2f4936fea606","system_id":"levelo_inurba_marseille","lat":43.29225,"lon":5.36036,"is_reserved":false,"is_disabled":false,"rental_uris":{"android":"levelo://app?vid=fdc7b6b6-20d5-44d4-8f7a-2f4936fea606","ios":"levelo://app?vid=fdc7b6b6-20d5-44d4-8f7a-2f4936fea606"},"vehicle_type_id":"4","last_reported":1748372889,"current_range_meters":3200,"station_id":"ce4bhbh2rcd13ifvqeqg","pricing_plan_id":"cebpf4jnsgd1na2vs0mg"},{"bike_id":"d7c51700-3565-42a2-9d0e-558c957361a3","system_id":"levelo_inurba_marseille","lat":43.30732,"lon":5.42447,"is_reserved":false,"is_disabled":false,"rental_uris":{"android":"levelo://app?vid=d7c51700-3565-42a2-9d0e-558c957361a3","ios":"levelo://app?vid=d7c51700-3565-42a2-9d0e-558c957361a3"},"vehicle_type_id":"4","last_reported":1748372889,"current_range_meters":3600,"station_id":"st_cvj6ca6bvosntc0bfgr0","pricing_plan_id":"cebpf4jnsgd1na2vs0mg"},{"bike_id":"9ffae4f2-3fc4-46ad-ad13-0000ad8db1ca","system_id":"levelo_inurba_marseille","lat":43.28614,"lon":5.35112,"is_reserved":false,"is_disabled":false,"rental_uris":{"android":"levelo://app?vid=9ffae4f2-3fc4-46ad-ad13-0000ad8db1ca","ios":"levelo://app?vid=9ffae4f2-3fc4-46ad-ad13-0000ad8db1ca"},"vehicle_type_id":"4","last_reported":1748372889,"current_range_meters":3600,"station_id":"ce4bhch2rcd13ifvqeug","pricing_plan_id":"cebpf4jnsgd1na2vs0mg"},{"bike_id":"80ac6b6c-2922-4a4f-b8d1-944f0ed8f841","system_id":"levelo_inurba_marseille","lat":43.26559,"lon":5.403256,"is_reserved":false,"is_disabled":false,"rental_uris":{"android":"levelo://app?vid=80ac6b6c-2922-4a4f-b8d1-944f0ed8f841","ios":"levelo://app?vid=80ac6b6c-2922-4a4f-b8d1-944f0ed8f841"},"vehicle_type_id":"4","last_reported":1748372889,"current_range_meters":3600,"station_id":"","pricing_plan_id":"cebpf4jnsgd1na2vs0mg"},{"bike_id":"2621921b-742a-4cef-8fb9-86afebf4ef48","system_id":"levelo_inurba_marseille","lat":43.26807,"lon":5.4027,"is_reserved":false,"is_disabled":false,"rental_uris":{"android":"levelo://app?vid=2621921b-742a-4cef-8fb9-86afebf4ef48","ios":"levelo://app?vid=2621921b-742a-4cef-8fb9-86afebf4ef48"},"vehicle_type_id":"4","last_reported":1748372889,"current_range_meters":3600,"station_id":"ce501612rcd8frsf0b60","pricing_plan_id":"cebpf4jnsgd1na2vs0mg"},{"bike_id":"f6d5dae2-e439-4774-8095-e27b969fafe1","system_id":"levelo_inurba_marseille","lat":43.29583,"lon":5.3674,"is_reserved":false,"is_disabled":false,"rental_uris":{"android":"levelo://app?vid=f6d5dae2-e439-4774-8095-e27b969fafe1","ios":"levelo://app?vid=f6d5dae2-e439-4774-8095-e27b969fafe1"},"vehicle_type_id":"4","last_reported":1748372889,"current_range_meters":3600,"station_id":"ce4bgph2rcd13ifvqc2g","pricing_plan_id":"cebpf4jnsgd1na2vs0mg"},{"bike_id":"d94eccc8-20b5-446f-ac03-3021ab96bc2b","system_id":"levelo_inurba_marseille","lat":43.21742,"lon":5.34604,"is_reserved":false,"is_disabled":false,"rental_uris":{"android":"levelo://app?vid=d94eccc8-20b5-446f-ac03-3021ab96bc2b","ios":"levelo://app?vid=d94eccc8-20b5-446f-ac03-3021ab96bc2b"},"vehicle_type_id":"4","last_reported":1748372889,"current_range_meters":3600,"station_id":"st_cvj6r9ubvosntc0bgbag","pricing_plan_id":"cebpf4jnsgd1na2vs0mg"},{"bike_id":"29aaada0-4f08-42bc-8d0a-fa466cbf4689","system_id":"levelo_inurba_marseille","lat":43.27846,"lon":5.3925,"is_reserved":false,"is_disabled":false,"rental_uris":{"android":"levelo://app?vid=29aaada0-4f08-42bc-8d0a-fa466cbf4689","ios":"levelo://app?vid=29aaada0-4f08-42bc-8d0a-fa466cbf4689"},"vehicle_type_id":"4","last_reported":1748372889,"current_range_meters":4000,"station_id":"ce4bhjp2rcd13ifvqga0","pricing_plan_id":"cebpf4jnsgd1na2vs0mg"},{"bike_id":"898b9e02-699b-401b-ab12-875ad1622803","system_id":"levelo_inurba_marseille","lat":43.30317,"lon":5.40447,"is_reserved":false,"is_disabled":false,"rental_uris":{"android":"levelo://app?vid=898b9e02-699b-401b-ab12-875ad1622803","ios":"levelo://app?vid=898b9e02-699b-401b-ab12-875ad1622803"},"vehicle_type_id":"4","last_reported":1748372889,"current_range_meters":4000,"station_id":"ce4bh012rcd13ifvqd10","pricing_plan_id":"cebpf4jnsgd1na2vs0mg"},{"bike_id":"a4aef2b9-b7e8-4e2d-8340-592d28bc6c85","system_id":"levelo_inurba_marseille","lat":43.337654,"lon":5.37434,"is_reserved":false,"is_disabled":false,"rental_uris":{"android":"levelo://app?vid=a4aef2b9-b7e8-4e2d-8340-592d28bc6c85","ios":"levelo://app?vid=a4aef2b9-b7e8-4e2d-8340-592d28bc6c85"},"vehicle_type_id":"4","last_reported":1748372889,"current_range_meters":4000,"station_id":"","pricing_plan_id":"cebpf4jnsgd1na2vs0mg"},{"bike_id":"d74483e1-13cc-4905-8a14-1a72a7c1bcaa","system_id":"levelo_inurba_marseille","lat":43.24166,"lon":5.39703,"is_reserved":false,"is_disabled":false,"rental_uris":{"android":"levelo://app?vid=d74483e1-13cc-4905-8a14-1a72a7c1bcaa","ios":"levelo://app?vid=d74483e1-13cc-4905-8a14-1a72a7c1bcaa"},"vehicle_type_id":"4","last_reported":1748372889,"current_range_meters":4000,"station_id":"ce4bhn12rcd13ifvqgpg","pricing_plan_id":"cebpf4jnsgd1na2vs0mg"},{"bike_id":"5a1acdae-bf0f-4ee6-9e70-4ee5815a4791","system_id":"levelo_inurba_marseille","lat":43.30187,"lon":5.36615,"is_reserved":false,"is_disabled":false,"rental_uris":{"android":"levelo://app?vid=5a1acdae-bf0f-4ee6-9e70-4ee5815a4791","ios":"levelo://app?vid=5a1acdae-bf0f-4ee6-9e70-4ee5815a4791"},"vehicle_type_id":"4","last_reported":1748372889,"current_range_meters":4000,"station_id":"ce4bgrh2rcd13ifvqc8g","pricing_plan_id":"cebpf4jnsgd1na2vs0mg"},{"bike_id":"6943e0a6-5a6f-4577-b958-0377d6b8f94c","system_id":"levelo_inurba_marseille","lat":43.30212,"lon":5.39477,"is_reserved":false,"is_disabled":false,"rental_uris":{"android":"levelo://app?vid=6943e0a6-5a6f-4577-b958-0377d6b8f94c","ios":"levelo://app?vid=6943e0a6-5a6f-4577-b958-0377d6b8f94c"},"vehicle_type_id":"4","last_reported":1748372889,"current_range_meters":4000,"station_id":"ce4bh0p2rcd13ifvqd70","pricing_plan_id":"cebpf4jnsgd1na2vs0mg"},{"bike_id":"fc56555b-396d-4667-b896-0ad86036e39e","system_id":"levelo_inurba_marseille","lat":43.25927,"lon":5.38037,"is_reserved":false,"is_disabled":false,"rental_uris":{"android":"levelo://app?vid=fc56555b-396d-4667-b896-0ad86036e39e","ios":"levelo://app?vid=fc56555b-396d-4667-b896-0ad86036e39e"},"vehicle_type_id":"4","last_reported":1748372889,"current_range_meters":4400,"station_id":"","pricing_plan_id":"cebpf4jnsgd1na2vs0mg"},{"bike_id":"98199fa3-8257-4d1a-8167-55f453d87b0d","system_id":"levelo_inurba_marseille","lat":43.286642,"lon":5.386703,"is_reserved":false,"is_disabled":false,"rental_uris":{"android":"levelo://app?vid=98199fa3-8257-4d1a-8167-55f453d87b0d","ios":"levelo://app?vid=98199fa3-8257-4d1a-8167-55f453d87b0d"},"vehicle_type_id":"4","last_reported":1748372889,"current_range_meters":4400,"station_id":"ce4bh492rcd13ifvqdug","pricing_plan_id":"cebpf4jnsgd1na2vs0mg"},{"bike_id":"2532535e-dea2-4f0a-965d-416a2611cae0","system_id":"levelo_inurba_marseille","lat":43.24167,"lon":5.36393,"is_reserved":false,"is_disabled":false,"rental_uris":{"android":"levelo://app?vid=2532535e-dea2-4f0a-965d-416a2611cae0","ios":"levelo://app?vid=2532535e-dea2-4f0a-965d-416a2611cae0"},"vehicle_type_id":"4","last_reported":1748372889,"current_range_meters":4400,"station_id":"cpo36qri1sfpv3e86is0","pricing_plan_id":"cebpf4jnsgd1na2vs0mg"},{"bike_id":"958f5e27-5fd5-4623-b1af-881eec91335e","system_id":"levelo_inurba_marseille","lat":43.30594,"lon":5.3936,"is_reserved":false,"is_disabled":false,"rental_uris":{"android":"levelo://app?vid=958f5e27-5fd5-4623-b1af-881eec91335e","ios":"levelo://app?vid=958f5e27-5fd5-4623-b1af-881eec91335e"},"vehicle_type_id":"4","last_reported":1748372889,"current_range_meters":4400,"station_id":"ce4bh0p2rcd13ifvqd80","pricing_plan_id":"cebpf4jnsgd1na2vs0mg"},{"bike_id":"b499a690-e89b-4e27-bf13-b8c64bf05acc","system_id":"levelo_inurba_marseille","lat":43.3054,"lon":5.38425,"is_reserved":false,"is_disabled":false,"rental_uris":{"android":"levelo://app?vid=b499a690-e89b-4e27-bf13-b8c64bf05acc","ios":"levelo://app?vid=b499a690-e89b-4e27-bf13-b8c64bf05acc"},"vehicle_type_id":"4","last_reported":1748372889,"current_range_meters":8800,"station_id":"ce4bgg92rcd13ifvqb30","pricing_plan_id":"cebpf4jnsgd1na2vs0mg"},{"bike_id":"c2bb4d4f-8308-486d-b437-6f256a847e38","system_id":"levelo_inurba_marseille","lat":43.28658,"lon":5.36352,"is_reserved":false,"is_disabled":false,"rental_uris":{"android":"levelo://app?vid=c2bb4d4f-8308-486d-b437-6f256a847e38","ios":"levelo://app?vid=c2bb4d4f-8308-486d-b437-6f256a847e38"},"vehicle_type_id":"4","last_reported":1748372889,"current_range_meters":4400,"station_id":"ce4bhah2rcd13ifvqej0","pricing_plan_id":"cebpf4jnsgd1na2vs0mg"},{"bike_id":"15c7a34e-7404-4fa9-894f-93898d26e822","system_id":"levelo_inurba_marseille","lat":43.25118,"lon":5.40317,"is_reserved":false,"is_disabled":false,"rental_uris":{"android":"levelo://app?vid=15c7a34e-7404-4fa9-894f-93898d26e822","ios":"levelo://app?vid=15c7a34e-7404-4fa9-894f-93898d26e822"},"vehicle_type_id":"4","last_reported":1748372889,"current_range_meters":4400,"station_id":"ce4bhlh2rcd13ifvqgig","pricing_plan_id":"cebpf4jnsgd1na2vs0mg"},{"bike_id":"1031a0de-1a80-4c50-9132-2decfc1c7d44","system_id":"levelo_inurba_marseille","lat":43.23181,"lon":5.39993,"is_reserved":false,"is_disabled":false,"rental_uris":{"android":"levelo://app?vid=1031a0de-1a80-4c50-9132-2decfc1c7d44","ios":"levelo://app?vid=1031a0de-1a80-4c50-9132-2decfc1c7d44"},"vehicle_type_id":"4","last_reported":1748372889,"current_range_meters":4800,"station_id":"ce4bhn12rcd13ifvqgqg","pricing_plan_id":"cebpf4jnsgd1na2vs0mg"},{"bike_id":"069da931-ad7a-46e7-83f2-3e021650a079","system_id":"levelo_inurba_marseille","lat":43.287031,"lon":5.400045,"is_reserved":false,"is_disabled":true,"rental_uris":{"android":"levelo://app?vid=069da931-ad7a-46e7-83f2-3e021650a079","ios":"levelo://app?vid=069da931-ad7a-46e7-83f2-3e021650a079"},"vehicle_type_id":"4","last_reported":1748372889,"current_range_meters":4800,"station_id":"ce4bho92rcd13ifvqh3g","pricing_plan_id":"cebpf4jnsgd1na2vs0mg"},{"bike_id":"512a6c79-762d-445a-9342-cd4e1054582f","system_id":"levelo_inurba_marseille","lat":43.29573,"lon":5.39968,"is_reserved":false,"is_disabled":false,"rental_uris":{"android":"levelo://app?vid=512a6c79-762d-445a-9342-cd4e1054582f","ios":"levelo://app?vid=512a6c79-762d-445a-9342-cd4e1054582f"},"vehicle_type_id":"4","last_reported":1748372889,"current_range_meters":8400,"station_id":"ce4bh312rcd13ifvqdj0","pricing_plan_id":"cebpf4jnsgd1na2vs0mg"},{"bike_id":"31a2f64e-2511-42da-86d6-ab925dcbaad6","system_id":"levelo_inurba_marseille","lat":43.28616,"lon":5.35103,"is_reserved":false,"is_disabled":false,"rental_uris":{"android":"levelo://app?vid=31a2f64e-2511-42da-86d6-ab925dcbaad6","ios":"levelo://app?vid=31a2f64e-2511-42da-86d6-ab925dcbaad6"},"vehicle_type_id":"4","last_reported":1748372889,"current_range_meters":4800,"station_id":"ce4bhch2rcd13ifvqeug","pricing_plan_id":"cebpf4jnsgd1na2vs0mg"},{"bike_id":"7fd56c18-471f-49a2-bd7e-5c1dc40b617a","system_id":"levelo_inurba_marseille","lat":43.29573,"lon":5.39971,"is_reserved":false,"is_disabled":false,"rental_uris":{"android":"levelo://app?vid=7fd56c18-471f-49a2-bd7e-5c1dc40b617a","ios":"levelo://app?vid=7fd56c18-471f-49a2-bd7e-5c1dc40b617a"},"vehicle_type_id":"4","last_reported":1748372889,"current_range_meters":4800,"station_id":"ce4bh312rcd13ifvqdj0","pricing_plan_id":"cebpf4jnsgd1na2vs0mg"},{"bike_id":"b90a1741-ff58-4f93-af8a-6ed3ec765f04","system_id":"levelo_inurba_marseille","lat":43.275603,"lon":5.384268,"is_reserved":false,"is_disabled":false,"rental_uris":{"android":"levelo://app?vid=b90a1741-ff58-4f93-af8a-6ed3ec765f04","ios":"levelo://app?vid=b90a1741-ff58-4f93-af8a-6ed3ec765f04"},"vehicle_type_id":"4","last_reported":1748372889,"current_range_meters":5600,"station_id":"ce4bhh92rcd13ifvqfi0","pricing_plan_id":"cebpf4jnsgd1na2vs0mg"},{"bike_id":"f1733994-596a-42d8-ba1f-289ddc36b89b","system_id":"levelo_inurba_marseille","lat":43.22523,"lon":5.34767,"is_reserved":false,"is_disabled":false,"rental_uris":{"android":"levelo://app?vid=f1733994-596a-42d8-ba1f-289ddc36b89b","ios":"levelo://app?vid=f1733994-596a-42d8-ba1f-289ddc36b89b"},"vehicle_type_id":"4","last_reported":1748372889,"current_range_meters":5600,"station_id":"","pricing_plan_id":"cebpf4jnsgd1na2vs0mg"},{"bike_id":"83ef8db8-c361-471c-ba05-8395245fa552","system_id":"levelo_inurba_marseille","lat":43.28424,"lon":5.37525,"is_reserved":false,"is_disabled":true,"rental_uris":{"android":"levelo://app?vid=83ef8db8-c361-471c-ba05-8395245fa552","ios":"levelo://app?vid=83ef8db8-c361-471c-ba05-8395245fa552"},"vehicle_type_id":"4","last_reported":1748372889,"current_range_meters":5600,"station_id":"ce4bh412rcd13ifvqds0","pricing_plan_id":"cebpf4jnsgd1na2vs0mg"},{"bike_id":"d218db87-c550-4728-b36b-dc2afd73dbf7","system_id":"levelo_inurba_marseille","lat":43.28473,"lon":5.38416,"is_reserved":false,"is_disabled":false,"rental_uris":{"android":"levelo://app?vid=d218db87-c550-4728-b36b-dc2afd73dbf7","ios":"levelo://app?vid=d218db87-c550-4728-b36b-dc2afd73dbf7"},"vehicle_type_id":"4","last_reported":1748372889,"current_range_meters":4800,"station_id":"ce4bh512rcd13ifvqe3g","pricing_plan_id":"cebpf4jnsgd1na2vs0mg"},{"bike_id":"c9ac9815-cace-4f5a-bc55-391519ae5e1e","system_id":"levelo_inurba_marseille","lat":43.27174,"lon":5.40994,"is_reserved":false,"is_disabled":false,"rental_uris":{"android":"levelo://app?vid=c9ac9815-cace-4f5a-bc55-391519ae5e1e","ios":"levelo://app?vid=c9ac9815-cace-4f5a-bc55-391519ae5e1e"},"vehicle_type_id":"4","last_reported":1748372889,"current_range_meters":5600,"station_id":"ce4bhl12rcd13ifvqgf0","pricing_plan_id":"cebpf4jnsgd1na2vs0mg"},{"bike_id":"e7669b42-a817-47f7-8186-554076d29009","system_id":"levelo_inurba_marseille","lat":43.28613,"lon":5.35112,"is_reserved":false,"is_disabled":false,"rental_uris":{"android":"levelo://app?vid=e7669b42-a817-47f7-8186-554076d29009","ios":"levelo://app?vid=e7669b42-a817-47f7-8186-554076d29009"},"vehicle_type_id":"4","last_reported":1748372889,"current_range_meters":5600,"station_id":"ce4bhch2rcd13ifvqeug","pricing_plan_id":"cebpf4jnsgd1na2vs0mg"},{"bike_id":"2aacfed6-4162-4449-a980-5e44856bc40d","system_id":"levelo_inurba_marseille","lat":43.29895,"lon":5.43671,"is_reserved":false,"is_disabled":false,"rental_uris":{"android":"levelo://app?vid=2aacfed6-4162-4449-a980-5e44856bc40d","ios":"levelo://app?vid=2aacfed6-4162-4449-a980-5e44856bc40d"},"vehicle_type_id":"4","last_reported":1748372889,"current_range_meters":5600,"station_id":"ce4bhpp2rcd13ifvqhfg","pricing_plan_id":"cebpf4jnsgd1na2vs0mg"},{"bike_id":"6510e843-d4df-4989-a1e2-6719e90e34fe","system_id":"levelo_inurba_marseille","lat":43.29711,"lon":5.36598,"is_reserved":false,"is_disabled":false,"rental_uris":{"android":"levelo://app?vid=6510e843-d4df-4989-a1e2-6719e90e34fe","ios":"levelo://app?vid=6510e843-d4df-4989-a1e2-6719e90e34fe"},"vehicle_type_id":"4","last_reported":1748372889,"current_range_meters":4800,"station_id":"ce4bgn12rcd13ifvqbt0","pricing_plan_id":"cebpf4jnsgd1na2vs0mg"},{"bike_id":"fd908bdf-5d81-4122-b313-442572d15912","system_id":"levelo_inurba_marseille","lat":43.29513,"lon":5.39403,"is_reserved":false,"is_disabled":true,"rental_uris":{"android":"levelo://app?vid=fd908bdf-5d81-4122-b313-442572d15912","ios":"levelo://app?vid=fd908bdf-5d81-4122-b313-442572d15912"},"vehicle_type_id":"4","last_reported":1748372889,"current_range_meters":6000,"station_id":"ce4bh292rcd13ifvqdf0","pricing_plan_id":"cebpf4jnsgd1na2vs0mg"},{"bike_id":"9b33e131-456f-4624-8691-a7cd4e3c6065","system_id":"levelo_inurba_marseille","lat":43.27382,"lon":5.36243,"is_reserved":false,"is_disabled":false,"rental_uris":{"android":"levelo://app?vid=9b33e131-456f-4624-8691-a7cd4e3c6065","ios":"levelo://app?vid=9b33e131-456f-4624-8691-a7cd4e3c6065"},"vehicle_type_id":"4","last_reported":1748372889,"current_range_meters":6000,"station_id":"ce4bhbh2rcd13ifvqeo0","pricing_plan_id":"cebpf4jnsgd1na2vs0mg"},{"bike_id":"34930d75-c545-450b-9c57-987ee6b7d78e","system_id":"levelo_inurba_marseille","lat":43.23951,"lon":5.36642,"is_reserved":false,"is_disabled":false,"rental_uris":{"android":"levelo://app?vid=34930d75-c545-450b-9c57-987ee6b7d78e","ios":"levelo://app?vid=34930d75-c545-450b-9c57-987ee6b7d78e"},"vehicle_type_id":"4","last_reported":1748372889,"current_range_meters":6000,"station_id":"ce4bhi12rcd13ifvqfp0","pricing_plan_id":"cebpf4jnsgd1na2vs0mg"},{"bike_id":"fff6a872-04df-45be-9338-38c91d9c28f5","system_id":"levelo_inurba_marseille","lat":43.27378,"lon":5.36264,"is_reserved":false,"is_disabled":false,"rental_uris":{"android":"levelo://app?vid=fff6a872-04df-45be-9338-38c91d9c28f5","ios":"levelo://app?vid=fff6a872-04df-45be-9338-38c91d9c28f5"},"vehicle_type_id":"4","last_reported":1748372889,"current_range_meters":6000,"station_id":"ce4bhbh2rcd13ifvqeo0","pricing_plan_id":"cebpf4jnsgd1na2vs0mg"},{"bike_id":"613b8182-fd28-425c-b74f-c2f1a8f14b6e","system_id":"levelo_inurba_marseille","lat":43.29712,"lon":5.36607,"is_reserved":false,"is_disabled":false,"rental_uris":{"android":"levelo://app?vid=613b8182-fd28-425c-b74f-c2f1a8f14b6e","ios":"levelo://app?vid=613b8182-fd28-425c-b74f-c2f1a8f14b6e"},"vehicle_type_id":"4","last_reported":1748372889,"current_range_meters":6400,"station_id":"ce4bgn12rcd13ifvqbt0","pricing_plan_id":"cebpf4jnsgd1na2vs0mg"},{"bike_id":"70fb0e8b-898b-4c36-a32c-b0d83efa2a7c","system_id":"levelo_inurba_marseille","lat":43.30599,"lon":5.39349,"is_reserved":false,"is_disabled":false,"rental_uris":{"android":"levelo://app?vid=70fb0e8b-898b-4c36-a32c-b0d83efa2a7c","ios":"levelo://app?vid=70fb0e8b-898b-4c36-a32c-b0d83efa2a7c"},"vehicle_type_id":"4","last_reported":1748372889,"current_range_meters":6400,"station_id":"ce4bh0p2rcd13ifvqd80","pricing_plan_id":"cebpf4jnsgd1na2vs0mg"},{"bike_id":"f0601d68-e62d-44f7-a625-080f5350f1f0","system_id":"levelo_inurba_marseille","lat":43.29772,"lon":5.37102,"is_reserved":false,"is_disabled":false,"rental_uris":{"android":"levelo://app?vid=f0601d68-e62d-44f7-a625-080f5350f1f0","ios":"levelo://app?vid=f0601d68-e62d-44f7-a625-080f5350f1f0"},"vehicle_type_id":"4","last_reported":1748372889,"current_range_meters":6400,"station_id":"ce4bgop2rcd13ifvqc1g","pricing_plan_id":"cebpf4jnsgd1na2vs0mg"},{"bike_id":"2d393347-525f-40cd-8bc8-636e6636ef28","system_id":"levelo_inurba_marseille","lat":43.26232,"lon":5.40451,"is_reserved":false,"is_disabled":false,"rental_uris":{"android":"levelo://app?vid=2d393347-525f-40cd-8bc8-636e6636ef28","ios":"levelo://app?vid=2d393347-525f-40cd-8bc8-636e6636ef28"},"vehicle_type_id":"4","last_reported":1748372889,"current_range_meters":6400,"station_id":"ce4bhmh2rcd13ifvqgmg","pricing_plan_id":"cebpf4jnsgd1na2vs0mg"},{"bike_id":"56d6dd6a-43c9-4ca2-a90c-da5903a9decb","system_id":"levelo_inurba_marseille","lat":43.31684,"lon":5.40477,"is_reserved":false,"is_disabled":false,"rental_uris":{"android":"levelo://app?vid=56d6dd6a-43c9-4ca2-a90c-da5903a9decb","ios":"levelo://app?vid=56d6dd6a-43c9-4ca2-a90c-da5903a9decb"},"vehicle_type_id":"4","last_reported":1748372889,"current_range_meters":6400,"station_id":"ce4bh012rcd13ifvqd00","pricing_plan_id":"cebpf4jnsgd1na2vs0mg"},{"bike_id":"3e3d9158-bfd4-462e-8c7e-554fb556b4ce","system_id":"levelo_inurba_marseille","lat":43.28154,"lon":5.42642,"is_reserved":false,"is_disabled":false,"rental_uris":{"android":"levelo://app?vid=3e3d9158-bfd4-462e-8c7e-554fb556b4ce","ios":"levelo://app?vid=3e3d9158-bfd4-462e-8c7e-554fb556b4ce"},"vehicle_type_id":"4","last_reported":1748372889,"current_range_meters":3200,"station_id":"ce4bhnh2rcd13ifvqgug","pricing_plan_id":"cebpf4jnsgd1na2vs0mg"},{"bike_id":"5169e10c-c3e1-4619-9ea1-9e3374d9fec0","system_id":"levelo_inurba_marseille","lat":43.30325,"lon":5.40433,"is_reserved":false,"is_disabled":false,"rental_uris":{"android":"levelo://app?vid=5169e10c-c3e1-4619-9ea1-9e3374d9fec0","ios":"levelo://app?vid=5169e10c-c3e1-4619-9ea1-9e3374d9fec0"},"vehicle_type_id":"4","last_reported":1748372889,"current_range_meters":6400,"station_id":"ce4bh012rcd13ifvqd10","pricing_plan_id":"cebpf4jnsgd1na2vs0mg"},{"bike_id":"8e1e3d14-39e1-40c6-a572-79984978bd7d","system_id":"levelo_inurba_marseille","lat":43.22502,"lon":5.34779,"is_reserved":false,"is_disabled":false,"rental_uris":{"android":"levelo://app?vid=8e1e3d14-39e1-40c6-a572-79984978bd7d","ios":"levelo://app?vid=8e1e3d14-39e1-40c6-a572-79984978bd7d"},"vehicle_type_id":"4","last_reported":1748372889,"current_range_meters":6800,"station_id":"","pricing_plan_id":"cebpf4jnsgd1na2vs0mg"},{"bike_id":"068dd66b-4895-4116-a497-112f34f09866","system_id":"levelo_inurba_marseille","lat":43.31224,"lon":5.38475,"is_reserved":false,"is_disabled":false,"rental_uris":{"android":"levelo://app?vid=068dd66b-4895-4116-a497-112f34f09866","ios":"levelo://app?vid=068dd66b-4895-4116-a497-112f34f09866"},"vehicle_type_id":"4","last_reported":1748372889,"current_range_meters":6800,"station_id":"","pricing_plan_id":"cebpf4jnsgd1na2vs0mg"},{"bike_id":"ec2e54b5-1fec-4dd1-bedf-1248e084f049","system_id":"levelo_inurba_marseille","lat":43.29064,"lon":5.37154,"is_reserved":false,"is_disabled":false,"rental_uris":{"android":"levelo://app?vid=ec2e54b5-1fec-4dd1-bedf-1248e084f049","ios":"levelo://app?vid=ec2e54b5-1fec-4dd1-bedf-1248e084f049"},"vehicle_type_id":"4","last_reported":1748372889,"current_range_meters":6800,"station_id":"ce4bh5p2rcd13ifvqe4g","pricing_plan_id":"cebpf4jnsgd1na2vs0mg"},{"bike_id":"76daf5d3-34e6-4a9f-84a9-7298e5574dbd","system_id":"levelo_inurba_marseille","lat":43.26556,"lon":5.39025,"is_reserved":false,"is_disabled":false,"rental_uris":{"android":"levelo://app?vid=76daf5d3-34e6-4a9f-84a9-7298e5574dbd","ios":"levelo://app?vid=76daf5d3-34e6-4a9f-84a9-7298e5574dbd"},"vehicle_type_id":"4","last_reported":1748372889,"current_range_meters":6800,"station_id":"ce4bhe12rcd13ifvqf30","pricing_plan_id":"cebpf4jnsgd1na2vs0mg"},{"bike_id":"ccf80803-fa4d-4a02-991a-a0050c00e63a","system_id":"levelo_inurba_marseille","lat":43.31759,"lon":5.39017,"is_reserved":false,"is_disabled":false,"rental_uris":{"android":"levelo://app?vid=ccf80803-fa4d-4a02-991a-a0050c00e63a","ios":"levelo://app?vid=ccf80803-fa4d-4a02-991a-a0050c00e63a"},"vehicle_type_id":"4","last_reported":1748372889,"current_range_meters":6800,"station_id":"ce4bhqp2rcd13ifvqhng","pricing_plan_id":"cebpf4jnsgd1na2vs0mg"},{"bike_id":"d1d83598-a3d2-422b-ab7f-30262e70f7f9","system_id":"levelo_inurba_marseille","lat":43.295292,"lon":5.394001,"is_reserved":false,"is_disabled":false,"rental_uris":{"android":"levelo://app?vid=d1d83598-a3d2-422b-ab7f-30262e70f7f9","ios":"levelo://app?vid=d1d83598-a3d2-422b-ab7f-30262e70f7f9"},"vehicle_type_id":"4","last_reported":1748372889,"current_range_meters":6800,"station_id":"ce4bh292rcd13ifvqdf0","pricing_plan_id":"cebpf4jnsgd1na2vs0mg"},{"bike_id":"4b843263-623e-460b-97e8-231850411126","system_id":"levelo_inurba_marseille","lat":43.25118,"lon":5.40317,"is_reserved":false,"is_disabled":false,"rental_uris":{"android":"levelo://app?vid=4b843263-623e-460b-97e8-231850411126","ios":"levelo://app?vid=4b843263-623e-460b-97e8-231850411126"},"vehicle_type_id":"4","last_reported":1748372889,"current_range_meters":8400,"station_id":"ce4bhlh2rcd13ifvqgig","pricing_plan_id":"cebpf4jnsgd1na2vs0mg"},{"bike_id":"c2b0a191-bf31-4e89-8dc5-11d646e535b1","system_id":"levelo_inurba_marseille","lat":43.254969,"lon":5.37649,"is_reserved":false,"is_disabled":false,"rental_uris":{"android":"levelo://app?vid=c2b0a191-bf31-4e89-8dc5-11d646e535b1","ios":"levelo://app?vid=c2b0a191-bf31-4e89-8dc5-11d646e535b1"},"vehicle_type_id":"4","last_reported":1748372889,"current_range_meters":6800,"station_id":"","pricing_plan_id":"cebpf4jnsgd1na2vs0mg"},{"bike_id":"b0c0f763-8c33-46aa-95b2-3e1be9873fe2","system_id":"levelo_inurba_marseille","lat":43.2738,"lon":5.36258,"is_reserved":false,"is_disabled":false,"rental_uris":{"android":"levelo://app?vid=b0c0f763-8c33-46aa-95b2-3e1be9873fe2","ios":"levelo://app?vid=b0c0f763-8c33-46aa-95b2-3e1be9873fe2"},"vehicle_type_id":"4","last_reported":1748372889,"current_range_meters":6800,"station_id":"ce4bhbh2rcd13ifvqeo0","pricing_plan_id":"cebpf4jnsgd1na2vs0mg"},{"bike_id":"3440ebd7-c088-46fa-92e9-9db1a7b64308","system_id":"levelo_inurba_marseille","lat":43.2482,"lon":5.37447,"is_reserved":false,"is_disabled":false,"rental_uris":{"android":"levelo://app?vid=3440ebd7-c088-46fa-92e9-9db1a7b64308","ios":"levelo://app?vid=3440ebd7-c088-46fa-92e9-9db1a7b64308"},"vehicle_type_id":"4","last_reported":1748372889,"current_range_meters":6800,"station_id":"ce4bhgh2rcd13ifvqfb0","pricing_plan_id":"cebpf4jnsgd1na2vs0mg"},{"bike_id":"09df80ce-6c55-4b18-a6b1-b1ee6d982bd8","system_id":"levelo_inurba_marseille","lat":43.29874,"lon":5.38907,"is_reserved":false,"is_disabled":false,"rental_uris":{"android":"levelo://app?vid=09df80ce-6c55-4b18-a6b1-b1ee6d982bd8","ios":"levelo://app?vid=09df80ce-6c55-4b18-a6b1-b1ee6d982bd8"},"vehicle_type_id":"4","last_reported":1748372889,"current_range_meters":6800,"station_id":"ce4bh392rcd13ifvqdl0","pricing_plan_id":"cebpf4jnsgd1na2vs0mg"},{"bike_id":"4618e7c7-7f75-4826-8056-5e72832bd36e","system_id":"levelo_inurba_marseille","lat":43.278373,"lon":5.392083,"is_reserved":false,"is_disabled":false,"rental_uris":{"android":"levelo://app?vid=4618e7c7-7f75-4826-8056-5e72832bd36e","ios":"levelo://app?vid=4618e7c7-7f75-4826-8056-5e72832bd36e"},"vehicle_type_id":"4","last_reported":1748372889,"current_range_meters":6800,"station_id":"ce4bhjp2rcd13ifvqga0","pricing_plan_id":"cebpf4jnsgd1na2vs0mg"},{"bike_id":"84d577c9-0030-4753-88b4-b1b78a95dd89","system_id":"levelo_inurba_marseille","lat":43.24812,"lon":5.37452,"is_reserved":false,"is_disabled":false,"rental_uris":{"android":"levelo://app?vid=84d577c9-0030-4753-88b4-b1b78a95dd89","ios":"levelo://app?vid=84d577c9-0030-4753-88b4-b1b78a95dd89"},"vehicle_type_id":"4","last_reported":1748372889,"current_range_meters":6800,"station_id":"ce4bhgh2rcd13ifvqfb0","pricing_plan_id":"cebpf4jnsgd1na2vs0mg"},{"bike_id":"6b40a792-0aca-4252-b9b0-21b20520c5bd","system_id":"levelo_inurba_marseille","lat":43.30595,"lon":5.39356,"is_reserved":false,"is_disabled":false,"rental_uris":{"android":"levelo://app?vid=6b40a792-0aca-4252-b9b0-21b20520c5bd","ios":"levelo://app?vid=6b40a792-0aca-4252-b9b0-21b20520c5bd"},"vehicle_type_id":"4","last_reported":1748372889,"current_range_meters":7200,"station_id":"ce4bh0p2rcd13ifvqd80","pricing_plan_id":"cebpf4jnsgd1na2vs0mg"},{"bike_id":"97f11f96-ca43-49eb-ad58-cb484fabad78","system_id":"levelo_inurba_marseille","lat":43.30949,"lon":5.39034,"is_reserved":false,"is_disabled":false,"rental_uris":{"android":"levelo://app?vid=97f11f96-ca43-49eb-ad58-cb484fabad78","ios":"levelo://app?vid=97f11f96-ca43-49eb-ad58-cb484fabad78"},"vehicle_type_id":"4","last_reported":1748372889,"current_range_meters":7200,"station_id":"ce4bgup2rcd13ifvqco0","pricing_plan_id":"cebpf4jnsgd1na2vs0mg"},{"bike_id":"c18b005a-35f9-4584-891e-4a21e2333d12","system_id":"levelo_inurba_marseille","lat":43.288949,"lon":5.433332,"is_reserved":false,"is_disabled":false,"rental_uris":{"android":"levelo://app?vid=c18b005a-35f9-4584-891e-4a21e2333d12","ios":"levelo://app?vid=c18b005a-35f9-4584-891e-4a21e2333d12"},"vehicle_type_id":"4","last_reported":1748372889,"current_range_meters":8000,"station_id":"","pricing_plan_id":"cebpf4jnsgd1na2vs0mg"},{"bike_id":"1a0998e5-8bb9-474f-a827-53cad24c9e8f","system_id":"levelo_inurba_marseille","lat":43.32031,"lon":5.44951,"is_reserved":false,"is_disabled":false,"rental_uris":{"android":"levelo://app?vid=1a0998e5-8bb9-474f-a827-53cad24c9e8f","ios":"levelo://app?vid=1a0998e5-8bb9-474f-a827-53cad24c9e8f"},"vehicle_type_id":"4","last_reported":1748372889,"current_range_meters":7200,"station_id":"","pricing_plan_id":"cebpf4jnsgd1na2vs0mg"},{"bike_id":"28538a76-9b4c-4b82-aee6-b8ac1028c28e","system_id":"levelo_inurba_marseille","lat":43.29526,"lon":5.38545,"is_reserved":false,"is_disabled":false,"rental_uris":{"android":"levelo://app?vid=28538a76-9b4c-4b82-aee6-b8ac1028c28e","ios":"levelo://app?vid=28538a76-9b4c-4b82-aee6-b8ac1028c28e"},"vehicle_type_id":"4","last_reported":1748372889,"current_range_meters":7200,"station_id":"ce4bgih2rcd13ifvqba0","pricing_plan_id":"cebpf4jnsgd1na2vs0mg"},{"bike_id":"20a036ba-4729-402f-86fc-fae58b74c39a","system_id":"levelo_inurba_marseille","lat":43.30892,"lon":5.39637,"is_reserved":false,"is_disabled":false,"rental_uris":{"android":"levelo://app?vid=20a036ba-4729-402f-86fc-fae58b74c39a","ios":"levelo://app?vid=20a036ba-4729-402f-86fc-fae58b74c39a"},"vehicle_type_id":"4","last_reported":1748372889,"current_range_meters":7200,"station_id":"ce4bh012rcd13ifvqcv0","pricing_plan_id":"cebpf4jnsgd1na2vs0mg"},{"bike_id":"74a51669-7c01-4d0f-ac1d-b36a4d09a524","system_id":"levelo_inurba_marseille","lat":43.24071,"lon":5.37756,"is_reserved":false,"is_disabled":false,"rental_uris":{"android":"levelo://app?vid=74a51669-7c01-4d0f-ac1d-b36a4d09a524","ios":"levelo://app?vid=74a51669-7c01-4d0f-ac1d-b36a4d09a524"},"vehicle_type_id":"4","last_reported":1748372889,"current_range_meters":7200,"station_id":"ce4bhnp2rcd13ifvqgvg","pricing_plan_id":"cebpf4jnsgd1na2vs0mg"},{"bike_id":"19fe7b07-8b30-44fd-88aa-f576f850e48a","system_id":"levelo_inurba_marseille","lat":43.28095,"lon":5.3784,"is_reserved":false,"is_disabled":false,"rental_uris":{"android":"levelo://app?vid=19fe7b07-8b30-44fd-88aa-f576f850e48a","ios":"levelo://app?vid=19fe7b07-8b30-44fd-88aa-f576f850e48a"},"vehicle_type_id":"4","last_reported":1748372889,"current_range_meters":7200,"station_id":"ce4bha12rcd13ifvqee0","pricing_plan_id":"cebpf4jnsgd1na2vs0mg"},{"bike_id":"4843d3c7-b10c-4c1b-b5ad-1d06b75de51c","system_id":"levelo_inurba_marseille","lat":43.2622,"lon":5.37446,"is_reserved":false,"is_disabled":false,"rental_uris":{"android":"levelo://app?vid=4843d3c7-b10c-4c1b-b5ad-1d06b75de51c","ios":"levelo://app?vid=4843d3c7-b10c-4c1b-b5ad-1d06b75de51c"},"vehicle_type_id":"4","last_reported":1748372889,"current_range_meters":7200,"station_id":"ce4bhgp2rcd13ifvqfc0","pricing_plan_id":"cebpf4jnsgd1na2vs0mg"},{"bike_id":"b19c55c6-784e-493e-b56d-746604383932","system_id":"levelo_inurba_marseille","lat":43.27421,"lon":5.39416,"is_reserved":false,"is_disabled":false,"rental_uris":{"android":"levelo://app?vid=b19c55c6-784e-493e-b56d-746604383932","ios":"levelo://app?vid=b19c55c6-784e-493e-b56d-746604383932"},"vehicle_type_id":"4","last_reported":1748372889,"current_range_meters":7200,"station_id":"ce4bhdp2rcd13ifvqf20","pricing_plan_id":"cebpf4jnsgd1na2vs0mg"},{"bike_id":"9aee0c0f-d6f7-4620-a0ae-ffb89e41fe3b","system_id":"levelo_inurba_marseille","lat":43.24648,"lon":5.3889,"is_reserved":false,"is_disabled":false,"rental_uris":{"android":"levelo://app?vid=9aee0c0f-d6f7-4620-a0ae-ffb89e41fe3b","ios":"levelo://app?vid=9aee0c0f-d6f7-4620-a0ae-ffb89e41fe3b"},"vehicle_type_id":"4","last_reported":1748372889,"current_range_meters":7200,"station_id":"ce4bhg12rcd13ifvqf60","pricing_plan_id":"cebpf4jnsgd1na2vs0mg"},{"bike_id":"3a87f2a4-38fa-4300-b281-b3aef82afda2","system_id":"levelo_inurba_marseille","lat":43.30133,"lon":5.39842,"is_reserved":false,"is_disabled":false,"rental_uris":{"android":"levelo://app?vid=3a87f2a4-38fa-4300-b281-b3aef82afda2","ios":"levelo://app?vid=3a87f2a4-38fa-4300-b281-b3aef82afda2"},"vehicle_type_id":"4","last_reported":1748372889,"current_range_meters":7200,"station_id":"ce4bh0h2rcd13ifvqd40","pricing_plan_id":"cebpf4jnsgd1na2vs0mg"},{"bike_id":"2badb821-2859-4b8d-9b1a-9dfbe62ae729","system_id":"levelo_inurba_marseille","lat":43.3032,"lon":5.40446,"is_reserved":false,"is_disabled":false,"rental_uris":{"android":"levelo://app?vid=2badb821-2859-4b8d-9b1a-9dfbe62ae729","ios":"levelo://app?vid=2badb821-2859-4b8d-9b1a-9dfbe62ae729"},"vehicle_type_id":"4","last_reported":1748372889,"current_range_meters":8000,"station_id":"ce4bh012rcd13ifvqd10","pricing_plan_id":"cebpf4jnsgd1na2vs0mg"},{"bike_id":"ae6e6868-2635-4f49-b7c1-b03759c58ec7","system_id":"levelo_inurba_marseille","lat":43.27306,"lon":5.41624,"is_reserved":false,"is_disabled":false,"rental_uris":{"android":"levelo://app?vid=ae6e6868-2635-4f49-b7c1-b03759c58ec7","ios":"levelo://app?vid=ae6e6868-2635-4f49-b7c1-b03759c58ec7"},"vehicle_type_id":"4","last_reported":1748372889,"current_range_meters":8000,"station_id":"","pricing_plan_id":"cebpf4jnsgd1na2vs0mg"},{"bike_id":"f3392689-9841-4711-b3a1-adbf078ec40f","system_id":"levelo_inurba_marseille","lat":43.29088,"lon":5.38154,"is_reserved":false,"is_disabled":false,"rental_uris":{"android":"levelo://app?vid=f3392689-9841-4711-b3a1-adbf078ec40f","ios":"levelo://app?vid=f3392689-9841-4711-b3a1-adbf078ec40f"},"vehicle_type_id":"4","last_reported":1748372889,"current_range_meters":8000,"station_id":"ce4bh512rcd13ifvqe2g","pricing_plan_id":"cebpf4jnsgd1na2vs0mg"},{"bike_id":"f161e18f-ac92-4bf3-913d-2c84750f952d","system_id":"levelo_inurba_marseille","lat":43.29364,"lon":5.37839,"is_reserved":false,"is_disabled":false,"rental_uris":{"android":"levelo://app?vid=f161e18f-ac92-4bf3-913d-2c84750f952d","ios":"levelo://app?vid=f161e18f-ac92-4bf3-913d-2c84750f952d"},"vehicle_type_id":"4","last_reported":1748372889,"current_range_meters":8000,"station_id":"ce4bgjh2rcd13ifvqbf0","pricing_plan_id":"cebpf4jnsgd1na2vs0mg"},{"bike_id":"226145dd-d9f6-406a-ba3b-17c53c92a899","system_id":"levelo_inurba_marseille","lat":43.27963,"lon":5.38738,"is_reserved":false,"is_disabled":false,"rental_uris":{"android":"levelo://app?vid=226145dd-d9f6-406a-ba3b-17c53c92a899","ios":"levelo://app?vid=226145dd-d9f6-406a-ba3b-17c53c92a899"},"vehicle_type_id":"4","last_reported":1748372889,"current_range_meters":8000,"station_id":"ce4bhg12rcd13ifvqf80","pricing_plan_id":"cebpf4jnsgd1na2vs0mg"},{"bike_id":"c2ca08a1-59bc-4bb7-9759-d63170bd667b","system_id":"levelo_inurba_marseille","lat":43.29908,"lon":5.43668,"is_reserved":false,"is_disabled":false,"rental_uris":{"android":"levelo://app?vid=c2ca08a1-59bc-4bb7-9759-d63170bd667b","ios":"levelo://app?vid=c2ca08a1-59bc-4bb7-9759-d63170bd667b"},"vehicle_type_id":"4","last_reported":1748372889,"current_range_meters":8000,"station_id":"ce4bhpp2rcd13ifvqhfg","pricing_plan_id":"cebpf4jnsgd1na2vs0mg"},{"bike_id":"151ccb6a-084e-444f-b36e-57c808c754f5","system_id":"levelo_inurba_marseille","lat":43.28148,"lon":5.42644,"is_reserved":false,"is_disabled":false,"rental_uris":{"android":"levelo://app?vid=151ccb6a-084e-444f-b36e-57c808c754f5","ios":"levelo://app?vid=151ccb6a-084e-444f-b36e-57c808c754f5"},"vehicle_type_id":"4","last_reported":1748372889,"current_range_meters":8000,"station_id":"ce4bhnh2rcd13ifvqgug","pricing_plan_id":"cebpf4jnsgd1na2vs0mg"},{"bike_id":"a29a2708-797f-4e9a-9f1a-17352bf6f3db","system_id":"levelo_inurba_marseille","lat":43.273063,"lon":5.391481,"is_reserved":false,"is_disabled":true,"rental_uris":{"android":"levelo://app?vid=a29a2708-797f-4e9a-9f1a-17352bf6f3db","ios":"levelo://app?vid=a29a2708-797f-4e9a-9f1a-17352bf6f3db"},"vehicle_type_id":"4","last_reported":1748372889,"current_range_meters":8000,"station_id":"ce4bhgp2rcd13ifvqfe0","pricing_plan_id":"cebpf4jnsgd1na2vs0mg"},{"bike_id":"fbf5c48a-f0e3-4aa3-9fb6-5a14c1ed4468","system_id":"levelo_inurba_marseille","lat":43.26554,"lon":5.37287,"is_reserved":false,"is_disabled":false,"rental_uris":{"android":"levelo://app?vid=fbf5c48a-f0e3-4aa3-9fb6-5a14c1ed4468","ios":"levelo://app?vid=fbf5c48a-f0e3-4aa3-9fb6-5a14c1ed4468"},"vehicle_type_id":"4","last_reported":1748372889,"current_range_meters":8000,"station_id":"ce4bhg12rcd13ifvqf70","pricing_plan_id":"cebpf4jnsgd1na2vs0mg"},{"bike_id":"65916980-de5a-4df6-a379-17e0d4be3b31","system_id":"levelo_inurba_marseille","lat":43.23177,"lon":5.39991,"is_reserved":false,"is_disabled":false,"rental_uris":{"android":"levelo://app?vid=65916980-de5a-4df6-a379-17e0d4be3b31","ios":"levelo://app?vid=65916980-de5a-4df6-a379-17e0d4be3b31"},"vehicle_type_id":"4","last_reported":1748372889,"current_range_meters":8800,"station_id":"ce4bhn12rcd13ifvqgqg","pricing_plan_id":"cebpf4jnsgd1na2vs0mg"},{"bike_id":"61c05655-bf2b-41a1-bda5-2f5548305fb5","system_id":"levelo_inurba_marseille","lat":43.24161,"lon":5.36397,"is_reserved":false,"is_disabled":false,"rental_uris":{"android":"levelo://app?vid=61c05655-bf2b-41a1-bda5-2f5548305fb5","ios":"levelo://app?vid=61c05655-bf2b-41a1-bda5-2f5548305fb5"},"vehicle_type_id":"4","last_reported":1748372889,"current_range_meters":8000,"station_id":"cpo36qri1sfpv3e86is0","pricing_plan_id":"cebpf4jnsgd1na2vs0mg"},{"bike_id":"117c91df-83a4-4305-aa4d-aea4a2c89027","system_id":"levelo_inurba_marseille","lat":43.25772,"lon":5.41137,"is_reserved":false,"is_disabled":false,"rental_uris":{"android":"levelo://app?vid=117c91df-83a4-4305-aa4d-aea4a2c89027","ios":"levelo://app?vid=117c91df-83a4-4305-aa4d-aea4a2c89027"},"vehicle_type_id":"4","last_reported":1748372889,"current_range_meters":6400,"station_id":"ce4bhkp2rcd13ifvqgd0","pricing_plan_id":"cebpf4jnsgd1na2vs0mg"},{"bike_id":"a382f3df-edfa-456b-8f81-d62e49146343","system_id":"levelo_inurba_marseille","lat":43.30842,"lon":5.39602,"is_reserved":false,"is_disabled":false,"rental_uris":{"android":"levelo://app?vid=a382f3df-edfa-456b-8f81-d62e49146343","ios":"levelo://app?vid=a382f3df-edfa-456b-8f81-d62e49146343"},"vehicle_type_id":"4","last_reported":1748372889,"current_range_meters":8400,"station_id":"","pricing_plan_id":"cebpf4jnsgd1na2vs0mg"},{"bike_id":"d68aa2d6-76aa-4683-909f-b04b858a3af3","system_id":"levelo_inurba_marseille","lat":43.32478,"lon":5.36568,"is_reserved":false,"is_disabled":false,"rental_uris":{"android":"levelo://app?vid=d68aa2d6-76aa-4683-909f-b04b858a3af3","ios":"levelo://app?vid=d68aa2d6-76aa-4683-909f-b04b858a3af3"},"vehicle_type_id":"4","last_reported":1748372889,"current_range_meters":8000,"station_id":"ce4bhs12rcd13ifvqhvg","pricing_plan_id":"cebpf4jnsgd1na2vs0mg"},{"bike_id":"ee617531-7300-4958-baa3-db4f90ad5721","system_id":"levelo_inurba_marseille","lat":43.258211,"lon":5.394355,"is_reserved":false,"is_disabled":false,"rental_uris":{"android":"levelo://app?vid=ee617531-7300-4958-baa3-db4f90ad5721","ios":"levelo://app?vid=ee617531-7300-4958-baa3-db4f90ad5721"},"vehicle_type_id":"4","last_reported":1748372889,"current_range_meters":8400,"station_id":"ce4bhip2rcd13ifvqft0","pricing_plan_id":"cebpf4jnsgd1na2vs0mg"},{"bike_id":"9946121a-e441-4db9-b342-d50b7a06f604","system_id":"levelo_inurba_marseille","lat":43.31725,"lon":5.37766,"is_reserved":false,"is_disabled":false,"rental_uris":{"android":"levelo://app?vid=9946121a-e441-4db9-b342-d50b7a06f604","ios":"levelo://app?vid=9946121a-e441-4db9-b342-d50b7a06f604"},"vehicle_type_id":"4","last_reported":1748372889,"current_range_meters":8400,"station_id":"ce4bgth2rcd13ifvqch0","pricing_plan_id":"cebpf4jnsgd1na2vs0mg"},{"bike_id":"800c3dea-d041-424f-ac49-027da832df67","system_id":"levelo_inurba_marseille","lat":43.31692,"lon":5.40457,"is_reserved":false,"is_disabled":false,"rental_uris":{"android":"levelo://app?vid=800c3dea-d041-424f-ac49-027da832df67","ios":"levelo://app?vid=800c3dea-d041-424f-ac49-027da832df67"},"vehicle_type_id":"4","last_reported":1748372889,"current_range_meters":8400,"station_id":"ce4bh012rcd13ifvqd00","pricing_plan_id":"cebpf4jnsgd1na2vs0mg"},{"bike_id":"0ef2c249-b7a0-4794-acf6-30afd37c49e1","system_id":"levelo_inurba_marseille","lat":43.28629,"lon":5.37052,"is_reserved":false,"is_disabled":false,"rental_uris":{"android":"levelo://app?vid=0ef2c249-b7a0-4794-acf6-30afd37c49e1","ios":"levelo://app?vid=0ef2c249-b7a0-4794-acf6-30afd37c49e1"},"vehicle_type_id":"4","last_reported":1748372889,"current_range_meters":8400,"station_id":"ce4bht12rcd13ifvqi60","pricing_plan_id":"cebpf4jnsgd1na2vs0mg"},{"bike_id":"c2b41db4-d8ed-4e08-86d4-56285d95437c","system_id":"levelo_inurba_marseille","lat":43.3035,"lon":5.41874,"is_reserved":false,"is_disabled":false,"rental_uris":{"android":"levelo://app?vid=c2b41db4-d8ed-4e08-86d4-56285d95437c","ios":"levelo://app?vid=c2b41db4-d8ed-4e08-86d4-56285d95437c"},"vehicle_type_id":"4","last_reported":1748372889,"current_range_meters":8000,"station_id":"ce4bhop2rcd13ifvqh7g","pricing_plan_id":"cebpf4jnsgd1na2vs0mg"},{"bike_id":"c4a443ab-5974-4740-a63e-512a36196543","system_id":"levelo_inurba_marseille","lat":43.32363,"lon":5.38878,"is_reserved":false,"is_disabled":false,"rental_uris":{"android":"levelo://app?vid=c4a443ab-5974-4740-a63e-512a36196543","ios":"levelo://app?vid=c4a443ab-5974-4740-a63e-512a36196543"},"vehicle_type_id":"4","last_reported":1748372889,"current_range_meters":8400,"station_id":"ce4bhqp2rcd13ifvqhog","pricing_plan_id":"cebpf4jnsgd1na2vs0mg"},{"bike_id":"760bcd8b-a4e0-4b4e-bedb-6462d7843576","system_id":"levelo_inurba_marseille","lat":43.29279,"lon":5.36834,"is_reserved":false,"is_disabled":true,"rental_uris":{"android":"levelo://app?vid=760bcd8b-a4e0-4b4e-bedb-6462d7843576","ios":"levelo://app?vid=760bcd8b-a4e0-4b4e-bedb-6462d7843576"},"vehicle_type_id":"4","last_reported":1748372889,"current_range_meters":8800,"station_id":"ce4bhbp2rcd13ifvqesg","pricing_plan_id":"cebpf4jnsgd1na2vs0mg"},{"bike_id":"ee2854d8-d4a9-40b9-a011-3de6c41ab855","system_id":"levelo_inurba_marseille","lat":43.30595,"lon":5.39357,"is_reserved":false,"is_disabled":false,"rental_uris":{"android":"levelo://app?vid=ee2854d8-d4a9-40b9-a011-3de6c41ab855","ios":"levelo://app?vid=ee2854d8-d4a9-40b9-a011-3de6c41ab855"},"vehicle_type_id":"4","last_reported":1748372889,"current_range_meters":8800,"station_id":"ce4bh0p2rcd13ifvqd80","pricing_plan_id":"cebpf4jnsgd1na2vs0mg"},{"bike_id":"ecec0dbe-0ccb-470d-bc6b-7e71f374730a","system_id":"levelo_inurba_marseille","lat":43.23957,"lon":5.36638,"is_reserved":false,"is_disabled":false,"rental_uris":{"android":"levelo://app?vid=ecec0dbe-0ccb-470d-bc6b-7e71f374730a","ios":"levelo://app?vid=ecec0dbe-0ccb-470d-bc6b-7e71f374730a"},"vehicle_type_id":"4","last_reported":1748372889,"current_range_meters":8800,"station_id":"ce4bhi12rcd13ifvqfp0","pricing_plan_id":"cebpf4jnsgd1na2vs0mg"},{"bike_id":"15a8229b-48eb-4165-894f-bf02395413b9","system_id":"levelo_inurba_marseille","lat":43.31335,"lon":5.39695,"is_reserved":false,"is_disabled":false,"rental_uris":{"android":"levelo://app?vid=15a8229b-48eb-4165-894f-bf02395413b9","ios":"levelo://app?vid=15a8229b-48eb-4165-894f-bf02395413b9"},"vehicle_type_id":"4","last_reported":1748372889,"current_range_meters":8800,"station_id":"ce4bgvp2rcd13ifvqcu0","pricing_plan_id":"cebpf4jnsgd1na2vs0mg"},{"bike_id":"7e823e3b-1b92-4735-8533-dc1341b80eaf","system_id":"levelo_inurba_marseille","lat":43.23059,"lon":5.354939,"is_reserved":false,"is_disabled":true,"rental_uris":{"android":"levelo://app?vid=7e823e3b-1b92-4735-8533-dc1341b80eaf","ios":"levelo://app?vid=7e823e3b-1b92-4735-8533-dc1341b80eaf"},"vehicle_type_id":"4","last_reported":1748372889,"current_range_meters":8800,"station_id":"cpo3342slgdg3j2ifvpg","pricing_plan_id":"cebpf4jnsgd1na2vs0mg"},{"bike_id":"aca1e74c-a23a-4615-8d75-a0220624fd45","system_id":"levelo_inurba_marseille","lat":43.29036,"lon":5.39964,"is_reserved":false,"is_disabled":false,"rental_uris":{"android":"levelo://app?vid=aca1e74c-a23a-4615-8d75-a0220624fd45","ios":"levelo://app?vid=aca1e74c-a23a-4615-8d75-a0220624fd45"},"vehicle_type_id":"4","last_reported":1748372889,"current_range_meters":12800,"station_id":"ce4bh392rcd13ifvqdm0","pricing_plan_id":"cebpf4jnsgd1na2vs0mg"},{"bike_id":"1ba3c726-2241-45f2-9397-0519c9f9ddc7","system_id":"levelo_inurba_marseille","lat":43.27372,"lon":5.3626,"is_reserved":false,"is_disabled":false,"rental_uris":{"android":"levelo://app?vid=1ba3c726-2241-45f2-9397-0519c9f9ddc7","ios":"levelo://app?vid=1ba3c726-2241-45f2-9397-0519c9f9ddc7"},"vehicle_type_id":"4","last_reported":1748372889,"current_range_meters":8800,"station_id":"ce4bhbh2rcd13ifvqeo0","pricing_plan_id":"cebpf4jnsgd1na2vs0mg"},{"bike_id":"29676742-b986-43b3-97ae-da4f92e664af","system_id":"levelo_inurba_marseille","lat":43.26059,"lon":5.39398,"is_reserved":false,"is_disabled":false,"rental_uris":{"android":"levelo://app?vid=29676742-b986-43b3-97ae-da4f92e664af","ios":"levelo://app?vid=29676742-b986-43b3-97ae-da4f92e664af"},"vehicle_type_id":"4","last_reported":1748372889,"current_range_meters":9200,"station_id":"ce4bhh92rcd13ifvqfj0","pricing_plan_id":"cebpf4jnsgd1na2vs0mg"},{"bike_id":"f4dd589b-5b58-470a-a2c9-9de3a4398e71","system_id":"levelo_inurba_marseille","lat":43.22934,"lon":5.35373,"is_reserved":false,"is_disabled":false,"rental_uris":{"android":"levelo://app?vid=f4dd589b-5b58-470a-a2c9-9de3a4398e71","ios":"levelo://app?vid=f4dd589b-5b58-470a-a2c9-9de3a4398e71"},"vehicle_type_id":"4","last_reported":1748372889,"current_range_meters":9200,"station_id":"cpo3532slgdg3j2ikp40","pricing_plan_id":"cebpf4jnsgd1na2vs0mg"},{"bike_id":"559d005f-068c-403c-9873-e9f0a517c37f","system_id":"levelo_inurba_marseille","lat":43.31325,"lon":5.39705,"is_reserved":false,"is_disabled":false,"rental_uris":{"android":"levelo://app?vid=559d005f-068c-403c-9873-e9f0a517c37f","ios":"levelo://app?vid=559d005f-068c-403c-9873-e9f0a517c37f"},"vehicle_type_id":"4","last_reported":1748372889,"current_range_meters":9200,"station_id":"ce4bgvp2rcd13ifvqcu0","pricing_plan_id":"cebpf4jnsgd1na2vs0mg"},{"bike_id":"3647bbb6-6398-4425-acce-fe7bae127660","system_id":"levelo_inurba_marseille","lat":43.30883,"lon":5.39653,"is_reserved":false,"is_disabled":false,"rental_uris":{"android":"levelo://app?vid=3647bbb6-6398-4425-acce-fe7bae127660","ios":"levelo://app?vid=3647bbb6-6398-4425-acce-fe7bae127660"},"vehicle_type_id":"4","last_reported":1748372889,"current_range_meters":9200,"station_id":"ce4bh012rcd13ifvqcv0","pricing_plan_id":"cebpf4jnsgd1na2vs0mg"},{"bike_id":"21279827-a0af-4388-a946-77308369b317","system_id":"levelo_inurba_marseille","lat":43.28162,"lon":5.42642,"is_reserved":false,"is_disabled":false,"rental_uris":{"android":"levelo://app?vid=21279827-a0af-4388-a946-77308369b317","ios":"levelo://app?vid=21279827-a0af-4388-a946-77308369b317"},"vehicle_type_id":"4","last_reported":1748372889,"current_range_meters":9600,"station_id":"ce4bhnh2rcd13ifvqgug","pricing_plan_id":"cebpf4jnsgd1na2vs0mg"},{"bike_id":"e6c65de3-7d92-4979-809c-6677188473c0","system_id":"levelo_inurba_marseille","lat":43.337598,"lon":5.374632,"is_reserved":false,"is_disabled":false,"rental_uris":{"android":"levelo://app?vid=e6c65de3-7d92-4979-809c-6677188473c0","ios":"levelo://app?vid=e6c65de3-7d92-4979-809c-6677188473c0"},"vehicle_type_id":"4","last_reported":1748372889,"current_range_meters":9600,"station_id":"","pricing_plan_id":"cebpf4jnsgd1na2vs0mg"},{"bike_id":"6ef27e84-462a-46f9-afe5-e09b209cc7f0","system_id":"levelo_inurba_marseille","lat":43.331111,"lon":5.362083,"is_reserved":false,"is_disabled":false,"rental_uris":{"android":"levelo://app?vid=6ef27e84-462a-46f9-afe5-e09b209cc7f0","ios":"levelo://app?vid=6ef27e84-462a-46f9-afe5-e09b209cc7f0"},"vehicle_type_id":"4","last_reported":1748372889,"current_range_meters":9600,"station_id":"","pricing_plan_id":"cebpf4jnsgd1na2vs0mg"},{"bike_id":"6fbbd879-609b-4138-9e4f-c53aaa2ce038","system_id":"levelo_inurba_marseille","lat":43.248016,"lon":5.374576,"is_reserved":false,"is_disabled":false,"rental_uris":{"android":"levelo://app?vid=6fbbd879-609b-4138-9e4f-c53aaa2ce038","ios":"levelo://app?vid=6fbbd879-609b-4138-9e4f-c53aaa2ce038"},"vehicle_type_id":"4","last_reported":1748372889,"current_range_meters":9600,"station_id":"ce4bhgh2rcd13ifvqfb0","pricing_plan_id":"cebpf4jnsgd1na2vs0mg"},{"bike_id":"7e2d13cd-01ed-48be-a1b4-1756640f6409","system_id":"levelo_inurba_marseille","lat":43.30957,"lon":5.39032,"is_reserved":false,"is_disabled":true,"rental_uris":{"android":"levelo://app?vid=7e2d13cd-01ed-48be-a1b4-1756640f6409","ios":"levelo://app?vid=7e2d13cd-01ed-48be-a1b4-1756640f6409"},"vehicle_type_id":"4","last_reported":1748372889,"current_range_meters":9600,"station_id":"ce4bgup2rcd13ifvqco0","pricing_plan_id":"cebpf4jnsgd1na2vs0mg"},{"bike_id":"901918f1-d603-414a-bdfd-1a3137f9d2ec","system_id":"levelo_inurba_marseille","lat":43.28617,"lon":5.35099,"is_reserved":false,"is_disabled":false,"rental_uris":{"android":"levelo://app?vid=901918f1-d603-414a-bdfd-1a3137f9d2ec","ios":"levelo://app?vid=901918f1-d603-414a-bdfd-1a3137f9d2ec"},"vehicle_type_id":"4","last_reported":1748372889,"current_range_meters":9600,"station_id":"ce4bhch2rcd13ifvqeug","pricing_plan_id":"cebpf4jnsgd1na2vs0mg"},{"bike_id":"75ab26af-0119-4470-9daf-6c351e986b17","system_id":"levelo_inurba_marseille","lat":43.2511,"lon":5.40325,"is_reserved":false,"is_disabled":false,"rental_uris":{"android":"levelo://app?vid=75ab26af-0119-4470-9daf-6c351e986b17","ios":"levelo://app?vid=75ab26af-0119-4470-9daf-6c351e986b17"},"vehicle_type_id":"4","last_reported":1748372889,"current_range_meters":9600,"station_id":"ce4bhlh2rcd13ifvqgig","pricing_plan_id":"cebpf4jnsgd1na2vs0mg"},{"bike_id":"0c54ac15-bb15-4844-a441-b6cbd573eb91","system_id":"levelo_inurba_marseille","lat":43.30869,"lon":5.39605,"is_reserved":false,"is_disabled":false,"rental_uris":{"android":"levelo://app?vid=0c54ac15-bb15-4844-a441-b6cbd573eb91","ios":"levelo://app?vid=0c54ac15-bb15-4844-a441-b6cbd573eb91"},"vehicle_type_id":"4","last_reported":1748372889,"current_range_meters":9600,"station_id":"","pricing_plan_id":"cebpf4jnsgd1na2vs0mg"},{"bike_id":"96a486e8-1a7f-4eea-aff9-6f736e0e22ae","system_id":"levelo_inurba_marseille","lat":43.25121,"lon":5.40331,"is_reserved":false,"is_disabled":false,"rental_uris":{"android":"levelo://app?vid=96a486e8-1a7f-4eea-aff9-6f736e0e22ae","ios":"levelo://app?vid=96a486e8-1a7f-4eea-aff9-6f736e0e22ae"},"vehicle_type_id":"4","last_reported":1748372889,"current_range_meters":10000,"station_id":"ce4bhlh2rcd13ifvqgig","pricing_plan_id":"cebpf4jnsgd1na2vs0mg"},{"bike_id":"24cf99cf-4db3-4903-af5c-af8e5fab6bea","system_id":"levelo_inurba_marseille","lat":43.25714,"lon":5.41118,"is_reserved":false,"is_disabled":true,"rental_uris":{"android":"levelo://app?vid=24cf99cf-4db3-4903-af5c-af8e5fab6bea","ios":"levelo://app?vid=24cf99cf-4db3-4903-af5c-af8e5fab6bea"},"vehicle_type_id":"4","last_reported":1748372889,"current_range_meters":10000,"station_id":"ce4bhkp2rcd13ifvqgd0","pricing_plan_id":"cebpf4jnsgd1na2vs0mg"},{"bike_id":"85a06236-66c0-4bd2-af9a-6e03622cc964","system_id":"levelo_inurba_marseille","lat":43.26575,"lon":5.39002,"is_reserved":false,"is_disabled":false,"rental_uris":{"android":"levelo://app?vid=85a06236-66c0-4bd2-af9a-6e03622cc964","ios":"levelo://app?vid=85a06236-66c0-4bd2-af9a-6e03622cc964"},"vehicle_type_id":"4","last_reported":1748372889,"current_range_meters":10000,"station_id":"ce4bhe12rcd13ifvqf30","pricing_plan_id":"cebpf4jnsgd1na2vs0mg"},{"bike_id":"31eb1c1c-c5a5-4f60-aaa0-7dd8c371696a","system_id":"levelo_inurba_marseille","lat":43.2794,"lon":5.41048,"is_reserved":false,"is_disabled":true,"rental_uris":{"android":"levelo://app?vid=31eb1c1c-c5a5-4f60-aaa0-7dd8c371696a","ios":"levelo://app?vid=31eb1c1c-c5a5-4f60-aaa0-7dd8c371696a"},"vehicle_type_id":"4","last_reported":1748372889,"current_range_meters":10000,"station_id":"ce4bhnp2rcd13ifvqh0g","pricing_plan_id":"cebpf4jnsgd1na2vs0mg"},{"bike_id":"f0d83b53-4594-4033-afb0-0d9b1a402851","system_id":"levelo_inurba_marseille","lat":43.31125,"lon":5.37762,"is_reserved":false,"is_disabled":false,"rental_uris":{"android":"levelo://app?vid=f0d83b53-4594-4033-afb0-0d9b1a402851","ios":"levelo://app?vid=f0d83b53-4594-4033-afb0-0d9b1a402851"},"vehicle_type_id":"4","last_reported":1748372889,"current_range_meters":10000,"station_id":"ce4bgt92rcd13ifvqcg0","pricing_plan_id":"cebpf4jnsgd1na2vs0mg"},{"bike_id":"f689d449-d0ec-464c-9319-de295e0a037a","system_id":"levelo_inurba_marseille","lat":43.23956,"lon":5.36632,"is_reserved":false,"is_disabled":true,"rental_uris":{"android":"levelo://app?vid=f689d449-d0ec-464c-9319-de295e0a037a","ios":"levelo://app?vid=f689d449-d0ec-464c-9319-de295e0a037a"},"vehicle_type_id":"4","last_reported":1748372889,"current_range_meters":10000,"station_id":"ce4bhi12rcd13ifvqfp0","pricing_plan_id":"cebpf4jnsgd1na2vs0mg"},{"bike_id":"1098cdee-3aca-453d-8e2b-d853154e5bc9","system_id":"levelo_inurba_marseille","lat":43.31081,"lon":5.42429,"is_reserved":false,"is_disabled":false,"rental_uris":{"android":"levelo://app?vid=1098cdee-3aca-453d-8e2b-d853154e5bc9","ios":"levelo://app?vid=1098cdee-3aca-453d-8e2b-d853154e5bc9"},"vehicle_type_id":"4","last_reported":1748372889,"current_range_meters":10000,"station_id":"ce4bhp92rcd13ifvqhag","pricing_plan_id":"cebpf4jnsgd1na2vs0mg"},{"bike_id":"1be0cb5c-873c-486d-989e-ce295d644e2e","system_id":"levelo_inurba_marseille","lat":43.28457,"lon":5.35897,"is_reserved":false,"is_disabled":false,"rental_uris":{"android":"levelo://app?vid=1be0cb5c-873c-486d-989e-ce295d644e2e","ios":"levelo://app?vid=1be0cb5c-873c-486d-989e-ce295d644e2e"},"vehicle_type_id":"4","last_reported":1748372889,"current_range_meters":10000,"station_id":"ce4bhah2rcd13ifvqei0","pricing_plan_id":"cebpf4jnsgd1na2vs0mg"},{"bike_id":"b4e1836a-ca94-4bf6-b7df-dec4c0830424","system_id":"levelo_inurba_marseille","lat":43.29045,"lon":5.39965,"is_reserved":false,"is_disabled":false,"rental_uris":{"android":"levelo://app?vid=b4e1836a-ca94-4bf6-b7df-dec4c0830424","ios":"levelo://app?vid=b4e1836a-ca94-4bf6-b7df-dec4c0830424"},"vehicle_type_id":"4","last_reported":1748372889,"current_range_meters":15200,"station_id":"ce4bh392rcd13ifvqdm0","pricing_plan_id":"cebpf4jnsgd1na2vs0mg"},{"bike_id":"2a046dee-b3af-48c9-9659-b7d30ba20af5","system_id":"levelo_inurba_marseille","lat":43.24326,"lon":5.38004,"is_reserved":false,"is_disabled":false,"rental_uris":{"android":"levelo://app?vid=2a046dee-b3af-48c9-9659-b7d30ba20af5","ios":"levelo://app?vid=2a046dee-b3af-48c9-9659-b7d30ba20af5"},"vehicle_type_id":"4","last_reported":1748372889,"current_range_meters":10000,"station_id":"","pricing_plan_id":"cebpf4jnsgd1na2vs0mg"},{"bike_id":"c2f21d26-c803-4f85-afff-89b2851f2eae","system_id":"levelo_inurba_marseille","lat":43.27375,"lon":5.36257,"is_reserved":false,"is_disabled":false,"rental_uris":{"android":"levelo://app?vid=c2f21d26-c803-4f85-afff-89b2851f2eae","ios":"levelo://app?vid=c2f21d26-c803-4f85-afff-89b2851f2eae"},"vehicle_type_id":"4","last_reported":1748372889,"current_range_meters":10000,"station_id":"ce4bhbh2rcd13ifvqeo0","pricing_plan_id":"cebpf4jnsgd1na2vs0mg"},{"bike_id":"5d7ac06e-6be7-4189-adb7-406efe45f2d9","system_id":"levelo_inurba_marseille","lat":43.26034,"lon":5.37552,"is_reserved":false,"is_disabled":false,"rental_uris":{"android":"levelo://app?vid=5d7ac06e-6be7-4189-adb7-406efe45f2d9","ios":"levelo://app?vid=5d7ac06e-6be7-4189-adb7-406efe45f2d9"},"vehicle_type_id":"4","last_reported":1748372889,"current_range_meters":10000,"station_id":"ce4bhgh2rcd13ifvqfa0","pricing_plan_id":"cebpf4jnsgd1na2vs0mg"},{"bike_id":"e45357ce-599a-418b-98fa-474acbb41b35","system_id":"levelo_inurba_marseille","lat":43.27366,"lon":5.36258,"is_reserved":false,"is_disabled":false,"rental_uris":{"android":"levelo://app?vid=e45357ce-599a-418b-98fa-474acbb41b35","ios":"levelo://app?vid=e45357ce-599a-418b-98fa-474acbb41b35"},"vehicle_type_id":"4","last_reported":1748372889,"current_range_meters":10800,"station_id":"ce4bhbh2rcd13ifvqeo0","pricing_plan_id":"cebpf4jnsgd1na2vs0mg"},{"bike_id":"c45ba5f1-d663-429e-b6d6-24b4bba252a4","system_id":"levelo_inurba_marseille","lat":43.24663,"lon":5.38167,"is_reserved":false,"is_disabled":false,"rental_uris":{"android":"levelo://app?vid=c45ba5f1-d663-429e-b6d6-24b4bba252a4","ios":"levelo://app?vid=c45ba5f1-d663-429e-b6d6-24b4bba252a4"},"vehicle_type_id":"4","last_reported":1748372889,"current_range_meters":10800,"station_id":"ce4bhih2rcd13ifvqfr0","pricing_plan_id":"cebpf4jnsgd1na2vs0mg"},{"bike_id":"02248f16-a63f-4272-ad58-7cf07b4fa7cc","system_id":"levelo_inurba_marseille","lat":43.2512,"lon":5.40318,"is_reserved":false,"is_disabled":false,"rental_uris":{"android":"levelo://app?vid=02248f16-a63f-4272-ad58-7cf07b4fa7cc","ios":"levelo://app?vid=02248f16-a63f-4272-ad58-7cf07b4fa7cc"},"vehicle_type_id":"4","last_reported":1748372889,"current_range_meters":10800,"station_id":"ce4bhlh2rcd13ifvqgig","pricing_plan_id":"cebpf4jnsgd1na2vs0mg"},{"bike_id":"20662250-8ad3-4e45-bac7-f98c784800f0","system_id":"levelo_inurba_marseille","lat":43.28694,"lon":5.37392,"is_reserved":false,"is_disabled":false,"rental_uris":{"android":"levelo://app?vid=20662250-8ad3-4e45-bac7-f98c784800f0","ios":"levelo://app?vid=20662250-8ad3-4e45-bac7-f98c784800f0"},"vehicle_type_id":"4","last_reported":1748372889,"current_range_meters":10800,"station_id":"ce4bh3p2rcd13ifvqdq0","pricing_plan_id":"cebpf4jnsgd1na2vs0mg"},{"bike_id":"a3a1e2f8-c082-4657-9cf8-ceb282e14a71","system_id":"levelo_inurba_marseille","lat":43.23187,"lon":5.39991,"is_reserved":false,"is_disabled":false,"rental_uris":{"android":"levelo://app?vid=a3a1e2f8-c082-4657-9cf8-ceb282e14a71","ios":"levelo://app?vid=a3a1e2f8-c082-4657-9cf8-ceb282e14a71"},"vehicle_type_id":"4","last_reported":1748372889,"current_range_meters":10800,"station_id":"ce4bhn12rcd13ifvqgqg","pricing_plan_id":"cebpf4jnsgd1na2vs0mg"},{"bike_id":"10140ac5-e896-497c-8ca6-915e7711642c","system_id":"levelo_inurba_marseille","lat":43.27425,"lon":5.39416,"is_reserved":false,"is_disabled":false,"rental_uris":{"android":"levelo://app?vid=10140ac5-e896-497c-8ca6-915e7711642c","ios":"levelo://app?vid=10140ac5-e896-497c-8ca6-915e7711642c"},"vehicle_type_id":"4","last_reported":1748372889,"current_range_meters":10800,"station_id":"ce4bhdp2rcd13ifvqf20","pricing_plan_id":"cebpf4jnsgd1na2vs0mg"},{"bike_id":"95632680-4b5e-410d-806f-8e808bffdf48","system_id":"levelo_inurba_marseille","lat":43.278154,"lon":5.407119,"is_reserved":false,"is_disabled":false,"rental_uris":{"android":"levelo://app?vid=95632680-4b5e-410d-806f-8e808bffdf48","ios":"levelo://app?vid=95632680-4b5e-410d-806f-8e808bffdf48"},"vehicle_type_id":"4","last_reported":1748372889,"current_range_meters":11200,"station_id":"ce4bhnh2rcd13ifvqgtg","pricing_plan_id":"cebpf4jnsgd1na2vs0mg"},{"bike_id":"cc211938-245c-4e41-9685-23c46c359122","system_id":"levelo_inurba_marseille","lat":43.28158,"lon":5.4264,"is_reserved":false,"is_disabled":false,"rental_uris":{"android":"levelo://app?vid=cc211938-245c-4e41-9685-23c46c359122","ios":"levelo://app?vid=cc211938-245c-4e41-9685-23c46c359122"},"vehicle_type_id":"4","last_reported":1748372889,"current_range_meters":11200,"station_id":"ce4bhnh2rcd13ifvqgug","pricing_plan_id":"cebpf4jnsgd1na2vs0mg"},{"bike_id":"9bd42da9-6b96-473c-b7f4-75e3c6848c01","system_id":"levelo_inurba_marseille","lat":43.29896,"lon":5.43664,"is_reserved":false,"is_disabled":false,"rental_uris":{"android":"levelo://app?vid=9bd42da9-6b96-473c-b7f4-75e3c6848c01","ios":"levelo://app?vid=9bd42da9-6b96-473c-b7f4-75e3c6848c01"},"vehicle_type_id":"4","last_reported":1748372889,"current_range_meters":10800,"station_id":"ce4bhpp2rcd13ifvqhfg","pricing_plan_id":"cebpf4jnsgd1na2vs0mg"},{"bike_id":"7863411a-5439-4313-ba2a-c5a24f9ba3df","system_id":"levelo_inurba_marseille","lat":43.29193,"lon":5.39322,"is_reserved":false,"is_disabled":false,"rental_uris":{"android":"levelo://app?vid=7863411a-5439-4313-ba2a-c5a24f9ba3df","ios":"levelo://app?vid=7863411a-5439-4313-ba2a-c5a24f9ba3df"},"vehicle_type_id":"4","last_reported":1748372889,"current_range_meters":11200,"station_id":"ce4bh192rcd13ifvqdd0","pricing_plan_id":"cebpf4jnsgd1na2vs0mg"},{"bike_id":"f07b974a-3926-4004-8aec-081f921deef5","system_id":"levelo_inurba_marseille","lat":43.30313,"lon":5.36891,"is_reserved":false,"is_disabled":false,"rental_uris":{"android":"levelo://app?vid=f07b974a-3926-4004-8aec-081f921deef5","ios":"levelo://app?vid=f07b974a-3926-4004-8aec-081f921deef5"},"vehicle_type_id":"4","last_reported":1748372889,"current_range_meters":11200,"station_id":"ce4bgqh2rcd13ifvqc5g","pricing_plan_id":"cebpf4jnsgd1na2vs0mg"},{"bike_id":"feb1ea1c-4d0e-4d44-92e9-46032fd85b78","system_id":"levelo_inurba_marseille","lat":43.30133,"lon":5.39871,"is_reserved":false,"is_disabled":false,"rental_uris":{"android":"levelo://app?vid=feb1ea1c-4d0e-4d44-92e9-46032fd85b78","ios":"levelo://app?vid=feb1ea1c-4d0e-4d44-92e9-46032fd85b78"},"vehicle_type_id":"4","last_reported":1748372889,"current_range_meters":11200,"station_id":"ce4bh0h2rcd13ifvqd40","pricing_plan_id":"cebpf4jnsgd1na2vs0mg"},{"bike_id":"92c20333-f1be-4048-8f1a-30fdeff2a990","system_id":"levelo_inurba_marseille","lat":43.330304,"lon":5.390391,"is_reserved":false,"is_disabled":false,"rental_uris":{"android":"levelo://app?vid=92c20333-f1be-4048-8f1a-30fdeff2a990","ios":"levelo://app?vid=92c20333-f1be-4048-8f1a-30fdeff2a990"},"vehicle_type_id":"4","last_reported":1748372889,"current_range_meters":11200,"station_id":"ce4bhr92rcd13ifvqhrg","pricing_plan_id":"cebpf4jnsgd1na2vs0mg"},{"bike_id":"37d1376c-dfa1-4e03-8541-7bea54bb6ea8","system_id":"levelo_inurba_marseille","lat":43.31173,"lon":5.38714,"is_reserved":false,"is_disabled":false,"rental_uris":{"android":"levelo://app?vid=37d1376c-dfa1-4e03-8541-7bea54bb6ea8","ios":"levelo://app?vid=37d1376c-dfa1-4e03-8541-7bea54bb6ea8"},"vehicle_type_id":"4","last_reported":1748372889,"current_range_meters":11200,"station_id":"ce4bgv12rcd13ifvqcp0","pricing_plan_id":"cebpf4jnsgd1na2vs0mg"},{"bike_id":"31b18c7d-4061-4f6b-9520-f790e2833cb3","system_id":"levelo_inurba_marseille","lat":43.29263,"lon":5.37616,"is_reserved":false,"is_disabled":false,"rental_uris":{"android":"levelo://app?vid=31b18c7d-4061-4f6b-9520-f790e2833cb3","ios":"levelo://app?vid=31b18c7d-4061-4f6b-9520-f790e2833cb3"},"vehicle_type_id":"4","last_reported":1748372889,"current_range_meters":11200,"station_id":"ce4bgi12rcd13ifvqb80","pricing_plan_id":"cebpf4jnsgd1na2vs0mg"},{"bike_id":"ceb81090-b40e-47dd-bc35-8598d269ef58","system_id":"levelo_inurba_marseille","lat":43.26663,"lon":5.38431,"is_reserved":false,"is_disabled":false,"rental_uris":{"android":"levelo://app?vid=ceb81090-b40e-47dd-bc35-8598d269ef58","ios":"levelo://app?vid=ceb81090-b40e-47dd-bc35-8598d269ef58"},"vehicle_type_id":"4","last_reported":1748372889,"current_range_meters":11600,"station_id":"","pricing_plan_id":"cebpf4jnsgd1na2vs0mg"},{"bike_id":"9b9d8135-82f8-4f79-bdd1-2ae839c47acd","system_id":"levelo_inurba_marseille","lat":43.27387,"lon":5.36269,"is_reserved":false,"is_disabled":false,"rental_uris":{"android":"levelo://app?vid=9b9d8135-82f8-4f79-bdd1-2ae839c47acd","ios":"levelo://app?vid=9b9d8135-82f8-4f79-bdd1-2ae839c47acd"},"vehicle_type_id":"4","last_reported":1748372889,"current_range_meters":11600,"station_id":"ce4bhbh2rcd13ifvqeo0","pricing_plan_id":"cebpf4jnsgd1na2vs0mg"},{"bike_id":"2acf717d-23db-4d4c-b4a4-d147f4be54c5","system_id":"levelo_inurba_marseille","lat":43.28707,"lon":5.37394,"is_reserved":false,"is_disabled":false,"rental_uris":{"android":"levelo://app?vid=2acf717d-23db-4d4c-b4a4-d147f4be54c5","ios":"levelo://app?vid=2acf717d-23db-4d4c-b4a4-d147f4be54c5"},"vehicle_type_id":"4","last_reported":1748372889,"current_range_meters":11600,"station_id":"ce4bh3p2rcd13ifvqdq0","pricing_plan_id":"cebpf4jnsgd1na2vs0mg"},{"bike_id":"09a659ec-8570-41b2-8ecb-ef1ef86211b8","system_id":"levelo_inurba_marseille","lat":43.30597,"lon":5.37219,"is_reserved":false,"is_disabled":false,"rental_uris":{"android":"levelo://app?vid=09a659ec-8570-41b2-8ecb-ef1ef86211b8","ios":"levelo://app?vid=09a659ec-8570-41b2-8ecb-ef1ef86211b8"},"vehicle_type_id":"4","last_reported":1748372889,"current_range_meters":11200,"station_id":"ce4bgqh2rcd13ifvqc4g","pricing_plan_id":"cebpf4jnsgd1na2vs0mg"},{"bike_id":"86554b92-c1a3-42d5-bd93-4980cf0d8208","system_id":"levelo_inurba_marseille","lat":43.30938,"lon":5.39069,"is_reserved":false,"is_disabled":false,"rental_uris":{"android":"levelo://app?vid=86554b92-c1a3-42d5-bd93-4980cf0d8208","ios":"levelo://app?vid=86554b92-c1a3-42d5-bd93-4980cf0d8208"},"vehicle_type_id":"4","last_reported":1748372889,"current_range_meters":11600,"station_id":"ce4bgup2rcd13ifvqco0","pricing_plan_id":"cebpf4jnsgd1na2vs0mg"},{"bike_id":"56f498b7-1a5f-4e78-9d89-5e7ee68bb6c9","system_id":"levelo_inurba_marseille","lat":43.3042,"lon":5.38879,"is_reserved":false,"is_disabled":false,"rental_uris":{"android":"levelo://app?vid=56f498b7-1a5f-4e78-9d89-5e7ee68bb6c9","ios":"levelo://app?vid=56f498b7-1a5f-4e78-9d89-5e7ee68bb6c9"},"vehicle_type_id":"4","last_reported":1748372889,"current_range_meters":11600,"station_id":"ce4bgk12rcd13ifvqbi0","pricing_plan_id":"cebpf4jnsgd1na2vs0mg"},{"bike_id":"60c3a524-f14e-468e-a89b-31de182c2057","system_id":"levelo_inurba_marseille","lat":43.26028,"lon":5.37553,"is_reserved":false,"is_disabled":false,"rental_uris":{"android":"levelo://app?vid=60c3a524-f14e-468e-a89b-31de182c2057","ios":"levelo://app?vid=60c3a524-f14e-468e-a89b-31de182c2057"},"vehicle_type_id":"4","last_reported":1748372889,"current_range_meters":11600,"station_id":"ce4bhgh2rcd13ifvqfa0","pricing_plan_id":"cebpf4jnsgd1na2vs0mg"},{"bike_id":"064e6fa0-0d7c-4ec8-b1ad-7f69178c75b7","system_id":"levelo_inurba_marseille","lat":43.29918,"lon":5.43709,"is_reserved":false,"is_disabled":false,"rental_uris":{"android":"levelo://app?vid=064e6fa0-0d7c-4ec8-b1ad-7f69178c75b7","ios":"levelo://app?vid=064e6fa0-0d7c-4ec8-b1ad-7f69178c75b7"},"vehicle_type_id":"4","last_reported":1748372889,"current_range_meters":11600,"station_id":"","pricing_plan_id":"cebpf4jnsgd1na2vs0mg"},{"bike_id":"f4c1b85d-3786-4f4d-89b2-240cdacd99b0","system_id":"levelo_inurba_marseille","lat":43.245468,"lon":5.395201,"is_reserved":false,"is_disabled":false,"rental_uris":{"android":"levelo://app?vid=f4c1b85d-3786-4f4d-89b2-240cdacd99b0","ios":"levelo://app?vid=f4c1b85d-3786-4f4d-89b2-240cdacd99b0"},"vehicle_type_id":"4","last_reported":1748372889,"current_range_meters":12000,"station_id":"ce4bhlp2rcd13ifvqgjg","pricing_plan_id":"cebpf4jnsgd1na2vs0mg"},{"bike_id":"6d2977b8-b405-496c-bf31-3eacba5c9601","system_id":"levelo_inurba_marseille","lat":43.284321,"lon":5.349967,"is_reserved":false,"is_disabled":false,"rental_uris":{"android":"levelo://app?vid=6d2977b8-b405-496c-bf31-3eacba5c9601","ios":"levelo://app?vid=6d2977b8-b405-496c-bf31-3eacba5c9601"},"vehicle_type_id":"4","last_reported":1748372889,"current_range_meters":12000,"station_id":"ce4bhbh2rcd13ifvqepg","pricing_plan_id":"cebpf4jnsgd1na2vs0mg"},{"bike_id":"1fbd130b-cb94-49d6-9bd3-bb418fe725b4","system_id":"levelo_inurba_marseille","lat":43.28432,"lon":5.35014,"is_reserved":false,"is_disabled":false,"rental_uris":{"android":"levelo://app?vid=1fbd130b-cb94-49d6-9bd3-bb418fe725b4","ios":"levelo://app?vid=1fbd130b-cb94-49d6-9bd3-bb418fe725b4"},"vehicle_type_id":"4","last_reported":1748372889,"current_range_meters":12000,"station_id":"ce4bhbh2rcd13ifvqepg","pricing_plan_id":"cebpf4jnsgd1na2vs0mg"},{"bike_id":"b1de6594-afeb-44f0-a7f9-d29efab468fd","system_id":"levelo_inurba_marseille","lat":43.28637,"lon":5.3511,"is_reserved":false,"is_disabled":false,"rental_uris":{"android":"levelo://app?vid=b1de6594-afeb-44f0-a7f9-d29efab468fd","ios":"levelo://app?vid=b1de6594-afeb-44f0-a7f9-d29efab468fd"},"vehicle_type_id":"4","last_reported":1748372889,"current_range_meters":12000,"station_id":"ce4bhch2rcd13ifvqeug","pricing_plan_id":"cebpf4jnsgd1na2vs0mg"},{"bike_id":"d210ed15-0cab-4985-be76-61173c3a81e4","system_id":"levelo_inurba_marseille","lat":43.28719,"lon":5.36102,"is_reserved":false,"is_disabled":true,"rental_uris":{"android":"levelo://app?vid=d210ed15-0cab-4985-be76-61173c3a81e4","ios":"levelo://app?vid=d210ed15-0cab-4985-be76-61173c3a81e4"},"vehicle_type_id":"4","last_reported":1748372889,"current_range_meters":12000,"station_id":"cki0cbj6b192h4jlfktg","pricing_plan_id":"cebpf4jnsgd1na2vs0mg"},{"bike_id":"3bb69b95-acc1-4494-9449-5a747ed5114d","system_id":"levelo_inurba_marseille","lat":43.27368,"lon":5.36258,"is_reserved":false,"is_disabled":false,"rental_uris":{"android":"levelo://app?vid=3bb69b95-acc1-4494-9449-5a747ed5114d","ios":"levelo://app?vid=3bb69b95-acc1-4494-9449-5a747ed5114d"},"vehicle_type_id":"4","last_reported":1748372889,"current_range_meters":12000,"station_id":"ce4bhbh2rcd13ifvqeo0","pricing_plan_id":"cebpf4jnsgd1na2vs0mg"},{"bike_id":"117bf755-2682-426d-9a0b-5e0bd1723a20","system_id":"levelo_inurba_marseille","lat":43.273763,"lon":5.362625,"is_reserved":false,"is_disabled":false,"rental_uris":{"android":"levelo://app?vid=117bf755-2682-426d-9a0b-5e0bd1723a20","ios":"levelo://app?vid=117bf755-2682-426d-9a0b-5e0bd1723a20"},"vehicle_type_id":"4","last_reported":1748372889,"current_range_meters":12000,"station_id":"ce4bhbh2rcd13ifvqeo0","pricing_plan_id":"cebpf4jnsgd1na2vs0mg"},{"bike_id":"f11bc507-3a25-4869-bad2-624bc62971f0","system_id":"levelo_inurba_marseille","lat":43.29849,"lon":5.3629,"is_reserved":false,"is_disabled":false,"rental_uris":{"android":"levelo://app?vid=f11bc507-3a25-4869-bad2-624bc62971f0","ios":"levelo://app?vid=f11bc507-3a25-4869-bad2-624bc62971f0"},"vehicle_type_id":"4","last_reported":1748372889,"current_range_meters":12400,"station_id":"ce4bgpp2rcd13ifvqc3g","pricing_plan_id":"cebpf4jnsgd1na2vs0mg"},{"bike_id":"02d13458-956b-4988-b0a1-9f2ebc7abf30","system_id":"levelo_inurba_marseille","lat":43.29573,"lon":5.39964,"is_reserved":false,"is_disabled":false,"rental_uris":{"android":"levelo://app?vid=02d13458-956b-4988-b0a1-9f2ebc7abf30","ios":"levelo://app?vid=02d13458-956b-4988-b0a1-9f2ebc7abf30"},"vehicle_type_id":"4","last_reported":1748372889,"current_range_meters":12400,"station_id":"ce4bh312rcd13ifvqdj0","pricing_plan_id":"cebpf4jnsgd1na2vs0mg"},{"bike_id":"56303e41-2b27-4d35-8ea7-4c7f6f219c1a","system_id":"levelo_inurba_marseille","lat":43.2176,"lon":5.34586,"is_reserved":false,"is_disabled":false,"rental_uris":{"android":"levelo://app?vid=56303e41-2b27-4d35-8ea7-4c7f6f219c1a","ios":"levelo://app?vid=56303e41-2b27-4d35-8ea7-4c7f6f219c1a"},"vehicle_type_id":"4","last_reported":1748372889,"current_range_meters":12400,"station_id":"st_cvj6r9ubvosntc0bgbag","pricing_plan_id":"cebpf4jnsgd1na2vs0mg"},{"bike_id":"4b91c34c-161d-4090-bc0d-091fc749a350","system_id":"levelo_inurba_marseille","lat":43.29528,"lon":5.39401,"is_reserved":false,"is_disabled":false,"rental_uris":{"android":"levelo://app?vid=4b91c34c-161d-4090-bc0d-091fc749a350","ios":"levelo://app?vid=4b91c34c-161d-4090-bc0d-091fc749a350"},"vehicle_type_id":"4","last_reported":1748372889,"current_range_meters":12400,"station_id":"ce4bh292rcd13ifvqdf0","pricing_plan_id":"cebpf4jnsgd1na2vs0mg"},{"bike_id":"42346980-f537-4d88-8812-f1c3c65c8396","system_id":"levelo_inurba_marseille","lat":43.24827,"lon":5.37448,"is_reserved":false,"is_disabled":false,"rental_uris":{"android":"levelo://app?vid=42346980-f537-4d88-8812-f1c3c65c8396","ios":"levelo://app?vid=42346980-f537-4d88-8812-f1c3c65c8396"},"vehicle_type_id":"4","last_reported":1748372889,"current_range_meters":12400,"station_id":"ce4bhgh2rcd13ifvqfb0","pricing_plan_id":"cebpf4jnsgd1na2vs0mg"},{"bike_id":"b58bfd14-90c7-44d1-89f6-c6a38b21aba5","system_id":"levelo_inurba_marseille","lat":43.27622,"lon":5.36112,"is_reserved":false,"is_disabled":false,"rental_uris":{"android":"levelo://app?vid=b58bfd14-90c7-44d1-89f6-c6a38b21aba5","ios":"levelo://app?vid=b58bfd14-90c7-44d1-89f6-c6a38b21aba5"},"vehicle_type_id":"4","last_reported":1748372889,"current_range_meters":12400,"station_id":"ce4bgj92rcd13ifvqbe0","pricing_plan_id":"cebpf4jnsgd1na2vs0mg"},{"bike_id":"db3303f8-4a56-4aed-a38a-884f184123bc","system_id":"levelo_inurba_marseille","lat":43.28417,"lon":5.34981,"is_reserved":false,"is_disabled":false,"rental_uris":{"android":"levelo://app?vid=db3303f8-4a56-4aed-a38a-884f184123bc","ios":"levelo://app?vid=db3303f8-4a56-4aed-a38a-884f184123bc"},"vehicle_type_id":"4","last_reported":1748372889,"current_range_meters":12400,"station_id":"ce4bhbh2rcd13ifvqepg","pricing_plan_id":"cebpf4jnsgd1na2vs0mg"},{"bike_id":"5ad0faef-897d-4c19-b2e4-979327720bd4","system_id":"levelo_inurba_marseille","lat":43.25079,"lon":5.39523,"is_reserved":false,"is_disabled":false,"rental_uris":{"android":"levelo://app?vid=5ad0faef-897d-4c19-b2e4-979327720bd4","ios":"levelo://app?vid=5ad0faef-897d-4c19-b2e4-979327720bd4"},"vehicle_type_id":"4","last_reported":1748372889,"current_range_meters":12800,"station_id":"ce4bhm12rcd13ifvqgkg","pricing_plan_id":"cebpf4jnsgd1na2vs0mg"},{"bike_id":"32de2101-6b61-4bc3-a93b-c56ba7701a1b","system_id":"levelo_inurba_marseille","lat":43.29262,"lon":5.3844,"is_reserved":false,"is_disabled":false,"rental_uris":{"android":"levelo://app?vid=32de2101-6b61-4bc3-a93b-c56ba7701a1b","ios":"levelo://app?vid=32de2101-6b61-4bc3-a93b-c56ba7701a1b"},"vehicle_type_id":"4","last_reported":1748372889,"current_range_meters":12800,"station_id":"ce4bh692rcd13ifvqea0","pricing_plan_id":"cebpf4jnsgd1na2vs0mg"},{"bike_id":"cee3fd6f-59d8-44bc-a6ae-9899f5310af3","system_id":"levelo_inurba_marseille","lat":43.30901,"lon":5.37186,"is_reserved":false,"is_disabled":false,"rental_uris":{"android":"levelo://app?vid=cee3fd6f-59d8-44bc-a6ae-9899f5310af3","ios":"levelo://app?vid=cee3fd6f-59d8-44bc-a6ae-9899f5310af3"},"vehicle_type_id":"4","last_reported":1748372889,"current_range_meters":12400,"station_id":"ce4bguh2rcd13ifvqckg","pricing_plan_id":"cebpf4jnsgd1na2vs0mg"},{"bike_id":"246c55bc-39f9-4954-b708-f9302b3ebdcf","system_id":"levelo_inurba_marseille","lat":43.26934,"lon":5.40271,"is_reserved":false,"is_disabled":false,"rental_uris":{"android":"levelo://app?vid=246c55bc-39f9-4954-b708-f9302b3ebdcf","ios":"levelo://app?vid=246c55bc-39f9-4954-b708-f9302b3ebdcf"},"vehicle_type_id":"4","last_reported":1748372889,"current_range_meters":12800,"station_id":"cjm6bp8fraef2m0cb0m0","pricing_plan_id":"cebpf4jnsgd1na2vs0mg"},{"bike_id":"86d087aa-cca3-4f21-bbec-5d92275b803d","system_id":"levelo_inurba_marseille","lat":43.27991,"lon":5.41673,"is_reserved":false,"is_disabled":false,"rental_uris":{"android":"levelo://app?vid=86d087aa-cca3-4f21-bbec-5d92275b803d","ios":"levelo://app?vid=86d087aa-cca3-4f21-bbec-5d92275b803d"},"vehicle_type_id":"4","last_reported":1748372889,"current_range_meters":12800,"station_id":"ce4bho12rcd13ifvqh1g","pricing_plan_id":"cebpf4jnsgd1na2vs0mg"},{"bike_id":"f757d16f-10d1-46fd-97c8-e7926b6602c0","system_id":"levelo_inurba_marseille","lat":43.30882,"lon":5.39643,"is_reserved":false,"is_disabled":false,"rental_uris":{"android":"levelo://app?vid=f757d16f-10d1-46fd-97c8-e7926b6602c0","ios":"levelo://app?vid=f757d16f-10d1-46fd-97c8-e7926b6602c0"},"vehicle_type_id":"4","last_reported":1748372889,"current_range_meters":13600,"station_id":"ce4bh012rcd13ifvqcv0","pricing_plan_id":"cebpf4jnsgd1na2vs0mg"},{"bike_id":"18f379c0-cd6a-4d28-94be-da5478774af1","system_id":"levelo_inurba_marseille","lat":43.29024,"lon":5.35916,"is_reserved":false,"is_disabled":true,"rental_uris":{"android":"levelo://app?vid=18f379c0-cd6a-4d28-94be-da5478774af1","ios":"levelo://app?vid=18f379c0-cd6a-4d28-94be-da5478774af1"},"vehicle_type_id":"4","last_reported":1748372889,"current_range_meters":13600,"station_id":"ce4bha92rcd13ifvqeg0","pricing_plan_id":"cebpf4jnsgd1na2vs0mg"},{"bike_id":"0cd5efbf-fef3-4996-a4c8-83dc8d20c626","system_id":"levelo_inurba_marseille","lat":43.29075,"lon":5.3817,"is_reserved":false,"is_disabled":false,"rental_uris":{"android":"levelo://app?vid=0cd5efbf-fef3-4996-a4c8-83dc8d20c626","ios":"levelo://app?vid=0cd5efbf-fef3-4996-a4c8-83dc8d20c626"},"vehicle_type_id":"4","last_reported":1748372889,"current_range_meters":13600,"station_id":"ce4bh512rcd13ifvqe2g","pricing_plan_id":"cebpf4jnsgd1na2vs0mg"},{"bike_id":"54d619eb-d5de-4b2b-9336-6f3587fb20da","system_id":"levelo_inurba_marseille","lat":43.29423,"lon":5.38615,"is_reserved":false,"is_disabled":false,"rental_uris":{"android":"levelo://app?vid=54d619eb-d5de-4b2b-9336-6f3587fb20da","ios":"levelo://app?vid=54d619eb-d5de-4b2b-9336-6f3587fb20da"},"vehicle_type_id":"4","last_reported":1748372889,"current_range_meters":13600,"station_id":"ce4bh2h2rcd13ifvqdh0","pricing_plan_id":"cebpf4jnsgd1na2vs0mg"},{"bike_id":"67466348-6ac3-4a3f-9966-34eb91b42b01","system_id":"levelo_inurba_marseille","lat":43.29855,"lon":5.3628,"is_reserved":false,"is_disabled":false,"rental_uris":{"android":"levelo://app?vid=67466348-6ac3-4a3f-9966-34eb91b42b01","ios":"levelo://app?vid=67466348-6ac3-4a3f-9966-34eb91b42b01"},"vehicle_type_id":"4","last_reported":1748372889,"current_range_meters":13600,"station_id":"ce4bgpp2rcd13ifvqc3g","pricing_plan_id":"cebpf4jnsgd1na2vs0mg"},{"bike_id":"018cd745-1132-463b-b8c5-3a866f4970a8","system_id":"levelo_inurba_marseille","lat":43.29253,"lon":5.40908,"is_reserved":false,"is_disabled":false,"rental_uris":{"android":"levelo://app?vid=018cd745-1132-463b-b8c5-3a866f4970a8","ios":"levelo://app?vid=018cd745-1132-463b-b8c5-3a866f4970a8"},"vehicle_type_id":"4","last_reported":1748372889,"current_range_meters":13600,"station_id":"ce4bh192rcd13ifvqdc0","pricing_plan_id":"cebpf4jnsgd1na2vs0mg"},{"bike_id":"cc391400-7d4c-4261-8004-e9968eddac7e","system_id":"levelo_inurba_marseille","lat":43.29039,"lon":5.3755,"is_reserved":false,"is_disabled":true,"rental_uris":{"android":"levelo://app?vid=cc391400-7d4c-4261-8004-e9968eddac7e","ios":"levelo://app?vid=cc391400-7d4c-4261-8004-e9968eddac7e"},"vehicle_type_id":"4","last_reported":1748372889,"current_range_meters":13600,"station_id":"ce4bh692rcd13ifvqe90","pricing_plan_id":"cebpf4jnsgd1na2vs0mg"},{"bike_id":"6cdb5c34-a995-4fff-877d-feb618c198ce","system_id":"levelo_inurba_marseille","lat":43.31175,"lon":5.38714,"is_reserved":false,"is_disabled":false,"rental_uris":{"android":"levelo://app?vid=6cdb5c34-a995-4fff-877d-feb618c198ce","ios":"levelo://app?vid=6cdb5c34-a995-4fff-877d-feb618c198ce"},"vehicle_type_id":"4","last_reported":1748372889,"current_range_meters":13600,"station_id":"ce4bgv12rcd13ifvqcp0","pricing_plan_id":"cebpf4jnsgd1na2vs0mg"},{"bike_id":"6a2eb3d1-8421-4db2-9c25-13e15f56bb41","system_id":"levelo_inurba_marseille","lat":43.30924,"lon":5.4014,"is_reserved":false,"is_disabled":false,"rental_uris":{"android":"levelo://app?vid=6a2eb3d1-8421-4db2-9c25-13e15f56bb41","ios":"levelo://app?vid=6a2eb3d1-8421-4db2-9c25-13e15f56bb41"},"vehicle_type_id":"4","last_reported":1748372889,"current_range_meters":13600,"station_id":"ce4bgvp2rcd13ifvqct0","pricing_plan_id":"cebpf4jnsgd1na2vs0mg"},{"bike_id":"98f739a7-6f24-461d-abf8-fb2e35c10436","system_id":"levelo_inurba_marseille","lat":43.30318,"lon":5.40432,"is_reserved":false,"is_disabled":false,"rental_uris":{"android":"levelo://app?vid=98f739a7-6f24-461d-abf8-fb2e35c10436","ios":"levelo://app?vid=98f739a7-6f24-461d-abf8-fb2e35c10436"},"vehicle_type_id":"4","last_reported":1748372889,"current_range_meters":13600,"station_id":"ce4bh012rcd13ifvqd10","pricing_plan_id":"cebpf4jnsgd1na2vs0mg"},{"bike_id":"8b8f4ddc-5f2d-41ad-9613-91a528fd4361","system_id":"levelo_inurba_marseille","lat":43.22935,"lon":5.35378,"is_reserved":false,"is_disabled":false,"rental_uris":{"android":"levelo://app?vid=8b8f4ddc-5f2d-41ad-9613-91a528fd4361","ios":"levelo://app?vid=8b8f4ddc-5f2d-41ad-9613-91a528fd4361"},"vehicle_type_id":"4","last_reported":1748372889,"current_range_meters":13600,"station_id":"cpo3532slgdg3j2ikp40","pricing_plan_id":"cebpf4jnsgd1na2vs0mg"},{"bike_id":"16325869-b0b1-4ea6-b5e0-4206964d490a","system_id":"levelo_inurba_marseille","lat":43.26035,"lon":5.41741,"is_reserved":false,"is_disabled":false,"rental_uris":{"android":"levelo://app?vid=16325869-b0b1-4ea6-b5e0-4206964d490a","ios":"levelo://app?vid=16325869-b0b1-4ea6-b5e0-4206964d490a"},"vehicle_type_id":"4","last_reported":1748372889,"current_range_meters":13600,"station_id":"","pricing_plan_id":"cebpf4jnsgd1na2vs0mg"},{"bike_id":"9457a377-3567-464b-b191-f8d2ccbd3d31","system_id":"levelo_inurba_marseille","lat":43.31707,"lon":5.404447,"is_reserved":false,"is_disabled":false,"rental_uris":{"android":"levelo://app?vid=9457a377-3567-464b-b191-f8d2ccbd3d31","ios":"levelo://app?vid=9457a377-3567-464b-b191-f8d2ccbd3d31"},"vehicle_type_id":"4","last_reported":1748372889,"current_range_meters":13600,"station_id":"ce4bh012rcd13ifvqd00","pricing_plan_id":"cebpf4jnsgd1na2vs0mg"},{"bike_id":"ec71caf6-638f-4b64-a356-f00d9ed56eef","system_id":"levelo_inurba_marseille","lat":43.30305,"lon":5.39215,"is_reserved":false,"is_disabled":false,"rental_uris":{"android":"levelo://app?vid=ec71caf6-638f-4b64-a356-f00d9ed56eef","ios":"levelo://app?vid=ec71caf6-638f-4b64-a356-f00d9ed56eef"},"vehicle_type_id":"4","last_reported":1748372889,"current_range_meters":13600,"station_id":"ce4bgkh2rcd13ifvqbk0","pricing_plan_id":"cebpf4jnsgd1na2vs0mg"},{"bike_id":"451bf2df-d324-41f7-b355-cd2d44dca749","system_id":"levelo_inurba_marseille","lat":43.30134,"lon":5.39847,"is_reserved":false,"is_disabled":false,"rental_uris":{"android":"levelo://app?vid=451bf2df-d324-41f7-b355-cd2d44dca749","ios":"levelo://app?vid=451bf2df-d324-41f7-b355-cd2d44dca749"},"vehicle_type_id":"4","last_reported":1748372889,"current_range_meters":13600,"station_id":"ce4bh0h2rcd13ifvqd40","pricing_plan_id":"cebpf4jnsgd1na2vs0mg"},{"bike_id":"027996d9-c458-4fe9-9def-7a537508c67a","system_id":"levelo_inurba_marseille","lat":43.265504,"lon":5.372959,"is_reserved":false,"is_disabled":false,"rental_uris":{"android":"levelo://app?vid=027996d9-c458-4fe9-9def-7a537508c67a","ios":"levelo://app?vid=027996d9-c458-4fe9-9def-7a537508c67a"},"vehicle_type_id":"4","last_reported":1748372889,"current_range_meters":14000,"station_id":"ce4bhg12rcd13ifvqf70","pricing_plan_id":"cebpf4jnsgd1na2vs0mg"},{"bike_id":"801b9b75-4522-4788-9eae-d80d79c897a6","system_id":"levelo_inurba_marseille","lat":43.275703,"lon":5.384209,"is_reserved":false,"is_disabled":false,"rental_uris":{"android":"levelo://app?vid=801b9b75-4522-4788-9eae-d80d79c897a6","ios":"levelo://app?vid=801b9b75-4522-4788-9eae-d80d79c897a6"},"vehicle_type_id":"4","last_reported":1748372889,"current_range_meters":14000,"station_id":"ce4bhh92rcd13ifvqfi0","pricing_plan_id":"cebpf4jnsgd1na2vs0mg"},{"bike_id":"4c36fae8-48db-4c18-a4f9-90f2d8c44428","system_id":"levelo_inurba_marseille","lat":43.2861,"lon":5.35112,"is_reserved":false,"is_disabled":false,"rental_uris":{"android":"levelo://app?vid=4c36fae8-48db-4c18-a4f9-90f2d8c44428","ios":"levelo://app?vid=4c36fae8-48db-4c18-a4f9-90f2d8c44428"},"vehicle_type_id":"4","last_reported":1748372889,"current_range_meters":14000,"station_id":"ce4bhch2rcd13ifvqeug","pricing_plan_id":"cebpf4jnsgd1na2vs0mg"},{"bike_id":"e1b195a2-9cd9-485c-86ca-a01700ba1ad0","system_id":"levelo_inurba_marseille","lat":43.29197,"lon":5.35814,"is_reserved":false,"is_disabled":false,"rental_uris":{"android":"levelo://app?vid=e1b195a2-9cd9-485c-86ca-a01700ba1ad0","ios":"levelo://app?vid=e1b195a2-9cd9-485c-86ca-a01700ba1ad0"},"vehicle_type_id":"4","last_reported":1748372889,"current_range_meters":14000,"station_id":"ce4bhb12rcd13ifvqel0","pricing_plan_id":"cebpf4jnsgd1na2vs0mg"},{"bike_id":"79cee223-35b4-48b7-8367-997cdc71bb24","system_id":"levelo_inurba_marseille","lat":43.29257,"lon":5.38459,"is_reserved":false,"is_disabled":false,"rental_uris":{"android":"levelo://app?vid=79cee223-35b4-48b7-8367-997cdc71bb24","ios":"levelo://app?vid=79cee223-35b4-48b7-8367-997cdc71bb24"},"vehicle_type_id":"4","last_reported":1748372889,"current_range_meters":14000,"station_id":"ce4bh692rcd13ifvqea0","pricing_plan_id":"cebpf4jnsgd1na2vs0mg"},{"bike_id":"cf3e6cb8-3e02-43d1-a602-5ca3f4692cd4","system_id":"levelo_inurba_marseille","lat":43.30198,"lon":5.36601,"is_reserved":false,"is_disabled":false,"rental_uris":{"android":"levelo://app?vid=cf3e6cb8-3e02-43d1-a602-5ca3f4692cd4","ios":"levelo://app?vid=cf3e6cb8-3e02-43d1-a602-5ca3f4692cd4"},"vehicle_type_id":"4","last_reported":1748372889,"current_range_meters":14000,"station_id":"ce4bgrh2rcd13ifvqc8g","pricing_plan_id":"cebpf4jnsgd1na2vs0mg"},{"bike_id":"5a621852-4b0d-47fa-9514-efb82e08741c","system_id":"levelo_inurba_marseille","lat":43.337845,"lon":5.3746,"is_reserved":false,"is_disabled":true,"rental_uris":{"android":"levelo://app?vid=5a621852-4b0d-47fa-9514-efb82e08741c","ios":"levelo://app?vid=5a621852-4b0d-47fa-9514-efb82e08741c"},"vehicle_type_id":"4","last_reported":1748372889,"current_range_meters":14400,"station_id":"","pricing_plan_id":"cebpf4jnsgd1na2vs0mg"},{"bike_id":"d672fd70-0c92-49f4-8fa2-104cea1d0464","system_id":"levelo_inurba_marseille","lat":43.25722,"lon":5.41117,"is_reserved":false,"is_disabled":false,"rental_uris":{"android":"levelo://app?vid=d672fd70-0c92-49f4-8fa2-104cea1d0464","ios":"levelo://app?vid=d672fd70-0c92-49f4-8fa2-104cea1d0464"},"vehicle_type_id":"4","last_reported":1748372889,"current_range_meters":14400,"station_id":"ce4bhkp2rcd13ifvqgd0","pricing_plan_id":"cebpf4jnsgd1na2vs0mg"},{"bike_id":"9ed94f34-a328-46fc-b201-bade39dda6d1","system_id":"levelo_inurba_marseille","lat":43.24996,"lon":5.38933,"is_reserved":false,"is_disabled":false,"rental_uris":{"android":"levelo://app?vid=9ed94f34-a328-46fc-b201-bade39dda6d1","ios":"levelo://app?vid=9ed94f34-a328-46fc-b201-bade39dda6d1"},"vehicle_type_id":"4","last_reported":1748372889,"current_range_meters":14400,"station_id":"ce4bhgp2rcd13ifvqfd0","pricing_plan_id":"cebpf4jnsgd1na2vs0mg"},{"bike_id":"c2c25dd5-dc71-4aa2-a4d5-1ae79422659b","system_id":"levelo_inurba_marseille","lat":43.28231,"lon":5.39067,"is_reserved":false,"is_disabled":false,"rental_uris":{"android":"levelo://app?vid=c2c25dd5-dc71-4aa2-a4d5-1ae79422659b","ios":"levelo://app?vid=c2c25dd5-dc71-4aa2-a4d5-1ae79422659b"},"vehicle_type_id":"4","last_reported":1748372889,"current_range_meters":14400,"station_id":"","pricing_plan_id":"cebpf4jnsgd1na2vs0mg"},{"bike_id":"46f1e1a2-421d-4288-9b19-22918bc7cc7f","system_id":"levelo_inurba_marseille","lat":43.231965,"lon":5.35553,"is_reserved":false,"is_disabled":false,"rental_uris":{"android":"levelo://app?vid=46f1e1a2-421d-4288-9b19-22918bc7cc7f","ios":"levelo://app?vid=46f1e1a2-421d-4288-9b19-22918bc7cc7f"},"vehicle_type_id":"4","last_reported":1748372889,"current_range_meters":14400,"station_id":"ce4bhu92rcd13ifvqi70","pricing_plan_id":"cebpf4jnsgd1na2vs0mg"},{"bike_id":"7d644362-2701-4137-aac7-822704820d27","system_id":"levelo_inurba_marseille","lat":43.3175,"lon":5.3902,"is_reserved":false,"is_disabled":true,"rental_uris":{"android":"levelo://app?vid=7d644362-2701-4137-aac7-822704820d27","ios":"levelo://app?vid=7d644362-2701-4137-aac7-822704820d27"},"vehicle_type_id":"4","last_reported":1748372889,"current_range_meters":14400,"station_id":"ce4bhqp2rcd13ifvqhng","pricing_plan_id":"cebpf4jnsgd1na2vs0mg"},{"bike_id":"9d1c3656-7a4d-42c6-96c7-a6bfc502fe5b","system_id":"levelo_inurba_marseille","lat":43.2794,"lon":5.41048,"is_reserved":false,"is_disabled":false,"rental_uris":{"android":"levelo://app?vid=9d1c3656-7a4d-42c6-96c7-a6bfc502fe5b","ios":"levelo://app?vid=9d1c3656-7a4d-42c6-96c7-a6bfc502fe5b"},"vehicle_type_id":"4","last_reported":1748372889,"current_range_meters":14400,"station_id":"ce4bhnp2rcd13ifvqh0g","pricing_plan_id":"cebpf4jnsgd1na2vs0mg"},{"bike_id":"b9feece3-8db7-4d9c-b5c4-3d592ac61b90","system_id":"levelo_inurba_marseille","lat":43.291848,"lon":5.358085,"is_reserved":false,"is_disabled":true,"rental_uris":{"android":"levelo://app?vid=b9feece3-8db7-4d9c-b5c4-3d592ac61b90","ios":"levelo://app?vid=b9feece3-8db7-4d9c-b5c4-3d592ac61b90"},"vehicle_type_id":"4","last_reported":1748372889,"current_range_meters":14400,"station_id":"","pricing_plan_id":"cebpf4jnsgd1na2vs0mg"},{"bike_id":"3a8bd648-406c-47c5-85b2-98d11c727592","system_id":"levelo_inurba_marseille","lat":43.265573,"lon":5.372824,"is_reserved":false,"is_disabled":false,"rental_uris":{"android":"levelo://app?vid=3a8bd648-406c-47c5-85b2-98d11c727592","ios":"levelo://app?vid=3a8bd648-406c-47c5-85b2-98d11c727592"},"vehicle_type_id":"4","last_reported":1748372889,"current_range_meters":14800,"station_id":"ce4bhg12rcd13ifvqf70","pricing_plan_id":"cebpf4jnsgd1na2vs0mg"},{"bike_id":"e3e5de13-ccd2-41df-9cbd-60e33cf5d625","system_id":"levelo_inurba_marseille","lat":43.27374,"lon":5.36251,"is_reserved":false,"is_disabled":false,"rental_uris":{"android":"levelo://app?vid=e3e5de13-ccd2-41df-9cbd-60e33cf5d625","ios":"levelo://app?vid=e3e5de13-ccd2-41df-9cbd-60e33cf5d625"},"vehicle_type_id":"4","last_reported":1748372889,"current_range_meters":14800,"station_id":"ce4bhbh2rcd13ifvqeo0","pricing_plan_id":"cebpf4jnsgd1na2vs0mg"},{"bike_id":"95b379f6-58b3-4dbc-a1d9-d24207500dcc","system_id":"levelo_inurba_marseille","lat":43.28609,"lon":5.37056,"is_reserved":false,"is_disabled":false,"rental_uris":{"android":"levelo://app?vid=95b379f6-58b3-4dbc-a1d9-d24207500dcc","ios":"levelo://app?vid=95b379f6-58b3-4dbc-a1d9-d24207500dcc"},"vehicle_type_id":"4","last_reported":1748372889,"current_range_meters":14800,"station_id":"ce4bht12rcd13ifvqi60","pricing_plan_id":"cebpf4jnsgd1na2vs0mg"},{"bike_id":"7565b1d2-936d-47bb-bb34-4134828b2e33","system_id":"levelo_inurba_marseille","lat":43.28669,"lon":5.36355,"is_reserved":false,"is_disabled":false,"rental_uris":{"android":"levelo://app?vid=7565b1d2-936d-47bb-bb34-4134828b2e33","ios":"levelo://app?vid=7565b1d2-936d-47bb-bb34-4134828b2e33"},"vehicle_type_id":"4","last_reported":1748372889,"current_range_meters":14800,"station_id":"ce4bhah2rcd13ifvqej0","pricing_plan_id":"cebpf4jnsgd1na2vs0mg"},{"bike_id":"111b3fa9-b3d2-45cc-b9a8-40fdfa34029e","system_id":"levelo_inurba_marseille","lat":43.28491,"lon":5.391877,"is_reserved":false,"is_disabled":false,"rental_uris":{"android":"levelo://app?vid=111b3fa9-b3d2-45cc-b9a8-40fdfa34029e","ios":"levelo://app?vid=111b3fa9-b3d2-45cc-b9a8-40fdfa34029e"},"vehicle_type_id":"4","last_reported":1748372889,"current_range_meters":14800,"station_id":"ce4bgvh2rcd13ifvqcs0","pricing_plan_id":"cebpf4jnsgd1na2vs0mg"},{"bike_id":"b87aac56-5d07-4480-a589-3b33f7758cbc","system_id":"levelo_inurba_marseille","lat":43.28666,"lon":5.35098,"is_reserved":false,"is_disabled":false,"rental_uris":{"android":"levelo://app?vid=b87aac56-5d07-4480-a589-3b33f7758cbc","ios":"levelo://app?vid=b87aac56-5d07-4480-a589-3b33f7758cbc"},"vehicle_type_id":"4","last_reported":1748372889,"current_range_meters":14800,"station_id":"ce4bhch2rcd13ifvqeug","pricing_plan_id":"cebpf4jnsgd1na2vs0mg"},{"bike_id":"66925941-48fd-44ac-a1de-7c99050ee566","system_id":"levelo_inurba_marseille","lat":43.29266,"lon":5.38451,"is_reserved":false,"is_disabled":false,"rental_uris":{"android":"levelo://app?vid=66925941-48fd-44ac-a1de-7c99050ee566","ios":"levelo://app?vid=66925941-48fd-44ac-a1de-7c99050ee566"},"vehicle_type_id":"4","last_reported":1748372889,"current_range_meters":14800,"station_id":"ce4bh692rcd13ifvqea0","pricing_plan_id":"cebpf4jnsgd1na2vs0mg"},{"bike_id":"cb99a941-f47c-4d49-b3d2-6fe7970dee4a","system_id":"levelo_inurba_marseille","lat":43.25113,"lon":5.40324,"is_reserved":false,"is_disabled":false,"rental_uris":{"android":"levelo://app?vid=cb99a941-f47c-4d49-b3d2-6fe7970dee4a","ios":"levelo://app?vid=cb99a941-f47c-4d49-b3d2-6fe7970dee4a"},"vehicle_type_id":"4","last_reported":1748372889,"current_range_meters":14800,"station_id":"ce4bhlh2rcd13ifvqgig","pricing_plan_id":"cebpf4jnsgd1na2vs0mg"},{"bike_id":"5e38f412-512f-43c5-861c-e62a973fd7df","system_id":"levelo_inurba_marseille","lat":43.299327,"lon":5.365505,"is_reserved":false,"is_disabled":false,"rental_uris":{"android":"levelo://app?vid=5e38f412-512f-43c5-861c-e62a973fd7df","ios":"levelo://app?vid=5e38f412-512f-43c5-861c-e62a973fd7df"},"vehicle_type_id":"4","last_reported":1748372889,"current_range_meters":15200,"station_id":"ce4bh012rcd13ifvqd10","pricing_plan_id":"cebpf4jnsgd1na2vs0mg"},{"bike_id":"c0f0f267-c874-412a-ab0e-e35f3a7acb5a","system_id":"levelo_inurba_marseille","lat":43.23178,"lon":5.39992,"is_reserved":false,"is_disabled":false,"rental_uris":{"android":"levelo://app?vid=c0f0f267-c874-412a-ab0e-e35f3a7acb5a","ios":"levelo://app?vid=c0f0f267-c874-412a-ab0e-e35f3a7acb5a"},"vehicle_type_id":"4","last_reported":1748372889,"current_range_meters":15200,"station_id":"ce4bhn12rcd13ifvqgqg","pricing_plan_id":"cebpf4jnsgd1na2vs0mg"},{"bike_id":"72a110ef-2b3e-40f8-a299-2aad554b9d71","system_id":"levelo_inurba_marseille","lat":43.28846,"lon":5.3586,"is_reserved":false,"is_disabled":false,"rental_uris":{"android":"levelo://app?vid=72a110ef-2b3e-40f8-a299-2aad554b9d71","ios":"levelo://app?vid=72a110ef-2b3e-40f8-a299-2aad554b9d71"},"vehicle_type_id":"4","last_reported":1748372889,"current_range_meters":15200,"station_id":"ce4bhb12rcd13ifvqem0","pricing_plan_id":"cebpf4jnsgd1na2vs0mg"},{"bike_id":"b20fb15e-eee4-4039-8545-41557c6d29a9","system_id":"levelo_inurba_marseille","lat":43.28662,"lon":5.36358,"is_reserved":false,"is_disabled":false,"rental_uris":{"android":"levelo://app?vid=b20fb15e-eee4-4039-8545-41557c6d29a9","ios":"levelo://app?vid=b20fb15e-eee4-4039-8545-41557c6d29a9"},"vehicle_type_id":"4","last_reported":1748372889,"current_range_meters":15200,"station_id":"ce4bhah2rcd13ifvqej0","pricing_plan_id":"cebpf4jnsgd1na2vs0mg"},{"bike_id":"c3a144ab-85ec-4786-a321-7c5bb1205492","system_id":"levelo_inurba_marseille","lat":43.25117,"lon":5.40326,"is_reserved":false,"is_disabled":false,"rental_uris":{"android":"levelo://app?vid=c3a144ab-85ec-4786-a321-7c5bb1205492","ios":"levelo://app?vid=c3a144ab-85ec-4786-a321-7c5bb1205492"},"vehicle_type_id":"4","last_reported":1748372889,"current_range_meters":15200,"station_id":"ce4bhlh2rcd13ifvqgig","pricing_plan_id":"cebpf4jnsgd1na2vs0mg"},{"bike_id":"eb5d0b01-37f4-45bc-90b9-22af52fa3927","system_id":"levelo_inurba_marseille","lat":43.284532,"lon":5.35896,"is_reserved":false,"is_disabled":false,"rental_uris":{"android":"levelo://app?vid=eb5d0b01-37f4-45bc-90b9-22af52fa3927","ios":"levelo://app?vid=eb5d0b01-37f4-45bc-90b9-22af52fa3927"},"vehicle_type_id":"4","last_reported":1748372889,"current_range_meters":15200,"station_id":"ce4bhjp2rcd13ifvqga0","pricing_plan_id":"cebpf4jnsgd1na2vs0mg"},{"bike_id":"698d3f73-f32d-4705-8c63-f6b6af4441d8","system_id":"levelo_inurba_marseille","lat":43.29416,"lon":5.38626,"is_reserved":false,"is_disabled":false,"rental_uris":{"android":"levelo://app?vid=698d3f73-f32d-4705-8c63-f6b6af4441d8","ios":"levelo://app?vid=698d3f73-f32d-4705-8c63-f6b6af4441d8"},"vehicle_type_id":"4","last_reported":1748372889,"current_range_meters":16000,"station_id":"ce4bh2h2rcd13ifvqdh0","pricing_plan_id":"cebpf4jnsgd1na2vs0mg"},{"bike_id":"1bb2c0f7-dc33-426d-b9b9-4eac3adaba82","system_id":"levelo_inurba_marseille","lat":43.28671,"lon":5.36351,"is_reserved":false,"is_disabled":false,"rental_uris":{"android":"levelo://app?vid=1bb2c0f7-dc33-426d-b9b9-4eac3adaba82","ios":"levelo://app?vid=1bb2c0f7-dc33-426d-b9b9-4eac3adaba82"},"vehicle_type_id":"4","last_reported":1748372889,"current_range_meters":16000,"station_id":"ce4bhah2rcd13ifvqej0","pricing_plan_id":"cebpf4jnsgd1na2vs0mg"},{"bike_id":"b2488fa4-5537-4360-80a4-044d22743149","system_id":"levelo_inurba_marseille","lat":43.27617,"lon":5.36105,"is_reserved":false,"is_disabled":false,"rental_uris":{"android":"levelo://app?vid=b2488fa4-5537-4360-80a4-044d22743149","ios":"levelo://app?vid=b2488fa4-5537-4360-80a4-044d22743149"},"vehicle_type_id":"4","last_reported":1748372889,"current_range_meters":16400,"station_id":"ce4bgj92rcd13ifvqbe0","pricing_plan_id":"cebpf4jnsgd1na2vs0mg"},{"bike_id":"6ebb6dd7-e028-471a-a254-2363923c0cd9","system_id":"levelo_inurba_marseille","lat":43.32104,"lon":5.36769,"is_reserved":false,"is_disabled":false,"rental_uris":{"android":"levelo://app?vid=6ebb6dd7-e028-471a-a254-2363923c0cd9","ios":"levelo://app?vid=6ebb6dd7-e028-471a-a254-2363923c0cd9"},"vehicle_type_id":"4","last_reported":1748372889,"current_range_meters":16000,"station_id":"ce4bhrh2rcd13ifvqhug","pricing_plan_id":"cebpf4jnsgd1na2vs0mg"},{"bike_id":"3eb391cb-f074-40fb-b420-bc5b475ee798","system_id":"levelo_inurba_marseille","lat":43.29845,"lon":5.36277,"is_reserved":false,"is_disabled":false,"rental_uris":{"android":"levelo://app?vid=3eb391cb-f074-40fb-b420-bc5b475ee798","ios":"levelo://app?vid=3eb391cb-f074-40fb-b420-bc5b475ee798"},"vehicle_type_id":"4","last_reported":1748372889,"current_range_meters":16000,"station_id":"ce4bgpp2rcd13ifvqc3g","pricing_plan_id":"cebpf4jnsgd1na2vs0mg"},{"bike_id":"b4e04653-171c-4de0-be4e-c9abd17f1915","system_id":"levelo_inurba_marseille","lat":43.25111,"lon":5.40326,"is_reserved":false,"is_disabled":false,"rental_uris":{"android":"levelo://app?vid=b4e04653-171c-4de0-be4e-c9abd17f1915","ios":"levelo://app?vid=b4e04653-171c-4de0-be4e-c9abd17f1915"},"vehicle_type_id":"4","last_reported":1748372889,"current_range_meters":16000,"station_id":"ce4bhlh2rcd13ifvqgig","pricing_plan_id":"cebpf4jnsgd1na2vs0mg"},{"bike_id":"68d70f13-fc49-4672-a830-ee7878902172","system_id":"levelo_inurba_marseille","lat":43.23964,"lon":5.3664,"is_reserved":false,"is_disabled":false,"rental_uris":{"android":"levelo://app?vid=68d70f13-fc49-4672-a830-ee7878902172","ios":"levelo://app?vid=68d70f13-fc49-4672-a830-ee7878902172"},"vehicle_type_id":"4","last_reported":1748372889,"current_range_meters":16000,"station_id":"ce4bhi12rcd13ifvqfp0","pricing_plan_id":"cebpf4jnsgd1na2vs0mg"},{"bike_id":"47583335-9e10-4931-b076-003bea66dc0e","system_id":"levelo_inurba_marseille","lat":43.282223,"lon":5.390724,"is_reserved":false,"is_disabled":false,"rental_uris":{"android":"levelo://app?vid=47583335-9e10-4931-b076-003bea66dc0e","ios":"levelo://app?vid=47583335-9e10-4931-b076-003bea66dc0e"},"vehicle_type_id":"4","last_reported":1748372889,"current_range_meters":16000,"station_id":"","pricing_plan_id":"cebpf4jnsgd1na2vs0mg"},{"bike_id":"2447e726-02f2-4707-a232-a209224dd9ad","system_id":"levelo_inurba_marseille","lat":43.33013,"lon":5.39038,"is_reserved":false,"is_disabled":false,"rental_uris":{"android":"levelo://app?vid=2447e726-02f2-4707-a232-a209224dd9ad","ios":"levelo://app?vid=2447e726-02f2-4707-a232-a209224dd9ad"},"vehicle_type_id":"4","last_reported":1748372889,"current_range_meters":16000,"station_id":"ce4bhr92rcd13ifvqhrg","pricing_plan_id":"cebpf4jnsgd1na2vs0mg"},{"bike_id":"3189a836-3bc1-4d00-96e7-6180f7019e10","system_id":"levelo_inurba_marseille","lat":43.32346,"lon":5.40608,"is_reserved":false,"is_disabled":false,"rental_uris":{"android":"levelo://app?vid=3189a836-3bc1-4d00-96e7-6180f7019e10","ios":"levelo://app?vid=3189a836-3bc1-4d00-96e7-6180f7019e10"},"vehicle_type_id":"4","last_reported":1748372889,"current_range_meters":16000,"station_id":"ce4bhq92rcd13ifvqhjg","pricing_plan_id":"cebpf4jnsgd1na2vs0mg"},{"bike_id":"134c70cc-46f1-414c-ba60-b99ba2b4a992","system_id":"levelo_inurba_marseille","lat":43.34825,"lon":5.35139,"is_reserved":false,"is_disabled":false,"rental_uris":{"android":"levelo://app?vid=134c70cc-46f1-414c-ba60-b99ba2b4a992","ios":"levelo://app?vid=134c70cc-46f1-414c-ba60-b99ba2b4a992"},"vehicle_type_id":"4","last_reported":1748372889,"current_range_meters":16000,"station_id":"","pricing_plan_id":"cebpf4jnsgd1na2vs0mg"},{"bike_id":"4fa3c1d1-3244-4bce-abb3-1ffd69aee1e2","system_id":"levelo_inurba_marseille","lat":43.29538,"lon":5.3854,"is_reserved":false,"is_disabled":false,"rental_uris":{"android":"levelo://app?vid=4fa3c1d1-3244-4bce-abb3-1ffd69aee1e2","ios":"levelo://app?vid=4fa3c1d1-3244-4bce-abb3-1ffd69aee1e2"},