{"last_updated":1756235238,"ttl":60,"version":"2.2","data":{"bikes":[{"bike_id":"48b61fab-e579-4e52-8428-1ae0958d2b6a","system_id":"levelo_inurba_marseille","lat":43.26052,"lon":5.39405,"is_reserved":false,"is_disabled":false,"rental_uris":{"android":"levelo://app?vid=48b61fab-e579-4e52-8428-1ae0958d2b6a","ios":"levelo://app?vid=48b61fab-e579-4e52-8428-1ae0958d2b6a"},"vehicle_type_id":"4","last_reported":1756235238,"current_range_meters":2800,"station_id":"ce4bhh92rcd13ifvqfj0","pricing_plan_id":"cebpf4jnsgd1na2vs0mg"},{"bike_id":"50af81ba-de13-4986-8ef8-c14fb695e6d2","system_id":"levelo_inurba_marseille","lat":43.32913,"lon":5.38004,"is_reserved":false,"is_disabled":false,"rental_uris":{"android":"levelo://app?vid=50af81ba-de13-4986-8ef8-c14fb695e6d2","ios":"levelo://app?vid=50af81ba-de13-4986-8ef8-c14fb695e6d2"},"vehicle_type_id":"4","last_reported":1756235238,"current_range_meters":2800,"station_id":"","pricing_plan_id":"cebpf4jnsgd1na2vs0mg"},{"bike_id":"427b1133-4ab1-4bdf-9096-95a84b2fa540","system_id":"levelo_inurba_marseille","lat":43.26495,"lon":5.39541,"is_reserved":false,"is_disabled":false,"rental_uris":{"android":"levelo://app?vid=427b1133-4ab1-4bdf-9096-95a84b2fa540","ios":"levelo://app?vid=427b1133-4ab1-4bdf-9096-95a84b2fa540"},"vehicle_type_id":"4","last_reported":1756235238,"current_range_meters":2800,"station_id":"ce4bhi12rcd13ifvqfq0","pricing_plan_id":"cebpf4jnsgd1na2vs0mg"},{"bike_id":"c510d85a-63bb-49b4-a8fa-f302e45ed395","system_id":"levelo_inurba_marseille","lat":43.25082,"lon":5.40395,"is_reserved":false,"is_disabled":false,"rental_uris":{"android":"levelo://app?vid=c510d85a-63bb-49b4-a8fa-f302e45ed395","ios":"levelo://app?vid=c510d85a-63bb-49b4-a8fa-f302e45ed395"},"vehicle_type_id":"4","last_reported":1756235238,"current_range_meters":3200,"station_id":"","pricing_plan_id":"cebpf4jnsgd1na2vs0mg"},{"bike_id":"52b89496-8ae6-4d57-9091-ec39f9615ec9","system_id":"levelo_inurba_marseille","lat":43.29617,"lon":5.37164,"is_reserved":false,"is_disabled":false,"rental_uris":{"android":"levelo://app?vid=52b89496-8ae6-4d57-9091-ec39f9615ec9","ios":"levelo://app?vid=52b89496-8ae6-4d57-9091-ec39f9615ec9"},"vehicle_type_id":"4","last_reported":1756235238,"current_range_meters":3200,"station_id":"ce4bgnh2rcd13ifvqc0g","pricing_plan_id":"cebpf4jnsgd1na2vs0mg"},{"bike_id":"932266f1-6d81-484b-bfc3-906276f16aea","system_id":"levelo_inurba_marseille","lat":43.33453,"lon":5.39607,"is_reserved":false,"is_disabled":false,"rental_uris":{"android":"levelo://app?vid=932266f1-6d81-484b-bfc3-906276f16aea","ios":"levelo://app?vid=932266f1-6d81-484b-bfc3-906276f16aea"},"vehicle_type_id":"4","last_reported":1756235238,"current_range_meters":3200,"station_id":"","pricing_plan_id":"cebpf4jnsgd1na2vs0mg"},{"bike_id":"18cadd98-ca5b-4518-98d8-bbb26e647823","system_id":"levelo_inurba_marseille","lat":43.21193,"lon":5.35077,"is_reserved":false,"is_disabled":false,"rental_uris":{"android":"levelo://app?vid=18cadd98-ca5b-4518-98d8-bbb26e647823","ios":"levelo://app?vid=18cadd98-ca5b-4518-98d8-bbb26e647823"},"vehicle_type_id":"4","last_reported":1756235238,"current_range_meters":3200,"station_id":"st_cvj6sg6p6f1abm77japg","pricing_plan_id":"cebpf4jnsgd1na2vs0mg"},{"bike_id":"bbd3d347-f446-4f9d-9bfd-7671ef611136","system_id":"levelo_inurba_marseille","lat":43.29266,"lon":5.38431,"is_reserved":false,"is_disabled":false,"rental_uris":{"android":"levelo://app?vid=bbd3d347-f446-4f9d-9bfd-7671ef611136","ios":"levelo://app?vid=bbd3d347-f446-4f9d-9bfd-7671ef611136"},"vehicle_type_id":"4","last_reported":1756235238,"current_range_meters":3200,"station_id":"ce4bh692rcd13ifvqea0","pricing_plan_id":"cebpf4jnsgd1na2vs0mg"},{"bike_id":"ae6e7466-f79a-43dd-ba01-51043638613b","system_id":"levelo_inurba_marseille","lat":43.33762,"lon":5.37482,"is_reserved":false,"is_disabled":false,"rental_uris":{"android":"levelo://app?vid=ae6e7466-f79a-43dd-ba01-51043638613b","ios":"levelo://app?vid=ae6e7466-f79a-43dd-ba01-51043638613b"},"vehicle_type_id":"4","last_reported":1756235238,"current_range_meters":3200,"station_id":"","pricing_plan_id":"cebpf4jnsgd1na2vs0mg"},{"bike_id":"1011879d-9550-497e-9dba-28ae064f6a4d","system_id":"levelo_inurba_marseille","lat":43.30271,"lon":5.37712,"is_reserved":false,"is_disabled":false,"rental_uris":{"android":"levelo://app?vid=1011879d-9550-497e-9dba-28ae064f6a4d","ios":"levelo://app?vid=1011879d-9550-497e-9dba-28ae064f6a4d"},"vehicle_type_id":"4","last_reported":1756235238,"current_range_meters":3600,"station_id":"ce4bguh2rcd13ifvqcj0","pricing_plan_id":"cebpf4jnsgd1na2vs0mg"},{"bike_id":"d0079626-a652-4117-8a66-70ca36030639","system_id":"levelo_inurba_marseille","lat":43.28349,"lon":5.38111,"is_reserved":false,"is_disabled":false,"rental_uris":{"android":"levelo://app?vid=d0079626-a652-4117-8a66-70ca36030639","ios":"levelo://app?vid=d0079626-a652-4117-8a66-70ca36030639"},"vehicle_type_id":"4","last_reported":1756235238,"current_range_meters":3600,"station_id":"ce4bh412rcd13ifvqdr0","pricing_plan_id":"cebpf4jnsgd1na2vs0mg"},{"bike_id":"002d9889-5894-45fa-9cb3-a680482d1e03","system_id":"levelo_inurba_marseille","lat":43.24808,"lon":5.37461,"is_reserved":false,"is_disabled":false,"rental_uris":{"android":"levelo://app?vid=002d9889-5894-45fa-9cb3-a680482d1e03","ios":"levelo://app?vid=002d9889-5894-45fa-9cb3-a680482d1e03"},"vehicle_type_id":"4","last_reported":1756235238,"current_range_meters":3600,"station_id":"ce4bhgh2rcd13ifvqfb0","pricing_plan_id":"cebpf4jnsgd1na2vs0mg"},{"bike_id":"3ea41f52-6a2f-411f-a082-1173af814b77","system_id":"levelo_inurba_marseille","lat":43.28345,"lon":5.38102,"is_reserved":false,"is_disabled":false,"rental_uris":{"android":"levelo://app?vid=3ea41f52-6a2f-411f-a082-1173af814b77","ios":"levelo://app?vid=3ea41f52-6a2f-411f-a082-1173af814b77"},"vehicle_type_id":"4","last_reported":1756235238,"current_range_meters":3600,"station_id":"ce4bh412rcd13ifvqdr0","pricing_plan_id":"cebpf4jnsgd1na2vs0mg"},{"bike_id":"0a980217-eb1c-442f-aa4e-5c09aed8aa12","system_id":"levelo_inurba_marseille","lat":43.28447,"lon":5.37498,"is_reserved":false,"is_disabled":false,"rental_uris":{"android":"levelo://app?vid=0a980217-eb1c-442f-aa4e-5c09aed8aa12","ios":"levelo://app?vid=0a980217-eb1c-442f-aa4e-5c09aed8aa12"},"vehicle_type_id":"4","last_reported":1756235238,"current_range_meters":3600,"station_id":"","pricing_plan_id":"cebpf4jnsgd1na2vs0mg"},{"bike_id":"c4ccc10f-8ccd-44be-a00a-f6ebdc6ec159","system_id":"levelo_inurba_marseille","lat":43.30403,"lon":5.43469,"is_reserved":false,"is_disabled":false,"rental_uris":{"android":"levelo://app?vid=c4ccc10f-8ccd-44be-a00a-f6ebdc6ec159","ios":"levelo://app?vid=c4ccc10f-8ccd-44be-a00a-f6ebdc6ec159"},"vehicle_type_id":"4","last_reported":1756235238,"current_range_meters":4000,"station_id":"","pricing_plan_id":"cebpf4jnsgd1na2vs0mg"},{"bike_id":"1693c557-6212-4cdb-82a6-b8f026787192","system_id":"levelo_inurba_marseille","lat":43.2926,"lon":5.38436,"is_reserved":false,"is_disabled":false,"rental_uris":{"android":"levelo://app?vid=1693c557-6212-4cdb-82a6-b8f026787192","ios":"levelo://app?vid=1693c557-6212-4cdb-82a6-b8f026787192"},"vehicle_type_id":"4","last_reported":1756235238,"current_range_meters":4000,"station_id":"ce4bh692rcd13ifvqea0","pricing_plan_id":"cebpf4jnsgd1na2vs0mg"},{"bike_id":"90e5671a-eed0-4978-8595-412e122a2dbf","system_id":"levelo_inurba_marseille","lat":43.30376,"lon":5.42491,"is_reserved":false,"is_disabled":false,"rental_uris":{"android":"levelo://app?vid=90e5671a-eed0-4978-8595-412e122a2dbf","ios":"levelo://app?vid=90e5671a-eed0-4978-8595-412e122a2dbf"},"vehicle_type_id":"4","last_reported":1756235238,"current_range_meters":4000,"station_id":"ce4bhoh2rcd13ifvqh6g","pricing_plan_id":"cebpf4jnsgd1na2vs0mg"},{"bike_id":"204cc971-12d1-4ef2-abf3-e12483d7a275","system_id":"levelo_inurba_marseille","lat":43.302528,"lon":5.40086,"is_reserved":false,"is_disabled":false,"rental_uris":{"android":"levelo://app?vid=204cc971-12d1-4ef2-abf3-e12483d7a275","ios":"levelo://app?vid=204cc971-12d1-4ef2-abf3-e12483d7a275"},"vehicle_type_id":"4","last_reported":1756235238,"current_range_meters":4400,"station_id":"ce4bgvh2rcd13ifvqcs0","pricing_plan_id":"cebpf4jnsgd1na2vs0mg"},{"bike_id":"086c36ce-f404-435a-8dee-f5e9df3dbed3","system_id":"levelo_inurba_marseille","lat":43.28607,"lon":5.37064,"is_reserved":false,"is_disabled":false,"rental_uris":{"android":"levelo://app?vid=086c36ce-f404-435a-8dee-f5e9df3dbed3","ios":"levelo://app?vid=086c36ce-f404-435a-8dee-f5e9df3dbed3"},"vehicle_type_id":"4","last_reported":1756235238,"current_range_meters":4400,"station_id":"ce4bht12rcd13ifvqi60","pricing_plan_id":"cebpf4jnsgd1na2vs0mg"},{"bike_id":"fb0ecd7c-2c0f-42f1-9e73-9448c9893367","system_id":"levelo_inurba_marseille","lat":43.26481,"lon":5.37022,"is_reserved":false,"is_disabled":false,"rental_uris":{"android":"levelo://app?vid=fb0ecd7c-2c0f-42f1-9e73-9448c9893367","ios":"levelo://app?vid=fb0ecd7c-2c0f-42f1-9e73-9448c9893367"},"vehicle_type_id":"4","last_reported":1756235238,"current_range_meters":4400,"station_id":"","pricing_plan_id":"cebpf4jnsgd1na2vs0mg"},{"bike_id":"1d54cbda-3f3a-420a-82e2-84917e70a412","system_id":"levelo_inurba_marseille","lat":43.29032,"lon":5.38659,"is_reserved":false,"is_disabled":false,"rental_uris":{"android":"levelo://app?vid=1d54cbda-3f3a-420a-82e2-84917e70a412","ios":"levelo://app?vid=1d54cbda-3f3a-420a-82e2-84917e70a412"},"vehicle_type_id":"4","last_reported":1756235238,"current_range_meters":4400,"station_id":"ce4bh4p2rcd13ifvqe0g","pricing_plan_id":"cebpf4jnsgd1na2vs0mg"},{"bike_id":"2de73c33-0221-411d-a078-3039bac13bc4","system_id":"levelo_inurba_marseille","lat":43.29195,"lon":5.39327,"is_reserved":false,"is_disabled":false,"rental_uris":{"android":"levelo://app?vid=2de73c33-0221-411d-a078-3039bac13bc4","ios":"levelo://app?vid=2de73c33-0221-411d-a078-3039bac13bc4"},"vehicle_type_id":"4","last_reported":1756235238,"current_range_meters":4400,"station_id":"ce4bh192rcd13ifvqdd0","pricing_plan_id":"cebpf4jnsgd1na2vs0mg"},{"bike_id":"989f753d-673b-49df-be96-d5f5c5063270","system_id":"levelo_inurba_marseille","lat":43.30592,"lon":5.39359,"is_reserved":false,"is_disabled":false,"rental_uris":{"android":"levelo://app?vid=989f753d-673b-49df-be96-d5f5c5063270","ios":"levelo://app?vid=989f753d-673b-49df-be96-d5f5c5063270"},"vehicle_type_id":"4","last_reported":1756235238,"current_range_meters":4400,"station_id":"ce4bh0p2rcd13ifvqd80","pricing_plan_id":"cebpf4jnsgd1na2vs0mg"},{"bike_id":"7b818e63-e4fb-4473-b335-44ef19f5bb79","system_id":"levelo_inurba_marseille","lat":43.28328,"lon":5.34989,"is_reserved":false,"is_disabled":true,"rental_uris":{"android":"levelo://app?vid=7b818e63-e4fb-4473-b335-44ef19f5bb79","ios":"levelo://app?vid=7b818e63-e4fb-4473-b335-44ef19f5bb79"},"vehicle_type_id":"4","last_reported":1756235238,"current_range_meters":4800,"station_id":"ce4bhbp2rcd13ifvqerg","pricing_plan_id":"cebpf4jnsgd1na2vs0mg"},{"bike_id":"40ab0ff8-de3e-4890-9942-ba6091cde40b","system_id":"levelo_inurba_marseille","lat":43.25114,"lon":5.4032,"is_reserved":false,"is_disabled":false,"rental_uris":{"android":"levelo://app?vid=40ab0ff8-de3e-4890-9942-ba6091cde40b","ios":"levelo://app?vid=40ab0ff8-de3e-4890-9942-ba6091cde40b"},"vehicle_type_id":"4","last_reported":1756235238,"current_range_meters":4800,"station_id":"ce4bhlh2rcd13ifvqgig","pricing_plan_id":"cebpf4jnsgd1na2vs0mg"},{"bike_id":"b1997c44-9850-442e-87b6-7aaca2402da2","system_id":"levelo_inurba_marseille","lat":43.3091,"lon":5.39593,"is_reserved":false,"is_disabled":false,"rental_uris":{"android":"levelo://app?vid=b1997c44-9850-442e-87b6-7aaca2402da2","ios":"levelo://app?vid=b1997c44-9850-442e-87b6-7aaca2402da2"},"vehicle_type_id":"4","last_reported":1756235238,"current_range_meters":4800,"station_id":"","pricing_plan_id":"cebpf4jnsgd1na2vs0mg"},{"bike_id":"8b14639a-df42-440a-843d-9ba32dabd88b","system_id":"levelo_inurba_marseille","lat":43.254996,"lon":5.376297,"is_reserved":false,"is_disabled":false,"rental_uris":{"android":"levelo://app?vid=8b14639a-df42-440a-843d-9ba32dabd88b","ios":"levelo://app?vid=8b14639a-df42-440a-843d-9ba32dabd88b"},"vehicle_type_id":"4","last_reported":1756235238,"current_range_meters":5600,"station_id":"ce4bhh12rcd13ifvqff0","pricing_plan_id":"cebpf4jnsgd1na2vs0mg"},{"bike_id":"e40e0006-4a6c-4d41-9a6e-10dc5ca015b4","system_id":"levelo_inurba_marseille","lat":43.29526,"lon":5.3906,"is_reserved":false,"is_disabled":false,"rental_uris":{"android":"levelo://app?vid=e40e0006-4a6c-4d41-9a6e-10dc5ca015b4","ios":"levelo://app?vid=e40e0006-4a6c-4d41-9a6e-10dc5ca015b4"},"vehicle_type_id":"4","last_reported":1756235238,"current_range_meters":5600,"station_id":"ce4bh3p2rcd13ifvqdp0","pricing_plan_id":"cebpf4jnsgd1na2vs0mg"},{"bike_id":"f901d17d-935b-4ed8-be90-62520dc847c0","system_id":"levelo_inurba_marseille","lat":43.28859,"lon":5.35849,"is_reserved":false,"is_disabled":false,"rental_uris":{"android":"levelo://app?vid=f901d17d-935b-4ed8-be90-62520dc847c0","ios":"levelo://app?vid=f901d17d-935b-4ed8-be90-62520dc847c0"},"vehicle_type_id":"4","last_reported":1756235238,"current_range_meters":5600,"station_id":"ce4bhb12rcd13ifvqem0","pricing_plan_id":"cebpf4jnsgd1na2vs0mg"},{"bike_id":"69dea794-ff41-4ff0-9312-973f237cfcb2","system_id":"levelo_inurba_marseille","lat":43.21166,"lon":5.35099,"is_reserved":false,"is_disabled":false,"rental_uris":{"android":"levelo://app?vid=69dea794-ff41-4ff0-9312-973f237cfcb2","ios":"levelo://app?vid=69dea794-ff41-4ff0-9312-973f237cfcb2"},"vehicle_type_id":"4","last_reported":1756235238,"current_range_meters":5600,"station_id":"","pricing_plan_id":"cebpf4jnsgd1na2vs0mg"},{"bike_id":"a1719871-1e9a-4ee3-a996-2f4453bc691f","system_id":"levelo_inurba_marseille","lat":43.29437,"lon":5.39742,"is_reserved":false,"is_disabled":false,"rental_uris":{"android":"levelo://app?vid=a1719871-1e9a-4ee3-a996-2f4453bc691f","ios":"levelo://app?vid=a1719871-1e9a-4ee3-a996-2f4453bc691f"},"vehicle_type_id":"4","last_reported":1756235238,"current_range_meters":5600,"station_id":"ce4bh3h2rcd13ifvqdo0","pricing_plan_id":"cebpf4jnsgd1na2vs0mg"},{"bike_id":"8c0a8a62-bea8-4ffa-b376-760a95a82a35","system_id":"levelo_inurba_marseille","lat":43.29901,"lon":5.38022,"is_reserved":false,"is_disabled":false,"rental_uris":{"android":"levelo://app?vid=8c0a8a62-bea8-4ffa-b376-760a95a82a35","ios":"levelo://app?vid=8c0a8a62-bea8-4ffa-b376-760a95a82a35"},"vehicle_type_id":"4","last_reported":1756235238,"current_range_meters":5600,"station_id":"","pricing_plan_id":"cebpf4jnsgd1na2vs0mg"},{"bike_id":"35985333-6faf-49f0-a187-5ff8ab8033e3","system_id":"levelo_inurba_marseille","lat":43.29533,"lon":5.38541,"is_reserved":false,"is_disabled":false,"rental_uris":{"android":"levelo://app?vid=35985333-6faf-49f0-a187-5ff8ab8033e3","ios":"levelo://app?vid=35985333-6faf-49f0-a187-5ff8ab8033e3"},"vehicle_type_id":"4","last_reported":1756235238,"current_range_meters":6000,"station_id":"ce4bgih2rcd13ifvqba0","pricing_plan_id":"cebpf4jnsgd1na2vs0mg"},{"bike_id":"08168ec2-0834-4eb3-a336-427c2c3279a5","system_id":"levelo_inurba_marseille","lat":43.21749,"lon":5.34597,"is_reserved":false,"is_disabled":false,"rental_uris":{"android":"levelo://app?vid=08168ec2-0834-4eb3-a336-427c2c3279a5","ios":"levelo://app?vid=08168ec2-0834-4eb3-a336-427c2c3279a5"},"vehicle_type_id":"4","last_reported":1756235238,"current_range_meters":6000,"station_id":"st_cvj6r9ubvosntc0bgbag","pricing_plan_id":"cebpf4jnsgd1na2vs0mg"},{"bike_id":"766d419f-0bb2-45a4-b526-c90cf3fbee60","system_id":"levelo_inurba_marseille","lat":43.21747,"lon":5.34606,"is_reserved":false,"is_disabled":false,"rental_uris":{"android":"levelo://app?vid=766d419f-0bb2-45a4-b526-c90cf3fbee60","ios":"levelo://app?vid=766d419f-0bb2-45a4-b526-c90cf3fbee60"},"vehicle_type_id":"4","last_reported":1756235238,"current_range_meters":6000,"station_id":"st_cvj6r9ubvosntc0bgbag","pricing_plan_id":"cebpf4jnsgd1na2vs0mg"},{"bike_id":"8e3de7cd-5708-4049-8e86-9789fa8f94a2","system_id":"levelo_inurba_marseille","lat":43.24666,"lon":5.38163,"is_reserved":false,"is_disabled":false,"rental_uris":{"android":"levelo://app?vid=8e3de7cd-5708-4049-8e86-9789fa8f94a2","ios":"levelo://app?vid=8e3de7cd-5708-4049-8e86-9789fa8f94a2"},"vehicle_type_id":"4","last_reported":1756235238,"current_range_meters":6000,"station_id":"ce4bhih2rcd13ifvqfr0","pricing_plan_id":"cebpf4jnsgd1na2vs0mg"},{"bike_id":"c9a1e2f5-9ea7-4dc5-af99-4282e671d3b5","system_id":"levelo_inurba_marseille","lat":43.261884,"lon":5.374658,"is_reserved":false,"is_disabled":true,"rental_uris":{"android":"levelo://app?vid=c9a1e2f5-9ea7-4dc5-af99-4282e671d3b5","ios":"levelo://app?vid=c9a1e2f5-9ea7-4dc5-af99-4282e671d3b5"},"vehicle_type_id":"4","last_reported":1756235238,"current_range_meters":6000,"station_id":"ce4bhgp2rcd13ifvqfc0","pricing_plan_id":"cebpf4jnsgd1na2vs0mg"},{"bike_id":"43a14931-dcd0-4ae0-861f-dece37fa7f4d","system_id":"levelo_inurba_marseille","lat":43.33026,"lon":5.39035,"is_reserved":false,"is_disabled":false,"rental_uris":{"android":"levelo://app?vid=43a14931-dcd0-4ae0-861f-dece37fa7f4d","ios":"levelo://app?vid=43a14931-dcd0-4ae0-861f-dece37fa7f4d"},"vehicle_type_id":"4","last_reported":1756235238,"current_range_meters":6400,"station_id":"ce4bhr92rcd13ifvqhrg","pricing_plan_id":"cebpf4jnsgd1na2vs0mg"},{"bike_id":"8f726825-2f2f-4507-8df8-00365117cdaf","system_id":"levelo_inurba_marseille","lat":43.30596,"lon":5.39367,"is_reserved":false,"is_disabled":false,"rental_uris":{"android":"levelo://app?vid=8f726825-2f2f-4507-8df8-00365117cdaf","ios":"levelo://app?vid=8f726825-2f2f-4507-8df8-00365117cdaf"},"vehicle_type_id":"4","last_reported":1756235238,"current_range_meters":6400,"station_id":"ce4bh0p2rcd13ifvqd80","pricing_plan_id":"cebpf4jnsgd1na2vs0mg"},{"bike_id":"cc7e45f9-6153-4484-97af-5b12b001ffbc","system_id":"levelo_inurba_marseille","lat":43.29273,"lon":5.38423,"is_reserved":false,"is_disabled":false,"rental_uris":{"android":"levelo://app?vid=cc7e45f9-6153-4484-97af-5b12b001ffbc","ios":"levelo://app?vid=cc7e45f9-6153-4484-97af-5b12b001ffbc"},"vehicle_type_id":"4","last_reported":1756235238,"current_range_meters":6400,"station_id":"ce4bh692rcd13ifvqea0","pricing_plan_id":"cebpf4jnsgd1na2vs0mg"},{"bike_id":"0a3e8b7c-16b2-45fd-850c-d7c5b6d06599","system_id":"levelo_inurba_marseille","lat":43.28669,"lon":5.36351,"is_reserved":false,"is_disabled":false,"rental_uris":{"android":"levelo://app?vid=0a3e8b7c-16b2-45fd-850c-d7c5b6d06599","ios":"levelo://app?vid=0a3e8b7c-16b2-45fd-850c-d7c5b6d06599"},"vehicle_type_id":"4","last_reported":1756235238,"current_range_meters":6400,"station_id":"ce4bhah2rcd13ifvqej0","pricing_plan_id":"cebpf4jnsgd1na2vs0mg"},{"bike_id":"bdf85e08-5676-48b0-8060-453cc8bae2cf","system_id":"levelo_inurba_marseille","lat":43.29179,"lon":5.35794,"is_reserved":false,"is_disabled":true,"rental_uris":{"android":"levelo://app?vid=bdf85e08-5676-48b0-8060-453cc8bae2cf","ios":"levelo://app?vid=bdf85e08-5676-48b0-8060-453cc8bae2cf"},"vehicle_type_id":"4","last_reported":1756235238,"current_range_meters":6400,"station_id":"ce4bhb12rcd13ifvqel0","pricing_plan_id":"cebpf4jnsgd1na2vs0mg"},{"bike_id":"910a2fe9-c763-44c1-8de4-85789a7f1606","system_id":"levelo_inurba_marseille","lat":43.27392,"lon":5.39424,"is_reserved":false,"is_disabled":true,"rental_uris":{"android":"levelo://app?vid=910a2fe9-c763-44c1-8de4-85789a7f1606","ios":"levelo://app?vid=910a2fe9-c763-44c1-8de4-85789a7f1606"},"vehicle_type_id":"4","last_reported":1756235238,"current_range_meters":6800,"station_id":"ce4bhdp2rcd13ifvqf20","pricing_plan_id":"cebpf4jnsgd1na2vs0mg"},{"bike_id":"f6bd5b86-eb54-487c-8a4e-3da908b177ef","system_id":"levelo_inurba_marseille","lat":43.29568,"lon":5.37527,"is_reserved":false,"is_disabled":true,"rental_uris":{"android":"levelo://app?vid=f6bd5b86-eb54-487c-8a4e-3da908b177ef","ios":"levelo://app?vid=f6bd5b86-eb54-487c-8a4e-3da908b177ef"},"vehicle_type_id":"4","last_reported":1756235238,"current_range_meters":6800,"station_id":"","pricing_plan_id":"cebpf4jnsgd1na2vs0mg"},{"bike_id":"da5ae592-490a-49a8-bd2d-6b1a71ae0351","system_id":"levelo_inurba_marseille","lat":43.28404,"lon":5.37516,"is_reserved":false,"is_disabled":false,"rental_uris":{"android":"levelo://app?vid=da5ae592-490a-49a8-bd2d-6b1a71ae0351","ios":"levelo://app?vid=da5ae592-490a-49a8-bd2d-6b1a71ae0351"},"vehicle_type_id":"4","last_reported":1756235238,"current_range_meters":6800,"station_id":"ce4bh412rcd13ifvqds0","pricing_plan_id":"cebpf4jnsgd1na2vs0mg"},{"bike_id":"2a6aa172-9358-46c6-b84c-22ff7be5ec3a","system_id":"levelo_inurba_marseille","lat":43.30294,"lon":5.39211,"is_reserved":false,"is_disabled":true,"rental_uris":{"android":"levelo://app?vid=2a6aa172-9358-46c6-b84c-22ff7be5ec3a","ios":"levelo://app?vid=2a6aa172-9358-46c6-b84c-22ff7be5ec3a"},"vehicle_type_id":"4","last_reported":1756235238,"current_range_meters":6800,"station_id":"ce4bgkh2rcd13ifvqbk0","pricing_plan_id":"cebpf4jnsgd1na2vs0mg"},{"bike_id":"908709ae-51b9-4c44-8a1c-1066edd5a919","system_id":"levelo_inurba_marseille","lat":43.29271,"lon":5.3843,"is_reserved":false,"is_disabled":false,"rental_uris":{"android":"levelo://app?vid=908709ae-51b9-4c44-8a1c-1066edd5a919","ios":"levelo://app?vid=908709ae-51b9-4c44-8a1c-1066edd5a919"},"vehicle_type_id":"4","last_reported":1756235238,"current_range_meters":6800,"station_id":"ce4bh692rcd13ifvqea0","pricing_plan_id":"cebpf4jnsgd1na2vs0mg"},{"bike_id":"68e2afbb-6d48-46f3-9f12-d4aa8589828e","system_id":"levelo_inurba_marseille","lat":43.29053,"lon":5.35914,"is_reserved":false,"is_disabled":false,"rental_uris":{"android":"levelo://app?vid=68e2afbb-6d48-46f3-9f12-d4aa8589828e","ios":"levelo://app?vid=68e2afbb-6d48-46f3-9f12-d4aa8589828e"},"vehicle_type_id":"4","last_reported":1756235238,"current_range_meters":6800,"station_id":"ce4bha92rcd13ifvqeg0","pricing_plan_id":"cebpf4jnsgd1na2vs0mg"},{"bike_id":"a70bd4f2-b3b4-4ac3-9660-16492c772ef2","system_id":"levelo_inurba_marseille","lat":43.29871,"lon":5.38904,"is_reserved":false,"is_disabled":false,"rental_uris":{"android":"levelo://app?vid=a70bd4f2-b3b4-4ac3-9660-16492c772ef2","ios":"levelo://app?vid=a70bd4f2-b3b4-4ac3-9660-16492c772ef2"},"vehicle_type_id":"4","last_reported":1756235238,"current_range_meters":6800,"station_id":"ce4bh392rcd13ifvqdl0","pricing_plan_id":"cebpf4jnsgd1na2vs0mg"},{"bike_id":"230cda46-9c8c-47e9-98ef-b08169cc4e67","system_id":"levelo_inurba_marseille","lat":43.29942,"lon":5.36563,"is_reserved":false,"is_disabled":false,"rental_uris":{"android":"levelo://app?vid=230cda46-9c8c-47e9-98ef-b08169cc4e67","ios":"levelo://app?vid=230cda46-9c8c-47e9-98ef-b08169cc4e67"},"vehicle_type_id":"4","last_reported":1756235238,"current_range_meters":7200,"station_id":"ce4bgm92rcd13ifvqbr0","pricing_plan_id":"cebpf4jnsgd1na2vs0mg"},{"bike_id":"0e3b62c2-5e3b-4e49-921a-f431126864ae","system_id":"levelo_inurba_marseille","lat":43.2815,"lon":5.42658,"is_reserved":false,"is_disabled":false,"rental_uris":{"android":"levelo://app?vid=0e3b62c2-5e3b-4e49-921a-f431126864ae","ios":"levelo://app?vid=0e3b62c2-5e3b-4e49-921a-f431126864ae"},"vehicle_type_id":"4","last_reported":1756235238,"current_range_meters":7200,"station_id":"ce4bhnh2rcd13ifvqgug","pricing_plan_id":"cebpf4jnsgd1na2vs0mg"},{"bike_id":"236f1a17-bd84-4b8e-977f-7df7d8cf402c","system_id":"levelo_inurba_marseille","lat":43.30783,"lon":5.43521,"is_reserved":false,"is_disabled":true,"rental_uris":{"android":"levelo://app?vid=236f1a17-bd84-4b8e-977f-7df7d8cf402c","ios":"levelo://app?vid=236f1a17-bd84-4b8e-977f-7df7d8cf402c"},"vehicle_type_id":"4","last_reported":1756235238,"current_range_meters":7200,"station_id":"ce4bhph2rcd13ifvqheg","pricing_plan_id":"cebpf4jnsgd1na2vs0mg"},{"bike_id":"5a2eb88b-8165-404b-9f4a-33303ca8a13a","system_id":"levelo_inurba_marseille","lat":43.290456,"lon":5.370422,"is_reserved":false,"is_disabled":false,"rental_uris":{"android":"levelo://app?vid=5a2eb88b-8165-404b-9f4a-33303ca8a13a","ios":"levelo://app?vid=5a2eb88b-8165-404b-9f4a-33303ca8a13a"},"vehicle_type_id":"4","last_reported":1756235238,"current_range_meters":7200,"station_id":"ce4bh9p2rcd13ifvqed0","pricing_plan_id":"cebpf4jnsgd1na2vs0mg"},{"bike_id":"e5139062-15b5-4995-ae5f-f5ad61d50473","system_id":"levelo_inurba_marseille","lat":43.24182,"lon":5.3973,"is_reserved":false,"is_disabled":false,"rental_uris":{"android":"levelo://app?vid=e5139062-15b5-4995-ae5f-f5ad61d50473","ios":"levelo://app?vid=e5139062-15b5-4995-ae5f-f5ad61d50473"},"vehicle_type_id":"4","last_reported":1756235238,"current_range_meters":7200,"station_id":"ce4bhn12rcd13ifvqgpg","pricing_plan_id":"cebpf4jnsgd1na2vs0mg"},{"bike_id":"84740004-e984-4a2c-80f7-af9421833c15","system_id":"levelo_inurba_marseille","lat":43.29541,"lon":5.38556,"is_reserved":false,"is_disabled":false,"rental_uris":{"android":"levelo://app?vid=84740004-e984-4a2c-80f7-af9421833c15","ios":"levelo://app?vid=84740004-e984-4a2c-80f7-af9421833c15"},"vehicle_type_id":"4","last_reported":1756235238,"current_range_meters":7200,"station_id":"ce4bgih2rcd13ifvqba0","pricing_plan_id":"cebpf4jnsgd1na2vs0mg"},{"bike_id":"9913e2d5-19eb-4381-8535-f48d2e5cbd17","system_id":"levelo_inurba_marseille","lat":43.30305,"lon":5.39242,"is_reserved":false,"is_disabled":false,"rental_uris":{"android":"levelo://app?vid=9913e2d5-19eb-4381-8535-f48d2e5cbd17","ios":"levelo://app?vid=9913e2d5-19eb-4381-8535-f48d2e5cbd17"},"vehicle_type_id":"4","last_reported":1756235238,"current_range_meters":8000,"station_id":"ce4bgkh2rcd13ifvqbk0","pricing_plan_id":"cebpf4jnsgd1na2vs0mg"},{"bike_id":"4323713a-9c36-49f6-afa8-979086358924","system_id":"levelo_inurba_marseille","lat":43.29267,"lon":5.38429,"is_reserved":false,"is_disabled":false,"rental_uris":{"android":"levelo://app?vid=4323713a-9c36-49f6-afa8-979086358924","ios":"levelo://app?vid=4323713a-9c36-49f6-afa8-979086358924"},"vehicle_type_id":"4","last_reported":1756235238,"current_range_meters":8000,"station_id":"ce4bh692rcd13ifvqea0","pricing_plan_id":"cebpf4jnsgd1na2vs0mg"},{"bike_id":"9aa29479-44b0-464e-9c95-7a9850d18968","system_id":"levelo_inurba_marseille","lat":43.293802,"lon":5.374371,"is_reserved":false,"is_disabled":false,"rental_uris":{"android":"levelo://app?vid=9aa29479-44b0-464e-9c95-7a9850d18968","ios":"levelo://app?vid=9aa29479-44b0-464e-9c95-7a9850d18968"},"vehicle_type_id":"4","last_reported":1756235238,"current_range_meters":8000,"station_id":"ce4bgi12rcd13ifvqb70","pricing_plan_id":"cebpf4jnsgd1na2vs0mg"},{"bike_id":"03be758f-3e6d-4c72-8876-95a4359600d6","system_id":"levelo_inurba_marseille","lat":43.33772,"lon":5.375043,"is_reserved":false,"is_disabled":false,"rental_uris":{"android":"levelo://app?vid=03be758f-3e6d-4c72-8876-95a4359600d6","ios":"levelo://app?vid=03be758f-3e6d-4c72-8876-95a4359600d6"},"vehicle_type_id":"4","last_reported":1756235238,"current_range_meters":8000,"station_id":"","pricing_plan_id":"cebpf4jnsgd1na2vs0mg"},{"bike_id":"2941d03d-2d35-4c76-812f-fd17668a0828","system_id":"levelo_inurba_marseille","lat":43.2804,"lon":5.36941,"is_reserved":false,"is_disabled":false,"rental_uris":{"android":"levelo://app?vid=2941d03d-2d35-4c76-812f-fd17668a0828","ios":"levelo://app?vid=2941d03d-2d35-4c76-812f-fd17668a0828"},"vehicle_type_id":"4","last_reported":1756235238,"current_range_meters":8000,"station_id":"ce4bha12rcd13ifvqef0","pricing_plan_id":"cebpf4jnsgd1na2vs0mg"},{"bike_id":"8a743418-e1ec-4d47-a6f5-6357ce754268","system_id":"levelo_inurba_marseille","lat":43.3136,"lon":5.38486,"is_reserved":false,"is_disabled":false,"rental_uris":{"android":"levelo://app?vid=8a743418-e1ec-4d47-a6f5-6357ce754268","ios":"levelo://app?vid=8a743418-e1ec-4d47-a6f5-6357ce754268"},"vehicle_type_id":"4","last_reported":1756235238,"current_range_meters":8000,"station_id":"ce4bgt92rcd13ifvqcf0","pricing_plan_id":"cebpf4jnsgd1na2vs0mg"},{"bike_id":"6c39ea18-b313-48aa-8fa2-0a431e18c6b0","system_id":"levelo_inurba_marseille","lat":43.29277,"lon":5.38434,"is_reserved":false,"is_disabled":false,"rental_uris":{"android":"levelo://app?vid=6c39ea18-b313-48aa-8fa2-0a431e18c6b0","ios":"levelo://app?vid=6c39ea18-b313-48aa-8fa2-0a431e18c6b0"},"vehicle_type_id":"4","last_reported":1756235238,"current_range_meters":8000,"station_id":"ce4bh692rcd13ifvqea0","pricing_plan_id":"cebpf4jnsgd1na2vs0mg"},{"bike_id":"8963a159-f3b7-43a0-8518-9e4a9c40f76e","system_id":"levelo_inurba_marseille","lat":43.33144,"lon":5.38172,"is_reserved":false,"is_disabled":false,"rental_uris":{"android":"levelo://app?vid=8963a159-f3b7-43a0-8518-9e4a9c40f76e","ios":"levelo://app?vid=8963a159-f3b7-43a0-8518-9e4a9c40f76e"},"vehicle_type_id":"4","last_reported":1756235238,"current_range_meters":8000,"station_id":"","pricing_plan_id":"cebpf4jnsgd1na2vs0mg"},{"bike_id":"7ae66869-c11e-45c7-a425-8700ddbc5a80","system_id":"levelo_inurba_marseille","lat":43.24385,"lon":5.3706,"is_reserved":false,"is_disabled":false,"rental_uris":{"android":"levelo://app?vid=7ae66869-c11e-45c7-a425-8700ddbc5a80","ios":"levelo://app?vid=7ae66869-c11e-45c7-a425-8700ddbc5a80"},"vehicle_type_id":"4","last_reported":1756235238,"current_range_meters":8400,"station_id":"ce4bhhh2rcd13ifvqfk0","pricing_plan_id":"cebpf4jnsgd1na2vs0mg"},{"bike_id":"8838e31e-f0e1-4941-8e57-ede0c4038043","system_id":"levelo_inurba_marseille","lat":43.26559,"lon":5.37285,"is_reserved":false,"is_disabled":false,"rental_uris":{"android":"levelo://app?vid=8838e31e-f0e1-4941-8e57-ede0c4038043","ios":"levelo://app?vid=8838e31e-f0e1-4941-8e57-ede0c4038043"},"vehicle_type_id":"4","last_reported":1756235238,"current_range_meters":8400,"station_id":"ce4bhg12rcd13ifvqf70","pricing_plan_id":"cebpf4jnsgd1na2vs0mg"},{"bike_id":"cc5428ab-0b9b-4f31-a6bd-7d1f136e31a7","system_id":"levelo_inurba_marseille","lat":43.30886,"lon":5.39638,"is_reserved":false,"is_disabled":false,"rental_uris":{"android":"levelo://app?vid=cc5428ab-0b9b-4f31-a6bd-7d1f136e31a7","ios":"levelo://app?vid=cc5428ab-0b9b-4f31-a6bd-7d1f136e31a7"},"vehicle_type_id":"4","last_reported":1756235238,"current_range_meters":8400,"station_id":"ce4bh012rcd13ifvqcv0","pricing_plan_id":"cebpf4jnsgd1na2vs0mg"},{"bike_id":"24fe944d-23ba-4c73-a243-9f564dbb6f73","system_id":"levelo_inurba_marseille","lat":43.295337,"lon":5.38546,"is_reserved":false,"is_disabled":false,"rental_uris":{"android":"levelo://app?vid=24fe944d-23ba-4c73-a243-9f564dbb6f73","ios":"levelo://app?vid=24fe944d-23ba-4c73-a243-9f564dbb6f73"},"vehicle_type_id":"4","last_reported":1756235238,"current_range_meters":8400,"station_id":"ce4bgih2rcd13ifvqba0","pricing_plan_id":"cebpf4jnsgd1na2vs0mg"},{"bike_id":"1eca41a8-998c-49a3-a499-11270895ee60","system_id":"levelo_inurba_marseille","lat":43.28362,"lon":5.38107,"is_reserved":false,"is_disabled":false,"rental_uris":{"android":"levelo://app?vid=1eca41a8-998c-49a3-a499-11270895ee60","ios":"levelo://app?vid=1eca41a8-998c-49a3-a499-11270895ee60"},"vehicle_type_id":"4","last_reported":1756235238,"current_range_meters":8400,"station_id":"ce4bh412rcd13ifvqdr0","pricing_plan_id":"cebpf4jnsgd1na2vs0mg"},{"bike_id":"fd391e27-b7b1-4dda-94f6-b3325ab122bf","system_id":"levelo_inurba_marseille","lat":43.28402,"lon":5.37524,"is_reserved":false,"is_disabled":false,"rental_uris":{"android":"levelo://app?vid=fd391e27-b7b1-4dda-94f6-b3325ab122bf","ios":"levelo://app?vid=fd391e27-b7b1-4dda-94f6-b3325ab122bf"},"vehicle_type_id":"4","last_reported":1756235238,"current_range_meters":8400,"station_id":"ce4bh412rcd13ifvqds0","pricing_plan_id":"cebpf4jnsgd1na2vs0mg"},{"bike_id":"3feedd85-ba8b-4b32-9a12-b5ce11175b97","system_id":"levelo_inurba_marseille","lat":43.29369,"lon":5.37841,"is_reserved":false,"is_disabled":false,"rental_uris":{"android":"levelo://app?vid=3feedd85-ba8b-4b32-9a12-b5ce11175b97","ios":"levelo://app?vid=3feedd85-ba8b-4b32-9a12-b5ce11175b97"},"vehicle_type_id":"4","last_reported":1756235238,"current_range_meters":8000,"station_id":"ce4bgjh2rcd13ifvqbf0","pricing_plan_id":"cebpf4jnsgd1na2vs0mg"},{"bike_id":"336fde9a-c35b-4d89-a5ca-d6641be7a38c","system_id":"levelo_inurba_marseille","lat":43.2994,"lon":5.3656,"is_reserved":false,"is_disabled":false,"rental_uris":{"android":"levelo://app?vid=336fde9a-c35b-4d89-a5ca-d6641be7a38c","ios":"levelo://app?vid=336fde9a-c35b-4d89-a5ca-d6641be7a38c"},"vehicle_type_id":"4","last_reported":1756235238,"current_range_meters":8800,"station_id":"ce4bgm92rcd13ifvqbr0","pricing_plan_id":"cebpf4jnsgd1na2vs0mg"},{"bike_id":"be2cc791-dec0-454f-8255-6318e047dec7","system_id":"levelo_inurba_marseille","lat":43.28418,"lon":5.37504,"is_reserved":false,"is_disabled":false,"rental_uris":{"android":"levelo://app?vid=be2cc791-dec0-454f-8255-6318e047dec7","ios":"levelo://app?vid=be2cc791-dec0-454f-8255-6318e047dec7"},"vehicle_type_id":"4","last_reported":1756235238,"current_range_meters":8800,"station_id":"ce4bh412rcd13ifvqds0","pricing_plan_id":"cebpf4jnsgd1na2vs0mg"},{"bike_id":"8e88f1de-7cd1-457a-8f6a-6aa7ed59ee22","system_id":"levelo_inurba_marseille","lat":43.30436,"lon":5.38888,"is_reserved":false,"is_disabled":false,"rental_uris":{"android":"levelo://app?vid=8e88f1de-7cd1-457a-8f6a-6aa7ed59ee22","ios":"levelo://app?vid=8e88f1de-7cd1-457a-8f6a-6aa7ed59ee22"},"vehicle_type_id":"4","last_reported":1756235238,"current_range_meters":8800,"station_id":"ce4bgk12rcd13ifvqbi0","pricing_plan_id":"cebpf4jnsgd1na2vs0mg"},{"bike_id":"d186cf8e-ea6a-4804-a29c-ede908b6fd16","system_id":"levelo_inurba_marseille","lat":43.28098,"lon":5.37833,"is_reserved":false,"is_disabled":false,"rental_uris":{"android":"levelo://app?vid=d186cf8e-ea6a-4804-a29c-ede908b6fd16","ios":"levelo://app?vid=d186cf8e-ea6a-4804-a29c-ede908b6fd16"},"vehicle_type_id":"4","last_reported":1756235238,"current_range_meters":9200,"station_id":"ce4bha12rcd13ifvqee0","pricing_plan_id":"cebpf4jnsgd1na2vs0mg"},{"bike_id":"fdacae55-2c08-466e-8f14-d38a6e4f2ce5","system_id":"levelo_inurba_marseille","lat":43.30134,"lon":5.39848,"is_reserved":false,"is_disabled":false,"rental_uris":{"android":"levelo://app?vid=fdacae55-2c08-466e-8f14-d38a6e4f2ce5","ios":"levelo://app?vid=fdacae55-2c08-466e-8f14-d38a6e4f2ce5"},"vehicle_type_id":"4","last_reported":1756235238,"current_range_meters":9200,"station_id":"ce4bh0h2rcd13ifvqd40","pricing_plan_id":"cebpf4jnsgd1na2vs0mg"},{"bike_id":"eebcafb9-bb24-41bb-a30a-1d83d219a283","system_id":"levelo_inurba_marseille","lat":43.29532,"lon":5.38536,"is_reserved":false,"is_disabled":false,"rental_uris":{"android":"levelo://app?vid=eebcafb9-bb24-41bb-a30a-1d83d219a283","ios":"levelo://app?vid=eebcafb9-bb24-41bb-a30a-1d83d219a283"},"vehicle_type_id":"4","last_reported":1756235238,"current_range_meters":9200,"station_id":"ce4bgih2rcd13ifvqba0","pricing_plan_id":"cebpf4jnsgd1na2vs0mg"},{"bike_id":"9ebbca0f-8b0f-49e0-bbc0-5934ebb0e846","system_id":"levelo_inurba_marseille","lat":43.21189,"lon":5.35068,"is_reserved":false,"is_disabled":false,"rental_uris":{"android":"levelo://app?vid=9ebbca0f-8b0f-49e0-bbc0-5934ebb0e846","ios":"levelo://app?vid=9ebbca0f-8b0f-49e0-bbc0-5934ebb0e846"},"vehicle_type_id":"4","last_reported":1756235238,"current_range_meters":9200,"station_id":"st_cvj6sg6p6f1abm77japg","pricing_plan_id":"cebpf4jnsgd1na2vs0mg"},{"bike_id":"c29d0f92-bb69-4715-aa10-39363bb8696c","system_id":"levelo_inurba_marseille","lat":43.303,"lon":5.39212,"is_reserved":false,"is_disabled":true,"rental_uris":{"android":"levelo://app?vid=c29d0f92-bb69-4715-aa10-39363bb8696c","ios":"levelo://app?vid=c29d0f92-bb69-4715-aa10-39363bb8696c"},"vehicle_type_id":"4","last_reported":1756235238,"current_range_meters":9200,"station_id":"ce4bgkh2rcd13ifvqbk0","pricing_plan_id":"cebpf4jnsgd1na2vs0mg"},{"bike_id":"815e89d6-c4c5-4efa-b237-b09c1e62a7ea","system_id":"levelo_inurba_marseille","lat":43.29715,"lon":5.36583,"is_reserved":false,"is_disabled":false,"rental_uris":{"android":"levelo://app?vid=815e89d6-c4c5-4efa-b237-b09c1e62a7ea","ios":"levelo://app?vid=815e89d6-c4c5-4efa-b237-b09c1e62a7ea"},"vehicle_type_id":"4","last_reported":1756235238,"current_range_meters":9200,"station_id":"ce4bgn12rcd13ifvqbt0","pricing_plan_id":"cebpf4jnsgd1na2vs0mg"},{"bike_id":"ca5c8bd7-f453-4ed0-b8ff-31d9e297d926","system_id":"levelo_inurba_marseille","lat":43.270676,"lon":5.422683,"is_reserved":false,"is_disabled":false,"rental_uris":{"android":"levelo://app?vid=ca5c8bd7-f453-4ed0-b8ff-31d9e297d926","ios":"levelo://app?vid=ca5c8bd7-f453-4ed0-b8ff-31d9e297d926"},"vehicle_type_id":"4","last_reported":1756235238,"current_range_meters":9200,"station_id":"ce4bhk92rcd13ifvqgb0","pricing_plan_id":"cebpf4jnsgd1na2vs0mg"},{"bike_id":"b74a4724-eeba-4dd5-a676-a043e65a9450","system_id":"levelo_inurba_marseille","lat":43.2907,"lon":5.37166,"is_reserved":false,"is_disabled":false,"rental_uris":{"android":"levelo://app?vid=b74a4724-eeba-4dd5-a676-a043e65a9450","ios":"levelo://app?vid=b74a4724-eeba-4dd5-a676-a043e65a9450"},"vehicle_type_id":"4","last_reported":1756235238,"current_range_meters":9200,"station_id":"ce4bh5p2rcd13ifvqe4g","pricing_plan_id":"cebpf4jnsgd1na2vs0mg"},{"bike_id":"2ffab188-1cbe-4b80-a9b0-0f74fc2b711c","system_id":"levelo_inurba_marseille","lat":43.29203,"lon":5.39317,"is_reserved":false,"is_disabled":false,"rental_uris":{"android":"levelo://app?vid=2ffab188-1cbe-4b80-a9b0-0f74fc2b711c","ios":"levelo://app?vid=2ffab188-1cbe-4b80-a9b0-0f74fc2b711c"},"vehicle_type_id":"4","last_reported":1756235238,"current_range_meters":9200,"station_id":"ce4bh192rcd13ifvqdd0","pricing_plan_id":"cebpf4jnsgd1na2vs0mg"},{"bike_id":"472f5310-43eb-4014-ab2f-656b8b632330","system_id":"levelo_inurba_marseille","lat":43.29033,"lon":5.35904,"is_reserved":false,"is_disabled":false,"rental_uris":{"android":"levelo://app?vid=472f5310-43eb-4014-ab2f-656b8b632330","ios":"levelo://app?vid=472f5310-43eb-4014-ab2f-656b8b632330"},"vehicle_type_id":"4","last_reported":1756235238,"current_range_meters":9200,"station_id":"ce4bha92rcd13ifvqeg0","pricing_plan_id":"cebpf4jnsgd1na2vs0mg"},{"bike_id":"f781d014-afa9-4acc-b6f7-3670b0862de3","system_id":"levelo_inurba_marseille","lat":43.211937,"lon":5.350787,"is_reserved":false,"is_disabled":false,"rental_uris":{"android":"levelo://app?vid=f781d014-afa9-4acc-b6f7-3670b0862de3","ios":"levelo://app?vid=f781d014-afa9-4acc-b6f7-3670b0862de3"},"vehicle_type_id":"4","last_reported":1756235238,"current_range_meters":9200,"station_id":"st_cvj6sg6p6f1abm77japg","pricing_plan_id":"cebpf4jnsgd1na2vs0mg"},{"bike_id":"bea9b573-b0c0-471b-a983-7d2a5da760bb","system_id":"levelo_inurba_marseille","lat":43.30369,"lon":5.4249,"is_reserved":false,"is_disabled":false,"rental_uris":{"android":"levelo://app?vid=bea9b573-b0c0-471b-a983-7d2a5da760bb","ios":"levelo://app?vid=bea9b573-b0c0-471b-a983-7d2a5da760bb"},"vehicle_type_id":"4","last_reported":1756235238,"current_range_meters":9600,"station_id":"ce4bhoh2rcd13ifvqh6g","pricing_plan_id":"cebpf4jnsgd1na2vs0mg"},{"bike_id":"4628258f-0d78-40f4-b451-01c5c26bc1fc","system_id":"levelo_inurba_marseille","lat":43.29271,"lon":5.38423,"is_reserved":false,"is_disabled":false,"rental_uris":{"android":"levelo://app?vid=4628258f-0d78-40f4-b451-01c5c26bc1fc","ios":"levelo://app?vid=4628258f-0d78-40f4-b451-01c5c26bc1fc"},"vehicle_type_id":"4","last_reported":1756235238,"current_range_meters":9600,"station_id":"ce4bh692rcd13ifvqea0","pricing_plan_id":"cebpf4jnsgd1na2vs0mg"},{"bike_id":"644942eb-0514-4400-82b3-a4f8f9259347","system_id":"levelo_inurba_marseille","lat":43.284342,"lon":5.391976,"is_reserved":false,"is_disabled":false,"rental_uris":{"android":"levelo://app?vid=644942eb-0514-4400-82b3-a4f8f9259347","ios":"levelo://app?vid=644942eb-0514-4400-82b3-a4f8f9259347"},"vehicle_type_id":"4","last_reported":1756235238,"current_range_meters":9600,"station_id":"ce4bhoh2rcd13ifvqh5g","pricing_plan_id":"cebpf4jnsgd1na2vs0mg"},{"bike_id":"97062f48-479d-49ab-ac50-46ea23e51f1f","system_id":"levelo_inurba_marseille","lat":43.29915,"lon":5.36545,"is_reserved":false,"is_disabled":false,"rental_uris":{"android":"levelo://app?vid=97062f48-479d-49ab-ac50-46ea23e51f1f","ios":"levelo://app?vid=97062f48-479d-49ab-ac50-46ea23e51f1f"},"vehicle_type_id":"4","last_reported":1756235238,"current_range_meters":9600,"station_id":"ce4bgm92rcd13ifvqbr0","pricing_plan_id":"cebpf4jnsgd1na2vs0mg"},{"bike_id":"c8f19ab0-2650-42bf-bf99-315bb14cecb1","system_id":"levelo_inurba_marseille","lat":43.32393,"lon":5.36579,"is_reserved":false,"is_disabled":false,"rental_uris":{"android":"levelo://app?vid=c8f19ab0-2650-42bf-bf99-315bb14cecb1","ios":"levelo://app?vid=c8f19ab0-2650-42bf-bf99-315bb14cecb1"},"vehicle_type_id":"4","last_reported":1756235238,"current_range_meters":10000,"station_id":"ce4bhs12rcd13ifvqhvg","pricing_plan_id":"cebpf4jnsgd1na2vs0mg"},{"bike_id":"07443587-0e1b-46f4-b24f-3a0b1d0cfb70","system_id":"levelo_inurba_marseille","lat":43.31374,"lon":5.38497,"is_reserved":false,"is_disabled":false,"rental_uris":{"android":"levelo://app?vid=07443587-0e1b-46f4-b24f-3a0b1d0cfb70","ios":"levelo://app?vid=07443587-0e1b-46f4-b24f-3a0b1d0cfb70"},"vehicle_type_id":"4","last_reported":1756235238,"current_range_meters":10000,"station_id":"ce4bgt92rcd13ifvqcf0","pricing_plan_id":"cebpf4jnsgd1na2vs0mg"},{"bike_id":"5abbdd3f-83d9-4071-9dae-44ea0e010621","system_id":"levelo_inurba_marseille","lat":43.29712,"lon":5.36592,"is_reserved":false,"is_disabled":false,"rental_uris":{"android":"levelo://app?vid=5abbdd3f-83d9-4071-9dae-44ea0e010621","ios":"levelo://app?vid=5abbdd3f-83d9-4071-9dae-44ea0e010621"},"vehicle_type_id":"4","last_reported":1756235238,"current_range_meters":10000,"station_id":"ce4bgn12rcd13ifvqbt0","pricing_plan_id":"cebpf4jnsgd1na2vs0mg"},{"bike_id":"edc4c588-4db1-4b48-bddb-0eba1d72ba9f","system_id":"levelo_inurba_marseille","lat":43.21194,"lon":5.35074,"is_reserved":false,"is_disabled":false,"rental_uris":{"android":"levelo://app?vid=edc4c588-4db1-4b48-bddb-0eba1d72ba9f","ios":"levelo://app?vid=edc4c588-4db1-4b48-bddb-0eba1d72ba9f"},"vehicle_type_id":"4","last_reported":1756235238,"current_range_meters":10000,"station_id":"","pricing_plan_id":"cebpf4jnsgd1na2vs0mg"},{"bike_id":"8b2442ae-7b49-41b5-ad77-197de2fec406","system_id":"levelo_inurba_marseille","lat":43.29026,"lon":5.38661,"is_reserved":false,"is_disabled":false,"rental_uris":{"android":"levelo://app?vid=8b2442ae-7b49-41b5-ad77-197de2fec406","ios":"levelo://app?vid=8b2442ae-7b49-41b5-ad77-197de2fec406"},"vehicle_type_id":"4","last_reported":1756235238,"current_range_meters":10000,"station_id":"ce4bh4p2rcd13ifvqe0g","pricing_plan_id":"cebpf4jnsgd1na2vs0mg"},{"bike_id":"c68f425e-28d2-4fec-8048-c48cea50b7a3","system_id":"levelo_inurba_marseille","lat":43.30559,"lon":5.36553,"is_reserved":false,"is_disabled":false,"rental_uris":{"android":"levelo://app?vid=c68f425e-28d2-4fec-8048-c48cea50b7a3","ios":"levelo://app?vid=c68f425e-28d2-4fec-8048-c48cea50b7a3"},"vehicle_type_id":"4","last_reported":1756235238,"current_range_meters":10000,"station_id":"ce4bgs12rcd13ifvqcag","pricing_plan_id":"cebpf4jnsgd1na2vs0mg"},{"bike_id":"6e8af163-e791-49fb-872f-ad5ed20ef18c","system_id":"levelo_inurba_marseille","lat":43.30436,"lon":5.39753,"is_reserved":false,"is_disabled":false,"rental_uris":{"android":"levelo://app?vid=6e8af163-e791-49fb-872f-ad5ed20ef18c","ios":"levelo://app?vid=6e8af163-e791-49fb-872f-ad5ed20ef18c"},"vehicle_type_id":"4","last_reported":1756235238,"current_range_meters":10000,"station_id":"ce4bh092rcd13ifvqd20","pricing_plan_id":"cebpf4jnsgd1na2vs0mg"},{"bike_id":"540ce205-844f-4d40-8cfb-d5d924d9065e","system_id":"levelo_inurba_marseille","lat":43.29191,"lon":5.39324,"is_reserved":false,"is_disabled":false,"rental_uris":{"android":"levelo://app?vid=540ce205-844f-4d40-8cfb-d5d924d9065e","ios":"levelo://app?vid=540ce205-844f-4d40-8cfb-d5d924d9065e"},"vehicle_type_id":"4","last_reported":1756235238,"current_range_meters":10800,"station_id":"ce4bh192rcd13ifvqdd0","pricing_plan_id":"cebpf4jnsgd1na2vs0mg"},{"bike_id":"e6179b46-81c8-4876-9a4c-537a47573db1","system_id":"levelo_inurba_marseille","lat":43.31363,"lon":5.40621,"is_reserved":false,"is_disabled":false,"rental_uris":{"android":"levelo://app?vid=e6179b46-81c8-4876-9a4c-537a47573db1","ios":"levelo://app?vid=e6179b46-81c8-4876-9a4c-537a47573db1"},"vehicle_type_id":"4","last_reported":1756235238,"current_range_meters":10800,"station_id":"","pricing_plan_id":"cebpf4jnsgd1na2vs0mg"},{"bike_id":"7ec81c5f-b464-49c3-a4a1-201c4822e1f7","system_id":"levelo_inurba_marseille","lat":43.30242,"lon":5.40057,"is_reserved":false,"is_disabled":false,"rental_uris":{"android":"levelo://app?vid=7ec81c5f-b464-49c3-a4a1-201c4822e1f7","ios":"levelo://app?vid=7ec81c5f-b464-49c3-a4a1-201c4822e1f7"},"vehicle_type_id":"4","last_reported":1756235238,"current_range_meters":10800,"station_id":"ce4bgvh2rcd13ifvqcs0","pricing_plan_id":"cebpf4jnsgd1na2vs0mg"},{"bike_id":"7c0af635-6103-409b-9ce6-1a9508bb6f8b","system_id":"levelo_inurba_marseille","lat":43.2923,"lon":5.38459,"is_reserved":false,"is_disabled":false,"rental_uris":{"android":"levelo://app?vid=7c0af635-6103-409b-9ce6-1a9508bb6f8b","ios":"levelo://app?vid=7c0af635-6103-409b-9ce6-1a9508bb6f8b"},"vehicle_type_id":"4","last_reported":1756235238,"current_range_meters":10800,"station_id":"ce4bh692rcd13ifvqea0","pricing_plan_id":"cebpf4jnsgd1na2vs0mg"},{"bike_id":"e83e7b0a-c4ea-4f86-a5b0-14859eec6a87","system_id":"levelo_inurba_marseille","lat":43.299306,"lon":5.365584,"is_reserved":false,"is_disabled":false,"rental_uris":{"android":"levelo://app?vid=e83e7b0a-c4ea-4f86-a5b0-14859eec6a87","ios":"levelo://app?vid=e83e7b0a-c4ea-4f86-a5b0-14859eec6a87"},"vehicle_type_id":"4","last_reported":1756235238,"current_range_meters":10800,"station_id":"ce4bgm92rcd13ifvqbr0","pricing_plan_id":"cebpf4jnsgd1na2vs0mg"},{"bike_id":"08274ab8-a072-4c56-bb5b-061efedbeeee","system_id":"levelo_inurba_marseille","lat":43.28147,"lon":5.42657,"is_reserved":false,"is_disabled":false,"rental_uris":{"android":"levelo://app?vid=08274ab8-a072-4c56-bb5b-061efedbeeee","ios":"levelo://app?vid=08274ab8-a072-4c56-bb5b-061efedbeeee"},"vehicle_type_id":"4","last_reported":1756235238,"current_range_meters":10800,"station_id":"ce4bhnh2rcd13ifvqgug","pricing_plan_id":"cebpf4jnsgd1na2vs0mg"},{"bike_id":"47c72c85-64e7-43b8-ada4-0f17a3d10859","system_id":"levelo_inurba_marseille","lat":43.21756,"lon":5.34603,"is_reserved":false,"is_disabled":true,"rental_uris":{"android":"levelo://app?vid=47c72c85-64e7-43b8-ada4-0f17a3d10859","ios":"levelo://app?vid=47c72c85-64e7-43b8-ada4-0f17a3d10859"},"vehicle_type_id":"4","last_reported":1756235238,"current_range_meters":10800,"station_id":"st_cvj6r9ubvosntc0bgbag","pricing_plan_id":"cebpf4jnsgd1na2vs0mg"},{"bike_id":"88730149-134b-4a18-bc10-a3ab4b90c3d9","system_id":"levelo_inurba_marseille","lat":43.30299,"lon":5.36914,"is_reserved":false,"is_disabled":false,"rental_uris":{"android":"levelo://app?vid=88730149-134b-4a18-bc10-a3ab4b90c3d9","ios":"levelo://app?vid=88730149-134b-4a18-bc10-a3ab4b90c3d9"},"vehicle_type_id":"4","last_reported":1756235238,"current_range_meters":10800,"station_id":"ce4bgqh2rcd13ifvqc5g","pricing_plan_id":"cebpf4jnsgd1na2vs0mg"},{"bike_id":"9ef24247-8c85-493a-a0b1-6d6796fd310d","system_id":"levelo_inurba_marseille","lat":43.29903,"lon":5.38149,"is_reserved":false,"is_disabled":false,"rental_uris":{"android":"levelo://app?vid=9ef24247-8c85-493a-a0b1-6d6796fd310d","ios":"levelo://app?vid=9ef24247-8c85-493a-a0b1-6d6796fd310d"},"vehicle_type_id":"4","last_reported":1756235238,"current_range_meters":10800,"station_id":"ce4bgj12rcd13ifvqbc0","pricing_plan_id":"cebpf4jnsgd1na2vs0mg"},{"bike_id":"4f905089-9f16-4a4c-a0fc-e895ae2ed7c1","system_id":"levelo_inurba_marseille","lat":43.29256,"lon":5.3846,"is_reserved":false,"is_disabled":false,"rental_uris":{"android":"levelo://app?vid=4f905089-9f16-4a4c-a0fc-e895ae2ed7c1","ios":"levelo://app?vid=4f905089-9f16-4a4c-a0fc-e895ae2ed7c1"},"vehicle_type_id":"4","last_reported":1756235238,"current_range_meters":10800,"station_id":"ce4bh692rcd13ifvqea0","pricing_plan_id":"cebpf4jnsgd1na2vs0mg"},{"bike_id":"67f839b9-5db1-4460-8c6b-e7ce0c5602e2","system_id":"levelo_inurba_marseille","lat":43.29531,"lon":5.38537,"is_reserved":false,"is_disabled":false,"rental_uris":{"android":"levelo://app?vid=67f839b9-5db1-4460-8c6b-e7ce0c5602e2","ios":"levelo://app?vid=67f839b9-5db1-4460-8c6b-e7ce0c5602e2"},"vehicle_type_id":"4","last_reported":1756235238,"current_range_meters":10800,"station_id":"ce4bgih2rcd13ifvqba0","pricing_plan_id":"cebpf4jnsgd1na2vs0mg"},{"bike_id":"d2db7833-a137-4c06-ae14-bdc41800e922","system_id":"levelo_inurba_marseille","lat":43.30213,"lon":5.39466,"is_reserved":false,"is_disabled":false,"rental_uris":{"android":"levelo://app?vid=d2db7833-a137-4c06-ae14-bdc41800e922","ios":"levelo://app?vid=d2db7833-a137-4c06-ae14-bdc41800e922"},"vehicle_type_id":"4","last_reported":1756235238,"current_range_meters":10800,"station_id":"ce4bh0p2rcd13ifvqd70","pricing_plan_id":"cebpf4jnsgd1na2vs0mg"},{"bike_id":"b1638fc1-2221-4fd3-a4a8-39eedb0a2734","system_id":"levelo_inurba_marseille","lat":43.29528,"lon":5.39395,"is_reserved":false,"is_disabled":false,"rental_uris":{"android":"levelo://app?vid=b1638fc1-2221-4fd3-a4a8-39eedb0a2734","ios":"levelo://app?vid=b1638fc1-2221-4fd3-a4a8-39eedb0a2734"},"vehicle_type_id":"4","last_reported":1756235238,"current_range_meters":11200,"station_id":"ce4bh292rcd13ifvqdf0","pricing_plan_id":"cebpf4jnsgd1na2vs0mg"},{"bike_id":"99132422-e89e-4121-847d-7eb264f731a2","system_id":"levelo_inurba_marseille","lat":43.30244,"lon":5.40075,"is_reserved":false,"is_disabled":true,"rental_uris":{"android":"levelo://app?vid=99132422-e89e-4121-847d-7eb264f731a2","ios":"levelo://app?vid=99132422-e89e-4121-847d-7eb264f731a2"},"vehicle_type_id":"4","last_reported":1756235238,"current_range_meters":11200,"station_id":"ce4bgvh2rcd13ifvqcs0","pricing_plan_id":"cebpf4jnsgd1na2vs0mg"},{"bike_id":"ec6705ad-1994-4f7b-8ba1-066d763e7f38","system_id":"levelo_inurba_marseille","lat":43.25576,"lon":5.3823,"is_reserved":false,"is_disabled":true,"rental_uris":{"android":"levelo://app?vid=ec6705ad-1994-4f7b-8ba1-066d763e7f38","ios":"levelo://app?vid=ec6705ad-1994-4f7b-8ba1-066d763e7f38"},"vehicle_type_id":"4","last_reported":1756235238,"current_range_meters":11200,"station_id":"ce4bhih2rcd13ifvqfs0","pricing_plan_id":"cebpf4jnsgd1na2vs0mg"},{"bike_id":"2ba49a95-7f69-4c7b-b825-194f3437ad7e","system_id":"levelo_inurba_marseille","lat":43.23149,"lon":5.43714,"is_reserved":false,"is_disabled":false,"rental_uris":{"android":"levelo://app?vid=2ba49a95-7f69-4c7b-b825-194f3437ad7e","ios":"levelo://app?vid=2ba49a95-7f69-4c7b-b825-194f3437ad7e"},"vehicle_type_id":"4","last_reported":1756235238,"current_range_meters":11200,"station_id":"ce4bhmp2rcd13ifvqgog","pricing_plan_id":"cebpf4jnsgd1na2vs0mg"},{"bike_id":"0d502687-08ef-4491-8893-8a03d8688be8","system_id":"levelo_inurba_marseille","lat":43.29611,"lon":5.36114,"is_reserved":false,"is_disabled":false,"rental_uris":{"android":"levelo://app?vid=0d502687-08ef-4491-8893-8a03d8688be8","ios":"levelo://app?vid=0d502687-08ef-4491-8893-8a03d8688be8"},"vehicle_type_id":"4","last_reported":1756235238,"current_range_meters":11200,"station_id":"","pricing_plan_id":"cebpf4jnsgd1na2vs0mg"},{"bike_id":"4e045e6c-833f-4c63-9670-59005bd1d571","system_id":"levelo_inurba_marseille","lat":43.28923,"lon":5.38409,"is_reserved":false,"is_disabled":false,"rental_uris":{"android":"levelo://app?vid=4e045e6c-833f-4c63-9670-59005bd1d571","ios":"levelo://app?vid=4e045e6c-833f-4c63-9670-59005bd1d571"},"vehicle_type_id":"4","last_reported":1756235238,"current_range_meters":11200,"station_id":"ce4bh612rcd13ifvqe6g","pricing_plan_id":"cebpf4jnsgd1na2vs0mg"},{"bike_id":"67a72ced-a5bf-4b77-9d4e-86ab054d08e4","system_id":"levelo_inurba_marseille","lat":43.2696,"lon":5.38636,"is_reserved":false,"is_disabled":false,"rental_uris":{"android":"levelo://app?vid=67a72ced-a5bf-4b77-9d4e-86ab054d08e4","ios":"levelo://app?vid=67a72ced-a5bf-4b77-9d4e-86ab054d08e4"},"vehicle_type_id":"4","last_reported":1756235238,"current_range_meters":11200,"station_id":"ce4bhh92rcd13ifvqfh0","pricing_plan_id":"cebpf4jnsgd1na2vs0mg"},{"bike_id":"a4578e98-0c0e-42ba-b4cc-92d22d1008a9","system_id":"levelo_inurba_marseille","lat":43.29026,"lon":5.38124,"is_reserved":false,"is_disabled":true,"rental_uris":{"android":"levelo://app?vid=a4578e98-0c0e-42ba-b4cc-92d22d1008a9","ios":"levelo://app?vid=a4578e98-0c0e-42ba-b4cc-92d22d1008a9"},"vehicle_type_id":"4","last_reported":1756235238,"current_range_meters":11200,"station_id":"ce4bh4p2rcd13ifvqe1g","pricing_plan_id":"cebpf4jnsgd1na2vs0mg"},{"bike_id":"dc2a98fc-205b-4763-ae7b-083388c0a2e8","system_id":"levelo_inurba_marseille","lat":43.29532,"lon":5.38548,"is_reserved":false,"is_disabled":false,"rental_uris":{"android":"levelo://app?vid=dc2a98fc-205b-4763-ae7b-083388c0a2e8","ios":"levelo://app?vid=dc2a98fc-205b-4763-ae7b-083388c0a2e8"},"vehicle_type_id":"4","last_reported":1756235238,"current_range_meters":11200,"station_id":"ce4bgih2rcd13ifvqba0","pricing_plan_id":"cebpf4jnsgd1na2vs0mg"},{"bike_id":"41b11608-9168-43c6-8f75-f47fe02c9107","system_id":"levelo_inurba_marseille","lat":43.29041,"lon":5.35923,"is_reserved":false,"is_disabled":false,"rental_uris":{"android":"levelo://app?vid=41b11608-9168-43c6-8f75-f47fe02c9107","ios":"levelo://app?vid=41b11608-9168-43c6-8f75-f47fe02c9107"},"vehicle_type_id":"4","last_reported":1756235238,"current_range_meters":11200,"station_id":"ce4bha92rcd13ifvqeg0","pricing_plan_id":"cebpf4jnsgd1na2vs0mg"},{"bike_id":"eaac1ac6-6c5d-4274-970f-7bad9d177f4b","system_id":"levelo_inurba_marseille","lat":43.33763,"lon":5.37478,"is_reserved":false,"is_disabled":false,"rental_uris":{"android":"levelo://app?vid=eaac1ac6-6c5d-4274-970f-7bad9d177f4b","ios":"levelo://app?vid=eaac1ac6-6c5d-4274-970f-7bad9d177f4b"},"vehicle_type_id":"4","last_reported":1756235238,"current_range_meters":11600,"station_id":"","pricing_plan_id":"cebpf4jnsgd1na2vs0mg"},{"bike_id":"df84dc5f-daf8-4107-9dff-789d78687a05","system_id":"levelo_inurba_marseille","lat":43.29533,"lon":5.38536,"is_reserved":false,"is_disabled":false,"rental_uris":{"android":"levelo://app?vid=df84dc5f-daf8-4107-9dff-789d78687a05","ios":"levelo://app?vid=df84dc5f-daf8-4107-9dff-789d78687a05"},"vehicle_type_id":"4","last_reported":1756235238,"current_range_meters":11600,"station_id":"ce4bgih2rcd13ifvqba0","pricing_plan_id":"cebpf4jnsgd1na2vs0mg"},{"bike_id":"cefa8bbb-4513-4764-8f5c-d664a24087d7","system_id":"levelo_inurba_marseille","lat":43.28403,"lon":5.3752,"is_reserved":false,"is_disabled":false,"rental_uris":{"android":"levelo://app?vid=cefa8bbb-4513-4764-8f5c-d664a24087d7","ios":"levelo://app?vid=cefa8bbb-4513-4764-8f5c-d664a24087d7"},"vehicle_type_id":"4","last_reported":1756235238,"current_range_meters":11600,"station_id":"ce4bh412rcd13ifvqds0","pricing_plan_id":"cebpf4jnsgd1na2vs0mg"},{"bike_id":"42e248aa-b0b5-4c40-bfd1-81555e678002","system_id":"levelo_inurba_marseille","lat":43.298791,"lon":5.389087,"is_reserved":false,"is_disabled":false,"rental_uris":{"android":"levelo://app?vid=42e248aa-b0b5-4c40-bfd1-81555e678002","ios":"levelo://app?vid=42e248aa-b0b5-4c40-bfd1-81555e678002"},"vehicle_type_id":"4","last_reported":1756235238,"current_range_meters":11600,"station_id":"ce4bh392rcd13ifvqdl0","pricing_plan_id":"cebpf4jnsgd1na2vs0mg"},{"bike_id":"5f1b3fc5-f305-4b0a-89f9-fa3a7b4296b8","system_id":"levelo_inurba_marseille","lat":43.30247,"lon":5.40063,"is_reserved":false,"is_disabled":false,"rental_uris":{"android":"levelo://app?vid=5f1b3fc5-f305-4b0a-89f9-fa3a7b4296b8","ios":"levelo://app?vid=5f1b3fc5-f305-4b0a-89f9-fa3a7b4296b8"},"vehicle_type_id":"4","last_reported":1756235238,"current_range_meters":11600,"station_id":"ce4bgvh2rcd13ifvqcs0","pricing_plan_id":"cebpf4jnsgd1na2vs0mg"},{"bike_id":"0a9a2fa5-37aa-43b8-9e42-00b99bcfa6fd","system_id":"levelo_inurba_marseille","lat":43.29072,"lon":5.37146,"is_reserved":false,"is_disabled":false,"rental_uris":{"android":"levelo://app?vid=0a9a2fa5-37aa-43b8-9e42-00b99bcfa6fd","ios":"levelo://app?vid=0a9a2fa5-37aa-43b8-9e42-00b99bcfa6fd"},"vehicle_type_id":"4","last_reported":1756235238,"current_range_meters":12000,"station_id":"ce4bh5p2rcd13ifvqe4g","pricing_plan_id":"cebpf4jnsgd1na2vs0mg"},{"bike_id":"d7fecae7-870a-46b4-a8be-a56ea0516718","system_id":"levelo_inurba_marseille","lat":43.32543,"lon":5.41421,"is_reserved":false,"is_disabled":false,"rental_uris":{"android":"levelo://app?vid=d7fecae7-870a-46b4-a8be-a56ea0516718","ios":"levelo://app?vid=d7fecae7-870a-46b4-a8be-a56ea0516718"},"vehicle_type_id":"4","last_reported":1756235238,"current_range_meters":12000,"station_id":"ce4bhq12rcd13ifvqhhg","pricing_plan_id":"cebpf4jnsgd1na2vs0mg"},{"bike_id":"41b65fec-c4b7-4266-81a3-41a746a956eb","system_id":"levelo_inurba_marseille","lat":43.30324,"lon":5.40436,"is_reserved":false,"is_disabled":false,"rental_uris":{"android":"levelo://app?vid=41b65fec-c4b7-4266-81a3-41a746a956eb","ios":"levelo://app?vid=41b65fec-c4b7-4266-81a3-41a746a956eb"},"vehicle_type_id":"4","last_reported":1756235238,"current_range_meters":12000,"station_id":"ce4bh012rcd13ifvqd10","pricing_plan_id":"cebpf4jnsgd1na2vs0mg"},{"bike_id":"bc87de52-9645-4d52-984f-e5ce816d33b8","system_id":"levelo_inurba_marseille","lat":43.31498,"lon":5.37304,"is_reserved":false,"is_disabled":false,"rental_uris":{"android":"levelo://app?vid=bc87de52-9645-4d52-984f-e5ce816d33b8","ios":"levelo://app?vid=bc87de52-9645-4d52-984f-e5ce816d33b8"},"vehicle_type_id":"4","last_reported":1756235238,"current_range_meters":12000,"station_id":"ce4bgt12rcd13ifvqcd0","pricing_plan_id":"cebpf4jnsgd1na2vs0mg"},{"bike_id":"8a00d99b-940c-4dd8-b9d9-a9e3540088dd","system_id":"levelo_inurba_marseille","lat":43.29201,"lon":5.3933,"is_reserved":false,"is_disabled":false,"rental_uris":{"android":"levelo://app?vid=8a00d99b-940c-4dd8-b9d9-a9e3540088dd","ios":"levelo://app?vid=8a00d99b-940c-4dd8-b9d9-a9e3540088dd"},"vehicle_type_id":"4","last_reported":1756235238,"current_range_meters":12000,"station_id":"ce4bh192rcd13ifvqdd0","pricing_plan_id":"cebpf4jnsgd1na2vs0mg"},{"bike_id":"293975b9-8ca5-4a82-908a-15c295db19a4","system_id":"levelo_inurba_marseille","lat":43.30299,"lon":5.39199,"is_reserved":false,"is_disabled":false,"rental_uris":{"android":"levelo://app?vid=293975b9-8ca5-4a82-908a-15c295db19a4","ios":"levelo://app?vid=293975b9-8ca5-4a82-908a-15c295db19a4"},"vehicle_type_id":"4","last_reported":1756235238,"current_range_meters":12000,"station_id":"ce4bgkh2rcd13ifvqbk0","pricing_plan_id":"cebpf4jnsgd1na2vs0mg"},{"bike_id":"62dbcaac-cb67-47e6-8c4a-670a9aee5096","system_id":"levelo_inurba_marseille","lat":43.29528,"lon":5.38538,"is_reserved":false,"is_disabled":false,"rental_uris":{"android":"levelo://app?vid=62dbcaac-cb67-47e6-8c4a-670a9aee5096","ios":"levelo://app?vid=62dbcaac-cb67-47e6-8c4a-670a9aee5096"},"vehicle_type_id":"4","last_reported":1756235238,"current_range_meters":12000,"station_id":"ce4bgih2rcd13ifvqba0","pricing_plan_id":"cebpf4jnsgd1na2vs0mg"},{"bike_id":"48b3d647-6367-4d56-9229-38cffc7c818a","system_id":"levelo_inurba_marseille","lat":43.289704,"lon":5.398054,"is_reserved":false,"is_disabled":false,"rental_uris":{"android":"levelo://app?vid=48b3d647-6367-4d56-9229-38cffc7c818a","ios":"levelo://app?vid=48b3d647-6367-4d56-9229-38cffc7c818a"},"vehicle_type_id":"4","last_reported":1756235238,"current_range_meters":12000,"station_id":"ce4bh392rcd13ifvqdm0","pricing_plan_id":"cebpf4jnsgd1na2vs0mg"},{"bike_id":"05bfbee2-1e9b-4dee-b8c6-55f063b2b11b","system_id":"levelo_inurba_marseille","lat":43.29538,"lon":5.38545,"is_reserved":false,"is_disabled":false,"rental_uris":{"android":"levelo://app?vid=05bfbee2-1e9b-4dee-b8c6-55f063b2b11b","ios":"levelo://app?vid=05bfbee2-1e9b-4dee-b8c6-55f063b2b11b"},"vehicle_type_id":"4","last_reported":1756235238,"current_range_meters":12000,"station_id":"ce4bgih2rcd13ifvqba0","pricing_plan_id":"cebpf4jnsgd1na2vs0mg"},{"bike_id":"b0146f38-55d2-40e9-8f26-917e1087a00d","system_id":"levelo_inurba_marseille","lat":43.2958,"lon":5.36739,"is_reserved":false,"is_disabled":false,"rental_uris":{"android":"levelo://app?vid=b0146f38-55d2-40e9-8f26-917e1087a00d","ios":"levelo://app?vid=b0146f38-55d2-40e9-8f26-917e1087a00d"},"vehicle_type_id":"4","last_reported":1756235238,"current_range_meters":11600,"station_id":"ce4bgph2rcd13ifvqc2g","pricing_plan_id":"cebpf4jnsgd1na2vs0mg"},{"bike_id":"fd8c465d-11d0-449f-a4f6-d345f306873d","system_id":"levelo_inurba_marseille","lat":43.31711,"lon":5.43706,"is_reserved":false,"is_disabled":false,"rental_uris":{"android":"levelo://app?vid=fd8c465d-11d0-449f-a4f6-d345f306873d","ios":"levelo://app?vid=fd8c465d-11d0-449f-a4f6-d345f306873d"},"vehicle_type_id":"4","last_reported":1756235238,"current_range_meters":12400,"station_id":"ce4bhp92rcd13ifvqhcg","pricing_plan_id":"cebpf4jnsgd1na2vs0mg"},{"bike_id":"3a211dae-99df-433e-94a9-1e1cf23ce9f4","system_id":"levelo_inurba_marseille","lat":43.30883,"lon":5.39651,"is_reserved":false,"is_disabled":false,"rental_uris":{"android":"levelo://app?vid=3a211dae-99df-433e-94a9-1e1cf23ce9f4","ios":"levelo://app?vid=3a211dae-99df-433e-94a9-1e1cf23ce9f4"},"vehicle_type_id":"4","last_reported":1756235238,"current_range_meters":12400,"station_id":"","pricing_plan_id":"cebpf4jnsgd1na2vs0mg"},{"bike_id":"4c45a6b4-315b-476d-bd13-e0e58f44cf39","system_id":"levelo_inurba_marseille","lat":43.24563,"lon":5.39497,"is_reserved":false,"is_disabled":false,"rental_uris":{"android":"levelo://app?vid=4c45a6b4-315b-476d-bd13-e0e58f44cf39","ios":"levelo://app?vid=4c45a6b4-315b-476d-bd13-e0e58f44cf39"},"vehicle_type_id":"4","last_reported":1756235238,"current_range_meters":12400,"station_id":"ce4bhlp2rcd13ifvqgjg","pricing_plan_id":"cebpf4jnsgd1na2vs0mg"},{"bike_id":"d09818c0-fe17-4e04-a009-8059bf91f2ab","system_id":"levelo_inurba_marseille","lat":43.29527,"lon":5.38537,"is_reserved":false,"is_disabled":false,"rental_uris":{"android":"levelo://app?vid=d09818c0-fe17-4e04-a009-8059bf91f2ab","ios":"levelo://app?vid=d09818c0-fe17-4e04-a009-8059bf91f2ab"},"vehicle_type_id":"4","last_reported":1756235238,"current_range_meters":12400,"station_id":"ce4bgih2rcd13ifvqba0","pricing_plan_id":"cebpf4jnsgd1na2vs0mg"},{"bike_id":"53ffa901-6c88-44d7-93d0-22751c502880","system_id":"levelo_inurba_marseille","lat":43.30184,"lon":5.36626,"is_reserved":false,"is_disabled":false,"rental_uris":{"android":"levelo://app?vid=53ffa901-6c88-44d7-93d0-22751c502880","ios":"levelo://app?vid=53ffa901-6c88-44d7-93d0-22751c502880"},"vehicle_type_id":"4","last_reported":1756235238,"current_range_meters":12400,"station_id":"ce4bgrh2rcd13ifvqc8g","pricing_plan_id":"cebpf4jnsgd1na2vs0mg"},{"bike_id":"51842e17-ef10-4624-a23e-c8a182427991","system_id":"levelo_inurba_marseille","lat":43.31624,"lon":5.38226,"is_reserved":false,"is_disabled":false,"rental_uris":{"android":"levelo://app?vid=51842e17-ef10-4624-a23e-c8a182427991","ios":"levelo://app?vid=51842e17-ef10-4624-a23e-c8a182427991"},"vehicle_type_id":"4","last_reported":1756235238,"current_range_meters":12400,"station_id":"","pricing_plan_id":"cebpf4jnsgd1na2vs0mg"},{"bike_id":"5f61e80e-4203-4ca7-8c1e-5073f374a9cf","system_id":"levelo_inurba_marseille","lat":43.302482,"lon":5.400723,"is_reserved":false,"is_disabled":false,"rental_uris":{"android":"levelo://app?vid=5f61e80e-4203-4ca7-8c1e-5073f374a9cf","ios":"levelo://app?vid=5f61e80e-4203-4ca7-8c1e-5073f374a9cf"},"vehicle_type_id":"4","last_reported":1756235238,"current_range_meters":12400,"station_id":"ce4bgvh2rcd13ifvqcs0","pricing_plan_id":"cebpf4jnsgd1na2vs0mg"},{"bike_id":"e919acef-07c1-4edf-be92-8c41bd7a455d","system_id":"levelo_inurba_marseille","lat":43.301845,"lon":5.366249,"is_reserved":false,"is_disabled":false,"rental_uris":{"android":"levelo://app?vid=e919acef-07c1-4edf-be92-8c41bd7a455d","ios":"levelo://app?vid=e919acef-07c1-4edf-be92-8c41bd7a455d"},"vehicle_type_id":"4","last_reported":1756235238,"current_range_meters":12400,"station_id":"ce4bgrh2rcd13ifvqc8g","pricing_plan_id":"cebpf4jnsgd1na2vs0mg"},{"bike_id":"673ef30a-376b-4838-a923-9d17948f03ef","system_id":"levelo_inurba_marseille","lat":43.295292,"lon":5.385412,"is_reserved":false,"is_disabled":false,"rental_uris":{"android":"levelo://app?vid=673ef30a-376b-4838-a923-9d17948f03ef","ios":"levelo://app?vid=673ef30a-376b-4838-a923-9d17948f03ef"},"vehicle_type_id":"4","last_reported":1756235238,"current_range_meters":12400,"station_id":"ce4bgih2rcd13ifvqba0","pricing_plan_id":"cebpf4jnsgd1na2vs0mg"},{"bike_id":"36560532-3512-4cb9-9a14-c2d1de40c0c4","system_id":"levelo_inurba_marseille","lat":43.29536,"lon":5.38546,"is_reserved":false,"is_disabled":false,"rental_uris":{"android":"levelo://app?vid=36560532-3512-4cb9-9a14-c2d1de40c0c4","ios":"levelo://app?vid=36560532-3512-4cb9-9a14-c2d1de40c0c4"},"vehicle_type_id":"4","last_reported":1756235238,"current_range_meters":12800,"station_id":"ce4bgih2rcd13ifvqba0","pricing_plan_id":"cebpf4jnsgd1na2vs0mg"},{"bike_id":"f4dd0c7f-6bef-46e8-8076-3a08a7a2f41d","system_id":"levelo_inurba_marseille","lat":43.3064,"lon":5.40105,"is_reserved":false,"is_disabled":false,"rental_uris":{"android":"levelo://app?vid=f4dd0c7f-6bef-46e8-8076-3a08a7a2f41d","ios":"levelo://app?vid=f4dd0c7f-6bef-46e8-8076-3a08a7a2f41d"},"vehicle_type_id":"4","last_reported":1756235238,"current_range_meters":12800,"station_id":"ce4bh112rcd13ifvqda0","pricing_plan_id":"cebpf4jnsgd1na2vs0mg"},{"bike_id":"16c8d0ce-c425-4d22-bb2c-c97ce2c1dba6","system_id":"levelo_inurba_marseille","lat":43.28926,"lon":5.38394,"is_reserved":false,"is_disabled":false,"rental_uris":{"android":"levelo://app?vid=16c8d0ce-c425-4d22-bb2c-c97ce2c1dba6","ios":"levelo://app?vid=16c8d0ce-c425-4d22-bb2c-c97ce2c1dba6"},"vehicle_type_id":"4","last_reported":1756235238,"current_range_meters":12800,"station_id":"ce4bh612rcd13ifvqe6g","pricing_plan_id":"cebpf4jnsgd1na2vs0mg"},{"bike_id":"a15a1c44-718b-407d-acaa-0383628c87d7","system_id":"levelo_inurba_marseille","lat":43.32689,"lon":5.39219,"is_reserved":false,"is_disabled":false,"rental_uris":{"android":"levelo://app?vid=a15a1c44-718b-407d-acaa-0383628c87d7","ios":"levelo://app?vid=a15a1c44-718b-407d-acaa-0383628c87d7"},"vehicle_type_id":"4","last_reported":1756235238,"current_range_meters":12800,"station_id":"","pricing_plan_id":"cebpf4jnsgd1na2vs0mg"},{"bike_id":"4ecc59ad-bab1-45bf-834b-f0fb757b9301","system_id":"levelo_inurba_marseille","lat":43.31322,"lon":5.3969,"is_reserved":false,"is_disabled":false,"rental_uris":{"android":"levelo://app?vid=4ecc59ad-bab1-45bf-834b-f0fb757b9301","ios":"levelo://app?vid=4ecc59ad-bab1-45bf-834b-f0fb757b9301"},"vehicle_type_id":"4","last_reported":1756235238,"current_range_meters":12800,"station_id":"ce4bgvp2rcd13ifvqcu0","pricing_plan_id":"cebpf4jnsgd1na2vs0mg"},{"bike_id":"10b2b1b0-969e-439f-8244-0bfd1c824423","system_id":"levelo_inurba_marseille","lat":43.29539,"lon":5.39024,"is_reserved":false,"is_disabled":false,"rental_uris":{"android":"levelo://app?vid=10b2b1b0-969e-439f-8244-0bfd1c824423","ios":"levelo://app?vid=10b2b1b0-969e-439f-8244-0bfd1c824423"},"vehicle_type_id":"4","last_reported":1756235238,"current_range_meters":12800,"station_id":"ce4bh3p2rcd13ifvqdp0","pricing_plan_id":"cebpf4jnsgd1na2vs0mg"},{"bike_id":"ad3928ba-4613-4913-818d-ac86afecf4c4","system_id":"levelo_inurba_marseille","lat":43.29536,"lon":5.38547,"is_reserved":false,"is_disabled":false,"rental_uris":{"android":"levelo://app?vid=ad3928ba-4613-4913-818d-ac86afecf4c4","ios":"levelo://app?vid=ad3928ba-4613-4913-818d-ac86afecf4c4"},"vehicle_type_id":"4","last_reported":1756235238,"current_range_meters":12800,"station_id":"ce4bgih2rcd13ifvqba0","pricing_plan_id":"cebpf4jnsgd1na2vs0mg"},{"bike_id":"5f9365e2-60dc-4158-a2c3-0e40911a7a32","system_id":"levelo_inurba_marseille","lat":43.33411,"lon":5.40051,"is_reserved":false,"is_disabled":false,"rental_uris":{"android":"levelo://app?vid=5f9365e2-60dc-4158-a2c3-0e40911a7a32","ios":"levelo://app?vid=5f9365e2-60dc-4158-a2c3-0e40911a7a32"},"vehicle_type_id":"4","last_reported":1756235238,"current_range_meters":12800,"station_id":"","pricing_plan_id":"cebpf4jnsgd1na2vs0mg"},{"bike_id":"fb42d2bf-598b-4da6-bec9-0239259e2ed6","system_id":"levelo_inurba_marseille","lat":43.29871,"lon":5.38904,"is_reserved":false,"is_disabled":false,"rental_uris":{"android":"levelo://app?vid=fb42d2bf-598b-4da6-bec9-0239259e2ed6","ios":"levelo://app?vid=fb42d2bf-598b-4da6-bec9-0239259e2ed6"},"vehicle_type_id":"4","last_reported":1756235238,"current_range_meters":12800,"station_id":"ce4bh392rcd13ifvqdl0","pricing_plan_id":"cebpf4jnsgd1na2vs0mg"},{"bike_id":"89bb2efc-5c45-48e0-b659-b8ecb63211d5","system_id":"levelo_inurba_marseille","lat":43.297905,"lon":5.393374,"is_reserved":false,"is_disabled":false,"rental_uris":{"android":"levelo://app?vid=89bb2efc-5c45-48e0-b659-b8ecb63211d5","ios":"levelo://app?vid=89bb2efc-5c45-48e0-b659-b8ecb63211d5"},"vehicle_type_id":"4","last_reported":1756235238,"current_range_meters":13600,"station_id":"chh1huq6cuj3fo74tm60","pricing_plan_id":"cebpf4jnsgd1na2vs0mg"},{"bike_id":"8ad69d7f-6d52-4611-bf92-39c173b24a99","system_id":"levelo_inurba_marseille","lat":43.29274,"lon":5.36837,"is_reserved":false,"is_disabled":false,"rental_uris":{"android":"levelo://app?vid=8ad69d7f-6d52-4611-bf92-39c173b24a99","ios":"levelo://app?vid=8ad69d7f-6d52-4611-bf92-39c173b24a99"},"vehicle_type_id":"4","last_reported":1756235238,"current_range_meters":13600,"station_id":"ce4bhbp2rcd13ifvqesg","pricing_plan_id":"cebpf4jnsgd1na2vs0mg"},{"bike_id":"b4d6c33d-a0bf-42a3-9ab7-0db80b72b559","system_id":"levelo_inurba_marseille","lat":43.28934,"lon":5.36645,"is_reserved":false,"is_disabled":true,"rental_uris":{"android":"levelo://app?vid=b4d6c33d-a0bf-42a3-9ab7-0db80b72b559","ios":"levelo://app?vid=b4d6c33d-a0bf-42a3-9ab7-0db80b72b559"},"vehicle_type_id":"4","last_reported":1756235238,"current_range_meters":13600,"station_id":"ce4bhap2rcd13ifvqek0","pricing_plan_id":"cebpf4jnsgd1na2vs0mg"},{"bike_id":"1027bb83-a668-47de-9094-84302cb909d4","system_id":"levelo_inurba_marseille","lat":43.21195,"lon":5.35081,"is_reserved":false,"is_disabled":false,"rental_uris":{"android":"levelo://app?vid=1027bb83-a668-47de-9094-84302cb909d4","ios":"levelo://app?vid=1027bb83-a668-47de-9094-84302cb909d4"},"vehicle_type_id":"4","last_reported":1756235238,"current_range_meters":13600,"station_id":"st_cvj6sg6p6f1abm77japg","pricing_plan_id":"cebpf4jnsgd1na2vs0mg"},{"bike_id":"0e256118-fe33-4307-b7cb-16c76027513c","system_id":"levelo_inurba_marseille","lat":43.24072,"lon":5.37771,"is_reserved":false,"is_disabled":false,"rental_uris":{"android":"levelo://app?vid=0e256118-fe33-4307-b7cb-16c76027513c","ios":"levelo://app?vid=0e256118-fe33-4307-b7cb-16c76027513c"},"vehicle_type_id":"4","last_reported":1756235238,"current_range_meters":13600,"station_id":"ce4bhnp2rcd13ifvqgvg","pricing_plan_id":"cebpf4jnsgd1na2vs0mg"},{"bike_id":"9041f4fb-fb38-43a3-b139-d8937464112e","system_id":"levelo_inurba_marseille","lat":43.29537,"lon":5.38536,"is_reserved":false,"is_disabled":false,"rental_uris":{"android":"levelo://app?vid=9041f4fb-fb38-43a3-b139-d8937464112e","ios":"levelo://app?vid=9041f4fb-fb38-43a3-b139-d8937464112e"},"vehicle_type_id":"4","last_reported":1756235238,"current_range_meters":13600,"station_id":"ce4bgih2rcd13ifvqba0","pricing_plan_id":"cebpf4jnsgd1na2vs0mg"},{"bike_id":"5ebfc32c-3ff0-440a-97ee-1c808332e074","system_id":"levelo_inurba_marseille","lat":43.25006,"lon":5.389113,"is_reserved":false,"is_disabled":false,"rental_uris":{"android":"levelo://app?vid=5ebfc32c-3ff0-440a-97ee-1c808332e074","ios":"levelo://app?vid=5ebfc32c-3ff0-440a-97ee-1c808332e074"},"vehicle_type_id":"4","last_reported":1756235238,"current_range_meters":13600,"station_id":"","pricing_plan_id":"cebpf4jnsgd1na2vs0mg"},{"bike_id":"52216f93-83bb-4cd4-934a-0745ffd130c3","system_id":"levelo_inurba_marseille","lat":43.292704,"lon":5.38425,"is_reserved":false,"is_disabled":false,"rental_uris":{"android":"levelo://app?vid=52216f93-83bb-4cd4-934a-0745ffd130c3","ios":"levelo://app?vid=52216f93-83bb-4cd4-934a-0745ffd130c3"},"vehicle_type_id":"4","last_reported":1756235238,"current_range_meters":13600,"station_id":"","pricing_plan_id":"cebpf4jnsgd1na2vs0mg"},{"bike_id":"4e330b1f-161c-4651-9fd6-20401a194c71","system_id":"levelo_inurba_marseille","lat":43.24083,"lon":5.37754,"is_reserved":false,"is_disabled":false,"rental_uris":{"android":"levelo://app?vid=4e330b1f-161c-4651-9fd6-20401a194c71","ios":"levelo://app?vid=4e330b1f-161c-4651-9fd6-20401a194c71"},"vehicle_type_id":"4","last_reported":1756235238,"current_range_meters":13600,"station_id":"ce4bhnp2rcd13ifvqgvg","pricing_plan_id":"cebpf4jnsgd1na2vs0mg"},{"bike_id":"1d7023ef-959e-48df-b075-0a4bd90cc9ae","system_id":"levelo_inurba_marseille","lat":43.27365,"lon":5.36253,"is_reserved":false,"is_disabled":true,"rental_uris":{"android":"levelo://app?vid=1d7023ef-959e-48df-b075-0a4bd90cc9ae","ios":"levelo://app?vid=1d7023ef-959e-48df-b075-0a4bd90cc9ae"},"vehicle_type_id":"4","last_reported":1756235238,"current_range_meters":14000,"station_id":"ce4bhbh2rcd13ifvqeo0","pricing_plan_id":"cebpf4jnsgd1na2vs0mg"},{"bike_id":"a9c8448e-6218-4e69-a780-11bdb66755b5","system_id":"levelo_inurba_marseille","lat":43.28401,"lon":5.3753,"is_reserved":false,"is_disabled":false,"rental_uris":{"android":"levelo://app?vid=a9c8448e-6218-4e69-a780-11bdb66755b5","ios":"levelo://app?vid=a9c8448e-6218-4e69-a780-11bdb66755b5"},"vehicle_type_id":"4","last_reported":1756235238,"current_range_meters":14000,"station_id":"ce4bh412rcd13ifvqds0","pricing_plan_id":"cebpf4jnsgd1na2vs0mg"},{"bike_id":"7354d48f-9439-46df-94c7-a1c327ad0fff","system_id":"levelo_inurba_marseille","lat":43.28399,"lon":5.37511,"is_reserved":false,"is_disabled":false,"rental_uris":{"android":"levelo://app?vid=7354d48f-9439-46df-94c7-a1c327ad0fff","ios":"levelo://app?vid=7354d48f-9439-46df-94c7-a1c327ad0fff"},"vehicle_type_id":"4","last_reported":1756235238,"current_range_meters":14000,"station_id":"ce4bh412rcd13ifvqds0","pricing_plan_id":"cebpf4jnsgd1na2vs0mg"},{"bike_id":"f2135cb1-3383-46bd-90d4-d827b77a416c","system_id":"levelo_inurba_marseille","lat":43.29538,"lon":5.38544,"is_reserved":false,"is_disabled":false,"rental_uris":{"android":"levelo://app?vid=f2135cb1-3383-46bd-90d4-d827b77a416c","ios":"levelo://app?vid=f2135cb1-3383-46bd-90d4-d827b77a416c"},"vehicle_type_id":"4","last_reported":1756235238,"current_range_meters":14000,"station_id":"ce4bgih2rcd13ifvqba0","pricing_plan_id":"cebpf4jnsgd1na2vs0mg"},{"bike_id":"e7d2019d-3d17-46e1-9537-ba029e8d99db","system_id":"levelo_inurba_marseille","lat":43.294386,"lon":5.397582,"is_reserved":false,"is_disabled":false,"rental_uris":{"android":"levelo://app?vid=e7d2019d-3d17-46e1-9537-ba029e8d99db","ios":"levelo://app?vid=e7d2019d-3d17-46e1-9537-ba029e8d99db"},"vehicle_type_id":"4","last_reported":1756235238,"current_range_meters":14000,"station_id":"ce4bh3h2rcd13ifvqdo0","pricing_plan_id":"cebpf4jnsgd1na2vs0mg"},{"bike_id":"dbc6608d-4a3e-4611-be9a-d97855704cb5","system_id":"levelo_inurba_marseille","lat":43.30245,"lon":5.40064,"is_reserved":false,"is_disabled":false,"rental_uris":{"android":"levelo://app?vid=dbc6608d-4a3e-4611-be9a-d97855704cb5","ios":"levelo://app?vid=dbc6608d-4a3e-4611-be9a-d97855704cb5"},"vehicle_type_id":"4","last_reported":1756235238,"current_range_meters":14000,"station_id":"ce4bgvh2rcd13ifvqcs0","pricing_plan_id":"cebpf4jnsgd1na2vs0mg"},{"bike_id":"58913844-e85b-46aa-a846-7d0220bf2763","system_id":"levelo_inurba_marseille","lat":43.2926,"lon":5.3846,"is_reserved":false,"is_disabled":false,"rental_uris":{"android":"levelo://app?vid=58913844-e85b-46aa-a846-7d0220bf2763","ios":"levelo://app?vid=58913844-e85b-46aa-a846-7d0220bf2763"},"vehicle_type_id":"4","last_reported":1756235238,"current_range_meters":14400,"station_id":"ce4bh692rcd13ifvqea0","pricing_plan_id":"cebpf4jnsgd1na2vs0mg"},{"bike_id":"e44bc05c-e6c3-432c-9d71-fd17a85f949c","system_id":"levelo_inurba_marseille","lat":43.2919,"lon":5.39309,"is_reserved":false,"is_disabled":false,"rental_uris":{"android":"levelo://app?vid=e44bc05c-e6c3-432c-9d71-fd17a85f949c","ios":"levelo://app?vid=e44bc05c-e6c3-432c-9d71-fd17a85f949c"},"vehicle_type_id":"4","last_reported":1756235238,"current_range_meters":14400,"station_id":"ce4bh192rcd13ifvqdd0","pricing_plan_id":"cebpf4jnsgd1na2vs0mg"},{"bike_id":"5dc1a80a-519b-4fa5-afdc-2e25d8ba5aea","system_id":"levelo_inurba_marseille","lat":43.2902,"lon":5.38649,"is_reserved":false,"is_disabled":false,"rental_uris":{"android":"levelo://app?vid=5dc1a80a-519b-4fa5-afdc-2e25d8ba5aea","ios":"levelo://app?vid=5dc1a80a-519b-4fa5-afdc-2e25d8ba5aea"},"vehicle_type_id":"4","last_reported":1756235238,"current_range_meters":14400,"station_id":"ce4bh4p2rcd13ifvqe0g","pricing_plan_id":"cebpf4jnsgd1na2vs0mg"},{"bike_id":"0462d62f-e8c6-45bc-bfd6-f552d3045867","system_id":"levelo_inurba_marseille","lat":43.29268,"lon":5.38436,"is_reserved":false,"is_disabled":false,"rental_uris":{"android":"levelo://app?vid=0462d62f-e8c6-45bc-bfd6-f552d3045867","ios":"levelo://app?vid=0462d62f-e8c6-45bc-bfd6-f552d3045867"},"vehicle_type_id":"4","last_reported":1756235238,"current_range_meters":14400,"station_id":"ce4bh692rcd13ifvqea0","pricing_plan_id":"cebpf4jnsgd1na2vs0mg"},{"bike_id":"66cbe913-3a43-4576-9c26-e827b3161caa","system_id":"levelo_inurba_marseille","lat":43.2993,"lon":5.36494,"is_reserved":false,"is_disabled":false,"rental_uris":{"android":"levelo://app?vid=66cbe913-3a43-4576-9c26-e827b3161caa","ios":"levelo://app?vid=66cbe913-3a43-4576-9c26-e827b3161caa"},"vehicle_type_id":"4","last_reported":1756235238,"current_range_meters":14400,"station_id":"","pricing_plan_id":"cebpf4jnsgd1na2vs0mg"},{"bike_id":"f57e5b53-c2d1-41ce-a2c2-40b0c0c79c6d","system_id":"levelo_inurba_marseille","lat":43.29798,"lon":5.38093,"is_reserved":false,"is_disabled":false,"rental_uris":{"android":"levelo://app?vid=f57e5b53-c2d1-41ce-a2c2-40b0c0c79c6d","ios":"levelo://app?vid=f57e5b53-c2d1-41ce-a2c2-40b0c0c79c6d"},"vehicle_type_id":"4","last_reported":1756235238,"current_range_meters":14400,"station_id":"ce4bgip2rcd13ifvqbb0","pricing_plan_id":"cebpf4jnsgd1na2vs0mg"},{"bike_id":"22ab1208-c6f7-4b7f-b55d-758b70d286ac","system_id":"levelo_inurba_marseille","lat":43.27989,"lon":5.41668,"is_reserved":false,"is_disabled":false,"rental_uris":{"android":"levelo://app?vid=22ab1208-c6f7-4b7f-b55d-758b70d286ac","ios":"levelo://app?vid=22ab1208-c6f7-4b7f-b55d-758b70d286ac"},"vehicle_type_id":"4","last_reported":1756235238,"current_range_meters":14400,"station_id":"ce4bho12rcd13ifvqh1g","pricing_plan_id":"cebpf4jnsgd1na2vs0mg"},{"bike_id":"6c86f037-9a48-485c-a0d2-682abce6de9a","system_id":"levelo_inurba_marseille","lat":43.29297,"lon":5.37465,"is_reserved":false,"is_disabled":false,"rental_uris":{"android":"levelo://app?vid=6c86f037-9a48-485c-a0d2-682abce6de9a","ios":"levelo://app?vid=6c86f037-9a48-485c-a0d2-682abce6de9a"},"vehicle_type_id":"4","last_reported":1756235238,"current_range_meters":14400,"station_id":"ce4bgi12rcd13ifvqb70","pricing_plan_id":"cebpf4jnsgd1na2vs0mg"},{"bike_id":"db7d3d83-f39a-4469-8445-29697e69fec4","system_id":"levelo_inurba_marseille","lat":43.3303,"lon":5.39222,"is_reserved":false,"is_disabled":false,"rental_uris":{"android":"levelo://app?vid=db7d3d83-f39a-4469-8445-29697e69fec4","ios":"levelo://app?vid=db7d3d83-f39a-4469-8445-29697e69fec4"},"vehicle_type_id":"4","last_reported":1756235238,"current_range_meters":14400,"station_id":"","pricing_plan_id":"cebpf4jnsgd1na2vs0mg"},{"bike_id":"c1ef83eb-fc56-4b6f-835c-b65bf31c932d","system_id":"levelo_inurba_marseille","lat":43.3266,"lon":5.40991,"is_reserved":false,"is_disabled":false,"rental_uris":{"android":"levelo://app?vid=c1ef83eb-fc56-4b6f-835c-b65bf31c932d","ios":"levelo://app?vid=c1ef83eb-fc56-4b6f-835c-b65bf31c932d"},"vehicle_type_id":"4","last_reported":1756235238,"current_range_meters":14800,"station_id":"ce4bhpp2rcd13ifvqhgg","pricing_plan_id":"cebpf4jnsgd1na2vs0mg"},{"bike_id":"826f9c0a-980b-43d8-bf4c-e43d77c221ed","system_id":"levelo_inurba_marseille","lat":43.23172,"lon":5.40001,"is_reserved":false,"is_disabled":false,"rental_uris":{"android":"levelo://app?vid=826f9c0a-980b-43d8-bf4c-e43d77c221ed","ios":"levelo://app?vid=826f9c0a-980b-43d8-bf4c-e43d77c221ed"},"vehicle_type_id":"4","last_reported":1756235238,"current_range_meters":14800,"station_id":"ce4bhn12rcd13ifvqgqg","pricing_plan_id":"cebpf4jnsgd1na2vs0mg"},{"bike_id":"f0400c37-c7f6-4929-b1ac-d92430ff6f2d","system_id":"levelo_inurba_marseille","lat":43.275667,"lon":5.396766,"is_reserved":false,"is_disabled":false,"rental_uris":{"android":"levelo://app?vid=f0400c37-c7f6-4929-b1ac-d92430ff6f2d","ios":"levelo://app?vid=f0400c37-c7f6-4929-b1ac-d92430ff6f2d"},"vehicle_type_id":"4","last_reported":1756235238,"current_range_meters":14800,"station_id":"","pricing_plan_id":"cebpf4jnsgd1na2vs0mg"},{"bike_id":"5bce688b-fc81-4596-8277-b66f54be87c1","system_id":"levelo_inurba_marseille","lat":43.33768,"lon":5.37438,"is_reserved":false,"is_disabled":false,"rental_uris":{"android":"levelo://app?vid=5bce688b-fc81-4596-8277-b66f54be87c1","ios":"levelo://app?vid=5bce688b-fc81-4596-8277-b66f54be87c1"},"vehicle_type_id":"4","last_reported":1756235238,"current_range_meters":14800,"station_id":"","pricing_plan_id":"cebpf4jnsgd1na2vs0mg"},{"bike_id":"cd5f5dc3-8366-4b0c-a73e-2e0775b42f9e","system_id":"levelo_inurba_marseille","lat":43.29261,"lon":5.36833,"is_reserved":false,"is_disabled":true,"rental_uris":{"android":"levelo://app?vid=cd5f5dc3-8366-4b0c-a73e-2e0775b42f9e","ios":"levelo://app?vid=cd5f5dc3-8366-4b0c-a73e-2e0775b42f9e"},"vehicle_type_id":"4","last_reported":1756235238,"current_range_meters":14800,"station_id":"ce4bhbp2rcd13ifvqesg","pricing_plan_id":"cebpf4jnsgd1na2vs0mg"},{"bike_id":"35293f9d-ecc5-4090-ae0e-2e4ab9a73a16","system_id":"levelo_inurba_marseille","lat":43.32332,"lon":5.36589,"is_reserved":false,"is_disabled":false,"rental_uris":{"android":"levelo://app?vid=35293f9d-ecc5-4090-ae0e-2e4ab9a73a16","ios":"levelo://app?vid=35293f9d-ecc5-4090-ae0e-2e4ab9a73a16"},"vehicle_type_id":"4","last_reported":1756235238,"current_range_meters":14800,"station_id":"ce4bhsh2rcd13ifvqi2g","pricing_plan_id":"cebpf4jnsgd1na2vs0mg"},{"bike_id":"951fe6e8-7555-4ca8-a9db-3e93c5d70096","system_id":"levelo_inurba_marseille","lat":43.28924,"lon":5.38396,"is_reserved":false,"is_disabled":false,"rental_uris":{"android":"levelo://app?vid=951fe6e8-7555-4ca8-a9db-3e93c5d70096","ios":"levelo://app?vid=951fe6e8-7555-4ca8-a9db-3e93c5d70096"},"vehicle_type_id":"4","last_reported":1756235238,"current_range_meters":14800,"station_id":"ce4bh612rcd13ifvqe6g","pricing_plan_id":"cebpf4jnsgd1na2vs0mg"},{"bike_id":"777a8c83-aed8-4881-84b6-34465956e738","system_id":"levelo_inurba_marseille","lat":43.25748,"lon":5.41008,"is_reserved":false,"is_disabled":false,"rental_uris":{"android":"levelo://app?vid=777a8c83-aed8-4881-84b6-34465956e738","ios":"levelo://app?vid=777a8c83-aed8-4881-84b6-34465956e738"},"vehicle_type_id":"4","last_reported":1756235238,"current_range_meters":14800,"station_id":"","pricing_plan_id":"cebpf4jnsgd1na2vs0mg"},{"bike_id":"af732ca8-2cea-448a-9928-59e03d12656f","system_id":"levelo_inurba_marseille","lat":43.33483,"lon":5.36002,"is_reserved":false,"is_disabled":false,"rental_uris":{"android":"levelo://app?vid=af732ca8-2cea-448a-9928-59e03d12656f","ios":"levelo://app?vid=af732ca8-2cea-448a-9928-59e03d12656f"},"vehicle_type_id":"4","last_reported":1756235238,"current_range_meters":14800,"station_id":"","pricing_plan_id":"cebpf4jnsgd1na2vs0mg"},{"bike_id":"3507e54b-a707-4be7-bf5f-278950a99b3b","system_id":"levelo_inurba_marseille","lat":43.30884,"lon":5.37204,"is_reserved":false,"is_disabled":false,"rental_uris":{"android":"levelo://app?vid=3507e54b-a707-4be7-bf5f-278950a99b3b","ios":"levelo://app?vid=3507e54b-a707-4be7-bf5f-278950a99b3b"},"vehicle_type_id":"4","last_reported":1756235238,"current_range_meters":14800,"station_id":"ce4bguh2rcd13ifvqckg","pricing_plan_id":"cebpf4jnsgd1na2vs0mg"},{"bike_id":"af744081-2681-4d1e-9525-a9843cca33d2","system_id":"levelo_inurba_marseille","lat":43.32522,"lon":5.36458,"is_reserved":false,"is_disabled":false,"rental_uris":{"android":"levelo://app?vid=af744081-2681-4d1e-9525-a9843cca33d2","ios":"levelo://app?vid=af744081-2681-4d1e-9525-a9843cca33d2"},"vehicle_type_id":"4","last_reported":1756235238,"current_range_meters":14800,"station_id":"","pricing_plan_id":"cebpf4jnsgd1na2vs0mg"},{"bike_id":"c14f8a0c-70db-483c-b971-cf6a31e067b3","system_id":"levelo_inurba_marseille","lat":43.23178,"lon":5.39991,"is_reserved":false,"is_disabled":false,"rental_uris":{"android":"levelo://app?vid=c14f8a0c-70db-483c-b971-cf6a31e067b3","ios":"levelo://app?vid=c14f8a0c-70db-483c-b971-cf6a31e067b3"},"vehicle_type_id":"4","last_reported":1756235238,"current_range_meters":15200,"station_id":"ce4bhn12rcd13ifvqgqg","pricing_plan_id":"cebpf4jnsgd1na2vs0mg"},{"bike_id":"503cade9-51c1-4e76-b53f-3ba4bc1efb57","system_id":"levelo_inurba_marseille","lat":43.26575,"lon":5.39007,"is_reserved":false,"is_disabled":false,"rental_uris":{"android":"levelo://app?vid=503cade9-51c1-4e76-b53f-3ba4bc1efb57","ios":"levelo://app?vid=503cade9-51c1-4e76-b53f-3ba4bc1efb57"},"vehicle_type_id":"4","last_reported":1756235238,"current_range_meters":15200,"station_id":"ce4bhe12rcd13ifvqf30","pricing_plan_id":"cebpf4jnsgd1na2vs0mg"},{"bike_id":"8e5f4248-f0bf-472e-ac1a-cf7f7b2e557e","system_id":"levelo_inurba_marseille","lat":43.29035,"lon":5.39967,"is_reserved":false,"is_disabled":false,"rental_uris":{"android":"levelo://app?vid=8e5f4248-f0bf-472e-ac1a-cf7f7b2e557e","ios":"levelo://app?vid=8e5f4248-f0bf-472e-ac1a-cf7f7b2e557e"},"vehicle_type_id":"4","last_reported":1756235238,"current_range_meters":15200,"station_id":"ce4bh392rcd13ifvqdm0","pricing_plan_id":"cebpf4jnsgd1na2vs0mg"},{"bike_id":"c490c20f-9649-4bae-b440-227d4db4017a","system_id":"levelo_inurba_marseille","lat":43.29874,"lon":5.38907,"is_reserved":false,"is_disabled":false,"rental_uris":{"android":"levelo://app?vid=c490c20f-9649-4bae-b440-227d4db4017a","ios":"levelo://app?vid=c490c20f-9649-4bae-b440-227d4db4017a"},"vehicle_type_id":"4","last_reported":1756235238,"current_range_meters":16000,"station_id":"ce4bh392rcd13ifvqdl0","pricing_plan_id":"cebpf4jnsgd1na2vs0mg"},{"bike_id":"e6e2bd99-6269-4edc-a7ae-ba07743b08ee","system_id":"levelo_inurba_marseille","lat":43.24646,"lon":5.38896,"is_reserved":false,"is_disabled":false,"rental_uris":{"android":"levelo://app?vid=e6e2bd99-6269-4edc-a7ae-ba07743b08ee","ios":"levelo://app?vid=e6e2bd99-6269-4edc-a7ae-ba07743b08ee"},"vehicle_type_id":"4","last_reported":1756235238,"current_range_meters":16000,"station_id":"ce4bhg12rcd13ifvqf60","pricing_plan_id":"cebpf4jnsgd1na2vs0mg"},{"bike_id":"834a3fa2-f8ce-44bd-8af4-0818d3b8da3c","system_id":"levelo_inurba_marseille","lat":43.29277,"lon":5.36836,"is_reserved":false,"is_disabled":false,"rental_uris":{"android":"levelo://app?vid=834a3fa2-f8ce-44bd-8af4-0818d3b8da3c","ios":"levelo://app?vid=834a3fa2-f8ce-44bd-8af4-0818d3b8da3c"},"vehicle_type_id":"4","last_reported":1756235238,"current_range_meters":16000,"station_id":"ce4bhbp2rcd13ifvqesg","pricing_plan_id":"cebpf4jnsgd1na2vs0mg"},{"bike_id":"444185a1-99b2-4724-a588-1f691746c053","system_id":"levelo_inurba_marseille","lat":43.27051,"lon":5.42318,"is_reserved":false,"is_disabled":false,"rental_uris":{"android":"levelo://app?vid=444185a1-99b2-4724-a588-1f691746c053","ios":"levelo://app?vid=444185a1-99b2-4724-a588-1f691746c053"},"vehicle_type_id":"4","last_reported":1756235238,"current_range_meters":16000,"station_id":"ce4bhk92rcd13ifvqgb0","pricing_plan_id":"cebpf4jnsgd1na2vs0mg"},{"bike_id":"4429d0f7-ca92-4b25-b8a7-203ea633dea9","system_id":"levelo_inurba_marseille","lat":43.30586,"lon":5.39357,"is_reserved":false,"is_disabled":false,"rental_uris":{"android":"levelo://app?vid=4429d0f7-ca92-4b25-b8a7-203ea633dea9","ios":"levelo://app?vid=4429d0f7-ca92-4b25-b8a7-203ea633dea9"},"vehicle_type_id":"4","last_reported":1756235238,"current_range_meters":16000,"station_id":"ce4bh0p2rcd13ifvqd80","pricing_plan_id":"cebpf4jnsgd1na2vs0mg"},{"bike_id":"667ad746-dcf0-4109-9010-2e2926a43733","system_id":"levelo_inurba_marseille","lat":43.28377,"lon":5.38631,"is_reserved":false,"is_disabled":false,"rental_uris":{"android":"levelo://app?vid=667ad746-dcf0-4109-9010-2e2926a43733","ios":"levelo://app?vid=667ad746-dcf0-4109-9010-2e2926a43733"},"vehicle_type_id":"4","last_reported":1756235238,"current_range_meters":16000,"station_id":"ce4bh492rcd13ifvqdvg","pricing_plan_id":"cebpf4jnsgd1na2vs0mg"},{"bike_id":"e6650f35-9f5d-43b3-801d-ac0604794b12","system_id":"levelo_inurba_marseille","lat":43.2926,"lon":5.38436,"is_reserved":false,"is_disabled":false,"rental_uris":{"android":"levelo://app?vid=e6650f35-9f5d-43b3-801d-ac0604794b12","ios":"levelo://app?vid=e6650f35-9f5d-43b3-801d-ac0604794b12"},"vehicle_type_id":"4","last_reported":1756235238,"current_range_meters":16000,"station_id":"ce4bh692rcd13ifvqea0","pricing_plan_id":"cebpf4jnsgd1na2vs0mg"},{"bike_id":"27f7f4ff-1f1f-43f1-a81e-ff0199a6b211","system_id":"levelo_inurba_marseille","lat":43.26208,"lon":5.37442,"is_reserved":false,"is_disabled":false,"rental_uris":{"android":"levelo://app?vid=27f7f4ff-1f1f-43f1-a81e-ff0199a6b211","ios":"levelo://app?vid=27f7f4ff-1f1f-43f1-a81e-ff0199a6b211"},"vehicle_type_id":"4","last_reported":1756235238,"current_range_meters":16000,"station_id":"ce4bhgp2rcd13ifvqfc0","pricing_plan_id":"cebpf4jnsgd1na2vs0mg"},{"bike_id":"b60c1718-d2ab-4aea-9232-6bbbadba5350","system_id":"levelo_inurba_marseille","lat":43.29268,"lon":5.36852,"is_reserved":false,"is_disabled":false,"rental_uris":{"android":"levelo://app?vid=b60c1718-d2ab-4aea-9232-6bbbadba5350","ios":"levelo://app?vid=b60c1718-d2ab-4aea-9232-6bbbadba5350"},"vehicle_type_id":"4","last_reported":1756235238,"current_range_meters":16000,"station_id":"ce4bhbp2rcd13ifvqesg","pricing_plan_id":"cebpf4jnsgd1na2vs0mg"},{"bike_id":"e30b0eb1-81b8-4708-98b4-71580ae204b8","system_id":"levelo_inurba_marseille","lat":43.28102,"lon":5.37835,"is_reserved":false,"is_disabled":false,"rental_uris":{"android":"levelo://app?vid=e30b0eb1-81b8-4708-98b4-71580ae204b8","ios":"levelo://app?vid=e30b0eb1-81b8-4708-98b4-71580ae204b8"},"vehicle_type_id":"4","last_reported":1756235238,"current_range_meters":16000,"station_id":"ce4bha12rcd13ifvqee0","pricing_plan_id":"cebpf4jnsgd1na2vs0mg"},{"bike_id":"b79f626f-4cce-45e0-9b7e-79f3f3a6033f","system_id":"levelo_inurba_marseille","lat":43.24623,"lon":5.43141,"is_reserved":false,"is_disabled":false,"rental_uris":{"android":"levelo://app?vid=b79f626f-4cce-45e0-9b7e-79f3f3a6033f","ios":"levelo://app?vid=b79f626f-4cce-45e0-9b7e-79f3f3a6033f"},"vehicle_type_id":"4","last_reported":1756235238,"current_range_meters":16400,"station_id":"st_d2m6c4gdas8pm72e190g","pricing_plan_id":"cebpf4jnsgd1na2vs0mg"},{"bike_id":"fbf0e9b4-0244-4455-89e8-bb336b1646cf","system_id":"levelo_inurba_marseille","lat":43.23188,"lon":5.39985,"is_reserved":false,"is_disabled":false,"rental_uris":{"android":"levelo://app?vid=fbf0e9b4-0244-4455-89e8-bb336b1646cf","ios":"levelo://app?vid=fbf0e9b4-0244-4455-89e8-bb336b1646cf"},"vehicle_type_id":"4","last_reported":1756235238,"current_range_meters":16400,"station_id":"ce4bhn12rcd13ifvqgqg","pricing_plan_id":"cebpf4jnsgd1na2vs0mg"},{"bike_id":"3408e2c3-6d71-4535-b88e-faabdfd4094f","system_id":"levelo_inurba_marseille","lat":43.29533,"lon":5.38542,"is_reserved":false,"is_disabled":false,"rental_uris":{"android":"levelo://app?vid=3408e2c3-6d71-4535-b88e-faabdfd4094f","ios":"levelo://app?vid=3408e2c3-6d71-4535-b88e-faabdfd4094f"},"vehicle_type_id":"4","last_reported":1756235238,"current_range_meters":16400,"station_id":"ce4bgih2rcd13ifvqba0","pricing_plan_id":"cebpf4jnsgd1na2vs0mg"},{"bike_id":"0aafb655-5184-4bbe-a774-d042ccbee830","system_id":"levelo_inurba_marseille","lat":43.29535,"lon":5.3854,"is_reserved":false,"is_disabled":false,"rental_uris":{"android":"levelo://app?vid=0aafb655-5184-4bbe-a774-d042ccbee830","ios":"levelo://app?vid=0aafb655-5184-4bbe-a774-d042ccbee830"},"vehicle_type_id":"4","last_reported":1756235238,"current_range_meters":16400,"station_id":"ce4bgih2rcd13ifvqba0","pricing_plan_id":"cebpf4jnsgd1na2vs0mg"},{"bike_id":"80f3d5ae-2129-481d-8519-a35a40bdb90f","system_id":"levelo_inurba_marseille","lat":43.29534,"lon":5.38537,"is_reserved":false,"is_disabled":false,"rental_uris":{"android":"levelo://app?vid=80f3d5ae-2129-481d-8519-a35a40bdb90f","ios":"levelo://app?vid=80f3d5ae-2129-481d-8519-a35a40bdb90f"},"vehicle_type_id":"4","last_reported":1756235238,"current_range_meters":16400,"station_id":"ce4bgih2rcd13ifvqba0","pricing_plan_id":"cebpf4jnsgd1na2vs0mg"},{"bike_id":"df295fb6-304d-4bf2-9e52-75c2bb4dc95c","system_id":"levelo_inurba_marseille","lat":43.27949,"lon":5.41041,"is_reserved":false,"is_disabled":false,"rental_uris":{"android":"levelo://app?vid=df295fb6-304d-4bf2-9e52-75c2bb4dc95c","ios":"levelo://app?vid=df295fb6-304d-4bf2-9e52-75c2bb4dc95c"},"vehicle_type_id":"4","last_reported":1756235238,"current_range_meters":16400,"station_id":"ce4bhnp2rcd13ifvqh0g","pricing_plan_id":"cebpf4jnsgd1na2vs0mg"},{"bike_id":"e71745a0-e1dd-46b2-b178-c77ff9f67425","system_id":"levelo_inurba_marseille","lat":43.231854,"lon":5.399797,"is_reserved":false,"is_disabled":false,"rental_uris":{"android":"levelo://app?vid=e71745a0-e1dd-46b2-b178-c77ff9f67425","ios":"levelo://app?vid=e71745a0-e1dd-46b2-b178-c77ff9f67425"},"vehicle_type_id":"4","last_reported":1756235238,"current_range_meters":16400,"station_id":"ce4bhn12rcd13ifvqgqg","pricing_plan_id":"cebpf4jnsgd1na2vs0mg"},{"bike_id":"30035db2-852f-4e39-98b4-ea67a859926d","system_id":"levelo_inurba_marseille","lat":43.30329,"lon":5.40445,"is_reserved":false,"is_disabled":false,"rental_uris":{"android":"levelo://app?vid=30035db2-852f-4e39-98b4-ea67a859926d","ios":"levelo://app?vid=30035db2-852f-4e39-98b4-ea67a859926d"},"vehicle_type_id":"4","last_reported":1756235238,"current_range_meters":16400,"station_id":"ce4bh012rcd13ifvqd10","pricing_plan_id":"cebpf4jnsgd1na2vs0mg"},{"bike_id":"770b1029-d9f0-46ac-a0e4-8be3d2e3a342","system_id":"levelo_inurba_marseille","lat":43.28851,"lon":5.35849,"is_reserved":false,"is_disabled":false,"rental_uris":{"android":"levelo://app?vid=770b1029-d9f0-46ac-a0e4-8be3d2e3a342","ios":"levelo://app?vid=770b1029-d9f0-46ac-a0e4-8be3d2e3a342"},"vehicle_type_id":"4","last_reported":1756235238,"current_range_meters":16400,"station_id":"ce4bhb12rcd13ifvqem0","pricing_plan_id":"cebpf4jnsgd1na2vs0mg"},{"bike_id":"81d84e78-e714-42b1-9873-cbab57f9bd78","system_id":"levelo_inurba_marseille","lat":43.28608,"lon":5.37071,"is_reserved":false,"is_disabled":false,"rental_uris":{"android":"levelo://app?vid=81d84e78-e714-42b1-9873-cbab57f9bd78","ios":"levelo://app?vid=81d84e78-e714-42b1-9873-cbab57f9bd78"},"vehicle_type_id":"4","last_reported":1756235238,"current_range_meters":16400,"station_id":"ce4bht12rcd13ifvqi60","pricing_plan_id":"cebpf4jnsgd1na2vs0mg"},{"bike_id":"7c82c024-a33d-4dc3-830a-574c067cc868","system_id":"levelo_inurba_marseille","lat":43.25108,"lon":5.40323,"is_reserved":false,"is_disabled":false,"rental_uris":{"android":"levelo://app?vid=7c82c024-a33d-4dc3-830a-574c067cc868","ios":"levelo://app?vid=7c82c024-a33d-4dc3-830a-574c067cc868"},"vehicle_type_id":"4","last_reported":1756235238,"current_range_meters":16800,"station_id":"ce4bhlh2rcd13ifvqgig","pricing_plan_id":"cebpf4jnsgd1na2vs0mg"},{"bike_id":"35aa59d1-7ad6-4bb6-a298-49c4de424933","system_id":"levelo_inurba_marseille","lat":43.29601,"lon":5.380986,"is_reserved":false,"is_disabled":false,"rental_uris":{"android":"levelo://app?vid=35aa59d1-7ad6-4bb6-a298-49c4de424933","ios":"levelo://app?vid=35aa59d1-7ad6-4bb6-a298-49c4de424933"},"vehicle_type_id":"4","last_reported":1756235238,"current_range_meters":16800,"station_id":"ce4bh492rcd13ifvqdug","pricing_plan_id":"cebpf4jnsgd1na2vs0mg"},{"bike_id":"a8ee3b60-ba81-4ef8-9982-cb26027c5458","system_id":"levelo_inurba_marseille","lat":43.29309,"lon":5.37165,"is_reserved":false,"is_disabled":false,"rental_uris":{"android":"levelo://app?vid=a8ee3b60-ba81-4ef8-9982-cb26027c5458","ios":"levelo://app?vid=a8ee3b60-ba81-4ef8-9982-cb26027c5458"},"vehicle_type_id":"4","last_reported":1756235238,"current_range_meters":16800,"station_id":"ce4bgh92rcd13ifvqb40","pricing_plan_id":"cebpf4jnsgd1na2vs0mg"},{"bike_id":"2ce481b6-c30c-4801-a166-1d5578c1f5a0","system_id":"levelo_inurba_marseille","lat":43.25818,"lon":5.39434,"is_reserved":false,"is_disabled":false,"rental_uris":{"android":"levelo://app?vid=2ce481b6-c30c-4801-a166-1d5578c1f5a0","ios":"levelo://app?vid=2ce481b6-c30c-4801-a166-1d5578c1f5a0"},"vehicle_type_id":"4","last_reported":1756235238,"current_range_meters":16800,"station_id":"ce4bhip2rcd13ifvqft0","pricing_plan_id":"cebpf4jnsgd1na2vs0mg"},{"bike_id":"98be228c-d798-4e33-94a2-fdf8038518e9","system_id":"levelo_inurba_marseille","lat":43.28704,"lon":5.37935,"is_reserved":false,"is_disabled":false,"rental_uris":{"android":"levelo://app?vid=98be228c-d798-4e33-94a2-fdf8038518e9","ios":"levelo://app?vid=98be228c-d798-4e33-94a2-fdf8038518e9"},"vehicle_type_id":"4","last_reported":1756235238,"current_range_meters":16800,"station_id":"ce4bh9p2rcd13ifvqec0","pricing_plan_id":"cebpf4jnsgd1na2vs0mg"},{"bike_id":"0306ba73-3d0f-4523-9d11-9a4554b2d8ff","system_id":"levelo_inurba_marseille","lat":43.21195,"lon":5.35087,"is_reserved":false,"is_disabled":false,"rental_uris":{"android":"levelo://app?vid=0306ba73-3d0f-4523-9d11-9a4554b2d8ff","ios":"levelo://app?vid=0306ba73-3d0f-4523-9d11-9a4554b2d8ff"},"vehicle_type_id":"4","last_reported":1756235238,"current_range_meters":16800,"station_id":"st_cvj6sg6p6f1abm77japg","pricing_plan_id":"cebpf4jnsgd1na2vs0mg"},{"bike_id":"d262369f-4201-4652-91ef-8adb9d2a4ede","system_id":"levelo_inurba_marseille","lat":43.24081,"lon":5.37785,"is_reserved":false,"is_disabled":false,"rental_uris":{"android":"levelo://app?vid=d262369f-4201-4652-91ef-8adb9d2a4ede","ios":"levelo://app?vid=d262369f-4201-4652-91ef-8adb9d2a4ede"},"vehicle_type_id":"4","last_reported":1756235238,"current_range_meters":16800,"station_id":"ce4bhnp2rcd13ifvqgvg","pricing_plan_id":"cebpf4jnsgd1na2vs0mg"},{"bike_id":"5092e4c6-5d7d-4ea1-9c6e-7c3ba8347241","system_id":"levelo_inurba_marseille","lat":43.29532,"lon":5.38537,"is_reserved":false,"is_disabled":false,"rental_uris":{"android":"levelo://app?vid=5092e4c6-5d7d-4ea1-9c6e-7c3ba8347241","ios":"levelo://app?vid=5092e4c6-5d7d-4ea1-9c6e-7c3ba8347241"},"vehicle_type_id":"4","last_reported":1756235238,"current_range_meters":16800,"station_id":"ce4bgih2rcd13ifvqba0","pricing_plan_id":"cebpf4jnsgd1na2vs0mg"},{"bike_id":"18e42932-0e7e-4482-a1fc-eb0edec1c5c4","system_id":"levelo_inurba_marseille","lat":43.24809,"lon":5.37458,"is_reserved":false,"is_disabled":false,"rental_uris":{"android":"levelo://app?vid=18e42932-0e7e-4482-a1fc-eb0edec1c5c4","ios":"levelo://app?vid=18e42932-0e7e-4482-a1fc-eb0edec1c5c4"},"vehicle_type_id":"4","last_reported":1756235238,"current_range_meters":16800,"station_id":"ce4bhgh2rcd13ifvqfb0","pricing_plan_id":"cebpf4jnsgd1na2vs0mg"},{"bike_id":"f7213e16-6938-41df-b35d-3e745154b5b7","system_id":"levelo_inurba_marseille","lat":43.23951,"lon":5.36644,"is_reserved":false,"is_disabled":false,"rental_uris":{"android":"levelo://app?vid=f7213e16-6938-41df-b35d-3e745154b5b7","ios":"levelo://app?vid=f7213e16-6938-41df-b35d-3e745154b5b7"},"vehicle_type_id":"4","last_reported":1756235238,"current_range_meters":17200,"station_id":"ce4bhi12rcd13ifvqfp0","pricing_plan_id":"cebpf4jnsgd1na2vs0mg"},{"bike_id":"931bf746-dbad-4fcd-ab1d-fa4a3b0d1923","system_id":"levelo_inurba_marseille","lat":43.26564,"lon":5.40323,"is_reserved":false,"is_disabled":false,"rental_uris":{"android":"levelo://app?vid=931bf746-dbad-4fcd-ab1d-fa4a3b0d1923","ios":"levelo://app?vid=931bf746-dbad-4fcd-ab1d-fa4a3b0d1923"},"vehicle_type_id":"4","last_reported":1756235238,"current_range_meters":17200,"station_id":"ce4bhmp2rcd13ifvqgng","pricing_plan_id":"cebpf4jnsgd1na2vs0mg"},{"bike_id":"47fa0c25-9439-4a53-8254-e0200131ba2a","system_id":"levelo_inurba_marseille","lat":43.29531,"lon":5.38541,"is_reserved":false,"is_disabled":false,"rental_uris":{"android":"levelo://app?vid=47fa0c25-9439-4a53-8254-e0200131ba2a","ios":"levelo://app?vid=47fa0c25-9439-4a53-8254-e0200131ba2a"},"vehicle_type_id":"4","last_reported":1756235238,"current_range_meters":17200,"station_id":"ce4bgih2rcd13ifvqba0","pricing_plan_id":"cebpf4jnsgd1na2vs0mg"},