{"last_updated":1713010226,"ttl":30,"version":"2.2","data":{"bikes":[{"bike_id":"5116f921-1951-43ac-92bf-d778a8ae3f4f","system_id":"levelo_inurba_marseille","lat":43.314811,"lon":5.373103,"is_reserved":false,"is_disabled":false,"rental_uris":{"android":"levelo://app?vid=5116f921-1951-43ac-92bf-d778a8ae3f4f","ios":"levelo://app?vid=5116f921-1951-43ac-92bf-d778a8ae3f4f"},"vehicle_type_id":"4","last_reported":1713010226,"current_range_meters":22000,"station_id":"ce4bgt12rcd13ifvqcd0","pricing_plan_id":"cebpf4jnsgd1na2vs0mg"},{"bike_id":"eac8cf2c-20a2-45c5-a71a-43d6986f3adc","system_id":"levelo_inurba_marseille","lat":43.314811,"lon":5.373103,"is_reserved":false,"is_disabled":false,"rental_uris":{"android":"levelo://app?vid=eac8cf2c-20a2-45c5-a71a-43d6986f3adc","ios":"levelo://app?vid=eac8cf2c-20a2-45c5-a71a-43d6986f3adc"},"vehicle_type_id":"4","last_reported":1713010226,"current_range_meters":23200,"station_id":"ce4bgt12rcd13ifvqcd0","pricing_plan_id":"cebpf4jnsgd1na2vs0mg"},{"bike_id":"bde72abd-267c-47f5-96b0-f14de23c72d7","system_id":"levelo_inurba_marseille","lat":43.314811,"lon":5.373103,"is_reserved":false,"is_disabled":false,"rental_uris":{"android":"levelo://app?vid=bde72abd-267c-47f5-96b0-f14de23c72d7","ios":"levelo://app?vid=bde72abd-267c-47f5-96b0-f14de23c72d7"},"vehicle_type_id":"4","last_reported":1713010226,"current_range_meters":23200,"station_id":"ce4bgt12rcd13ifvqcd0","pricing_plan_id":"cebpf4jnsgd1na2vs0mg"},{"bike_id":"a1bbb6df-c774-4cc3-b857-f38b34319a6b","system_id":"levelo_inurba_marseille","lat":43.314811,"lon":5.373103,"is_reserved":false,"is_disabled":false,"rental_uris":{"android":"levelo://app?vid=a1bbb6df-c774-4cc3-b857-f38b34319a6b","ios":"levelo://app?vid=a1bbb6df-c774-4cc3-b857-f38b34319a6b"},"vehicle_type_id":"4","last_reported":1713010226,"current_range_meters":26800,"station_id":"ce4bgt12rcd13ifvqcd0","pricing_plan_id":"cebpf4jnsgd1na2vs0mg"},{"bike_id":"0a82d7f0-65ab-47b0-849e-7369ff3a989d","system_id":"levelo_inurba_marseille","lat":43.314811,"lon":5.373103,"is_reserved":false,"is_disabled":false,"rental_uris":{"android":"levelo://app?vid=0a82d7f0-65ab-47b0-849e-7369ff3a989d","ios":"levelo://app?vid=0a82d7f0-65ab-47b0-849e-7369ff3a989d"},"vehicle_type_id":"4","last_reported":1713010226,"current_range_meters":6400,"station_id":"ce4bgt12rcd13ifvqcd0","pricing_plan_id":"cebpf4jnsgd1na2vs0mg"},{"bike_id":"36640544-9a9a-46b8-8073-120002faf8c7","system_id":"levelo_inurba_marseille","lat":43.31484,"lon":5.37313,"is_reserved":false,"is_disabled":false,"rental_uris":{"android":"levelo://app?vid=36640544-9a9a-46b8-8073-120002faf8c7","ios":"levelo://app?vid=36640544-9a9a-46b8-8073-120002faf8c7"},"vehicle_type_id":"4","last_reported":1713010226,"current_range_meters":4000,"station_id":"ce4bgt12rcd13ifvqcd0","pricing_plan_id":"cebpf4jnsgd1na2vs0mg"},{"bike_id":"9c1e739d-894b-4041-a62c-de18e2f8ef52","system_id":"levelo_inurba_marseille","lat":43.30544,"lon":5.36713,"is_reserved":false,"is_disabled":false,"rental_uris":{"android":"levelo://app?vid=9c1e739d-894b-4041-a62c-de18e2f8ef52","ios":"levelo://app?vid=9c1e739d-894b-4041-a62c-de18e2f8ef52"},"vehicle_type_id":"4","last_reported":1713010226,"current_range_meters":7600,"station_id":"ce4bgrp2rcd13ifvqc9g","pricing_plan_id":"cebpf4jnsgd1na2vs0mg"},{"bike_id":"bf44524d-8e36-4b4c-b116-c658b9a166fb","system_id":"levelo_inurba_marseille","lat":43.305714,"lon":5.365633,"is_reserved":false,"is_disabled":false,"rental_uris":{"android":"levelo://app?vid=bf44524d-8e36-4b4c-b116-c658b9a166fb","ios":"levelo://app?vid=bf44524d-8e36-4b4c-b116-c658b9a166fb"},"vehicle_type_id":"4","last_reported":1713010226,"current_range_meters":30000,"station_id":"ce4bgs12rcd13ifvqcag","pricing_plan_id":"cebpf4jnsgd1na2vs0mg"},{"bike_id":"e2ceb079-a1b4-44d9-a656-5626de9f190a","system_id":"levelo_inurba_marseille","lat":43.30537,"lon":5.367345,"is_reserved":false,"is_disabled":false,"rental_uris":{"android":"levelo://app?vid=e2ceb079-a1b4-44d9-a656-5626de9f190a","ios":"levelo://app?vid=e2ceb079-a1b4-44d9-a656-5626de9f190a"},"vehicle_type_id":"4","last_reported":1713010226,"current_range_meters":9600,"station_id":"ce4bgrp2rcd13ifvqc9g","pricing_plan_id":"cebpf4jnsgd1na2vs0mg"},{"bike_id":"835f99de-6d9d-4bd3-94bd-aa74699bc477","system_id":"levelo_inurba_marseille","lat":43.305714,"lon":5.365633,"is_reserved":false,"is_disabled":false,"rental_uris":{"android":"levelo://app?vid=835f99de-6d9d-4bd3-94bd-aa74699bc477","ios":"levelo://app?vid=835f99de-6d9d-4bd3-94bd-aa74699bc477"},"vehicle_type_id":"4","last_reported":1713010226,"current_range_meters":20400,"station_id":"ce4bgs12rcd13ifvqcag","pricing_plan_id":"cebpf4jnsgd1na2vs0mg"},{"bike_id":"4a9ae736-1758-4e14-9044-1599614af502","system_id":"levelo_inurba_marseille","lat":43.305426,"lon":5.365422,"is_reserved":false,"is_disabled":false,"rental_uris":{"android":"levelo://app?vid=4a9ae736-1758-4e14-9044-1599614af502","ios":"levelo://app?vid=4a9ae736-1758-4e14-9044-1599614af502"},"vehicle_type_id":"4","last_reported":1713010226,"current_range_meters":22800,"station_id":"","pricing_plan_id":"cebpf4jnsgd1na2vs0mg"},{"bike_id":"c9eb6cec-59a1-4c2b-8b1c-13aaf016cf15","system_id":"levelo_inurba_marseille","lat":43.305368,"lon":5.367343,"is_reserved":false,"is_disabled":false,"rental_uris":{"android":"levelo://app?vid=c9eb6cec-59a1-4c2b-8b1c-13aaf016cf15","ios":"levelo://app?vid=c9eb6cec-59a1-4c2b-8b1c-13aaf016cf15"},"vehicle_type_id":"4","last_reported":1713010226,"current_range_meters":29200,"station_id":"ce4bgrp2rcd13ifvqc9g","pricing_plan_id":"cebpf4jnsgd1na2vs0mg"},{"bike_id":"6e6ee39f-d9b1-4bac-83eb-3042ab2d1575","system_id":"levelo_inurba_marseille","lat":43.307945,"lon":5.376487,"is_reserved":false,"is_disabled":false,"rental_uris":{"android":"levelo://app?vid=6e6ee39f-d9b1-4bac-83eb-3042ab2d1575","ios":"levelo://app?vid=6e6ee39f-d9b1-4bac-83eb-3042ab2d1575"},"vehicle_type_id":"4","last_reported":1713010226,"current_range_meters":14400,"station_id":"ce4bgv92rcd13ifvqcq0","pricing_plan_id":"cebpf4jnsgd1na2vs0mg"},{"bike_id":"1faf5926-ab61-4c7d-b894-8ac9eef041cc","system_id":"levelo_inurba_marseille","lat":43.303046,"lon":5.368981,"is_reserved":false,"is_disabled":false,"rental_uris":{"android":"levelo://app?vid=1faf5926-ab61-4c7d-b894-8ac9eef041cc","ios":"levelo://app?vid=1faf5926-ab61-4c7d-b894-8ac9eef041cc"},"vehicle_type_id":"4","last_reported":1713010226,"current_range_meters":28800,"station_id":"ce4bgqh2rcd13ifvqc5g","pricing_plan_id":"cebpf4jnsgd1na2vs0mg"},{"bike_id":"c973c696-6cf3-4ef6-9922-20142626237f","system_id":"levelo_inurba_marseille","lat":43.30282,"lon":5.37259,"is_reserved":false,"is_disabled":false,"rental_uris":{"android":"levelo://app?vid=c973c696-6cf3-4ef6-9922-20142626237f","ios":"levelo://app?vid=c973c696-6cf3-4ef6-9922-20142626237f"},"vehicle_type_id":"4","last_reported":1713010226,"current_range_meters":15200,"station_id":"","pricing_plan_id":"cebpf4jnsgd1na2vs0mg"},{"bike_id":"6b43ba21-78ad-42c2-9fbf-4cec89fa440f","system_id":"levelo_inurba_marseille","lat":43.301939,"lon":5.366286,"is_reserved":false,"is_disabled":false,"rental_uris":{"android":"levelo://app?vid=6b43ba21-78ad-42c2-9fbf-4cec89fa440f","ios":"levelo://app?vid=6b43ba21-78ad-42c2-9fbf-4cec89fa440f"},"vehicle_type_id":"4","last_reported":1713010226,"current_range_meters":0,"station_id":"ce4bgrh2rcd13ifvqc8g","pricing_plan_id":"cebpf4jnsgd1na2vs0mg"},{"bike_id":"47c48833-a21e-4c43-ba2d-ee35f4927b32","system_id":"levelo_inurba_marseille","lat":43.304606,"lon":5.379026,"is_reserved":false,"is_disabled":false,"rental_uris":{"android":"levelo://app?vid=47c48833-a21e-4c43-ba2d-ee35f4927b32","ios":"levelo://app?vid=47c48833-a21e-4c43-ba2d-ee35f4927b32"},"vehicle_type_id":"4","last_reported":1713010226,"current_range_meters":16800,"station_id":"ce4bgup2rcd13ifvqcn0","pricing_plan_id":"cebpf4jnsgd1na2vs0mg"},{"bike_id":"a0a07164-c0c2-41aa-b710-99113a5fa34b","system_id":"levelo_inurba_marseille","lat":43.324771,"lon":5.36557,"is_reserved":false,"is_disabled":false,"rental_uris":{"android":"levelo://app?vid=a0a07164-c0c2-41aa-b710-99113a5fa34b","ios":"levelo://app?vid=a0a07164-c0c2-41aa-b710-99113a5fa34b"},"vehicle_type_id":"4","last_reported":1713010226,"current_range_meters":12800,"station_id":"ce4bhs12rcd13ifvqhvg","pricing_plan_id":"cebpf4jnsgd1na2vs0mg"},{"bike_id":"51c4ee23-3194-4f22-8038-261d45c1ecdc","system_id":"levelo_inurba_marseille","lat":43.324771,"lon":5.36557,"is_reserved":false,"is_disabled":false,"rental_uris":{"android":"levelo://app?vid=51c4ee23-3194-4f22-8038-261d45c1ecdc","ios":"levelo://app?vid=51c4ee23-3194-4f22-8038-261d45c1ecdc"},"vehicle_type_id":"4","last_reported":1713010226,"current_range_meters":12000,"station_id":"ce4bhs12rcd13ifvqhvg","pricing_plan_id":"cebpf4jnsgd1na2vs0mg"},{"bike_id":"aaef1d7d-f60a-4385-a432-8ff93bd10500","system_id":"levelo_inurba_marseille","lat":43.324771,"lon":5.36557,"is_reserved":false,"is_disabled":false,"rental_uris":{"android":"levelo://app?vid=aaef1d7d-f60a-4385-a432-8ff93bd10500","ios":"levelo://app?vid=aaef1d7d-f60a-4385-a432-8ff93bd10500"},"vehicle_type_id":"4","last_reported":1713010226,"current_range_meters":14400,"station_id":"ce4bhs12rcd13ifvqhvg","pricing_plan_id":"cebpf4jnsgd1na2vs0mg"},{"bike_id":"202a9b96-5a4b-4cb8-b6ff-747a9ee90db5","system_id":"levelo_inurba_marseille","lat":43.324771,"lon":5.36557,"is_reserved":false,"is_disabled":false,"rental_uris":{"android":"levelo://app?vid=202a9b96-5a4b-4cb8-b6ff-747a9ee90db5","ios":"levelo://app?vid=202a9b96-5a4b-4cb8-b6ff-747a9ee90db5"},"vehicle_type_id":"4","last_reported":1713010226,"current_range_meters":27600,"station_id":"ce4bhs12rcd13ifvqhvg","pricing_plan_id":"cebpf4jnsgd1na2vs0mg"},{"bike_id":"6bd30c09-c007-4c03-a14e-53bb25dc6171","system_id":"levelo_inurba_marseille","lat":43.324771,"lon":5.36557,"is_reserved":false,"is_disabled":false,"rental_uris":{"android":"levelo://app?vid=6bd30c09-c007-4c03-a14e-53bb25dc6171","ios":"levelo://app?vid=6bd30c09-c007-4c03-a14e-53bb25dc6171"},"vehicle_type_id":"4","last_reported":1713010226,"current_range_meters":26000,"station_id":"ce4bhs12rcd13ifvqhvg","pricing_plan_id":"cebpf4jnsgd1na2vs0mg"},{"bike_id":"bc6cc588-e5bf-4915-9975-685403001528","system_id":"levelo_inurba_marseille","lat":43.324771,"lon":5.36557,"is_reserved":false,"is_disabled":false,"rental_uris":{"android":"levelo://app?vid=bc6cc588-e5bf-4915-9975-685403001528","ios":"levelo://app?vid=bc6cc588-e5bf-4915-9975-685403001528"},"vehicle_type_id":"4","last_reported":1713010226,"current_range_meters":18000,"station_id":"ce4bhs12rcd13ifvqhvg","pricing_plan_id":"cebpf4jnsgd1na2vs0mg"},{"bike_id":"c5a4e3e9-2cca-4b63-99b3-5246fa285fcb","system_id":"levelo_inurba_marseille","lat":43.324771,"lon":5.36557,"is_reserved":false,"is_disabled":false,"rental_uris":{"android":"levelo://app?vid=c5a4e3e9-2cca-4b63-99b3-5246fa285fcb","ios":"levelo://app?vid=c5a4e3e9-2cca-4b63-99b3-5246fa285fcb"},"vehicle_type_id":"4","last_reported":1713010226,"current_range_meters":8400,"station_id":"ce4bhs12rcd13ifvqhvg","pricing_plan_id":"cebpf4jnsgd1na2vs0mg"},{"bike_id":"25c9c421-0abd-436c-9e58-f43394899b7e","system_id":"levelo_inurba_marseille","lat":43.310804,"lon":5.38359,"is_reserved":false,"is_disabled":false,"rental_uris":{"android":"levelo://app?vid=25c9c421-0abd-436c-9e58-f43394899b7e","ios":"levelo://app?vid=25c9c421-0abd-436c-9e58-f43394899b7e"},"vehicle_type_id":"4","last_reported":1713010226,"current_range_meters":16000,"station_id":"ce4bgv92rcd13ifvqcr0","pricing_plan_id":"cebpf4jnsgd1na2vs0mg"},{"bike_id":"12b7125f-16b2-4d23-ac79-4a648ce892b5","system_id":"levelo_inurba_marseille","lat":43.302784,"lon":5.377158,"is_reserved":false,"is_disabled":false,"rental_uris":{"android":"levelo://app?vid=12b7125f-16b2-4d23-ac79-4a648ce892b5","ios":"levelo://app?vid=12b7125f-16b2-4d23-ac79-4a648ce892b5"},"vehicle_type_id":"4","last_reported":1713010226,"current_range_meters":8000,"station_id":"ce4bguh2rcd13ifvqcj0","pricing_plan_id":"cebpf4jnsgd1na2vs0mg"},{"bike_id":"7c6dfb92-e7be-4ba8-a816-856daf6fe413","system_id":"levelo_inurba_marseille","lat":43.302784,"lon":5.377158,"is_reserved":false,"is_disabled":false,"rental_uris":{"android":"levelo://app?vid=7c6dfb92-e7be-4ba8-a816-856daf6fe413","ios":"levelo://app?vid=7c6dfb92-e7be-4ba8-a816-856daf6fe413"},"vehicle_type_id":"4","last_reported":1713010226,"current_range_meters":0,"station_id":"ce4bguh2rcd13ifvqcj0","pricing_plan_id":"cebpf4jnsgd1na2vs0mg"},{"bike_id":"3dd88737-80e9-466d-9949-ce6c9771ef14","system_id":"levelo_inurba_marseille","lat":43.301429,"lon":5.37413,"is_reserved":false,"is_disabled":false,"rental_uris":{"android":"levelo://app?vid=3dd88737-80e9-466d-9949-ce6c9771ef14","ios":"levelo://app?vid=3dd88737-80e9-466d-9949-ce6c9771ef14"},"vehicle_type_id":"4","last_reported":1713010226,"current_range_meters":21600,"station_id":"ce4bgs92rcd13ifvqcc0","pricing_plan_id":"cebpf4jnsgd1na2vs0mg"},{"bike_id":"bf4cab4d-aa70-48c9-85f5-b3fba38a96ee","system_id":"levelo_inurba_marseille","lat":43.290319,"lon":5.375732,"is_reserved":false,"is_disabled":false,"rental_uris":{"android":"levelo://app?vid=bf4cab4d-aa70-48c9-85f5-b3fba38a96ee","ios":"levelo://app?vid=bf4cab4d-aa70-48c9-85f5-b3fba38a96ee"},"vehicle_type_id":"4","last_reported":1713010226,"current_range_meters":12000,"station_id":"ce4bh692rcd13ifvqe90","pricing_plan_id":"cebpf4jnsgd1na2vs0mg"},{"bike_id":"50624844-3c39-479b-8b6c-4c069556b1e3","system_id":"levelo_inurba_marseille","lat":43.319935,"lon":5.381699,"is_reserved":false,"is_disabled":false,"rental_uris":{"android":"levelo://app?vid=50624844-3c39-479b-8b6c-4c069556b1e3","ios":"levelo://app?vid=50624844-3c39-479b-8b6c-4c069556b1e3"},"vehicle_type_id":"4","last_reported":1713010226,"current_range_meters":1200,"station_id":"ce4bhr12rcd13ifvqhpg","pricing_plan_id":"cebpf4jnsgd1na2vs0mg"},{"bike_id":"5a50d9b5-a36d-4430-b3e1-1304f72eb42a","system_id":"levelo_inurba_marseille","lat":43.319935,"lon":5.381699,"is_reserved":false,"is_disabled":false,"rental_uris":{"android":"levelo://app?vid=5a50d9b5-a36d-4430-b3e1-1304f72eb42a","ios":"levelo://app?vid=5a50d9b5-a36d-4430-b3e1-1304f72eb42a"},"vehicle_type_id":"4","last_reported":1713010226,"current_range_meters":15600,"station_id":"ce4bhr12rcd13ifvqhpg","pricing_plan_id":"cebpf4jnsgd1na2vs0mg"},{"bike_id":"de4f8771-ba41-4cd9-ad1f-6f4ae5ecdb5d","system_id":"levelo_inurba_marseille","lat":43.313571,"lon":5.384829,"is_reserved":false,"is_disabled":false,"rental_uris":{"android":"levelo://app?vid=de4f8771-ba41-4cd9-ad1f-6f4ae5ecdb5d","ios":"levelo://app?vid=de4f8771-ba41-4cd9-ad1f-6f4ae5ecdb5d"},"vehicle_type_id":"4","last_reported":1713010226,"current_range_meters":29600,"station_id":"ce4bgt92rcd13ifvqcf0","pricing_plan_id":"cebpf4jnsgd1na2vs0mg"},{"bike_id":"05d8c2a3-d910-40e0-9fcb-d9ecc3ff2eac","system_id":"levelo_inurba_marseille","lat":43.301429,"lon":5.37413,"is_reserved":false,"is_disabled":false,"rental_uris":{"android":"levelo://app?vid=05d8c2a3-d910-40e0-9fcb-d9ecc3ff2eac","ios":"levelo://app?vid=05d8c2a3-d910-40e0-9fcb-d9ecc3ff2eac"},"vehicle_type_id":"4","last_reported":1713010226,"current_range_meters":0,"station_id":"ce4bgs92rcd13ifvqcc0","pricing_plan_id":"cebpf4jnsgd1na2vs0mg"},{"bike_id":"832e188d-e1ee-4803-82d6-0a9ac340776c","system_id":"levelo_inurba_marseille","lat":43.299724,"lon":5.371829,"is_reserved":false,"is_disabled":false,"rental_uris":{"android":"levelo://app?vid=832e188d-e1ee-4803-82d6-0a9ac340776c","ios":"levelo://app?vid=832e188d-e1ee-4803-82d6-0a9ac340776c"},"vehicle_type_id":"4","last_reported":1713010226,"current_range_meters":29600,"station_id":"ce4bgr92rcd13ifvqc7g","pricing_plan_id":"cebpf4jnsgd1na2vs0mg"},{"bike_id":"5488e41c-e34d-460d-bd3c-3fa46b007672","system_id":"levelo_inurba_marseille","lat":43.305364,"lon":5.384119,"is_reserved":false,"is_disabled":false,"rental_uris":{"android":"levelo://app?vid=5488e41c-e34d-460d-bd3c-3fa46b007672","ios":"levelo://app?vid=5488e41c-e34d-460d-bd3c-3fa46b007672"},"vehicle_type_id":"4","last_reported":1713010226,"current_range_meters":1600,"station_id":"ce4bgg92rcd13ifvqb30","pricing_plan_id":"cebpf4jnsgd1na2vs0mg"},{"bike_id":"6ccb478a-5005-462b-a5a4-294b2c7bfcfb","system_id":"levelo_inurba_marseille","lat":43.29851,"lon":5.36284,"is_reserved":false,"is_disabled":false,"rental_uris":{"android":"levelo://app?vid=6ccb478a-5005-462b-a5a4-294b2c7bfcfb","ios":"levelo://app?vid=6ccb478a-5005-462b-a5a4-294b2c7bfcfb"},"vehicle_type_id":"4","last_reported":1713010226,"current_range_meters":20800,"station_id":"ce4bgpp2rcd13ifvqc3g","pricing_plan_id":"cebpf4jnsgd1na2vs0mg"},{"bike_id":"27374583-3ab7-4bc2-84c6-0ca924d9e96a","system_id":"levelo_inurba_marseille","lat":43.2985,"lon":5.36283,"is_reserved":false,"is_disabled":false,"rental_uris":{"android":"levelo://app?vid=27374583-3ab7-4bc2-84c6-0ca924d9e96a","ios":"levelo://app?vid=27374583-3ab7-4bc2-84c6-0ca924d9e96a"},"vehicle_type_id":"4","last_reported":1713010226,"current_range_meters":8800,"station_id":"ce4bgpp2rcd13ifvqc3g","pricing_plan_id":"cebpf4jnsgd1na2vs0mg"},{"bike_id":"7e31f298-48d7-442c-a575-6af69f6ffabe","system_id":"levelo_inurba_marseille","lat":43.29848,"lon":5.36283,"is_reserved":false,"is_disabled":false,"rental_uris":{"android":"levelo://app?vid=7e31f298-48d7-442c-a575-6af69f6ffabe","ios":"levelo://app?vid=7e31f298-48d7-442c-a575-6af69f6ffabe"},"vehicle_type_id":"4","last_reported":1713010226,"current_range_meters":31200,"station_id":"ce4bgpp2rcd13ifvqc3g","pricing_plan_id":"cebpf4jnsgd1na2vs0mg"},{"bike_id":"fcd99758-b44b-4ddd-b284-bbd8d999b08a","system_id":"levelo_inurba_marseille","lat":43.298481,"lon":5.362804,"is_reserved":false,"is_disabled":false,"rental_uris":{"android":"levelo://app?vid=fcd99758-b44b-4ddd-b284-bbd8d999b08a","ios":"levelo://app?vid=fcd99758-b44b-4ddd-b284-bbd8d999b08a"},"vehicle_type_id":"4","last_reported":1713010226,"current_range_meters":25600,"station_id":"ce4bgpp2rcd13ifvqc3g","pricing_plan_id":"cebpf4jnsgd1na2vs0mg"},{"bike_id":"615e9c63-793d-4476-b607-ce449819fffa","system_id":"levelo_inurba_marseille","lat":43.298433,"lon":5.362774,"is_reserved":false,"is_disabled":false,"rental_uris":{"android":"levelo://app?vid=615e9c63-793d-4476-b607-ce449819fffa","ios":"levelo://app?vid=615e9c63-793d-4476-b607-ce449819fffa"},"vehicle_type_id":"4","last_reported":1713010226,"current_range_meters":9600,"station_id":"ce4bgpp2rcd13ifvqc3g","pricing_plan_id":"cebpf4jnsgd1na2vs0mg"},{"bike_id":"c1e17e70-3921-4d24-94e6-63ddc95f4f50","system_id":"levelo_inurba_marseille","lat":43.308012,"lon":5.381511,"is_reserved":false,"is_disabled":false,"rental_uris":{"android":"levelo://app?vid=c1e17e70-3921-4d24-94e6-63ddc95f4f50","ios":"levelo://app?vid=c1e17e70-3921-4d24-94e6-63ddc95f4f50"},"vehicle_type_id":"4","last_reported":1713010226,"current_range_meters":18400,"station_id":"ce4bgt12rcd13ifvqce0","pricing_plan_id":"cebpf4jnsgd1na2vs0mg"},{"bike_id":"ab89c531-7621-4205-a122-1a3b0444bc54","system_id":"levelo_inurba_marseille","lat":43.298433,"lon":5.362774,"is_reserved":false,"is_disabled":false,"rental_uris":{"android":"levelo://app?vid=ab89c531-7621-4205-a122-1a3b0444bc54","ios":"levelo://app?vid=ab89c531-7621-4205-a122-1a3b0444bc54"},"vehicle_type_id":"4","last_reported":1713010226,"current_range_meters":28000,"station_id":"ce4bgpp2rcd13ifvqc3g","pricing_plan_id":"cebpf4jnsgd1na2vs0mg"},{"bike_id":"b1deeb27-23e5-4890-912f-327980f9ca7a","system_id":"levelo_inurba_marseille","lat":43.298433,"lon":5.362774,"is_reserved":false,"is_disabled":false,"rental_uris":{"android":"levelo://app?vid=b1deeb27-23e5-4890-912f-327980f9ca7a","ios":"levelo://app?vid=b1deeb27-23e5-4890-912f-327980f9ca7a"},"vehicle_type_id":"4","last_reported":1713010226,"current_range_meters":4400,"station_id":"ce4bgpp2rcd13ifvqc3g","pricing_plan_id":"cebpf4jnsgd1na2vs0mg"},{"bike_id":"ef389591-c812-4254-a89f-fe9255234f0a","system_id":"levelo_inurba_marseille","lat":43.298433,"lon":5.362774,"is_reserved":false,"is_disabled":false,"rental_uris":{"android":"levelo://app?vid=ef389591-c812-4254-a89f-fe9255234f0a","ios":"levelo://app?vid=ef389591-c812-4254-a89f-fe9255234f0a"},"vehicle_type_id":"4","last_reported":1713010226,"current_range_meters":13200,"station_id":"ce4bgpp2rcd13ifvqc3g","pricing_plan_id":"cebpf4jnsgd1na2vs0mg"},{"bike_id":"ef97e830-c98f-4bb5-aef4-bbbbc08d45ab","system_id":"levelo_inurba_marseille","lat":43.298433,"lon":5.362774,"is_reserved":false,"is_disabled":false,"rental_uris":{"android":"levelo://app?vid=ef97e830-c98f-4bb5-aef4-bbbbc08d45ab","ios":"levelo://app?vid=ef97e830-c98f-4bb5-aef4-bbbbc08d45ab"},"vehicle_type_id":"4","last_reported":1713010226,"current_range_meters":4400,"station_id":"ce4bgpp2rcd13ifvqc3g","pricing_plan_id":"cebpf4jnsgd1na2vs0mg"},{"bike_id":"95a856f1-bb9e-4b3b-9814-44b26154eb3a","system_id":"levelo_inurba_marseille","lat":43.311722,"lon":5.387247,"is_reserved":false,"is_disabled":false,"rental_uris":{"android":"levelo://app?vid=95a856f1-bb9e-4b3b-9814-44b26154eb3a","ios":"levelo://app?vid=95a856f1-bb9e-4b3b-9814-44b26154eb3a"},"vehicle_type_id":"4","last_reported":1713010226,"current_range_meters":26000,"station_id":"ce4bgv12rcd13ifvqcp0","pricing_plan_id":"cebpf4jnsgd1na2vs0mg"},{"bike_id":"e91ae6f8-ae63-461a-b1eb-a0839b843aa3","system_id":"levelo_inurba_marseille","lat":43.299243,"lon":5.374807,"is_reserved":false,"is_disabled":false,"rental_uris":{"android":"levelo://app?vid=e91ae6f8-ae63-461a-b1eb-a0839b843aa3","ios":"levelo://app?vid=e91ae6f8-ae63-461a-b1eb-a0839b843aa3"},"vehicle_type_id":"4","last_reported":1713010226,"current_range_meters":24400,"station_id":"ce4bgjh2rcd13ifvqbg0","pricing_plan_id":"cebpf4jnsgd1na2vs0mg"},{"bike_id":"c74eb970-001e-421d-9d4f-506b86f1bbcc","system_id":"levelo_inurba_marseille","lat":43.297794,"lon":5.370888,"is_reserved":false,"is_disabled":false,"rental_uris":{"android":"levelo://app?vid=c74eb970-001e-421d-9d4f-506b86f1bbcc","ios":"levelo://app?vid=c74eb970-001e-421d-9d4f-506b86f1bbcc"},"vehicle_type_id":"4","last_reported":1713010226,"current_range_meters":31600,"station_id":"ce4bgop2rcd13ifvqc1g","pricing_plan_id":"cebpf4jnsgd1na2vs0mg"},{"bike_id":"880b9096-adc9-4f0a-a52b-b1287b2e5e59","system_id":"levelo_inurba_marseille","lat":43.297163,"lon":5.365866,"is_reserved":false,"is_disabled":false,"rental_uris":{"android":"levelo://app?vid=880b9096-adc9-4f0a-a52b-b1287b2e5e59","ios":"levelo://app?vid=880b9096-adc9-4f0a-a52b-b1287b2e5e59"},"vehicle_type_id":"4","last_reported":1713010226,"current_range_meters":21200,"station_id":"ce4bgn12rcd13ifvqbt0","pricing_plan_id":"cebpf4jnsgd1na2vs0mg"},{"bike_id":"8d0598ad-08c5-4329-adc2-0b5beb969b63","system_id":"levelo_inurba_marseille","lat":43.297794,"lon":5.370888,"is_reserved":false,"is_disabled":false,"rental_uris":{"android":"levelo://app?vid=8d0598ad-08c5-4329-adc2-0b5beb969b63","ios":"levelo://app?vid=8d0598ad-08c5-4329-adc2-0b5beb969b63"},"vehicle_type_id":"4","last_reported":1713010226,"current_range_meters":3600,"station_id":"ce4bgop2rcd13ifvqc1g","pricing_plan_id":"cebpf4jnsgd1na2vs0mg"},{"bike_id":"a1cfc169-a2a4-4623-907c-85e35f234257","system_id":"levelo_inurba_marseille","lat":43.2968,"lon":5.37291,"is_reserved":false,"is_disabled":false,"rental_uris":{"android":"levelo://app?vid=a1cfc169-a2a4-4623-907c-85e35f234257","ios":"levelo://app?vid=a1cfc169-a2a4-4623-907c-85e35f234257"},"vehicle_type_id":"4","last_reported":1713010226,"current_range_meters":8000,"station_id":"ce4bgk12rcd13ifvqbj0","pricing_plan_id":"cebpf4jnsgd1na2vs0mg"},{"bike_id":"cc337939-9add-4e17-95d4-9f859551e4db","system_id":"levelo_inurba_marseille","lat":43.309038,"lon":5.396546,"is_reserved":false,"is_disabled":false,"rental_uris":{"android":"levelo://app?vid=cc337939-9add-4e17-95d4-9f859551e4db","ios":"levelo://app?vid=cc337939-9add-4e17-95d4-9f859551e4db"},"vehicle_type_id":"4","last_reported":1713010226,"current_range_meters":28000,"station_id":"ce4bh012rcd13ifvqcv0","pricing_plan_id":"cebpf4jnsgd1na2vs0mg"},{"bike_id":"0f413ab1-85ff-447c-9669-ce39020849fa","system_id":"levelo_inurba_marseille","lat":43.296131,"lon":5.370791,"is_reserved":false,"is_disabled":false,"rental_uris":{"android":"levelo://app?vid=0f413ab1-85ff-447c-9669-ce39020849fa","ios":"levelo://app?vid=0f413ab1-85ff-447c-9669-ce39020849fa"},"vehicle_type_id":"4","last_reported":1713010226,"current_range_meters":18400,"station_id":"ce4bgnh2rcd13ifvqc0g","pricing_plan_id":"cebpf4jnsgd1na2vs0mg"},{"bike_id":"bb3cef6a-155f-4b50-af72-4498b1b79a86","system_id":"levelo_inurba_marseille","lat":43.29618,"lon":5.37163,"is_reserved":false,"is_disabled":false,"rental_uris":{"android":"levelo://app?vid=bb3cef6a-155f-4b50-af72-4498b1b79a86","ios":"levelo://app?vid=bb3cef6a-155f-4b50-af72-4498b1b79a86"},"vehicle_type_id":"4","last_reported":1713010226,"current_range_meters":5600,"station_id":"ce4bhgp2rcd13ifvqfc0","pricing_plan_id":"cebpf4jnsgd1na2vs0mg"},{"bike_id":"5debb3f4-2d86-4383-b17d-a31c5b0f2f09","system_id":"levelo_inurba_marseille","lat":43.299028,"lon":5.381509,"is_reserved":false,"is_disabled":false,"rental_uris":{"android":"levelo://app?vid=5debb3f4-2d86-4383-b17d-a31c5b0f2f09","ios":"levelo://app?vid=5debb3f4-2d86-4383-b17d-a31c5b0f2f09"},"vehicle_type_id":"4","last_reported":1713010226,"current_range_meters":0,"station_id":"ce4bgj12rcd13ifvqbc0","pricing_plan_id":"cebpf4jnsgd1na2vs0mg"},{"bike_id":"440a098c-a8aa-4899-88d2-45c444a53f22","system_id":"levelo_inurba_marseille","lat":43.296935,"lon":5.376544,"is_reserved":false,"is_disabled":false,"rental_uris":{"android":"levelo://app?vid=440a098c-a8aa-4899-88d2-45c444a53f22","ios":"levelo://app?vid=440a098c-a8aa-4899-88d2-45c444a53f22"},"vehicle_type_id":"4","last_reported":1713010226,"current_range_meters":12000,"station_id":"ce4bgkh2rcd13ifvqbl0","pricing_plan_id":"cebpf4jnsgd1na2vs0mg"},{"bike_id":"8a4ce682-488c-40f5-810b-ffc86c79fcd2","system_id":"levelo_inurba_marseille","lat":43.309589,"lon":5.390258,"is_reserved":false,"is_disabled":false,"rental_uris":{"android":"levelo://app?vid=8a4ce682-488c-40f5-810b-ffc86c79fcd2","ios":"levelo://app?vid=8a4ce682-488c-40f5-810b-ffc86c79fcd2"},"vehicle_type_id":"4","last_reported":1713010226,"current_range_meters":12400,"station_id":"ce4bgup2rcd13ifvqco0","pricing_plan_id":"cebpf4jnsgd1na2vs0mg"},{"bike_id":"5ce6bd84-d573-426e-a0c6-62fe96397a2c","system_id":"levelo_inurba_marseille","lat":43.317561,"lon":5.390125,"is_reserved":false,"is_disabled":false,"rental_uris":{"android":"levelo://app?vid=5ce6bd84-d573-426e-a0c6-62fe96397a2c","ios":"levelo://app?vid=5ce6bd84-d573-426e-a0c6-62fe96397a2c"},"vehicle_type_id":"4","last_reported":1713010226,"current_range_meters":17200,"station_id":"ce4bhqp2rcd13ifvqhng","pricing_plan_id":"cebpf4jnsgd1na2vs0mg"},{"bike_id":"4950c8b7-53e0-4dc4-a4fa-51af59e78156","system_id":"levelo_inurba_marseille","lat":43.29658,"lon":5.37674,"is_reserved":false,"is_disabled":false,"rental_uris":{"android":"levelo://app?vid=4950c8b7-53e0-4dc4-a4fa-51af59e78156","ios":"levelo://app?vid=4950c8b7-53e0-4dc4-a4fa-51af59e78156"},"vehicle_type_id":"4","last_reported":1713010226,"current_range_meters":7600,"station_id":"ce4bgi92rcd13ifvqb90","pricing_plan_id":"cebpf4jnsgd1na2vs0mg"},{"bike_id":"be212968-fb70-45dc-9fd3-829cec0dd06f","system_id":"levelo_inurba_marseille","lat":43.295748,"lon":5.37522,"is_reserved":false,"is_disabled":false,"rental_uris":{"android":"levelo://app?vid=be212968-fb70-45dc-9fd3-829cec0dd06f","ios":"levelo://app?vid=be212968-fb70-45dc-9fd3-829cec0dd06f"},"vehicle_type_id":"4","last_reported":1713010226,"current_range_meters":16000,"station_id":"ce4bgh92rcd13ifvqb50","pricing_plan_id":"cebpf4jnsgd1na2vs0mg"},{"bike_id":"14ab1211-a4b3-475b-bc03-3653127ba214","system_id":"levelo_inurba_marseille","lat":43.295748,"lon":5.37522,"is_reserved":false,"is_disabled":false,"rental_uris":{"android":"levelo://app?vid=14ab1211-a4b3-475b-bc03-3653127ba214","ios":"levelo://app?vid=14ab1211-a4b3-475b-bc03-3653127ba214"},"vehicle_type_id":"4","last_reported":1713010226,"current_range_meters":12000,"station_id":"ce4bgh92rcd13ifvqb50","pricing_plan_id":"cebpf4jnsgd1na2vs0mg"},{"bike_id":"1a0f28b1-ce10-4b8a-8814-cbb5f6ac1eaf","system_id":"levelo_inurba_marseille","lat":43.304274,"lon":5.388873,"is_reserved":false,"is_disabled":false,"rental_uris":{"android":"levelo://app?vid=1a0f28b1-ce10-4b8a-8814-cbb5f6ac1eaf","ios":"levelo://app?vid=1a0f28b1-ce10-4b8a-8814-cbb5f6ac1eaf"},"vehicle_type_id":"4","last_reported":1713010226,"current_range_meters":5600,"station_id":"ce4bgk12rcd13ifvqbi0","pricing_plan_id":"cebpf4jnsgd1na2vs0mg"},{"bike_id":"292d44a1-3a96-472f-a9df-c48b33e2b9d5","system_id":"levelo_inurba_marseille","lat":43.296277,"lon":5.377108,"is_reserved":false,"is_disabled":false,"rental_uris":{"android":"levelo://app?vid=292d44a1-3a96-472f-a9df-c48b33e2b9d5","ios":"levelo://app?vid=292d44a1-3a96-472f-a9df-c48b33e2b9d5"},"vehicle_type_id":"4","last_reported":1713010226,"current_range_meters":16800,"station_id":"ce4bgi92rcd13ifvqb90","pricing_plan_id":"cebpf4jnsgd1na2vs0mg"},{"bike_id":"18cf108d-2bc0-45da-b66a-505b642bd1ef","system_id":"levelo_inurba_marseille","lat":43.312609,"lon":5.401662,"is_reserved":false,"is_disabled":false,"rental_uris":{"android":"levelo://app?vid=18cf108d-2bc0-45da-b66a-505b642bd1ef","ios":"levelo://app?vid=18cf108d-2bc0-45da-b66a-505b642bd1ef"},"vehicle_type_id":"4","last_reported":1713010226,"current_range_meters":2000,"station_id":"ce4bh092rcd13ifvqd30","pricing_plan_id":"cebpf4jnsgd1na2vs0mg"},{"bike_id":"54371157-a2b8-41cb-ae7e-3eca043d87f1","system_id":"levelo_inurba_marseille","lat":43.279465,"lon":5.410561,"is_reserved":false,"is_disabled":false,"rental_uris":{"android":"levelo://app?vid=54371157-a2b8-41cb-ae7e-3eca043d87f1","ios":"levelo://app?vid=54371157-a2b8-41cb-ae7e-3eca043d87f1"},"vehicle_type_id":"4","last_reported":1713010226,"current_range_meters":3200,"station_id":"ce4bhnp2rcd13ifvqh0g","pricing_plan_id":"cebpf4jnsgd1na2vs0mg"},{"bike_id":"21066ace-c323-4698-ab31-51bcd0b366bf","system_id":"levelo_inurba_marseille","lat":43.295279,"lon":5.375048,"is_reserved":false,"is_disabled":false,"rental_uris":{"android":"levelo://app?vid=21066ace-c323-4698-ab31-51bcd0b366bf","ios":"levelo://app?vid=21066ace-c323-4698-ab31-51bcd0b366bf"},"vehicle_type_id":"4","last_reported":1713010226,"current_range_meters":18800,"station_id":"ce4bgkp2rcd13ifvqbmg","pricing_plan_id":"cebpf4jnsgd1na2vs0mg"},{"bike_id":"f92879e8-6d15-46d6-a097-d8e8ae205312","system_id":"levelo_inurba_marseille","lat":43.323591,"lon":5.388845,"is_reserved":false,"is_disabled":false,"rental_uris":{"android":"levelo://app?vid=f92879e8-6d15-46d6-a097-d8e8ae205312","ios":"levelo://app?vid=f92879e8-6d15-46d6-a097-d8e8ae205312"},"vehicle_type_id":"4","last_reported":1713010226,"current_range_meters":800,"station_id":"ce4bhqp2rcd13ifvqhog","pricing_plan_id":"cebpf4jnsgd1na2vs0mg"},{"bike_id":"fe02a49c-c55e-40d0-a225-4ae35f043698","system_id":"levelo_inurba_marseille","lat":43.32367,"lon":5.388836,"is_reserved":false,"is_disabled":false,"rental_uris":{"android":"levelo://app?vid=fe02a49c-c55e-40d0-a225-4ae35f043698","ios":"levelo://app?vid=fe02a49c-c55e-40d0-a225-4ae35f043698"},"vehicle_type_id":"4","last_reported":1713010226,"current_range_meters":29200,"station_id":"ce4bhqp2rcd13ifvqhog","pricing_plan_id":"cebpf4jnsgd1na2vs0mg"},{"bike_id":"51bef885-7315-4ec3-8e2a-083ede2bffa5","system_id":"levelo_inurba_marseille","lat":43.32367,"lon":5.388836,"is_reserved":false,"is_disabled":false,"rental_uris":{"android":"levelo://app?vid=51bef885-7315-4ec3-8e2a-083ede2bffa5","ios":"levelo://app?vid=51bef885-7315-4ec3-8e2a-083ede2bffa5"},"vehicle_type_id":"4","last_reported":1713010226,"current_range_meters":1200,"station_id":"ce4bhqp2rcd13ifvqhog","pricing_plan_id":"cebpf4jnsgd1na2vs0mg"},{"bike_id":"df5134dc-068a-4a18-9032-969a20b94ed6","system_id":"levelo_inurba_marseille","lat":43.29602,"lon":5.38099,"is_reserved":false,"is_disabled":false,"rental_uris":{"android":"levelo://app?vid=df5134dc-068a-4a18-9032-969a20b94ed6","ios":"levelo://app?vid=df5134dc-068a-4a18-9032-969a20b94ed6"},"vehicle_type_id":"4","last_reported":1713010226,"current_range_meters":5200,"station_id":"ce4bhch2rcd13ifvqeug","pricing_plan_id":"cebpf4jnsgd1na2vs0mg"},{"bike_id":"66102e81-c663-4eda-98e8-951a2decb1d9","system_id":"levelo_inurba_marseille","lat":43.292837,"lon":5.367414,"is_reserved":false,"is_disabled":false,"rental_uris":{"android":"levelo://app?vid=66102e81-c663-4eda-98e8-951a2decb1d9","ios":"levelo://app?vid=66102e81-c663-4eda-98e8-951a2decb1d9"},"vehicle_type_id":"4","last_reported":1713010226,"current_range_meters":22400,"station_id":"ce4bhch2rcd13ifvqeug","pricing_plan_id":"cebpf4jnsgd1na2vs0mg"},{"bike_id":"40605506-63bc-409b-aed0-c3d0391ac1d2","system_id":"levelo_inurba_marseille","lat":43.293249,"lon":5.371578,"is_reserved":false,"is_disabled":false,"rental_uris":{"android":"levelo://app?vid=40605506-63bc-409b-aed0-c3d0391ac1d2","ios":"levelo://app?vid=40605506-63bc-409b-aed0-c3d0391ac1d2"},"vehicle_type_id":"4","last_reported":1713010226,"current_range_meters":2000,"station_id":"ce4bgh92rcd13ifvqb40","pricing_plan_id":"cebpf4jnsgd1na2vs0mg"},{"bike_id":"cc700139-8086-4de5-8c41-592fcf3fac5b","system_id":"levelo_inurba_marseille","lat":43.293259,"lon":5.371586,"is_reserved":false,"is_disabled":false,"rental_uris":{"android":"levelo://app?vid=cc700139-8086-4de5-8c41-592fcf3fac5b","ios":"levelo://app?vid=cc700139-8086-4de5-8c41-592fcf3fac5b"},"vehicle_type_id":"4","last_reported":1713010226,"current_range_meters":13600,"station_id":"ce4bgh92rcd13ifvqb40","pricing_plan_id":"cebpf4jnsgd1na2vs0mg"},{"bike_id":"2286fd0c-164e-4108-bbf3-caf7112beddf","system_id":"levelo_inurba_marseille","lat":43.292693,"lon":5.368423,"is_reserved":false,"is_disabled":false,"rental_uris":{"android":"levelo://app?vid=2286fd0c-164e-4108-bbf3-caf7112beddf","ios":"levelo://app?vid=2286fd0c-164e-4108-bbf3-caf7112beddf"},"vehicle_type_id":"4","last_reported":1713010226,"current_range_meters":30000,"station_id":"ce4bhbp2rcd13ifvqesg","pricing_plan_id":"cebpf4jnsgd1na2vs0mg"},{"bike_id":"0132099e-18e8-4e3f-a99e-970e42b55808","system_id":"levelo_inurba_marseille","lat":43.293009,"lon":5.374584,"is_reserved":false,"is_disabled":false,"rental_uris":{"android":"levelo://app?vid=0132099e-18e8-4e3f-a99e-970e42b55808","ios":"levelo://app?vid=0132099e-18e8-4e3f-a99e-970e42b55808"},"vehicle_type_id":"4","last_reported":1713010226,"current_range_meters":13200,"station_id":"ce4bgi12rcd13ifvqb70","pricing_plan_id":"cebpf4jnsgd1na2vs0mg"},{"bike_id":"ba2f963d-1a60-4841-8609-8893aae3ad77","system_id":"levelo_inurba_marseille","lat":43.293009,"lon":5.374584,"is_reserved":false,"is_disabled":false,"rental_uris":{"android":"levelo://app?vid=ba2f963d-1a60-4841-8609-8893aae3ad77","ios":"levelo://app?vid=ba2f963d-1a60-4841-8609-8893aae3ad77"},"vehicle_type_id":"4","last_reported":1713010226,"current_range_meters":24800,"station_id":"ce4bgi12rcd13ifvqb70","pricing_plan_id":"cebpf4jnsgd1na2vs0mg"},{"bike_id":"0cf2004b-215a-4b6f-8e19-1f0d7d86a6e2","system_id":"levelo_inurba_marseille","lat":43.292269,"lon":5.361619,"is_reserved":false,"is_disabled":false,"rental_uris":{"android":"levelo://app?vid=0cf2004b-215a-4b6f-8e19-1f0d7d86a6e2","ios":"levelo://app?vid=0cf2004b-215a-4b6f-8e19-1f0d7d86a6e2"},"vehicle_type_id":"4","last_reported":1713010226,"current_range_meters":25600,"station_id":"ce4bhbh2rcd13ifvqeqg","pricing_plan_id":"cebpf4jnsgd1na2vs0mg"},{"bike_id":"daa7e743-5f14-4810-bc51-27075f24510b","system_id":"levelo_inurba_marseille","lat":43.30093,"lon":5.39073,"is_reserved":false,"is_disabled":false,"rental_uris":{"android":"levelo://app?vid=daa7e743-5f14-4810-bc51-27075f24510b","ios":"levelo://app?vid=daa7e743-5f14-4810-bc51-27075f24510b"},"vehicle_type_id":"4","last_reported":1713010226,"current_range_meters":12000,"station_id":"ce4bhbh2rcd13ifvqeo0","pricing_plan_id":"cebpf4jnsgd1na2vs0mg"},{"bike_id":"7be8c3af-bf46-455b-81f9-ad7818bee763","system_id":"levelo_inurba_marseille","lat":43.29194,"lon":5.35805,"is_reserved":false,"is_disabled":false,"rental_uris":{"android":"levelo://app?vid=7be8c3af-bf46-455b-81f9-ad7818bee763","ios":"levelo://app?vid=7be8c3af-bf46-455b-81f9-ad7818bee763"},"vehicle_type_id":"4","last_reported":1713010226,"current_range_meters":16000,"station_id":"ce4bhb12rcd13ifvqel0","pricing_plan_id":"cebpf4jnsgd1na2vs0mg"},{"bike_id":"fb409edd-c672-44c1-9d68-9bf9877e18d3","system_id":"levelo_inurba_marseille","lat":43.29191,"lon":5.35804,"is_reserved":false,"is_disabled":false,"rental_uris":{"android":"levelo://app?vid=fb409edd-c672-44c1-9d68-9bf9877e18d3","ios":"levelo://app?vid=fb409edd-c672-44c1-9d68-9bf9877e18d3"},"vehicle_type_id":"4","last_reported":1713010226,"current_range_meters":17200,"station_id":"ce4bhbh2rcd13ifvqepg","pricing_plan_id":"cebpf4jnsgd1na2vs0mg"},{"bike_id":"4ee7482c-8829-4669-bcfb-275cb6158046","system_id":"levelo_inurba_marseille","lat":43.31326,"lon":5.39692,"is_reserved":false,"is_disabled":false,"rental_uris":{"android":"levelo://app?vid=4ee7482c-8829-4669-bcfb-275cb6158046","ios":"levelo://app?vid=4ee7482c-8829-4669-bcfb-275cb6158046"},"vehicle_type_id":"4","last_reported":1713010226,"current_range_meters":400,"station_id":"ce4bgvp2rcd13ifvqcu0","pricing_plan_id":"cebpf4jnsgd1na2vs0mg"},{"bike_id":"13039de6-90ab-4962-a196-453c55420458","system_id":"levelo_inurba_marseille","lat":43.309047,"lon":5.396551,"is_reserved":false,"is_disabled":false,"rental_uris":{"android":"levelo://app?vid=13039de6-90ab-4962-a196-453c55420458","ios":"levelo://app?vid=13039de6-90ab-4962-a196-453c55420458"},"vehicle_type_id":"4","last_reported":1713010226,"current_range_meters":800,"station_id":"ce4bh012rcd13ifvqcv0","pricing_plan_id":"cebpf4jnsgd1na2vs0mg"},{"bike_id":"9daf7256-0050-491a-a71f-b968d408977f","system_id":"levelo_inurba_marseille","lat":43.309038,"lon":5.396546,"is_reserved":false,"is_disabled":false,"rental_uris":{"android":"levelo://app?vid=9daf7256-0050-491a-a71f-b968d408977f","ios":"levelo://app?vid=9daf7256-0050-491a-a71f-b968d408977f"},"vehicle_type_id":"4","last_reported":1713010226,"current_range_meters":18400,"station_id":"ce4bh012rcd13ifvqcv0","pricing_plan_id":"cebpf4jnsgd1na2vs0mg"},{"bike_id":"50796890-ef55-4506-98a4-5a8967302fb2","system_id":"levelo_inurba_marseille","lat":43.290642,"lon":5.370959,"is_reserved":false,"is_disabled":false,"rental_uris":{"android":"levelo://app?vid=50796890-ef55-4506-98a4-5a8967302fb2","ios":"levelo://app?vid=50796890-ef55-4506-98a4-5a8967302fb2"},"vehicle_type_id":"4","last_reported":1713010226,"current_range_meters":28800,"station_id":"ce4bh5p2rcd13ifvqe4g","pricing_plan_id":"cebpf4jnsgd1na2vs0mg"},{"bike_id":"94e3cb81-012a-4875-bb5c-e81b0846b437","system_id":"levelo_inurba_marseille","lat":43.29068,"lon":5.37165,"is_reserved":false,"is_disabled":false,"rental_uris":{"android":"levelo://app?vid=94e3cb81-012a-4875-bb5c-e81b0846b437","ios":"levelo://app?vid=94e3cb81-012a-4875-bb5c-e81b0846b437"},"vehicle_type_id":"4","last_reported":1713010226,"current_range_meters":25600,"station_id":"ce4bh5p2rcd13ifvqe4g","pricing_plan_id":"cebpf4jnsgd1na2vs0mg"},{"bike_id":"2b5ff7f6-82e3-436d-ba92-c212f139c310","system_id":"levelo_inurba_marseille","lat":43.290606,"lon":5.371289,"is_reserved":false,"is_disabled":false,"rental_uris":{"android":"levelo://app?vid=2b5ff7f6-82e3-436d-ba92-c212f139c310","ios":"levelo://app?vid=2b5ff7f6-82e3-436d-ba92-c212f139c310"},"vehicle_type_id":"4","last_reported":1713010226,"current_range_meters":16400,"station_id":"ce4bh5p2rcd13ifvqe4g","pricing_plan_id":"cebpf4jnsgd1na2vs0mg"},{"bike_id":"1d9544cc-0817-4a81-a9b5-e4aca6c83410","system_id":"levelo_inurba_marseille","lat":43.290584,"lon":5.371586,"is_reserved":false,"is_disabled":false,"rental_uris":{"android":"levelo://app?vid=1d9544cc-0817-4a81-a9b5-e4aca6c83410","ios":"levelo://app?vid=1d9544cc-0817-4a81-a9b5-e4aca6c83410"},"vehicle_type_id":"4","last_reported":1713010226,"current_range_meters":26000,"station_id":"ce4bh5p2rcd13ifvqe4g","pricing_plan_id":"cebpf4jnsgd1na2vs0mg"},{"bike_id":"9a40fc91-f426-4036-a0ac-3ed1e12ddd91","system_id":"levelo_inurba_marseille","lat":43.302008,"lon":5.394694,"is_reserved":false,"is_disabled":false,"rental_uris":{"android":"levelo://app?vid=9a40fc91-f426-4036-a0ac-3ed1e12ddd91","ios":"levelo://app?vid=9a40fc91-f426-4036-a0ac-3ed1e12ddd91"},"vehicle_type_id":"4","last_reported":1713010226,"current_range_meters":27600,"station_id":"ce4bh0p2rcd13ifvqd70","pricing_plan_id":"cebpf4jnsgd1na2vs0mg"},{"bike_id":"487034eb-2f59-4a92-9070-258c081a03a7","system_id":"levelo_inurba_marseille","lat":43.290631,"lon":5.359244,"is_reserved":false,"is_disabled":false,"rental_uris":{"android":"levelo://app?vid=487034eb-2f59-4a92-9070-258c081a03a7","ios":"levelo://app?vid=487034eb-2f59-4a92-9070-258c081a03a7"},"vehicle_type_id":"4","last_reported":1713010226,"current_range_meters":25200,"station_id":"ce4bha92rcd13ifvqeg0","pricing_plan_id":"cebpf4jnsgd1na2vs0mg"},{"bike_id":"934a5a81-0f00-4012-b7d3-14a6c2226c9b","system_id":"levelo_inurba_marseille","lat":43.290779,"lon":5.371482,"is_reserved":false,"is_disabled":false,"rental_uris":{"android":"levelo://app?vid=934a5a81-0f00-4012-b7d3-14a6c2226c9b","ios":"levelo://app?vid=934a5a81-0f00-4012-b7d3-14a6c2226c9b"},"vehicle_type_id":"4","last_reported":1713010226,"current_range_meters":23200,"station_id":"ce4bh5p2rcd13ifvqe4g","pricing_plan_id":"cebpf4jnsgd1na2vs0mg"},{"bike_id":"14e89a2f-47d6-48da-a8a5-0c95ce141329","system_id":"levelo_inurba_marseille","lat":43.294153,"lon":5.386305,"is_reserved":false,"is_disabled":false,"rental_uris":{"android":"levelo://app?vid=14e89a2f-47d6-48da-a8a5-0c95ce141329","ios":"levelo://app?vid=14e89a2f-47d6-48da-a8a5-0c95ce141329"},"vehicle_type_id":"4","last_reported":1713010226,"current_range_meters":21200,"station_id":"ce4bh2h2rcd13ifvqdh0","pricing_plan_id":"cebpf4jnsgd1na2vs0mg"},{"bike_id":"992af9ff-652e-4ac6-8e7c-3aba775401f9","system_id":"levelo_inurba_marseille","lat":43.290327,"lon":5.375711,"is_reserved":false,"is_disabled":false,"rental_uris":{"android":"levelo://app?vid=992af9ff-652e-4ac6-8e7c-3aba775401f9","ios":"levelo://app?vid=992af9ff-652e-4ac6-8e7c-3aba775401f9"},"vehicle_type_id":"4","last_reported":1713010226,"current_range_meters":13600,"station_id":"ce4bh692rcd13ifvqe90","pricing_plan_id":"cebpf4jnsgd1na2vs0mg"},{"bike_id":"64d4443b-2c9d-4948-9d5b-61acac1e43ff","system_id":"levelo_inurba_marseille","lat":43.289184,"lon":5.366408,"is_reserved":false,"is_disabled":false,"rental_uris":{"android":"levelo://app?vid=64d4443b-2c9d-4948-9d5b-61acac1e43ff","ios":"levelo://app?vid=64d4443b-2c9d-4948-9d5b-61acac1e43ff"},"vehicle_type_id":"4","last_reported":1713010226,"current_range_meters":18000,"station_id":"ce4bhap2rcd13ifvqek0","pricing_plan_id":"cebpf4jnsgd1na2vs0mg"},{"bike_id":"f6fa2e8b-e728-447c-9004-b00ac676b5ff","system_id":"levelo_inurba_marseille","lat":43.289184,"lon":5.366408,"is_reserved":false,"is_disabled":false,"rental_uris":{"android":"levelo://app?vid=f6fa2e8b-e728-447c-9004-b00ac676b5ff","ios":"levelo://app?vid=f6fa2e8b-e728-447c-9004-b00ac676b5ff"},"vehicle_type_id":"4","last_reported":1713010226,"current_range_meters":8000,"station_id":"ce4bhap2rcd13ifvqek0","pricing_plan_id":"cebpf4jnsgd1na2vs0mg"},{"bike_id":"ae75ea69-9692-4e88-aea1-df6018b4e72c","system_id":"levelo_inurba_marseille","lat":43.289184,"lon":5.366408,"is_reserved":false,"is_disabled":false,"rental_uris":{"android":"levelo://app?vid=ae75ea69-9692-4e88-aea1-df6018b4e72c","ios":"levelo://app?vid=ae75ea69-9692-4e88-aea1-df6018b4e72c"},"vehicle_type_id":"4","last_reported":1713010226,"current_range_meters":0,"station_id":"ce4bhap2rcd13ifvqek0","pricing_plan_id":"cebpf4jnsgd1na2vs0mg"},{"bike_id":"d44518e5-07ef-4e63-ac7b-4c801aa9c398","system_id":"levelo_inurba_marseille","lat":43.289468,"lon":5.363719,"is_reserved":false,"is_disabled":false,"rental_uris":{"android":"levelo://app?vid=d44518e5-07ef-4e63-ac7b-4c801aa9c398","ios":"levelo://app?vid=d44518e5-07ef-4e63-ac7b-4c801aa9c398"},"vehicle_type_id":"4","last_reported":1713010226,"current_range_meters":27200,"station_id":"ce4bhc92rcd13ifvqetg","pricing_plan_id":"cebpf4jnsgd1na2vs0mg"},{"bike_id":"6dd70e8e-fc97-4e9e-a1ca-d277d9e64388","system_id":"levelo_inurba_marseille","lat":43.289184,"lon":5.366408,"is_reserved":false,"is_disabled":false,"rental_uris":{"android":"levelo://app?vid=6dd70e8e-fc97-4e9e-a1ca-d277d9e64388","ios":"levelo://app?vid=6dd70e8e-fc97-4e9e-a1ca-d277d9e64388"},"vehicle_type_id":"4","last_reported":1713010226,"current_range_meters":24400,"station_id":"ce4bhap2rcd13ifvqek0","pricing_plan_id":"cebpf4jnsgd1na2vs0mg"},{"bike_id":"87c2acfb-1d00-4a31-8c93-5dadf0de0c33","system_id":"levelo_inurba_marseille","lat":43.289468,"lon":5.363719,"is_reserved":false,"is_disabled":false,"rental_uris":{"android":"levelo://app?vid=87c2acfb-1d00-4a31-8c93-5dadf0de0c33","ios":"levelo://app?vid=87c2acfb-1d00-4a31-8c93-5dadf0de0c33"},"vehicle_type_id":"4","last_reported":1713010226,"current_range_meters":6000,"station_id":"ce4bhc92rcd13ifvqetg","pricing_plan_id":"cebpf4jnsgd1na2vs0mg"},{"bike_id":"eff5cccd-f5b4-47de-a8a2-b4dc0a730b51","system_id":"levelo_inurba_marseille","lat":43.304274,"lon":5.397513,"is_reserved":false,"is_disabled":false,"rental_uris":{"android":"levelo://app?vid=eff5cccd-f5b4-47de-a8a2-b4dc0a730b51","ios":"levelo://app?vid=eff5cccd-f5b4-47de-a8a2-b4dc0a730b51"},"vehicle_type_id":"4","last_reported":1713010226,"current_range_meters":3600,"station_id":"ce4bh092rcd13ifvqd20","pricing_plan_id":"cebpf4jnsgd1na2vs0mg"},{"bike_id":"1475d0f9-0502-45e5-96b2-990fdf8cf74e","system_id":"levelo_inurba_marseille","lat":43.292644,"lon":5.384257,"is_reserved":false,"is_disabled":false,"rental_uris":{"android":"levelo://app?vid=1475d0f9-0502-45e5-96b2-990fdf8cf74e","ios":"levelo://app?vid=1475d0f9-0502-45e5-96b2-990fdf8cf74e"},"vehicle_type_id":"4","last_reported":1713010226,"current_range_meters":15600,"station_id":"ce4bh692rcd13ifvqea0","pricing_plan_id":"cebpf4jnsgd1na2vs0mg"},{"bike_id":"def9ce10-c564-4ac6-881c-e61035bd73d8","system_id":"levelo_inurba_marseille","lat":43.2901,"lon":5.381269,"is_reserved":false,"is_disabled":false,"rental_uris":{"android":"levelo://app?vid=def9ce10-c564-4ac6-881c-e61035bd73d8","ios":"levelo://app?vid=def9ce10-c564-4ac6-881c-e61035bd73d8"},"vehicle_type_id":"4","last_reported":1713010226,"current_range_meters":17600,"station_id":"ce4bh4p2rcd13ifvqe1g","pricing_plan_id":"cebpf4jnsgd1na2vs0mg"},{"bike_id":"7c1ecfbe-977c-4f86-a951-6e906007d81f","system_id":"levelo_inurba_marseille","lat":43.330442,"lon":5.389148,"is_reserved":false,"is_disabled":false,"rental_uris":{"android":"levelo://app?vid=7c1ecfbe-977c-4f86-a951-6e906007d81f","ios":"levelo://app?vid=7c1ecfbe-977c-4f86-a951-6e906007d81f"},"vehicle_type_id":"4","last_reported":1713010226,"current_range_meters":19200,"station_id":"ce4bhr92rcd13ifvqhrg","pricing_plan_id":"cebpf4jnsgd1na2vs0mg"},{"bike_id":"f17ab9b4-2f2d-40ae-bdc6-04cc4d30d0ed","system_id":"levelo_inurba_marseille","lat":43.290104,"lon":5.356111,"is_reserved":false,"is_disabled":false,"rental_uris":{"android":"levelo://app?vid=f17ab9b4-2f2d-40ae-bdc6-04cc4d30d0ed","ios":"levelo://app?vid=f17ab9b4-2f2d-40ae-bdc6-04cc4d30d0ed"},"vehicle_type_id":"4","last_reported":1713010226,"current_range_meters":4400,"station_id":"ce4bhb92rcd13ifvqen0","pricing_plan_id":"cebpf4jnsgd1na2vs0mg"},{"bike_id":"9191ec70-ef50-42cb-a363-7444b35b08d4","system_id":"levelo_inurba_marseille","lat":43.290319,"lon":5.375732,"is_reserved":false,"is_disabled":false,"rental_uris":{"android":"levelo://app?vid=9191ec70-ef50-42cb-a363-7444b35b08d4","ios":"levelo://app?vid=9191ec70-ef50-42cb-a363-7444b35b08d4"},"vehicle_type_id":"4","last_reported":1713010226,"current_range_meters":8400,"station_id":"ce4bh692rcd13ifvqe90","pricing_plan_id":"cebpf4jnsgd1na2vs0mg"},{"bike_id":"9d975ef5-fb15-4f25-b1ae-6ff8fcb95ac4","system_id":"levelo_inurba_marseille","lat":43.309371,"lon":5.401449,"is_reserved":false,"is_disabled":false,"rental_uris":{"android":"levelo://app?vid=9d975ef5-fb15-4f25-b1ae-6ff8fcb95ac4","ios":"levelo://app?vid=9d975ef5-fb15-4f25-b1ae-6ff8fcb95ac4"},"vehicle_type_id":"4","last_reported":1713010226,"current_range_meters":30400,"station_id":"ce4bgvp2rcd13ifvqct0","pricing_plan_id":"cebpf4jnsgd1na2vs0mg"},{"bike_id":"d3ea26f4-7d4d-45b7-8172-0133ecd9329b","system_id":"levelo_inurba_marseille","lat":43.337509,"lon":5.374573,"is_reserved":false,"is_disabled":false,"rental_uris":{"android":"levelo://app?vid=d3ea26f4-7d4d-45b7-8172-0133ecd9329b","ios":"levelo://app?vid=d3ea26f4-7d4d-45b7-8172-0133ecd9329b"},"vehicle_type_id":"4","last_reported":1713010226,"current_range_meters":25600,"station_id":"","pricing_plan_id":"cebpf4jnsgd1na2vs0mg"},{"bike_id":"774f6500-6424-427c-8133-e4987961144c","system_id":"levelo_inurba_marseille","lat":43.33754,"lon":5.374806,"is_reserved":false,"is_disabled":false,"rental_uris":{"android":"levelo://app?vid=774f6500-6424-427c-8133-e4987961144c","ios":"levelo://app?vid=774f6500-6424-427c-8133-e4987961144c"},"vehicle_type_id":"4","last_reported":1713010226,"current_range_meters":0,"station_id":"","pricing_plan_id":"cebpf4jnsgd1na2vs0mg"},{"bike_id":"473fe9bb-25df-420b-b14c-334bce7bf40d","system_id":"levelo_inurba_marseille","lat":43.286591,"lon":5.363346,"is_reserved":false,"is_disabled":false,"rental_uris":{"android":"levelo://app?vid=473fe9bb-25df-420b-b14c-334bce7bf40d","ios":"levelo://app?vid=473fe9bb-25df-420b-b14c-334bce7bf40d"},"vehicle_type_id":"4","last_reported":1713010226,"current_range_meters":10400,"station_id":"ce4bhah2rcd13ifvqej0","pricing_plan_id":"cebpf4jnsgd1na2vs0mg"},{"bike_id":"f9309054-0a23-4e59-a511-3ebea05a90f7","system_id":"levelo_inurba_marseille","lat":43.28695,"lon":5.37391,"is_reserved":false,"is_disabled":false,"rental_uris":{"android":"levelo://app?vid=f9309054-0a23-4e59-a511-3ebea05a90f7","ios":"levelo://app?vid=f9309054-0a23-4e59-a511-3ebea05a90f7"},"vehicle_type_id":"4","last_reported":1713010226,"current_range_meters":0,"station_id":"ce4bh3p2rcd13ifvqdq0","pricing_plan_id":"cebpf4jnsgd1na2vs0mg"},{"bike_id":"bdd78db0-fd7d-4d3f-8324-f61493dd2a1c","system_id":"levelo_inurba_marseille","lat":43.286593,"lon":5.363346,"is_reserved":false,"is_disabled":false,"rental_uris":{"android":"levelo://app?vid=bdd78db0-fd7d-4d3f-8324-f61493dd2a1c","ios":"levelo://app?vid=bdd78db0-fd7d-4d3f-8324-f61493dd2a1c"},"vehicle_type_id":"4","last_reported":1713010226,"current_range_meters":16800,"station_id":"ce4bhah2rcd13ifvqej0","pricing_plan_id":"cebpf4jnsgd1na2vs0mg"},{"bike_id":"236aeeaa-3073-4ec5-8700-56fb821befbf","system_id":"levelo_inurba_marseille","lat":43.286039,"lon":5.370679,"is_reserved":false,"is_disabled":false,"rental_uris":{"android":"levelo://app?vid=236aeeaa-3073-4ec5-8700-56fb821befbf","ios":"levelo://app?vid=236aeeaa-3073-4ec5-8700-56fb821befbf"},"vehicle_type_id":"4","last_reported":1713010226,"current_range_meters":25200,"station_id":"ce4bht12rcd13ifvqi60","pricing_plan_id":"cebpf4jnsgd1na2vs0mg"},{"bike_id":"47797cb9-48c4-4ba3-b169-8519fb086a20","system_id":"levelo_inurba_marseille","lat":43.286039,"lon":5.370679,"is_reserved":false,"is_disabled":false,"rental_uris":{"android":"levelo://app?vid=47797cb9-48c4-4ba3-b169-8519fb086a20","ios":"levelo://app?vid=47797cb9-48c4-4ba3-b169-8519fb086a20"},"vehicle_type_id":"4","last_reported":1713010226,"current_range_meters":27200,"station_id":"ce4bht12rcd13ifvqi60","pricing_plan_id":"cebpf4jnsgd1na2vs0mg"},{"bike_id":"e2ca4275-b96f-4500-9c4d-eba1c894cbf5","system_id":"levelo_inurba_marseille","lat":43.2861,"lon":5.37073,"is_reserved":false,"is_disabled":false,"rental_uris":{"android":"levelo://app?vid=e2ca4275-b96f-4500-9c4d-eba1c894cbf5","ios":"levelo://app?vid=e2ca4275-b96f-4500-9c4d-eba1c894cbf5"},"vehicle_type_id":"4","last_reported":1713010226,"current_range_meters":8800,"station_id":"ce4bht12rcd13ifvqi60","pricing_plan_id":"cebpf4jnsgd1na2vs0mg"},{"bike_id":"a4c70675-0c1d-489a-93ee-968425d5c8a5","system_id":"levelo_inurba_marseille","lat":43.316828,"lon":5.404723,"is_reserved":false,"is_disabled":false,"rental_uris":{"android":"levelo://app?vid=a4c70675-0c1d-489a-93ee-968425d5c8a5","ios":"levelo://app?vid=a4c70675-0c1d-489a-93ee-968425d5c8a5"},"vehicle_type_id":"4","last_reported":1713010226,"current_range_meters":2400,"station_id":"ce4bh012rcd13ifvqd00","pricing_plan_id":"cebpf4jnsgd1na2vs0mg"},{"bike_id":"1216da20-ffce-45bd-a884-1b24677b591e","system_id":"levelo_inurba_marseille","lat":43.291994,"lon":5.392907,"is_reserved":false,"is_disabled":false,"rental_uris":{"android":"levelo://app?vid=1216da20-ffce-45bd-a884-1b24677b591e","ios":"levelo://app?vid=1216da20-ffce-45bd-a884-1b24677b591e"},"vehicle_type_id":"4","last_reported":1713010226,"current_range_meters":13600,"station_id":"ce4bh192rcd13ifvqdd0","pricing_plan_id":"cebpf4jnsgd1na2vs0mg"},{"bike_id":"717b426c-a151-4ac7-bd39-e0fff19bf46b","system_id":"levelo_inurba_marseille","lat":43.284538,"lon":5.358657,"is_reserved":false,"is_disabled":false,"rental_uris":{"android":"levelo://app?vid=717b426c-a151-4ac7-bd39-e0fff19bf46b","ios":"levelo://app?vid=717b426c-a151-4ac7-bd39-e0fff19bf46b"},"vehicle_type_id":"4","last_reported":1713010226,"current_range_meters":13200,"station_id":"ce4bhah2rcd13ifvqei0","pricing_plan_id":"cebpf4jnsgd1na2vs0mg"},{"bike_id":"fe8788fc-0632-4c0c-bdcf-c79112420b76","system_id":"levelo_inurba_marseille","lat":43.284538,"lon":5.358657,"is_reserved":false,"is_disabled":false,"rental_uris":{"android":"levelo://app?vid=fe8788fc-0632-4c0c-bdcf-c79112420b76","ios":"levelo://app?vid=fe8788fc-0632-4c0c-bdcf-c79112420b76"},"vehicle_type_id":"4","last_reported":1713010226,"current_range_meters":31600,"station_id":"ce4bhah2rcd13ifvqei0","pricing_plan_id":"cebpf4jnsgd1na2vs0mg"},{"bike_id":"0f8ebe7d-573a-4d10-9cd7-127509a2343d","system_id":"levelo_inurba_marseille","lat":43.284538,"lon":5.358657,"is_reserved":false,"is_disabled":false,"rental_uris":{"android":"levelo://app?vid=0f8ebe7d-573a-4d10-9cd7-127509a2343d","ios":"levelo://app?vid=0f8ebe7d-573a-4d10-9cd7-127509a2343d"},"vehicle_type_id":"4","last_reported":1713010226,"current_range_meters":19600,"station_id":"ce4bhah2rcd13ifvqei0","pricing_plan_id":"cebpf4jnsgd1na2vs0mg"},{"bike_id":"89f66b3a-84e2-4f23-8570-6665637f76a8","system_id":"levelo_inurba_marseille","lat":43.284538,"lon":5.358657,"is_reserved":false,"is_disabled":false,"rental_uris":{"android":"levelo://app?vid=89f66b3a-84e2-4f23-8570-6665637f76a8","ios":"levelo://app?vid=89f66b3a-84e2-4f23-8570-6665637f76a8"},"vehicle_type_id":"4","last_reported":1713010226,"current_range_meters":0,"station_id":"ce4bhah2rcd13ifvqei0","pricing_plan_id":"cebpf4jnsgd1na2vs0mg"},{"bike_id":"3b3e8259-d604-409f-be6e-c58e0c7bf814","system_id":"levelo_inurba_marseille","lat":43.284534,"lon":5.358662,"is_reserved":false,"is_disabled":false,"rental_uris":{"android":"levelo://app?vid=3b3e8259-d604-409f-be6e-c58e0c7bf814","ios":"levelo://app?vid=3b3e8259-d604-409f-be6e-c58e0c7bf814"},"vehicle_type_id":"4","last_reported":1713010226,"current_range_meters":19200,"station_id":"ce4bhah2rcd13ifvqei0","pricing_plan_id":"cebpf4jnsgd1na2vs0mg"},{"bike_id":"ee339abc-6cc7-40fb-9914-3bf672851a7c","system_id":"levelo_inurba_marseille","lat":43.284538,"lon":5.358657,"is_reserved":false,"is_disabled":false,"rental_uris":{"android":"levelo://app?vid=ee339abc-6cc7-40fb-9914-3bf672851a7c","ios":"levelo://app?vid=ee339abc-6cc7-40fb-9914-3bf672851a7c"},"vehicle_type_id":"4","last_reported":1713010226,"current_range_meters":2400,"station_id":"ce4bhah2rcd13ifvqei0","pricing_plan_id":"cebpf4jnsgd1na2vs0mg"},{"bike_id":"75e5c6f8-c322-4343-b14b-fa2a7b2affdf","system_id":"levelo_inurba_marseille","lat":43.284538,"lon":5.358657,"is_reserved":false,"is_disabled":false,"rental_uris":{"android":"levelo://app?vid=75e5c6f8-c322-4343-b14b-fa2a7b2affdf","ios":"levelo://app?vid=75e5c6f8-c322-4343-b14b-fa2a7b2affdf"},"vehicle_type_id":"4","last_reported":1713010226,"current_range_meters":23600,"station_id":"ce4bhah2rcd13ifvqei0","pricing_plan_id":"cebpf4jnsgd1na2vs0mg"},{"bike_id":"43c809e1-c17e-4fc9-8d00-7ef4f9f77346","system_id":"levelo_inurba_marseille","lat":43.284538,"lon":5.358657,"is_reserved":false,"is_disabled":false,"rental_uris":{"android":"levelo://app?vid=43c809e1-c17e-4fc9-8d00-7ef4f9f77346","ios":"levelo://app?vid=43c809e1-c17e-4fc9-8d00-7ef4f9f77346"},"vehicle_type_id":"4","last_reported":1713010226,"current_range_meters":21600,"station_id":"ce4bhah2rcd13ifvqei0","pricing_plan_id":"cebpf4jnsgd1na2vs0mg"},{"bike_id":"c0df68eb-dcf6-4f50-b5d9-0f437d1ca4cc","system_id":"levelo_inurba_marseille","lat":43.284534,"lon":5.358662,"is_reserved":false,"is_disabled":false,"rental_uris":{"android":"levelo://app?vid=c0df68eb-dcf6-4f50-b5d9-0f437d1ca4cc","ios":"levelo://app?vid=c0df68eb-dcf6-4f50-b5d9-0f437d1ca4cc"},"vehicle_type_id":"4","last_reported":1713010226,"current_range_meters":3600,"station_id":"ce4bhah2rcd13ifvqei0","pricing_plan_id":"cebpf4jnsgd1na2vs0mg"},{"bike_id":"08753d02-1634-4ff0-8a03-a49579df3b38","system_id":"levelo_inurba_marseille","lat":43.284538,"lon":5.358657,"is_reserved":false,"is_disabled":false,"rental_uris":{"android":"levelo://app?vid=08753d02-1634-4ff0-8a03-a49579df3b38","ios":"levelo://app?vid=08753d02-1634-4ff0-8a03-a49579df3b38"},"vehicle_type_id":"4","last_reported":1713010226,"current_range_meters":22000,"station_id":"ce4bhah2rcd13ifvqei0","pricing_plan_id":"cebpf4jnsgd1na2vs0mg"},{"bike_id":"8a4e10af-4d3b-43c5-ae8f-beb7d0c0463e","system_id":"levelo_inurba_marseille","lat":43.260225,"lon":5.375455,"is_reserved":false,"is_disabled":false,"rental_uris":{"android":"levelo://app?vid=8a4e10af-4d3b-43c5-ae8f-beb7d0c0463e","ios":"levelo://app?vid=8a4e10af-4d3b-43c5-ae8f-beb7d0c0463e"},"vehicle_type_id":"4","last_reported":1713010226,"current_range_meters":24400,"station_id":"ce4bhgh2rcd13ifvqfa0","pricing_plan_id":"cebpf4jnsgd1na2vs0mg"},{"bike_id":"f5b70185-d19c-4fc8-b802-943ad6926021","system_id":"levelo_inurba_marseille","lat":43.285856,"lon":5.350771,"is_reserved":false,"is_disabled":false,"rental_uris":{"android":"levelo://app?vid=f5b70185-d19c-4fc8-b802-943ad6926021","ios":"levelo://app?vid=f5b70185-d19c-4fc8-b802-943ad6926021"},"vehicle_type_id":"4","last_reported":1713010226,"current_range_meters":9200,"station_id":"ce4bhch2rcd13ifvqeug","pricing_plan_id":"cebpf4jnsgd1na2vs0mg"},{"bike_id":"90f1be9a-fb6c-4b75-b4d0-757893ff4c12","system_id":"levelo_inurba_marseille","lat":43.284538,"lon":5.358657,"is_reserved":false,"is_disabled":false,"rental_uris":{"android":"levelo://app?vid=90f1be9a-fb6c-4b75-b4d0-757893ff4c12","ios":"levelo://app?vid=90f1be9a-fb6c-4b75-b4d0-757893ff4c12"},"vehicle_type_id":"4","last_reported":1713010226,"current_range_meters":19600,"station_id":"ce4bhah2rcd13ifvqei0","pricing_plan_id":"cebpf4jnsgd1na2vs0mg"},{"bike_id":"ba0eee12-4c6f-4f26-97a5-14467bfc822e","system_id":"levelo_inurba_marseille","lat":43.285856,"lon":5.350771,"is_reserved":false,"is_disabled":false,"rental_uris":{"android":"levelo://app?vid=ba0eee12-4c6f-4f26-97a5-14467bfc822e","ios":"levelo://app?vid=ba0eee12-4c6f-4f26-97a5-14467bfc822e"},"vehicle_type_id":"4","last_reported":1713010226,"current_range_meters":30000,"station_id":"ce4bhch2rcd13ifvqeug","pricing_plan_id":"cebpf4jnsgd1na2vs0mg"},{"bike_id":"346909d1-1106-4fbc-bd0e-61ac0812e4a7","system_id":"levelo_inurba_marseille","lat":43.285856,"lon":5.350771,"is_reserved":false,"is_disabled":false,"rental_uris":{"android":"levelo://app?vid=346909d1-1106-4fbc-bd0e-61ac0812e4a7","ios":"levelo://app?vid=346909d1-1106-4fbc-bd0e-61ac0812e4a7"},"vehicle_type_id":"4","last_reported":1713010226,"current_range_meters":0,"station_id":"ce4bhch2rcd13ifvqeug","pricing_plan_id":"cebpf4jnsgd1na2vs0mg"},{"bike_id":"e663f95c-a1fb-470c-b78c-209f3b975723","system_id":"levelo_inurba_marseille","lat":43.285856,"lon":5.350771,"is_reserved":false,"is_disabled":false,"rental_uris":{"android":"levelo://app?vid=e663f95c-a1fb-470c-b78c-209f3b975723","ios":"levelo://app?vid=e663f95c-a1fb-470c-b78c-209f3b975723"},"vehicle_type_id":"4","last_reported":1713010226,"current_range_meters":2800,"station_id":"ce4bhch2rcd13ifvqeug","pricing_plan_id":"cebpf4jnsgd1na2vs0mg"},{"bike_id":"cf299e30-bb7b-48eb-b5bf-806bcdbb29d8","system_id":"levelo_inurba_marseille","lat":43.285856,"lon":5.350771,"is_reserved":false,"is_disabled":false,"rental_uris":{"android":"levelo://app?vid=cf299e30-bb7b-48eb-b5bf-806bcdbb29d8","ios":"levelo://app?vid=cf299e30-bb7b-48eb-b5bf-806bcdbb29d8"},"vehicle_type_id":"4","last_reported":1713010226,"current_range_meters":12800,"station_id":"ce4bhch2rcd13ifvqeug","pricing_plan_id":"cebpf4jnsgd1na2vs0mg"},{"bike_id":"7a4648ff-925f-478b-ab71-686cfb6d4cbb","system_id":"levelo_inurba_marseille","lat":43.285856,"lon":5.350771,"is_reserved":false,"is_disabled":false,"rental_uris":{"android":"levelo://app?vid=7a4648ff-925f-478b-ab71-686cfb6d4cbb","ios":"levelo://app?vid=7a4648ff-925f-478b-ab71-686cfb6d4cbb"},"vehicle_type_id":"4","last_reported":1713010226,"current_range_meters":20400,"station_id":"ce4bhch2rcd13ifvqeug","pricing_plan_id":"cebpf4jnsgd1na2vs0mg"},{"bike_id":"547eccad-5229-4ed3-8ac2-47ed95131d74","system_id":"levelo_inurba_marseille","lat":43.285856,"lon":5.350771,"is_reserved":false,"is_disabled":false,"rental_uris":{"android":"levelo://app?vid=547eccad-5229-4ed3-8ac2-47ed95131d74","ios":"levelo://app?vid=547eccad-5229-4ed3-8ac2-47ed95131d74"},"vehicle_type_id":"4","last_reported":1713010226,"current_range_meters":31200,"station_id":"ce4bhch2rcd13ifvqeug","pricing_plan_id":"cebpf4jnsgd1na2vs0mg"},{"bike_id":"efc9ec35-7851-4a15-8343-3a0dd58b2000","system_id":"levelo_inurba_marseille","lat":43.28615,"lon":5.35108,"is_reserved":false,"is_disabled":false,"rental_uris":{"android":"levelo://app?vid=efc9ec35-7851-4a15-8343-3a0dd58b2000","ios":"levelo://app?vid=efc9ec35-7851-4a15-8343-3a0dd58b2000"},"vehicle_type_id":"4","last_reported":1713010226,"current_range_meters":22400,"station_id":"","pricing_plan_id":"cebpf4jnsgd1na2vs0mg"},{"bike_id":"3a480ddb-ee4c-4b9d-b703-0a215a8b5f4c","system_id":"levelo_inurba_marseille","lat":43.28616,"lon":5.351,"is_reserved":false,"is_disabled":false,"rental_uris":{"android":"levelo://app?vid=3a480ddb-ee4c-4b9d-b703-0a215a8b5f4c","ios":"levelo://app?vid=3a480ddb-ee4c-4b9d-b703-0a215a8b5f4c"},"vehicle_type_id":"4","last_reported":1713010226,"current_range_meters":22400,"station_id":"ce4bhch2rcd13ifvqeug","pricing_plan_id":"cebpf4jnsgd1na2vs0mg"},{"bike_id":"03b0c6eb-1b5b-4df3-b523-587918a676d0","system_id":"levelo_inurba_marseille","lat":43.28615,"lon":5.35098,"is_reserved":false,"is_disabled":false,"rental_uris":{"android":"levelo://app?vid=03b0c6eb-1b5b-4df3-b523-587918a676d0","ios":"levelo://app?vid=03b0c6eb-1b5b-4df3-b523-587918a676d0"},"vehicle_type_id":"4","last_reported":1713010226,"current_range_meters":9200,"station_id":"ce4bhch2rcd13ifvqeug","pricing_plan_id":"cebpf4jnsgd1na2vs0mg"},{"bike_id":"f56fa93f-a819-4ad9-a4d3-cb795a723308","system_id":"levelo_inurba_marseille","lat":43.286138,"lon":5.350993,"is_reserved":false,"is_disabled":false,"rental_uris":{"android":"levelo://app?vid=f56fa93f-a819-4ad9-a4d3-cb795a723308","ios":"levelo://app?vid=f56fa93f-a819-4ad9-a4d3-cb795a723308"},"vehicle_type_id":"4","last_reported":1713010226,"current_range_meters":31200,"station_id":"ce4bhch2rcd13ifvqeug","pricing_plan_id":"cebpf4jnsgd1na2vs0mg"},{"bike_id":"ee52b748-cc8d-4a85-b593-1c5d0521c97e","system_id":"levelo_inurba_marseille","lat":43.28612,"lon":5.35105,"is_reserved":false,"is_disabled":false,"rental_uris":{"android":"levelo://app?vid=ee52b748-cc8d-4a85-b593-1c5d0521c97e","ios":"levelo://app?vid=ee52b748-cc8d-4a85-b593-1c5d0521c97e"},"vehicle_type_id":"4","last_reported":1713010226,"current_range_meters":16000,"station_id":"ce4bhch2rcd13ifvqeug","pricing_plan_id":"cebpf4jnsgd1na2vs0mg"},{"bike_id":"7a3cfc3c-02cb-4cb8-a522-4dd5019cb272","system_id":"levelo_inurba_marseille","lat":43.28614,"lon":5.35098,"is_reserved":false,"is_disabled":false,"rental_uris":{"android":"levelo://app?vid=7a3cfc3c-02cb-4cb8-a522-4dd5019cb272","ios":"levelo://app?vid=7a3cfc3c-02cb-4cb8-a522-4dd5019cb272"},"vehicle_type_id":"4","last_reported":1713010226,"current_range_meters":25200,"station_id":"ce4bhch2rcd13ifvqeug","pricing_plan_id":"cebpf4jnsgd1na2vs0mg"},{"bike_id":"51557138-2dc3-4f81-ae06-7a98b9499dca","system_id":"levelo_inurba_marseille","lat":43.285856,"lon":5.350771,"is_reserved":false,"is_disabled":false,"rental_uris":{"android":"levelo://app?vid=51557138-2dc3-4f81-ae06-7a98b9499dca","ios":"levelo://app?vid=51557138-2dc3-4f81-ae06-7a98b9499dca"},"vehicle_type_id":"4","last_reported":1713010226,"current_range_meters":23200,"station_id":"ce4bhch2rcd13ifvqeug","pricing_plan_id":"cebpf4jnsgd1na2vs0mg"},{"bike_id":"eb7cdcda-aea5-4d19-82eb-db2418329474","system_id":"levelo_inurba_marseille","lat":43.28612,"lon":5.35102,"is_reserved":false,"is_disabled":false,"rental_uris":{"android":"levelo://app?vid=eb7cdcda-aea5-4d19-82eb-db2418329474","ios":"levelo://app?vid=eb7cdcda-aea5-4d19-82eb-db2418329474"},"vehicle_type_id":"4","last_reported":1713010226,"current_range_meters":18400,"station_id":"ce4bhch2rcd13ifvqeug","pricing_plan_id":"cebpf4jnsgd1na2vs0mg"},{"bike_id":"98884514-9a15-430d-9dab-edc65e0c5439","system_id":"levelo_inurba_marseille","lat":43.28611,"lon":5.35105,"is_reserved":false,"is_disabled":false,"rental_uris":{"android":"levelo://app?vid=98884514-9a15-430d-9dab-edc65e0c5439","ios":"levelo://app?vid=98884514-9a15-430d-9dab-edc65e0c5439"},"vehicle_type_id":"4","last_reported":1713010226,"current_range_meters":16000,"station_id":"ce4bhch2rcd13ifvqeug","pricing_plan_id":"cebpf4jnsgd1na2vs0mg"},{"bike_id":"a0ad2876-30a2-49af-96d3-643e3bc96da4","system_id":"levelo_inurba_marseille","lat":43.285848,"lon":5.350787,"is_reserved":false,"is_disabled":false,"rental_uris":{"android":"levelo://app?vid=a0ad2876-30a2-49af-96d3-643e3bc96da4","ios":"levelo://app?vid=a0ad2876-30a2-49af-96d3-643e3bc96da4"},"vehicle_type_id":"4","last_reported":1713010226,"current_range_meters":5200,"station_id":"ce4bhch2rcd13ifvqeug","pricing_plan_id":"cebpf4jnsgd1na2vs0mg"},{"bike_id":"243177a4-5c14-4592-a746-d5a2fcb8f72b","system_id":"levelo_inurba_marseille","lat":43.28612,"lon":5.35098,"is_reserved":false,"is_disabled":false,"rental_uris":{"android":"levelo://app?vid=243177a4-5c14-4592-a746-d5a2fcb8f72b","ios":"levelo://app?vid=243177a4-5c14-4592-a746-d5a2fcb8f72b"},"vehicle_type_id":"4","last_reported":1713010226,"current_range_meters":3600,"station_id":"ce4bhch2rcd13ifvqeug","pricing_plan_id":"cebpf4jnsgd1na2vs0mg"},{"bike_id":"52e3046e-4ec9-49cf-9613-11a0e9b901d3","system_id":"levelo_inurba_marseille","lat":43.286593,"lon":5.363346,"is_reserved":false,"is_disabled":false,"rental_uris":{"android":"levelo://app?vid=52e3046e-4ec9-49cf-9613-11a0e9b901d3","ios":"levelo://app?vid=52e3046e-4ec9-49cf-9613-11a0e9b901d3"},"vehicle_type_id":"4","last_reported":1713010226,"current_range_meters":31200,"station_id":"ce4bhah2rcd13ifvqej0","pricing_plan_id":"cebpf4jnsgd1na2vs0mg"},{"bike_id":"7c518988-3733-4cf7-9541-3c88688502d3","system_id":"levelo_inurba_marseille","lat":43.283998,"lon":5.375062,"is_reserved":false,"is_disabled":false,"rental_uris":{"android":"levelo://app?vid=7c518988-3733-4cf7-9541-3c88688502d3","ios":"levelo://app?vid=7c518988-3733-4cf7-9541-3c88688502d3"},"vehicle_type_id":"4","last_reported":1713010226,"current_range_meters":11600,"station_id":"ce4bh412rcd13ifvqds0","pricing_plan_id":"cebpf4jnsgd1na2vs0mg"},{"bike_id":"ecd5d107-c326-450d-9c57-5ebde999a3d0","system_id":"levelo_inurba_marseille","lat":43.282744,"lon":5.350533,"is_reserved":false,"is_disabled":false,"rental_uris":{"android":"levelo://app?vid=ecd5d107-c326-450d-9c57-5ebde999a3d0","ios":"levelo://app?vid=ecd5d107-c326-450d-9c57-5ebde999a3d0"},"vehicle_type_id":"4","last_reported":1713010226,"current_range_meters":12000,"station_id":"ce4bhbp2rcd13ifvqerg","pricing_plan_id":"cebpf4jnsgd1na2vs0mg"},{"bike_id":"b363f981-a0cd-4a67-a4ce-32cdfed47641","system_id":"levelo_inurba_marseille","lat":43.32334,"lon":5.40598,"is_reserved":false,"is_disabled":false,"rental_uris":{"android":"levelo://app?vid=b363f981-a0cd-4a67-a4ce-32cdfed47641","ios":"levelo://app?vid=b363f981-a0cd-4a67-a4ce-32cdfed47641"},"vehicle_type_id":"4","last_reported":1713010226,"current_range_meters":16800,"station_id":"ce4bhq92rcd13ifvqhjg","pricing_plan_id":"cebpf4jnsgd1na2vs0mg"},{"bike_id":"21f73696-4c4f-40fe-b8e8-7048394cb6a2","system_id":"levelo_inurba_marseille","lat":43.337161,"lon":5.3918,"is_reserved":false,"is_disabled":false,"rental_uris":{"android":"levelo://app?vid=21f73696-4c4f-40fe-b8e8-7048394cb6a2","ios":"levelo://app?vid=21f73696-4c4f-40fe-b8e8-7048394cb6a2"},"vehicle_type_id":"4","last_reported":1713010226,"current_range_meters":10400,"station_id":"ce4bhr92rcd13ifvqhsg","pricing_plan_id":"cebpf4jnsgd1na2vs0mg"},{"bike_id":"5ff9c081-5ce3-4b73-a561-fc37bee356b3","system_id":"levelo_inurba_marseille","lat":43.33722,"lon":5.39177,"is_reserved":false,"is_disabled":false,"rental_uris":{"android":"levelo://app?vid=5ff9c081-5ce3-4b73-a561-fc37bee356b3","ios":"levelo://app?vid=5ff9c081-5ce3-4b73-a561-fc37bee356b3"},"vehicle_type_id":"4","last_reported":1713010226,"current_range_meters":21200,"station_id":"ce4bhr92rcd13ifvqhsg","pricing_plan_id":"cebpf4jnsgd1na2vs0mg"},{"bike_id":"48768494-ea7e-4fd0-a730-d33b81b8d18f","system_id":"levelo_inurba_marseille","lat":43.33717,"lon":5.391857,"is_reserved":false,"is_disabled":false,"rental_uris":{"android":"levelo://app?vid=48768494-ea7e-4fd0-a730-d33b81b8d18f","ios":"levelo://app?vid=48768494-ea7e-4fd0-a730-d33b81b8d18f"},"vehicle_type_id":"4","last_reported":1713010226,"current_range_meters":30000,"station_id":"ce4bhr92rcd13ifvqhsg","pricing_plan_id":"cebpf4jnsgd1na2vs0mg"},{"bike_id":"494b8c86-fd7c-4152-951e-41536c8e8b41","system_id":"levelo_inurba_marseille","lat":43.337168,"lon":5.391825,"is_reserved":false,"is_disabled":false,"rental_uris":{"android":"levelo://app?vid=494b8c86-fd7c-4152-951e-41536c8e8b41","ios":"levelo://app?vid=494b8c86-fd7c-4152-951e-41536c8e8b41"},"vehicle_type_id":"4","last_reported":1713010226,"current_range_meters":31200,"station_id":"ce4bhr92rcd13ifvqhsg","pricing_plan_id":"cebpf4jnsgd1na2vs0mg"},{"bike_id":"7ed4b02f-8d66-4ba4-8136-5daa3c3ff9ae","system_id":"levelo_inurba_marseille","lat":43.32336,"lon":5.40621,"is_reserved":false,"is_disabled":false,"rental_uris":{"android":"levelo://app?vid=7ed4b02f-8d66-4ba4-8136-5daa3c3ff9ae","ios":"levelo://app?vid=7ed4b02f-8d66-4ba4-8136-5daa3c3ff9ae"},"vehicle_type_id":"4","last_reported":1713010226,"current_range_meters":31200,"station_id":"ce4bhq92rcd13ifvqhjg","pricing_plan_id":"cebpf4jnsgd1na2vs0mg"},{"bike_id":"c07a8a61-fa8f-46a0-a31b-3c5f82985b1b","system_id":"levelo_inurba_marseille","lat":43.32348,"lon":5.40619,"is_reserved":false,"is_disabled":false,"rental_uris":{"android":"levelo://app?vid=c07a8a61-fa8f-46a0-a31b-3c5f82985b1b","ios":"levelo://app?vid=c07a8a61-fa8f-46a0-a31b-3c5f82985b1b"},"vehicle_type_id":"4","last_reported":1713010226,"current_range_meters":28000,"station_id":"ce4bhq92rcd13ifvqhjg","pricing_plan_id":"cebpf4jnsgd1na2vs0mg"},{"bike_id":"c8e5d4e6-8c32-493a-b590-ab337f951482","system_id":"levelo_inurba_marseille","lat":43.337168,"lon":5.391825,"is_reserved":false,"is_disabled":false,"rental_uris":{"android":"levelo://app?vid=c8e5d4e6-8c32-493a-b590-ab337f951482","ios":"levelo://app?vid=c8e5d4e6-8c32-493a-b590-ab337f951482"},"vehicle_type_id":"4","last_reported":1713010226,"current_range_meters":14800,"station_id":"ce4bhr92rcd13ifvqhsg","pricing_plan_id":"cebpf4jnsgd1na2vs0mg"},{"bike_id":"4231e44f-6e64-47d9-802b-1946e9c53ecf","system_id":"levelo_inurba_marseille","lat":43.32532,"lon":5.40558,"is_reserved":false,"is_disabled":false,"rental_uris":{"android":"levelo://app?vid=4231e44f-6e64-47d9-802b-1946e9c53ecf","ios":"levelo://app?vid=4231e44f-6e64-47d9-802b-1946e9c53ecf"},"vehicle_type_id":"4","last_reported":1713010226,"current_range_meters":5200,"station_id":"","pricing_plan_id":"cebpf4jnsgd1na2vs0mg"},{"bike_id":"d9ca1156-ced6-4c3a-8439-a241fabfb770","system_id":"levelo_inurba_marseille","lat":43.32533,"lon":5.40562,"is_reserved":false,"is_disabled":false,"rental_uris":{"android":"levelo://app?vid=d9ca1156-ced6-4c3a-8439-a241fabfb770","ios":"levelo://app?vid=d9ca1156-ced6-4c3a-8439-a241fabfb770"},"vehicle_type_id":"4","last_reported":1713010226,"current_range_meters":9200,"station_id":"","pricing_plan_id":"cebpf4jnsgd1na2vs0mg"},{"bike_id":"16354239-de35-43ca-875c-92bb4a5ace82","system_id":"levelo_inurba_marseille","lat":43.32534,"lon":5.40567,"is_reserved":false,"is_disabled":false,"rental_uris":{"android":"levelo://app?vid=16354239-de35-43ca-875c-92bb4a5ace82","ios":"levelo://app?vid=16354239-de35-43ca-875c-92bb4a5ace82"},"vehicle_type_id":"4","last_reported":1713010226,"current_range_meters":24400,"station_id":"","pricing_plan_id":"cebpf4jnsgd1na2vs0mg"},{"bike_id":"e3b311c5-5879-4b4d-95b4-6cd571614535","system_id":"levelo_inurba_marseille","lat":43.284392,"lon":5.349909,"is_reserved":false,"is_disabled":false,"rental_uris":{"android":"levelo://app?vid=e3b311c5-5879-4b4d-95b4-6cd571614535","ios":"levelo://app?vid=e3b311c5-5879-4b4d-95b4-6cd571614535"},"vehicle_type_id":"4","last_reported":1713010226,"current_range_meters":20800,"station_id":"ce4bhbh2rcd13ifvqepg","pricing_plan_id":"cebpf4jnsgd1na2vs0mg"},{"bike_id":"472dcc7b-43d9-4626-b4d9-a1b1b2a77731","system_id":"levelo_inurba_marseille","lat":43.282744,"lon":5.350533,"is_reserved":false,"is_disabled":false,"rental_uris":{"android":"levelo://app?vid=472dcc7b-43d9-4626-b4d9-a1b1b2a77731","ios":"levelo://app?vid=472dcc7b-43d9-4626-b4d9-a1b1b2a77731"},"vehicle_type_id":"4","last_reported":1713010226,"current_range_meters":5600,"station_id":"ce4bhbp2rcd13ifvqerg","pricing_plan_id":"cebpf4jnsgd1na2vs0mg"},{"bike_id":"c517de6e-c999-4091-8db3-d8af608e5310","system_id":"levelo_inurba_marseille","lat":43.284282,"lon":5.34985,"is_reserved":false,"is_disabled":false,"rental_uris":{"android":"levelo://app?vid=c517de6e-c999-4091-8db3-d8af608e5310","ios":"levelo://app?vid=c517de6e-c999-4091-8db3-d8af608e5310"},"vehicle_type_id":"4","last_reported":1713010226,"current_range_meters":19200,"station_id":"ce4bhbh2rcd13ifvqepg","pricing_plan_id":"cebpf4jnsgd1na2vs0mg"},{"bike_id":"57d9ad98-6b20-4398-b520-d798ed257602","system_id":"levelo_inurba_marseille","lat":43.284273,"lon":5.34988,"is_reserved":false,"is_disabled":false,"rental_uris":{"android":"levelo://app?vid=57d9ad98-6b20-4398-b520-d798ed257602","ios":"levelo://app?vid=57d9ad98-6b20-4398-b520-d798ed257602"},"vehicle_type_id":"4","last_reported":1713010226,"current_range_meters":16800,"station_id":"ce4bhbh2rcd13ifvqepg","pricing_plan_id":"cebpf4jnsgd1na2vs0mg"},{"bike_id":"2415b101-93b8-4bf0-ade8-7e2231f32ed6","system_id":"levelo_inurba_marseille","lat":43.28422,"lon":5.35004,"is_reserved":false,"is_disabled":false,"rental_uris":{"android":"levelo://app?vid=2415b101-93b8-4bf0-ade8-7e2231f32ed6","ios":"levelo://app?vid=2415b101-93b8-4bf0-ade8-7e2231f32ed6"},"vehicle_type_id":"4","last_reported":1713010226,"current_range_meters":28400,"station_id":"ce4bhbh2rcd13ifvqepg","pricing_plan_id":"cebpf4jnsgd1na2vs0mg"},{"bike_id":"7810121d-252e-49aa-93a4-6833607550af","system_id":"levelo_inurba_marseille","lat":43.284243,"lon":5.349907,"is_reserved":false,"is_disabled":false,"rental_uris":{"android":"levelo://app?vid=7810121d-252e-49aa-93a4-6833607550af","ios":"levelo://app?vid=7810121d-252e-49aa-93a4-6833607550af"},"vehicle_type_id":"4","last_reported":1713010226,"current_range_meters":16400,"station_id":"ce4bhbh2rcd13ifvqepg","pricing_plan_id":"cebpf4jnsgd1na2vs0mg"},{"bike_id":"363675a8-fa55-40a8-8b63-1dfe3fe076c2","system_id":"levelo_inurba_marseille","lat":43.28427,"lon":5.349803,"is_reserved":false,"is_disabled":false,"rental_uris":{"android":"levelo://app?vid=363675a8-fa55-40a8-8b63-1dfe3fe076c2","ios":"levelo://app?vid=363675a8-fa55-40a8-8b63-1dfe3fe076c2"},"vehicle_type_id":"4","last_reported":1713010226,"current_range_meters":31200,"station_id":"ce4bhbh2rcd13ifvqepg","pricing_plan_id":"cebpf4jnsgd1na2vs0mg"},{"bike_id":"0cebd58f-9e81-4c57-803f-4d10bffeae45","system_id":"levelo_inurba_marseille","lat":43.284233,"lon":5.349909,"is_reserved":false,"is_disabled":false,"rental_uris":{"android":"levelo://app?vid=0cebd58f-9e81-4c57-803f-4d10bffeae45","ios":"levelo://app?vid=0cebd58f-9e81-4c57-803f-4d10bffeae45"},"vehicle_type_id":"4","last_reported":1713010226,"current_range_meters":8000,"station_id":"ce4bhbh2rcd13ifvqepg","pricing_plan_id":"cebpf4jnsgd1na2vs0mg"},{"bike_id":"928ccc75-b1b6-43aa-a9a0-46222b3ee647","system_id":"levelo_inurba_marseille","lat":43.28423,"lon":5.34989,"is_reserved":false,"is_disabled":false,"rental_uris":{"android":"levelo://app?vid=928ccc75-b1b6-43aa-a9a0-46222b3ee647","ios":"levelo://app?vid=928ccc75-b1b6-43aa-a9a0-46222b3ee647"},"vehicle_type_id":"4","last_reported":1713010226,"current_range_meters":24400,"station_id":"ce4bhbh2rcd13ifvqepg","pricing_plan_id":"cebpf4jnsgd1na2vs0mg"},{"bike_id":"65baf02d-53af-4ac7-8374-7bc566159296","system_id":"levelo_inurba_marseille","lat":43.28423,"lon":5.34987,"is_reserved":false,"is_disabled":false,"rental_uris":{"android":"levelo://app?vid=65baf02d-53af-4ac7-8374-7bc566159296","ios":"levelo://app?vid=65baf02d-53af-4ac7-8374-7bc566159296"},"vehicle_type_id":"4","last_reported":1713010226,"current_range_meters":17200,"station_id":"ce4bhbh2rcd13ifvqepg","pricing_plan_id":"cebpf4jnsgd1na2vs0mg"},{"bike_id":"6651ff3d-99df-4396-bcbd-eb0afd675650","system_id":"levelo_inurba_marseille","lat":43.28421,"lon":5.34992,"is_reserved":false,"is_disabled":false,"rental_uris":{"android":"levelo://app?vid=6651ff3d-99df-4396-bcbd-eb0afd675650","ios":"levelo://app?vid=6651ff3d-99df-4396-bcbd-eb0afd675650"},"vehicle_type_id":"4","last_reported":1713010226,"current_range_meters":17200,"station_id":"ce4bhbh2rcd13ifvqepg","pricing_plan_id":"cebpf4jnsgd1na2vs0mg"},{"bike_id":"b24fe386-4b69-482f-aa44-84e07c62a6f9","system_id":"levelo_inurba_marseille","lat":43.284234,"lon":5.349844,"is_reserved":false,"is_disabled":false,"rental_uris":{"android":"levelo://app?vid=b24fe386-4b69-482f-aa44-84e07c62a6f9","ios":"levelo://app?vid=b24fe386-4b69-482f-aa44-84e07c62a6f9"},"vehicle_type_id":"4","last_reported":1713010226,"current_range_meters":2400,"station_id":"ce4bhbh2rcd13ifvqepg","pricing_plan_id":"cebpf4jnsgd1na2vs0mg"},{"bike_id":"27217ddc-7632-43fe-87bd-67ed096c531e","system_id":"levelo_inurba_marseille","lat":43.28423,"lon":5.34978,"is_reserved":false,"is_disabled":false,"rental_uris":{"android":"levelo://app?vid=27217ddc-7632-43fe-87bd-67ed096c531e","ios":"levelo://app?vid=27217ddc-7632-43fe-87bd-67ed096c531e"},"vehicle_type_id":"4","last_reported":1713010226,"current_range_meters":14400,"station_id":"ce4bhbh2rcd13ifvqepg","pricing_plan_id":"cebpf4jnsgd1na2vs0mg"},{"bike_id":"5c916bd3-da40-438e-b383-340599460273","system_id":"levelo_inurba_marseille","lat":43.28421,"lon":5.34983,"is_reserved":false,"is_disabled":false,"rental_uris":{"android":"levelo://app?vid=5c916bd3-da40-438e-b383-340599460273","ios":"levelo://app?vid=5c916bd3-da40-438e-b383-340599460273"},"vehicle_type_id":"4","last_reported":1713010226,"current_range_meters":15200,"station_id":"ce4bhbh2rcd13ifvqepg","pricing_plan_id":"cebpf4jnsgd1na2vs0mg"},{"bike_id":"1e70b70d-ae92-49bf-84f1-5f192d8697a5","system_id":"levelo_inurba_marseille","lat":43.28421,"lon":5.34983,"is_reserved":false,"is_disabled":false,"rental_uris":{"android":"levelo://app?vid=1e70b70d-ae92-49bf-84f1-5f192d8697a5","ios":"levelo://app?vid=1e70b70d-ae92-49bf-84f1-5f192d8697a5"},"vehicle_type_id":"4","last_reported":1713010226,"current_range_meters":31200,"station_id":"ce4bhbh2rcd13ifvqepg","pricing_plan_id":"cebpf4jnsgd1na2vs0mg"},{"bike_id":"dfdf9d22-1f57-4582-b837-09691561f769","system_id":"levelo_inurba_marseille","lat":43.28419,"lon":5.349892,"is_reserved":false,"is_disabled":false,"rental_uris":{"android":"levelo://app?vid=dfdf9d22-1f57-4582-b837-09691561f769","ios":"levelo://app?vid=dfdf9d22-1f57-4582-b837-09691561f769"},"vehicle_type_id":"4","last_reported":1713010226,"current_range_meters":15200,"station_id":"ce4bhbh2rcd13ifvqepg","pricing_plan_id":"cebpf4jnsgd1na2vs0mg"},{"bike_id":"62430a3d-7bc3-467f-a344-057e6c75a491","system_id":"levelo_inurba_marseille","lat":43.2842,"lon":5.34986,"is_reserved":false,"is_disabled":false,"rental_uris":{"android":"levelo://app?vid=62430a3d-7bc3-467f-a344-057e6c75a491","ios":"levelo://app?vid=62430a3d-7bc3-467f-a344-057e6c75a491"},"vehicle_type_id":"4","last_reported":1713010226,"current_range_meters":16400,"station_id":"ce4bhbh2rcd13ifvqepg","pricing_plan_id":"cebpf4jnsgd1na2vs0mg"},{"bike_id":"845baa49-a80d-462b-bc0f-ef057bd30f27","system_id":"levelo_inurba_marseille","lat":43.28422,"lon":5.34979,"is_reserved":false,"is_disabled":false,"rental_uris":{"android":"levelo://app?vid=845baa49-a80d-462b-bc0f-ef057bd30f27","ios":"levelo://app?vid=845baa49-a80d-462b-bc0f-ef057bd30f27"},"vehicle_type_id":"4","last_reported":1713010226,"current_range_meters":12400,"station_id":"ce4bhbh2rcd13ifvqepg","pricing_plan_id":"cebpf4jnsgd1na2vs0mg"},{"bike_id":"df3c0d40-11fc-41b7-ac9c-c8c7ba8cc8f4","system_id":"levelo_inurba_marseille","lat":43.2842,"lon":5.34985,"is_reserved":false,"is_disabled":false,"rental_uris":{"android":"levelo://app?vid=df3c0d40-11fc-41b7-ac9c-c8c7ba8cc8f4","ios":"levelo://app?vid=df3c0d40-11fc-41b7-ac9c-c8c7ba8cc8f4"},"vehicle_type_id":"4","last_reported":1713010226,"current_range_meters":21200,"station_id":"ce4bhbh2rcd13ifvqepg","pricing_plan_id":"cebpf4jnsgd1na2vs0mg"},{"bike_id":"32e21b67-5148-438e-853e-c04d1362b5eb","system_id":"levelo_inurba_marseille","lat":43.284191,"lon":5.349871,"is_reserved":false,"is_disabled":false,"rental_uris":{"android":"levelo://app?vid=32e21b67-5148-438e-853e-c04d1362b5eb","ios":"levelo://app?vid=32e21b67-5148-438e-853e-c04d1362b5eb"},"vehicle_type_id":"4","last_reported":1713010226,"current_range_meters":24800,"station_id":"ce4bhbh2rcd13ifvqepg","pricing_plan_id":"cebpf4jnsgd1na2vs0mg"},{"bike_id":"2563a3bd-5ea9-49f7-b316-2b4c24c44979","system_id":"levelo_inurba_marseille","lat":43.28419,"lon":5.34987,"is_reserved":false,"is_disabled":false,"rental_uris":{"android":"levelo://app?vid=2563a3bd-5ea9-49f7-b316-2b4c24c44979","ios":"levelo://app?vid=2563a3bd-5ea9-49f7-b316-2b4c24c44979"},"vehicle_type_id":"4","last_reported":1713010226,"current_range_meters":21200,"station_id":"ce4bhbh2rcd13ifvqepg","pricing_plan_id":"cebpf4jnsgd1na2vs0mg"},{"bike_id":"680fe025-328a-4da2-925a-dd577f054444","system_id":"levelo_inurba_marseille","lat":43.284183,"lon":5.349876,"is_reserved":false,"is_disabled":false,"rental_uris":{"android":"levelo://app?vid=680fe025-328a-4da2-925a-dd577f054444","ios":"levelo://app?vid=680fe025-328a-4da2-925a-dd577f054444"},"vehicle_type_id":"4","last_reported":1713010226,"current_range_meters":14000,"station_id":"ce4bhbh2rcd13ifvqepg","pricing_plan_id":"cebpf4jnsgd1na2vs0mg"},{"bike_id":"5f07de1d-8f5a-40b0-81e8-1c86252648eb","system_id":"levelo_inurba_marseille","lat":43.2842,"lon":5.34982,"is_reserved":false,"is_disabled":false,"rental_uris":{"android":"levelo://app?vid=5f07de1d-8f5a-40b0-81e8-1c86252648eb","ios":"levelo://app?vid=5f07de1d-8f5a-40b0-81e8-1c86252648eb"},"vehicle_type_id":"4","last_reported":1713010226,"current_range_meters":8800,"station_id":"ce4bhbh2rcd13ifvqepg","pricing_plan_id":"cebpf4jnsgd1na2vs0mg"},{"bike_id":"90bf6c53-4592-4b5d-94c8-09d58e828fd9","system_id":"levelo_inurba_marseille","lat":43.2842,"lon":5.34981,"is_reserved":false,"is_disabled":false,"rental_uris":{"android":"levelo://app?vid=90bf6c53-4592-4b5d-94c8-09d58e828fd9","ios":"levelo://app?vid=90bf6c53-4592-4b5d-94c8-09d58e828fd9"},"vehicle_type_id":"4","last_reported":1713010226,"current_range_meters":2000,"station_id":"ce4bhbh2rcd13ifvqepg","pricing_plan_id":"cebpf4jnsgd1na2vs0mg"},{"bike_id":"37d8726e-2352-40ea-b096-1023f35b82cd","system_id":"levelo_inurba_marseille","lat":43.28421,"lon":5.34977,"is_reserved":false,"is_disabled":false,"rental_uris":{"android":"levelo://app?vid=37d8726e-2352-40ea-b096-1023f35b82cd","ios":"levelo://app?vid=37d8726e-2352-40ea-b096-1023f35b82cd"},"vehicle_type_id":"4","last_reported":1713010226,"current_range_meters":5200,"station_id":"ce4bhbh2rcd13ifvqepg","pricing_plan_id":"cebpf4jnsgd1na2vs0mg"},{"bike_id":"e3e47d49-27ae-4442-8206-726760315db4","system_id":"levelo_inurba_marseille","lat":43.28417,"lon":5.34988,"is_reserved":false,"is_disabled":false,"rental_uris":{"android":"levelo://app?vid=e3e47d49-27ae-4442-8206-726760315db4","ios":"levelo://app?vid=e3e47d49-27ae-4442-8206-726760315db4"},"vehicle_type_id":"4","last_reported":1713010226,"current_range_meters":26000,"station_id":"ce4bhbh2rcd13ifvqepg","pricing_plan_id":"cebpf4jnsgd1na2vs0mg"},{"bike_id":"5bec1293-3a62-4786-a8e3-deded41f1a63","system_id":"levelo_inurba_marseille","lat":43.2842,"lon":5.34978,"is_reserved":false,"is_disabled":false,"rental_uris":{"android":"levelo://app?vid=5bec1293-3a62-4786-a8e3-deded41f1a63","ios":"levelo://app?vid=5bec1293-3a62-4786-a8e3-deded41f1a63"},"vehicle_type_id":"4","last_reported":1713010226,"current_range_meters":12800,"station_id":"ce4bhbh2rcd13ifvqepg","pricing_plan_id":"cebpf4jnsgd1na2vs0mg"},{"bike_id":"ce41afb6-762c-4f84-b8d9-406ca2a56645","system_id":"levelo_inurba_marseille","lat":43.28419,"lon":5.34981,"is_reserved":false,"is_disabled":false,"rental_uris":{"android":"levelo://app?vid=ce41afb6-762c-4f84-b8d9-406ca2a56645","ios":"levelo://app?vid=ce41afb6-762c-4f84-b8d9-406ca2a56645"},"vehicle_type_id":"4","last_reported":1713010226,"current_range_meters":10400,"station_id":"ce4bhbh2rcd13ifvqepg","pricing_plan_id":"cebpf4jnsgd1na2vs0mg"},{"bike_id":"f77ccc6d-c6e3-472e-bd63-f217bd206b9f","system_id":"levelo_inurba_marseille","lat":43.28418,"lon":5.34982,"is_reserved":false,"is_disabled":false,"rental_uris":{"android":"levelo://app?vid=f77ccc6d-c6e3-472e-bd63-f217bd206b9f","ios":"levelo://app?vid=f77ccc6d-c6e3-472e-bd63-f217bd206b9f"},"vehicle_type_id":"4","last_reported":1713010226,"current_range_meters":17600,"station_id":"ce4bhbh2rcd13ifvqepg","pricing_plan_id":"cebpf4jnsgd1na2vs0mg"},{"bike_id":"43c3d711-629e-4d78-a616-1e5eb42b8837","system_id":"levelo_inurba_marseille","lat":43.28418,"lon":5.34982,"is_reserved":false,"is_disabled":false,"rental_uris":{"android":"levelo://app?vid=43c3d711-629e-4d78-a616-1e5eb42b8837","ios":"levelo://app?vid=43c3d711-629e-4d78-a616-1e5eb42b8837"},"vehicle_type_id":"4","last_reported":1713010226,"current_range_meters":13200,"station_id":"ce4bhbh2rcd13ifvqepg","pricing_plan_id":"cebpf4jnsgd1na2vs0mg"},{"bike_id":"711036c5-8aa3-47b6-8e1d-a3b041d7500d","system_id":"levelo_inurba_marseille","lat":43.28418,"lon":5.34982,"is_reserved":false,"is_disabled":false,"rental_uris":{"android":"levelo://app?vid=711036c5-8aa3-47b6-8e1d-a3b041d7500d","ios":"levelo://app?vid=711036c5-8aa3-47b6-8e1d-a3b041d7500d"},"vehicle_type_id":"4","last_reported":1713010226,"current_range_meters":18800,"station_id":"ce4bhbh2rcd13ifvqepg","pricing_plan_id":"cebpf4jnsgd1na2vs0mg"},{"bike_id":"957330e6-ac62-4262-a412-659e56631f5c","system_id":"levelo_inurba_marseille","lat":43.28419,"lon":5.34977,"is_reserved":false,"is_disabled":false,"rental_uris":{"android":"levelo://app?vid=957330e6-ac62-4262-a412-659e56631f5c","ios":"levelo://app?vid=957330e6-ac62-4262-a412-659e56631f5c"},"vehicle_type_id":"4","last_reported":1713010226,"current_range_meters":15200,"station_id":"ce4bhbh2rcd13ifvqepg","pricing_plan_id":"cebpf4jnsgd1na2vs0mg"},{"bike_id":"4b4f5eae-2e63-4daa-90e0-975505fa00d3","system_id":"levelo_inurba_marseille","lat":43.28419,"lon":5.34976,"is_reserved":false,"is_disabled":false,"rental_uris":{"android":"levelo://app?vid=4b4f5eae-2e63-4daa-90e0-975505fa00d3","ios":"levelo://app?vid=4b4f5eae-2e63-4daa-90e0-975505fa00d3"},"vehicle_type_id":"4","last_reported":1713010226,"current_range_meters":10000,"station_id":"ce4bhbh2rcd13ifvqepg","pricing_plan_id":"cebpf4jnsgd1na2vs0mg"},{"bike_id":"70e8d43c-0624-4962-811f-1506d41acc60","system_id":"levelo_inurba_marseille","lat":43.28416,"lon":5.34983,"is_reserved":false,"is_disabled":false,"rental_uris":{"android":"levelo://app?vid=70e8d43c-0624-4962-811f-1506d41acc60","ios":"levelo://app?vid=70e8d43c-0624-4962-811f-1506d41acc60"},"vehicle_type_id":"4","last_reported":1713010226,"current_range_meters":27200,"station_id":"ce4bhbh2rcd13ifvqepg","pricing_plan_id":"cebpf4jnsgd1na2vs0mg"},{"bike_id":"01563724-1217-40de-82a5-8535c9ff8f5d","system_id":"levelo_inurba_marseille","lat":43.284148,"lon":5.34985,"is_reserved":false,"is_disabled":false,"rental_uris":{"android":"levelo://app?vid=01563724-1217-40de-82a5-8535c9ff8f5d","ios":"levelo://app?vid=01563724-1217-40de-82a5-8535c9ff8f5d"},"vehicle_type_id":"4","last_reported":1713010226,"current_range_meters":15600,"station_id":"ce4bhbh2rcd13ifvqepg","pricing_plan_id":"cebpf4jnsgd1na2vs0mg"},{"bike_id":"51de2527-b9be-47fe-b50e-27ecced3b3df","system_id":"levelo_inurba_marseille","lat":43.28417,"lon":5.34977,"is_reserved":false,"is_disabled":false,"rental_uris":{"android":"levelo://app?vid=51de2527-b9be-47fe-b50e-27ecced3b3df","ios":"levelo://app?vid=51de2527-b9be-47fe-b50e-27ecced3b3df"},"vehicle_type_id":"4","last_reported":1713010226,"current_range_meters":10800,"station_id":"ce4bhbh2rcd13ifvqepg","pricing_plan_id":"cebpf4jnsgd1na2vs0mg"},{"bike_id":"03ea9cc7-8b80-40e9-b0d6-7eddd52973a9","system_id":"levelo_inurba_marseille","lat":43.284217,"lon":5.349697,"is_reserved":false,"is_disabled":false,"rental_uris":{"android":"levelo://app?vid=03ea9cc7-8b80-40e9-b0d6-7eddd52973a9","ios":"levelo://app?vid=03ea9cc7-8b80-40e9-b0d6-7eddd52973a9"},"vehicle_type_id":"4","last_reported":1713010226,"current_range_meters":26800,"station_id":"ce4bhbh2rcd13ifvqepg","pricing_plan_id":"cebpf4jnsgd1na2vs0mg"},{"bike_id":"1e12ef77-7aa1-4154-abdf-af1b339ff839","system_id":"levelo_inurba_marseille","lat":43.28416,"lon":5.3498,"is_reserved":false,"is_disabled":false,"rental_uris":{"android":"levelo://app?vid=1e12ef77-7aa1-4154-abdf-af1b339ff839","ios":"levelo://app?vid=1e12ef77-7aa1-4154-abdf-af1b339ff839"},"vehicle_type_id":"4","last_reported":1713010226,"current_range_meters":20800,"station_id":"ce4bhbh2rcd13ifvqepg","pricing_plan_id":"cebpf4jnsgd1na2vs0mg"},{"bike_id":"e7848cee-d148-437b-a59e-3671d7e3d450","system_id":"levelo_inurba_marseille","lat":43.28416,"lon":5.3498,"is_reserved":false,"is_disabled":false,"rental_uris":{"android":"levelo://app?vid=e7848cee-d148-437b-a59e-3671d7e3d450","ios":"levelo://app?vid=e7848cee-d148-437b-a59e-3671d7e3d450"},"vehicle_type_id":"4","last_reported":1713010226,"current_range_meters":9600,"station_id":"ce4bhbh2rcd13ifvqepg","pricing_plan_id":"cebpf4jnsgd1na2vs0mg"},{"bike_id":"01e34518-9d6a-47f3-a843-b9db735352bb","system_id":"levelo_inurba_marseille","lat":43.28408,"lon":5.35004,"is_reserved":false,"is_disabled":false,"rental_uris":{"android":"levelo://app?vid=01e34518-9d6a-47f3-a843-b9db735352bb","ios":"levelo://app?vid=01e34518-9d6a-47f3-a843-b9db735352bb"},"vehicle_type_id":"4","last_reported":1713010226,"current_range_meters":6000,"station_id":"ce4bhbh2rcd13ifvqepg","pricing_plan_id":"cebpf4jnsgd1na2vs0mg"},{"bike_id":"4120ce58-0084-4b83-9756-9f243e7016a7","system_id":"levelo_inurba_marseille","lat":43.28415,"lon":5.34981,"is_reserved":false,"is_disabled":false,"rental_uris":{"android":"levelo://app?vid=4120ce58-0084-4b83-9756-9f243e7016a7","ios":"levelo://app?vid=4120ce58-0084-4b83-9756-9f243e7016a7"},"vehicle_type_id":"4","last_reported":1713010226,"current_range_meters":23200,"station_id":"ce4bhbh2rcd13ifvqepg","pricing_plan_id":"cebpf4jnsgd1na2vs0mg"},{"bike_id":"01db5f17-698d-4d85-9ac9-a2863bfb80c7","system_id":"levelo_inurba_marseille","lat":43.28415,"lon":5.34981,"is_reserved":false,"is_disabled":false,"rental_uris":{"android":"levelo://app?vid=01db5f17-698d-4d85-9ac9-a2863bfb80c7","ios":"levelo://app?vid=01db5f17-698d-4d85-9ac9-a2863bfb80c7"},"vehicle_type_id":"4","last_reported":1713010226,"current_range_meters":16800,"station_id":"ce4bhbh2rcd13ifvqepg","pricing_plan_id":"cebpf4jnsgd1na2vs0mg"},{"bike_id":"557f9ea8-f044-43d2-86ba-e2ce75e4b424","system_id":"levelo_inurba_marseille","lat":43.28412,"lon":5.34988,"is_reserved":false,"is_disabled":false,"rental_uris":{"android":"levelo://app?vid=557f9ea8-f044-43d2-86ba-e2ce75e4b424","ios":"levelo://app?vid=557f9ea8-f044-43d2-86ba-e2ce75e4b424"},"vehicle_type_id":"4","last_reported":1713010226,"current_range_meters":11200,"station_id":"ce4bhbh2rcd13ifvqepg","pricing_plan_id":"cebpf4jnsgd1na2vs0mg"},{"bike_id":"332e0b64-c9d2-4f72-8833-2fbe8166cc1e","system_id":"levelo_inurba_marseille","lat":43.28414,"lon":5.34981,"is_reserved":false,"is_disabled":false,"rental_uris":{"android":"levelo://app?vid=332e0b64-c9d2-4f72-8833-2fbe8166cc1e","ios":"levelo://app?vid=332e0b64-c9d2-4f72-8833-2fbe8166cc1e"},"vehicle_type_id":"4","last_reported":1713010226,"current_range_meters":20000,"station_id":"ce4bhbh2rcd13ifvqepg","pricing_plan_id":"cebpf4jnsgd1na2vs0mg"},{"bike_id":"e91d0c2e-7ab8-4bf5-9a18-e44691ad39e8","system_id":"levelo_inurba_marseille","lat":43.28415,"lon":5.349761,"is_reserved":false,"is_disabled":false,"rental_uris":{"android":"levelo://app?vid=e91d0c2e-7ab8-4bf5-9a18-e44691ad39e8","ios":"levelo://app?vid=e91d0c2e-7ab8-4bf5-9a18-e44691ad39e8"},"vehicle_type_id":"4","last_reported":1713010226,"current_range_meters":13200,"station_id":"ce4bhbh2rcd13ifvqepg","pricing_plan_id":"cebpf4jnsgd1na2vs0mg"},{"bike_id":"845d3f40-fe5b-4555-86eb-1f3da6f342e4","system_id":"levelo_inurba_marseille","lat":43.2841,"lon":5.3499,"is_reserved":false,"is_disabled":false,"rental_uris":{"android":"levelo://app?vid=845d3f40-fe5b-4555-86eb-1f3da6f342e4","ios":"levelo://app?vid=845d3f40-fe5b-4555-86eb-1f3da6f342e4"},"vehicle_type_id":"4","last_reported":1713010226,"current_range_meters":15600,"station_id":"ce4bhbh2rcd13ifvqepg","pricing_plan_id":"cebpf4jnsgd1na2vs0mg"},{"bike_id":"b2b5bb7a-27bb-40f7-9c2f-22e9aa14e5c2","system_id":"levelo_inurba_marseille","lat":43.28413,"lon":5.3498,"is_reserved":false,"is_disabled":false,"rental_uris":{"android":"levelo://app?vid=b2b5bb7a-27bb-40f7-9c2f-22e9aa14e5c2","ios":"levelo://app?vid=b2b5bb7a-27bb-40f7-9c2f-22e9aa14e5c2"},"vehicle_type_id":"4","last_reported":1713010226,"current_range_meters":22800,"station_id":"ce4bhbh2rcd13ifvqepg","pricing_plan_id":"cebpf4jnsgd1na2vs0mg"},{"bike_id":"ab660554-1850-4ebb-af66-78b3d3d0d56d","system_id":"levelo_inurba_marseille","lat":43.28409,"lon":5.34992,"is_reserved":false,"is_disabled":false,"rental_uris":{"android":"levelo://app?vid=ab660554-1850-4ebb-af66-78b3d3d0d56d","ios":"levelo://app?vid=ab660554-1850-4ebb-af66-78b3d3d0d56d"},"vehicle_type_id":"4","last_reported":1713010226,"current_range_meters":10400,"station_id":"ce4bhbh2rcd13ifvqepg","pricing_plan_id":"cebpf4jnsgd1na2vs0mg"},{"bike_id":"247d6e05-8e6e-409c-a05c-c83789ea0f44","system_id":"levelo_inurba_marseille","lat":43.284125,"lon":5.3498,"is_reserved":false,"is_disabled":false,"rental_uris":{"android":"levelo://app?vid=247d6e05-8e6e-409c-a05c-c83789ea0f44","ios":"levelo://app?vid=247d6e05-8e6e-409c-a05c-c83789ea0f44"},"vehicle_type_id":"4","last_reported":1713010226,"current_range_meters":26800,"station_id":"ce4bhbh2rcd13ifvqepg","pricing_plan_id":"cebpf4jnsgd1na2vs0mg"},{"bike_id":"f3dd5371-6924-4c24-ac3a-19d4979477ca","system_id":"levelo_inurba_marseille","lat":43.28412,"lon":5.34981,"is_reserved":false,"is_disabled":false,"rental_uris":{"android":"levelo://app?vid=f3dd5371-6924-4c24-ac3a-19d4979477ca","ios":"levelo://app?vid=f3dd5371-6924-4c24-ac3a-19d4979477ca"},"vehicle_type_id":"4","last_reported":1713010226,"current_range_meters":8000,"station_id":"ce4bhbh2rcd13ifvqepg","pricing_plan_id":"cebpf4jnsgd1na2vs0mg"},{"bike_id":"869e3910-ab9e-4732-883b-1574c92eeccf","system_id":"levelo_inurba_marseille","lat":43.2841,"lon":5.34983,"is_reserved":false,"is_disabled":false,"rental_uris":{"android":"levelo://app?vid=869e3910-ab9e-4732-883b-1574c92eeccf","ios":"levelo://app?vid=869e3910-ab9e-4732-883b-1574c92eeccf"},"vehicle_type_id":"4","last_reported":1713010226,"current_range_meters":8000,"station_id":"ce4bhbh2rcd13ifvqepg","pricing_plan_id":"cebpf4jnsgd1na2vs0mg"},{"bike_id":"ed91fe6e-92c2-40c8-9f02-3a90888a6e43","system_id":"levelo_inurba_marseille","lat":43.284126,"lon":5.349736,"is_reserved":false,"is_disabled":false,"rental_uris":{"android":"levelo://app?vid=ed91fe6e-92c2-40c8-9f02-3a90888a6e43","ios":"levelo://app?vid=ed91fe6e-92c2-40c8-9f02-3a90888a6e43"},"vehicle_type_id":"4","last_reported":1713010226,"current_range_meters":8800,"station_id":"ce4bhbh2rcd13ifvqepg","pricing_plan_id":"cebpf4jnsgd1na2vs0mg"},{"bike_id":"d98de919-3898-4e64-8c1f-f6c7b53a3ea5","system_id":"levelo_inurba_marseille","lat":43.28408,"lon":5.34988,"is_reserved":false,"is_disabled":false,"rental_uris":{"android":"levelo://app?vid=d98de919-3898-4e64-8c1f-f6c7b53a3ea5","ios":"levelo://app?vid=d98de919-3898-4e64-8c1f-f6c7b53a3ea5"},"vehicle_type_id":"4","last_reported":1713010226,"current_range_meters":23600,"station_id":"ce4bhbh2rcd13ifvqepg","pricing_plan_id":"cebpf4jnsgd1na2vs0mg"},{"bike_id":"9c5a1687-9369-449c-afa2-d2d5a50b66ae","system_id":"levelo_inurba_marseille","lat":43.28409,"lon":5.349797,"is_reserved":false,"is_disabled":false,"rental_uris":{"android":"levelo://app?vid=9c5a1687-9369-449c-afa2-d2d5a50b66ae","ios":"levelo://app?vid=9c5a1687-9369-449c-afa2-d2d5a50b66ae"},"vehicle_type_id":"4","last_reported":1713010226,"current_range_meters":28400,"station_id":"ce4bhbh2rcd13ifvqepg","pricing_plan_id":"cebpf4jnsgd1na2vs0mg"},{"bike_id":"2a031065-cc1b-4bda-ab6c-7a96fb5436a3","system_id":"levelo_inurba_marseille","lat":43.28405,"lon":5.34991,"is_reserved":false,"is_disabled":false,"rental_uris":{"android":"levelo://app?vid=2a031065-cc1b-4bda-ab6c-7a96fb5436a3","ios":"levelo://app?vid=2a031065-cc1b-4bda-ab6c-7a96fb5436a3"},"vehicle_type_id":"4","last_reported":1713010226,"current_range_meters":18000,"station_id":"ce4bhbh2rcd13ifvqepg","pricing_plan_id":"cebpf4jnsgd1na2vs0mg"},{"bike_id":"ec63401c-21e5-45f1-ba39-9a2db6911806","system_id":"levelo_inurba_marseille","lat":43.28407,"lon":5.34982,"is_reserved":false,"is_disabled":false,"rental_uris":{"android":"levelo://app?vid=ec63401c-21e5-45f1-ba39-9a2db6911806","ios":"levelo://app?vid=ec63401c-21e5-45f1-ba39-9a2db6911806"},"vehicle_type_id":"4","last_reported":1713010226,"current_range_meters":25200,"station_id":"ce4bhbh2rcd13ifvqepg","pricing_plan_id":"cebpf4jnsgd1na2vs0mg"},{"bike_id":"ada28ec5-ba14-496b-b3cd-d695e70ab47e","system_id":"levelo_inurba_marseille","lat":43.28406,"lon":5.3498,"is_reserved":false,"is_disabled":false,"rental_uris":{"android":"levelo://app?vid=ada28ec5-ba14-496b-b3cd-d695e70ab47e","ios":"levelo://app?vid=ada28ec5-ba14-496b-b3cd-d695e70ab47e"},"vehicle_type_id":"4","last_reported":1713010226,"current_range_meters":14400,"station_id":"ce4bhbh2rcd13ifvqepg","pricing_plan_id":"cebpf4jnsgd1na2vs0mg"},{"bike_id":"3e238bfa-0bb6-4969-9526-3fcd6c35d000","system_id":"levelo_inurba_marseille","lat":43.28406,"lon":5.34979,"is_reserved":false,"is_disabled":false,"rental_uris":{"android":"levelo://app?vid=3e238bfa-0bb6-4969-9526-3fcd6c35d000","ios":"levelo://app?vid=3e238bfa-0bb6-4969-9526-3fcd6c35d000"},"vehicle_type_id":"4","last_reported":1713010226,"current_range_meters":23600,"station_id":"ce4bhbh2rcd13ifvqepg","pricing_plan_id":"cebpf4jnsgd1na2vs0mg"},{"bike_id":"3ed11bcb-7897-4f90-b657-9e7dd84cf0fb","system_id":"levelo_inurba_marseille","lat":43.289363,"lon":5.396322,"is_reserved":false,"is_disabled":false,"rental_uris":{"android":"levelo://app?vid=3ed11bcb-7897-4f90-b657-9e7dd84cf0fb","ios":"levelo://app?vid=3ed11bcb-7897-4f90-b657-9e7dd84cf0fb"},"vehicle_type_id":"4","last_reported":1713010226,"current_range_meters":23200,"station_id":"ce4bh3h2rcd13ifvqdn0","pricing_plan_id":"cebpf4jnsgd1na2vs0mg"},{"bike_id":"397e99bb-5afd-4b13-99f6-69c58da92da4","system_id":"levelo_inurba_marseille","lat":43.282754,"lon":5.350519,"is_reserved":false,"is_disabled":false,"rental_uris":{"android":"levelo://app?vid=397e99bb-5afd-4b13-99f6-69c58da92da4","ios":"levelo://app?vid=397e99bb-5afd-4b13-99f6-69c58da92da4"},