{"last_updated":1720206363,"ttl":30,"version":"2.2","data":{"bikes":[{"bike_id":"a2248641-1550-4065-a45d-a0445f3c75ed","system_id":"levelo_inurba_marseille","lat":43.313391,"lon":5.36706,"is_reserved":false,"is_disabled":false,"rental_uris":{"android":"levelo://app?vid=a2248641-1550-4065-a45d-a0445f3c75ed","ios":"levelo://app?vid=a2248641-1550-4065-a45d-a0445f3c75ed"},"vehicle_type_id":"4","last_reported":1720206363,"current_range_meters":28800,"station_id":"ce4bgr92rcd13ifvqc6g","pricing_plan_id":"cebpf4jnsgd1na2vs0mg"},{"bike_id":"ad1ec2b9-0297-4875-9241-ec9dad419783","system_id":"levelo_inurba_marseille","lat":43.31228,"lon":5.3684,"is_reserved":false,"is_disabled":false,"rental_uris":{"android":"levelo://app?vid=ad1ec2b9-0297-4875-9241-ec9dad419783","ios":"levelo://app?vid=ad1ec2b9-0297-4875-9241-ec9dad419783"},"vehicle_type_id":"4","last_reported":1720206363,"current_range_meters":0,"station_id":"ce4bgl92rcd13ifvqbq0","pricing_plan_id":"cebpf4jnsgd1na2vs0mg"},{"bike_id":"86006cfd-5f6b-46de-b5ea-827aa9c595fe","system_id":"levelo_inurba_marseille","lat":43.305989,"lon":5.37225,"is_reserved":false,"is_disabled":false,"rental_uris":{"android":"levelo://app?vid=86006cfd-5f6b-46de-b5ea-827aa9c595fe","ios":"levelo://app?vid=86006cfd-5f6b-46de-b5ea-827aa9c595fe"},"vehicle_type_id":"4","last_reported":1720206363,"current_range_meters":20800,"station_id":"ce4bgqh2rcd13ifvqc4g","pricing_plan_id":"cebpf4jnsgd1na2vs0mg"},{"bike_id":"8b4e0c10-98ec-40ce-8788-5f9f523818d7","system_id":"levelo_inurba_marseille","lat":43.309076,"lon":5.368465,"is_reserved":false,"is_disabled":false,"rental_uris":{"android":"levelo://app?vid=8b4e0c10-98ec-40ce-8788-5f9f523818d7","ios":"levelo://app?vid=8b4e0c10-98ec-40ce-8788-5f9f523818d7"},"vehicle_type_id":"4","last_reported":1720206363,"current_range_meters":0,"station_id":"ce4bgn92rcd13ifvqbvg","pricing_plan_id":"cebpf4jnsgd1na2vs0mg"},{"bike_id":"3d10c330-241a-4654-952d-4b00f6549cfc","system_id":"levelo_inurba_marseille","lat":43.3148,"lon":5.37311,"is_reserved":false,"is_disabled":false,"rental_uris":{"android":"levelo://app?vid=3d10c330-241a-4654-952d-4b00f6549cfc","ios":"levelo://app?vid=3d10c330-241a-4654-952d-4b00f6549cfc"},"vehicle_type_id":"4","last_reported":1720206363,"current_range_meters":4400,"station_id":"ce4bgt12rcd13ifvqcd0","pricing_plan_id":"cebpf4jnsgd1na2vs0mg"},{"bike_id":"24b25bd9-51d5-44c9-aac0-eb923124d297","system_id":"levelo_inurba_marseille","lat":43.308915,"lon":5.371935,"is_reserved":false,"is_disabled":false,"rental_uris":{"android":"levelo://app?vid=24b25bd9-51d5-44c9-aac0-eb923124d297","ios":"levelo://app?vid=24b25bd9-51d5-44c9-aac0-eb923124d297"},"vehicle_type_id":"4","last_reported":1720206363,"current_range_meters":0,"station_id":"ce4bguh2rcd13ifvqckg","pricing_plan_id":"cebpf4jnsgd1na2vs0mg"},{"bike_id":"41cdcdd6-ded1-4424-b142-2da7b544bf9d","system_id":"levelo_inurba_marseille","lat":43.31787,"lon":5.36932,"is_reserved":false,"is_disabled":false,"rental_uris":{"android":"levelo://app?vid=41cdcdd6-ded1-4424-b142-2da7b544bf9d","ios":"levelo://app?vid=41cdcdd6-ded1-4424-b142-2da7b544bf9d"},"vehicle_type_id":"4","last_reported":1720206363,"current_range_meters":9600,"station_id":"","pricing_plan_id":"cebpf4jnsgd1na2vs0mg"},{"bike_id":"c79f8306-56bf-44a2-ba95-de1d7b0db9c7","system_id":"levelo_inurba_marseille","lat":43.312909,"lon":5.375559,"is_reserved":false,"is_disabled":false,"rental_uris":{"android":"levelo://app?vid=c79f8306-56bf-44a2-ba95-de1d7b0db9c7","ios":"levelo://app?vid=c79f8306-56bf-44a2-ba95-de1d7b0db9c7"},"vehicle_type_id":"4","last_reported":1720206363,"current_range_meters":0,"station_id":"","pricing_plan_id":"cebpf4jnsgd1na2vs0mg"},{"bike_id":"e137663d-8691-4bf4-a0cb-fb315a8a92f4","system_id":"levelo_inurba_marseille","lat":43.31819,"lon":5.37242,"is_reserved":false,"is_disabled":false,"rental_uris":{"android":"levelo://app?vid=e137663d-8691-4bf4-a0cb-fb315a8a92f4","ios":"levelo://app?vid=e137663d-8691-4bf4-a0cb-fb315a8a92f4"},"vehicle_type_id":"4","last_reported":1720206363,"current_range_meters":1200,"station_id":"","pricing_plan_id":"cebpf4jnsgd1na2vs0mg"},{"bike_id":"b90ca324-75c7-45bb-9cbd-42611d272e64","system_id":"levelo_inurba_marseille","lat":43.305712,"lon":5.365641,"is_reserved":false,"is_disabled":false,"rental_uris":{"android":"levelo://app?vid=b90ca324-75c7-45bb-9cbd-42611d272e64","ios":"levelo://app?vid=b90ca324-75c7-45bb-9cbd-42611d272e64"},"vehicle_type_id":"4","last_reported":1720206363,"current_range_meters":30400,"station_id":"ce4bgs12rcd13ifvqcag","pricing_plan_id":"cebpf4jnsgd1na2vs0mg"},{"bike_id":"68523221-e60d-4ab6-a2ba-692713891ce7","system_id":"levelo_inurba_marseille","lat":43.305989,"lon":5.37225,"is_reserved":false,"is_disabled":false,"rental_uris":{"android":"levelo://app?vid=68523221-e60d-4ab6-a2ba-692713891ce7","ios":"levelo://app?vid=68523221-e60d-4ab6-a2ba-692713891ce7"},"vehicle_type_id":"4","last_reported":1720206363,"current_range_meters":400,"station_id":"ce4bgqh2rcd13ifvqc4g","pricing_plan_id":"cebpf4jnsgd1na2vs0mg"},{"bike_id":"667de5ce-0e2c-4a83-b3af-219101c986d2","system_id":"levelo_inurba_marseille","lat":43.305989,"lon":5.37225,"is_reserved":false,"is_disabled":false,"rental_uris":{"android":"levelo://app?vid=667de5ce-0e2c-4a83-b3af-219101c986d2","ios":"levelo://app?vid=667de5ce-0e2c-4a83-b3af-219101c986d2"},"vehicle_type_id":"4","last_reported":1720206363,"current_range_meters":17600,"station_id":"ce4bgqh2rcd13ifvqc4g","pricing_plan_id":"cebpf4jnsgd1na2vs0mg"},{"bike_id":"fe1589c6-9f77-4bb7-90c8-dc034bbb4206","system_id":"levelo_inurba_marseille","lat":43.305989,"lon":5.37225,"is_reserved":false,"is_disabled":false,"rental_uris":{"android":"levelo://app?vid=fe1589c6-9f77-4bb7-90c8-dc034bbb4206","ios":"levelo://app?vid=fe1589c6-9f77-4bb7-90c8-dc034bbb4206"},"vehicle_type_id":"4","last_reported":1720206363,"current_range_meters":12400,"station_id":"ce4bgqh2rcd13ifvqc4g","pricing_plan_id":"cebpf4jnsgd1na2vs0mg"},{"bike_id":"b7f15aff-315f-4a36-bbbf-afed141bfe3a","system_id":"levelo_inurba_marseille","lat":43.311125,"lon":5.377624,"is_reserved":false,"is_disabled":false,"rental_uris":{"android":"levelo://app?vid=b7f15aff-315f-4a36-bbbf-afed141bfe3a","ios":"levelo://app?vid=b7f15aff-315f-4a36-bbbf-afed141bfe3a"},"vehicle_type_id":"4","last_reported":1720206363,"current_range_meters":16800,"station_id":"ce4bgt92rcd13ifvqcg0","pricing_plan_id":"cebpf4jnsgd1na2vs0mg"},{"bike_id":"498723c2-0d41-4936-9f8b-c4085201cd6b","system_id":"levelo_inurba_marseille","lat":43.307945,"lon":5.376487,"is_reserved":false,"is_disabled":false,"rental_uris":{"android":"levelo://app?vid=498723c2-0d41-4936-9f8b-c4085201cd6b","ios":"levelo://app?vid=498723c2-0d41-4936-9f8b-c4085201cd6b"},"vehicle_type_id":"4","last_reported":1720206363,"current_range_meters":8800,"station_id":"ce4bgv92rcd13ifvqcq0","pricing_plan_id":"cebpf4jnsgd1na2vs0mg"},{"bike_id":"ba23f0f3-15b4-4adb-806e-50d737053202","system_id":"levelo_inurba_marseille","lat":43.307945,"lon":5.376487,"is_reserved":false,"is_disabled":false,"rental_uris":{"android":"levelo://app?vid=ba23f0f3-15b4-4adb-806e-50d737053202","ios":"levelo://app?vid=ba23f0f3-15b4-4adb-806e-50d737053202"},"vehicle_type_id":"4","last_reported":1720206363,"current_range_meters":22800,"station_id":"ce4bgv92rcd13ifvqcq0","pricing_plan_id":"cebpf4jnsgd1na2vs0mg"},{"bike_id":"da82162e-e91f-486c-9bae-cd2585d4513d","system_id":"levelo_inurba_marseille","lat":43.307945,"lon":5.376487,"is_reserved":false,"is_disabled":false,"rental_uris":{"android":"levelo://app?vid=da82162e-e91f-486c-9bae-cd2585d4513d","ios":"levelo://app?vid=da82162e-e91f-486c-9bae-cd2585d4513d"},"vehicle_type_id":"4","last_reported":1720206363,"current_range_meters":12400,"station_id":"ce4bgv92rcd13ifvqcq0","pricing_plan_id":"cebpf4jnsgd1na2vs0mg"},{"bike_id":"c654f995-4175-490d-bffc-b2aea9a115eb","system_id":"levelo_inurba_marseille","lat":43.3154,"lon":5.38019,"is_reserved":false,"is_disabled":false,"rental_uris":{"android":"levelo://app?vid=c654f995-4175-490d-bffc-b2aea9a115eb","ios":"levelo://app?vid=c654f995-4175-490d-bffc-b2aea9a115eb"},"vehicle_type_id":"4","last_reported":1720206363,"current_range_meters":1600,"station_id":"ce4bhsp2rcd13ifvqi50","pricing_plan_id":"cebpf4jnsgd1na2vs0mg"},{"bike_id":"d0799ad9-f575-4768-b83f-680cdd926ad5","system_id":"levelo_inurba_marseille","lat":43.315289,"lon":5.380349,"is_reserved":false,"is_disabled":false,"rental_uris":{"android":"levelo://app?vid=d0799ad9-f575-4768-b83f-680cdd926ad5","ios":"levelo://app?vid=d0799ad9-f575-4768-b83f-680cdd926ad5"},"vehicle_type_id":"4","last_reported":1720206363,"current_range_meters":18000,"station_id":"ce4bhsp2rcd13ifvqi50","pricing_plan_id":"cebpf4jnsgd1na2vs0mg"},{"bike_id":"db3de4d0-bad9-4cbb-90e1-77a64e877ebe","system_id":"levelo_inurba_marseille","lat":43.315289,"lon":5.380349,"is_reserved":false,"is_disabled":false,"rental_uris":{"android":"levelo://app?vid=db3de4d0-bad9-4cbb-90e1-77a64e877ebe","ios":"levelo://app?vid=db3de4d0-bad9-4cbb-90e1-77a64e877ebe"},"vehicle_type_id":"4","last_reported":1720206363,"current_range_meters":3600,"station_id":"ce4bhsp2rcd13ifvqi50","pricing_plan_id":"cebpf4jnsgd1na2vs0mg"},{"bike_id":"4530a5c8-d3e8-4b74-a6f3-14088821671c","system_id":"levelo_inurba_marseille","lat":43.315289,"lon":5.380349,"is_reserved":false,"is_disabled":false,"rental_uris":{"android":"levelo://app?vid=4530a5c8-d3e8-4b74-a6f3-14088821671c","ios":"levelo://app?vid=4530a5c8-d3e8-4b74-a6f3-14088821671c"},"vehicle_type_id":"4","last_reported":1720206363,"current_range_meters":31200,"station_id":"ce4bhsp2rcd13ifvqi50","pricing_plan_id":"cebpf4jnsgd1na2vs0mg"},{"bike_id":"3f894c9b-e910-4183-8130-7f3c4c1fd782","system_id":"levelo_inurba_marseille","lat":43.30429,"lon":5.37598,"is_reserved":false,"is_disabled":false,"rental_uris":{"android":"levelo://app?vid=3f894c9b-e910-4183-8130-7f3c4c1fd782","ios":"levelo://app?vid=3f894c9b-e910-4183-8130-7f3c4c1fd782"},"vehicle_type_id":"4","last_reported":1720206363,"current_range_meters":5600,"station_id":"","pricing_plan_id":"cebpf4jnsgd1na2vs0mg"},{"bike_id":"62b00133-91f3-4eea-816b-acf88cc1d49e","system_id":"levelo_inurba_marseille","lat":43.301939,"lon":5.366286,"is_reserved":false,"is_disabled":false,"rental_uris":{"android":"levelo://app?vid=62b00133-91f3-4eea-816b-acf88cc1d49e","ios":"levelo://app?vid=62b00133-91f3-4eea-816b-acf88cc1d49e"},"vehicle_type_id":"4","last_reported":1720206363,"current_range_meters":14000,"station_id":"ce4bgrh2rcd13ifvqc8g","pricing_plan_id":"cebpf4jnsgd1na2vs0mg"},{"bike_id":"73ec2de6-ac86-4125-a429-ced5aa93b3ca","system_id":"levelo_inurba_marseille","lat":43.301939,"lon":5.366286,"is_reserved":false,"is_disabled":false,"rental_uris":{"android":"levelo://app?vid=73ec2de6-ac86-4125-a429-ced5aa93b3ca","ios":"levelo://app?vid=73ec2de6-ac86-4125-a429-ced5aa93b3ca"},"vehicle_type_id":"4","last_reported":1720206363,"current_range_meters":2400,"station_id":"ce4bgrh2rcd13ifvqc8g","pricing_plan_id":"cebpf4jnsgd1na2vs0mg"},{"bike_id":"ad8c02c3-b43c-4efb-8ba1-4ac0faed2346","system_id":"levelo_inurba_marseille","lat":43.30103,"lon":5.36854,"is_reserved":false,"is_disabled":false,"rental_uris":{"android":"levelo://app?vid=ad8c02c3-b43c-4efb-8ba1-4ac0faed2346","ios":"levelo://app?vid=ad8c02c3-b43c-4efb-8ba1-4ac0faed2346"},"vehicle_type_id":"4","last_reported":1720206363,"current_range_meters":18000,"station_id":"","pricing_plan_id":"cebpf4jnsgd1na2vs0mg"},{"bike_id":"9ab0a205-bee4-4526-a90a-a3f08bf06773","system_id":"levelo_inurba_marseille","lat":43.304606,"lon":5.379026,"is_reserved":false,"is_disabled":false,"rental_uris":{"android":"levelo://app?vid=9ab0a205-bee4-4526-a90a-a3f08bf06773","ios":"levelo://app?vid=9ab0a205-bee4-4526-a90a-a3f08bf06773"},"vehicle_type_id":"4","last_reported":1720206363,"current_range_meters":24800,"station_id":"ce4bgup2rcd13ifvqcn0","pricing_plan_id":"cebpf4jnsgd1na2vs0mg"},{"bike_id":"0c70f0bf-8096-4a7b-a7ee-aed41026e285","system_id":"levelo_inurba_marseille","lat":43.304606,"lon":5.379026,"is_reserved":false,"is_disabled":false,"rental_uris":{"android":"levelo://app?vid=0c70f0bf-8096-4a7b-a7ee-aed41026e285","ios":"levelo://app?vid=0c70f0bf-8096-4a7b-a7ee-aed41026e285"},"vehicle_type_id":"4","last_reported":1720206363,"current_range_meters":0,"station_id":"ce4bgup2rcd13ifvqcn0","pricing_plan_id":"cebpf4jnsgd1na2vs0mg"},{"bike_id":"b42ba4ea-1156-4d33-b885-d4b2c585400a","system_id":"levelo_inurba_marseille","lat":43.300791,"lon":5.365909,"is_reserved":false,"is_disabled":false,"rental_uris":{"android":"levelo://app?vid=b42ba4ea-1156-4d33-b885-d4b2c585400a","ios":"levelo://app?vid=b42ba4ea-1156-4d33-b885-d4b2c585400a"},"vehicle_type_id":"4","last_reported":1720206363,"current_range_meters":1600,"station_id":"","pricing_plan_id":"cebpf4jnsgd1na2vs0mg"},{"bike_id":"dc7401a3-f714-4aea-a92a-9bc6ab1bcaf1","system_id":"levelo_inurba_marseille","lat":43.310804,"lon":5.38359,"is_reserved":false,"is_disabled":false,"rental_uris":{"android":"levelo://app?vid=dc7401a3-f714-4aea-a92a-9bc6ab1bcaf1","ios":"levelo://app?vid=dc7401a3-f714-4aea-a92a-9bc6ab1bcaf1"},"vehicle_type_id":"4","last_reported":1720206363,"current_range_meters":8400,"station_id":"ce4bgv92rcd13ifvqcr0","pricing_plan_id":"cebpf4jnsgd1na2vs0mg"},{"bike_id":"3fa2e9ff-36fb-4df9-9f34-bd2f5e6f4d9e","system_id":"levelo_inurba_marseille","lat":43.32489,"lon":5.3657,"is_reserved":false,"is_disabled":false,"rental_uris":{"android":"levelo://app?vid=3fa2e9ff-36fb-4df9-9f34-bd2f5e6f4d9e","ios":"levelo://app?vid=3fa2e9ff-36fb-4df9-9f34-bd2f5e6f4d9e"},"vehicle_type_id":"4","last_reported":1720206363,"current_range_meters":5600,"station_id":"ce4bhs12rcd13ifvqhvg","pricing_plan_id":"cebpf4jnsgd1na2vs0mg"},{"bike_id":"ebdec7e3-45d0-4cfb-8abd-95e17aecb0bc","system_id":"levelo_inurba_marseille","lat":43.310804,"lon":5.38359,"is_reserved":false,"is_disabled":false,"rental_uris":{"android":"levelo://app?vid=ebdec7e3-45d0-4cfb-8abd-95e17aecb0bc","ios":"levelo://app?vid=ebdec7e3-45d0-4cfb-8abd-95e17aecb0bc"},"vehicle_type_id":"4","last_reported":1720206363,"current_range_meters":0,"station_id":"ce4bgv92rcd13ifvqcr0","pricing_plan_id":"cebpf4jnsgd1na2vs0mg"},{"bike_id":"76692158-a439-4657-acd8-d40aa44ab7cf","system_id":"levelo_inurba_marseille","lat":43.30143,"lon":5.37413,"is_reserved":false,"is_disabled":false,"rental_uris":{"android":"levelo://app?vid=76692158-a439-4657-acd8-d40aa44ab7cf","ios":"levelo://app?vid=76692158-a439-4657-acd8-d40aa44ab7cf"},"vehicle_type_id":"4","last_reported":1720206363,"current_range_meters":23200,"station_id":"ce4bgs92rcd13ifvqcc0","pricing_plan_id":"cebpf4jnsgd1na2vs0mg"},{"bike_id":"69f5ef33-3299-4456-bfd6-c3a0180b794a","system_id":"levelo_inurba_marseille","lat":43.301429,"lon":5.37413,"is_reserved":false,"is_disabled":false,"rental_uris":{"android":"levelo://app?vid=69f5ef33-3299-4456-bfd6-c3a0180b794a","ios":"levelo://app?vid=69f5ef33-3299-4456-bfd6-c3a0180b794a"},"vehicle_type_id":"4","last_reported":1720206363,"current_range_meters":10000,"station_id":"ce4bgs92rcd13ifvqcc0","pricing_plan_id":"cebpf4jnsgd1na2vs0mg"},{"bike_id":"d631fcc0-b427-4f09-ad35-5ee0325e2748","system_id":"levelo_inurba_marseille","lat":43.31992,"lon":5.38143,"is_reserved":false,"is_disabled":false,"rental_uris":{"android":"levelo://app?vid=d631fcc0-b427-4f09-ad35-5ee0325e2748","ios":"levelo://app?vid=d631fcc0-b427-4f09-ad35-5ee0325e2748"},"vehicle_type_id":"4","last_reported":1720206363,"current_range_meters":0,"station_id":"ce4bhr12rcd13ifvqhpg","pricing_plan_id":"cebpf4jnsgd1na2vs0mg"},{"bike_id":"eaf33f43-5f27-4abf-bfff-b6d567248fb7","system_id":"levelo_inurba_marseille","lat":43.3,"lon":5.36822,"is_reserved":false,"is_disabled":false,"rental_uris":{"android":"levelo://app?vid=eaf33f43-5f27-4abf-bfff-b6d567248fb7","ios":"levelo://app?vid=eaf33f43-5f27-4abf-bfff-b6d567248fb7"},"vehicle_type_id":"4","last_reported":1720206363,"current_range_meters":7200,"station_id":"","pricing_plan_id":"cebpf4jnsgd1na2vs0mg"},{"bike_id":"e5c8cccd-6797-4c8e-8081-cee48ef56061","system_id":"levelo_inurba_marseille","lat":43.319935,"lon":5.381699,"is_reserved":false,"is_disabled":false,"rental_uris":{"android":"levelo://app?vid=e5c8cccd-6797-4c8e-8081-cee48ef56061","ios":"levelo://app?vid=e5c8cccd-6797-4c8e-8081-cee48ef56061"},"vehicle_type_id":"4","last_reported":1720206363,"current_range_meters":20800,"station_id":"ce4bhr12rcd13ifvqhpg","pricing_plan_id":"cebpf4jnsgd1na2vs0mg"},{"bike_id":"de364655-4d6f-448d-b2e7-587bb7e54019","system_id":"levelo_inurba_marseille","lat":43.31997,"lon":5.38151,"is_reserved":false,"is_disabled":false,"rental_uris":{"android":"levelo://app?vid=de364655-4d6f-448d-b2e7-587bb7e54019","ios":"levelo://app?vid=de364655-4d6f-448d-b2e7-587bb7e54019"},"vehicle_type_id":"4","last_reported":1720206363,"current_range_meters":0,"station_id":"ce4bhr12rcd13ifvqhpg","pricing_plan_id":"cebpf4jnsgd1na2vs0mg"},{"bike_id":"2b28fb3d-118f-427b-90d8-8c6b1f055dbf","system_id":"levelo_inurba_marseille","lat":43.319935,"lon":5.381699,"is_reserved":false,"is_disabled":false,"rental_uris":{"android":"levelo://app?vid=2b28fb3d-118f-427b-90d8-8c6b1f055dbf","ios":"levelo://app?vid=2b28fb3d-118f-427b-90d8-8c6b1f055dbf"},"vehicle_type_id":"4","last_reported":1720206363,"current_range_meters":21200,"station_id":"ce4bhr12rcd13ifvqhpg","pricing_plan_id":"cebpf4jnsgd1na2vs0mg"},{"bike_id":"37013a3d-7b57-4971-abec-646bfc7a63d8","system_id":"levelo_inurba_marseille","lat":43.313571,"lon":5.384829,"is_reserved":false,"is_disabled":false,"rental_uris":{"android":"levelo://app?vid=37013a3d-7b57-4971-abec-646bfc7a63d8","ios":"levelo://app?vid=37013a3d-7b57-4971-abec-646bfc7a63d8"},"vehicle_type_id":"4","last_reported":1720206363,"current_range_meters":16800,"station_id":"ce4bgt92rcd13ifvqcf0","pricing_plan_id":"cebpf4jnsgd1na2vs0mg"},{"bike_id":"f1be6473-6d45-44ec-bd9b-4c9e12007970","system_id":"levelo_inurba_marseille","lat":43.299724,"lon":5.371829,"is_reserved":false,"is_disabled":false,"rental_uris":{"android":"levelo://app?vid=f1be6473-6d45-44ec-bd9b-4c9e12007970","ios":"levelo://app?vid=f1be6473-6d45-44ec-bd9b-4c9e12007970"},"vehicle_type_id":"4","last_reported":1720206363,"current_range_meters":30000,"station_id":"ce4bgr92rcd13ifvqc7g","pricing_plan_id":"cebpf4jnsgd1na2vs0mg"},{"bike_id":"6d8a25f4-526b-43ab-bf7e-52e4fb2633a3","system_id":"levelo_inurba_marseille","lat":43.298513,"lon":5.362827,"is_reserved":false,"is_disabled":false,"rental_uris":{"android":"levelo://app?vid=6d8a25f4-526b-43ab-bf7e-52e4fb2633a3","ios":"levelo://app?vid=6d8a25f4-526b-43ab-bf7e-52e4fb2633a3"},"vehicle_type_id":"4","last_reported":1720206363,"current_range_meters":16800,"station_id":"ce4bgpp2rcd13ifvqc3g","pricing_plan_id":"cebpf4jnsgd1na2vs0mg"},{"bike_id":"f664a2e1-7e50-42bf-9106-6b53e181ba61","system_id":"levelo_inurba_marseille","lat":43.298433,"lon":5.362774,"is_reserved":false,"is_disabled":false,"rental_uris":{"android":"levelo://app?vid=f664a2e1-7e50-42bf-9106-6b53e181ba61","ios":"levelo://app?vid=f664a2e1-7e50-42bf-9106-6b53e181ba61"},"vehicle_type_id":"4","last_reported":1720206363,"current_range_meters":14000,"station_id":"ce4bgpp2rcd13ifvqc3g","pricing_plan_id":"cebpf4jnsgd1na2vs0mg"},{"bike_id":"cf5ec175-dfab-4b28-a6e7-e48c8810a28b","system_id":"levelo_inurba_marseille","lat":43.29843,"lon":5.36271,"is_reserved":false,"is_disabled":false,"rental_uris":{"android":"levelo://app?vid=cf5ec175-dfab-4b28-a6e7-e48c8810a28b","ios":"levelo://app?vid=cf5ec175-dfab-4b28-a6e7-e48c8810a28b"},"vehicle_type_id":"4","last_reported":1720206363,"current_range_meters":400,"station_id":"ce4bgpp2rcd13ifvqc3g","pricing_plan_id":"cebpf4jnsgd1na2vs0mg"},{"bike_id":"180faab5-2823-4102-8f73-2f662f57b638","system_id":"levelo_inurba_marseille","lat":43.29841,"lon":5.36265,"is_reserved":false,"is_disabled":false,"rental_uris":{"android":"levelo://app?vid=180faab5-2823-4102-8f73-2f662f57b638","ios":"levelo://app?vid=180faab5-2823-4102-8f73-2f662f57b638"},"vehicle_type_id":"4","last_reported":1720206363,"current_range_meters":11200,"station_id":"ce4bgpp2rcd13ifvqc3g","pricing_plan_id":"cebpf4jnsgd1na2vs0mg"},{"bike_id":"f933974c-05c6-48c0-a850-b8427b3783e3","system_id":"levelo_inurba_marseille","lat":43.30022,"lon":5.37742,"is_reserved":false,"is_disabled":false,"rental_uris":{"android":"levelo://app?vid=f933974c-05c6-48c0-a850-b8427b3783e3","ios":"levelo://app?vid=f933974c-05c6-48c0-a850-b8427b3783e3"},"vehicle_type_id":"4","last_reported":1720206363,"current_range_meters":28000,"station_id":"","pricing_plan_id":"cebpf4jnsgd1na2vs0mg"},{"bike_id":"9c202570-ea1b-4998-b58f-c852699bbc8a","system_id":"levelo_inurba_marseille","lat":43.311722,"lon":5.387247,"is_reserved":false,"is_disabled":false,"rental_uris":{"android":"levelo://app?vid=9c202570-ea1b-4998-b58f-c852699bbc8a","ios":"levelo://app?vid=9c202570-ea1b-4998-b58f-c852699bbc8a"},"vehicle_type_id":"4","last_reported":1720206363,"current_range_meters":4400,"station_id":"ce4bgv12rcd13ifvqcp0","pricing_plan_id":"cebpf4jnsgd1na2vs0mg"},{"bike_id":"d860fb7a-8122-4c28-b30d-85045f53dfb7","system_id":"levelo_inurba_marseille","lat":43.298433,"lon":5.362774,"is_reserved":false,"is_disabled":false,"rental_uris":{"android":"levelo://app?vid=d860fb7a-8122-4c28-b30d-85045f53dfb7","ios":"levelo://app?vid=d860fb7a-8122-4c28-b30d-85045f53dfb7"},"vehicle_type_id":"4","last_reported":1720206363,"current_range_meters":4800,"station_id":"ce4bgpp2rcd13ifvqc3g","pricing_plan_id":"cebpf4jnsgd1na2vs0mg"},{"bike_id":"997f0c8c-762f-49d0-bb0d-43ee87b784a5","system_id":"levelo_inurba_marseille","lat":43.311722,"lon":5.387247,"is_reserved":false,"is_disabled":false,"rental_uris":{"android":"levelo://app?vid=997f0c8c-762f-49d0-bb0d-43ee87b784a5","ios":"levelo://app?vid=997f0c8c-762f-49d0-bb0d-43ee87b784a5"},"vehicle_type_id":"4","last_reported":1720206363,"current_range_meters":9600,"station_id":"ce4bgv12rcd13ifvqcp0","pricing_plan_id":"cebpf4jnsgd1na2vs0mg"},{"bike_id":"a29a8b65-02c8-4112-bb78-e5a15a234ae9","system_id":"levelo_inurba_marseille","lat":43.311722,"lon":5.387247,"is_reserved":false,"is_disabled":false,"rental_uris":{"android":"levelo://app?vid=a29a8b65-02c8-4112-bb78-e5a15a234ae9","ios":"levelo://app?vid=a29a8b65-02c8-4112-bb78-e5a15a234ae9"},"vehicle_type_id":"4","last_reported":1720206363,"current_range_meters":0,"station_id":"ce4bgv12rcd13ifvqcp0","pricing_plan_id":"cebpf4jnsgd1na2vs0mg"},{"bike_id":"5f072cc0-baf2-4b2e-929d-47a550807d56","system_id":"levelo_inurba_marseille","lat":43.311722,"lon":5.387247,"is_reserved":false,"is_disabled":false,"rental_uris":{"android":"levelo://app?vid=5f072cc0-baf2-4b2e-929d-47a550807d56","ios":"levelo://app?vid=5f072cc0-baf2-4b2e-929d-47a550807d56"},"vehicle_type_id":"4","last_reported":1720206363,"current_range_meters":21200,"station_id":"ce4bgv12rcd13ifvqcp0","pricing_plan_id":"cebpf4jnsgd1na2vs0mg"},{"bike_id":"bd08aa32-8c3e-44a8-ab4d-ba966d5ee5c4","system_id":"levelo_inurba_marseille","lat":43.311722,"lon":5.387247,"is_reserved":false,"is_disabled":false,"rental_uris":{"android":"levelo://app?vid=bd08aa32-8c3e-44a8-ab4d-ba966d5ee5c4","ios":"levelo://app?vid=bd08aa32-8c3e-44a8-ab4d-ba966d5ee5c4"},"vehicle_type_id":"4","last_reported":1720206363,"current_range_meters":400,"station_id":"ce4bgv12rcd13ifvqcp0","pricing_plan_id":"cebpf4jnsgd1na2vs0mg"},{"bike_id":"fc61b835-51c9-4ea3-a943-cad07f427fb1","system_id":"levelo_inurba_marseille","lat":43.31038,"lon":5.387096,"is_reserved":false,"is_disabled":false,"rental_uris":{"android":"levelo://app?vid=fc61b835-51c9-4ea3-a943-cad07f427fb1","ios":"levelo://app?vid=fc61b835-51c9-4ea3-a943-cad07f427fb1"},"vehicle_type_id":"4","last_reported":1720206363,"current_range_meters":4000,"station_id":"","pricing_plan_id":"cebpf4jnsgd1na2vs0mg"},{"bike_id":"1cfaac46-21fc-449e-ae3f-8632990c0ed9","system_id":"levelo_inurba_marseille","lat":43.297774,"lon":5.370875,"is_reserved":false,"is_disabled":false,"rental_uris":{"android":"levelo://app?vid=1cfaac46-21fc-449e-ae3f-8632990c0ed9","ios":"levelo://app?vid=1cfaac46-21fc-449e-ae3f-8632990c0ed9"},"vehicle_type_id":"4","last_reported":1720206363,"current_range_meters":8000,"station_id":"ce4bgop2rcd13ifvqc1g","pricing_plan_id":"cebpf4jnsgd1na2vs0mg"},{"bike_id":"315b23a2-77e2-41be-9284-e544d4d04b01","system_id":"levelo_inurba_marseille","lat":43.29783,"lon":5.37105,"is_reserved":false,"is_disabled":false,"rental_uris":{"android":"levelo://app?vid=315b23a2-77e2-41be-9284-e544d4d04b01","ios":"levelo://app?vid=315b23a2-77e2-41be-9284-e544d4d04b01"},"vehicle_type_id":"4","last_reported":1720206363,"current_range_meters":18800,"station_id":"ce4bgop2rcd13ifvqc1g","pricing_plan_id":"cebpf4jnsgd1na2vs0mg"},{"bike_id":"3ed1a6ee-73a5-448b-aab8-7dd05117cb66","system_id":"levelo_inurba_marseille","lat":43.301698,"lon":5.381349,"is_reserved":false,"is_disabled":false,"rental_uris":{"android":"levelo://app?vid=3ed1a6ee-73a5-448b-aab8-7dd05117cb66","ios":"levelo://app?vid=3ed1a6ee-73a5-448b-aab8-7dd05117cb66"},"vehicle_type_id":"4","last_reported":1720206363,"current_range_meters":0,"station_id":"","pricing_plan_id":"cebpf4jnsgd1na2vs0mg"},{"bike_id":"24b9ff1f-0fd6-49aa-a906-87384c24a8d7","system_id":"levelo_inurba_marseille","lat":43.322872,"lon":5.382756,"is_reserved":false,"is_disabled":false,"rental_uris":{"android":"levelo://app?vid=24b9ff1f-0fd6-49aa-a906-87384c24a8d7","ios":"levelo://app?vid=24b9ff1f-0fd6-49aa-a906-87384c24a8d7"},"vehicle_type_id":"4","last_reported":1720206363,"current_range_meters":18800,"station_id":"ce4bhr12rcd13ifvqhqg","pricing_plan_id":"cebpf4jnsgd1na2vs0mg"},{"bike_id":"82f58178-8f89-479f-a33f-971fd10a7a10","system_id":"levelo_inurba_marseille","lat":43.29942,"lon":5.37775,"is_reserved":false,"is_disabled":false,"rental_uris":{"android":"levelo://app?vid=82f58178-8f89-479f-a33f-971fd10a7a10","ios":"levelo://app?vid=82f58178-8f89-479f-a33f-971fd10a7a10"},"vehicle_type_id":"4","last_reported":1720206363,"current_range_meters":5200,"station_id":"","pricing_plan_id":"cebpf4jnsgd1na2vs0mg"},{"bike_id":"6ad59b5b-cb5c-4418-9763-1753d0f8737f","system_id":"levelo_inurba_marseille","lat":43.297163,"lon":5.365866,"is_reserved":false,"is_disabled":false,"rental_uris":{"android":"levelo://app?vid=6ad59b5b-cb5c-4418-9763-1753d0f8737f","ios":"levelo://app?vid=6ad59b5b-cb5c-4418-9763-1753d0f8737f"},"vehicle_type_id":"4","last_reported":1720206363,"current_range_meters":21200,"station_id":"ce4bgn12rcd13ifvqbt0","pricing_plan_id":"cebpf4jnsgd1na2vs0mg"},{"bike_id":"69e6722a-9045-49ec-849f-e26a74ad1f24","system_id":"levelo_inurba_marseille","lat":43.296882,"lon":5.36615,"is_reserved":false,"is_disabled":false,"rental_uris":{"android":"levelo://app?vid=69e6722a-9045-49ec-849f-e26a74ad1f24","ios":"levelo://app?vid=69e6722a-9045-49ec-849f-e26a74ad1f24"},"vehicle_type_id":"4","last_reported":1720206363,"current_range_meters":12000,"station_id":"ce4bgn12rcd13ifvqbt0","pricing_plan_id":"cebpf4jnsgd1na2vs0mg"},{"bike_id":"27e15cfe-b8ae-469a-8e87-578f866f8236","system_id":"levelo_inurba_marseille","lat":43.2968,"lon":5.37291,"is_reserved":false,"is_disabled":false,"rental_uris":{"android":"levelo://app?vid=27e15cfe-b8ae-469a-8e87-578f866f8236","ios":"levelo://app?vid=27e15cfe-b8ae-469a-8e87-578f866f8236"},"vehicle_type_id":"4","last_reported":1720206363,"current_range_meters":3200,"station_id":"ce4bgk12rcd13ifvqbj0","pricing_plan_id":"cebpf4jnsgd1na2vs0mg"},{"bike_id":"b0f43224-b28b-4e0a-989a-863079de3908","system_id":"levelo_inurba_marseille","lat":43.296167,"lon":5.367093,"is_reserved":false,"is_disabled":false,"rental_uris":{"android":"levelo://app?vid=b0f43224-b28b-4e0a-989a-863079de3908","ios":"levelo://app?vid=b0f43224-b28b-4e0a-989a-863079de3908"},"vehicle_type_id":"4","last_reported":1720206363,"current_range_meters":20400,"station_id":"","pricing_plan_id":"cebpf4jnsgd1na2vs0mg"},{"bike_id":"280525b4-850d-4349-9c72-4f70d3424eeb","system_id":"levelo_inurba_marseille","lat":43.32728,"lon":5.37848,"is_reserved":false,"is_disabled":false,"rental_uris":{"android":"levelo://app?vid=280525b4-850d-4349-9c72-4f70d3424eeb","ios":"levelo://app?vid=280525b4-850d-4349-9c72-4f70d3424eeb"},"vehicle_type_id":"4","last_reported":1720206363,"current_range_meters":8800,"station_id":"","pricing_plan_id":"cebpf4jnsgd1na2vs0mg"},{"bike_id":"4678b873-eb74-4928-85b8-17a0ea976582","system_id":"levelo_inurba_marseille","lat":43.296131,"lon":5.370773,"is_reserved":false,"is_disabled":false,"rental_uris":{"android":"levelo://app?vid=4678b873-eb74-4928-85b8-17a0ea976582","ios":"levelo://app?vid=4678b873-eb74-4928-85b8-17a0ea976582"},"vehicle_type_id":"4","last_reported":1720206363,"current_range_meters":0,"station_id":"ce4bgnh2rcd13ifvqc0g","pricing_plan_id":"cebpf4jnsgd1na2vs0mg"},{"bike_id":"c247c05f-e9dd-4b30-8ae7-fc6925710440","system_id":"levelo_inurba_marseille","lat":43.296131,"lon":5.370791,"is_reserved":false,"is_disabled":false,"rental_uris":{"android":"levelo://app?vid=c247c05f-e9dd-4b30-8ae7-fc6925710440","ios":"levelo://app?vid=c247c05f-e9dd-4b30-8ae7-fc6925710440"},"vehicle_type_id":"4","last_reported":1720206363,"current_range_meters":21600,"station_id":"ce4bgnh2rcd13ifvqc0g","pricing_plan_id":"cebpf4jnsgd1na2vs0mg"},{"bike_id":"c79f4ace-13dc-4bb8-b85e-28016e5341bd","system_id":"levelo_inurba_marseille","lat":43.296131,"lon":5.370773,"is_reserved":false,"is_disabled":false,"rental_uris":{"android":"levelo://app?vid=c79f4ace-13dc-4bb8-b85e-28016e5341bd","ios":"levelo://app?vid=c79f4ace-13dc-4bb8-b85e-28016e5341bd"},"vehicle_type_id":"4","last_reported":1720206363,"current_range_meters":30000,"station_id":"ce4bgnh2rcd13ifvqc0g","pricing_plan_id":"cebpf4jnsgd1na2vs0mg"},{"bike_id":"bd4f1262-eb48-4581-b632-1cd8eead8759","system_id":"levelo_inurba_marseille","lat":43.296129,"lon":5.370777,"is_reserved":false,"is_disabled":false,"rental_uris":{"android":"levelo://app?vid=bd4f1262-eb48-4581-b632-1cd8eead8759","ios":"levelo://app?vid=bd4f1262-eb48-4581-b632-1cd8eead8759"},"vehicle_type_id":"4","last_reported":1720206363,"current_range_meters":29200,"station_id":"ce4bgnh2rcd13ifvqc0g","pricing_plan_id":"cebpf4jnsgd1na2vs0mg"},{"bike_id":"13069e02-7e56-4ebd-a75c-ce3b01fcbc11","system_id":"levelo_inurba_marseille","lat":43.29573,"lon":5.367355,"is_reserved":false,"is_disabled":false,"rental_uris":{"android":"levelo://app?vid=13069e02-7e56-4ebd-a75c-ce3b01fcbc11","ios":"levelo://app?vid=13069e02-7e56-4ebd-a75c-ce3b01fcbc11"},"vehicle_type_id":"4","last_reported":1720206363,"current_range_meters":9600,"station_id":"ce4bgph2rcd13ifvqc2g","pricing_plan_id":"cebpf4jnsgd1na2vs0mg"},{"bike_id":"52d703df-9fb9-470c-b5f1-2bd9a3bca5e9","system_id":"levelo_inurba_marseille","lat":43.309589,"lon":5.390258,"is_reserved":false,"is_disabled":false,"rental_uris":{"android":"levelo://app?vid=52d703df-9fb9-470c-b5f1-2bd9a3bca5e9","ios":"levelo://app?vid=52d703df-9fb9-470c-b5f1-2bd9a3bca5e9"},"vehicle_type_id":"4","last_reported":1720206363,"current_range_meters":3600,"station_id":"ce4bgup2rcd13ifvqco0","pricing_plan_id":"cebpf4jnsgd1na2vs0mg"},{"bike_id":"a8078634-e55c-4e5a-aa4a-012e3b98b5bb","system_id":"levelo_inurba_marseille","lat":43.309589,"lon":5.390258,"is_reserved":false,"is_disabled":false,"rental_uris":{"android":"levelo://app?vid=a8078634-e55c-4e5a-aa4a-012e3b98b5bb","ios":"levelo://app?vid=a8078634-e55c-4e5a-aa4a-012e3b98b5bb"},"vehicle_type_id":"4","last_reported":1720206363,"current_range_meters":19200,"station_id":"ce4bgup2rcd13ifvqco0","pricing_plan_id":"cebpf4jnsgd1na2vs0mg"},{"bike_id":"3e6f2a2f-14ca-4806-a79a-26e178c4f4d1","system_id":"levelo_inurba_marseille","lat":43.31756,"lon":5.3901,"is_reserved":false,"is_disabled":false,"rental_uris":{"android":"levelo://app?vid=3e6f2a2f-14ca-4806-a79a-26e178c4f4d1","ios":"levelo://app?vid=3e6f2a2f-14ca-4806-a79a-26e178c4f4d1"},"vehicle_type_id":"4","last_reported":1720206363,"current_range_meters":2000,"station_id":"ce4bhqp2rcd13ifvqhng","pricing_plan_id":"cebpf4jnsgd1na2vs0mg"},{"bike_id":"fa83f078-59b9-47e0-bba3-71e26cf7b049","system_id":"levelo_inurba_marseille","lat":43.3176,"lon":5.39013,"is_reserved":false,"is_disabled":false,"rental_uris":{"android":"levelo://app?vid=fa83f078-59b9-47e0-bba3-71e26cf7b049","ios":"levelo://app?vid=fa83f078-59b9-47e0-bba3-71e26cf7b049"},"vehicle_type_id":"4","last_reported":1720206363,"current_range_meters":12400,"station_id":"ce4bhqp2rcd13ifvqhng","pricing_plan_id":"cebpf4jnsgd1na2vs0mg"},{"bike_id":"fd0ae38b-bfba-4969-b0aa-6aaf8482dac5","system_id":"levelo_inurba_marseille","lat":43.29811,"lon":5.38112,"is_reserved":false,"is_disabled":false,"rental_uris":{"android":"levelo://app?vid=fd0ae38b-bfba-4969-b0aa-6aaf8482dac5","ios":"levelo://app?vid=fd0ae38b-bfba-4969-b0aa-6aaf8482dac5"},"vehicle_type_id":"4","last_reported":1720206363,"current_range_meters":0,"station_id":"ce4bgip2rcd13ifvqbb0","pricing_plan_id":"cebpf4jnsgd1na2vs0mg"},{"bike_id":"bf7394bd-b390-45a0-a870-385b44d1552c","system_id":"levelo_inurba_marseille","lat":43.298037,"lon":5.381066,"is_reserved":false,"is_disabled":false,"rental_uris":{"android":"levelo://app?vid=bf7394bd-b390-45a0-a870-385b44d1552c","ios":"levelo://app?vid=bf7394bd-b390-45a0-a870-385b44d1552c"},"vehicle_type_id":"4","last_reported":1720206363,"current_range_meters":8000,"station_id":"ce4bgip2rcd13ifvqbb0","pricing_plan_id":"cebpf4jnsgd1na2vs0mg"},{"bike_id":"31eee48d-1353-4a2f-81f0-27becf9736a0","system_id":"levelo_inurba_marseille","lat":43.295748,"lon":5.37522,"is_reserved":false,"is_disabled":false,"rental_uris":{"android":"levelo://app?vid=31eee48d-1353-4a2f-81f0-27becf9736a0","ios":"levelo://app?vid=31eee48d-1353-4a2f-81f0-27becf9736a0"},"vehicle_type_id":"4","last_reported":1720206363,"current_range_meters":24000,"station_id":"ce4bgh92rcd13ifvqb50","pricing_plan_id":"cebpf4jnsgd1na2vs0mg"},{"bike_id":"927177e4-c587-4aca-a1c1-8a39e6c9887a","system_id":"levelo_inurba_marseille","lat":43.2957,"lon":5.37495,"is_reserved":false,"is_disabled":false,"rental_uris":{"android":"levelo://app?vid=927177e4-c587-4aca-a1c1-8a39e6c9887a","ios":"levelo://app?vid=927177e4-c587-4aca-a1c1-8a39e6c9887a"},"vehicle_type_id":"4","last_reported":1720206363,"current_range_meters":21600,"station_id":"ce4bgh92rcd13ifvqb50","pricing_plan_id":"cebpf4jnsgd1na2vs0mg"},{"bike_id":"dd6207bd-a363-4eb5-9d35-c98ee00f5562","system_id":"levelo_inurba_marseille","lat":43.295748,"lon":5.37522,"is_reserved":false,"is_disabled":false,"rental_uris":{"android":"levelo://app?vid=dd6207bd-a363-4eb5-9d35-c98ee00f5562","ios":"levelo://app?vid=dd6207bd-a363-4eb5-9d35-c98ee00f5562"},"vehicle_type_id":"4","last_reported":1720206363,"current_range_meters":4800,"station_id":"ce4bgh92rcd13ifvqb50","pricing_plan_id":"cebpf4jnsgd1na2vs0mg"},{"bike_id":"27ec07e5-f51c-4d88-b1f2-100aa756f7bc","system_id":"levelo_inurba_marseille","lat":43.304274,"lon":5.388873,"is_reserved":false,"is_disabled":false,"rental_uris":{"android":"levelo://app?vid=27ec07e5-f51c-4d88-b1f2-100aa756f7bc","ios":"levelo://app?vid=27ec07e5-f51c-4d88-b1f2-100aa756f7bc"},"vehicle_type_id":"4","last_reported":1720206363,"current_range_meters":31200,"station_id":"ce4bgk12rcd13ifvqbi0","pricing_plan_id":"cebpf4jnsgd1na2vs0mg"},{"bike_id":"ccd063e8-12a4-44c7-aa92-543ff4c93ba1","system_id":"levelo_inurba_marseille","lat":43.2979,"lon":5.38099,"is_reserved":false,"is_disabled":false,"rental_uris":{"android":"levelo://app?vid=ccd063e8-12a4-44c7-aa92-543ff4c93ba1","ios":"levelo://app?vid=ccd063e8-12a4-44c7-aa92-543ff4c93ba1"},"vehicle_type_id":"4","last_reported":1720206363,"current_range_meters":11200,"station_id":"ce4bgip2rcd13ifvqbb0","pricing_plan_id":"cebpf4jnsgd1na2vs0mg"},{"bike_id":"13a88a72-1d86-416e-9eb8-3ad05efb07ff","system_id":"levelo_inurba_marseille","lat":43.295748,"lon":5.37522,"is_reserved":false,"is_disabled":false,"rental_uris":{"android":"levelo://app?vid=13a88a72-1d86-416e-9eb8-3ad05efb07ff","ios":"levelo://app?vid=13a88a72-1d86-416e-9eb8-3ad05efb07ff"},"vehicle_type_id":"4","last_reported":1720206363,"current_range_meters":29200,"station_id":"ce4bgh92rcd13ifvqb50","pricing_plan_id":"cebpf4jnsgd1na2vs0mg"},{"bike_id":"00abd380-96ba-47e9-af47-5b9cfb467579","system_id":"levelo_inurba_marseille","lat":43.304278,"lon":5.388868,"is_reserved":false,"is_disabled":false,"rental_uris":{"android":"levelo://app?vid=00abd380-96ba-47e9-af47-5b9cfb467579","ios":"levelo://app?vid=00abd380-96ba-47e9-af47-5b9cfb467579"},"vehicle_type_id":"4","last_reported":1720206363,"current_range_meters":12400,"station_id":"ce4bgk12rcd13ifvqbi0","pricing_plan_id":"cebpf4jnsgd1na2vs0mg"},{"bike_id":"0ee15f73-762e-4331-9224-bd07178ca32e","system_id":"levelo_inurba_marseille","lat":43.304274,"lon":5.388873,"is_reserved":false,"is_disabled":false,"rental_uris":{"android":"levelo://app?vid=0ee15f73-762e-4331-9224-bd07178ca32e","ios":"levelo://app?vid=0ee15f73-762e-4331-9224-bd07178ca32e"},"vehicle_type_id":"4","last_reported":1720206363,"current_range_meters":21200,"station_id":"ce4bgk12rcd13ifvqbi0","pricing_plan_id":"cebpf4jnsgd1na2vs0mg"},{"bike_id":"9207cc34-b668-4114-a425-0b002b44ecf3","system_id":"levelo_inurba_marseille","lat":43.304278,"lon":5.388868,"is_reserved":false,"is_disabled":false,"rental_uris":{"android":"levelo://app?vid=9207cc34-b668-4114-a425-0b002b44ecf3","ios":"levelo://app?vid=9207cc34-b668-4114-a425-0b002b44ecf3"},"vehicle_type_id":"4","last_reported":1720206363,"current_range_meters":16000,"station_id":"ce4bgk12rcd13ifvqbi0","pricing_plan_id":"cebpf4jnsgd1na2vs0mg"},{"bike_id":"b617b077-74f7-4152-9360-46d392b75313","system_id":"levelo_inurba_marseille","lat":43.29566,"lon":5.37511,"is_reserved":false,"is_disabled":false,"rental_uris":{"android":"levelo://app?vid=b617b077-74f7-4152-9360-46d392b75313","ios":"levelo://app?vid=b617b077-74f7-4152-9360-46d392b75313"},"vehicle_type_id":"4","last_reported":1720206363,"current_range_meters":12000,"station_id":"ce4bgh92rcd13ifvqb50","pricing_plan_id":"cebpf4jnsgd1na2vs0mg"},{"bike_id":"5a086de4-dd6a-4238-b314-a19f13ad9ccb","system_id":"levelo_inurba_marseille","lat":43.296277,"lon":5.377108,"is_reserved":false,"is_disabled":false,"rental_uris":{"android":"levelo://app?vid=5a086de4-dd6a-4238-b314-a19f13ad9ccb","ios":"levelo://app?vid=5a086de4-dd6a-4238-b314-a19f13ad9ccb"},"vehicle_type_id":"4","last_reported":1720206363,"current_range_meters":3200,"station_id":"ce4bgi92rcd13ifvqb90","pricing_plan_id":"cebpf4jnsgd1na2vs0mg"},{"bike_id":"7ce4c964-0fa7-460b-9424-e05120e44dd0","system_id":"levelo_inurba_marseille","lat":43.296263,"lon":5.377094,"is_reserved":false,"is_disabled":false,"rental_uris":{"android":"levelo://app?vid=7ce4c964-0fa7-460b-9424-e05120e44dd0","ios":"levelo://app?vid=7ce4c964-0fa7-460b-9424-e05120e44dd0"},"vehicle_type_id":"4","last_reported":1720206363,"current_range_meters":26400,"station_id":"ce4bgi92rcd13ifvqb90","pricing_plan_id":"cebpf4jnsgd1na2vs0mg"},{"bike_id":"712dfa10-1f7f-4384-9c9e-8e85f5b006be","system_id":"levelo_inurba_marseille","lat":43.299872,"lon":5.384852,"is_reserved":false,"is_disabled":false,"rental_uris":{"android":"levelo://app?vid=712dfa10-1f7f-4384-9c9e-8e85f5b006be","ios":"levelo://app?vid=712dfa10-1f7f-4384-9c9e-8e85f5b006be"},"vehicle_type_id":"4","last_reported":1720206363,"current_range_meters":23600,"station_id":"ce4bgj92rcd13ifvqbd0","pricing_plan_id":"cebpf4jnsgd1na2vs0mg"},{"bike_id":"fcb5223b-5231-483f-9d75-6835adad4db4","system_id":"levelo_inurba_marseille","lat":43.299807,"lon":5.384837,"is_reserved":false,"is_disabled":false,"rental_uris":{"android":"levelo://app?vid=fcb5223b-5231-483f-9d75-6835adad4db4","ios":"levelo://app?vid=fcb5223b-5231-483f-9d75-6835adad4db4"},"vehicle_type_id":"4","last_reported":1720206363,"current_range_meters":29600,"station_id":"ce4bgj92rcd13ifvqbd0","pricing_plan_id":"cebpf4jnsgd1na2vs0mg"},{"bike_id":"dc51a989-c202-4219-96f8-610cfd1deb77","system_id":"levelo_inurba_marseille","lat":43.295279,"lon":5.375048,"is_reserved":false,"is_disabled":false,"rental_uris":{"android":"levelo://app?vid=dc51a989-c202-4219-96f8-610cfd1deb77","ios":"levelo://app?vid=dc51a989-c202-4219-96f8-610cfd1deb77"},"vehicle_type_id":"4","last_reported":1720206363,"current_range_meters":22000,"station_id":"ce4bgkp2rcd13ifvqbmg","pricing_plan_id":"cebpf4jnsgd1na2vs0mg"},{"bike_id":"79d302bf-cb28-447d-826d-3baab4f29014","system_id":"levelo_inurba_marseille","lat":43.29988,"lon":5.38497,"is_reserved":false,"is_disabled":false,"rental_uris":{"android":"levelo://app?vid=79d302bf-cb28-447d-826d-3baab4f29014","ios":"levelo://app?vid=79d302bf-cb28-447d-826d-3baab4f29014"},"vehicle_type_id":"4","last_reported":1720206363,"current_range_meters":14800,"station_id":"ce4bgj92rcd13ifvqbd0","pricing_plan_id":"cebpf4jnsgd1na2vs0mg"},{"bike_id":"3683cef4-74f4-4da3-a8bb-ff5b699204f6","system_id":"levelo_inurba_marseille","lat":43.295279,"lon":5.375048,"is_reserved":false,"is_disabled":false,"rental_uris":{"android":"levelo://app?vid=3683cef4-74f4-4da3-a8bb-ff5b699204f6","ios":"levelo://app?vid=3683cef4-74f4-4da3-a8bb-ff5b699204f6"},"vehicle_type_id":"4","last_reported":1720206363,"current_range_meters":27200,"station_id":"ce4bgkp2rcd13ifvqbmg","pricing_plan_id":"cebpf4jnsgd1na2vs0mg"},{"bike_id":"211c4cb2-2e54-4358-9892-8a5fd7b5a0db","system_id":"levelo_inurba_marseille","lat":43.29973,"lon":5.38482,"is_reserved":false,"is_disabled":false,"rental_uris":{"android":"levelo://app?vid=211c4cb2-2e54-4358-9892-8a5fd7b5a0db","ios":"levelo://app?vid=211c4cb2-2e54-4358-9892-8a5fd7b5a0db"},"vehicle_type_id":"4","last_reported":1720206363,"current_range_meters":18000,"station_id":"ce4bgj92rcd13ifvqbd0","pricing_plan_id":"cebpf4jnsgd1na2vs0mg"},{"bike_id":"f934d96f-ac15-4a2b-9efb-9bbf17bb2014","system_id":"levelo_inurba_marseille","lat":43.2998,"lon":5.38498,"is_reserved":false,"is_disabled":false,"rental_uris":{"android":"levelo://app?vid=f934d96f-ac15-4a2b-9efb-9bbf17bb2014","ios":"levelo://app?vid=f934d96f-ac15-4a2b-9efb-9bbf17bb2014"},"vehicle_type_id":"4","last_reported":1720206363,"current_range_meters":400,"station_id":"ce4bgj92rcd13ifvqbd0","pricing_plan_id":"cebpf4jnsgd1na2vs0mg"},{"bike_id":"0ca93134-7cc3-4a2d-9b5a-695d93217ac5","system_id":"levelo_inurba_marseille","lat":43.299717,"lon":5.384845,"is_reserved":false,"is_disabled":false,"rental_uris":{"android":"levelo://app?vid=0ca93134-7cc3-4a2d-9b5a-695d93217ac5","ios":"levelo://app?vid=0ca93134-7cc3-4a2d-9b5a-695d93217ac5"},"vehicle_type_id":"4","last_reported":1720206363,"current_range_meters":19200,"station_id":"ce4bgj92rcd13ifvqbd0","pricing_plan_id":"cebpf4jnsgd1na2vs0mg"},{"bike_id":"9656f785-fc00-444a-9f53-755fd6f678f5","system_id":"levelo_inurba_marseille","lat":43.299717,"lon":5.384845,"is_reserved":false,"is_disabled":false,"rental_uris":{"android":"levelo://app?vid=9656f785-fc00-444a-9f53-755fd6f678f5","ios":"levelo://app?vid=9656f785-fc00-444a-9f53-755fd6f678f5"},"vehicle_type_id":"4","last_reported":1720206363,"current_range_meters":2000,"station_id":"ce4bgj92rcd13ifvqbd0","pricing_plan_id":"cebpf4jnsgd1na2vs0mg"},{"bike_id":"8a5b2297-8f63-4a25-94d3-52f3e234a8b5","system_id":"levelo_inurba_marseille","lat":43.299724,"lon":5.384848,"is_reserved":false,"is_disabled":false,"rental_uris":{"android":"levelo://app?vid=8a5b2297-8f63-4a25-94d3-52f3e234a8b5","ios":"levelo://app?vid=8a5b2297-8f63-4a25-94d3-52f3e234a8b5"},"vehicle_type_id":"4","last_reported":1720206363,"current_range_meters":15600,"station_id":"ce4bgj92rcd13ifvqbd0","pricing_plan_id":"cebpf4jnsgd1na2vs0mg"},{"bike_id":"c676ac16-ad5e-4d5e-a49d-5b1eaca683bd","system_id":"levelo_inurba_marseille","lat":43.295279,"lon":5.375048,"is_reserved":false,"is_disabled":false,"rental_uris":{"android":"levelo://app?vid=c676ac16-ad5e-4d5e-a49d-5b1eaca683bd","ios":"levelo://app?vid=c676ac16-ad5e-4d5e-a49d-5b1eaca683bd"},"vehicle_type_id":"4","last_reported":1720206363,"current_range_meters":26000,"station_id":"ce4bgkp2rcd13ifvqbmg","pricing_plan_id":"cebpf4jnsgd1na2vs0mg"},{"bike_id":"6bcd56d2-62e7-4c0b-ac50-4625dc4297f5","system_id":"levelo_inurba_marseille","lat":43.295279,"lon":5.375048,"is_reserved":false,"is_disabled":false,"rental_uris":{"android":"levelo://app?vid=6bcd56d2-62e7-4c0b-ac50-4625dc4297f5","ios":"levelo://app?vid=6bcd56d2-62e7-4c0b-ac50-4625dc4297f5"},"vehicle_type_id":"4","last_reported":1720206363,"current_range_meters":21600,"station_id":"ce4bgkp2rcd13ifvqbmg","pricing_plan_id":"cebpf4jnsgd1na2vs0mg"},{"bike_id":"7c38cec3-ce59-46c6-aef0-cd1f3f8f3231","system_id":"levelo_inurba_marseille","lat":43.295279,"lon":5.375048,"is_reserved":false,"is_disabled":false,"rental_uris":{"android":"levelo://app?vid=7c38cec3-ce59-46c6-aef0-cd1f3f8f3231","ios":"levelo://app?vid=7c38cec3-ce59-46c6-aef0-cd1f3f8f3231"},"vehicle_type_id":"4","last_reported":1720206363,"current_range_meters":30800,"station_id":"ce4bgkp2rcd13ifvqbmg","pricing_plan_id":"cebpf4jnsgd1na2vs0mg"},{"bike_id":"5fba30d9-c8e1-4014-abe9-b4506dfdf1a1","system_id":"levelo_inurba_marseille","lat":43.299717,"lon":5.384845,"is_reserved":false,"is_disabled":false,"rental_uris":{"android":"levelo://app?vid=5fba30d9-c8e1-4014-abe9-b4506dfdf1a1","ios":"levelo://app?vid=5fba30d9-c8e1-4014-abe9-b4506dfdf1a1"},"vehicle_type_id":"4","last_reported":1720206363,"current_range_meters":26400,"station_id":"ce4bgj92rcd13ifvqbd0","pricing_plan_id":"cebpf4jnsgd1na2vs0mg"},{"bike_id":"7639005a-1d6f-4877-bcc2-a9e033f2a11d","system_id":"levelo_inurba_marseille","lat":43.29981,"lon":5.38521,"is_reserved":false,"is_disabled":false,"rental_uris":{"android":"levelo://app?vid=7639005a-1d6f-4877-bcc2-a9e033f2a11d","ios":"levelo://app?vid=7639005a-1d6f-4877-bcc2-a9e033f2a11d"},"vehicle_type_id":"4","last_reported":1720206363,"current_range_meters":29600,"station_id":"ce4bgj92rcd13ifvqbd0","pricing_plan_id":"cebpf4jnsgd1na2vs0mg"},{"bike_id":"3aeeef97-e59a-4ac1-bdc6-75a6f089eac4","system_id":"levelo_inurba_marseille","lat":43.30141,"lon":5.38765,"is_reserved":false,"is_disabled":false,"rental_uris":{"android":"levelo://app?vid=3aeeef97-e59a-4ac1-bdc6-75a6f089eac4","ios":"levelo://app?vid=3aeeef97-e59a-4ac1-bdc6-75a6f089eac4"},"vehicle_type_id":"4","last_reported":1720206363,"current_range_meters":0,"station_id":"ce4bghh2rcd13ifvqb60","pricing_plan_id":"cebpf4jnsgd1na2vs0mg"},{"bike_id":"c428ff39-4759-4a65-bb9e-a712b94a2b01","system_id":"levelo_inurba_marseille","lat":43.30135,"lon":5.38772,"is_reserved":false,"is_disabled":false,"rental_uris":{"android":"levelo://app?vid=c428ff39-4759-4a65-bb9e-a712b94a2b01","ios":"levelo://app?vid=c428ff39-4759-4a65-bb9e-a712b94a2b01"},"vehicle_type_id":"4","last_reported":1720206363,"current_range_meters":0,"station_id":"ce4bghh2rcd13ifvqb60","pricing_plan_id":"cebpf4jnsgd1na2vs0mg"},{"bike_id":"d6412371-81f2-49e5-8784-6d67a33dcb2e","system_id":"levelo_inurba_marseille","lat":43.301396,"lon":5.387812,"is_reserved":false,"is_disabled":false,"rental_uris":{"android":"levelo://app?vid=d6412371-81f2-49e5-8784-6d67a33dcb2e","ios":"levelo://app?vid=d6412371-81f2-49e5-8784-6d67a33dcb2e"},"vehicle_type_id":"4","last_reported":1720206363,"current_range_meters":24800,"station_id":"ce4bghh2rcd13ifvqb60","pricing_plan_id":"cebpf4jnsgd1na2vs0mg"},{"bike_id":"4e98d197-61ca-4803-a5b5-4e461cf2840d","system_id":"levelo_inurba_marseille","lat":43.294962,"lon":5.376244,"is_reserved":false,"is_disabled":false,"rental_uris":{"android":"levelo://app?vid=4e98d197-61ca-4803-a5b5-4e461cf2840d","ios":"levelo://app?vid=4e98d197-61ca-4803-a5b5-4e461cf2840d"},"vehicle_type_id":"4","last_reported":1720206363,"current_range_meters":22400,"station_id":"","pricing_plan_id":"cebpf4jnsgd1na2vs0mg"},{"bike_id":"703e14ca-d678-45c0-a0bf-cea46d267c56","system_id":"levelo_inurba_marseille","lat":43.32367,"lon":5.388836,"is_reserved":false,"is_disabled":false,"rental_uris":{"android":"levelo://app?vid=703e14ca-d678-45c0-a0bf-cea46d267c56","ios":"levelo://app?vid=703e14ca-d678-45c0-a0bf-cea46d267c56"},"vehicle_type_id":"4","last_reported":1720206363,"current_range_meters":0,"station_id":"ce4bhqp2rcd13ifvqhog","pricing_plan_id":"cebpf4jnsgd1na2vs0mg"},{"bike_id":"82a9404d-0133-45da-8cba-52d9c8f3e879","system_id":"levelo_inurba_marseille","lat":43.29602,"lon":5.381084,"is_reserved":false,"is_disabled":false,"rental_uris":{"android":"levelo://app?vid=82a9404d-0133-45da-8cba-52d9c8f3e879","ios":"levelo://app?vid=82a9404d-0133-45da-8cba-52d9c8f3e879"},"vehicle_type_id":"4","last_reported":1720206363,"current_range_meters":28800,"station_id":"ce4bgl12rcd13ifvqbo0","pricing_plan_id":"cebpf4jnsgd1na2vs0mg"},{"bike_id":"8b3ce522-902d-4bb6-9f8b-6f9c2342ea09","system_id":"levelo_inurba_marseille","lat":43.29602,"lon":5.381084,"is_reserved":false,"is_disabled":false,"rental_uris":{"android":"levelo://app?vid=8b3ce522-902d-4bb6-9f8b-6f9c2342ea09","ios":"levelo://app?vid=8b3ce522-902d-4bb6-9f8b-6f9c2342ea09"},"vehicle_type_id":"4","last_reported":1720206363,"current_range_meters":1200,"station_id":"ce4bgl12rcd13ifvqbo0","pricing_plan_id":"cebpf4jnsgd1na2vs0mg"},{"bike_id":"11b3a03f-6a5e-4b3f-a9a9-8724c9ccb217","system_id":"levelo_inurba_marseille","lat":43.29604,"lon":5.38091,"is_reserved":false,"is_disabled":false,"rental_uris":{"android":"levelo://app?vid=11b3a03f-6a5e-4b3f-a9a9-8724c9ccb217","ios":"levelo://app?vid=11b3a03f-6a5e-4b3f-a9a9-8724c9ccb217"},"vehicle_type_id":"4","last_reported":1720206363,"current_range_meters":16800,"station_id":"ce4bgl12rcd13ifvqbo0","pricing_plan_id":"cebpf4jnsgd1na2vs0mg"},{"bike_id":"90b5dcdb-1c12-4754-8521-a8dfc5e61781","system_id":"levelo_inurba_marseille","lat":43.29602,"lon":5.381084,"is_reserved":false,"is_disabled":false,"rental_uris":{"android":"levelo://app?vid=90b5dcdb-1c12-4754-8521-a8dfc5e61781","ios":"levelo://app?vid=90b5dcdb-1c12-4754-8521-a8dfc5e61781"},"vehicle_type_id":"4","last_reported":1720206363,"current_range_meters":30000,"station_id":"ce4bgl12rcd13ifvqbo0","pricing_plan_id":"cebpf4jnsgd1na2vs0mg"},{"bike_id":"a339db40-49a0-4ac8-9c94-979ee31362b8","system_id":"levelo_inurba_marseille","lat":43.29602,"lon":5.381084,"is_reserved":false,"is_disabled":false,"rental_uris":{"android":"levelo://app?vid=a339db40-49a0-4ac8-9c94-979ee31362b8","ios":"levelo://app?vid=a339db40-49a0-4ac8-9c94-979ee31362b8"},"vehicle_type_id":"4","last_reported":1720206363,"current_range_meters":13600,"station_id":"ce4bgl12rcd13ifvqbo0","pricing_plan_id":"cebpf4jnsgd1na2vs0mg"},{"bike_id":"8a0320e2-f618-43ff-ab4a-a72ac59cc016","system_id":"levelo_inurba_marseille","lat":43.29602,"lon":5.381084,"is_reserved":false,"is_disabled":false,"rental_uris":{"android":"levelo://app?vid=8a0320e2-f618-43ff-ab4a-a72ac59cc016","ios":"levelo://app?vid=8a0320e2-f618-43ff-ab4a-a72ac59cc016"},"vehicle_type_id":"4","last_reported":1720206363,"current_range_meters":23600,"station_id":"ce4bgl12rcd13ifvqbo0","pricing_plan_id":"cebpf4jnsgd1na2vs0mg"},{"bike_id":"a42372e3-145d-4e41-aa38-cb1abc2fa314","system_id":"levelo_inurba_marseille","lat":43.29602,"lon":5.381084,"is_reserved":false,"is_disabled":false,"rental_uris":{"android":"levelo://app?vid=a42372e3-145d-4e41-aa38-cb1abc2fa314","ios":"levelo://app?vid=a42372e3-145d-4e41-aa38-cb1abc2fa314"},"vehicle_type_id":"4","last_reported":1720206363,"current_range_meters":6400,"station_id":"ce4bgl12rcd13ifvqbo0","pricing_plan_id":"cebpf4jnsgd1na2vs0mg"},{"bike_id":"8a16d3e5-a71c-48e2-92a7-6620d367b9cf","system_id":"levelo_inurba_marseille","lat":43.29602,"lon":5.381084,"is_reserved":false,"is_disabled":false,"rental_uris":{"android":"levelo://app?vid=8a16d3e5-a71c-48e2-92a7-6620d367b9cf","ios":"levelo://app?vid=8a16d3e5-a71c-48e2-92a7-6620d367b9cf"},"vehicle_type_id":"4","last_reported":1720206363,"current_range_meters":14000,"station_id":"ce4bgl12rcd13ifvqbo0","pricing_plan_id":"cebpf4jnsgd1na2vs0mg"},{"bike_id":"0cc6e2e5-752c-46f6-944f-523824b3fa84","system_id":"levelo_inurba_marseille","lat":43.29601,"lon":5.381084,"is_reserved":false,"is_disabled":false,"rental_uris":{"android":"levelo://app?vid=0cc6e2e5-752c-46f6-944f-523824b3fa84","ios":"levelo://app?vid=0cc6e2e5-752c-46f6-944f-523824b3fa84"},"vehicle_type_id":"4","last_reported":1720206363,"current_range_meters":1200,"station_id":"ce4bgl12rcd13ifvqbo0","pricing_plan_id":"cebpf4jnsgd1na2vs0mg"},{"bike_id":"9bc1e19f-e8dd-49e4-8175-3a37e423ada7","system_id":"levelo_inurba_marseille","lat":43.29602,"lon":5.381084,"is_reserved":false,"is_disabled":false,"rental_uris":{"android":"levelo://app?vid=9bc1e19f-e8dd-49e4-8175-3a37e423ada7","ios":"levelo://app?vid=9bc1e19f-e8dd-49e4-8175-3a37e423ada7"},"vehicle_type_id":"4","last_reported":1720206363,"current_range_meters":13600,"station_id":"ce4bgl12rcd13ifvqbo0","pricing_plan_id":"cebpf4jnsgd1na2vs0mg"},{"bike_id":"6ae7b72c-49f9-472f-9fc7-be56d8ac7737","system_id":"levelo_inurba_marseille","lat":43.29601,"lon":5.381084,"is_reserved":false,"is_disabled":false,"rental_uris":{"android":"levelo://app?vid=6ae7b72c-49f9-472f-9fc7-be56d8ac7737","ios":"levelo://app?vid=6ae7b72c-49f9-472f-9fc7-be56d8ac7737"},"vehicle_type_id":"4","last_reported":1720206363,"current_range_meters":31200,"station_id":"ce4bgl12rcd13ifvqbo0","pricing_plan_id":"cebpf4jnsgd1na2vs0mg"},{"bike_id":"32248d26-6795-4c25-a05b-1f85f60aa7a2","system_id":"levelo_inurba_marseille","lat":43.29602,"lon":5.381084,"is_reserved":false,"is_disabled":false,"rental_uris":{"android":"levelo://app?vid=32248d26-6795-4c25-a05b-1f85f60aa7a2","ios":"levelo://app?vid=32248d26-6795-4c25-a05b-1f85f60aa7a2"},"vehicle_type_id":"4","last_reported":1720206363,"current_range_meters":6400,"station_id":"ce4bgl12rcd13ifvqbo0","pricing_plan_id":"cebpf4jnsgd1na2vs0mg"},{"bike_id":"69fc1f78-cef0-43a2-a4d6-13787e2cff74","system_id":"levelo_inurba_marseille","lat":43.29602,"lon":5.381084,"is_reserved":false,"is_disabled":false,"rental_uris":{"android":"levelo://app?vid=69fc1f78-cef0-43a2-a4d6-13787e2cff74","ios":"levelo://app?vid=69fc1f78-cef0-43a2-a4d6-13787e2cff74"},"vehicle_type_id":"4","last_reported":1720206363,"current_range_meters":25200,"station_id":"ce4bgl12rcd13ifvqbo0","pricing_plan_id":"cebpf4jnsgd1na2vs0mg"},{"bike_id":"b301d2d5-db6c-4846-8e66-fb7a287f64e4","system_id":"levelo_inurba_marseille","lat":43.295993,"lon":5.381089,"is_reserved":false,"is_disabled":false,"rental_uris":{"android":"levelo://app?vid=b301d2d5-db6c-4846-8e66-fb7a287f64e4","ios":"levelo://app?vid=b301d2d5-db6c-4846-8e66-fb7a287f64e4"},"vehicle_type_id":"4","last_reported":1720206363,"current_range_meters":6000,"station_id":"","pricing_plan_id":"cebpf4jnsgd1na2vs0mg"},{"bike_id":"44202f41-bdf4-40c4-b3f6-213961ce2b3f","system_id":"levelo_inurba_marseille","lat":43.29602,"lon":5.381084,"is_reserved":false,"is_disabled":false,"rental_uris":{"android":"levelo://app?vid=44202f41-bdf4-40c4-b3f6-213961ce2b3f","ios":"levelo://app?vid=44202f41-bdf4-40c4-b3f6-213961ce2b3f"},"vehicle_type_id":"4","last_reported":1720206363,"current_range_meters":9200,"station_id":"ce4bgl12rcd13ifvqbo0","pricing_plan_id":"cebpf4jnsgd1na2vs0mg"},{"bike_id":"09aca2b1-d0b7-46d2-97c4-d88d1a006823","system_id":"levelo_inurba_marseille","lat":43.295905,"lon":5.380978,"is_reserved":false,"is_disabled":false,"rental_uris":{"android":"levelo://app?vid=09aca2b1-d0b7-46d2-97c4-d88d1a006823","ios":"levelo://app?vid=09aca2b1-d0b7-46d2-97c4-d88d1a006823"},"vehicle_type_id":"4","last_reported":1720206363,"current_range_meters":18800,"station_id":"","pricing_plan_id":"cebpf4jnsgd1na2vs0mg"},{"bike_id":"c0be46a5-f93d-4b74-bef2-e434c15b86b1","system_id":"levelo_inurba_marseille","lat":43.29316,"lon":5.37173,"is_reserved":false,"is_disabled":false,"rental_uris":{"android":"levelo://app?vid=c0be46a5-f93d-4b74-bef2-e434c15b86b1","ios":"levelo://app?vid=c0be46a5-f93d-4b74-bef2-e434c15b86b1"},"vehicle_type_id":"4","last_reported":1720206363,"current_range_meters":28000,"station_id":"ce4bgh92rcd13ifvqb40","pricing_plan_id":"cebpf4jnsgd1na2vs0mg"},{"bike_id":"44ed7295-1bfa-4229-897f-cc1f21f0dd6e","system_id":"levelo_inurba_marseille","lat":43.292749,"lon":5.368398,"is_reserved":false,"is_disabled":false,"rental_uris":{"android":"levelo://app?vid=44ed7295-1bfa-4229-897f-cc1f21f0dd6e","ios":"levelo://app?vid=44ed7295-1bfa-4229-897f-cc1f21f0dd6e"},"vehicle_type_id":"4","last_reported":1720206363,"current_range_meters":24000,"station_id":"ce4bhbp2rcd13ifvqesg","pricing_plan_id":"cebpf4jnsgd1na2vs0mg"},{"bike_id":"4636ee1d-50f2-4290-865b-ff4ff41bc6ca","system_id":"levelo_inurba_marseille","lat":43.293249,"lon":5.371578,"is_reserved":false,"is_disabled":false,"rental_uris":{"android":"levelo://app?vid=4636ee1d-50f2-4290-865b-ff4ff41bc6ca","ios":"levelo://app?vid=4636ee1d-50f2-4290-865b-ff4ff41bc6ca"},"vehicle_type_id":"4","last_reported":1720206363,"current_range_meters":0,"station_id":"ce4bgh92rcd13ifvqb40","pricing_plan_id":"cebpf4jnsgd1na2vs0mg"},{"bike_id":"39875ba8-5fe2-4660-8d0a-b24817b0d7cf","system_id":"levelo_inurba_marseille","lat":43.293087,"lon":5.371497,"is_reserved":false,"is_disabled":false,"rental_uris":{"android":"levelo://app?vid=39875ba8-5fe2-4660-8d0a-b24817b0d7cf","ios":"levelo://app?vid=39875ba8-5fe2-4660-8d0a-b24817b0d7cf"},"vehicle_type_id":"4","last_reported":1720206363,"current_range_meters":3200,"station_id":"ce4bgh92rcd13ifvqb40","pricing_plan_id":"cebpf4jnsgd1na2vs0mg"},{"bike_id":"e8c22482-9319-4a68-9869-c1463180d575","system_id":"levelo_inurba_marseille","lat":43.29311,"lon":5.37181,"is_reserved":false,"is_disabled":false,"rental_uris":{"android":"levelo://app?vid=e8c22482-9319-4a68-9869-c1463180d575","ios":"levelo://app?vid=e8c22482-9319-4a68-9869-c1463180d575"},"vehicle_type_id":"4","last_reported":1720206363,"current_range_meters":19200,"station_id":"ce4bgh92rcd13ifvqb40","pricing_plan_id":"cebpf4jnsgd1na2vs0mg"},{"bike_id":"69810857-0a8c-4d61-9d4e-16410818b8bd","system_id":"levelo_inurba_marseille","lat":43.293073,"lon":5.371628,"is_reserved":false,"is_disabled":false,"rental_uris":{"android":"levelo://app?vid=69810857-0a8c-4d61-9d4e-16410818b8bd","ios":"levelo://app?vid=69810857-0a8c-4d61-9d4e-16410818b8bd"},"vehicle_type_id":"4","last_reported":1720206363,"current_range_meters":0,"station_id":"ce4bgh92rcd13ifvqb40","pricing_plan_id":"cebpf4jnsgd1na2vs0mg"},{"bike_id":"e3de3690-8ea7-4bc7-942d-e982aaf59f8c","system_id":"levelo_inurba_marseille","lat":43.2931,"lon":5.37187,"is_reserved":false,"is_disabled":false,"rental_uris":{"android":"levelo://app?vid=e3de3690-8ea7-4bc7-942d-e982aaf59f8c","ios":"levelo://app?vid=e3de3690-8ea7-4bc7-942d-e982aaf59f8c"},"vehicle_type_id":"4","last_reported":1720206363,"current_range_meters":0,"station_id":"ce4bgh92rcd13ifvqb40","pricing_plan_id":"cebpf4jnsgd1na2vs0mg"},{"bike_id":"cc558533-0728-41a2-8f8f-8d9ab86a5835","system_id":"levelo_inurba_marseille","lat":43.292749,"lon":5.368398,"is_reserved":false,"is_disabled":false,"rental_uris":{"android":"levelo://app?vid=cc558533-0728-41a2-8f8f-8d9ab86a5835","ios":"levelo://app?vid=cc558533-0728-41a2-8f8f-8d9ab86a5835"},"vehicle_type_id":"4","last_reported":1720206363,"current_range_meters":13200,"station_id":"ce4bhbp2rcd13ifvqesg","pricing_plan_id":"cebpf4jnsgd1na2vs0mg"},{"bike_id":"cb6c044a-7a98-4f30-86d1-9cf7ec499d52","system_id":"levelo_inurba_marseille","lat":43.29307,"lon":5.37166,"is_reserved":false,"is_disabled":false,"rental_uris":{"android":"levelo://app?vid=cb6c044a-7a98-4f30-86d1-9cf7ec499d52","ios":"levelo://app?vid=cb6c044a-7a98-4f30-86d1-9cf7ec499d52"},"vehicle_type_id":"4","last_reported":1720206363,"current_range_meters":9200,"station_id":"ce4bgh92rcd13ifvqb40","pricing_plan_id":"cebpf4jnsgd1na2vs0mg"},{"bike_id":"6aa50bba-da31-43cd-b51f-8f399f1f7a79","system_id":"levelo_inurba_marseille","lat":43.292749,"lon":5.368398,"is_reserved":false,"is_disabled":false,"rental_uris":{"android":"levelo://app?vid=6aa50bba-da31-43cd-b51f-8f399f1f7a79","ios":"levelo://app?vid=6aa50bba-da31-43cd-b51f-8f399f1f7a79"},"vehicle_type_id":"4","last_reported":1720206363,"current_range_meters":21200,"station_id":"ce4bhbp2rcd13ifvqesg","pricing_plan_id":"cebpf4jnsgd1na2vs0mg"},{"bike_id":"6481811d-7555-4956-ae98-637aefbb70e6","system_id":"levelo_inurba_marseille","lat":43.29308,"lon":5.3718,"is_reserved":false,"is_disabled":false,"rental_uris":{"android":"levelo://app?vid=6481811d-7555-4956-ae98-637aefbb70e6","ios":"levelo://app?vid=6481811d-7555-4956-ae98-637aefbb70e6"},"vehicle_type_id":"4","last_reported":1720206363,"current_range_meters":5600,"station_id":"ce4bgh92rcd13ifvqb40","pricing_plan_id":"cebpf4jnsgd1na2vs0mg"},{"bike_id":"dc968362-707a-4d47-918d-a01c994dcb09","system_id":"levelo_inurba_marseille","lat":43.292749,"lon":5.368398,"is_reserved":false,"is_disabled":false,"rental_uris":{"android":"levelo://app?vid=dc968362-707a-4d47-918d-a01c994dcb09","ios":"levelo://app?vid=dc968362-707a-4d47-918d-a01c994dcb09"},"vehicle_type_id":"4","last_reported":1720206363,"current_range_meters":12400,"station_id":"ce4bhbp2rcd13ifvqesg","pricing_plan_id":"cebpf4jnsgd1na2vs0mg"},{"bike_id":"5b1a9533-1ba8-4976-9b4c-f23ca49310bd","system_id":"levelo_inurba_marseille","lat":43.29306,"lon":5.37169,"is_reserved":false,"is_disabled":false,"rental_uris":{"android":"levelo://app?vid=5b1a9533-1ba8-4976-9b4c-f23ca49310bd","ios":"levelo://app?vid=5b1a9533-1ba8-4976-9b4c-f23ca49310bd"},"vehicle_type_id":"4","last_reported":1720206363,"current_range_meters":10000,"station_id":"ce4bgh92rcd13ifvqb40","pricing_plan_id":"cebpf4jnsgd1na2vs0mg"},{"bike_id":"d0d7e6d9-b71b-48a4-9acd-359a1266cfb2","system_id":"levelo_inurba_marseille","lat":43.29307,"lon":5.37179,"is_reserved":false,"is_disabled":false,"rental_uris":{"android":"levelo://app?vid=d0d7e6d9-b71b-48a4-9acd-359a1266cfb2","ios":"levelo://app?vid=d0d7e6d9-b71b-48a4-9acd-359a1266cfb2"},"vehicle_type_id":"4","last_reported":1720206363,"current_range_meters":4000,"station_id":"ce4bgh92rcd13ifvqb40","pricing_plan_id":"cebpf4jnsgd1na2vs0mg"},{"bike_id":"ff887fb7-272c-4e3d-bb57-97520cd0dfe3","system_id":"levelo_inurba_marseille","lat":43.29305,"lon":5.37168,"is_reserved":false,"is_disabled":false,"rental_uris":{"android":"levelo://app?vid=ff887fb7-272c-4e3d-bb57-97520cd0dfe3","ios":"levelo://app?vid=ff887fb7-272c-4e3d-bb57-97520cd0dfe3"},"vehicle_type_id":"4","last_reported":1720206363,"current_range_meters":10400,"station_id":"ce4bgh92rcd13ifvqb40","pricing_plan_id":"cebpf4jnsgd1na2vs0mg"},{"bike_id":"be8db7bd-c556-4ab3-bbb4-5ff39348090b","system_id":"levelo_inurba_marseille","lat":43.29306,"lon":5.37179,"is_reserved":false,"is_disabled":false,"rental_uris":{"android":"levelo://app?vid=be8db7bd-c556-4ab3-bbb4-5ff39348090b","ios":"levelo://app?vid=be8db7bd-c556-4ab3-bbb4-5ff39348090b"},"vehicle_type_id":"4","last_reported":1720206363,"current_range_meters":15200,"station_id":"ce4bgh92rcd13ifvqb40","pricing_plan_id":"cebpf4jnsgd1na2vs0mg"},{"bike_id":"e057ee23-ea9d-45a5-84bb-48f9a9266152","system_id":"levelo_inurba_marseille","lat":43.292749,"lon":5.368398,"is_reserved":false,"is_disabled":false,"rental_uris":{"android":"levelo://app?vid=e057ee23-ea9d-45a5-84bb-48f9a9266152","ios":"levelo://app?vid=e057ee23-ea9d-45a5-84bb-48f9a9266152"},"vehicle_type_id":"4","last_reported":1720206363,"current_range_meters":12400,"station_id":"ce4bhbp2rcd13ifvqesg","pricing_plan_id":"cebpf4jnsgd1na2vs0mg"},{"bike_id":"b70c9775-d71a-43ac-a56a-c1d7a6ff019b","system_id":"levelo_inurba_marseille","lat":43.293044,"lon":5.371773,"is_reserved":false,"is_disabled":false,"rental_uris":{"android":"levelo://app?vid=b70c9775-d71a-43ac-a56a-c1d7a6ff019b","ios":"levelo://app?vid=b70c9775-d71a-43ac-a56a-c1d7a6ff019b"},"vehicle_type_id":"4","last_reported":1720206363,"current_range_meters":31200,"station_id":"ce4bgh92rcd13ifvqb40","pricing_plan_id":"cebpf4jnsgd1na2vs0mg"},{"bike_id":"54f1ebbd-f07a-42f2-aa0d-462df48d3dbb","system_id":"levelo_inurba_marseille","lat":43.292749,"lon":5.368398,"is_reserved":false,"is_disabled":false,"rental_uris":{"android":"levelo://app?vid=54f1ebbd-f07a-42f2-aa0d-462df48d3dbb","ios":"levelo://app?vid=54f1ebbd-f07a-42f2-aa0d-462df48d3dbb"},"vehicle_type_id":"4","last_reported":1720206363,"current_range_meters":4000,"station_id":"ce4bhbp2rcd13ifvqesg","pricing_plan_id":"cebpf4jnsgd1na2vs0mg"},{"bike_id":"26f5aae0-2053-4d9a-b590-e9a1a59ef332","system_id":"levelo_inurba_marseille","lat":43.29302,"lon":5.37169,"is_reserved":false,"is_disabled":false,"rental_uris":{"android":"levelo://app?vid=26f5aae0-2053-4d9a-b590-e9a1a59ef332","ios":"levelo://app?vid=26f5aae0-2053-4d9a-b590-e9a1a59ef332"},"vehicle_type_id":"4","last_reported":1720206363,"current_range_meters":28400,"station_id":"ce4bgh92rcd13ifvqb40","pricing_plan_id":"cebpf4jnsgd1na2vs0mg"},{"bike_id":"40f18968-609c-437b-b4a5-d174e9cb7c37","system_id":"levelo_inurba_marseille","lat":43.29274,"lon":5.36839,"is_reserved":false,"is_disabled":false,"rental_uris":{"android":"levelo://app?vid=40f18968-609c-437b-b4a5-d174e9cb7c37","ios":"levelo://app?vid=40f18968-609c-437b-b4a5-d174e9cb7c37"},"vehicle_type_id":"4","last_reported":1720206363,"current_range_meters":0,"station_id":"ce4bhbp2rcd13ifvqesg","pricing_plan_id":"cebpf4jnsgd1na2vs0mg"},{"bike_id":"306a6809-469a-4331-8e1f-7bb2593fdf3c","system_id":"levelo_inurba_marseille","lat":43.29301,"lon":5.37169,"is_reserved":false,"is_disabled":false,"rental_uris":{"android":"levelo://app?vid=306a6809-469a-4331-8e1f-7bb2593fdf3c","ios":"levelo://app?vid=306a6809-469a-4331-8e1f-7bb2593fdf3c"},"vehicle_type_id":"4","last_reported":1720206363,"current_range_meters":3200,"station_id":"ce4bgh92rcd13ifvqb40","pricing_plan_id":"cebpf4jnsgd1na2vs0mg"},{"bike_id":"60512a6d-bd96-4be2-b1f1-6567fa2c5152","system_id":"levelo_inurba_marseille","lat":43.29302,"lon":5.37178,"is_reserved":false,"is_disabled":false,"rental_uris":{"android":"levelo://app?vid=60512a6d-bd96-4be2-b1f1-6567fa2c5152","ios":"levelo://app?vid=60512a6d-bd96-4be2-b1f1-6567fa2c5152"},"vehicle_type_id":"4","last_reported":1720206363,"current_range_meters":20400,"station_id":"ce4bgh92rcd13ifvqb40","pricing_plan_id":"cebpf4jnsgd1na2vs0mg"},{"bike_id":"110df5ed-3de0-4355-9552-d2239003c9d3","system_id":"levelo_inurba_marseille","lat":43.292749,"lon":5.368398,"is_reserved":false,"is_disabled":false,"rental_uris":{"android":"levelo://app?vid=110df5ed-3de0-4355-9552-d2239003c9d3","ios":"levelo://app?vid=110df5ed-3de0-4355-9552-d2239003c9d3"},"vehicle_type_id":"4","last_reported":1720206363,"current_range_meters":3200,"station_id":"ce4bhbp2rcd13ifvqesg","pricing_plan_id":"cebpf4jnsgd1na2vs0mg"},{"bike_id":"c36c118b-c301-4a88-b1f3-2109683ec14c","system_id":"levelo_inurba_marseille","lat":43.292985,"lon":5.371786,"is_reserved":false,"is_disabled":false,"rental_uris":{"android":"levelo://app?vid=c36c118b-c301-4a88-b1f3-2109683ec14c","ios":"levelo://app?vid=c36c118b-c301-4a88-b1f3-2109683ec14c"},"vehicle_type_id":"4","last_reported":1720206363,"current_range_meters":13600,"station_id":"ce4bgh92rcd13ifvqb40","pricing_plan_id":"cebpf4jnsgd1na2vs0mg"},{"bike_id":"37e1df18-3877-4920-a07c-42c4641d725f","system_id":"levelo_inurba_marseille","lat":43.29317,"lon":5.37453,"is_reserved":false,"is_disabled":false,"rental_uris":{"android":"levelo://app?vid=37e1df18-3877-4920-a07c-42c4641d725f","ios":"levelo://app?vid=37e1df18-3877-4920-a07c-42c4641d725f"},"vehicle_type_id":"4","last_reported":1720206363,"current_range_meters":30800,"station_id":"ce4bgi12rcd13ifvqb70","pricing_plan_id":"cebpf4jnsgd1na2vs0mg"},{"bike_id":"011c57b0-6291-413b-863d-f41a8a1f2063","system_id":"levelo_inurba_marseille","lat":43.29306,"lon":5.37446,"is_reserved":false,"is_disabled":false,"rental_uris":{"android":"levelo://app?vid=011c57b0-6291-413b-863d-f41a8a1f2063","ios":"levelo://app?vid=011c57b0-6291-413b-863d-f41a8a1f2063"},"vehicle_type_id":"4","last_reported":1720206363,"current_range_meters":21600,"station_id":"ce4bgi12rcd13ifvqb70","pricing_plan_id":"cebpf4jnsgd1na2vs0mg"},{"bike_id":"a8dce01e-3354-4f06-b822-ea7269b57d0d","system_id":"levelo_inurba_marseille","lat":43.293047,"lon":5.374429,"is_reserved":false,"is_disabled":false,"rental_uris":{"android":"levelo://app?vid=a8dce01e-3354-4f06-b822-ea7269b57d0d","ios":"levelo://app?vid=a8dce01e-3354-4f06-b822-ea7269b57d0d"},"vehicle_type_id":"4","last_reported":1720206363,"current_range_meters":24800,"station_id":"ce4bgi12rcd13ifvqb70","pricing_plan_id":"cebpf4jnsgd1na2vs0mg"},{"bike_id":"840cadf6-2acd-4d1b-b4c4-61dbc7960065","system_id":"levelo_inurba_marseille","lat":43.302992,"lon":5.392136,"is_reserved":false,"is_disabled":false,"rental_uris":{"android":"levelo://app?vid=840cadf6-2acd-4d1b-b4c4-61dbc7960065","ios":"levelo://app?vid=840cadf6-2acd-4d1b-b4c4-61dbc7960065"},"vehicle_type_id":"4","last_reported":1720206363,"current_range_meters":28400,"station_id":"ce4bgkh2rcd13ifvqbk0","pricing_plan_id":"cebpf4jnsgd1na2vs0mg"},{"bike_id":"d5398ed5-b02c-4b31-af15-36be81607a93","system_id":"levelo_inurba_marseille","lat":43.29303,"lon":5.37439,"is_reserved":false,"is_disabled":false,"rental_uris":{"android":"levelo://app?vid=d5398ed5-b02c-4b31-af15-36be81607a93","ios":"levelo://app?vid=d5398ed5-b02c-4b31-af15-36be81607a93"},"vehicle_type_id":"4","last_reported":1720206363,"current_range_meters":17600,"station_id":"ce4bgi12rcd13ifvqb70","pricing_plan_id":"cebpf4jnsgd1na2vs0mg"},{"bike_id":"844ee522-dc77-4315-bd37-dd4253375bdc","system_id":"levelo_inurba_marseille","lat":43.29302,"lon":5.37448,"is_reserved":false,"is_disabled":false,"rental_uris":{"android":"levelo://app?vid=844ee522-dc77-4315-bd37-dd4253375bdc","ios":"levelo://app?vid=844ee522-dc77-4315-bd37-dd4253375bdc"},"vehicle_type_id":"4","last_reported":1720206363,"current_range_meters":31200,"station_id":"ce4bgi12rcd13ifvqb70","pricing_plan_id":"cebpf4jnsgd1na2vs0mg"},{"bike_id":"82f4e9f4-f856-4d4f-8a4e-875a90499ec2","system_id":"levelo_inurba_marseille","lat":43.29304,"lon":5.37458,"is_reserved":false,"is_disabled":false,"rental_uris":{"android":"levelo://app?vid=82f4e9f4-f856-4d4f-8a4e-875a90499ec2","ios":"levelo://app?vid=82f4e9f4-f856-4d4f-8a4e-875a90499ec2"},"vehicle_type_id":"4","last_reported":1720206363,"current_range_meters":29600,"station_id":"ce4bgi12rcd13ifvqb70","pricing_plan_id":"cebpf4jnsgd1na2vs0mg"},{"bike_id":"234ef65c-a11c-4318-b434-a2c0731916e1","system_id":"levelo_inurba_marseille","lat":43.293041,"lon":5.374586,"is_reserved":false,"is_disabled":false,"rental_uris":{"android":"levelo://app?vid=234ef65c-a11c-4318-b434-a2c0731916e1","ios":"levelo://app?vid=234ef65c-a11c-4318-b434-a2c0731916e1"},"vehicle_type_id":"4","last_reported":1720206363,"current_range_meters":18800,"station_id":"ce4bgi12rcd13ifvqb70","pricing_plan_id":"cebpf4jnsgd1na2vs0mg"},{"bike_id":"2987a8e2-c956-4de9-a80a-f9252ffbb642","system_id":"levelo_inurba_marseille","lat":43.29302,"lon":5.37449,"is_reserved":false,"is_disabled":false,"rental_uris":{"android":"levelo://app?vid=2987a8e2-c956-4de9-a80a-f9252ffbb642","ios":"levelo://app?vid=2987a8e2-c956-4de9-a80a-f9252ffbb642"},"vehicle_type_id":"4","last_reported":1720206363,"current_range_meters":21200,"station_id":"ce4bgi12rcd13ifvqb70","pricing_plan_id":"cebpf4jnsgd1na2vs0mg"},{"bike_id":"83b359b8-63af-4311-97e0-663abb02a9fe","system_id":"levelo_inurba_marseille","lat":43.29302,"lon":5.37456,"is_reserved":false,"is_disabled":false,"rental_uris":{"android":"levelo://app?vid=83b359b8-63af-4311-97e0-663abb02a9fe","ios":"levelo://app?vid=83b359b8-63af-4311-97e0-663abb02a9fe"},"vehicle_type_id":"4","last_reported":1720206363,"current_range_meters":30400,"station_id":"ce4bgi12rcd13ifvqb70","pricing_plan_id":"cebpf4jnsgd1na2vs0mg"},{"bike_id":"b16cdded-813f-419d-a47a-057f08fb4afe","system_id":"levelo_inurba_marseille","lat":43.29301,"lon":5.37454,"is_reserved":false,"is_disabled":false,"rental_uris":{"android":"levelo://app?vid=b16cdded-813f-419d-a47a-057f08fb4afe","ios":"levelo://app?vid=b16cdded-813f-419d-a47a-057f08fb4afe"},"vehicle_type_id":"4","last_reported":1720206363,"current_range_meters":4400,"station_id":"ce4bgi12rcd13ifvqb70","pricing_plan_id":"cebpf4jnsgd1na2vs0mg"},{"bike_id":"28074a81-42e7-4d8c-a6bb-c588b9246841","system_id":"levelo_inurba_marseille","lat":43.29301,"lon":5.37459,"is_reserved":false,"is_disabled":false,"rental_uris":{"android":"levelo://app?vid=28074a81-42e7-4d8c-a6bb-c588b9246841","ios":"levelo://app?vid=28074a81-42e7-4d8c-a6bb-c588b9246841"},"vehicle_type_id":"4","last_reported":1720206363,"current_range_meters":1200,"station_id":"ce4bgi12rcd13ifvqb70","pricing_plan_id":"cebpf4jnsgd1na2vs0mg"},{"bike_id":"4cff4d53-b1fe-4b0e-b961-ab38f695acf2","system_id":"levelo_inurba_marseille","lat":43.29301,"lon":5.3746,"is_reserved":false,"is_disabled":false,"rental_uris":{"android":"levelo://app?vid=4cff4d53-b1fe-4b0e-b961-ab38f695acf2","ios":"levelo://app?vid=4cff4d53-b1fe-4b0e-b961-ab38f695acf2"},"vehicle_type_id":"4","last_reported":1720206363,"current_range_meters":23600,"station_id":"ce4bgi12rcd13ifvqb70","pricing_plan_id":"cebpf4jnsgd1na2vs0mg"},{"bike_id":"d2d8d20b-02ed-44cd-92ba-80551b5d4333","system_id":"levelo_inurba_marseille","lat":43.293,"lon":5.3746,"is_reserved":false,"is_disabled":false,"rental_uris":{"android":"levelo://app?vid=d2d8d20b-02ed-44cd-92ba-80551b5d4333","ios":"levelo://app?vid=d2d8d20b-02ed-44cd-92ba-80551b5d4333"},"vehicle_type_id":"4","last_reported":1720206363,"current_range_meters":3600,"station_id":"ce4bgi12rcd13ifvqb70","pricing_plan_id":"cebpf4jnsgd1na2vs0mg"},{"bike_id":"1987670a-e2ac-40c2-830b-67b32ef6fd91","system_id":"levelo_inurba_marseille","lat":43.29298,"lon":5.374552,"is_reserved":false,"is_disabled":false,"rental_uris":{"android":"levelo://app?vid=1987670a-e2ac-40c2-830b-67b32ef6fd91","ios":"levelo://app?vid=1987670a-e2ac-40c2-830b-67b32ef6fd91"},"vehicle_type_id":"4","last_reported":1720206363,"current_range_meters":18800,"station_id":"ce4bgi12rcd13ifvqb70","pricing_plan_id":"cebpf4jnsgd1na2vs0mg"},{"bike_id":"c5754bf1-e147-439f-b20b-5df9d209ee2b","system_id":"levelo_inurba_marseille","lat":43.305994,"lon":5.393687,"is_reserved":false,"is_disabled":false,"rental_uris":{"android":"levelo://app?vid=c5754bf1-e147-439f-b20b-5df9d209ee2b","ios":"levelo://app?vid=c5754bf1-e147-439f-b20b-5df9d209ee2b"},"vehicle_type_id":"4","last_reported":1720206363,"current_range_meters":13200,"station_id":"ce4bh0p2rcd13ifvqd80","pricing_plan_id":"cebpf4jnsgd1na2vs0mg"},{"bike_id":"fe63a9a1-d091-4572-959d-221144ecd8c5","system_id":"levelo_inurba_marseille","lat":43.29295,"lon":5.37454,"is_reserved":false,"is_disabled":false,"rental_uris":{"android":"levelo://app?vid=fe63a9a1-d091-4572-959d-221144ecd8c5","ios":"levelo://app?vid=fe63a9a1-d091-4572-959d-221144ecd8c5"},"vehicle_type_id":"4","last_reported":1720206363,"current_range_meters":21200,"station_id":"ce4bgi12rcd13ifvqb70","pricing_plan_id":"cebpf4jnsgd1na2vs0mg"},{"bike_id":"f7265022-8eec-4a0c-a310-210c976e1c5d","system_id":"levelo_inurba_marseille","lat":43.29295,"lon":5.37455,"is_reserved":false,"is_disabled":false,"rental_uris":{"android":"levelo://app?vid=f7265022-8eec-4a0c-a310-210c976e1c5d","ios":"levelo://app?vid=f7265022-8eec-4a0c-a310-210c976e1c5d"},"vehicle_type_id":"4","last_reported":1720206363,"current_range_meters":10000,"station_id":"ce4bgi12rcd13ifvqb70","pricing_plan_id":"cebpf4jnsgd1na2vs0mg"},{"bike_id":"f4d629e3-572f-4568-acfd-b40f42a0f9b7","system_id":"levelo_inurba_marseille","lat":43.293009,"lon":5.374584,"is_reserved":false,"is_disabled":false,"rental_uris":{"android":"levelo://app?vid=f4d629e3-572f-4568-acfd-b40f42a0f9b7","ios":"levelo://app?vid=f4d629e3-572f-4568-acfd-b40f42a0f9b7"},"vehicle_type_id":"4","last_reported":1720206363,"current_range_meters":4000,"station_id":"ce4bgi12rcd13ifvqb70","pricing_plan_id":"cebpf4jnsgd1na2vs0mg"},{"bike_id":"4bc26204-4ab0-40b7-a6ac-45d9d7c4f461","system_id":"levelo_inurba_marseille","lat":43.2929,"lon":5.3745,"is_reserved":false,"is_disabled":false,"rental_uris":{"android":"levelo://app?vid=4bc26204-4ab0-40b7-a6ac-45d9d7c4f461","ios":"levelo://app?vid=4bc26204-4ab0-40b7-a6ac-45d9d7c4f461"},"vehicle_type_id":"4","last_reported":1720206363,"current_range_meters":17600,"station_id":"ce4bgi12rcd13ifvqb70","pricing_plan_id":"cebpf4jnsgd1na2vs0mg"},{"bike_id":"a4e6ca7f-c177-4c2d-b887-e0e8ba809394","system_id":"levelo_inurba_marseille","lat":43.302992,"lon":5.392136,"is_reserved":false,"is_disabled":false,"rental_uris":{"android":"levelo://app?vid=a4e6ca7f-c177-4c2d-b887-e0e8ba809394","ios":"levelo://app?vid=a4e6ca7f-c177-4c2d-b887-e0e8ba809394"},"vehicle_type_id":"4","last_reported":1720206363,"current_range_meters":30000,"station_id":"ce4bgkh2rcd13ifvqbk0","pricing_plan_id":"cebpf4jnsgd1na2vs0mg"},{"bike_id":"7a4f8f3c-5a92-4c08-92c7-71fe5b56d4f3","system_id":"levelo_inurba_marseille","lat":43.302992,"lon":5.392136,"is_reserved":false,"is_disabled":false,"rental_uris":{"android":"levelo://app?vid=7a4f8f3c-5a92-4c08-92c7-71fe5b56d4f3","ios":"levelo://app?vid=7a4f8f3c-5a92-4c08-92c7-71fe5b56d4f3"},"vehicle_type_id":"4","last_reported":1720206363,"current_range_meters":13200,"station_id":"ce4bgkh2rcd13ifvqbk0","pricing_plan_id":"cebpf4jnsgd1na2vs0mg"},{"bike_id":"5ee901f8-2e82-4892-81d7-b7a7ecefb7fe","system_id":"levelo_inurba_marseille","lat":43.302992,"lon":5.392136,"is_reserved":false,"is_disabled":false,"rental_uris":{"android":"levelo://app?vid=5ee901f8-2e82-4892-81d7-b7a7ecefb7fe","ios":"levelo://app?vid=5ee901f8-2e82-4892-81d7-b7a7ecefb7fe"},"vehicle_type_id":"4","last_reported":1720206363,"current_range_meters":27600,"station_id":"ce4bgkh2rcd13ifvqbk0","pricing_plan_id":"cebpf4jnsgd1na2vs0mg"},{"bike_id":"4154a587-b11c-41d8-b01a-4f19b15e2594","system_id":"levelo_inurba_marseille","lat":43.30302,"lon":5.392067,"is_reserved":false,"is_disabled":false,"rental_uris":{"android":"levelo://app?vid=4154a587-b11c-41d8-b01a-4f19b15e2594","ios":"levelo://app?vid=4154a587-b11c-41d8-b01a-4f19b15e2594"},"vehicle_type_id":"4","last_reported":1720206363,"current_range_meters":30400,"station_id":"ce4bgkh2rcd13ifvqbk0","pricing_plan_id":"cebpf4jnsgd1na2vs0mg"},{"bike_id":"1ed2755a-8fe7-4fa1-b0ea-c531734af249","system_id":"levelo_inurba_marseille","lat":43.303002,"lon":5.392142,"is_reserved":false,"is_disabled":false,"rental_uris":{"android":"levelo://app?vid=1ed2755a-8fe7-4fa1-b0ea-c531734af249","ios":"levelo://app?vid=1ed2755a-8fe7-4fa1-b0ea-c531734af249"},"vehicle_type_id":"4","last_reported":1720206363,"current_range_meters":6400,"station_id":"ce4bgkh2rcd13ifvqbk0","pricing_plan_id":"cebpf4jnsgd1na2vs0mg"},{"bike_id":"2552fe21-e6ee-43a4-b3dc-596d189cc30e","system_id":"levelo_inurba_marseille","lat":43.302992,"lon":5.392136,"is_reserved":false,"is_disabled":false,"rental_uris":{"android":"levelo://app?vid=2552fe21-e6ee-43a4-b3dc-596d189cc30e","ios":"levelo://app?vid=2552fe21-e6ee-43a4-b3dc-596d189cc30e"},"vehicle_type_id":"4","last_reported":1720206363,"current_range_meters":21600,"station_id":"ce4bgkh2rcd13ifvqbk0","pricing_plan_id":"cebpf4jnsgd1na2vs0mg"},{"bike_id":"168e0b03-20d7-41ee-941d-f15741363771","system_id":"levelo_inurba_marseille","lat":43.303002,"lon":5.392142,"is_reserved":false,"is_disabled":false,"rental_uris":{"android":"levelo://app?vid=168e0b03-20d7-41ee-941d-f15741363771","ios":"levelo://app?vid=168e0b03-20d7-41ee-941d-f15741363771"},"vehicle_type_id":"4","last_reported":1720206363,"current_range_meters":28400,"station_id":"ce4bgkh2rcd13ifvqbk0","pricing_plan_id":"cebpf4jnsgd1na2vs0mg"},{"bike_id":"41a0acc4-f422-4e17-bd06-d7c64b2405a6","system_id":"levelo_inurba_marseille","lat":43.302992,"lon":5.392136,"is_reserved":false,"is_disabled":false,"rental_uris":{"android":"levelo://app?vid=41a0acc4-f422-4e17-bd06-d7c64b2405a6","ios":"levelo://app?vid=41a0acc4-f422-4e17-bd06-d7c64b2405a6"},"vehicle_type_id":"4","last_reported":1720206363,"current_range_meters":31200,"station_id":"ce4bgkh2rcd13ifvqbk0","pricing_plan_id":"cebpf4jnsgd1na2vs0mg"},{"bike_id":"ce490c82-65dc-4d58-942a-a62771b4c9ee","system_id":"levelo_inurba_marseille","lat":43.302992,"lon":5.392136,"is_reserved":false,"is_disabled":false,"rental_uris":{"android":"levelo://app?vid=ce490c82-65dc-4d58-942a-a62771b4c9ee","ios":"levelo://app?vid=ce490c82-65dc-4d58-942a-a62771b4c9ee"},"vehicle_type_id":"4","last_reported":1720206363,"current_range_meters":27600,"station_id":"ce4bgkh2rcd13ifvqbk0","pricing_plan_id":"cebpf4jnsgd1na2vs0mg"},{"bike_id":"9e1d87a2-4b62-4763-8e11-000f09ed3756","system_id":"levelo_inurba_marseille","lat":43.30305,"lon":5.39214,"is_reserved":false,"is_disabled":false,"rental_uris":{"android":"levelo://app?vid=9e1d87a2-4b62-4763-8e11-000f09ed3756","ios":"levelo://app?vid=9e1d87a2-4b62-4763-8e11-000f09ed3756"},"vehicle_type_id":"4","last_reported":1720206363,"current_range_meters":400,"station_id":"ce4bgkh2rcd13ifvqbk0","pricing_plan_id":"cebpf4jnsgd1na2vs0mg"},{"bike_id":"559fef19-2496-4007-a07b-41af7a110b8e","system_id":"levelo_inurba_marseille","lat":43.302992,"lon":5.392136,"is_reserved":false,"is_disabled":false,"rental_uris":{"android":"levelo://app?vid=559fef19-2496-4007-a07b-41af7a110b8e","ios":"levelo://app?vid=559fef19-2496-4007-a07b-41af7a110b8e"},"vehicle_type_id":"4","last_reported":1720206363,"current_range_meters":30000,"station_id":"ce4bgkh2rcd13ifvqbk0","pricing_plan_id":"cebpf4jnsgd1na2vs0mg"},{"bike_id":"edb4ba7a-6886-46f6-b085-f4046a9695b5","system_id":"levelo_inurba_marseille","lat":43.302992,"lon":5.392136,"is_reserved":false,"is_disabled":false,"rental_uris":{"android":"levelo://app?vid=edb4ba7a-6886-46f6-b085-f4046a9695b5","ios":"levelo://app?vid=edb4ba7a-6886-46f6-b085-f4046a9695b5"},"vehicle_type_id":"4","last_reported":1720206363,"current_range_meters":26800,"station_id":"ce4bgkh2rcd13ifvqbk0","pricing_plan_id":"cebpf4jnsgd1na2vs0mg"},{"bike_id":"bc8cf397-cecd-4da5-aa67-38adc1566bda","system_id":"levelo_inurba_marseille","lat":43.292311,"lon":5.360731,"is_reserved":false,"is_disabled":false,"rental_uris":{"android":"levelo://app?vid=bc8cf397-cecd-4da5-aa67-38adc1566bda","ios":"levelo://app?vid=bc8cf397-cecd-4da5-aa67-38adc1566bda"},"vehicle_type_id":"4","last_reported":1720206363,"current_range_meters":16400,"station_id":"ce4bhbh2rcd13ifvqeqg","pricing_plan_id":"cebpf4jnsgd1na2vs0mg"},{"bike_id":"cd61de61-ae8d-4e59-bbd9-b5b076fba42a","system_id":"levelo_inurba_marseille","lat":43.292311,"lon":5.360731,"is_reserved":false,"is_disabled":false,"rental_uris":{"android":"levelo://app?vid=cd61de61-ae8d-4e59-bbd9-b5b076fba42a","ios":"levelo://app?vid=cd61de61-ae8d-4e59-bbd9-b5b076fba42a"},"vehicle_type_id":"4","last_reported":1720206363,"current_range_meters":4000,"station_id":"ce4bhbh2rcd13ifvqeqg","pricing_plan_id":"cebpf4jnsgd1na2vs0mg"},{"bike_id":"36927f65-904a-4eff-b2f8-e69b83250143","system_id":"levelo_inurba_marseille","lat":43.292311,"lon":5.360731,"is_reserved":false,"is_disabled":false,"rental_uris":{"android":"levelo://app?vid=36927f65-904a-4eff-b2f8-e69b83250143","ios":"levelo://app?vid=36927f65-904a-4eff-b2f8-e69b83250143"},"vehicle_type_id":"4","last_reported":1720206363,"current_range_meters":17200,"station_id":"ce4bhbh2rcd13ifvqeqg","pricing_plan_id":"cebpf4jnsgd1na2vs0mg"},{"bike_id":"0149d5e6-ea21-4b18-bf21-bf02e2f5a117","system_id":"levelo_inurba_marseille","lat":43.292311,"lon":5.360731,"is_reserved":false,"is_disabled":false,"rental_uris":{"android":"levelo://app?vid=0149d5e6-ea21-4b18-bf21-bf02e2f5a117","ios":"levelo://app?vid=0149d5e6-ea21-4b18-bf21-bf02e2f5a117"},"vehicle_type_id":"4","last_reported":1720206363,"current_range_meters":15200,"station_id":"ce4bhbh2rcd13ifvqeqg","pricing_plan_id":"cebpf4jnsgd1na2vs0mg"},{"bike_id":"70efc947-70ce-41d3-82aa-7b394ed1deca","system_id":"levelo_inurba_marseille","lat":43.298764,"lon":5.388973,"is_reserved":false,"is_disabled":false,"rental_uris":{"android":"levelo://app?vid=70efc947-70ce-41d3-82aa-7b394ed1deca","ios":"levelo://app?vid=70efc947-70ce-41d3-82aa-7b394ed1deca"},"vehicle_type_id":"4","last_reported":1720206363,"current_range_meters":400,"station_id":"ce4bh392rcd13ifvqdl0","pricing_plan_id":"cebpf4jnsgd1na2vs0mg"},{"bike_id":"25b3cb10-ddbd-4b93-b444-63a3af903902","system_id":"levelo_inurba_marseille","lat":43.291675,"lon":5.371583,"is_reserved":false,"is_disabled":false,"rental_uris":{"android":"levelo://app?vid=25b3cb10-ddbd-4b93-b444-63a3af903902","ios":"levelo://app?vid=25b3cb10-ddbd-4b93-b444-63a3af903902"},"vehicle_type_id":"4","last_reported":1720206363,"current_range_meters":28400,"station_id":"ce4bha92rcd13ifvqeh0","pricing_plan_id":"cebpf4jnsgd1na2vs0mg"},{"bike_id":"7266f364-5c64-4099-8b2d-25fec67c3583","system_id":"levelo_inurba_marseille","lat":43.298764,"lon":5.388973,"is_reserved":false,"is_disabled":false,"rental_uris":{"android":"levelo://app?vid=7266f364-5c64-4099-8b2d-25fec67c3583","ios":"levelo://app?vid=7266f364-5c64-4099-8b2d-25fec67c3583"},"vehicle_type_id":"4","last_reported":1720206363,"current_range_meters":2400,"station_id":"ce4bh392rcd13ifvqdl0","pricing_plan_id":"cebpf4jnsgd1na2vs0mg"},{"bike_id":"6d9d35cf-29ec-4e8b-a08f-93f8ca563ac3","system_id":"levelo_inurba_marseille","lat":43.291675,"lon":5.371583,"is_reserved":false,"is_disabled":false,"rental_uris":{"android":"levelo://app?vid=6d9d35cf-29ec-4e8b-a08f-93f8ca563ac3","ios":"levelo://app?vid=6d9d35cf-29ec-4e8b-a08f-93f8ca563ac3"},"vehicle_type_id":"4","last_reported":1720206363,"current_range_meters":2400,"station_id":"ce4bha92rcd13ifvqeh0","pricing_plan_id":"cebpf4jnsgd1na2vs0mg"},{"bike_id":"e793882f-f1f6-48f5-96eb-3a677b5b8ed1","system_id":"levelo_inurba_marseille","lat":43.291675,"lon":5.371583,"is_reserved":false,"is_disabled":false,"rental_uris":{"android":"levelo://app?vid=e793882f-f1f6-48f5-96eb-3a677b5b8ed1","ios":"levelo://app?vid=e793882f-f1f6-48f5-96eb-3a677b5b8ed1"},"vehicle_type_id":"4","last_reported":1720206363,"current_range_meters":2000,"station_id":"ce4bha92rcd13ifvqeh0","pricing_plan_id":"cebpf4jnsgd1na2vs0mg"},{"bike_id":"d9ec8cca-e199-4757-9178-8165266b5546","system_id":"levelo_inurba_marseille","lat":43.291675,"lon":5.371583,"is_reserved":false,"is_disabled":false,"rental_uris":{"android":"levelo://app?vid=d9ec8cca-e199-4757-9178-8165266b5546","ios":"levelo://app?vid=d9ec8cca-e199-4757-9178-8165266b5546"},"vehicle_type_id":"4","last_reported":1720206363,"current_range_meters":0,"station_id":"ce4bha92rcd13ifvqeh0","pricing_plan_id":"cebpf4jnsgd1na2vs0mg"},{"bike_id":"583bcfd8-d446-4cf3-b9c8-908edeff963b","system_id":"levelo_inurba_marseille","lat":43.291994,"lon":5.357886,"is_reserved":false,"is_disabled":false,"rental_uris":{"android":"levelo://app?vid=583bcfd8-d446-4cf3-b9c8-908edeff963b","ios":"levelo://app?vid=583bcfd8-d446-4cf3-b9c8-908edeff963b"},"vehicle_type_id":"4","last_reported":1720206363,"current_range_meters":0,"station_id":"ce4bhb12rcd13ifvqel0","pricing_plan_id":"cebpf4jnsgd1na2vs0mg"},{"bike_id":"679c0115-5147-4482-ba00-19280f4ec8ea","system_id":"levelo_inurba_marseille","lat":43.292005,"lon":5.357875,"is_reserved":false,"is_disabled":false,"rental_uris":{"android":"levelo://app?vid=679c0115-5147-4482-ba00-19280f4ec8ea","ios":"levelo://app?vid=679c0115-5147-4482-ba00-19280f4ec8ea"},"vehicle_type_id":"4","last_reported":1720206363,"current_range_meters":1600,"station_id":"ce4bhb12rcd13ifvqel0","pricing_plan_id":"cebpf4jnsgd1na2vs0mg"},{"bike_id":"5473e92e-d80b-4c00-ae0e-1deca2a6a247","system_id":"levelo_inurba_marseille","lat":43.29544,"lon":5.3854,"is_reserved":false,"is_disabled":false,"rental_uris":{"android":"levelo://app?vid=5473e92e-d80b-4c00-ae0e-1deca2a6a247","ios":"levelo://app?vid=5473e92e-d80b-4c00-ae0e-1deca2a6a247"},"vehicle_type_id":"4","last_reported":1720206363,"current_range_meters":19600,"station_id":"ce4bgih2rcd13ifvqba0","pricing_plan_id":"cebpf4jnsgd1na2vs0mg"},{"bike_id":"9e1a755e-9ebe-4f75-93ab-82b13464e2e7","system_id":"levelo_inurba_marseille","lat":43.29541,"lon":5.38539,"is_reserved":false,"is_disabled":false,"rental_uris":{"android":"levelo://app?vid=9e1a755e-9ebe-4f75-93ab-82b13464e2e7","ios":"levelo://app?vid=9e1a755e-9ebe-4f75-93ab-82b13464e2e7"},"vehicle_type_id":"4","last_reported":1720206363,"current_range_meters":25200,"station_id":"ce4bgih2rcd13ifvqba0","pricing_plan_id":"cebpf4jnsgd1na2vs0mg"},{"bike_id":"749da511-b1dc-4457-9e34-6ebc826e3567","system_id":"levelo_inurba_marseille","lat":43.29537,"lon":5.38533,"is_reserved":false,"is_disabled":false,"rental_uris":{"android":"levelo://app?vid=749da511-b1dc-4457-9e34-6ebc826e3567","ios":"levelo://app?vid=749da511-b1dc-4457-9e34-6ebc826e3567"},"vehicle_type_id":"4","last_reported":1720206363,"current_range_meters":21600,"station_id":"ce4bgih2rcd13ifvqba0","pricing_plan_id":"cebpf4jnsgd1na2vs0mg"},{"bike_id":"1a95ce8d-56b1-4014-be0c-02ba83489cc6","system_id":"levelo_inurba_marseille","lat":43.2954,"lon":5.38539,"is_reserved":false,"is_disabled":false,"rental_uris":{"android":"levelo://app?vid=1a95ce8d-56b1-4014-be0c-02ba83489cc6","ios":"levelo://app?vid=1a95ce8d-56b1-4014-be0c-02ba83489cc6"},"vehicle_type_id":"4","last_reported":1720206363,"current_range_meters":24000,"station_id":"ce4bgih2rcd13ifvqba0","pricing_plan_id":"cebpf4jnsgd1na2vs0mg"},{"bike_id":"0359699a-a16b-439f-9395-9e1eef64d690","system_id":"levelo_inurba_marseille","lat":43.29538,"lon":5.38539,"is_reserved":false,"is_disabled":false,"rental_uris":{"android":"levelo://app?vid=0359699a-a16b-439f-9395-9e1eef64d690","ios":"levelo://app?vid=0359699a-a16b-439f-9395-9e1eef64d690"},"vehicle_type_id":"4","last_reported":1720206363,"current_range_meters":10400,"station_id":"ce4bgih2rcd13ifvqba0","pricing_plan_id":"cebpf4jnsgd1na2vs0mg"},{"bike_id":"e21be75d-ef0e-4f41-b876-49774e8eaa1c","system_id":"levelo_inurba_marseille","lat":43.29538,"lon":5.3854,"is_reserved":false,"is_disabled":false,"rental_uris":{"android":"levelo://app?vid=e21be75d-ef0e-4f41-b876-49774e8eaa1c","ios":"levelo://app?vid=e21be75d-ef0e-4f41-b876-49774e8eaa1c"},"vehicle_type_id":"4","last_reported":1720206363,"current_range_meters":26000,"station_id":"ce4bgih2rcd13ifvqba0","pricing_plan_id":"cebpf4jnsgd1na2vs0mg"},{"bike_id":"6e70bb37-c8c7-4483-85b6-a124514b4fbe","system_id":"levelo_inurba_marseille","lat":43.29542,"lon":5.38548,"is_reserved":false,"is_disabled":false,"rental_uris":{"android":"levelo://app?vid=6e70bb37-c8c7-4483-85b6-a124514b4fbe","ios":"levelo://app?vid=6e70bb37-c8c7-4483-85b6-a124514b4fbe"},"vehicle_type_id":"4","last_reported":1720206363,"current_range_meters":30800,"station_id":"ce4bgih2rcd13ifvqba0","pricing_plan_id":"cebpf4jnsgd1na2vs0mg"},{"bike_id":"4c4fe3a5-e7df-424d-a71f-10431b430c61","system_id":"levelo_inurba_marseille","lat":43.29536,"lon":5.38538,"is_reserved":false,"is_disabled":false,"rental_uris":{"android":"levelo://app?vid=4c4fe3a5-e7df-424d-a71f-10431b430c61","ios":"levelo://app?vid=4c4fe3a5-e7df-424d-a71f-10431b430c61"},"vehicle_type_id":"4","last_reported":1720206363,"current_range_meters":16000,"station_id":"ce4bgih2rcd13ifvqba0","pricing_plan_id":"cebpf4jnsgd1na2vs0mg"},{"bike_id":"824cba30-5b44-4782-a456-d74bd63aa6d6","system_id":"levelo_inurba_marseille","lat":43.29535,"lon":5.38539,"is_reserved":false,"is_disabled":false,"rental_uris":{"android":"levelo://app?vid=824cba30-5b44-4782-a456-d74bd63aa6d6","ios":"levelo://app?vid=824cba30-5b44-4782-a456-d74bd63aa6d6"},"vehicle_type_id":"4","last_reported":1720206363,"current_range_meters":20000,"station_id":"ce4bgih2rcd13ifvqba0","pricing_plan_id":"cebpf4jnsgd1na2vs0mg"},{"bike_id":"e466ce99-1dd4-4399-9d9b-a08e1bc138e3","system_id":"levelo_inurba_marseille","lat":43.29535,"lon":5.38539,"is_reserved":false,"is_disabled":false,"rental_uris":{"android":"levelo://app?vid=e466ce99-1dd4-4399-9d9b-a08e1bc138e3","ios":"levelo://app?vid=e466ce99-1dd4-4399-9d9b-a08e1bc138e3"},"vehicle_type_id":"4","last_reported":1720206363,"current_range_meters":20000,"station_id":"ce4bgih2rcd13ifvqba0","pricing_plan_id":"cebpf4jnsgd1na2vs0mg"},{"bike_id":"096fb28a-d1ce-4a14-9110-cde162180ff2","system_id":"levelo_inurba_marseille","lat":43.29535,"lon":5.38539,"is_reserved":false,"is_disabled":false,"rental_uris":{"android":"levelo://app?vid=096fb28a-d1ce-4a14-9110-cde162180ff2","ios":"levelo://app?vid=096fb28a-d1ce-4a14-9110-cde162180ff2"},"vehicle_type_id":"4","last_reported":1720206363,"current_range_meters":17200,"station_id":"ce4bgih2rcd13ifvqba0","pricing_plan_id":"cebpf4jnsgd1na2vs0mg"},{"bike_id":"78f2cbbe-913e-4652-a2aa-c2db92127fb1","system_id":"levelo_inurba_marseille","lat":43.29534,"lon":5.3854,"is_reserved":false,"is_disabled":false,"rental_uris":{"android":"levelo://app?vid=78f2cbbe-913e-4652-a2aa-c2db92127fb1","ios":"levelo://app?vid=78f2cbbe-913e-4652-a2aa-c2db92127fb1"},"vehicle_type_id":"4","last_reported":1720206363,"current_range_meters":14800,"station_id":"ce4bgih2rcd13ifvqba0","pricing_plan_id":"cebpf4jnsgd1na2vs0mg"},{"bike_id":"10c7506c-8e7b-4263-b320-5d7176989565","system_id":"levelo_inurba_marseille","lat":43.29533,"lon":5.38539,"is_reserved":false,"is_disabled":false,"rental_uris":{"android":"levelo://app?vid=10c7506c-8e7b-4263-b320-5d7176989565","ios":"levelo://app?vid=10c7506c-8e7b-4263-b320-5d7176989565"},"vehicle_type_id":"4","last_reported":1720206363,"current_range_meters":28400,"station_id":"ce4bgih2rcd13ifvqba0","pricing_plan_id":"cebpf4jnsgd1na2vs0mg"},{"bike_id":"ca1f76b4-692b-49f8-a333-c9caf8f5aa6a","system_id":"levelo_inurba_marseille","lat":43.29531,"lon":5.38536,"is_reserved":false,"is_disabled":false,"rental_uris":{"android":"levelo://app?vid=ca1f76b4-692b-49f8-a333-c9caf8f5aa6a","ios":"levelo://app?vid=ca1f76b4-692b-49f8-a333-c9caf8f5aa6a"},"vehicle_type_id":"4","last_reported":1720206363,"current_range_meters":9600,"station_id":"ce4bgih2rcd13ifvqba0","pricing_plan_id":"cebpf4jnsgd1na2vs0mg"},{"bike_id":"9b951ad9-aa6e-4991-8097-5ea345619bd3","system_id":"levelo_inurba_marseille","lat":43.29534,"lon":5.38545,"is_reserved":false,"is_disabled":false,"rental_uris":{"android":"levelo://app?vid=9b951ad9-aa6e-4991-8097-5ea345619bd3","ios":"levelo://app?vid=9b951ad9-aa6e-4991-8097-5ea345619bd3"},"vehicle_type_id":"4","last_reported":1720206363,"current_range_meters":28800,"station_id":"ce4bgih2rcd13ifvqba0","pricing_plan_id":"cebpf4jnsgd1na2vs0mg"},{"bike_id":"e6d74a8f-ad0d-43c1-9b4f-fa0e0c11d8c8","system_id":"levelo_inurba_marseille","lat":43.29534,"lon":5.38546,"is_reserved":false,"is_disabled":false,"rental_uris":{"android":"levelo://app?vid=e6d74a8f-ad0d-43c1-9b4f-fa0e0c11d8c8","ios":"levelo://app?vid=e6d74a8f-ad0d-43c1-9b4f-fa0e0c11d8c8"},"vehicle_type_id":"4","last_reported":1720206363,"current_range_meters":24000,"station_id":"ce4bgih2rcd13ifvqba0","pricing_plan_id":"cebpf4jnsgd1na2vs0mg"},{"bike_id":"ba84056b-7b1c-4842-a6ad-b5707cad3061","system_id":"levelo_inurba_marseille","lat":43.29533,"lon":5.38545,"is_reserved":false,"is_disabled":false,"rental_uris":{"android":"levelo://app?vid=ba84056b-7b1c-4842-a6ad-b5707cad3061","ios":"levelo://app?vid=ba84056b-7b1c-4842-a6ad-b5707cad3061"},"vehicle_type_id":"4","last_reported":1720206363,"current_range_meters":26800,"station_id":"ce4bgih2rcd13ifvqba0","pricing_plan_id":"cebpf4jnsgd1na2vs0mg"},{"bike_id":"e129e00d-2165-4956-bebf-0494c4c47ebc","system_id":"levelo_inurba_marseille","lat":43.29532,"lon":5.38545,"is_reserved":false,"is_disabled":false,"rental_uris":{"android":"levelo://app?vid=e129e00d-2165-4956-bebf-0494c4c47ebc","ios":"levelo://app?vid=e129e00d-2165-4956-bebf-0494c4c47ebc"},"vehicle_type_id":"4","last_reported":1720206363,"current_range_meters":20000,"station_id":"ce4bgih2rcd13ifvqba0","pricing_plan_id":"cebpf4jnsgd1na2vs0mg"},{"bike_id":"8e18d821-b283-4473-8451-68dfb696959c","system_id":"levelo_inurba_marseille","lat":43.29529,"lon":5.385403,"is_reserved":false,"is_disabled":false,"rental_uris":{"android":"levelo://app?vid=8e18d821-b283-4473-8451-68dfb696959c","ios":"levelo://app?vid=8e18d821-b283-4473-8451-68dfb696959c"},"vehicle_type_id":"4","last_reported":1720206363,"current_range_meters":2400,"station_id":"ce4bgih2rcd13ifvqba0","pricing_plan_id":"cebpf4jnsgd1na2vs0mg"},{"bike_id":"a23c705d-11e9-4bb9-a1d9-82b1189750d4","system_id":"levelo_inurba_marseille","lat":43.2953,"lon":5.38542,"is_reserved":false,"is_disabled":false,"rental_uris":{"android":"levelo://app?vid=a23c705d-11e9-4bb9-a1d9-82b1189750d4","ios":"levelo://app?vid=a23c705d-11e9-4bb9-a1d9-82b1189750d4"},"vehicle_type_id":"4","last_reported":1720206363,"current_range_meters":9200,"station_id":"ce4bgih2rcd13ifvqba0","pricing_plan_id":"cebpf4jnsgd1na2vs0mg"},{"bike_id":"67133372-01f9-4e07-8803-368687e28662","system_id":"levelo_inurba_marseille","lat":43.29525,"lon":5.38534,"is_reserved":false,"is_disabled":false,"rental_uris":{"android":"levelo://app?vid=67133372-01f9-4e07-8803-368687e28662","ios":"levelo://app?vid=67133372-01f9-4e07-8803-368687e28662"},"vehicle_type_id":"4","last_reported":1720206363,"current_range_meters":28000,"station_id":"ce4bgih2rcd13ifvqba0","pricing_plan_id":"cebpf4jnsgd1na2vs0mg"},{"bike_id":"3278c636-886a-4eea-b273-293ef0795848","system_id":"levelo_inurba_marseille","lat":43.2953,"lon":5.38543,"is_reserved":false,"is_disabled":false,"rental_uris":{"android":"levelo://app?vid=3278c636-886a-4eea-b273-293ef0795848","ios":"levelo://app?vid=3278c636-886a-4eea-b273-293ef0795848"},"vehicle_type_id":"4","last_reported":1720206363,"current_range_meters":14800,"station_id":"ce4bgih2rcd13ifvqba0","pricing_plan_id":"cebpf4jnsgd1na2vs0mg"},{"bike_id":"0c5327a6-306a-4525-b2c6-f18328802607","system_id":"levelo_inurba_marseille","lat":43.29529,"lon":5.38542,"is_reserved":false,"is_disabled":false,"rental_uris":{"android":"levelo://app?vid=0c5327a6-306a-4525-b2c6-f18328802607","ios":"levelo://app?vid=0c5327a6-306a-4525-b2c6-f18328802607"},"vehicle_type_id":"4","last_reported":1720206363,"current_range_meters":12400,"station_id":"ce4bgih2rcd13ifvqba0","pricing_plan_id":"cebpf4jnsgd1na2vs0mg"},{"bike_id":"f88361e6-fe46-48a4-a677-f82589ed5e6d","system_id":"levelo_inurba_marseille","lat":43.29533,"lon":5.3855,"is_reserved":false,"is_disabled":false,"rental_uris":{"android":"levelo://app?vid=f88361e6-fe46-48a4-a677-f82589ed5e6d","ios":"levelo://app?vid=f88361e6-fe46-48a4-a677-f82589ed5e6d"},"vehicle_type_id":"4","last_reported":1720206363,"current_range_meters":5600,"station_id":"ce4bgih2rcd13ifvqba0","pricing_plan_id":"cebpf4jnsgd1na2vs0mg"},{"bike_id":"35bbef17-dc00-4547-809b-11df97fea8ae","system_id":"levelo_inurba_marseille","lat":43.2953,"lon":5.38545,"is_reserved":false,"is_disabled":false,"rental_uris":{"android":"levelo://app?vid=35bbef17-dc00-4547-809b-11df97fea8ae","ios":"levelo://app?vid=35bbef17-dc00-4547-809b-11df97fea8ae"},"vehicle_type_id":"4","last_reported":1720206363,"current_range_meters":22800,"station_id":"ce4bgih2rcd13ifvqba0","pricing_plan_id":"cebpf4jnsgd1na2vs0mg"},{"bike_id":"4121d60a-dd59-487f-907a-532d536ce989","system_id":"levelo_inurba_marseille","lat":43.29526,"lon":5.38541,"is_reserved":false,"is_disabled":false,"rental_uris":{"android":"levelo://app?vid=4121d60a-dd59-487f-907a-532d536ce989","ios":"levelo://app?vid=4121d60a-dd59-487f-907a-532d536ce989"},"vehicle_type_id":"4","last_reported":1720206363,"current_range_meters":16000,"station_id":"ce4bgih2rcd13ifvqba0","pricing_plan_id":"cebpf4jnsgd1na2vs0mg"},{"bike_id":"40adb457-8b0e-4b36-a86c-1b54bddba7f2","system_id":"levelo_inurba_marseille","lat":43.29529,"lon":5.38553,"is_reserved":false,"is_disabled":false,"rental_uris":{"android":"levelo://app?vid=40adb457-8b0e-4b36-a86c-1b54bddba7f2","ios":"levelo://app?vid=40adb457-8b0e-4b36-a86c-1b54bddba7f2"},"vehicle_type_id":"4","last_reported":1720206363,"current_range_meters":10400,"station_id":"ce4bgih2rcd13ifvqba0","pricing_plan_id":"cebpf4jnsgd1na2vs0mg"},{"bike_id":"77a2da19-3b6a-44f7-b57f-f79cc55dcee5","system_id":"levelo_inurba_marseille","lat":43.290779,"lon":5.371482,"is_reserved":false,"is_disabled":false,"rental_uris":{"android":"levelo://app?vid=77a2da19-3b6a-44f7-b57f-f79cc55dcee5","ios":"levelo://app?vid=77a2da19-3b6a-44f7-b57f-f79cc55dcee5"},"vehicle_type_id":"4","last_reported":1720206363,"current_range_meters":0,"station_id":"ce4bh5p2rcd13ifvqe4g","pricing_plan_id":"cebpf4jnsgd1na2vs0mg"},{"bike_id":"f383a6ce-6391-4b01-88cb-2acde6d8f4a5","system_id":"levelo_inurba_marseille","lat":43.290779,"lon":5.371482,"is_reserved":false,"is_disabled":false,"rental_uris":{"android":"levelo://app?vid=f383a6ce-6391-4b01-88cb-2acde6d8f4a5","ios":"levelo://app?vid=f383a6ce-6391-4b01-88cb-2acde6d8f4a5"},"vehicle_type_id":"4","last_reported":1720206363,"current_range_meters":3600,"station_id":"ce4bh5p2rcd13ifvqe4g","pricing_plan_id":"cebpf4jnsgd1na2vs0mg"},