{"last_updated":1740694099,"ttl":60,"version":"2.2","data":{"bikes":[{"bike_id":"99c01fc3-ba4a-4568-a4b0-8eb17b27c8cf","system_id":"levelo_inurba_marseille","lat":43.31467,"lon":5.37378,"is_reserved":false,"is_disabled":false,"rental_uris":{"android":"levelo://app?vid=99c01fc3-ba4a-4568-a4b0-8eb17b27c8cf","ios":"levelo://app?vid=99c01fc3-ba4a-4568-a4b0-8eb17b27c8cf"},"vehicle_type_id":"4","last_reported":1740694099,"current_range_meters":2800,"station_id":"","pricing_plan_id":"cebpf4jnsgd1na2vs0mg"},{"bike_id":"d99cc76d-ee9a-4af8-8b1f-a4b0e5ddc7d4","system_id":"levelo_inurba_marseille","lat":43.31359,"lon":5.3852,"is_reserved":false,"is_disabled":false,"rental_uris":{"android":"levelo://app?vid=d99cc76d-ee9a-4af8-8b1f-a4b0e5ddc7d4","ios":"levelo://app?vid=d99cc76d-ee9a-4af8-8b1f-a4b0e5ddc7d4"},"vehicle_type_id":"4","last_reported":1740694099,"current_range_meters":4400,"station_id":"ce4bgt92rcd13ifvqcf0","pricing_plan_id":"cebpf4jnsgd1na2vs0mg"},{"bike_id":"543b73ba-e1c0-454d-b9ce-0fa31ee9f441","system_id":"levelo_inurba_marseille","lat":43.25109,"lon":5.40319,"is_reserved":false,"is_disabled":false,"rental_uris":{"android":"levelo://app?vid=543b73ba-e1c0-454d-b9ce-0fa31ee9f441","ios":"levelo://app?vid=543b73ba-e1c0-454d-b9ce-0fa31ee9f441"},"vehicle_type_id":"4","last_reported":1740694099,"current_range_meters":2800,"station_id":"ce4bhlh2rcd13ifvqgig","pricing_plan_id":"cebpf4jnsgd1na2vs0mg"},{"bike_id":"a821e09e-1a6f-447a-878e-7332384bcc14","system_id":"levelo_inurba_marseille","lat":43.31716,"lon":5.42508,"is_reserved":false,"is_disabled":false,"rental_uris":{"android":"levelo://app?vid=a821e09e-1a6f-447a-878e-7332384bcc14","ios":"levelo://app?vid=a821e09e-1a6f-447a-878e-7332384bcc14"},"vehicle_type_id":"4","last_reported":1740694099,"current_range_meters":2800,"station_id":"ce4bhp92rcd13ifvqhbg","pricing_plan_id":"cebpf4jnsgd1na2vs0mg"},{"bike_id":"c0f4655a-9119-4abf-9f3e-fa0bacae89cb","system_id":"levelo_inurba_marseille","lat":43.28169,"lon":5.42407,"is_reserved":false,"is_disabled":true,"rental_uris":{"android":"levelo://app?vid=c0f4655a-9119-4abf-9f3e-fa0bacae89cb","ios":"levelo://app?vid=c0f4655a-9119-4abf-9f3e-fa0bacae89cb"},"vehicle_type_id":"4","last_reported":1740694099,"current_range_meters":3600,"station_id":"","pricing_plan_id":"cebpf4jnsgd1na2vs0mg"},{"bike_id":"046f11db-2301-46e5-8eae-17725ac9f9a3","system_id":"levelo_inurba_marseille","lat":43.29578,"lon":5.37524,"is_reserved":false,"is_disabled":false,"rental_uris":{"android":"levelo://app?vid=046f11db-2301-46e5-8eae-17725ac9f9a3","ios":"levelo://app?vid=046f11db-2301-46e5-8eae-17725ac9f9a3"},"vehicle_type_id":"4","last_reported":1740694099,"current_range_meters":3600,"station_id":"ce4bgh92rcd13ifvqb50","pricing_plan_id":"cebpf4jnsgd1na2vs0mg"},{"bike_id":"f98a804c-537c-41bb-9782-3da5bcf6e43a","system_id":"levelo_inurba_marseille","lat":43.27918,"lon":5.41038,"is_reserved":false,"is_disabled":false,"rental_uris":{"android":"levelo://app?vid=f98a804c-537c-41bb-9782-3da5bcf6e43a","ios":"levelo://app?vid=f98a804c-537c-41bb-9782-3da5bcf6e43a"},"vehicle_type_id":"4","last_reported":1740694099,"current_range_meters":4000,"station_id":"ce4bhnp2rcd13ifvqh0g","pricing_plan_id":"cebpf4jnsgd1na2vs0mg"},{"bike_id":"42105706-1b1f-402d-a794-29c0b5bb7335","system_id":"levelo_inurba_marseille","lat":43.30789,"lon":5.3764,"is_reserved":false,"is_disabled":false,"rental_uris":{"android":"levelo://app?vid=42105706-1b1f-402d-a794-29c0b5bb7335","ios":"levelo://app?vid=42105706-1b1f-402d-a794-29c0b5bb7335"},"vehicle_type_id":"4","last_reported":1740694099,"current_range_meters":3600,"station_id":"ce4bgv92rcd13ifvqcq0","pricing_plan_id":"cebpf4jnsgd1na2vs0mg"},{"bike_id":"8e61db38-56a9-4d5e-b4fc-cbdfd21f60bb","system_id":"levelo_inurba_marseille","lat":43.3203,"lon":5.4095,"is_reserved":false,"is_disabled":false,"rental_uris":{"android":"levelo://app?vid=8e61db38-56a9-4d5e-b4fc-cbdfd21f60bb","ios":"levelo://app?vid=8e61db38-56a9-4d5e-b4fc-cbdfd21f60bb"},"vehicle_type_id":"4","last_reported":1740694099,"current_range_meters":0,"station_id":"","pricing_plan_id":"cebpf4jnsgd1na2vs0mg"},{"bike_id":"ff4ccc48-a1a0-4c7a-b72d-6a6c4bcc2ea4","system_id":"levelo_inurba_marseille","lat":43.2755,"lon":5.38434,"is_reserved":false,"is_disabled":false,"rental_uris":{"android":"levelo://app?vid=ff4ccc48-a1a0-4c7a-b72d-6a6c4bcc2ea4","ios":"levelo://app?vid=ff4ccc48-a1a0-4c7a-b72d-6a6c4bcc2ea4"},"vehicle_type_id":"4","last_reported":1740694099,"current_range_meters":4000,"station_id":"ce4bhh92rcd13ifvqfi0","pricing_plan_id":"cebpf4jnsgd1na2vs0mg"},{"bike_id":"4ce26a99-af03-483d-b48c-23c47fea208e","system_id":"levelo_inurba_marseille","lat":43.28855,"lon":5.35855,"is_reserved":false,"is_disabled":false,"rental_uris":{"android":"levelo://app?vid=4ce26a99-af03-483d-b48c-23c47fea208e","ios":"levelo://app?vid=4ce26a99-af03-483d-b48c-23c47fea208e"},"vehicle_type_id":"4","last_reported":1740694099,"current_range_meters":4400,"station_id":"ce4bhb12rcd13ifvqem0","pricing_plan_id":"cebpf4jnsgd1na2vs0mg"},{"bike_id":"0cb11e86-cfab-45a8-8b58-db0ea4d88767","system_id":"levelo_inurba_marseille","lat":43.23177,"lon":5.39988,"is_reserved":false,"is_disabled":false,"rental_uris":{"android":"levelo://app?vid=0cb11e86-cfab-45a8-8b58-db0ea4d88767","ios":"levelo://app?vid=0cb11e86-cfab-45a8-8b58-db0ea4d88767"},"vehicle_type_id":"4","last_reported":1740694099,"current_range_meters":4400,"station_id":"ce4bhn12rcd13ifvqgqg","pricing_plan_id":"cebpf4jnsgd1na2vs0mg"},{"bike_id":"a87465bf-35b1-4756-bf5a-52f6157bd7af","system_id":"levelo_inurba_marseille","lat":43.29298,"lon":5.37467,"is_reserved":false,"is_disabled":false,"rental_uris":{"android":"levelo://app?vid=a87465bf-35b1-4756-bf5a-52f6157bd7af","ios":"levelo://app?vid=a87465bf-35b1-4756-bf5a-52f6157bd7af"},"vehicle_type_id":"4","last_reported":1740694099,"current_range_meters":4000,"station_id":"ce4bgi12rcd13ifvqb70","pricing_plan_id":"cebpf4jnsgd1na2vs0mg"},{"bike_id":"abe6fa42-ff3d-4710-8f2d-55fed2cf2315","system_id":"levelo_inurba_marseille","lat":43.31683,"lon":5.40472,"is_reserved":false,"is_disabled":false,"rental_uris":{"android":"levelo://app?vid=abe6fa42-ff3d-4710-8f2d-55fed2cf2315","ios":"levelo://app?vid=abe6fa42-ff3d-4710-8f2d-55fed2cf2315"},"vehicle_type_id":"4","last_reported":1740694099,"current_range_meters":4400,"station_id":"ce4bh012rcd13ifvqd00","pricing_plan_id":"cebpf4jnsgd1na2vs0mg"},{"bike_id":"df3becdc-efe5-428b-ad3b-9a5b04af2ecf","system_id":"levelo_inurba_marseille","lat":43.28031,"lon":5.36949,"is_reserved":false,"is_disabled":false,"rental_uris":{"android":"levelo://app?vid=df3becdc-efe5-428b-ad3b-9a5b04af2ecf","ios":"levelo://app?vid=df3becdc-efe5-428b-ad3b-9a5b04af2ecf"},"vehicle_type_id":"4","last_reported":1740694099,"current_range_meters":4400,"station_id":"ce4bha12rcd13ifvqef0","pricing_plan_id":"cebpf4jnsgd1na2vs0mg"},{"bike_id":"ae23d63f-1813-4ce3-9f00-de91edb6a690","system_id":"levelo_inurba_marseille","lat":43.29189,"lon":5.36043,"is_reserved":false,"is_disabled":false,"rental_uris":{"android":"levelo://app?vid=ae23d63f-1813-4ce3-9f00-de91edb6a690","ios":"levelo://app?vid=ae23d63f-1813-4ce3-9f00-de91edb6a690"},"vehicle_type_id":"4","last_reported":1740694099,"current_range_meters":4800,"station_id":"ce4bhbh2rcd13ifvqeqg","pricing_plan_id":"cebpf4jnsgd1na2vs0mg"},{"bike_id":"7560142c-45ea-4aa6-bd5b-a0c4eb95844b","system_id":"levelo_inurba_marseille","lat":43.270547,"lon":5.40267,"is_reserved":false,"is_disabled":true,"rental_uris":{"android":"levelo://app?vid=7560142c-45ea-4aa6-bd5b-a0c4eb95844b","ios":"levelo://app?vid=7560142c-45ea-4aa6-bd5b-a0c4eb95844b"},"vehicle_type_id":"4","last_reported":1740694099,"current_range_meters":6000,"station_id":"ce4bhk92rcd13ifvqgc0","pricing_plan_id":"cebpf4jnsgd1na2vs0mg"},{"bike_id":"2dee8a93-9126-4ae1-8825-49c8bd676530","system_id":"levelo_inurba_marseille","lat":43.23964,"lon":5.36628,"is_reserved":false,"is_disabled":false,"rental_uris":{"android":"levelo://app?vid=2dee8a93-9126-4ae1-8825-49c8bd676530","ios":"levelo://app?vid=2dee8a93-9126-4ae1-8825-49c8bd676530"},"vehicle_type_id":"4","last_reported":1740694099,"current_range_meters":6400,"station_id":"ce4bhi12rcd13ifvqfp0","pricing_plan_id":"cebpf4jnsgd1na2vs0mg"},{"bike_id":"6df9390a-5e58-4956-be28-22b5b6734565","system_id":"levelo_inurba_marseille","lat":43.25097,"lon":5.39513,"is_reserved":false,"is_disabled":false,"rental_uris":{"android":"levelo://app?vid=6df9390a-5e58-4956-be28-22b5b6734565","ios":"levelo://app?vid=6df9390a-5e58-4956-be28-22b5b6734565"},"vehicle_type_id":"4","last_reported":1740694099,"current_range_meters":6400,"station_id":"ce4bhm12rcd13ifvqgkg","pricing_plan_id":"cebpf4jnsgd1na2vs0mg"},{"bike_id":"efcdfe96-8261-42a6-9b17-32376c0bcb93","system_id":"levelo_inurba_marseille","lat":43.23185,"lon":5.40023,"is_reserved":false,"is_disabled":false,"rental_uris":{"android":"levelo://app?vid=efcdfe96-8261-42a6-9b17-32376c0bcb93","ios":"levelo://app?vid=efcdfe96-8261-42a6-9b17-32376c0bcb93"},"vehicle_type_id":"4","last_reported":1740694099,"current_range_meters":6400,"station_id":"ce4bhn12rcd13ifvqgqg","pricing_plan_id":"cebpf4jnsgd1na2vs0mg"},{"bike_id":"9a84ba8d-6006-4d8f-b6f9-44b7d71c42c6","system_id":"levelo_inurba_marseille","lat":43.28691,"lon":5.37404,"is_reserved":false,"is_disabled":true,"rental_uris":{"android":"levelo://app?vid=9a84ba8d-6006-4d8f-b6f9-44b7d71c42c6","ios":"levelo://app?vid=9a84ba8d-6006-4d8f-b6f9-44b7d71c42c6"},"vehicle_type_id":"4","last_reported":1740694099,"current_range_meters":6800,"station_id":"ce4bh3p2rcd13ifvqdq0","pricing_plan_id":"cebpf4jnsgd1na2vs0mg"},{"bike_id":"3aed6401-30fa-417b-b1f4-fed91c185d13","system_id":"levelo_inurba_marseille","lat":43.27941,"lon":5.41046,"is_reserved":false,"is_disabled":false,"rental_uris":{"android":"levelo://app?vid=3aed6401-30fa-417b-b1f4-fed91c185d13","ios":"levelo://app?vid=3aed6401-30fa-417b-b1f4-fed91c185d13"},"vehicle_type_id":"4","last_reported":1740694099,"current_range_meters":6400,"station_id":"ce4bhnp2rcd13ifvqh0g","pricing_plan_id":"cebpf4jnsgd1na2vs0mg"},{"bike_id":"782a50e7-bd4f-4f7f-a998-67eefbc58ab0","system_id":"levelo_inurba_marseille","lat":43.29867,"lon":5.3973,"is_reserved":false,"is_disabled":false,"rental_uris":{"android":"levelo://app?vid=782a50e7-bd4f-4f7f-a998-67eefbc58ab0","ios":"levelo://app?vid=782a50e7-bd4f-4f7f-a998-67eefbc58ab0"},"vehicle_type_id":"4","last_reported":1740694099,"current_range_meters":6800,"station_id":"ce4bh0h2rcd13ifvqd50","pricing_plan_id":"cebpf4jnsgd1na2vs0mg"},{"bike_id":"21dee236-81fd-4d4e-8f79-66ef06e4d991","system_id":"levelo_inurba_marseille","lat":43.30583,"lon":5.39359,"is_reserved":false,"is_disabled":false,"rental_uris":{"android":"levelo://app?vid=21dee236-81fd-4d4e-8f79-66ef06e4d991","ios":"levelo://app?vid=21dee236-81fd-4d4e-8f79-66ef06e4d991"},"vehicle_type_id":"4","last_reported":1740694099,"current_range_meters":8000,"station_id":"ce4bh0p2rcd13ifvqd80","pricing_plan_id":"cebpf4jnsgd1na2vs0mg"},{"bike_id":"1617b8e8-97ea-412a-8cce-6e995751ad2d","system_id":"levelo_inurba_marseille","lat":43.26048,"lon":5.39388,"is_reserved":false,"is_disabled":false,"rental_uris":{"android":"levelo://app?vid=1617b8e8-97ea-412a-8cce-6e995751ad2d","ios":"levelo://app?vid=1617b8e8-97ea-412a-8cce-6e995751ad2d"},"vehicle_type_id":"4","last_reported":1740694099,"current_range_meters":7200,"station_id":"ce4bhh92rcd13ifvqfj0","pricing_plan_id":"cebpf4jnsgd1na2vs0mg"},{"bike_id":"ea1ae099-0cdb-45d1-bb30-a324d3bc542a","system_id":"levelo_inurba_marseille","lat":43.3236,"lon":5.3676,"is_reserved":false,"is_disabled":false,"rental_uris":{"android":"levelo://app?vid=ea1ae099-0cdb-45d1-bb30-a324d3bc542a","ios":"levelo://app?vid=ea1ae099-0cdb-45d1-bb30-a324d3bc542a"},"vehicle_type_id":"4","last_reported":1740694099,"current_range_meters":8000,"station_id":"ce4bhsh2rcd13ifvqi2g","pricing_plan_id":"cebpf4jnsgd1na2vs0mg"},{"bike_id":"f10f9796-7541-497b-b6e6-805f6c2689ac","system_id":"levelo_inurba_marseille","lat":43.24659,"lon":5.3816,"is_reserved":false,"is_disabled":false,"rental_uris":{"android":"levelo://app?vid=f10f9796-7541-497b-b6e6-805f6c2689ac","ios":"levelo://app?vid=f10f9796-7541-497b-b6e6-805f6c2689ac"},"vehicle_type_id":"4","last_reported":1740694099,"current_range_meters":7200,"station_id":"ce4bhih2rcd13ifvqfr0","pricing_plan_id":"cebpf4jnsgd1na2vs0mg"},{"bike_id":"8b12f042-66ff-4f72-8110-b87f1cf65c0b","system_id":"levelo_inurba_marseille","lat":43.33424,"lon":5.40033,"is_reserved":false,"is_disabled":false,"rental_uris":{"android":"levelo://app?vid=8b12f042-66ff-4f72-8110-b87f1cf65c0b","ios":"levelo://app?vid=8b12f042-66ff-4f72-8110-b87f1cf65c0b"},"vehicle_type_id":"4","last_reported":1740694099,"current_range_meters":7200,"station_id":"","pricing_plan_id":"cebpf4jnsgd1na2vs0mg"},{"bike_id":"e3adc843-e96a-459a-aa22-fea1af7ce873","system_id":"levelo_inurba_marseille","lat":43.279468,"lon":5.410472,"is_reserved":false,"is_disabled":false,"rental_uris":{"android":"levelo://app?vid=e3adc843-e96a-459a-aa22-fea1af7ce873","ios":"levelo://app?vid=e3adc843-e96a-459a-aa22-fea1af7ce873"},"vehicle_type_id":"4","last_reported":1740694099,"current_range_meters":7200,"station_id":"ce4bhnp2rcd13ifvqh0g","pricing_plan_id":"cebpf4jnsgd1na2vs0mg"},{"bike_id":"4965388a-e966-4233-91de-e9d1121afc2d","system_id":"levelo_inurba_marseille","lat":43.28718,"lon":5.36089,"is_reserved":false,"is_disabled":false,"rental_uris":{"android":"levelo://app?vid=4965388a-e966-4233-91de-e9d1121afc2d","ios":"levelo://app?vid=4965388a-e966-4233-91de-e9d1121afc2d"},"vehicle_type_id":"4","last_reported":1740694099,"current_range_meters":5600,"station_id":"cki0cbj6b192h4jlfktg","pricing_plan_id":"cebpf4jnsgd1na2vs0mg"},{"bike_id":"e0036d1f-51ac-4c4a-ba4e-96d412b945c0","system_id":"levelo_inurba_marseille","lat":43.28038,"lon":5.36938,"is_reserved":false,"is_disabled":false,"rental_uris":{"android":"levelo://app?vid=e0036d1f-51ac-4c4a-ba4e-96d412b945c0","ios":"levelo://app?vid=e0036d1f-51ac-4c4a-ba4e-96d412b945c0"},"vehicle_type_id":"4","last_reported":1740694099,"current_range_meters":7200,"station_id":"","pricing_plan_id":"cebpf4jnsgd1na2vs0mg"},{"bike_id":"8dc35b1c-a9eb-4bac-8f95-b01bae8ea8df","system_id":"levelo_inurba_marseille","lat":43.30808,"lon":5.4353,"is_reserved":false,"is_disabled":false,"rental_uris":{"android":"levelo://app?vid=8dc35b1c-a9eb-4bac-8f95-b01bae8ea8df","ios":"levelo://app?vid=8dc35b1c-a9eb-4bac-8f95-b01bae8ea8df"},"vehicle_type_id":"4","last_reported":1740694099,"current_range_meters":7200,"station_id":"ce4bhph2rcd13ifvqheg","pricing_plan_id":"cebpf4jnsgd1na2vs0mg"},{"bike_id":"156d43f7-93cf-4af6-9cfe-5571ff46365a","system_id":"levelo_inurba_marseille","lat":43.30771,"lon":5.42832,"is_reserved":false,"is_disabled":false,"rental_uris":{"android":"levelo://app?vid=156d43f7-93cf-4af6-9cfe-5571ff46365a","ios":"levelo://app?vid=156d43f7-93cf-4af6-9cfe-5571ff46365a"},"vehicle_type_id":"4","last_reported":1740694099,"current_range_meters":8000,"station_id":"","pricing_plan_id":"cebpf4jnsgd1na2vs0mg"},{"bike_id":"cca9eb23-5c2c-40fe-9866-9db09bf838b1","system_id":"levelo_inurba_marseille","lat":43.2923,"lon":5.36069,"is_reserved":false,"is_disabled":false,"rental_uris":{"android":"levelo://app?vid=cca9eb23-5c2c-40fe-9866-9db09bf838b1","ios":"levelo://app?vid=cca9eb23-5c2c-40fe-9866-9db09bf838b1"},"vehicle_type_id":"4","last_reported":1740694099,"current_range_meters":8000,"station_id":"ce4bhbh2rcd13ifvqeqg","pricing_plan_id":"cebpf4jnsgd1na2vs0mg"},{"bike_id":"8c9a3ee7-664d-49c8-a3ea-02dab608b060","system_id":"levelo_inurba_marseille","lat":43.31718,"lon":5.37777,"is_reserved":false,"is_disabled":false,"rental_uris":{"android":"levelo://app?vid=8c9a3ee7-664d-49c8-a3ea-02dab608b060","ios":"levelo://app?vid=8c9a3ee7-664d-49c8-a3ea-02dab608b060"},"vehicle_type_id":"4","last_reported":1740694099,"current_range_meters":8400,"station_id":"ce4bgth2rcd13ifvqch0","pricing_plan_id":"cebpf4jnsgd1na2vs0mg"},{"bike_id":"39369c67-b6b1-4351-9f37-e16f04ac94c9","system_id":"levelo_inurba_marseille","lat":43.23182,"lon":5.3558,"is_reserved":false,"is_disabled":false,"rental_uris":{"android":"levelo://app?vid=39369c67-b6b1-4351-9f37-e16f04ac94c9","ios":"levelo://app?vid=39369c67-b6b1-4351-9f37-e16f04ac94c9"},"vehicle_type_id":"4","last_reported":1740694099,"current_range_meters":8000,"station_id":"ce4bhu92rcd13ifvqi70","pricing_plan_id":"cebpf4jnsgd1na2vs0mg"},{"bike_id":"d791a742-4738-47cb-9fe6-27aeeea41532","system_id":"levelo_inurba_marseille","lat":43.30606,"lon":5.40068,"is_reserved":false,"is_disabled":false,"rental_uris":{"android":"levelo://app?vid=d791a742-4738-47cb-9fe6-27aeeea41532","ios":"levelo://app?vid=d791a742-4738-47cb-9fe6-27aeeea41532"},"vehicle_type_id":"4","last_reported":1740694099,"current_range_meters":8000,"station_id":"ce4bh112rcd13ifvqda0","pricing_plan_id":"cebpf4jnsgd1na2vs0mg"},{"bike_id":"ea8cb564-d405-42e3-911c-0afdd772ee76","system_id":"levelo_inurba_marseille","lat":43.32771,"lon":5.39214,"is_reserved":false,"is_disabled":false,"rental_uris":{"android":"levelo://app?vid=ea8cb564-d405-42e3-911c-0afdd772ee76","ios":"levelo://app?vid=ea8cb564-d405-42e3-911c-0afdd772ee76"},"vehicle_type_id":"4","last_reported":1740694099,"current_range_meters":8000,"station_id":"","pricing_plan_id":"cebpf4jnsgd1na2vs0mg"},{"bike_id":"d9fbfe98-de68-48fc-a6ac-6e6eaeb5062a","system_id":"levelo_inurba_marseille","lat":43.24806,"lon":5.37453,"is_reserved":false,"is_disabled":false,"rental_uris":{"android":"levelo://app?vid=d9fbfe98-de68-48fc-a6ac-6e6eaeb5062a","ios":"levelo://app?vid=d9fbfe98-de68-48fc-a6ac-6e6eaeb5062a"},"vehicle_type_id":"4","last_reported":1740694099,"current_range_meters":8000,"station_id":"ce4bhgh2rcd13ifvqfb0","pricing_plan_id":"cebpf4jnsgd1na2vs0mg"},{"bike_id":"8ba31a41-541a-4339-863e-1d27a2399440","system_id":"levelo_inurba_marseille","lat":43.28728,"lon":5.36087,"is_reserved":false,"is_disabled":false,"rental_uris":{"android":"levelo://app?vid=8ba31a41-541a-4339-863e-1d27a2399440","ios":"levelo://app?vid=8ba31a41-541a-4339-863e-1d27a2399440"},"vehicle_type_id":"4","last_reported":1740694099,"current_range_meters":8000,"station_id":"cki0cbj6b192h4jlfktg","pricing_plan_id":"cebpf4jnsgd1na2vs0mg"},{"bike_id":"9647918c-d815-4482-8c45-927333bd2450","system_id":"levelo_inurba_marseille","lat":43.27824,"lon":5.40711,"is_reserved":false,"is_disabled":false,"rental_uris":{"android":"levelo://app?vid=9647918c-d815-4482-8c45-927333bd2450","ios":"levelo://app?vid=9647918c-d815-4482-8c45-927333bd2450"},"vehicle_type_id":"4","last_reported":1740694099,"current_range_meters":8000,"station_id":"ce4bhnh2rcd13ifvqgtg","pricing_plan_id":"cebpf4jnsgd1na2vs0mg"},{"bike_id":"a154371d-4027-4800-96e4-21c1edbe81a8","system_id":"levelo_inurba_marseille","lat":43.29185,"lon":5.37138,"is_reserved":false,"is_disabled":false,"rental_uris":{"android":"levelo://app?vid=a154371d-4027-4800-96e4-21c1edbe81a8","ios":"levelo://app?vid=a154371d-4027-4800-96e4-21c1edbe81a8"},"vehicle_type_id":"4","last_reported":1740694099,"current_range_meters":8000,"station_id":"ce4bha92rcd13ifvqeh0","pricing_plan_id":"cebpf4jnsgd1na2vs0mg"},{"bike_id":"745c5d38-332d-426b-8e7b-acb525d1c540","system_id":"levelo_inurba_marseille","lat":43.250884,"lon":5.395242,"is_reserved":false,"is_disabled":false,"rental_uris":{"android":"levelo://app?vid=745c5d38-332d-426b-8e7b-acb525d1c540","ios":"levelo://app?vid=745c5d38-332d-426b-8e7b-acb525d1c540"},"vehicle_type_id":"4","last_reported":1740694099,"current_range_meters":8400,"station_id":"ce4bhm12rcd13ifvqgkg","pricing_plan_id":"cebpf4jnsgd1na2vs0mg"},{"bike_id":"8c666fd4-f386-4ea5-9d00-f90a3a7f8d51","system_id":"levelo_inurba_marseille","lat":43.2846,"lon":5.35882,"is_reserved":false,"is_disabled":false,"rental_uris":{"android":"levelo://app?vid=8c666fd4-f386-4ea5-9d00-f90a3a7f8d51","ios":"levelo://app?vid=8c666fd4-f386-4ea5-9d00-f90a3a7f8d51"},"vehicle_type_id":"4","last_reported":1740694099,"current_range_meters":8400,"station_id":"ce4bhah2rcd13ifvqei0","pricing_plan_id":"cebpf4jnsgd1na2vs0mg"},{"bike_id":"0cc9dc55-eb06-47c6-9257-948d4299a2e0","system_id":"levelo_inurba_marseille","lat":43.25003,"lon":5.38923,"is_reserved":false,"is_disabled":false,"rental_uris":{"android":"levelo://app?vid=0cc9dc55-eb06-47c6-9257-948d4299a2e0","ios":"levelo://app?vid=0cc9dc55-eb06-47c6-9257-948d4299a2e0"},"vehicle_type_id":"4","last_reported":1740694099,"current_range_meters":8400,"station_id":"ce4bhgp2rcd13ifvqfd0","pricing_plan_id":"cebpf4jnsgd1na2vs0mg"},{"bike_id":"039ef6be-b708-42df-a6eb-d41656f1ce53","system_id":"levelo_inurba_marseille","lat":43.25127,"lon":5.40307,"is_reserved":false,"is_disabled":false,"rental_uris":{"android":"levelo://app?vid=039ef6be-b708-42df-a6eb-d41656f1ce53","ios":"levelo://app?vid=039ef6be-b708-42df-a6eb-d41656f1ce53"},"vehicle_type_id":"4","last_reported":1740694099,"current_range_meters":8400,"station_id":"ce4bhlh2rcd13ifvqgig","pricing_plan_id":"cebpf4jnsgd1na2vs0mg"},{"bike_id":"fb04da1c-3fe3-48c7-a751-e2022c7f2a4e","system_id":"levelo_inurba_marseille","lat":43.31169,"lon":5.38303,"is_reserved":false,"is_disabled":false,"rental_uris":{"android":"levelo://app?vid=fb04da1c-3fe3-48c7-a751-e2022c7f2a4e","ios":"levelo://app?vid=fb04da1c-3fe3-48c7-a751-e2022c7f2a4e"},"vehicle_type_id":"4","last_reported":1740694099,"current_range_meters":8400,"station_id":"","pricing_plan_id":"cebpf4jnsgd1na2vs0mg"},{"bike_id":"8c48f52a-a87f-4b10-9bad-48a387153477","system_id":"levelo_inurba_marseille","lat":43.32362,"lon":5.38884,"is_reserved":false,"is_disabled":false,"rental_uris":{"android":"levelo://app?vid=8c48f52a-a87f-4b10-9bad-48a387153477","ios":"levelo://app?vid=8c48f52a-a87f-4b10-9bad-48a387153477"},"vehicle_type_id":"4","last_reported":1740694099,"current_range_meters":8800,"station_id":"ce4bhqp2rcd13ifvqhog","pricing_plan_id":"cebpf4jnsgd1na2vs0mg"},{"bike_id":"c997b30a-bd84-4943-809c-ccf6d5b32c4f","system_id":"levelo_inurba_marseille","lat":43.27611,"lon":5.36124,"is_reserved":false,"is_disabled":false,"rental_uris":{"android":"levelo://app?vid=c997b30a-bd84-4943-809c-ccf6d5b32c4f","ios":"levelo://app?vid=c997b30a-bd84-4943-809c-ccf6d5b32c4f"},"vehicle_type_id":"4","last_reported":1740694099,"current_range_meters":8400,"station_id":"ce4bgj92rcd13ifvqbe0","pricing_plan_id":"cebpf4jnsgd1na2vs0mg"},{"bike_id":"72bf8424-7513-4745-b0c0-c8bd394cd641","system_id":"levelo_inurba_marseille","lat":43.25112,"lon":5.40319,"is_reserved":false,"is_disabled":false,"rental_uris":{"android":"levelo://app?vid=72bf8424-7513-4745-b0c0-c8bd394cd641","ios":"levelo://app?vid=72bf8424-7513-4745-b0c0-c8bd394cd641"},"vehicle_type_id":"4","last_reported":1740694099,"current_range_meters":8400,"station_id":"ce4bhlh2rcd13ifvqgig","pricing_plan_id":"cebpf4jnsgd1na2vs0mg"},{"bike_id":"3f0907b3-da2b-41a5-8662-a0489e1a0f25","system_id":"levelo_inurba_marseille","lat":43.321061,"lon":5.367785,"is_reserved":false,"is_disabled":false,"rental_uris":{"android":"levelo://app?vid=3f0907b3-da2b-41a5-8662-a0489e1a0f25","ios":"levelo://app?vid=3f0907b3-da2b-41a5-8662-a0489e1a0f25"},"vehicle_type_id":"4","last_reported":1740694099,"current_range_meters":8400,"station_id":"ce4bhrh2rcd13ifvqhug","pricing_plan_id":"cebpf4jnsgd1na2vs0mg"},{"bike_id":"8d759611-ebae-4f1e-9324-47e399cf8324","system_id":"levelo_inurba_marseille","lat":43.28697,"lon":5.37384,"is_reserved":false,"is_disabled":false,"rental_uris":{"android":"levelo://app?vid=8d759611-ebae-4f1e-9324-47e399cf8324","ios":"levelo://app?vid=8d759611-ebae-4f1e-9324-47e399cf8324"},"vehicle_type_id":"4","last_reported":1740694099,"current_range_meters":8400,"station_id":"ce4bh3p2rcd13ifvqdq0","pricing_plan_id":"cebpf4jnsgd1na2vs0mg"},{"bike_id":"91f909e9-358e-43ed-a45f-822af931a978","system_id":"levelo_inurba_marseille","lat":43.23212,"lon":5.40367,"is_reserved":false,"is_disabled":false,"rental_uris":{"android":"levelo://app?vid=91f909e9-358e-43ed-a45f-822af931a978","ios":"levelo://app?vid=91f909e9-358e-43ed-a45f-822af931a978"},"vehicle_type_id":"4","last_reported":1740694099,"current_range_meters":8400,"station_id":"","pricing_plan_id":"cebpf4jnsgd1na2vs0mg"},{"bike_id":"afd98e29-9e65-49b1-96e9-da6c0e62de76","system_id":"levelo_inurba_marseille","lat":43.2927,"lon":5.38198,"is_reserved":false,"is_disabled":false,"rental_uris":{"android":"levelo://app?vid=afd98e29-9e65-49b1-96e9-da6c0e62de76","ios":"levelo://app?vid=afd98e29-9e65-49b1-96e9-da6c0e62de76"},"vehicle_type_id":"4","last_reported":1740694099,"current_range_meters":8800,"station_id":"","pricing_plan_id":"cebpf4jnsgd1na2vs0mg"},{"bike_id":"ab41809d-0839-4146-9c11-f9e1d5038ec6","system_id":"levelo_inurba_marseille","lat":43.2557,"lon":5.38251,"is_reserved":false,"is_disabled":false,"rental_uris":{"android":"levelo://app?vid=ab41809d-0839-4146-9c11-f9e1d5038ec6","ios":"levelo://app?vid=ab41809d-0839-4146-9c11-f9e1d5038ec6"},"vehicle_type_id":"4","last_reported":1740694099,"current_range_meters":8800,"station_id":"ce4bhih2rcd13ifvqfs0","pricing_plan_id":"cebpf4jnsgd1na2vs0mg"},{"bike_id":"38c79992-9d7b-4253-801d-21731130e0e1","system_id":"levelo_inurba_marseille","lat":43.28079,"lon":5.39666,"is_reserved":false,"is_disabled":false,"rental_uris":{"android":"levelo://app?vid=38c79992-9d7b-4253-801d-21731130e0e1","ios":"levelo://app?vid=38c79992-9d7b-4253-801d-21731130e0e1"},"vehicle_type_id":"4","last_reported":1740694099,"current_range_meters":7200,"station_id":"ce4bho12rcd13ifvqh2g","pricing_plan_id":"cebpf4jnsgd1na2vs0mg"},{"bike_id":"c6b23046-3dbb-4c24-b439-362e9ad2c23a","system_id":"levelo_inurba_marseille","lat":43.25022,"lon":5.38902,"is_reserved":false,"is_disabled":false,"rental_uris":{"android":"levelo://app?vid=c6b23046-3dbb-4c24-b439-362e9ad2c23a","ios":"levelo://app?vid=c6b23046-3dbb-4c24-b439-362e9ad2c23a"},"vehicle_type_id":"4","last_reported":1740694099,"current_range_meters":8800,"station_id":"ce4bhgp2rcd13ifvqfd0","pricing_plan_id":"cebpf4jnsgd1na2vs0mg"},{"bike_id":"464da985-0d18-414e-a22b-ee83e6a7dbce","system_id":"levelo_inurba_marseille","lat":43.30905,"lon":5.39632,"is_reserved":false,"is_disabled":false,"rental_uris":{"android":"levelo://app?vid=464da985-0d18-414e-a22b-ee83e6a7dbce","ios":"levelo://app?vid=464da985-0d18-414e-a22b-ee83e6a7dbce"},"vehicle_type_id":"4","last_reported":1740694099,"current_range_meters":8800,"station_id":"ce4bh012rcd13ifvqcv0","pricing_plan_id":"cebpf4jnsgd1na2vs0mg"},{"bike_id":"272efc7d-3f8b-435c-a06e-c8bd069b8f82","system_id":"levelo_inurba_marseille","lat":43.27631,"lon":5.36112,"is_reserved":false,"is_disabled":false,"rental_uris":{"android":"levelo://app?vid=272efc7d-3f8b-435c-a06e-c8bd069b8f82","ios":"levelo://app?vid=272efc7d-3f8b-435c-a06e-c8bd069b8f82"},"vehicle_type_id":"4","last_reported":1740694099,"current_range_meters":8800,"station_id":"ce4bgj92rcd13ifvqbe0","pricing_plan_id":"cebpf4jnsgd1na2vs0mg"},{"bike_id":"74d4a88d-ad3a-4128-a926-23a749e3d79b","system_id":"levelo_inurba_marseille","lat":43.23169,"lon":5.35563,"is_reserved":false,"is_disabled":false,"rental_uris":{"android":"levelo://app?vid=74d4a88d-ad3a-4128-a926-23a749e3d79b","ios":"levelo://app?vid=74d4a88d-ad3a-4128-a926-23a749e3d79b"},"vehicle_type_id":"4","last_reported":1740694099,"current_range_meters":9200,"station_id":"ce4bhu92rcd13ifvqi70","pricing_plan_id":"cebpf4jnsgd1na2vs0mg"},{"bike_id":"5e0e22b0-e973-48d0-8bed-a771273f721a","system_id":"levelo_inurba_marseille","lat":43.273783,"lon":5.36254,"is_reserved":false,"is_disabled":false,"rental_uris":{"android":"levelo://app?vid=5e0e22b0-e973-48d0-8bed-a771273f721a","ios":"levelo://app?vid=5e0e22b0-e973-48d0-8bed-a771273f721a"},"vehicle_type_id":"4","last_reported":1740694099,"current_range_meters":9200,"station_id":"ce4bhbh2rcd13ifvqeo0","pricing_plan_id":"cebpf4jnsgd1na2vs0mg"},{"bike_id":"8e321e79-52a6-481e-95fe-754adbd21e45","system_id":"levelo_inurba_marseille","lat":43.307281,"lon":5.37286,"is_reserved":false,"is_disabled":false,"rental_uris":{"android":"levelo://app?vid=8e321e79-52a6-481e-95fe-754adbd21e45","ios":"levelo://app?vid=8e321e79-52a6-481e-95fe-754adbd21e45"},"vehicle_type_id":"4","last_reported":1740694099,"current_range_meters":9600,"station_id":"ce4bguh2rcd13ifvqckg","pricing_plan_id":"cebpf4jnsgd1na2vs0mg"},{"bike_id":"430b8c8b-9ffb-4b03-929c-7b5604171a6d","system_id":"levelo_inurba_marseille","lat":43.27814,"lon":5.4071,"is_reserved":false,"is_disabled":false,"rental_uris":{"android":"levelo://app?vid=430b8c8b-9ffb-4b03-929c-7b5604171a6d","ios":"levelo://app?vid=430b8c8b-9ffb-4b03-929c-7b5604171a6d"},"vehicle_type_id":"4","last_reported":1740694099,"current_range_meters":9200,"station_id":"ce4bhnh2rcd13ifvqgtg","pricing_plan_id":"cebpf4jnsgd1na2vs0mg"},{"bike_id":"03ecd382-3850-4874-86ef-0467a1a8c988","system_id":"levelo_inurba_marseille","lat":43.24173,"lon":5.3972,"is_reserved":false,"is_disabled":true,"rental_uris":{"android":"levelo://app?vid=03ecd382-3850-4874-86ef-0467a1a8c988","ios":"levelo://app?vid=03ecd382-3850-4874-86ef-0467a1a8c988"},"vehicle_type_id":"4","last_reported":1740694099,"current_range_meters":9200,"station_id":"ce4bhn12rcd13ifvqgpg","pricing_plan_id":"cebpf4jnsgd1na2vs0mg"},{"bike_id":"ea3487ed-d7b8-4023-bb22-d2dd44155fb1","system_id":"levelo_inurba_marseille","lat":43.28347,"lon":5.38115,"is_reserved":false,"is_disabled":false,"rental_uris":{"android":"levelo://app?vid=ea3487ed-d7b8-4023-bb22-d2dd44155fb1","ios":"levelo://app?vid=ea3487ed-d7b8-4023-bb22-d2dd44155fb1"},"vehicle_type_id":"4","last_reported":1740694099,"current_range_meters":6800,"station_id":"ce4bh412rcd13ifvqdr0","pricing_plan_id":"cebpf4jnsgd1na2vs0mg"},{"bike_id":"e4127e72-139a-478c-bc8d-43f39e537533","system_id":"levelo_inurba_marseille","lat":43.29708,"lon":5.36606,"is_reserved":false,"is_disabled":false,"rental_uris":{"android":"levelo://app?vid=e4127e72-139a-478c-bc8d-43f39e537533","ios":"levelo://app?vid=e4127e72-139a-478c-bc8d-43f39e537533"},"vehicle_type_id":"4","last_reported":1740694099,"current_range_meters":9200,"station_id":"ce4bgn12rcd13ifvqbt0","pricing_plan_id":"cebpf4jnsgd1na2vs0mg"},{"bike_id":"cbc022d7-c540-4a75-bd51-64e4459a593b","system_id":"levelo_inurba_marseille","lat":43.28568,"lon":5.39477,"is_reserved":false,"is_disabled":false,"rental_uris":{"android":"levelo://app?vid=cbc022d7-c540-4a75-bd51-64e4459a593b","ios":"levelo://app?vid=cbc022d7-c540-4a75-bd51-64e4459a593b"},"vehicle_type_id":"4","last_reported":1740694099,"current_range_meters":9200,"station_id":"ce4bh292rcd13ifvqdg0","pricing_plan_id":"cebpf4jnsgd1na2vs0mg"},{"bike_id":"54d46a8b-8314-471a-98f9-6d86686fc605","system_id":"levelo_inurba_marseille","lat":43.25828,"lon":5.3945,"is_reserved":false,"is_disabled":false,"rental_uris":{"android":"levelo://app?vid=54d46a8b-8314-471a-98f9-6d86686fc605","ios":"levelo://app?vid=54d46a8b-8314-471a-98f9-6d86686fc605"},"vehicle_type_id":"4","last_reported":1740694099,"current_range_meters":9200,"station_id":"ce4bhip2rcd13ifvqft0","pricing_plan_id":"cebpf4jnsgd1na2vs0mg"},{"bike_id":"3f0cf97a-a086-4cc4-adb1-3b3d3b1be568","system_id":"levelo_inurba_marseille","lat":43.28711,"lon":5.37949,"is_reserved":false,"is_disabled":false,"rental_uris":{"android":"levelo://app?vid=3f0cf97a-a086-4cc4-adb1-3b3d3b1be568","ios":"levelo://app?vid=3f0cf97a-a086-4cc4-adb1-3b3d3b1be568"},"vehicle_type_id":"4","last_reported":1740694099,"current_range_meters":9200,"station_id":"ce4bh9p2rcd13ifvqec0","pricing_plan_id":"cebpf4jnsgd1na2vs0mg"},{"bike_id":"a6dc57cd-91d9-4379-940d-971b3554f406","system_id":"levelo_inurba_marseille","lat":43.27551,"lon":5.38432,"is_reserved":false,"is_disabled":false,"rental_uris":{"android":"levelo://app?vid=a6dc57cd-91d9-4379-940d-971b3554f406","ios":"levelo://app?vid=a6dc57cd-91d9-4379-940d-971b3554f406"},"vehicle_type_id":"4","last_reported":1740694099,"current_range_meters":9600,"station_id":"ce4bhh92rcd13ifvqfi0","pricing_plan_id":"cebpf4jnsgd1na2vs0mg"},{"bike_id":"1181ce1e-a248-40b0-9ad6-bb150270a904","system_id":"levelo_inurba_marseille","lat":43.31879,"lon":5.37642,"is_reserved":false,"is_disabled":false,"rental_uris":{"android":"levelo://app?vid=1181ce1e-a248-40b0-9ad6-bb150270a904","ios":"levelo://app?vid=1181ce1e-a248-40b0-9ad6-bb150270a904"},"vehicle_type_id":"4","last_reported":1740694099,"current_range_meters":9600,"station_id":"","pricing_plan_id":"cebpf4jnsgd1na2vs0mg"},{"bike_id":"22ec0a1a-f6bd-41cd-babf-f8ae85098632","system_id":"levelo_inurba_marseille","lat":43.30658,"lon":5.40061,"is_reserved":false,"is_disabled":false,"rental_uris":{"android":"levelo://app?vid=22ec0a1a-f6bd-41cd-babf-f8ae85098632","ios":"levelo://app?vid=22ec0a1a-f6bd-41cd-babf-f8ae85098632"},"vehicle_type_id":"4","last_reported":1740694099,"current_range_meters":9600,"station_id":"ce4bh112rcd13ifvqda0","pricing_plan_id":"cebpf4jnsgd1na2vs0mg"},{"bike_id":"c9450bb1-7080-428b-bbf9-1bb463818f4d","system_id":"levelo_inurba_marseille","lat":43.276089,"lon":5.361073,"is_reserved":false,"is_disabled":true,"rental_uris":{"android":"levelo://app?vid=c9450bb1-7080-428b-bbf9-1bb463818f4d","ios":"levelo://app?vid=c9450bb1-7080-428b-bbf9-1bb463818f4d"},"vehicle_type_id":"4","last_reported":1740694099,"current_range_meters":9600,"station_id":"ce4bgj92rcd13ifvqbe0","pricing_plan_id":"cebpf4jnsgd1na2vs0mg"},{"bike_id":"0684c9b8-68d1-4121-82b2-00c0eebe64db","system_id":"levelo_inurba_marseille","lat":43.27934,"lon":5.41051,"is_reserved":false,"is_disabled":false,"rental_uris":{"android":"levelo://app?vid=0684c9b8-68d1-4121-82b2-00c0eebe64db","ios":"levelo://app?vid=0684c9b8-68d1-4121-82b2-00c0eebe64db"},"vehicle_type_id":"4","last_reported":1740694099,"current_range_meters":9600,"station_id":"ce4bhnp2rcd13ifvqh0g","pricing_plan_id":"cebpf4jnsgd1na2vs0mg"},{"bike_id":"5cdf1157-258e-4dbe-9eac-97f9742be378","system_id":"levelo_inurba_marseille","lat":43.27379,"lon":5.36263,"is_reserved":false,"is_disabled":false,"rental_uris":{"android":"levelo://app?vid=5cdf1157-258e-4dbe-9eac-97f9742be378","ios":"levelo://app?vid=5cdf1157-258e-4dbe-9eac-97f9742be378"},"vehicle_type_id":"4","last_reported":1740694099,"current_range_meters":10000,"station_id":"ce4bhbh2rcd13ifvqeo0","pricing_plan_id":"cebpf4jnsgd1na2vs0mg"},{"bike_id":"2f218cd9-6dc2-4509-acc5-b6e8dd4cef8b","system_id":"levelo_inurba_marseille","lat":43.28467,"lon":5.35884,"is_reserved":false,"is_disabled":false,"rental_uris":{"android":"levelo://app?vid=2f218cd9-6dc2-4509-acc5-b6e8dd4cef8b","ios":"levelo://app?vid=2f218cd9-6dc2-4509-acc5-b6e8dd4cef8b"},"vehicle_type_id":"4","last_reported":1740694099,"current_range_meters":10000,"station_id":"ce4bhah2rcd13ifvqei0","pricing_plan_id":"cebpf4jnsgd1na2vs0mg"},{"bike_id":"17209f80-451e-4586-b620-381cc150687e","system_id":"levelo_inurba_marseille","lat":43.29867,"lon":5.38908,"is_reserved":false,"is_disabled":false,"rental_uris":{"android":"levelo://app?vid=17209f80-451e-4586-b620-381cc150687e","ios":"levelo://app?vid=17209f80-451e-4586-b620-381cc150687e"},"vehicle_type_id":"4","last_reported":1740694099,"current_range_meters":10000,"station_id":"ce4bh392rcd13ifvqdl0","pricing_plan_id":"cebpf4jnsgd1na2vs0mg"},{"bike_id":"d8994050-39f7-4aaa-af77-5e87c12121df","system_id":"levelo_inurba_marseille","lat":43.29004,"lon":5.35626,"is_reserved":false,"is_disabled":false,"rental_uris":{"android":"levelo://app?vid=d8994050-39f7-4aaa-af77-5e87c12121df","ios":"levelo://app?vid=d8994050-39f7-4aaa-af77-5e87c12121df"},"vehicle_type_id":"4","last_reported":1740694099,"current_range_meters":10000,"station_id":"ce4bhb92rcd13ifvqen0","pricing_plan_id":"cebpf4jnsgd1na2vs0mg"},{"bike_id":"5a3669b0-0e61-4aab-ace8-8fee2988f941","system_id":"levelo_inurba_marseille","lat":43.30933,"lon":5.40145,"is_reserved":false,"is_disabled":false,"rental_uris":{"android":"levelo://app?vid=5a3669b0-0e61-4aab-ace8-8fee2988f941","ios":"levelo://app?vid=5a3669b0-0e61-4aab-ace8-8fee2988f941"},"vehicle_type_id":"4","last_reported":1740694099,"current_range_meters":10800,"station_id":"ce4bgvp2rcd13ifvqct0","pricing_plan_id":"cebpf4jnsgd1na2vs0mg"},{"bike_id":"83100333-e221-4abb-8bc0-3b6dd416a491","system_id":"levelo_inurba_marseille","lat":43.25091,"lon":5.39518,"is_reserved":false,"is_disabled":false,"rental_uris":{"android":"levelo://app?vid=83100333-e221-4abb-8bc0-3b6dd416a491","ios":"levelo://app?vid=83100333-e221-4abb-8bc0-3b6dd416a491"},"vehicle_type_id":"4","last_reported":1740694099,"current_range_meters":9200,"station_id":"ce4bhm12rcd13ifvqgkg","pricing_plan_id":"cebpf4jnsgd1na2vs0mg"},{"bike_id":"9c16f73b-d883-4318-9d54-d8eb1fe44c91","system_id":"levelo_inurba_marseille","lat":43.27814,"lon":5.4072,"is_reserved":false,"is_disabled":false,"rental_uris":{"android":"levelo://app?vid=9c16f73b-d883-4318-9d54-d8eb1fe44c91","ios":"levelo://app?vid=9c16f73b-d883-4318-9d54-d8eb1fe44c91"},"vehicle_type_id":"4","last_reported":1740694099,"current_range_meters":10000,"station_id":"ce4bhnh2rcd13ifvqgtg","pricing_plan_id":"cebpf4jnsgd1na2vs0mg"},{"bike_id":"eae9f6fe-b943-4452-9f29-bf696f5c4ed4","system_id":"levelo_inurba_marseille","lat":43.31076,"lon":5.38351,"is_reserved":false,"is_disabled":false,"rental_uris":{"android":"levelo://app?vid=eae9f6fe-b943-4452-9f29-bf696f5c4ed4","ios":"levelo://app?vid=eae9f6fe-b943-4452-9f29-bf696f5c4ed4"},"vehicle_type_id":"4","last_reported":1740694099,"current_range_meters":10000,"station_id":"ce4bgv92rcd13ifvqcr0","pricing_plan_id":"cebpf4jnsgd1na2vs0mg"},{"bike_id":"eea25fa1-2db0-4cb4-901f-2535ea4c664c","system_id":"levelo_inurba_marseille","lat":43.30321,"lon":5.40451,"is_reserved":false,"is_disabled":false,"rental_uris":{"android":"levelo://app?vid=eea25fa1-2db0-4cb4-901f-2535ea4c664c","ios":"levelo://app?vid=eea25fa1-2db0-4cb4-901f-2535ea4c664c"},"vehicle_type_id":"4","last_reported":1740694099,"current_range_meters":10800,"station_id":"ce4bh012rcd13ifvqd10","pricing_plan_id":"cebpf4jnsgd1na2vs0mg"},{"bike_id":"3d40c7de-ae33-4f47-a9ec-ad6761202c40","system_id":"levelo_inurba_marseille","lat":43.2841,"lon":5.37529,"is_reserved":false,"is_disabled":false,"rental_uris":{"android":"levelo://app?vid=3d40c7de-ae33-4f47-a9ec-ad6761202c40","ios":"levelo://app?vid=3d40c7de-ae33-4f47-a9ec-ad6761202c40"},"vehicle_type_id":"4","last_reported":1740694099,"current_range_meters":11200,"station_id":"ce4bh412rcd13ifvqds0","pricing_plan_id":"cebpf4jnsgd1na2vs0mg"},{"bike_id":"026e178e-412a-49e0-9772-e5f6d0abaab4","system_id":"levelo_inurba_marseille","lat":43.30864,"lon":5.37091,"is_reserved":false,"is_disabled":false,"rental_uris":{"android":"levelo://app?vid=026e178e-412a-49e0-9772-e5f6d0abaab4","ios":"levelo://app?vid=026e178e-412a-49e0-9772-e5f6d0abaab4"},"vehicle_type_id":"4","last_reported":1740694099,"current_range_meters":11200,"station_id":"","pricing_plan_id":"cebpf4jnsgd1na2vs0mg"},{"bike_id":"7de8066b-1c87-4190-8fd2-555f7014d460","system_id":"levelo_inurba_marseille","lat":43.28847,"lon":5.35843,"is_reserved":false,"is_disabled":false,"rental_uris":{"android":"levelo://app?vid=7de8066b-1c87-4190-8fd2-555f7014d460","ios":"levelo://app?vid=7de8066b-1c87-4190-8fd2-555f7014d460"},"vehicle_type_id":"4","last_reported":1740694099,"current_range_meters":10800,"station_id":"ce4bhb12rcd13ifvqem0","pricing_plan_id":"cebpf4jnsgd1na2vs0mg"},{"bike_id":"9ad5b63c-3414-4ea4-baac-7d4b6cddc47a","system_id":"levelo_inurba_marseille","lat":43.29073,"lon":5.37159,"is_reserved":false,"is_disabled":false,"rental_uris":{"android":"levelo://app?vid=9ad5b63c-3414-4ea4-baac-7d4b6cddc47a","ios":"levelo://app?vid=9ad5b63c-3414-4ea4-baac-7d4b6cddc47a"},"vehicle_type_id":"4","last_reported":1740694099,"current_range_meters":10800,"station_id":"ce4bh5p2rcd13ifvqe4g","pricing_plan_id":"cebpf4jnsgd1na2vs0mg"},{"bike_id":"2d713e86-84c1-414d-8586-0104afd3a051","system_id":"levelo_inurba_marseille","lat":43.26489,"lon":5.39532,"is_reserved":false,"is_disabled":true,"rental_uris":{"android":"levelo://app?vid=2d713e86-84c1-414d-8586-0104afd3a051","ios":"levelo://app?vid=2d713e86-84c1-414d-8586-0104afd3a051"},"vehicle_type_id":"4","last_reported":1740694099,"current_range_meters":10800,"station_id":"ce4bhi12rcd13ifvqfq0","pricing_plan_id":"cebpf4jnsgd1na2vs0mg"},{"bike_id":"fac65774-dadd-4c56-a405-fae0993686a7","system_id":"levelo_inurba_marseille","lat":43.2978,"lon":5.3936,"is_reserved":false,"is_disabled":false,"rental_uris":{"android":"levelo://app?vid=fac65774-dadd-4c56-a405-fae0993686a7","ios":"levelo://app?vid=fac65774-dadd-4c56-a405-fae0993686a7"},"vehicle_type_id":"4","last_reported":1740694099,"current_range_meters":10800,"station_id":"chh1huq6cuj3fo74tm60","pricing_plan_id":"cebpf4jnsgd1na2vs0mg"},{"bike_id":"907b990b-0a8a-4924-acec-37622f347ce1","system_id":"levelo_inurba_marseille","lat":43.2862,"lon":5.35091,"is_reserved":false,"is_disabled":false,"rental_uris":{"android":"levelo://app?vid=907b990b-0a8a-4924-acec-37622f347ce1","ios":"levelo://app?vid=907b990b-0a8a-4924-acec-37622f347ce1"},"vehicle_type_id":"4","last_reported":1740694099,"current_range_meters":10800,"station_id":"ce4bhch2rcd13ifvqeug","pricing_plan_id":"cebpf4jnsgd1na2vs0mg"},{"bike_id":"ab3ae644-bc74-4779-9d00-afaab1721981","system_id":"levelo_inurba_marseille","lat":43.26204,"lon":5.37931,"is_reserved":false,"is_disabled":false,"rental_uris":{"android":"levelo://app?vid=ab3ae644-bc74-4779-9d00-afaab1721981","ios":"levelo://app?vid=ab3ae644-bc74-4779-9d00-afaab1721981"},"vehicle_type_id":"4","last_reported":1740694099,"current_range_meters":10800,"station_id":"ce4bhjp2rcd13ifvqg90","pricing_plan_id":"cebpf4jnsgd1na2vs0mg"},{"bike_id":"a613e5ed-7ee4-4dfe-9bda-fb6e0a0edd20","system_id":"levelo_inurba_marseille","lat":43.25106,"lon":5.40322,"is_reserved":false,"is_disabled":false,"rental_uris":{"android":"levelo://app?vid=a613e5ed-7ee4-4dfe-9bda-fb6e0a0edd20","ios":"levelo://app?vid=a613e5ed-7ee4-4dfe-9bda-fb6e0a0edd20"},"vehicle_type_id":"4","last_reported":1740694099,"current_range_meters":11600,"station_id":"ce4bhlh2rcd13ifvqgig","pricing_plan_id":"cebpf4jnsgd1na2vs0mg"},{"bike_id":"775ab57b-d806-42e1-9b00-af803dfd7427","system_id":"levelo_inurba_marseille","lat":43.29925,"lon":5.36525,"is_reserved":false,"is_disabled":false,"rental_uris":{"android":"levelo://app?vid=775ab57b-d806-42e1-9b00-af803dfd7427","ios":"levelo://app?vid=775ab57b-d806-42e1-9b00-af803dfd7427"},"vehicle_type_id":"4","last_reported":1740694099,"current_range_meters":11200,"station_id":"ce4bgm92rcd13ifvqbr0","pricing_plan_id":"cebpf4jnsgd1na2vs0mg"},{"bike_id":"443370dd-f8b8-457a-b6f8-389b804ff6fc","system_id":"levelo_inurba_marseille","lat":43.32365,"lon":5.38912,"is_reserved":false,"is_disabled":false,"rental_uris":{"android":"levelo://app?vid=443370dd-f8b8-457a-b6f8-389b804ff6fc","ios":"levelo://app?vid=443370dd-f8b8-457a-b6f8-389b804ff6fc"},"vehicle_type_id":"4","last_reported":1740694099,"current_range_meters":11200,"station_id":"ce4bhqp2rcd13ifvqhog","pricing_plan_id":"cebpf4jnsgd1na2vs0mg"},{"bike_id":"62e4decf-0934-40a6-9029-e970d44dc996","system_id":"levelo_inurba_marseille","lat":43.30935,"lon":5.40138,"is_reserved":false,"is_disabled":false,"rental_uris":{"android":"levelo://app?vid=62e4decf-0934-40a6-9029-e970d44dc996","ios":"levelo://app?vid=62e4decf-0934-40a6-9029-e970d44dc996"},"vehicle_type_id":"4","last_reported":1740694099,"current_range_meters":12400,"station_id":"ce4bgvp2rcd13ifvqct0","pricing_plan_id":"cebpf4jnsgd1na2vs0mg"},{"bike_id":"ef0e7615-fff5-41fa-af54-a8e3cd2fd4d1","system_id":"levelo_inurba_marseille","lat":43.30417,"lon":5.41285,"is_reserved":false,"is_disabled":false,"rental_uris":{"android":"levelo://app?vid=ef0e7615-fff5-41fa-af54-a8e3cd2fd4d1","ios":"levelo://app?vid=ef0e7615-fff5-41fa-af54-a8e3cd2fd4d1"},"vehicle_type_id":"4","last_reported":1740694099,"current_range_meters":11600,"station_id":"ce4bhop2rcd13ifvqh8g","pricing_plan_id":"cebpf4jnsgd1na2vs0mg"},{"bike_id":"f84d7596-4c47-4c18-a4f9-ba218eafea6d","system_id":"levelo_inurba_marseille","lat":43.28396,"lon":5.37514,"is_reserved":false,"is_disabled":false,"rental_uris":{"android":"levelo://app?vid=f84d7596-4c47-4c18-a4f9-ba218eafea6d","ios":"levelo://app?vid=f84d7596-4c47-4c18-a4f9-ba218eafea6d"},"vehicle_type_id":"4","last_reported":1740694099,"current_range_meters":11600,"station_id":"ce4bh412rcd13ifvqds0","pricing_plan_id":"cebpf4jnsgd1na2vs0mg"},{"bike_id":"e89404bc-b67d-4aa0-b5b9-0d5adc52fc30","system_id":"levelo_inurba_marseille","lat":43.28609,"lon":5.35093,"is_reserved":false,"is_disabled":false,"rental_uris":{"android":"levelo://app?vid=e89404bc-b67d-4aa0-b5b9-0d5adc52fc30","ios":"levelo://app?vid=e89404bc-b67d-4aa0-b5b9-0d5adc52fc30"},"vehicle_type_id":"4","last_reported":1740694099,"current_range_meters":11600,"station_id":"ce4bhch2rcd13ifvqeug","pricing_plan_id":"cebpf4jnsgd1na2vs0mg"},{"bike_id":"a88e9d61-7e15-4bbe-ab9c-aba0a66dcc50","system_id":"levelo_inurba_marseille","lat":43.24808,"lon":5.37448,"is_reserved":false,"is_disabled":false,"rental_uris":{"android":"levelo://app?vid=a88e9d61-7e15-4bbe-ab9c-aba0a66dcc50","ios":"levelo://app?vid=a88e9d61-7e15-4bbe-ab9c-aba0a66dcc50"},"vehicle_type_id":"4","last_reported":1740694099,"current_range_meters":11600,"station_id":"ce4bhgh2rcd13ifvqfb0","pricing_plan_id":"cebpf4jnsgd1na2vs0mg"},{"bike_id":"3de9aeda-1f9a-4bbc-8b90-e02a49e56ca9","system_id":"levelo_inurba_marseille","lat":43.23185,"lon":5.35521,"is_reserved":false,"is_disabled":false,"rental_uris":{"android":"levelo://app?vid=3de9aeda-1f9a-4bbc-8b90-e02a49e56ca9","ios":"levelo://app?vid=3de9aeda-1f9a-4bbc-8b90-e02a49e56ca9"},"vehicle_type_id":"4","last_reported":1740694099,"current_range_meters":11600,"station_id":"ce4bhu92rcd13ifvqi70","pricing_plan_id":"cebpf4jnsgd1na2vs0mg"},{"bike_id":"45bcdd61-a600-4686-95d9-f2003a49bdbc","system_id":"levelo_inurba_marseille","lat":43.29928,"lon":5.36533,"is_reserved":false,"is_disabled":false,"rental_uris":{"android":"levelo://app?vid=45bcdd61-a600-4686-95d9-f2003a49bdbc","ios":"levelo://app?vid=45bcdd61-a600-4686-95d9-f2003a49bdbc"},"vehicle_type_id":"4","last_reported":1740694099,"current_range_meters":11600,"station_id":"ce4bgm92rcd13ifvqbr0","pricing_plan_id":"cebpf4jnsgd1na2vs0mg"},{"bike_id":"4e2e11f8-e9a3-4f3a-9372-23488c564b9c","system_id":"levelo_inurba_marseille","lat":43.28456,"lon":5.35913,"is_reserved":false,"is_disabled":false,"rental_uris":{"android":"levelo://app?vid=4e2e11f8-e9a3-4f3a-9372-23488c564b9c","ios":"levelo://app?vid=4e2e11f8-e9a3-4f3a-9372-23488c564b9c"},"vehicle_type_id":"4","last_reported":1740694099,"current_range_meters":12000,"station_id":"ce4bhah2rcd13ifvqei0","pricing_plan_id":"cebpf4jnsgd1na2vs0mg"},{"bike_id":"7470ebdf-96fe-4da7-b039-5ca23f630bc0","system_id":"levelo_inurba_marseille","lat":43.31748,"lon":5.39026,"is_reserved":false,"is_disabled":false,"rental_uris":{"android":"levelo://app?vid=7470ebdf-96fe-4da7-b039-5ca23f630bc0","ios":"levelo://app?vid=7470ebdf-96fe-4da7-b039-5ca23f630bc0"},"vehicle_type_id":"4","last_reported":1740694099,"current_range_meters":12000,"station_id":"ce4bhqp2rcd13ifvqhng","pricing_plan_id":"cebpf4jnsgd1na2vs0mg"},{"bike_id":"6fc4efbd-aa05-4410-9113-28ed500f185c","system_id":"levelo_inurba_marseille","lat":43.26501,"lon":5.39533,"is_reserved":false,"is_disabled":false,"rental_uris":{"android":"levelo://app?vid=6fc4efbd-aa05-4410-9113-28ed500f185c","ios":"levelo://app?vid=6fc4efbd-aa05-4410-9113-28ed500f185c"},"vehicle_type_id":"4","last_reported":1740694099,"current_range_meters":11600,"station_id":"ce4bhi12rcd13ifvqfq0","pricing_plan_id":"cebpf4jnsgd1na2vs0mg"},{"bike_id":"7e39a11b-8f65-41f7-8757-965e69193dbe","system_id":"levelo_inurba_marseille","lat":43.29567,"lon":5.39991,"is_reserved":false,"is_disabled":false,"rental_uris":{"android":"levelo://app?vid=7e39a11b-8f65-41f7-8757-965e69193dbe","ios":"levelo://app?vid=7e39a11b-8f65-41f7-8757-965e69193dbe"},"vehicle_type_id":"4","last_reported":1740694099,"current_range_meters":12000,"station_id":"ce4bh312rcd13ifvqdj0","pricing_plan_id":"cebpf4jnsgd1na2vs0mg"},{"bike_id":"577a98cd-0267-4d9c-831f-d38f5e10f610","system_id":"levelo_inurba_marseille","lat":43.29878,"lon":5.38908,"is_reserved":false,"is_disabled":false,"rental_uris":{"android":"levelo://app?vid=577a98cd-0267-4d9c-831f-d38f5e10f610","ios":"levelo://app?vid=577a98cd-0267-4d9c-831f-d38f5e10f610"},"vehicle_type_id":"4","last_reported":1740694099,"current_range_meters":12000,"station_id":"ce4bh392rcd13ifvqdl0","pricing_plan_id":"cebpf4jnsgd1na2vs0mg"},{"bike_id":"409a385b-f084-4a05-a438-87b0c694f773","system_id":"levelo_inurba_marseille","lat":43.3132,"lon":5.39722,"is_reserved":false,"is_disabled":false,"rental_uris":{"android":"levelo://app?vid=409a385b-f084-4a05-a438-87b0c694f773","ios":"levelo://app?vid=409a385b-f084-4a05-a438-87b0c694f773"},"vehicle_type_id":"4","last_reported":1740694099,"current_range_meters":12000,"station_id":"ce4bgvp2rcd13ifvqcu0","pricing_plan_id":"cebpf4jnsgd1na2vs0mg"},{"bike_id":"9c94820e-53df-4d8e-be38-9fbb57d231fb","system_id":"levelo_inurba_marseille","lat":43.29779,"lon":5.37093,"is_reserved":false,"is_disabled":false,"rental_uris":{"android":"levelo://app?vid=9c94820e-53df-4d8e-be38-9fbb57d231fb","ios":"levelo://app?vid=9c94820e-53df-4d8e-be38-9fbb57d231fb"},"vehicle_type_id":"4","last_reported":1740694099,"current_range_meters":12000,"station_id":"ce4bgop2rcd13ifvqc1g","pricing_plan_id":"cebpf4jnsgd1na2vs0mg"},{"bike_id":"06f46088-86dd-4f85-a76e-b4e1ebe0acc7","system_id":"levelo_inurba_marseille","lat":43.28617,"lon":5.35107,"is_reserved":false,"is_disabled":false,"rental_uris":{"android":"levelo://app?vid=06f46088-86dd-4f85-a76e-b4e1ebe0acc7","ios":"levelo://app?vid=06f46088-86dd-4f85-a76e-b4e1ebe0acc7"},"vehicle_type_id":"4","last_reported":1740694099,"current_range_meters":12000,"station_id":"ce4bhch2rcd13ifvqeug","pricing_plan_id":"cebpf4jnsgd1na2vs0mg"},{"bike_id":"a2054610-d60d-4315-837e-890e035cf8ca","system_id":"levelo_inurba_marseille","lat":43.29871,"lon":5.38913,"is_reserved":false,"is_disabled":false,"rental_uris":{"android":"levelo://app?vid=a2054610-d60d-4315-837e-890e035cf8ca","ios":"levelo://app?vid=a2054610-d60d-4315-837e-890e035cf8ca"},"vehicle_type_id":"4","last_reported":1740694099,"current_range_meters":12400,"station_id":"ce4bh392rcd13ifvqdl0","pricing_plan_id":"cebpf4jnsgd1na2vs0mg"},{"bike_id":"1393e48a-5096-48c2-8ef4-ef737b7b43ae","system_id":"levelo_inurba_marseille","lat":43.25088,"lon":5.39533,"is_reserved":false,"is_disabled":false,"rental_uris":{"android":"levelo://app?vid=1393e48a-5096-48c2-8ef4-ef737b7b43ae","ios":"levelo://app?vid=1393e48a-5096-48c2-8ef4-ef737b7b43ae"},"vehicle_type_id":"4","last_reported":1740694099,"current_range_meters":12400,"station_id":"ce4bhm12rcd13ifvqgkg","pricing_plan_id":"cebpf4jnsgd1na2vs0mg"},{"bike_id":"576577ec-e3eb-4409-9937-72761e8d846e","system_id":"levelo_inurba_marseille","lat":43.31162,"lon":5.38713,"is_reserved":false,"is_disabled":false,"rental_uris":{"android":"levelo://app?vid=576577ec-e3eb-4409-9937-72761e8d846e","ios":"levelo://app?vid=576577ec-e3eb-4409-9937-72761e8d846e"},"vehicle_type_id":"4","last_reported":1740694099,"current_range_meters":12400,"station_id":"ce4bgv12rcd13ifvqcp0","pricing_plan_id":"cebpf4jnsgd1na2vs0mg"},{"bike_id":"d5993554-0cf9-4011-b623-59aa562e81b3","system_id":"levelo_inurba_marseille","lat":43.28104,"lon":5.37855,"is_reserved":false,"is_disabled":false,"rental_uris":{"android":"levelo://app?vid=d5993554-0cf9-4011-b623-59aa562e81b3","ios":"levelo://app?vid=d5993554-0cf9-4011-b623-59aa562e81b3"},"vehicle_type_id":"4","last_reported":1740694099,"current_range_meters":12400,"station_id":"ce4bha12rcd13ifvqee0","pricing_plan_id":"cebpf4jnsgd1na2vs0mg"},{"bike_id":"3d06ad03-608d-41a3-9db1-86aaa1692ce2","system_id":"levelo_inurba_marseille","lat":43.29724,"lon":5.3663,"is_reserved":false,"is_disabled":false,"rental_uris":{"android":"levelo://app?vid=3d06ad03-608d-41a3-9db1-86aaa1692ce2","ios":"levelo://app?vid=3d06ad03-608d-41a3-9db1-86aaa1692ce2"},"vehicle_type_id":"4","last_reported":1740694099,"current_range_meters":12800,"station_id":"ce4bgn12rcd13ifvqbt0","pricing_plan_id":"cebpf4jnsgd1na2vs0mg"},{"bike_id":"f0597e46-1a53-4ff5-82fc-707d6a81a713","system_id":"levelo_inurba_marseille","lat":43.3079,"lon":5.38153,"is_reserved":false,"is_disabled":false,"rental_uris":{"android":"levelo://app?vid=f0597e46-1a53-4ff5-82fc-707d6a81a713","ios":"levelo://app?vid=f0597e46-1a53-4ff5-82fc-707d6a81a713"},"vehicle_type_id":"4","last_reported":1740694099,"current_range_meters":12800,"station_id":"ce4bgt12rcd13ifvqce0","pricing_plan_id":"cebpf4jnsgd1na2vs0mg"},{"bike_id":"6bf62df5-9f2c-4676-be2e-3425368f3119","system_id":"levelo_inurba_marseille","lat":43.29322,"lon":5.38248,"is_reserved":false,"is_disabled":false,"rental_uris":{"android":"levelo://app?vid=6bf62df5-9f2c-4676-be2e-3425368f3119","ios":"levelo://app?vid=6bf62df5-9f2c-4676-be2e-3425368f3119"},"vehicle_type_id":"4","last_reported":1740694099,"current_range_meters":12400,"station_id":"","pricing_plan_id":"cebpf4jnsgd1na2vs0mg"},{"bike_id":"e10ba27d-a447-4e57-8195-ae82d699bfa0","system_id":"levelo_inurba_marseille","lat":43.31115,"lon":5.37762,"is_reserved":false,"is_disabled":false,"rental_uris":{"android":"levelo://app?vid=e10ba27d-a447-4e57-8195-ae82d699bfa0","ios":"levelo://app?vid=e10ba27d-a447-4e57-8195-ae82d699bfa0"},"vehicle_type_id":"4","last_reported":1740694099,"current_range_meters":14800,"station_id":"ce4bgt92rcd13ifvqcg0","pricing_plan_id":"cebpf4jnsgd1na2vs0mg"},{"bike_id":"074c2cfc-d4ac-4214-9099-40034921ab92","system_id":"levelo_inurba_marseille","lat":43.29422,"lon":5.3862,"is_reserved":false,"is_disabled":false,"rental_uris":{"android":"levelo://app?vid=074c2cfc-d4ac-4214-9099-40034921ab92","ios":"levelo://app?vid=074c2cfc-d4ac-4214-9099-40034921ab92"},"vehicle_type_id":"4","last_reported":1740694099,"current_range_meters":12400,"station_id":"ce4bh2h2rcd13ifvqdh0","pricing_plan_id":"cebpf4jnsgd1na2vs0mg"},{"bike_id":"07a70f40-d064-434b-83aa-228acdf7dd53","system_id":"levelo_inurba_marseille","lat":43.23185,"lon":5.40028,"is_reserved":false,"is_disabled":false,"rental_uris":{"android":"levelo://app?vid=07a70f40-d064-434b-83aa-228acdf7dd53","ios":"levelo://app?vid=07a70f40-d064-434b-83aa-228acdf7dd53"},"vehicle_type_id":"4","last_reported":1740694099,"current_range_meters":12800,"station_id":"ce4bhn12rcd13ifvqgqg","pricing_plan_id":"cebpf4jnsgd1na2vs0mg"},{"bike_id":"4faa25b2-6d20-4258-a63e-5adea7aec14e","system_id":"levelo_inurba_marseille","lat":43.28473,"lon":5.35892,"is_reserved":false,"is_disabled":true,"rental_uris":{"android":"levelo://app?vid=4faa25b2-6d20-4258-a63e-5adea7aec14e","ios":"levelo://app?vid=4faa25b2-6d20-4258-a63e-5adea7aec14e"},"vehicle_type_id":"4","last_reported":1740694099,"current_range_meters":13600,"station_id":"ce4bhah2rcd13ifvqei0","pricing_plan_id":"cebpf4jnsgd1na2vs0mg"},{"bike_id":"10b6c0d0-a3ef-460e-ad30-22fe050ad6b8","system_id":"levelo_inurba_marseille","lat":43.28833,"lon":5.35883,"is_reserved":false,"is_disabled":false,"rental_uris":{"android":"levelo://app?vid=10b6c0d0-a3ef-460e-ad30-22fe050ad6b8","ios":"levelo://app?vid=10b6c0d0-a3ef-460e-ad30-22fe050ad6b8"},"vehicle_type_id":"4","last_reported":1740694099,"current_range_meters":12800,"station_id":"ce4bhb12rcd13ifvqem0","pricing_plan_id":"cebpf4jnsgd1na2vs0mg"},{"bike_id":"7b2168bf-cc79-4f74-99d5-2d042a76e474","system_id":"levelo_inurba_marseille","lat":43.30582,"lon":5.39355,"is_reserved":false,"is_disabled":false,"rental_uris":{"android":"levelo://app?vid=7b2168bf-cc79-4f74-99d5-2d042a76e474","ios":"levelo://app?vid=7b2168bf-cc79-4f74-99d5-2d042a76e474"},"vehicle_type_id":"4","last_reported":1740694099,"current_range_meters":12800,"station_id":"ce4bh0p2rcd13ifvqd80","pricing_plan_id":"cebpf4jnsgd1na2vs0mg"},{"bike_id":"20d08730-d04f-482a-9ed2-1d3e29b92784","system_id":"levelo_inurba_marseille","lat":43.32361,"lon":5.38877,"is_reserved":false,"is_disabled":false,"rental_uris":{"android":"levelo://app?vid=20d08730-d04f-482a-9ed2-1d3e29b92784","ios":"levelo://app?vid=20d08730-d04f-482a-9ed2-1d3e29b92784"},"vehicle_type_id":"4","last_reported":1740694099,"current_range_meters":13600,"station_id":"ce4bhqp2rcd13ifvqhog","pricing_plan_id":"cebpf4jnsgd1na2vs0mg"},{"bike_id":"e83bf39b-4146-4202-86eb-1ca42f77b26a","system_id":"levelo_inurba_marseille","lat":43.2511,"lon":5.40321,"is_reserved":false,"is_disabled":false,"rental_uris":{"android":"levelo://app?vid=e83bf39b-4146-4202-86eb-1ca42f77b26a","ios":"levelo://app?vid=e83bf39b-4146-4202-86eb-1ca42f77b26a"},"vehicle_type_id":"4","last_reported":1740694099,"current_range_meters":13600,"station_id":"ce4bhlh2rcd13ifvqgig","pricing_plan_id":"cebpf4jnsgd1na2vs0mg"},{"bike_id":"ef77bf7f-5b88-41c9-8d3b-c8c9c0447dd9","system_id":"levelo_inurba_marseille","lat":43.28071,"lon":5.35081,"is_reserved":false,"is_disabled":false,"rental_uris":{"android":"levelo://app?vid=ef77bf7f-5b88-41c9-8d3b-c8c9c0447dd9","ios":"levelo://app?vid=ef77bf7f-5b88-41c9-8d3b-c8c9c0447dd9"},"vehicle_type_id":"4","last_reported":1740694099,"current_range_meters":13600,"station_id":"","pricing_plan_id":"cebpf4jnsgd1na2vs0mg"},{"bike_id":"5b28cd77-a409-482f-8702-f764eef9151e","system_id":"levelo_inurba_marseille","lat":43.259308,"lon":5.40911,"is_reserved":false,"is_disabled":true,"rental_uris":{"android":"levelo://app?vid=5b28cd77-a409-482f-8702-f764eef9151e","ios":"levelo://app?vid=5b28cd77-a409-482f-8702-f764eef9151e"},"vehicle_type_id":"4","last_reported":1740694099,"current_range_meters":13600,"station_id":"ce4bhm92rcd13ifvqglg","pricing_plan_id":"cebpf4jnsgd1na2vs0mg"},{"bike_id":"11c3bb28-0881-4ad9-8c9c-f86e73594432","system_id":"levelo_inurba_marseille","lat":43.28469,"lon":5.35888,"is_reserved":false,"is_disabled":false,"rental_uris":{"android":"levelo://app?vid=11c3bb28-0881-4ad9-8c9c-f86e73594432","ios":"levelo://app?vid=11c3bb28-0881-4ad9-8c9c-f86e73594432"},"vehicle_type_id":"4","last_reported":1740694099,"current_range_meters":13600,"station_id":"ce4bhah2rcd13ifvqei0","pricing_plan_id":"cebpf4jnsgd1na2vs0mg"},{"bike_id":"8f678c7f-cb2d-4b02-939d-384b0cfded7e","system_id":"levelo_inurba_marseille","lat":43.28708,"lon":5.37398,"is_reserved":false,"is_disabled":false,"rental_uris":{"android":"levelo://app?vid=8f678c7f-cb2d-4b02-939d-384b0cfded7e","ios":"levelo://app?vid=8f678c7f-cb2d-4b02-939d-384b0cfded7e"},"vehicle_type_id":"4","last_reported":1740694099,"current_range_meters":12800,"station_id":"ce4bh3p2rcd13ifvqdq0","pricing_plan_id":"cebpf4jnsgd1na2vs0mg"},{"bike_id":"d4918d6a-5525-4be8-b0c4-7af64b54343d","system_id":"levelo_inurba_marseille","lat":43.24167,"lon":5.36416,"is_reserved":false,"is_disabled":false,"rental_uris":{"android":"levelo://app?vid=d4918d6a-5525-4be8-b0c4-7af64b54343d","ios":"levelo://app?vid=d4918d6a-5525-4be8-b0c4-7af64b54343d"},"vehicle_type_id":"4","last_reported":1740694099,"current_range_meters":13600,"station_id":"cpo36qri1sfpv3e86is0","pricing_plan_id":"cebpf4jnsgd1na2vs0mg"},{"bike_id":"25818f4f-1e4b-4bc2-a837-9ec3fa292d1a","system_id":"levelo_inurba_marseille","lat":43.25111,"lon":5.40322,"is_reserved":false,"is_disabled":false,"rental_uris":{"android":"levelo://app?vid=25818f4f-1e4b-4bc2-a837-9ec3fa292d1a","ios":"levelo://app?vid=25818f4f-1e4b-4bc2-a837-9ec3fa292d1a"},"vehicle_type_id":"4","last_reported":1740694099,"current_range_meters":14000,"station_id":"ce4bhlh2rcd13ifvqgig","pricing_plan_id":"cebpf4jnsgd1na2vs0mg"},{"bike_id":"21d163b0-76d6-433d-af00-7c1303f28c95","system_id":"levelo_inurba_marseille","lat":43.28408,"lon":5.37534,"is_reserved":false,"is_disabled":false,"rental_uris":{"android":"levelo://app?vid=21d163b0-76d6-433d-af00-7c1303f28c95","ios":"levelo://app?vid=21d163b0-76d6-433d-af00-7c1303f28c95"},"vehicle_type_id":"4","last_reported":1740694099,"current_range_meters":13600,"station_id":"ce4bh412rcd13ifvqds0","pricing_plan_id":"cebpf4jnsgd1na2vs0mg"},{"bike_id":"8a2b2f20-0976-460d-9f48-153b30f7604e","system_id":"levelo_inurba_marseille","lat":43.29416,"lon":5.38628,"is_reserved":false,"is_disabled":false,"rental_uris":{"android":"levelo://app?vid=8a2b2f20-0976-460d-9f48-153b30f7604e","ios":"levelo://app?vid=8a2b2f20-0976-460d-9f48-153b30f7604e"},"vehicle_type_id":"4","last_reported":1740694099,"current_range_meters":13600,"station_id":"ce4bh2h2rcd13ifvqdh0","pricing_plan_id":"cebpf4jnsgd1na2vs0mg"},{"bike_id":"199d096e-ca37-47f9-963f-1f0656cac9e4","system_id":"levelo_inurba_marseille","lat":43.25826,"lon":5.39435,"is_reserved":false,"is_disabled":false,"rental_uris":{"android":"levelo://app?vid=199d096e-ca37-47f9-963f-1f0656cac9e4","ios":"levelo://app?vid=199d096e-ca37-47f9-963f-1f0656cac9e4"},"vehicle_type_id":"4","last_reported":1740694099,"current_range_meters":14000,"station_id":"ce4bhip2rcd13ifvqft0","pricing_plan_id":"cebpf4jnsgd1na2vs0mg"},{"bike_id":"149f1135-346c-41b3-b1dc-319c0851d633","system_id":"levelo_inurba_marseille","lat":43.2873,"lon":5.36087,"is_reserved":false,"is_disabled":false,"rental_uris":{"android":"levelo://app?vid=149f1135-346c-41b3-b1dc-319c0851d633","ios":"levelo://app?vid=149f1135-346c-41b3-b1dc-319c0851d633"},"vehicle_type_id":"4","last_reported":1740694099,"current_range_meters":13600,"station_id":"cki0cbj6b192h4jlfktg","pricing_plan_id":"cebpf4jnsgd1na2vs0mg"},{"bike_id":"87f4694a-7002-40c0-9a0e-2123fd36309b","system_id":"levelo_inurba_marseille","lat":43.28987,"lon":5.35587,"is_reserved":false,"is_disabled":false,"rental_uris":{"android":"levelo://app?vid=87f4694a-7002-40c0-9a0e-2123fd36309b","ios":"levelo://app?vid=87f4694a-7002-40c0-9a0e-2123fd36309b"},"vehicle_type_id":"4","last_reported":1740694099,"current_range_meters":14000,"station_id":"ce4bhb92rcd13ifvqen0","pricing_plan_id":"cebpf4jnsgd1na2vs0mg"},{"bike_id":"6f08793c-0e13-4755-8250-eb14e46e9c0b","system_id":"levelo_inurba_marseille","lat":43.2318,"lon":5.39984,"is_reserved":false,"is_disabled":false,"rental_uris":{"android":"levelo://app?vid=6f08793c-0e13-4755-8250-eb14e46e9c0b","ios":"levelo://app?vid=6f08793c-0e13-4755-8250-eb14e46e9c0b"},"vehicle_type_id":"4","last_reported":1740694099,"current_range_meters":13600,"station_id":"ce4bhn12rcd13ifvqgqg","pricing_plan_id":"cebpf4jnsgd1na2vs0mg"},{"bike_id":"dd056faa-2771-4c25-b712-8ececdb8e421","system_id":"levelo_inurba_marseille","lat":43.28462,"lon":5.35889,"is_reserved":false,"is_disabled":false,"rental_uris":{"android":"levelo://app?vid=dd056faa-2771-4c25-b712-8ececdb8e421","ios":"levelo://app?vid=dd056faa-2771-4c25-b712-8ececdb8e421"},"vehicle_type_id":"4","last_reported":1740694099,"current_range_meters":13600,"station_id":"ce4bhah2rcd13ifvqei0","pricing_plan_id":"cebpf4jnsgd1na2vs0mg"},{"bike_id":"7f813861-dc21-44f2-975d-21a8e426f2c4","system_id":"levelo_inurba_marseille","lat":43.29322,"lon":5.37152,"is_reserved":false,"is_disabled":false,"rental_uris":{"android":"levelo://app?vid=7f813861-dc21-44f2-975d-21a8e426f2c4","ios":"levelo://app?vid=7f813861-dc21-44f2-975d-21a8e426f2c4"},"vehicle_type_id":"4","last_reported":1740694099,"current_range_meters":14000,"station_id":"ce4bgh92rcd13ifvqb40","pricing_plan_id":"cebpf4jnsgd1na2vs0mg"},{"bike_id":"0771be02-e3e2-47da-b3c9-86df7888c832","system_id":"levelo_inurba_marseille","lat":43.29222,"lon":5.36085,"is_reserved":false,"is_disabled":false,"rental_uris":{"android":"levelo://app?vid=0771be02-e3e2-47da-b3c9-86df7888c832","ios":"levelo://app?vid=0771be02-e3e2-47da-b3c9-86df7888c832"},"vehicle_type_id":"4","last_reported":1740694099,"current_range_meters":14000,"station_id":"ce4bhbh2rcd13ifvqeqg","pricing_plan_id":"cebpf4jnsgd1na2vs0mg"},{"bike_id":"6f28d17e-fa28-4cd3-91a2-81abc0f7ea2a","system_id":"levelo_inurba_marseille","lat":43.28461,"lon":5.35876,"is_reserved":false,"is_disabled":false,"rental_uris":{"android":"levelo://app?vid=6f28d17e-fa28-4cd3-91a2-81abc0f7ea2a","ios":"levelo://app?vid=6f28d17e-fa28-4cd3-91a2-81abc0f7ea2a"},"vehicle_type_id":"4","last_reported":1740694099,"current_range_meters":14000,"station_id":"ce4bhah2rcd13ifvqei0","pricing_plan_id":"cebpf4jnsgd1na2vs0mg"},{"bike_id":"c79fd38c-414f-4423-a605-35db09b2b76b","system_id":"levelo_inurba_marseille","lat":43.2406,"lon":5.3776,"is_reserved":false,"is_disabled":false,"rental_uris":{"android":"levelo://app?vid=c79fd38c-414f-4423-a605-35db09b2b76b","ios":"levelo://app?vid=c79fd38c-414f-4423-a605-35db09b2b76b"},"vehicle_type_id":"4","last_reported":1740694099,"current_range_meters":14000,"station_id":"ce4bhnp2rcd13ifvqgvg","pricing_plan_id":"cebpf4jnsgd1na2vs0mg"},{"bike_id":"a4c22857-6480-465b-b474-1cc963b1061a","system_id":"levelo_inurba_marseille","lat":43.26058,"lon":5.39402,"is_reserved":false,"is_disabled":false,"rental_uris":{"android":"levelo://app?vid=a4c22857-6480-465b-b474-1cc963b1061a","ios":"levelo://app?vid=a4c22857-6480-465b-b474-1cc963b1061a"},"vehicle_type_id":"4","last_reported":1740694099,"current_range_meters":14000,"station_id":"ce4bhh92rcd13ifvqfj0","pricing_plan_id":"cebpf4jnsgd1na2vs0mg"},{"bike_id":"d6eac1e4-94c7-4b0a-b122-2daa16ebae64","system_id":"levelo_inurba_marseille","lat":43.32361,"lon":5.38881,"is_reserved":false,"is_disabled":false,"rental_uris":{"android":"levelo://app?vid=d6eac1e4-94c7-4b0a-b122-2daa16ebae64","ios":"levelo://app?vid=d6eac1e4-94c7-4b0a-b122-2daa16ebae64"},"vehicle_type_id":"4","last_reported":1740694099,"current_range_meters":14400,"station_id":"ce4bhqp2rcd13ifvqhog","pricing_plan_id":"cebpf4jnsgd1na2vs0mg"},{"bike_id":"1330b958-b6d2-49bf-a381-4306479aa4e8","system_id":"levelo_inurba_marseille","lat":43.287,"lon":5.39972,"is_reserved":false,"is_disabled":false,"rental_uris":{"android":"levelo://app?vid=1330b958-b6d2-49bf-a381-4306479aa4e8","ios":"levelo://app?vid=1330b958-b6d2-49bf-a381-4306479aa4e8"},"vehicle_type_id":"4","last_reported":1740694099,"current_range_meters":14400,"station_id":"ce4bho92rcd13ifvqh3g","pricing_plan_id":"cebpf4jnsgd1na2vs0mg"},{"bike_id":"7562303f-eb2b-41bb-be54-db23a576d5e8","system_id":"levelo_inurba_marseille","lat":43.28615,"lon":5.35093,"is_reserved":false,"is_disabled":false,"rental_uris":{"android":"levelo://app?vid=7562303f-eb2b-41bb-be54-db23a576d5e8","ios":"levelo://app?vid=7562303f-eb2b-41bb-be54-db23a576d5e8"},"vehicle_type_id":"4","last_reported":1740694099,"current_range_meters":14400,"station_id":"ce4bhch2rcd13ifvqeug","pricing_plan_id":"cebpf4jnsgd1na2vs0mg"},{"bike_id":"07e562af-4bef-47f8-a85e-d84ded116372","system_id":"levelo_inurba_marseille","lat":43.28081,"lon":5.39646,"is_reserved":false,"is_disabled":false,"rental_uris":{"android":"levelo://app?vid=07e562af-4bef-47f8-a85e-d84ded116372","ios":"levelo://app?vid=07e562af-4bef-47f8-a85e-d84ded116372"},"vehicle_type_id":"4","last_reported":1740694099,"current_range_meters":14400,"station_id":"ce4bho12rcd13ifvqh2g","pricing_plan_id":"cebpf4jnsgd1na2vs0mg"},{"bike_id":"2f9f99a2-13fd-4e67-b6f6-cde754ec372e","system_id":"levelo_inurba_marseille","lat":43.29007,"lon":5.35601,"is_reserved":false,"is_disabled":false,"rental_uris":{"android":"levelo://app?vid=2f9f99a2-13fd-4e67-b6f6-cde754ec372e","ios":"levelo://app?vid=2f9f99a2-13fd-4e67-b6f6-cde754ec372e"},"vehicle_type_id":"4","last_reported":1740694099,"current_range_meters":14800,"station_id":"ce4bhb92rcd13ifvqen0","pricing_plan_id":"cebpf4jnsgd1na2vs0mg"},{"bike_id":"3f5e4c77-943b-4a46-b257-614bf13afec4","system_id":"levelo_inurba_marseille","lat":43.2417,"lon":5.364,"is_reserved":false,"is_disabled":false,"rental_uris":{"android":"levelo://app?vid=3f5e4c77-943b-4a46-b257-614bf13afec4","ios":"levelo://app?vid=3f5e4c77-943b-4a46-b257-614bf13afec4"},"vehicle_type_id":"4","last_reported":1740694099,"current_range_meters":14800,"station_id":"cpo36qri1sfpv3e86is0","pricing_plan_id":"cebpf4jnsgd1na2vs0mg"},{"bike_id":"43d6aa6f-20c7-4a1b-bcb8-31b660876567","system_id":"levelo_inurba_marseille","lat":43.26556,"lon":5.37315,"is_reserved":false,"is_disabled":false,"rental_uris":{"android":"levelo://app?vid=43d6aa6f-20c7-4a1b-bcb8-31b660876567","ios":"levelo://app?vid=43d6aa6f-20c7-4a1b-bcb8-31b660876567"},"vehicle_type_id":"4","last_reported":1740694099,"current_range_meters":15200,"station_id":"ce4bhg12rcd13ifvqf70","pricing_plan_id":"cebpf4jnsgd1na2vs0mg"},{"bike_id":"6595611a-6359-473b-9dc7-a962304b4cdd","system_id":"levelo_inurba_marseille","lat":43.29695,"lon":5.36593,"is_reserved":false,"is_disabled":false,"rental_uris":{"android":"levelo://app?vid=6595611a-6359-473b-9dc7-a962304b4cdd","ios":"levelo://app?vid=6595611a-6359-473b-9dc7-a962304b4cdd"},"vehicle_type_id":"4","last_reported":1740694099,"current_range_meters":14800,"station_id":"ce4bgn12rcd13ifvqbt0","pricing_plan_id":"cebpf4jnsgd1na2vs0mg"},{"bike_id":"7e9d22d9-ba51-4803-b02f-7c33cef12f33","system_id":"levelo_inurba_marseille","lat":43.28391,"lon":5.37526,"is_reserved":false,"is_disabled":false,"rental_uris":{"android":"levelo://app?vid=7e9d22d9-ba51-4803-b02f-7c33cef12f33","ios":"levelo://app?vid=7e9d22d9-ba51-4803-b02f-7c33cef12f33"},"vehicle_type_id":"4","last_reported":1740694099,"current_range_meters":15200,"station_id":"ce4bh412rcd13ifvqds0","pricing_plan_id":"cebpf4jnsgd1na2vs0mg"},{"bike_id":"2f91263b-4140-45ba-b863-8ee643bb1795","system_id":"levelo_inurba_marseille","lat":43.30787,"lon":5.37639,"is_reserved":false,"is_disabled":false,"rental_uris":{"android":"levelo://app?vid=2f91263b-4140-45ba-b863-8ee643bb1795","ios":"levelo://app?vid=2f91263b-4140-45ba-b863-8ee643bb1795"},"vehicle_type_id":"4","last_reported":1740694099,"current_range_meters":16400,"station_id":"ce4bgv92rcd13ifvqcq0","pricing_plan_id":"cebpf4jnsgd1na2vs0mg"},{"bike_id":"07716cd5-aa06-4ec2-be21-a681b685518f","system_id":"levelo_inurba_marseille","lat":43.26209,"lon":5.42045,"is_reserved":false,"is_disabled":false,"rental_uris":{"android":"levelo://app?vid=07716cd5-aa06-4ec2-be21-a681b685518f","ios":"levelo://app?vid=07716cd5-aa06-4ec2-be21-a681b685518f"},"vehicle_type_id":"4","last_reported":1740694099,"current_range_meters":16000,"station_id":"","pricing_plan_id":"cebpf4jnsgd1na2vs0mg"},{"bike_id":"6d428432-8be2-47ad-b84d-a58bf7f395bd","system_id":"levelo_inurba_marseille","lat":43.28946,"lon":5.36404,"is_reserved":false,"is_disabled":false,"rental_uris":{"android":"levelo://app?vid=6d428432-8be2-47ad-b84d-a58bf7f395bd","ios":"levelo://app?vid=6d428432-8be2-47ad-b84d-a58bf7f395bd"},"vehicle_type_id":"4","last_reported":1740694099,"current_range_meters":16000,"station_id":"ce4bhc92rcd13ifvqetg","pricing_plan_id":"cebpf4jnsgd1na2vs0mg"},{"bike_id":"94fc79a4-4884-4101-8aeb-357625bbbbad","system_id":"levelo_inurba_marseille","lat":43.27811,"lon":5.40708,"is_reserved":false,"is_disabled":false,"rental_uris":{"android":"levelo://app?vid=94fc79a4-4884-4101-8aeb-357625bbbbad","ios":"levelo://app?vid=94fc79a4-4884-4101-8aeb-357625bbbbad"},"vehicle_type_id":"4","last_reported":1740694099,"current_range_meters":16000,"station_id":"ce4bhnh2rcd13ifvqgtg","pricing_plan_id":"cebpf4jnsgd1na2vs0mg"},{"bike_id":"15204670-483e-4adc-adc6-2fb8bc37754c","system_id":"levelo_inurba_marseille","lat":43.25824,"lon":5.39435,"is_reserved":false,"is_disabled":false,"rental_uris":{"android":"levelo://app?vid=15204670-483e-4adc-adc6-2fb8bc37754c","ios":"levelo://app?vid=15204670-483e-4adc-adc6-2fb8bc37754c"},"vehicle_type_id":"4","last_reported":1740694099,"current_range_meters":16000,"station_id":"ce4bhip2rcd13ifvqft0","pricing_plan_id":"cebpf4jnsgd1na2vs0mg"},{"bike_id":"0ebffcee-3697-4987-8cfd-ce56c427abfe","system_id":"levelo_inurba_marseille","lat":43.284545,"lon":5.35898,"is_reserved":false,"is_disabled":false,"rental_uris":{"android":"levelo://app?vid=0ebffcee-3697-4987-8cfd-ce56c427abfe","ios":"levelo://app?vid=0ebffcee-3697-4987-8cfd-ce56c427abfe"},"vehicle_type_id":"4","last_reported":1740694099,"current_range_meters":16000,"station_id":"ce4bhah2rcd13ifvqei0","pricing_plan_id":"cebpf4jnsgd1na2vs0mg"},{"bike_id":"a9757b2e-0188-4e2f-9062-079c74f7d4d4","system_id":"levelo_inurba_marseille","lat":43.25577,"lon":5.38246,"is_reserved":false,"is_disabled":false,"rental_uris":{"android":"levelo://app?vid=a9757b2e-0188-4e2f-9062-079c74f7d4d4","ios":"levelo://app?vid=a9757b2e-0188-4e2f-9062-079c74f7d4d4"},"vehicle_type_id":"4","last_reported":1740694099,"current_range_meters":16400,"station_id":"ce4bhih2rcd13ifvqfs0","pricing_plan_id":"cebpf4jnsgd1na2vs0mg"},{"bike_id":"6c03af07-43d6-40b5-b0cf-7c33497afc57","system_id":"levelo_inurba_marseille","lat":43.2864,"lon":5.35089,"is_reserved":false,"is_disabled":false,"rental_uris":{"android":"levelo://app?vid=6c03af07-43d6-40b5-b0cf-7c33497afc57","ios":"levelo://app?vid=6c03af07-43d6-40b5-b0cf-7c33497afc57"},"vehicle_type_id":"4","last_reported":1740694099,"current_range_meters":16000,"station_id":"ce4bhch2rcd13ifvqeug","pricing_plan_id":"cebpf4jnsgd1na2vs0mg"},{"bike_id":"1aea0dde-a7bb-4730-8e2c-695419b49399","system_id":"levelo_inurba_marseille","lat":43.32364,"lon":5.38901,"is_reserved":false,"is_disabled":false,"rental_uris":{"android":"levelo://app?vid=1aea0dde-a7bb-4730-8e2c-695419b49399","ios":"levelo://app?vid=1aea0dde-a7bb-4730-8e2c-695419b49399"},"vehicle_type_id":"4","last_reported":1740694099,"current_range_meters":16400,"station_id":"ce4bhqp2rcd13ifvqhog","pricing_plan_id":"cebpf4jnsgd1na2vs0mg"},{"bike_id":"24476cb6-9c12-4997-ab8d-8cfe9d8b4bb4","system_id":"levelo_inurba_marseille","lat":43.28641,"lon":5.35107,"is_reserved":false,"is_disabled":false,"rental_uris":{"android":"levelo://app?vid=24476cb6-9c12-4997-ab8d-8cfe9d8b4bb4","ios":"levelo://app?vid=24476cb6-9c12-4997-ab8d-8cfe9d8b4bb4"},"vehicle_type_id":"4","last_reported":1740694099,"current_range_meters":16400,"station_id":"ce4bhch2rcd13ifvqeug","pricing_plan_id":"cebpf4jnsgd1na2vs0mg"},{"bike_id":"a9fe017d-ff3b-4e9a-afb1-fb86b07266b9","system_id":"levelo_inurba_marseille","lat":43.31278,"lon":5.40161,"is_reserved":false,"is_disabled":false,"rental_uris":{"android":"levelo://app?vid=a9fe017d-ff3b-4e9a-afb1-fb86b07266b9","ios":"levelo://app?vid=a9fe017d-ff3b-4e9a-afb1-fb86b07266b9"},"vehicle_type_id":"4","last_reported":1740694099,"current_range_meters":16400,"station_id":"ce4bh092rcd13ifvqd30","pricing_plan_id":"cebpf4jnsgd1na2vs0mg"},{"bike_id":"b6ab9a61-8985-4d83-8f2e-45b4984d4c17","system_id":"levelo_inurba_marseille","lat":43.29261,"lon":5.37624,"is_reserved":false,"is_disabled":false,"rental_uris":{"android":"levelo://app?vid=b6ab9a61-8985-4d83-8f2e-45b4984d4c17","ios":"levelo://app?vid=b6ab9a61-8985-4d83-8f2e-45b4984d4c17"},"vehicle_type_id":"4","last_reported":1740694099,"current_range_meters":16400,"station_id":"ce4bgi12rcd13ifvqb80","pricing_plan_id":"cebpf4jnsgd1na2vs0mg"},{"bike_id":"6d500a3d-5e3c-47d2-9506-669c8a5bda5f","system_id":"levelo_inurba_marseille","lat":43.2558,"lon":5.38229,"is_reserved":false,"is_disabled":false,"rental_uris":{"android":"levelo://app?vid=6d500a3d-5e3c-47d2-9506-669c8a5bda5f","ios":"levelo://app?vid=6d500a3d-5e3c-47d2-9506-669c8a5bda5f"},"vehicle_type_id":"4","last_reported":1740694099,"current_range_meters":16000,"station_id":"ce4bhih2rcd13ifvqfs0","pricing_plan_id":"cebpf4jnsgd1na2vs0mg"},{"bike_id":"a0c81a83-801a-437a-a972-936c35c35ec0","system_id":"levelo_inurba_marseille","lat":43.27069,"lon":5.42277,"is_reserved":false,"is_disabled":false,"rental_uris":{"android":"levelo://app?vid=a0c81a83-801a-437a-a972-936c35c35ec0","ios":"levelo://app?vid=a0c81a83-801a-437a-a972-936c35c35ec0"},"vehicle_type_id":"4","last_reported":1740694099,"current_range_meters":16400,"station_id":"ce4bhk92rcd13ifvqgb0","pricing_plan_id":"cebpf4jnsgd1na2vs0mg"},{"bike_id":"64d5bd85-58b2-4b54-b93c-4a6aef9a8da8","system_id":"levelo_inurba_marseille","lat":43.30567,"lon":5.36535,"is_reserved":false,"is_disabled":true,"rental_uris":{"android":"levelo://app?vid=64d5bd85-58b2-4b54-b93c-4a6aef9a8da8","ios":"levelo://app?vid=64d5bd85-58b2-4b54-b93c-4a6aef9a8da8"},"vehicle_type_id":"4","last_reported":1740694099,"current_range_meters":16400,"station_id":"ce4bgs12rcd13ifvqcag","pricing_plan_id":"cebpf4jnsgd1na2vs0mg"},{"bike_id":"c2f7ada4-e21a-4dd4-99e7-dd57e85c7771","system_id":"levelo_inurba_marseille","lat":43.29022,"lon":5.38126,"is_reserved":false,"is_disabled":false,"rental_uris":{"android":"levelo://app?vid=c2f7ada4-e21a-4dd4-99e7-dd57e85c7771","ios":"levelo://app?vid=c2f7ada4-e21a-4dd4-99e7-dd57e85c7771"},"vehicle_type_id":"4","last_reported":1740694099,"current_range_meters":16400,"station_id":"ce4bh4p2rcd13ifvqe1g","pricing_plan_id":"cebpf4jnsgd1na2vs0mg"},{"bike_id":"41ae3cba-df90-47eb-9185-828aeb3d2ccd","system_id":"levelo_inurba_marseille","lat":43.25582,"lon":5.38235,"is_reserved":false,"is_disabled":false,"rental_uris":{"android":"levelo://app?vid=41ae3cba-df90-47eb-9185-828aeb3d2ccd","ios":"levelo://app?vid=41ae3cba-df90-47eb-9185-828aeb3d2ccd"},"vehicle_type_id":"4","last_reported":1740694099,"current_range_meters":16400,"station_id":"ce4bhih2rcd13ifvqfs0","pricing_plan_id":"cebpf4jnsgd1na2vs0mg"},{"bike_id":"aa1f54c7-8672-4180-8503-98f979ebf2fa","system_id":"levelo_inurba_marseille","lat":43.303127,"lon":5.392187,"is_reserved":false,"is_disabled":false,"rental_uris":{"android":"levelo://app?vid=aa1f54c7-8672-4180-8503-98f979ebf2fa","ios":"levelo://app?vid=aa1f54c7-8672-4180-8503-98f979ebf2fa"},"vehicle_type_id":"4","last_reported":1740694099,"current_range_meters":16000,"station_id":"ce4bh692rcd13ifvqea0","pricing_plan_id":"cebpf4jnsgd1na2vs0mg"},{"bike_id":"1b7744db-8a84-446c-af8d-d1b476f31dfe","system_id":"levelo_inurba_marseille","lat":43.314881,"lon":5.373134,"is_reserved":false,"is_disabled":false,"rental_uris":{"android":"levelo://app?vid=1b7744db-8a84-446c-af8d-d1b476f31dfe","ios":"levelo://app?vid=1b7744db-8a84-446c-af8d-d1b476f31dfe"},"vehicle_type_id":"4","last_reported":1740694099,"current_range_meters":12400,"station_id":"ce4bgrh2rcd13ifvqc8g","pricing_plan_id":"cebpf4jnsgd1na2vs0mg"},{"bike_id":"c6b5f9f2-a258-4f07-9a3b-85dd6cf998c0","system_id":"levelo_inurba_marseille","lat":43.30644,"lon":5.40078,"is_reserved":false,"is_disabled":false,"rental_uris":{"android":"levelo://app?vid=c6b5f9f2-a258-4f07-9a3b-85dd6cf998c0","ios":"levelo://app?vid=c6b5f9f2-a258-4f07-9a3b-85dd6cf998c0"},"vehicle_type_id":"4","last_reported":1740694099,"current_range_meters":16400,"station_id":"ce4bh112rcd13ifvqda0","pricing_plan_id":"cebpf4jnsgd1na2vs0mg"},{"bike_id":"7a49f9e1-5ffc-4171-97d7-e500777d1c5f","system_id":"levelo_inurba_marseille","lat":43.28725,"lon":5.36075,"is_reserved":false,"is_disabled":false,"rental_uris":{"android":"levelo://app?vid=7a49f9e1-5ffc-4171-97d7-e500777d1c5f","ios":"levelo://app?vid=7a49f9e1-5ffc-4171-97d7-e500777d1c5f"},"vehicle_type_id":"4","last_reported":1740694099,"current_range_meters":16400,"station_id":"cki0cbj6b192h4jlfktg","pricing_plan_id":"cebpf4jnsgd1na2vs0mg"},{"bike_id":"1ec95ae8-47b1-46be-ab6f-633627e7d180","system_id":"levelo_inurba_marseille","lat":43.25078,"lon":5.39522,"is_reserved":false,"is_disabled":false,"rental_uris":{"android":"levelo://app?vid=1ec95ae8-47b1-46be-ab6f-633627e7d180","ios":"levelo://app?vid=1ec95ae8-47b1-46be-ab6f-633627e7d180"},"vehicle_type_id":"4","last_reported":1740694099,"current_range_meters":16800,"station_id":"ce4bhm12rcd13ifvqgkg","pricing_plan_id":"cebpf4jnsgd1na2vs0mg"},{"bike_id":"c26b32a3-3bd5-46b8-957b-1fcd1a2d5dce","system_id":"levelo_inurba_marseille","lat":43.29035,"lon":5.37569,"is_reserved":false,"is_disabled":false,"rental_uris":{"android":"levelo://app?vid=c26b32a3-3bd5-46b8-957b-1fcd1a2d5dce","ios":"levelo://app?vid=c26b32a3-3bd5-46b8-957b-1fcd1a2d5dce"},"vehicle_type_id":"4","last_reported":1740694099,"current_range_meters":17200,"station_id":"ce4bh692rcd13ifvqe90","pricing_plan_id":"cebpf4jnsgd1na2vs0mg"},{"bike_id":"f1b000bc-1391-4e94-8493-81416c8d92f8","system_id":"levelo_inurba_marseille","lat":43.29626,"lon":5.40605,"is_reserved":false,"is_disabled":false,"rental_uris":{"android":"levelo://app?vid=f1b000bc-1391-4e94-8493-81416c8d92f8","ios":"levelo://app?vid=f1b000bc-1391-4e94-8493-81416c8d92f8"},"vehicle_type_id":"4","last_reported":1740694099,"current_range_meters":16000,"station_id":"ce4bh0h2rcd13ifvqd60","pricing_plan_id":"cebpf4jnsgd1na2vs0mg"},{"bike_id":"28aa6b62-1966-499c-9c1f-09f1e20fdff5","system_id":"levelo_inurba_marseille","lat":43.29252,"lon":5.38432,"is_reserved":false,"is_disabled":false,"rental_uris":{"android":"levelo://app?vid=28aa6b62-1966-499c-9c1f-09f1e20fdff5","ios":"levelo://app?vid=28aa6b62-1966-499c-9c1f-09f1e20fdff5"},"vehicle_type_id":"4","last_reported":1740694099,"current_range_meters":17200,"station_id":"ce4bh692rcd13ifvqea0","pricing_plan_id":"cebpf4jnsgd1na2vs0mg"},{"bike_id":"cb3707bf-5ae0-4061-b6c8-982588f84b39","system_id":"levelo_inurba_marseille","lat":43.2744,"lon":5.39402,"is_reserved":false,"is_disabled":true,"rental_uris":{"android":"levelo://app?vid=cb3707bf-5ae0-4061-b6c8-982588f84b39","ios":"levelo://app?vid=cb3707bf-5ae0-4061-b6c8-982588f84b39"},"vehicle_type_id":"4","last_reported":1740694099,"current_range_meters":16800,"station_id":"ce4bhdp2rcd13ifvqf20","pricing_plan_id":"cebpf4jnsgd1na2vs0mg"},{"bike_id":"c810fc58-ac89-41e3-a3fd-ec65932311b4","system_id":"levelo_inurba_marseille","lat":43.267814,"lon":5.394158,"is_reserved":false,"is_disabled":false,"rental_uris":{"android":"levelo://app?vid=c810fc58-ac89-41e3-a3fd-ec65932311b4","ios":"levelo://app?vid=c810fc58-ac89-41e3-a3fd-ec65932311b4"},"vehicle_type_id":"4","last_reported":1740694099,"current_range_meters":20400,"station_id":"ce4bgrp2rcd13ifvqc9g","pricing_plan_id":"cebpf4jnsgd1na2vs0mg"},{"bike_id":"7c373590-3fd6-44dc-a774-01671497b545","system_id":"levelo_inurba_marseille","lat":43.28623,"lon":5.35101,"is_reserved":false,"is_disabled":false,"rental_uris":{"android":"levelo://app?vid=7c373590-3fd6-44dc-a774-01671497b545","ios":"levelo://app?vid=7c373590-3fd6-44dc-a774-01671497b545"},"vehicle_type_id":"4","last_reported":1740694099,"current_range_meters":17200,"station_id":"ce4bhch2rcd13ifvqeug","pricing_plan_id":"cebpf4jnsgd1na2vs0mg"},{"bike_id":"382d557d-8024-4f45-8140-482a40d06b19","system_id":"levelo_inurba_marseille","lat":43.27812,"lon":5.40714,"is_reserved":false,"is_disabled":false,"rental_uris":{"android":"levelo://app?vid=382d557d-8024-4f45-8140-482a40d06b19","ios":"levelo://app?vid=382d557d-8024-4f45-8140-482a40d06b19"},"vehicle_type_id":"4","last_reported":1740694099,"current_range_meters":16800,"station_id":"ce4bhnh2rcd13ifvqgtg","pricing_plan_id":"cebpf4jnsgd1na2vs0mg"},{"bike_id":"3ef19255-5c1c-4038-9633-81456dc4addd","system_id":"levelo_inurba_marseille","lat":43.28702,"lon":5.39983,"is_reserved":false,"is_disabled":false,"rental_uris":{"android":"levelo://app?vid=3ef19255-5c1c-4038-9633-81456dc4addd","ios":"levelo://app?vid=3ef19255-5c1c-4038-9633-81456dc4addd"},"vehicle_type_id":"4","last_reported":1740694099,"current_range_meters":16800,"station_id":"ce4bho92rcd13ifvqh3g","pricing_plan_id":"cebpf4jnsgd1na2vs0mg"},{"bike_id":"b4f1c498-5c3f-4907-bdfa-6b4e5dbdb3b3","system_id":"levelo_inurba_marseille","lat":43.28456,"lon":5.35891,"is_reserved":false,"is_disabled":false,"rental_uris":{"android":"levelo://app?vid=b4f1c498-5c3f-4907-bdfa-6b4e5dbdb3b3","ios":"levelo://app?vid=b4f1c498-5c3f-4907-bdfa-6b4e5dbdb3b3"},"vehicle_type_id":"4","last_reported":1740694099,"current_range_meters":17200,"station_id":"ce4bhah2rcd13ifvqei0","pricing_plan_id":"cebpf4jnsgd1na2vs0mg"},{"bike_id":"c002e01b-ff75-4dc7-9d9b-ec32f49c6141","system_id":"levelo_inurba_marseille","lat":43.30315,"lon":5.40452,"is_reserved":false,"is_disabled":false,"rental_uris":{"android":"levelo://app?vid=c002e01b-ff75-4dc7-9d9b-ec32f49c6141","ios":"levelo://app?vid=c002e01b-ff75-4dc7-9d9b-ec32f49c6141"},"vehicle_type_id":"4","last_reported":1740694099,"current_range_meters":17200,"station_id":"ce4bh012rcd13ifvqd10","pricing_plan_id":"cebpf4jnsgd1na2vs0mg"},{"bike_id":"befe9faa-0acf-4473-ac2e-b1a82faba46c","system_id":"levelo_inurba_marseille","lat":43.28945,"lon":5.36383,"is_reserved":false,"is_disabled":false,"rental_uris":{"android":"levelo://app?vid=befe9faa-0acf-4473-ac2e-b1a82faba46c","ios":"levelo://app?vid=befe9faa-0acf-4473-ac2e-b1a82faba46c"},"vehicle_type_id":"4","last_reported":1740694099,"current_range_meters":17200,"station_id":"ce4bhc92rcd13ifvqetg","pricing_plan_id":"cebpf4jnsgd1na2vs0mg"},{"bike_id":"e62e4c2a-07e3-41ea-af00-47fec24e19ec","system_id":"levelo_inurba_marseille","lat":43.28848,"lon":5.3584,"is_reserved":false,"is_disabled":false,"rental_uris":{"android":"levelo://app?vid=e62e4c2a-07e3-41ea-af00-47fec24e19ec","ios":"levelo://app?vid=e62e4c2a-07e3-41ea-af00-47fec24e19ec"},"vehicle_type_id":"4","last_reported":1740694099,"current_range_meters":17200,"station_id":"ce4bhb12rcd13ifvqem0","pricing_plan_id":"cebpf4jnsgd1na2vs0mg"},{"bike_id":"18e38d1d-a58c-4075-8bbd-f0f6c543d878","system_id":"levelo_inurba_marseille","lat":43.29886,"lon":5.38905,"is_reserved":false,"is_disabled":false,"rental_uris":{"android":"levelo://app?vid=18e38d1d-a58c-4075-8bbd-f0f6c543d878","ios":"levelo://app?vid=18e38d1d-a58c-4075-8bbd-f0f6c543d878"},"vehicle_type_id":"4","last_reported":1740694099,"current_range_meters":16800,"station_id":"ce4bh392rcd13ifvqdl0","pricing_plan_id":"cebpf4jnsgd1na2vs0mg"},{"bike_id":"8257347b-29cc-4d11-a952-5c3b319819e9","system_id":"levelo_inurba_marseille","lat":43.30323,"lon":5.40456,"is_reserved":false,"is_disabled":false,"rental_uris":{"android":"levelo://app?vid=8257347b-29cc-4d11-a952-5c3b319819e9","ios":"levelo://app?vid=8257347b-29cc-4d11-a952-5c3b319819e9"},"vehicle_type_id":"4","last_reported":1740694099,"current_range_meters":17200,"station_id":"ce4bh012rcd13ifvqd10","pricing_plan_id":"cebpf4jnsgd1na2vs0mg"},{"bike_id":"364b209e-752e-45ea-b26c-06b2552c1833","system_id":"levelo_inurba_marseille","lat":43.23187,"lon":5.35561,"is_reserved":false,"is_disabled":false,"rental_uris":{"android":"levelo://app?vid=364b209e-752e-45ea-b26c-06b2552c1833","ios":"levelo://app?vid=364b209e-752e-45ea-b26c-06b2552c1833"},"vehicle_type_id":"4","last_reported":1740694099,"current_range_meters":17200,"station_id":"ce4bhu92rcd13ifvqi70","pricing_plan_id":"cebpf4jnsgd1na2vs0mg"},{"bike_id":"da76d32b-b57c-48a6-a0f6-a2a3f2d8fcbc","system_id":"levelo_inurba_marseille","lat":43.29197,"lon":5.39324,"is_reserved":false,"is_disabled":false,"rental_uris":{"android":"levelo://app?vid=da76d32b-b57c-48a6-a0f6-a2a3f2d8fcbc","ios":"levelo://app?vid=da76d32b-b57c-48a6-a0f6-a2a3f2d8fcbc"},"vehicle_type_id":"4","last_reported":1740694099,"current_range_meters":17200,"station_id":"ce4bh192rcd13ifvqdd0","pricing_plan_id":"cebpf4jnsgd1na2vs0mg"},{"bike_id":"3e4abcf6-ec74-4d4d-8722-1baf5799169b","system_id":"levelo_inurba_marseille","lat":43.28402,"lon":5.37542,"is_reserved":false,"is_disabled":false,"rental_uris":{"android":"levelo://app?vid=3e4abcf6-ec74-4d4d-8722-1baf5799169b","ios":"levelo://app?vid=3e4abcf6-ec74-4d4d-8722-1baf5799169b"},"vehicle_type_id":"4","last_reported":1740694099,"current_range_meters":17200,"station_id":"ce4bh412rcd13ifvqds0","pricing_plan_id":"cebpf4jnsgd1na2vs0mg"},{"bike_id":"a566d505-b045-4a65-ba7a-d918659d6e2a","system_id":"levelo_inurba_marseille","lat":43.28665,"lon":5.36317,"is_reserved":false,"is_disabled":false,"rental_uris":{"android":"levelo://app?vid=a566d505-b045-4a65-ba7a-d918659d6e2a","ios":"levelo://app?vid=a566d505-b045-4a65-ba7a-d918659d6e2a"},"vehicle_type_id":"4","last_reported":1740694099,"current_range_meters":17600,"station_id":"ce4bhah2rcd13ifvqej0","pricing_plan_id":"cebpf4jnsgd1na2vs0mg"},{"bike_id":"f919809d-dd9d-4e14-85ef-be2db1b8dd2e","system_id":"levelo_inurba_marseille","lat":43.28451,"lon":5.35901,"is_reserved":false,"is_disabled":false,"rental_uris":{"android":"levelo://app?vid=f919809d-dd9d-4e14-85ef-be2db1b8dd2e","ios":"levelo://app?vid=f919809d-dd9d-4e14-85ef-be2db1b8dd2e"},"vehicle_type_id":"4","last_reported":1740694099,"current_range_meters":18000,"station_id":"ce4bhah2rcd13ifvqei0","pricing_plan_id":"cebpf4jnsgd1na2vs0mg"},{"bike_id":"b8036355-1788-44f5-a88c-c7a204b0c83a","system_id":"levelo_inurba_marseille","lat":43.24074,"lon":5.37762,"is_reserved":false,"is_disabled":false,"rental_uris":{"android":"levelo://app?vid=b8036355-1788-44f5-a88c-c7a204b0c83a","ios":"levelo://app?vid=b8036355-1788-44f5-a88c-c7a204b0c83a"},"vehicle_type_id":"4","last_reported":1740694099,"current_range_meters":18800,"station_id":"ce4bhnp2rcd13ifvqgvg","pricing_plan_id":"cebpf4jnsgd1na2vs0mg"},{"bike_id":"ee641f6b-b968-4ac7-8422-c096dd19cc13","system_id":"levelo_inurba_marseille","lat":43.31708,"lon":5.37774,"is_reserved":false,"is_disabled":false,"rental_uris":{"android":"levelo://app?vid=ee641f6b-b968-4ac7-8422-c096dd19cc13","ios":"levelo://app?vid=ee641f6b-b968-4ac7-8422-c096dd19cc13"},"vehicle_type_id":"4","last_reported":1740694099,"current_range_meters":17600,"station_id":"ce4bgth2rcd13ifvqch0","pricing_plan_id":"cebpf4jnsgd1na2vs0mg"},{"bike_id":"d79774a6-7426-41ac-b7c6-85789974d608","system_id":"levelo_inurba_marseille","lat":43.25582,"lon":5.3825,"is_reserved":false,"is_disabled":false,"rental_uris":{"android":"levelo://app?vid=d79774a6-7426-41ac-b7c6-85789974d608","ios":"levelo://app?vid=d79774a6-7426-41ac-b7c6-85789974d608"},"vehicle_type_id":"4","last_reported":1740694099,"current_range_meters":17600,"station_id":"ce4bhih2rcd13ifvqfs0","pricing_plan_id":"cebpf4jnsgd1na2vs0mg"},{"bike_id":"49e9cdc7-76a5-4b66-ae2d-61c73beb73a8","system_id":"levelo_inurba_marseille","lat":43.24172,"lon":5.36405,"is_reserved":false,"is_disabled":false,"rental_uris":{"android":"levelo://app?vid=49e9cdc7-76a5-4b66-ae2d-61c73beb73a8","ios":"levelo://app?vid=49e9cdc7-76a5-4b66-ae2d-61c73beb73a8"},"vehicle_type_id":"4","last_reported":1740694099,"current_range_meters":17600,"station_id":"cpo36qri1sfpv3e86is0","pricing_plan_id":"cebpf4jnsgd1na2vs0mg"},{"bike_id":"ca4257d9-1e68-482f-a655-fe6e15024e08","system_id":"levelo_inurba_marseille","lat":43.29276,"lon":5.40121,"is_reserved":false,"is_disabled":false,"rental_uris":{"android":"levelo://app?vid=ca4257d9-1e68-482f-a655-fe6e15024e08","ios":"levelo://app?vid=ca4257d9-1e68-482f-a655-fe6e15024e08"},"vehicle_type_id":"4","last_reported":1740694099,"current_range_meters":17600,"station_id":"ce4bh312rcd13ifvqdk0","pricing_plan_id":"cebpf4jnsgd1na2vs0mg"},{"bike_id":"f6afc345-31bf-4a62-b72f-fba337f7ffc1","system_id":"levelo_inurba_marseille","lat":43.29878,"lon":5.39753,"is_reserved":false,"is_disabled":false,"rental_uris":{"android":"levelo://app?vid=f6afc345-31bf-4a62-b72f-fba337f7ffc1","ios":"levelo://app?vid=f6afc345-31bf-4a62-b72f-fba337f7ffc1"},"vehicle_type_id":"4","last_reported":1740694099,"current_range_meters":16800,"station_id":"ce4bh0h2rcd13ifvqd50","pricing_plan_id":"cebpf4jnsgd1na2vs0mg"},{"bike_id":"299e1ac3-a9aa-4f9b-9e64-de9b8db0b77a","system_id":"levelo_inurba_marseille","lat":43.31068,"lon":5.3836,"is_reserved":false,"is_disabled":false,"rental_uris":{"android":"levelo://app?vid=299e1ac3-a9aa-4f9b-9e64-de9b8db0b77a","ios":"levelo://app?vid=299e1ac3-a9aa-4f9b-9e64-de9b8db0b77a"},"vehicle_type_id":"4","last_reported":1740694099,"current_range_meters":17600,"station_id":"ce4bgv92rcd13ifvqcr0","pricing_plan_id":"cebpf4jnsgd1na2vs0mg"},{"bike_id":"ee137681-0010-4a60-9633-c2b6b9d43f5a","system_id":"levelo_inurba_marseille","lat":43.29006,"lon":5.35607,"is_reserved":false,"is_disabled":false,"rental_uris":{"android":"levelo://app?vid=ee137681-0010-4a60-9633-c2b6b9d43f5a","ios":"levelo://app?vid=ee137681-0010-4a60-9633-c2b6b9d43f5a"},"vehicle_type_id":"4","last_reported":1740694099,"current_range_meters":17600,"station_id":"ce4bhb92rcd13ifvqen0","pricing_plan_id":"cebpf4jnsgd1na2vs0mg"},{"bike_id":"7cb5f9ac-368b-45e9-8b10-ae7e339a0f63","system_id":"levelo_inurba_marseille","lat":43.28711,"lon":5.39954,"is_reserved":false,"is_disabled":false,"rental_uris":{"android":"levelo://app?vid=7cb5f9ac-368b-45e9-8b10-ae7e339a0f63","ios":"levelo://app?vid=7cb5f9ac-368b-45e9-8b10-ae7e339a0f63"},"vehicle_type_id":"4","last_reported":1740694099,"current_range_meters":16800,"station_id":"ce4bho92rcd13ifvqh3g","pricing_plan_id":"cebpf4jnsgd1na2vs0mg"},{"bike_id":"9062ad42-18cc-4880-abfa-5d4e6bf94241","system_id":"levelo_inurba_marseille","lat":43.23178,"lon":5.39997,"is_reserved":false,"is_disabled":false,"rental_uris":{"android":"levelo://app?vid=9062ad42-18cc-4880-abfa-5d4e6bf94241","ios":"levelo://app?vid=9062ad42-18cc-4880-abfa-5d4e6bf94241"},"vehicle_type_id":"4","last_reported":1740694099,"current_range_meters":18000,"station_id":"ce4bhn12rcd13ifvqgqg","pricing_plan_id":"cebpf4jnsgd1na2vs0mg"},{"bike_id":"82fd83d3-3e4f-48fd-b3d2-3ee3031d2a44","system_id":"levelo_inurba_marseille","lat":43.29259,"lon":5.38443,"is_reserved":false,"is_disabled":false,"rental_uris":{"android":"levelo://app?vid=82fd83d3-3e4f-48fd-b3d2-3ee3031d2a44","ios":"levelo://app?vid=82fd83d3-3e4f-48fd-b3d2-3ee3031d2a44"},"vehicle_type_id":"4","last_reported":1740694099,"current_range_meters":18000,"station_id":"ce4bh692rcd13ifvqea0","pricing_plan_id":"cebpf4jnsgd1na2vs0mg"},{"bike_id":"8ad7fb09-c3f6-4665-ab30-3798ccc1a132","system_id":"levelo_inurba_marseille","lat":43.29876,"lon":5.38496,"is_reserved":false,"is_disabled":false,"rental_uris":{"android":"levelo://app?vid=8ad7fb09-c3f6-4665-ab30-3798ccc1a132","ios":"levelo://app?vid=8ad7fb09-c3f6-4665-ab30-3798ccc1a132"},"vehicle_type_id":"4","last_reported":1740694099,"current_range_meters":18000,"station_id":"","pricing_plan_id":"cebpf4jnsgd1na2vs0mg"},{"bike_id":"6229df1d-c991-439c-9cd6-f76664c43d9c","system_id":"levelo_inurba_marseille","lat":43.31114,"lon":5.37767,"is_reserved":false,"is_disabled":false,"rental_uris":{"android":"levelo://app?vid=6229df1d-c991-439c-9cd6-f76664c43d9c","ios":"levelo://app?vid=6229df1d-c991-439c-9cd6-f76664c43d9c"},"vehicle_type_id":"4","last_reported":1740694099,"current_range_meters":18000,"station_id":"ce4bgt92rcd13ifvqcg0","pricing_plan_id":"cebpf4jnsgd1na2vs0mg"},{"bike_id":"5bc4067b-edf1-4b5e-ae1a-c4e4a4b4741b","system_id":"levelo_inurba_marseille","lat":43.3111,"lon":5.37758,"is_reserved":false,"is_disabled":false,"rental_uris":{"android":"levelo://app?vid=5bc4067b-edf1-4b5e-ae1a-c4e4a4b4741b","ios":"levelo://app?vid=5bc4067b-edf1-4b5e-ae1a-c4e4a4b4741b"},"vehicle_type_id":"4","last_reported":1740694099,"current_range_meters":19200,"station_id":"ce4bgt92rcd13ifvqcg0","pricing_plan_id":"cebpf4jnsgd1na2vs0mg"},{"bike_id":"09b9b1ba-a68b-4280-a86f-7f7da4e66a6c","system_id":"levelo_inurba_marseille","lat":43.30868,"lon":5.39652,"is_reserved":false,"is_disabled":false,"rental_uris":{"android":"levelo://app?vid=09b9b1ba-a68b-4280-a86f-7f7da4e66a6c","ios":"levelo://app?vid=09b9b1ba-a68b-4280-a86f-7f7da4e66a6c"},"vehicle_type_id":"4","last_reported":1740694099,"current_range_meters":18000,"station_id":"ce4bh012rcd13ifvqcv0","pricing_plan_id":"cebpf4jnsgd1na2vs0mg"},{"bike_id":"2412e7ae-2d2f-4d27-bdd4-af1970882d31","system_id":"levelo_inurba_marseille","lat":43.29287,"lon":5.3842,"is_reserved":false,"is_disabled":false,"rental_uris":{"android":"levelo://app?vid=2412e7ae-2d2f-4d27-bdd4-af1970882d31","ios":"levelo://app?vid=2412e7ae-2d2f-4d27-bdd4-af1970882d31"},"vehicle_type_id":"4","last_reported":1740694099,"current_range_meters":18000,"station_id":"ce4bh692rcd13ifvqea0","pricing_plan_id":"cebpf4jnsgd1na2vs0mg"},{"bike_id":"597c78d8-1097-48db-b3be-fafc8754eab9","system_id":"levelo_inurba_marseille","lat":43.241694,"lon":5.363991,"is_reserved":false,"is_disabled":false,"rental_uris":{"android":"levelo://app?vid=597c78d8-1097-48db-b3be-fafc8754eab9","ios":"levelo://app?vid=597c78d8-1097-48db-b3be-fafc8754eab9"},"vehicle_type_id":"4","last_reported":1740694099,"current_range_meters":18000,"station_id":"cpo36qri1sfpv3e86is0","pricing_plan_id":"cebpf4jnsgd1na2vs0mg"},{"bike_id":"b1fb4062-260d-4bc1-8eb4-2ceabe847377","system_id":"levelo_inurba_marseille","lat":43.29287,"lon":5.38438,"is_reserved":false,"is_disabled":false,"rental_uris":{"android":"levelo://app?vid=b1fb4062-260d-4bc1-8eb4-2ceabe847377","ios":"levelo://app?vid=b1fb4062-260d-4bc1-8eb4-2ceabe847377"},"vehicle_type_id":"4","last_reported":1740694099,"current_range_meters":18000,"station_id":"ce4bh692rcd13ifvqea0","pricing_plan_id":"cebpf4jnsgd1na2vs0mg"},{"bike_id":"ab2cbdfd-18e8-4816-aeda-22028e876c64","system_id":"levelo_inurba_marseille","lat":43.286152,"lon":5.350993,"is_reserved":false,"is_disabled":false,"rental_uris":{"android":"levelo://app?vid=ab2cbdfd-18e8-4816-aeda-22028e876c64","ios":"levelo://app?vid=ab2cbdfd-18e8-4816-aeda-22028e876c64"},"vehicle_type_id":"4","last_reported":1740694099,"current_range_meters":19200,"station_id":"ce4bhch2rcd13ifvqeug","pricing_plan_id":"cebpf4jnsgd1na2vs0mg"},{"bike_id":"e77274da-0eb8-435b-8d04-8170a0e91a50","system_id":"levelo_inurba_marseille","lat":43.282583,"lon":5.350639,"is_reserved":false,"is_disabled":false,"rental_uris":{"android":"levelo://app?vid=e77274da-0eb8-435b-8d04-8170a0e91a50","ios":"levelo://app?vid=e77274da-0eb8-435b-8d04-8170a0e91a50"},"vehicle_type_id":"4","last_reported":1740694099,"current_range_meters":18800,"station_id":"ce4bh0h2rcd13ifvqd50","pricing_plan_id":"cebpf4jnsgd1na2vs0mg"},{"bike_id":"3505ff5f-dc8f-4404-9f0d-dcbce1b96661","system_id":"levelo_inurba_marseille","lat":43.28418,"lon":5.39144,"is_reserved":false,"is_disabled":false,"rental_uris":{"android":"levelo://app?vid=3505ff5f-dc8f-4404-9f0d-dcbce1b96661","ios":"levelo://app?vid=3505ff5f-dc8f-4404-9f0d-dcbce1b96661"},"vehicle_type_id":"4","last_reported":1740694099,"current_range_meters":18000,"station_id":"ce4bhoh2rcd13ifvqh5g","pricing_plan_id":"cebpf4jnsgd1na2vs0mg"},{"bike_id":"4965d393-f910-4958-bdc9-5e8fb0ef831d","system_id":"levelo_inurba_marseille","lat":43.29714,"lon":5.36595,"is_reserved":false,"is_disabled":false,"rental_uris":{"android":"levelo://app?vid=4965d393-f910-4958-bdc9-5e8fb0ef831d","ios":"levelo://app?vid=4965d393-f910-4958-bdc9-5e8fb0ef831d"},"vehicle_type_id":"4","last_reported":1740694099,"current_range_meters":18800,"station_id":"ce4bgn12rcd13ifvqbt0","pricing_plan_id":"cebpf4jnsgd1na2vs0mg"},{"bike_id":"737315e8-e42f-478d-8994-74c9331bd58d","system_id":"levelo_inurba_marseille","lat":43.30807,"lon":5.43524,"is_reserved":false,"is_disabled":false,"rental_uris":{"android":"levelo://app?vid=737315e8-e42f-478d-8994-74c9331bd58d","ios":"levelo://app?vid=737315e8-e42f-478d-8994-74c9331bd58d"},"vehicle_type_id":"4","last_reported":1740694099,"current_range_meters":18800,"station_id":"ce4bhph2rcd13ifvqheg","pricing_plan_id":"cebpf4jnsgd1na2vs0mg"},{"bike_id":"26867775-6abb-4a91-a339-9f9c81f54a40","system_id":"levelo_inurba_marseille","lat":43.24659,"lon":5.38164,"is_reserved":false,"is_disabled":false,"rental_uris":{"android":"levelo://app?vid=26867775-6abb-4a91-a339-9f9c81f54a40","ios":"levelo://app?vid=26867775-6abb-4a91-a339-9f9c81f54a40"},"vehicle_type_id":"4","last_reported":1740694099,"current_range_meters":19600,"station_id":"ce4bhih2rcd13ifvqfr0","pricing_plan_id":"cebpf4jnsgd1na2vs0mg"},{"bike_id":"f5fe4361-1d3d-4314-a7e8-95ca49fcf6f9","system_id":"levelo_inurba_marseille","lat":43.31582,"lon":5.36944,"is_reserved":false,"is_disabled":false,"rental_uris":{"android":"levelo://app?vid=f5fe4361-1d3d-4314-a7e8-95ca49fcf6f9","ios":"levelo://app?vid=f5fe4361-1d3d-4314-a7e8-95ca49fcf6f9"},"vehicle_type_id":"4","last_reported":1740694099,"current_range_meters":18800,"station_id":"","pricing_plan_id":"cebpf4jnsgd1na2vs0mg"},{"bike_id":"fc02471c-3781-4259-a8b7-7ea965d42afa","system_id":"levelo_inurba_marseille","lat":43.28699,"lon":5.37393,"is_reserved":false,"is_disabled":false,"rental_uris":{"android":"levelo://app?vid=fc02471c-3781-4259-a8b7-7ea965d42afa","ios":"levelo://app?vid=fc02471c-3781-4259-a8b7-7ea965d42afa"},"vehicle_type_id":"4","last_reported":1740694099,"current_range_meters":19200,"station_id":"ce4bh3p2rcd13ifvqdq0","pricing_plan_id":"cebpf4jnsgd1na2vs0mg"},{"bike_id":"a43d23d2-0d6e-4cf7-8691-8ab079a8ff69","system_id":"levelo_inurba_marseille","lat":43.29902,"lon":5.43652,"is_reserved":false,"is_disabled":false,"rental_uris":{"android":"levelo://app?vid=a43d23d2-0d6e-4cf7-8691-8ab079a8ff69","ios":"levelo://app?vid=a43d23d2-0d6e-4cf7-8691-8ab079a8ff69"},"vehicle_type_id":"4","last_reported":1740694099,"current_range_meters":19600,"station_id":"ce4bhpp2rcd13ifvqhfg","pricing_plan_id":"cebpf4jnsgd1na2vs0mg"},