{"last_updated":1751015470,"ttl":60,"version":"2.2","data":{"bikes":[{"bike_id":"3da29fb8-fc97-44c6-b9ac-31dd456b2fd4","system_id":"levelo_inurba_marseille","lat":43.33771,"lon":5.37424,"is_reserved":false,"is_disabled":true,"rental_uris":{"android":"levelo://app?vid=3da29fb8-fc97-44c6-b9ac-31dd456b2fd4","ios":"levelo://app?vid=3da29fb8-fc97-44c6-b9ac-31dd456b2fd4"},"vehicle_type_id":"4","last_reported":1751015470,"current_range_meters":0,"station_id":"","pricing_plan_id":"cebpf4jnsgd1na2vs0mg"},{"bike_id":"01861ad8-a8d7-4be6-816e-651927c87584","system_id":"levelo_inurba_marseille","lat":43.33751,"lon":5.37456,"is_reserved":false,"is_disabled":true,"rental_uris":{"android":"levelo://app?vid=01861ad8-a8d7-4be6-816e-651927c87584","ios":"levelo://app?vid=01861ad8-a8d7-4be6-816e-651927c87584"},"vehicle_type_id":"4","last_reported":1751015470,"current_range_meters":0,"station_id":"","pricing_plan_id":"cebpf4jnsgd1na2vs0mg"},{"bike_id":"a147e67d-e0b1-425e-bbda-ae9524df353e","system_id":"levelo_inurba_marseille","lat":43.337541,"lon":5.374577,"is_reserved":false,"is_disabled":true,"rental_uris":{"android":"levelo://app?vid=a147e67d-e0b1-425e-bbda-ae9524df353e","ios":"levelo://app?vid=a147e67d-e0b1-425e-bbda-ae9524df353e"},"vehicle_type_id":"4","last_reported":1751015470,"current_range_meters":0,"station_id":"","pricing_plan_id":"cebpf4jnsgd1na2vs0mg"},{"bike_id":"d7ab0e84-3bbe-4115-b0ab-ab05a5f13dfd","system_id":"levelo_inurba_marseille","lat":43.3302,"lon":5.41038,"is_reserved":false,"is_disabled":true,"rental_uris":{"android":"levelo://app?vid=d7ab0e84-3bbe-4115-b0ab-ab05a5f13dfd","ios":"levelo://app?vid=d7ab0e84-3bbe-4115-b0ab-ab05a5f13dfd"},"vehicle_type_id":"4","last_reported":1751015470,"current_range_meters":0,"station_id":"","pricing_plan_id":"cebpf4jnsgd1na2vs0mg"},{"bike_id":"2c5ab5ef-6e3c-47bf-9405-4e96ff645858","system_id":"levelo_inurba_marseille","lat":43.33999,"lon":5.42912,"is_reserved":false,"is_disabled":true,"rental_uris":{"android":"levelo://app?vid=2c5ab5ef-6e3c-47bf-9405-4e96ff645858","ios":"levelo://app?vid=2c5ab5ef-6e3c-47bf-9405-4e96ff645858"},"vehicle_type_id":"4","last_reported":1751015470,"current_range_meters":0,"station_id":"","pricing_plan_id":"cebpf4jnsgd1na2vs0mg"},{"bike_id":"4d064f95-6dcb-4234-9e98-7c70fbb74351","system_id":"levelo_inurba_marseille","lat":43.337444,"lon":5.374475,"is_reserved":false,"is_disabled":true,"rental_uris":{"android":"levelo://app?vid=4d064f95-6dcb-4234-9e98-7c70fbb74351","ios":"levelo://app?vid=4d064f95-6dcb-4234-9e98-7c70fbb74351"},"vehicle_type_id":"4","last_reported":1751015470,"current_range_meters":0,"station_id":"","pricing_plan_id":"cebpf4jnsgd1na2vs0mg"},{"bike_id":"4dc67f61-3f5d-4d7d-931d-b02a327ccd43","system_id":"levelo_inurba_marseille","lat":43.31267,"lon":5.36827,"is_reserved":false,"is_disabled":true,"rental_uris":{"android":"levelo://app?vid=4dc67f61-3f5d-4d7d-931d-b02a327ccd43","ios":"levelo://app?vid=4dc67f61-3f5d-4d7d-931d-b02a327ccd43"},"vehicle_type_id":"4","last_reported":1751015470,"current_range_meters":0,"station_id":"","pricing_plan_id":"cebpf4jnsgd1na2vs0mg"},{"bike_id":"d6609b4f-333b-43c1-9ebe-8726f5e76e88","system_id":"levelo_inurba_marseille","lat":43.337444,"lon":5.374475,"is_reserved":false,"is_disabled":true,"rental_uris":{"android":"levelo://app?vid=d6609b4f-333b-43c1-9ebe-8726f5e76e88","ios":"levelo://app?vid=d6609b4f-333b-43c1-9ebe-8726f5e76e88"},"vehicle_type_id":"4","last_reported":1751015470,"current_range_meters":0,"station_id":"","pricing_plan_id":"cebpf4jnsgd1na2vs0mg"},{"bike_id":"14903f35-1eaf-4a5d-86c3-23007b361999","system_id":"levelo_inurba_marseille","lat":43.27064,"lon":5.42274,"is_reserved":false,"is_disabled":true,"rental_uris":{"android":"levelo://app?vid=14903f35-1eaf-4a5d-86c3-23007b361999","ios":"levelo://app?vid=14903f35-1eaf-4a5d-86c3-23007b361999"},"vehicle_type_id":"4","last_reported":1751015470,"current_range_meters":0,"station_id":"","pricing_plan_id":"cebpf4jnsgd1na2vs0mg"},{"bike_id":"bf027107-0fe5-47a2-8fef-6473f83bb647","system_id":"levelo_inurba_marseille","lat":43.32943,"lon":5.36399,"is_reserved":false,"is_disabled":true,"rental_uris":{"android":"levelo://app?vid=bf027107-0fe5-47a2-8fef-6473f83bb647","ios":"levelo://app?vid=bf027107-0fe5-47a2-8fef-6473f83bb647"},"vehicle_type_id":"4","last_reported":1751015470,"current_range_meters":0,"station_id":"","pricing_plan_id":"cebpf4jnsgd1na2vs0mg"},{"bike_id":"b17b6606-336a-4606-9b65-af139c49de26","system_id":"levelo_inurba_marseille","lat":43.25683,"lon":5.42668,"is_reserved":false,"is_disabled":true,"rental_uris":{"android":"levelo://app?vid=b17b6606-336a-4606-9b65-af139c49de26","ios":"levelo://app?vid=b17b6606-336a-4606-9b65-af139c49de26"},"vehicle_type_id":"4","last_reported":1751015470,"current_range_meters":0,"station_id":"","pricing_plan_id":"cebpf4jnsgd1na2vs0mg"},{"bike_id":"9d3724b1-0dc8-4689-9d6a-55005a9503cb","system_id":"levelo_inurba_marseille","lat":43.28615,"lon":5.42806,"is_reserved":false,"is_disabled":true,"rental_uris":{"android":"levelo://app?vid=9d3724b1-0dc8-4689-9d6a-55005a9503cb","ios":"levelo://app?vid=9d3724b1-0dc8-4689-9d6a-55005a9503cb"},"vehicle_type_id":"4","last_reported":1751015470,"current_range_meters":0,"station_id":"","pricing_plan_id":"cebpf4jnsgd1na2vs0mg"},{"bike_id":"ce774a04-a4be-4eca-a30f-78eb921955bd","system_id":"levelo_inurba_marseille","lat":43.338786,"lon":5.355463,"is_reserved":false,"is_disabled":true,"rental_uris":{"android":"levelo://app?vid=ce774a04-a4be-4eca-a30f-78eb921955bd","ios":"levelo://app?vid=ce774a04-a4be-4eca-a30f-78eb921955bd"},"vehicle_type_id":"4","last_reported":1751015470,"current_range_meters":0,"station_id":"","pricing_plan_id":"cebpf4jnsgd1na2vs0mg"},{"bike_id":"242b9084-2bbf-4482-b994-16c82e2a4195","system_id":"levelo_inurba_marseille","lat":43.32651,"lon":5.42153,"is_reserved":false,"is_disabled":true,"rental_uris":{"android":"levelo://app?vid=242b9084-2bbf-4482-b994-16c82e2a4195","ios":"levelo://app?vid=242b9084-2bbf-4482-b994-16c82e2a4195"},"vehicle_type_id":"4","last_reported":1751015470,"current_range_meters":0,"station_id":"","pricing_plan_id":"cebpf4jnsgd1na2vs0mg"},{"bike_id":"479aa0bd-0750-43c9-a904-e911c8e7fc23","system_id":"levelo_inurba_marseille","lat":43.3114,"lon":5.38279,"is_reserved":false,"is_disabled":true,"rental_uris":{"android":"levelo://app?vid=479aa0bd-0750-43c9-a904-e911c8e7fc23","ios":"levelo://app?vid=479aa0bd-0750-43c9-a904-e911c8e7fc23"},"vehicle_type_id":"4","last_reported":1751015470,"current_range_meters":0,"station_id":"","pricing_plan_id":"cebpf4jnsgd1na2vs0mg"},{"bike_id":"6f71c9d3-4380-4ac0-81d7-201924ec113c","system_id":"levelo_inurba_marseille","lat":43.31126,"lon":5.37761,"is_reserved":false,"is_disabled":true,"rental_uris":{"android":"levelo://app?vid=6f71c9d3-4380-4ac0-81d7-201924ec113c","ios":"levelo://app?vid=6f71c9d3-4380-4ac0-81d7-201924ec113c"},"vehicle_type_id":"4","last_reported":1751015470,"current_range_meters":0,"station_id":"ce4bgt92rcd13ifvqcg0","pricing_plan_id":"cebpf4jnsgd1na2vs0mg"},{"bike_id":"f6a6aeb6-3fec-450b-a8d4-0cc08aee47d8","system_id":"levelo_inurba_marseille","lat":43.28464,"lon":5.3589,"is_reserved":false,"is_disabled":true,"rental_uris":{"android":"levelo://app?vid=f6a6aeb6-3fec-450b-a8d4-0cc08aee47d8","ios":"levelo://app?vid=f6a6aeb6-3fec-450b-a8d4-0cc08aee47d8"},"vehicle_type_id":"4","last_reported":1751015470,"current_range_meters":0,"station_id":"ce4bhah2rcd13ifvqei0","pricing_plan_id":"cebpf4jnsgd1na2vs0mg"},{"bike_id":"f0977316-a453-4ea8-8bc5-6f2f324b49f2","system_id":"levelo_inurba_marseille","lat":43.26194,"lon":5.37448,"is_reserved":false,"is_disabled":true,"rental_uris":{"android":"levelo://app?vid=f0977316-a453-4ea8-8bc5-6f2f324b49f2","ios":"levelo://app?vid=f0977316-a453-4ea8-8bc5-6f2f324b49f2"},"vehicle_type_id":"4","last_reported":1751015470,"current_range_meters":0,"station_id":"ce4bhgp2rcd13ifvqfc0","pricing_plan_id":"cebpf4jnsgd1na2vs0mg"},{"bike_id":"bb0c55fa-5f3d-4177-9c53-0c63640ab5b0","system_id":"levelo_inurba_marseille","lat":43.26781,"lon":5.39415,"is_reserved":false,"is_disabled":true,"rental_uris":{"android":"levelo://app?vid=bb0c55fa-5f3d-4177-9c53-0c63640ab5b0","ios":"levelo://app?vid=bb0c55fa-5f3d-4177-9c53-0c63640ab5b0"},"vehicle_type_id":"4","last_reported":1751015470,"current_range_meters":0,"station_id":"ce4bhh12rcd13ifvqfg0","pricing_plan_id":"cebpf4jnsgd1na2vs0mg"},{"bike_id":"e80f1b6d-c0ed-48b5-bd1d-89afc9d0f489","system_id":"levelo_inurba_marseille","lat":43.2706,"lon":5.40253,"is_reserved":false,"is_disabled":true,"rental_uris":{"android":"levelo://app?vid=e80f1b6d-c0ed-48b5-bd1d-89afc9d0f489","ios":"levelo://app?vid=e80f1b6d-c0ed-48b5-bd1d-89afc9d0f489"},"vehicle_type_id":"4","last_reported":1751015470,"current_range_meters":0,"station_id":"ce4bhk92rcd13ifvqgc0","pricing_plan_id":"cebpf4jnsgd1na2vs0mg"},{"bike_id":"b5b34be9-07b5-4db7-963c-2c7146c1cfd1","system_id":"levelo_inurba_marseille","lat":43.27182,"lon":5.40983,"is_reserved":false,"is_disabled":true,"rental_uris":{"android":"levelo://app?vid=b5b34be9-07b5-4db7-963c-2c7146c1cfd1","ios":"levelo://app?vid=b5b34be9-07b5-4db7-963c-2c7146c1cfd1"},"vehicle_type_id":"4","last_reported":1751015470,"current_range_meters":0,"station_id":"ce4bhl12rcd13ifvqgf0","pricing_plan_id":"cebpf4jnsgd1na2vs0mg"},{"bike_id":"236d89ec-8432-4dfa-8055-947062315dbf","system_id":"levelo_inurba_marseille","lat":43.32113,"lon":5.367666,"is_reserved":false,"is_disabled":true,"rental_uris":{"android":"levelo://app?vid=236d89ec-8432-4dfa-8055-947062315dbf","ios":"levelo://app?vid=236d89ec-8432-4dfa-8055-947062315dbf"},"vehicle_type_id":"4","last_reported":1751015470,"current_range_meters":0,"station_id":"ce4bhrh2rcd13ifvqhug","pricing_plan_id":"cebpf4jnsgd1na2vs0mg"},{"bike_id":"85dc0418-70ec-4595-8028-d42e88652ea4","system_id":"levelo_inurba_marseille","lat":43.32487,"lon":5.36556,"is_reserved":false,"is_disabled":true,"rental_uris":{"android":"levelo://app?vid=85dc0418-70ec-4595-8028-d42e88652ea4","ios":"levelo://app?vid=85dc0418-70ec-4595-8028-d42e88652ea4"},"vehicle_type_id":"4","last_reported":1751015470,"current_range_meters":0,"station_id":"ce4bhs12rcd13ifvqhvg","pricing_plan_id":"cebpf4jnsgd1na2vs0mg"},{"bike_id":"2ae278c9-8939-43b6-ae64-1735e91cccaf","system_id":"levelo_inurba_marseille","lat":43.2119,"lon":5.35069,"is_reserved":false,"is_disabled":true,"rental_uris":{"android":"levelo://app?vid=2ae278c9-8939-43b6-ae64-1735e91cccaf","ios":"levelo://app?vid=2ae278c9-8939-43b6-ae64-1735e91cccaf"},"vehicle_type_id":"4","last_reported":1751015470,"current_range_meters":0,"station_id":"st_cvj6sg6p6f1abm77japg","pricing_plan_id":"cebpf4jnsgd1na2vs0mg"},{"bike_id":"446c66be-a677-44c2-9116-79a23398a824","system_id":"levelo_inurba_marseille","lat":43.27619,"lon":5.43203,"is_reserved":false,"is_disabled":true,"rental_uris":{"android":"levelo://app?vid=446c66be-a677-44c2-9116-79a23398a824","ios":"levelo://app?vid=446c66be-a677-44c2-9116-79a23398a824"},"vehicle_type_id":"4","last_reported":1751015470,"current_range_meters":400,"station_id":"","pricing_plan_id":"cebpf4jnsgd1na2vs0mg"},{"bike_id":"67a5051a-b32e-408a-8389-c22b54eb81f6","system_id":"levelo_inurba_marseille","lat":43.33016,"lon":5.45599,"is_reserved":false,"is_disabled":true,"rental_uris":{"android":"levelo://app?vid=67a5051a-b32e-408a-8389-c22b54eb81f6","ios":"levelo://app?vid=67a5051a-b32e-408a-8389-c22b54eb81f6"},"vehicle_type_id":"4","last_reported":1751015470,"current_range_meters":800,"station_id":"","pricing_plan_id":"cebpf4jnsgd1na2vs0mg"},{"bike_id":"0df82a57-66b8-4928-bede-bf7416869121","system_id":"levelo_inurba_marseille","lat":43.28264,"lon":5.35057,"is_reserved":false,"is_disabled":true,"rental_uris":{"android":"levelo://app?vid=0df82a57-66b8-4928-bede-bf7416869121","ios":"levelo://app?vid=0df82a57-66b8-4928-bede-bf7416869121"},"vehicle_type_id":"4","last_reported":1751015470,"current_range_meters":800,"station_id":"ce4bhbp2rcd13ifvqerg","pricing_plan_id":"cebpf4jnsgd1na2vs0mg"},{"bike_id":"a1ae4fee-cbeb-43dc-a969-5827f87e448d","system_id":"levelo_inurba_marseille","lat":43.38402,"lon":5.36517,"is_reserved":false,"is_disabled":true,"rental_uris":{"android":"levelo://app?vid=a1ae4fee-cbeb-43dc-a969-5827f87e448d","ios":"levelo://app?vid=a1ae4fee-cbeb-43dc-a969-5827f87e448d"},"vehicle_type_id":"4","last_reported":1751015470,"current_range_meters":1200,"station_id":"","pricing_plan_id":"cebpf4jnsgd1na2vs0mg"},{"bike_id":"75b99ce5-98e2-480a-a889-073abbac7a3e","system_id":"levelo_inurba_marseille","lat":43.29309,"lon":5.37458,"is_reserved":false,"is_disabled":true,"rental_uris":{"android":"levelo://app?vid=75b99ce5-98e2-480a-a889-073abbac7a3e","ios":"levelo://app?vid=75b99ce5-98e2-480a-a889-073abbac7a3e"},"vehicle_type_id":"4","last_reported":1751015470,"current_range_meters":1600,"station_id":"ce4bgi12rcd13ifvqb70","pricing_plan_id":"cebpf4jnsgd1na2vs0mg"},{"bike_id":"809d9457-422a-4a48-b70d-402c4c1552ea","system_id":"levelo_inurba_marseille","lat":43.29195,"lon":5.39322,"is_reserved":false,"is_disabled":true,"rental_uris":{"android":"levelo://app?vid=809d9457-422a-4a48-b70d-402c4c1552ea","ios":"levelo://app?vid=809d9457-422a-4a48-b70d-402c4c1552ea"},"vehicle_type_id":"4","last_reported":1751015470,"current_range_meters":1600,"station_id":"ce4bh192rcd13ifvqdd0","pricing_plan_id":"cebpf4jnsgd1na2vs0mg"},{"bike_id":"a86d2f9f-83d8-4f17-8422-d08e982c4a2a","system_id":"levelo_inurba_marseille","lat":43.29751,"lon":5.44885,"is_reserved":false,"is_disabled":true,"rental_uris":{"android":"levelo://app?vid=a86d2f9f-83d8-4f17-8422-d08e982c4a2a","ios":"levelo://app?vid=a86d2f9f-83d8-4f17-8422-d08e982c4a2a"},"vehicle_type_id":"4","last_reported":1751015470,"current_range_meters":2000,"station_id":"","pricing_plan_id":"cebpf4jnsgd1na2vs0mg"},{"bike_id":"9aca6538-379b-4e23-9612-249fa95aa980","system_id":"levelo_inurba_marseille","lat":43.2826,"lon":5.35054,"is_reserved":false,"is_disabled":true,"rental_uris":{"android":"levelo://app?vid=9aca6538-379b-4e23-9612-249fa95aa980","ios":"levelo://app?vid=9aca6538-379b-4e23-9612-249fa95aa980"},"vehicle_type_id":"4","last_reported":1751015470,"current_range_meters":2000,"station_id":"ce4bhbp2rcd13ifvqerg","pricing_plan_id":"cebpf4jnsgd1na2vs0mg"},{"bike_id":"963e5e85-0de7-4b7c-a81c-d70f05d22694","system_id":"levelo_inurba_marseille","lat":43.33737,"lon":5.39162,"is_reserved":false,"is_disabled":true,"rental_uris":{"android":"levelo://app?vid=963e5e85-0de7-4b7c-a81c-d70f05d22694","ios":"levelo://app?vid=963e5e85-0de7-4b7c-a81c-d70f05d22694"},"vehicle_type_id":"4","last_reported":1751015470,"current_range_meters":2000,"station_id":"ce4bhr92rcd13ifvqhsg","pricing_plan_id":"cebpf4jnsgd1na2vs0mg"},{"bike_id":"851842d8-4672-47e4-b9cb-cd9f9985d233","system_id":"levelo_inurba_marseille","lat":43.31492,"lon":5.37306,"is_reserved":false,"is_disabled":false,"rental_uris":{"android":"levelo://app?vid=851842d8-4672-47e4-b9cb-cd9f9985d233","ios":"levelo://app?vid=851842d8-4672-47e4-b9cb-cd9f9985d233"},"vehicle_type_id":"4","last_reported":1751015470,"current_range_meters":2800,"station_id":"ce4bgt12rcd13ifvqcd0","pricing_plan_id":"cebpf4jnsgd1na2vs0mg"},{"bike_id":"30c3f5ef-027c-4ecd-89a2-f26766750468","system_id":"levelo_inurba_marseille","lat":43.28464,"lon":5.35889,"is_reserved":false,"is_disabled":false,"rental_uris":{"android":"levelo://app?vid=30c3f5ef-027c-4ecd-89a2-f26766750468","ios":"levelo://app?vid=30c3f5ef-027c-4ecd-89a2-f26766750468"},"vehicle_type_id":"4","last_reported":1751015470,"current_range_meters":2800,"station_id":"ce4bhah2rcd13ifvqei0","pricing_plan_id":"cebpf4jnsgd1na2vs0mg"},{"bike_id":"d60113c8-3387-46de-adde-b2b1abf1350a","system_id":"levelo_inurba_marseille","lat":43.29922,"lon":5.41302,"is_reserved":false,"is_disabled":false,"rental_uris":{"android":"levelo://app?vid=d60113c8-3387-46de-adde-b2b1abf1350a","ios":"levelo://app?vid=d60113c8-3387-46de-adde-b2b1abf1350a"},"vehicle_type_id":"4","last_reported":1751015470,"current_range_meters":2800,"station_id":"ce4bhp12rcd13ifvqh9g","pricing_plan_id":"cebpf4jnsgd1na2vs0mg"},{"bike_id":"3e5d0ae7-bac3-40ea-95d2-50ef1aae7bc7","system_id":"levelo_inurba_marseille","lat":43.26836,"lon":5.41581,"is_reserved":false,"is_disabled":false,"rental_uris":{"android":"levelo://app?vid=3e5d0ae7-bac3-40ea-95d2-50ef1aae7bc7","ios":"levelo://app?vid=3e5d0ae7-bac3-40ea-95d2-50ef1aae7bc7"},"vehicle_type_id":"4","last_reported":1751015470,"current_range_meters":3200,"station_id":"","pricing_plan_id":"cebpf4jnsgd1na2vs0mg"},{"bike_id":"a3fc314d-650c-43ac-92c6-4981cd5fede9","system_id":"levelo_inurba_marseille","lat":43.29532,"lon":5.37505,"is_reserved":false,"is_disabled":false,"rental_uris":{"android":"levelo://app?vid=a3fc314d-650c-43ac-92c6-4981cd5fede9","ios":"levelo://app?vid=a3fc314d-650c-43ac-92c6-4981cd5fede9"},"vehicle_type_id":"4","last_reported":1751015470,"current_range_meters":3200,"station_id":"ce4bgkp2rcd13ifvqbmg","pricing_plan_id":"cebpf4jnsgd1na2vs0mg"},{"bike_id":"1fe1e935-4d41-4489-8f80-bbefa1518773","system_id":"levelo_inurba_marseille","lat":43.30241,"lon":5.40063,"is_reserved":false,"is_disabled":false,"rental_uris":{"android":"levelo://app?vid=1fe1e935-4d41-4489-8f80-bbefa1518773","ios":"levelo://app?vid=1fe1e935-4d41-4489-8f80-bbefa1518773"},"vehicle_type_id":"4","last_reported":1751015470,"current_range_meters":3200,"station_id":"ce4bgvh2rcd13ifvqcs0","pricing_plan_id":"cebpf4jnsgd1na2vs0mg"},{"bike_id":"e4b1066b-d0ae-44a0-b7f8-3e2851c2e4e7","system_id":"levelo_inurba_marseille","lat":43.29838,"lon":5.36267,"is_reserved":false,"is_disabled":false,"rental_uris":{"android":"levelo://app?vid=e4b1066b-d0ae-44a0-b7f8-3e2851c2e4e7","ios":"levelo://app?vid=e4b1066b-d0ae-44a0-b7f8-3e2851c2e4e7"},"vehicle_type_id":"4","last_reported":1751015470,"current_range_meters":3600,"station_id":"ce4bgpp2rcd13ifvqc3g","pricing_plan_id":"cebpf4jnsgd1na2vs0mg"},{"bike_id":"652c846d-9ac2-4a91-a14a-6c5d781782ff","system_id":"levelo_inurba_marseille","lat":43.28001,"lon":5.40005,"is_reserved":false,"is_disabled":false,"rental_uris":{"android":"levelo://app?vid=652c846d-9ac2-4a91-a14a-6c5d781782ff","ios":"levelo://app?vid=652c846d-9ac2-4a91-a14a-6c5d781782ff"},"vehicle_type_id":"4","last_reported":1751015470,"current_range_meters":3600,"station_id":"ce4bho92rcd13ifvqh4g","pricing_plan_id":"cebpf4jnsgd1na2vs0mg"},{"bike_id":"af112b62-19de-41d4-b8d7-e14d0172315d","system_id":"levelo_inurba_marseille","lat":43.3267,"lon":5.39264,"is_reserved":false,"is_disabled":false,"rental_uris":{"android":"levelo://app?vid=af112b62-19de-41d4-b8d7-e14d0172315d","ios":"levelo://app?vid=af112b62-19de-41d4-b8d7-e14d0172315d"},"vehicle_type_id":"4","last_reported":1751015470,"current_range_meters":4000,"station_id":"","pricing_plan_id":"cebpf4jnsgd1na2vs0mg"},{"bike_id":"26a14eba-87a9-47b8-9607-30bd0042d428","system_id":"levelo_inurba_marseille","lat":43.31471,"lon":5.39411,"is_reserved":false,"is_disabled":false,"rental_uris":{"android":"levelo://app?vid=26a14eba-87a9-47b8-9607-30bd0042d428","ios":"levelo://app?vid=26a14eba-87a9-47b8-9607-30bd0042d428"},"vehicle_type_id":"4","last_reported":1751015470,"current_range_meters":4800,"station_id":"","pricing_plan_id":"cebpf4jnsgd1na2vs0mg"},{"bike_id":"9ce852fe-9449-4c16-b29b-642a7abdbbbf","system_id":"levelo_inurba_marseille","lat":43.27401,"lon":5.36206,"is_reserved":false,"is_disabled":false,"rental_uris":{"android":"levelo://app?vid=9ce852fe-9449-4c16-b29b-642a7abdbbbf","ios":"levelo://app?vid=9ce852fe-9449-4c16-b29b-642a7abdbbbf"},"vehicle_type_id":"4","last_reported":1751015470,"current_range_meters":4800,"station_id":"","pricing_plan_id":"cebpf4jnsgd1na2vs0mg"},{"bike_id":"8c3af7af-45dc-4873-983b-b8926e736e48","system_id":"levelo_inurba_marseille","lat":43.31203,"lon":5.36756,"is_reserved":false,"is_disabled":false,"rental_uris":{"android":"levelo://app?vid=8c3af7af-45dc-4873-983b-b8926e736e48","ios":"levelo://app?vid=8c3af7af-45dc-4873-983b-b8926e736e48"},"vehicle_type_id":"4","last_reported":1751015470,"current_range_meters":4800,"station_id":"","pricing_plan_id":"cebpf4jnsgd1na2vs0mg"},{"bike_id":"784b48b6-254f-44fc-addf-bb5f2aa170fc","system_id":"levelo_inurba_marseille","lat":43.309357,"lon":5.368202,"is_reserved":false,"is_disabled":false,"rental_uris":{"android":"levelo://app?vid=784b48b6-254f-44fc-addf-bb5f2aa170fc","ios":"levelo://app?vid=784b48b6-254f-44fc-addf-bb5f2aa170fc"},"vehicle_type_id":"4","last_reported":1751015470,"current_range_meters":4800,"station_id":"ce4bgn92rcd13ifvqbvg","pricing_plan_id":"cebpf4jnsgd1na2vs0mg"},{"bike_id":"3644b1d7-5e3f-44e5-bbda-dd1c98d459c8","system_id":"levelo_inurba_marseille","lat":43.30609,"lon":5.37232,"is_reserved":false,"is_disabled":false,"rental_uris":{"android":"levelo://app?vid=3644b1d7-5e3f-44e5-bbda-dd1c98d459c8","ios":"levelo://app?vid=3644b1d7-5e3f-44e5-bbda-dd1c98d459c8"},"vehicle_type_id":"4","last_reported":1751015470,"current_range_meters":4800,"station_id":"ce4bgqh2rcd13ifvqc4g","pricing_plan_id":"cebpf4jnsgd1na2vs0mg"},{"bike_id":"af896446-37f1-49d3-9460-cbce13ee7684","system_id":"levelo_inurba_marseille","lat":43.29983,"lon":5.37174,"is_reserved":false,"is_disabled":false,"rental_uris":{"android":"levelo://app?vid=af896446-37f1-49d3-9460-cbce13ee7684","ios":"levelo://app?vid=af896446-37f1-49d3-9460-cbce13ee7684"},"vehicle_type_id":"4","last_reported":1751015470,"current_range_meters":4800,"station_id":"ce4bgr92rcd13ifvqc7g","pricing_plan_id":"cebpf4jnsgd1na2vs0mg"},{"bike_id":"590a1237-96a1-40b9-8e8b-ab097692d5ca","system_id":"levelo_inurba_marseille","lat":43.28265,"lon":5.35062,"is_reserved":false,"is_disabled":false,"rental_uris":{"android":"levelo://app?vid=590a1237-96a1-40b9-8e8b-ab097692d5ca","ios":"levelo://app?vid=590a1237-96a1-40b9-8e8b-ab097692d5ca"},"vehicle_type_id":"4","last_reported":1751015470,"current_range_meters":4800,"station_id":"ce4bhbp2rcd13ifvqerg","pricing_plan_id":"cebpf4jnsgd1na2vs0mg"},{"bike_id":"8ea20746-4f04-40bf-bb34-ad034375c40d","system_id":"levelo_inurba_marseille","lat":43.30781,"lon":5.38149,"is_reserved":false,"is_disabled":false,"rental_uris":{"android":"levelo://app?vid=8ea20746-4f04-40bf-bb34-ad034375c40d","ios":"levelo://app?vid=8ea20746-4f04-40bf-bb34-ad034375c40d"},"vehicle_type_id":"4","last_reported":1751015470,"current_range_meters":5600,"station_id":"ce4bgt12rcd13ifvqce0","pricing_plan_id":"cebpf4jnsgd1na2vs0mg"},{"bike_id":"a7251671-f4fd-4ca1-acac-59c442621b5e","system_id":"levelo_inurba_marseille","lat":43.23192,"lon":5.35551,"is_reserved":false,"is_disabled":false,"rental_uris":{"android":"levelo://app?vid=a7251671-f4fd-4ca1-acac-59c442621b5e","ios":"levelo://app?vid=a7251671-f4fd-4ca1-acac-59c442621b5e"},"vehicle_type_id":"4","last_reported":1751015470,"current_range_meters":5600,"station_id":"ce4bhu92rcd13ifvqi70","pricing_plan_id":"cebpf4jnsgd1na2vs0mg"},{"bike_id":"f0501a76-ba1c-42d1-b79c-74ab41bb2898","system_id":"levelo_inurba_marseille","lat":43.30144,"lon":5.38092,"is_reserved":false,"is_disabled":false,"rental_uris":{"android":"levelo://app?vid=f0501a76-ba1c-42d1-b79c-74ab41bb2898","ios":"levelo://app?vid=f0501a76-ba1c-42d1-b79c-74ab41bb2898"},"vehicle_type_id":"4","last_reported":1751015470,"current_range_meters":6000,"station_id":"ce4bgjp2rcd13ifvqbh0","pricing_plan_id":"cebpf4jnsgd1na2vs0mg"},{"bike_id":"9310f434-c6b3-4944-856e-b910519dfc29","system_id":"levelo_inurba_marseille","lat":43.29577,"lon":5.36741,"is_reserved":false,"is_disabled":false,"rental_uris":{"android":"levelo://app?vid=9310f434-c6b3-4944-856e-b910519dfc29","ios":"levelo://app?vid=9310f434-c6b3-4944-856e-b910519dfc29"},"vehicle_type_id":"4","last_reported":1751015470,"current_range_meters":6000,"station_id":"ce4bgph2rcd13ifvqc2g","pricing_plan_id":"cebpf4jnsgd1na2vs0mg"},{"bike_id":"5b8495ec-74b7-4e6a-a880-295e31b27dc0","system_id":"levelo_inurba_marseille","lat":43.30938,"lon":5.40141,"is_reserved":false,"is_disabled":false,"rental_uris":{"android":"levelo://app?vid=5b8495ec-74b7-4e6a-a880-295e31b27dc0","ios":"levelo://app?vid=5b8495ec-74b7-4e6a-a880-295e31b27dc0"},"vehicle_type_id":"4","last_reported":1751015470,"current_range_meters":6400,"station_id":"ce4bgvp2rcd13ifvqct0","pricing_plan_id":"cebpf4jnsgd1na2vs0mg"},{"bike_id":"e8119e84-6d96-47e2-989a-626277cf49bd","system_id":"levelo_inurba_marseille","lat":43.28266,"lon":5.35057,"is_reserved":false,"is_disabled":false,"rental_uris":{"android":"levelo://app?vid=e8119e84-6d96-47e2-989a-626277cf49bd","ios":"levelo://app?vid=e8119e84-6d96-47e2-989a-626277cf49bd"},"vehicle_type_id":"4","last_reported":1751015470,"current_range_meters":6400,"station_id":"ce4bhbp2rcd13ifvqerg","pricing_plan_id":"cebpf4jnsgd1na2vs0mg"},{"bike_id":"29748436-4e9e-4a46-ad9f-ab29bbbc9c48","system_id":"levelo_inurba_marseille","lat":43.23166,"lon":5.4367,"is_reserved":false,"is_disabled":false,"rental_uris":{"android":"levelo://app?vid=29748436-4e9e-4a46-ad9f-ab29bbbc9c48","ios":"levelo://app?vid=29748436-4e9e-4a46-ad9f-ab29bbbc9c48"},"vehicle_type_id":"4","last_reported":1751015470,"current_range_meters":6400,"station_id":"ce4bhmp2rcd13ifvqgog","pricing_plan_id":"cebpf4jnsgd1na2vs0mg"},{"bike_id":"d85636e1-0120-46b3-b159-6444e4dd4230","system_id":"levelo_inurba_marseille","lat":43.29578,"lon":5.37513,"is_reserved":false,"is_disabled":false,"rental_uris":{"android":"levelo://app?vid=d85636e1-0120-46b3-b159-6444e4dd4230","ios":"levelo://app?vid=d85636e1-0120-46b3-b159-6444e4dd4230"},"vehicle_type_id":"4","last_reported":1751015470,"current_range_meters":6800,"station_id":"ce4bgh92rcd13ifvqb50","pricing_plan_id":"cebpf4jnsgd1na2vs0mg"},{"bike_id":"6b7cfd75-9f46-4bac-9a61-7ed145f17214","system_id":"levelo_inurba_marseille","lat":43.32295,"lon":5.38241,"is_reserved":false,"is_disabled":false,"rental_uris":{"android":"levelo://app?vid=6b7cfd75-9f46-4bac-9a61-7ed145f17214","ios":"levelo://app?vid=6b7cfd75-9f46-4bac-9a61-7ed145f17214"},"vehicle_type_id":"4","last_reported":1751015470,"current_range_meters":6800,"station_id":"ce4bhr12rcd13ifvqhqg","pricing_plan_id":"cebpf4jnsgd1na2vs0mg"},{"bike_id":"e2f5b300-4a63-4778-aada-c29a8a0ea1e8","system_id":"levelo_inurba_marseille","lat":43.32821,"lon":5.39235,"is_reserved":false,"is_disabled":false,"rental_uris":{"android":"levelo://app?vid=e2f5b300-4a63-4778-aada-c29a8a0ea1e8","ios":"levelo://app?vid=e2f5b300-4a63-4778-aada-c29a8a0ea1e8"},"vehicle_type_id":"4","last_reported":1751015470,"current_range_meters":7200,"station_id":"","pricing_plan_id":"cebpf4jnsgd1na2vs0mg"},{"bike_id":"c26bcea7-65d6-42b2-80c8-f3d2dfb22aba","system_id":"levelo_inurba_marseille","lat":43.296209,"lon":5.377078,"is_reserved":false,"is_disabled":false,"rental_uris":{"android":"levelo://app?vid=c26bcea7-65d6-42b2-80c8-f3d2dfb22aba","ios":"levelo://app?vid=c26bcea7-65d6-42b2-80c8-f3d2dfb22aba"},"vehicle_type_id":"4","last_reported":1751015470,"current_range_meters":7200,"station_id":"ce4bgi92rcd13ifvqb90","pricing_plan_id":"cebpf4jnsgd1na2vs0mg"},{"bike_id":"520a92f6-c731-4e47-ac25-c8709e401767","system_id":"levelo_inurba_marseille","lat":43.30557,"lon":5.36689,"is_reserved":false,"is_disabled":false,"rental_uris":{"android":"levelo://app?vid=520a92f6-c731-4e47-ac25-c8709e401767","ios":"levelo://app?vid=520a92f6-c731-4e47-ac25-c8709e401767"},"vehicle_type_id":"4","last_reported":1751015470,"current_range_meters":7200,"station_id":"ce4bgrp2rcd13ifvqc9g","pricing_plan_id":"cebpf4jnsgd1na2vs0mg"},{"bike_id":"65358f7e-ed29-4262-8998-96904b90e663","system_id":"levelo_inurba_marseille","lat":43.28295,"lon":5.35042,"is_reserved":false,"is_disabled":false,"rental_uris":{"android":"levelo://app?vid=65358f7e-ed29-4262-8998-96904b90e663","ios":"levelo://app?vid=65358f7e-ed29-4262-8998-96904b90e663"},"vehicle_type_id":"4","last_reported":1751015470,"current_range_meters":7200,"station_id":"ce4bhbp2rcd13ifvqerg","pricing_plan_id":"cebpf4jnsgd1na2vs0mg"},{"bike_id":"3ed97791-4fd1-4beb-9e6b-4998740d59d9","system_id":"levelo_inurba_marseille","lat":43.271719,"lon":5.410008,"is_reserved":false,"is_disabled":false,"rental_uris":{"android":"levelo://app?vid=3ed97791-4fd1-4beb-9e6b-4998740d59d9","ios":"levelo://app?vid=3ed97791-4fd1-4beb-9e6b-4998740d59d9"},"vehicle_type_id":"4","last_reported":1751015470,"current_range_meters":8000,"station_id":"","pricing_plan_id":"cebpf4jnsgd1na2vs0mg"},{"bike_id":"d4e177ad-79e4-456e-933f-1e1248bff5f2","system_id":"levelo_inurba_marseille","lat":43.2707,"lon":5.42281,"is_reserved":false,"is_disabled":false,"rental_uris":{"android":"levelo://app?vid=d4e177ad-79e4-456e-933f-1e1248bff5f2","ios":"levelo://app?vid=d4e177ad-79e4-456e-933f-1e1248bff5f2"},"vehicle_type_id":"4","last_reported":1751015470,"current_range_meters":8000,"station_id":"ce4bhk92rcd13ifvqgb0","pricing_plan_id":"cebpf4jnsgd1na2vs0mg"},{"bike_id":"292dbc76-05b9-4f00-a7d0-72de35e956aa","system_id":"levelo_inurba_marseille","lat":43.25921,"lon":5.40893,"is_reserved":false,"is_disabled":false,"rental_uris":{"android":"levelo://app?vid=292dbc76-05b9-4f00-a7d0-72de35e956aa","ios":"levelo://app?vid=292dbc76-05b9-4f00-a7d0-72de35e956aa"},"vehicle_type_id":"4","last_reported":1751015470,"current_range_meters":8000,"station_id":"ce4bhm92rcd13ifvqglg","pricing_plan_id":"cebpf4jnsgd1na2vs0mg"},{"bike_id":"1b2494da-5b68-4347-9ac0-b6735c812f15","system_id":"levelo_inurba_marseille","lat":43.2314,"lon":5.43689,"is_reserved":false,"is_disabled":false,"rental_uris":{"android":"levelo://app?vid=1b2494da-5b68-4347-9ac0-b6735c812f15","ios":"levelo://app?vid=1b2494da-5b68-4347-9ac0-b6735c812f15"},"vehicle_type_id":"4","last_reported":1751015470,"current_range_meters":8000,"station_id":"ce4bhmp2rcd13ifvqgog","pricing_plan_id":"cebpf4jnsgd1na2vs0mg"},{"bike_id":"7ac2d6ad-16d3-463d-9f49-789f3bb8e5d0","system_id":"levelo_inurba_marseille","lat":43.33718,"lon":5.39174,"is_reserved":false,"is_disabled":false,"rental_uris":{"android":"levelo://app?vid=7ac2d6ad-16d3-463d-9f49-789f3bb8e5d0","ios":"levelo://app?vid=7ac2d6ad-16d3-463d-9f49-789f3bb8e5d0"},"vehicle_type_id":"4","last_reported":1751015470,"current_range_meters":8000,"station_id":"ce4bhr92rcd13ifvqhsg","pricing_plan_id":"cebpf4jnsgd1na2vs0mg"},{"bike_id":"db4e2ea3-c22f-48f0-b53e-224aec501d16","system_id":"levelo_inurba_marseille","lat":43.32363,"lon":5.36752,"is_reserved":false,"is_disabled":false,"rental_uris":{"android":"levelo://app?vid=db4e2ea3-c22f-48f0-b53e-224aec501d16","ios":"levelo://app?vid=db4e2ea3-c22f-48f0-b53e-224aec501d16"},"vehicle_type_id":"4","last_reported":1751015470,"current_range_meters":8000,"station_id":"ce4bhsh2rcd13ifvqi2g","pricing_plan_id":"cebpf4jnsgd1na2vs0mg"},{"bike_id":"c08e373e-40d2-4867-ba43-f2134363dd85","system_id":"levelo_inurba_marseille","lat":43.29778,"lon":5.39352,"is_reserved":false,"is_disabled":false,"rental_uris":{"android":"levelo://app?vid=c08e373e-40d2-4867-ba43-f2134363dd85","ios":"levelo://app?vid=c08e373e-40d2-4867-ba43-f2134363dd85"},"vehicle_type_id":"4","last_reported":1751015470,"current_range_meters":8000,"station_id":"chh1huq6cuj3fo74tm60","pricing_plan_id":"cebpf4jnsgd1na2vs0mg"},{"bike_id":"a9d25cad-d480-4c75-aec5-3969f1a4e6c7","system_id":"levelo_inurba_marseille","lat":43.329359,"lon":5.390375,"is_reserved":false,"is_disabled":false,"rental_uris":{"android":"levelo://app?vid=a9d25cad-d480-4c75-aec5-3969f1a4e6c7","ios":"levelo://app?vid=a9d25cad-d480-4c75-aec5-3969f1a4e6c7"},"vehicle_type_id":"4","last_reported":1751015470,"current_range_meters":8400,"station_id":"","pricing_plan_id":"cebpf4jnsgd1na2vs0mg"},{"bike_id":"5926c0d7-cd62-47ea-9963-f37b8d2657d9","system_id":"levelo_inurba_marseille","lat":43.23146,"lon":5.43716,"is_reserved":false,"is_disabled":false,"rental_uris":{"android":"levelo://app?vid=5926c0d7-cd62-47ea-9963-f37b8d2657d9","ios":"levelo://app?vid=5926c0d7-cd62-47ea-9963-f37b8d2657d9"},"vehicle_type_id":"4","last_reported":1751015470,"current_range_meters":8400,"station_id":"ce4bhmp2rcd13ifvqgog","pricing_plan_id":"cebpf4jnsgd1na2vs0mg"},{"bike_id":"6bb25087-4929-40aa-a0d7-d130e48685f0","system_id":"levelo_inurba_marseille","lat":43.24167,"lon":5.36395,"is_reserved":false,"is_disabled":false,"rental_uris":{"android":"levelo://app?vid=6bb25087-4929-40aa-a0d7-d130e48685f0","ios":"levelo://app?vid=6bb25087-4929-40aa-a0d7-d130e48685f0"},"vehicle_type_id":"4","last_reported":1751015470,"current_range_meters":8400,"station_id":"cpo36qri1sfpv3e86is0","pricing_plan_id":"cebpf4jnsgd1na2vs0mg"},{"bike_id":"f47876d7-9c85-474e-92c5-7a242e08b67c","system_id":"levelo_inurba_marseille","lat":43.30558,"lon":5.37557,"is_reserved":false,"is_disabled":false,"rental_uris":{"android":"levelo://app?vid=f47876d7-9c85-474e-92c5-7a242e08b67c","ios":"levelo://app?vid=f47876d7-9c85-474e-92c5-7a242e08b67c"},"vehicle_type_id":"4","last_reported":1751015470,"current_range_meters":8800,"station_id":"","pricing_plan_id":"cebpf4jnsgd1na2vs0mg"},{"bike_id":"e2b1b81d-27e8-495b-9fce-5bef10a02ecf","system_id":"levelo_inurba_marseille","lat":43.27029,"lon":5.38851,"is_reserved":false,"is_disabled":false,"rental_uris":{"android":"levelo://app?vid=e2b1b81d-27e8-495b-9fce-5bef10a02ecf","ios":"levelo://app?vid=e2b1b81d-27e8-495b-9fce-5bef10a02ecf"},"vehicle_type_id":"4","last_reported":1751015470,"current_range_meters":8800,"station_id":"","pricing_plan_id":"cebpf4jnsgd1na2vs0mg"},{"bike_id":"fe78de29-6f01-4c97-b1ea-fd1cbf40c3f5","system_id":"levelo_inurba_marseille","lat":43.30598,"lon":5.37234,"is_reserved":false,"is_disabled":false,"rental_uris":{"android":"levelo://app?vid=fe78de29-6f01-4c97-b1ea-fd1cbf40c3f5","ios":"levelo://app?vid=fe78de29-6f01-4c97-b1ea-fd1cbf40c3f5"},"vehicle_type_id":"4","last_reported":1751015470,"current_range_meters":8800,"station_id":"ce4bgqh2rcd13ifvqc4g","pricing_plan_id":"cebpf4jnsgd1na2vs0mg"},{"bike_id":"03b5348c-ee39-4d54-8f25-73a9c6bc36df","system_id":"levelo_inurba_marseille","lat":43.30373,"lon":5.42484,"is_reserved":false,"is_disabled":false,"rental_uris":{"android":"levelo://app?vid=03b5348c-ee39-4d54-8f25-73a9c6bc36df","ios":"levelo://app?vid=03b5348c-ee39-4d54-8f25-73a9c6bc36df"},"vehicle_type_id":"4","last_reported":1751015470,"current_range_meters":8800,"station_id":"ce4bhoh2rcd13ifvqh6g","pricing_plan_id":"cebpf4jnsgd1na2vs0mg"},{"bike_id":"a8f1d44c-de5e-4c11-ac91-7b2b8da7a2fb","system_id":"levelo_inurba_marseille","lat":43.33604,"lon":5.41034,"is_reserved":false,"is_disabled":false,"rental_uris":{"android":"levelo://app?vid=a8f1d44c-de5e-4c11-ac91-7b2b8da7a2fb","ios":"levelo://app?vid=a8f1d44c-de5e-4c11-ac91-7b2b8da7a2fb"},"vehicle_type_id":"4","last_reported":1751015470,"current_range_meters":8800,"station_id":"ce4bhqh2rcd13ifvqhmg","pricing_plan_id":"cebpf4jnsgd1na2vs0mg"},{"bike_id":"286018a5-a6fc-4e0e-aced-6b508e57f032","system_id":"levelo_inurba_marseille","lat":43.33758,"lon":5.37417,"is_reserved":false,"is_disabled":false,"rental_uris":{"android":"levelo://app?vid=286018a5-a6fc-4e0e-aced-6b508e57f032","ios":"levelo://app?vid=286018a5-a6fc-4e0e-aced-6b508e57f032"},"vehicle_type_id":"4","last_reported":1751015470,"current_range_meters":9200,"station_id":"","pricing_plan_id":"cebpf4jnsgd1na2vs0mg"},{"bike_id":"86fab3c7-6bf4-40a8-93a4-5d69b0a08921","system_id":"levelo_inurba_marseille","lat":43.29253,"lon":5.37627,"is_reserved":false,"is_disabled":false,"rental_uris":{"android":"levelo://app?vid=86fab3c7-6bf4-40a8-93a4-5d69b0a08921","ios":"levelo://app?vid=86fab3c7-6bf4-40a8-93a4-5d69b0a08921"},"vehicle_type_id":"4","last_reported":1751015470,"current_range_meters":9200,"station_id":"ce4bgi12rcd13ifvqb80","pricing_plan_id":"cebpf4jnsgd1na2vs0mg"},{"bike_id":"a37d97ab-a8c6-40a8-9099-6c96b7edb7d4","system_id":"levelo_inurba_marseille","lat":43.306,"lon":5.37231,"is_reserved":false,"is_disabled":false,"rental_uris":{"android":"levelo://app?vid=a37d97ab-a8c6-40a8-9099-6c96b7edb7d4","ios":"levelo://app?vid=a37d97ab-a8c6-40a8-9099-6c96b7edb7d4"},"vehicle_type_id":"4","last_reported":1751015470,"current_range_meters":9200,"station_id":"ce4bgqh2rcd13ifvqc4g","pricing_plan_id":"cebpf4jnsgd1na2vs0mg"},{"bike_id":"94e84186-d780-461a-b647-8d1cf3f036ad","system_id":"levelo_inurba_marseille","lat":43.31753,"lon":5.37671,"is_reserved":false,"is_disabled":false,"rental_uris":{"android":"levelo://app?vid=94e84186-d780-461a-b647-8d1cf3f036ad","ios":"levelo://app?vid=94e84186-d780-461a-b647-8d1cf3f036ad"},"vehicle_type_id":"4","last_reported":1751015470,"current_range_meters":9200,"station_id":"ce4bgth2rcd13ifvqch0","pricing_plan_id":"cebpf4jnsgd1na2vs0mg"},{"bike_id":"5371c9bc-3061-4745-8ac9-2fc5914ff687","system_id":"levelo_inurba_marseille","lat":43.249168,"lon":5.387327,"is_reserved":false,"is_disabled":false,"rental_uris":{"android":"levelo://app?vid=5371c9bc-3061-4745-8ac9-2fc5914ff687","ios":"levelo://app?vid=5371c9bc-3061-4745-8ac9-2fc5914ff687"},"vehicle_type_id":"4","last_reported":1751015470,"current_range_meters":9600,"station_id":"","pricing_plan_id":"cebpf4jnsgd1na2vs0mg"},{"bike_id":"af1ba19a-81f2-45a3-9bbf-f0d74fa0eb75","system_id":"levelo_inurba_marseille","lat":43.31383,"lon":5.36692,"is_reserved":false,"is_disabled":false,"rental_uris":{"android":"levelo://app?vid=af1ba19a-81f2-45a3-9bbf-f0d74fa0eb75","ios":"levelo://app?vid=af1ba19a-81f2-45a3-9bbf-f0d74fa0eb75"},"vehicle_type_id":"4","last_reported":1751015470,"current_range_meters":9600,"station_id":"","pricing_plan_id":"cebpf4jnsgd1na2vs0mg"},{"bike_id":"6f956401-3695-4c6c-b363-02c08c0212f8","system_id":"levelo_inurba_marseille","lat":43.30427,"lon":5.38887,"is_reserved":false,"is_disabled":false,"rental_uris":{"android":"levelo://app?vid=6f956401-3695-4c6c-b363-02c08c0212f8","ios":"levelo://app?vid=6f956401-3695-4c6c-b363-02c08c0212f8"},"vehicle_type_id":"4","last_reported":1751015470,"current_range_meters":9600,"station_id":"ce4bgk12rcd13ifvqbi0","pricing_plan_id":"cebpf4jnsgd1na2vs0mg"},{"bike_id":"c61476dd-8adb-4613-b539-a7361fccf837","system_id":"levelo_inurba_marseille","lat":43.23958,"lon":5.3663,"is_reserved":false,"is_disabled":false,"rental_uris":{"android":"levelo://app?vid=c61476dd-8adb-4613-b539-a7361fccf837","ios":"levelo://app?vid=c61476dd-8adb-4613-b539-a7361fccf837"},"vehicle_type_id":"4","last_reported":1751015470,"current_range_meters":9600,"station_id":"ce4bhi12rcd13ifvqfp0","pricing_plan_id":"cebpf4jnsgd1na2vs0mg"},{"bike_id":"4b8da722-ee9e-48a4-a5e5-3a8a10364708","system_id":"levelo_inurba_marseille","lat":43.31227,"lon":5.3782,"is_reserved":false,"is_disabled":false,"rental_uris":{"android":"levelo://app?vid=4b8da722-ee9e-48a4-a5e5-3a8a10364708","ios":"levelo://app?vid=4b8da722-ee9e-48a4-a5e5-3a8a10364708"},"vehicle_type_id":"4","last_reported":1751015470,"current_range_meters":10000,"station_id":"","pricing_plan_id":"cebpf4jnsgd1na2vs0mg"},{"bike_id":"69a9b7bf-69b2-47a2-8bc4-bb00821e8199","system_id":"levelo_inurba_marseille","lat":43.21575,"lon":5.34695,"is_reserved":false,"is_disabled":false,"rental_uris":{"android":"levelo://app?vid=69a9b7bf-69b2-47a2-8bc4-bb00821e8199","ios":"levelo://app?vid=69a9b7bf-69b2-47a2-8bc4-bb00821e8199"},"vehicle_type_id":"4","last_reported":1751015470,"current_range_meters":10000,"station_id":"","pricing_plan_id":"cebpf4jnsgd1na2vs0mg"},{"bike_id":"93f35d7a-d181-4b51-ba80-ba0fc9b60fc6","system_id":"levelo_inurba_marseille","lat":43.29369,"lon":5.37846,"is_reserved":false,"is_disabled":false,"rental_uris":{"android":"levelo://app?vid=93f35d7a-d181-4b51-ba80-ba0fc9b60fc6","ios":"levelo://app?vid=93f35d7a-d181-4b51-ba80-ba0fc9b60fc6"},"vehicle_type_id":"4","last_reported":1751015470,"current_range_meters":10000,"station_id":"ce4bgjh2rcd13ifvqbf0","pricing_plan_id":"cebpf4jnsgd1na2vs0mg"},{"bike_id":"cd39f1c4-7693-4fc7-be02-2a83b57b3da6","system_id":"levelo_inurba_marseille","lat":43.25585,"lon":5.38241,"is_reserved":false,"is_disabled":false,"rental_uris":{"android":"levelo://app?vid=cd39f1c4-7693-4fc7-be02-2a83b57b3da6","ios":"levelo://app?vid=cd39f1c4-7693-4fc7-be02-2a83b57b3da6"},"vehicle_type_id":"4","last_reported":1751015470,"current_range_meters":10000,"station_id":"ce4bhih2rcd13ifvqfs0","pricing_plan_id":"cebpf4jnsgd1na2vs0mg"},{"bike_id":"d6904b5a-06f2-4cef-8190-a15798c93362","system_id":"levelo_inurba_marseille","lat":43.27071,"lon":5.42276,"is_reserved":false,"is_disabled":false,"rental_uris":{"android":"levelo://app?vid=d6904b5a-06f2-4cef-8190-a15798c93362","ios":"levelo://app?vid=d6904b5a-06f2-4cef-8190-a15798c93362"},"vehicle_type_id":"4","last_reported":1751015470,"current_range_meters":10000,"station_id":"ce4bhk92rcd13ifvqgb0","pricing_plan_id":"cebpf4jnsgd1na2vs0mg"},{"bike_id":"6e333cad-8154-4d5d-9ce4-405ad8359f75","system_id":"levelo_inurba_marseille","lat":43.22926,"lon":5.35385,"is_reserved":false,"is_disabled":false,"rental_uris":{"android":"levelo://app?vid=6e333cad-8154-4d5d-9ce4-405ad8359f75","ios":"levelo://app?vid=6e333cad-8154-4d5d-9ce4-405ad8359f75"},"vehicle_type_id":"4","last_reported":1751015470,"current_range_meters":10000,"station_id":"cpo3532slgdg3j2ikp40","pricing_plan_id":"cebpf4jnsgd1na2vs0mg"},{"bike_id":"a883f219-e577-4c8c-8a63-91ae6336dd84","system_id":"levelo_inurba_marseille","lat":43.30924,"lon":5.36818,"is_reserved":false,"is_disabled":false,"rental_uris":{"android":"levelo://app?vid=a883f219-e577-4c8c-8a63-91ae6336dd84","ios":"levelo://app?vid=a883f219-e577-4c8c-8a63-91ae6336dd84"},"vehicle_type_id":"4","last_reported":1751015470,"current_range_meters":10800,"station_id":"ce4bgn92rcd13ifvqbvg","pricing_plan_id":"cebpf4jnsgd1na2vs0mg"},{"bike_id":"a61cdc36-eff7-4672-8f0d-dffa4a14ca17","system_id":"levelo_inurba_marseille","lat":43.29956,"lon":5.37164,"is_reserved":false,"is_disabled":false,"rental_uris":{"android":"levelo://app?vid=a61cdc36-eff7-4672-8f0d-dffa4a14ca17","ios":"levelo://app?vid=a61cdc36-eff7-4672-8f0d-dffa4a14ca17"},"vehicle_type_id":"4","last_reported":1751015470,"current_range_meters":10800,"station_id":"ce4bgr92rcd13ifvqc7g","pricing_plan_id":"cebpf4jnsgd1na2vs0mg"},{"bike_id":"c9d8f67c-b2c4-490c-a7c8-4a6bdfe706dc","system_id":"levelo_inurba_marseille","lat":43.30151,"lon":5.37413,"is_reserved":false,"is_disabled":false,"rental_uris":{"android":"levelo://app?vid=c9d8f67c-b2c4-490c-a7c8-4a6bdfe706dc","ios":"levelo://app?vid=c9d8f67c-b2c4-490c-a7c8-4a6bdfe706dc"},"vehicle_type_id":"4","last_reported":1751015470,"current_range_meters":10800,"station_id":"ce4bgs92rcd13ifvqcc0","pricing_plan_id":"cebpf4jnsgd1na2vs0mg"},{"bike_id":"d9ca7cb0-ab49-486e-bd37-0112f1a46066","system_id":"levelo_inurba_marseille","lat":43.25492,"lon":5.37649,"is_reserved":false,"is_disabled":false,"rental_uris":{"android":"levelo://app?vid=d9ca7cb0-ab49-486e-bd37-0112f1a46066","ios":"levelo://app?vid=d9ca7cb0-ab49-486e-bd37-0112f1a46066"},"vehicle_type_id":"4","last_reported":1751015470,"current_range_meters":10800,"station_id":"ce4bhh12rcd13ifvqff0","pricing_plan_id":"cebpf4jnsgd1na2vs0mg"},{"bike_id":"959a6144-1b8c-4394-b676-453ee52d4830","system_id":"levelo_inurba_marseille","lat":43.32495,"lon":5.3656,"is_reserved":false,"is_disabled":false,"rental_uris":{"android":"levelo://app?vid=959a6144-1b8c-4394-b676-453ee52d4830","ios":"levelo://app?vid=959a6144-1b8c-4394-b676-453ee52d4830"},"vehicle_type_id":"4","last_reported":1751015470,"current_range_meters":10800,"station_id":"ce4bhs12rcd13ifvqhvg","pricing_plan_id":"cebpf4jnsgd1na2vs0mg"},{"bike_id":"d2541864-294e-4fa8-8ed4-da3902bb58d5","system_id":"levelo_inurba_marseille","lat":43.229313,"lon":5.353694,"is_reserved":false,"is_disabled":false,"rental_uris":{"android":"levelo://app?vid=d2541864-294e-4fa8-8ed4-da3902bb58d5","ios":"levelo://app?vid=d2541864-294e-4fa8-8ed4-da3902bb58d5"},"vehicle_type_id":"4","last_reported":1751015470,"current_range_meters":10800,"station_id":"cpo3532slgdg3j2ikp40","pricing_plan_id":"cebpf4jnsgd1na2vs0mg"},{"bike_id":"38ee6c99-ed1c-4320-bb3c-b1d717388b30","system_id":"levelo_inurba_marseille","lat":43.229433,"lon":5.353816,"is_reserved":false,"is_disabled":false,"rental_uris":{"android":"levelo://app?vid=38ee6c99-ed1c-4320-bb3c-b1d717388b30","ios":"levelo://app?vid=38ee6c99-ed1c-4320-bb3c-b1d717388b30"},"vehicle_type_id":"4","last_reported":1751015470,"current_range_meters":10800,"station_id":"cpo3532slgdg3j2ikp40","pricing_plan_id":"cebpf4jnsgd1na2vs0mg"},{"bike_id":"768c0104-715f-4ae7-8bb0-ad9c0d98e622","system_id":"levelo_inurba_marseille","lat":43.31057,"lon":5.40092,"is_reserved":false,"is_disabled":false,"rental_uris":{"android":"levelo://app?vid=768c0104-715f-4ae7-8bb0-ad9c0d98e622","ios":"levelo://app?vid=768c0104-715f-4ae7-8bb0-ad9c0d98e622"},"vehicle_type_id":"4","last_reported":1751015470,"current_range_meters":11200,"station_id":"","pricing_plan_id":"cebpf4jnsgd1na2vs0mg"},{"bike_id":"24452e3f-2733-4bac-88fc-89974c9e356d","system_id":"levelo_inurba_marseille","lat":43.29973,"lon":5.38472,"is_reserved":false,"is_disabled":false,"rental_uris":{"android":"levelo://app?vid=24452e3f-2733-4bac-88fc-89974c9e356d","ios":"levelo://app?vid=24452e3f-2733-4bac-88fc-89974c9e356d"},"vehicle_type_id":"4","last_reported":1751015470,"current_range_meters":11200,"station_id":"ce4bgj92rcd13ifvqbd0","pricing_plan_id":"cebpf4jnsgd1na2vs0mg"},{"bike_id":"ce974c4d-c988-4d8d-ae5a-11eea42621cf","system_id":"levelo_inurba_marseille","lat":43.246569,"lon":5.381628,"is_reserved":false,"is_disabled":false,"rental_uris":{"android":"levelo://app?vid=ce974c4d-c988-4d8d-ae5a-11eea42621cf","ios":"levelo://app?vid=ce974c4d-c988-4d8d-ae5a-11eea42621cf"},"vehicle_type_id":"4","last_reported":1751015470,"current_range_meters":11200,"station_id":"ce4bhih2rcd13ifvqfr0","pricing_plan_id":"cebpf4jnsgd1na2vs0mg"},{"bike_id":"b7d0d8a1-c5dd-4278-8b3b-f5786872fe32","system_id":"levelo_inurba_marseille","lat":43.320895,"lon":5.367696,"is_reserved":false,"is_disabled":false,"rental_uris":{"android":"levelo://app?vid=b7d0d8a1-c5dd-4278-8b3b-f5786872fe32","ios":"levelo://app?vid=b7d0d8a1-c5dd-4278-8b3b-f5786872fe32"},"vehicle_type_id":"4","last_reported":1751015470,"current_range_meters":11200,"station_id":"ce4bhrh2rcd13ifvqhug","pricing_plan_id":"cebpf4jnsgd1na2vs0mg"},{"bike_id":"277d6f3a-b9b5-4d88-bf0d-6c597782848e","system_id":"levelo_inurba_marseille","lat":43.23199,"lon":5.35526,"is_reserved":false,"is_disabled":false,"rental_uris":{"android":"levelo://app?vid=277d6f3a-b9b5-4d88-bf0d-6c597782848e","ios":"levelo://app?vid=277d6f3a-b9b5-4d88-bf0d-6c597782848e"},"vehicle_type_id":"4","last_reported":1751015470,"current_range_meters":11200,"station_id":"ce4bhu92rcd13ifvqi70","pricing_plan_id":"cebpf4jnsgd1na2vs0mg"},{"bike_id":"08e40a95-5220-46f3-aef8-4bb428e0a4cc","system_id":"levelo_inurba_marseille","lat":43.30151,"lon":5.38021,"is_reserved":false,"is_disabled":false,"rental_uris":{"android":"levelo://app?vid=08e40a95-5220-46f3-aef8-4bb428e0a4cc","ios":"levelo://app?vid=08e40a95-5220-46f3-aef8-4bb428e0a4cc"},"vehicle_type_id":"4","last_reported":1751015470,"current_range_meters":11600,"station_id":"","pricing_plan_id":"cebpf4jnsgd1na2vs0mg"},{"bike_id":"af04597a-4012-4cac-a1e3-3a46d8dc1a4d","system_id":"levelo_inurba_marseille","lat":43.29621,"lon":5.37733,"is_reserved":false,"is_disabled":false,"rental_uris":{"android":"levelo://app?vid=af04597a-4012-4cac-a1e3-3a46d8dc1a4d","ios":"levelo://app?vid=af04597a-4012-4cac-a1e3-3a46d8dc1a4d"},"vehicle_type_id":"4","last_reported":1751015470,"current_range_meters":11600,"station_id":"ce4bgi92rcd13ifvqb90","pricing_plan_id":"cebpf4jnsgd1na2vs0mg"},{"bike_id":"3cebc901-75c8-4ba6-aab0-1a0d45a97d3e","system_id":"levelo_inurba_marseille","lat":43.28977,"lon":5.37831,"is_reserved":false,"is_disabled":false,"rental_uris":{"android":"levelo://app?vid=3cebc901-75c8-4ba6-aab0-1a0d45a97d3e","ios":"levelo://app?vid=3cebc901-75c8-4ba6-aab0-1a0d45a97d3e"},"vehicle_type_id":"4","last_reported":1751015470,"current_range_meters":11600,"station_id":"ce4bh9p2rcd13ifvqed0","pricing_plan_id":"cebpf4jnsgd1na2vs0mg"},{"bike_id":"8720a31e-8b89-4107-ae04-ebeac49f2eb5","system_id":"levelo_inurba_marseille","lat":43.29145,"lon":5.37161,"is_reserved":false,"is_disabled":false,"rental_uris":{"android":"levelo://app?vid=8720a31e-8b89-4107-ae04-ebeac49f2eb5","ios":"levelo://app?vid=8720a31e-8b89-4107-ae04-ebeac49f2eb5"},"vehicle_type_id":"4","last_reported":1751015470,"current_range_meters":11600,"station_id":"ce4bha92rcd13ifvqeh0","pricing_plan_id":"cebpf4jnsgd1na2vs0mg"},{"bike_id":"7817ac31-cf39-4cde-a1f5-6d2dc6b8b65f","system_id":"levelo_inurba_marseille","lat":43.29271,"lon":5.36837,"is_reserved":false,"is_disabled":false,"rental_uris":{"android":"levelo://app?vid=7817ac31-cf39-4cde-a1f5-6d2dc6b8b65f","ios":"levelo://app?vid=7817ac31-cf39-4cde-a1f5-6d2dc6b8b65f"},"vehicle_type_id":"4","last_reported":1751015470,"current_range_meters":11600,"station_id":"ce4bhbp2rcd13ifvqesg","pricing_plan_id":"cebpf4jnsgd1na2vs0mg"},{"bike_id":"63510074-d44a-40b9-9bfb-eb71dfd543d9","system_id":"levelo_inurba_marseille","lat":43.23148,"lon":5.43719,"is_reserved":false,"is_disabled":false,"rental_uris":{"android":"levelo://app?vid=63510074-d44a-40b9-9bfb-eb71dfd543d9","ios":"levelo://app?vid=63510074-d44a-40b9-9bfb-eb71dfd543d9"},"vehicle_type_id":"4","last_reported":1751015470,"current_range_meters":11600,"station_id":"ce4bhmp2rcd13ifvqgog","pricing_plan_id":"cebpf4jnsgd1na2vs0mg"},{"bike_id":"2315c627-494e-41a8-a12f-403d40de57ef","system_id":"levelo_inurba_marseille","lat":43.30289,"lon":5.40333,"is_reserved":false,"is_disabled":false,"rental_uris":{"android":"levelo://app?vid=2315c627-494e-41a8-a12f-403d40de57ef","ios":"levelo://app?vid=2315c627-494e-41a8-a12f-403d40de57ef"},"vehicle_type_id":"4","last_reported":1751015470,"current_range_meters":12000,"station_id":"","pricing_plan_id":"cebpf4jnsgd1na2vs0mg"},{"bike_id":"bfb795a0-9115-496e-bc55-21db3298c66f","system_id":"levelo_inurba_marseille","lat":43.2926,"lon":5.37616,"is_reserved":false,"is_disabled":false,"rental_uris":{"android":"levelo://app?vid=bfb795a0-9115-496e-bc55-21db3298c66f","ios":"levelo://app?vid=bfb795a0-9115-496e-bc55-21db3298c66f"},"vehicle_type_id":"4","last_reported":1751015470,"current_range_meters":12400,"station_id":"ce4bgi12rcd13ifvqb80","pricing_plan_id":"cebpf4jnsgd1na2vs0mg"},{"bike_id":"27fda73d-ecf8-479a-a5f9-9bb6563c8086","system_id":"levelo_inurba_marseille","lat":43.32111,"lon":5.36778,"is_reserved":false,"is_disabled":false,"rental_uris":{"android":"levelo://app?vid=27fda73d-ecf8-479a-a5f9-9bb6563c8086","ios":"levelo://app?vid=27fda73d-ecf8-479a-a5f9-9bb6563c8086"},"vehicle_type_id":"4","last_reported":1751015470,"current_range_meters":12400,"station_id":"ce4bhrh2rcd13ifvqhug","pricing_plan_id":"cebpf4jnsgd1na2vs0mg"},{"bike_id":"a440f2f6-8cf8-4348-9ba1-e21002a18a07","system_id":"levelo_inurba_marseille","lat":43.32061,"lon":5.36768,"is_reserved":false,"is_disabled":false,"rental_uris":{"android":"levelo://app?vid=a440f2f6-8cf8-4348-9ba1-e21002a18a07","ios":"levelo://app?vid=a440f2f6-8cf8-4348-9ba1-e21002a18a07"},"vehicle_type_id":"4","last_reported":1751015470,"current_range_meters":12400,"station_id":"ce4bhrh2rcd13ifvqhug","pricing_plan_id":"cebpf4jnsgd1na2vs0mg"},{"bike_id":"348936c8-7c8d-4b8a-988e-b0a979920804","system_id":"levelo_inurba_marseille","lat":43.2119,"lon":5.350726,"is_reserved":false,"is_disabled":false,"rental_uris":{"android":"levelo://app?vid=348936c8-7c8d-4b8a-988e-b0a979920804","ios":"levelo://app?vid=348936c8-7c8d-4b8a-988e-b0a979920804"},"vehicle_type_id":"4","last_reported":1751015470,"current_range_meters":12400,"station_id":"st_cvj6sg6p6f1abm77japg","pricing_plan_id":"cebpf4jnsgd1na2vs0mg"},{"bike_id":"4d06c23d-5186-47c3-82a2-4c156c24f905","system_id":"levelo_inurba_marseille","lat":43.217476,"lon":5.346012,"is_reserved":false,"is_disabled":false,"rental_uris":{"android":"levelo://app?vid=4d06c23d-5186-47c3-82a2-4c156c24f905","ios":"levelo://app?vid=4d06c23d-5186-47c3-82a2-4c156c24f905"},"vehicle_type_id":"4","last_reported":1751015470,"current_range_meters":12800,"station_id":"","pricing_plan_id":"cebpf4jnsgd1na2vs0mg"},{"bike_id":"d93518a7-acea-49d1-8b1d-66917831e25a","system_id":"levelo_inurba_marseille","lat":43.28355,"lon":5.3956,"is_reserved":false,"is_disabled":false,"rental_uris":{"android":"levelo://app?vid=d93518a7-acea-49d1-8b1d-66917831e25a","ios":"levelo://app?vid=d93518a7-acea-49d1-8b1d-66917831e25a"},"vehicle_type_id":"4","last_reported":1751015470,"current_range_meters":12800,"station_id":"","pricing_plan_id":"cebpf4jnsgd1na2vs0mg"},{"bike_id":"343daa3c-9493-464d-96cd-a20af08a518d","system_id":"levelo_inurba_marseille","lat":43.29377,"lon":5.37825,"is_reserved":false,"is_disabled":false,"rental_uris":{"android":"levelo://app?vid=343daa3c-9493-464d-96cd-a20af08a518d","ios":"levelo://app?vid=343daa3c-9493-464d-96cd-a20af08a518d"},"vehicle_type_id":"4","last_reported":1751015470,"current_range_meters":12800,"station_id":"ce4bgjh2rcd13ifvqbf0","pricing_plan_id":"cebpf4jnsgd1na2vs0mg"},{"bike_id":"106f51a6-8d14-465d-b94f-be0112029c3d","system_id":"levelo_inurba_marseille","lat":43.305343,"lon":5.36539,"is_reserved":false,"is_disabled":false,"rental_uris":{"android":"levelo://app?vid=106f51a6-8d14-465d-b94f-be0112029c3d","ios":"levelo://app?vid=106f51a6-8d14-465d-b94f-be0112029c3d"},"vehicle_type_id":"4","last_reported":1751015470,"current_range_meters":12800,"station_id":"ce4bgs12rcd13ifvqcag","pricing_plan_id":"cebpf4jnsgd1na2vs0mg"},{"bike_id":"a87d2e08-b948-4111-b2a3-ff37a8b262c3","system_id":"levelo_inurba_marseille","lat":43.26676,"lon":5.38279,"is_reserved":false,"is_disabled":false,"rental_uris":{"android":"levelo://app?vid=a87d2e08-b948-4111-b2a3-ff37a8b262c3","ios":"levelo://app?vid=a87d2e08-b948-4111-b2a3-ff37a8b262c3"},"vehicle_type_id":"4","last_reported":1751015470,"current_range_meters":12800,"station_id":"ce4bhg92rcd13ifvqf90","pricing_plan_id":"cebpf4jnsgd1na2vs0mg"},{"bike_id":"8d195e22-2e1a-46af-8870-6e815c9e4ce0","system_id":"levelo_inurba_marseille","lat":43.26783,"lon":5.39403,"is_reserved":false,"is_disabled":false,"rental_uris":{"android":"levelo://app?vid=8d195e22-2e1a-46af-8870-6e815c9e4ce0","ios":"levelo://app?vid=8d195e22-2e1a-46af-8870-6e815c9e4ce0"},"vehicle_type_id":"4","last_reported":1751015470,"current_range_meters":12800,"station_id":"ce4bhh12rcd13ifvqfg0","pricing_plan_id":"cebpf4jnsgd1na2vs0mg"},{"bike_id":"b8954a9f-7ce8-456c-a0b7-ca33c9473361","system_id":"levelo_inurba_marseille","lat":43.31999,"lon":5.38141,"is_reserved":false,"is_disabled":false,"rental_uris":{"android":"levelo://app?vid=b8954a9f-7ce8-456c-a0b7-ca33c9473361","ios":"levelo://app?vid=b8954a9f-7ce8-456c-a0b7-ca33c9473361"},"vehicle_type_id":"4","last_reported":1751015470,"current_range_meters":12800,"station_id":"ce4bhr12rcd13ifvqhpg","pricing_plan_id":"cebpf4jnsgd1na2vs0mg"},{"bike_id":"1c8ab180-05fd-405f-9922-b2b2c2d5142f","system_id":"levelo_inurba_marseille","lat":43.321244,"lon":5.367768,"is_reserved":false,"is_disabled":false,"rental_uris":{"android":"levelo://app?vid=1c8ab180-05fd-405f-9922-b2b2c2d5142f","ios":"levelo://app?vid=1c8ab180-05fd-405f-9922-b2b2c2d5142f"},"vehicle_type_id":"4","last_reported":1751015470,"current_range_meters":12800,"station_id":"ce4bhrh2rcd13ifvqhug","pricing_plan_id":"cebpf4jnsgd1na2vs0mg"},{"bike_id":"9437a4f0-44da-4d96-8a34-44a726cb8906","system_id":"levelo_inurba_marseille","lat":43.29899,"lon":5.38153,"is_reserved":false,"is_disabled":false,"rental_uris":{"android":"levelo://app?vid=9437a4f0-44da-4d96-8a34-44a726cb8906","ios":"levelo://app?vid=9437a4f0-44da-4d96-8a34-44a726cb8906"},"vehicle_type_id":"4","last_reported":1751015470,"current_range_meters":13600,"station_id":"ce4bgj12rcd13ifvqbc0","pricing_plan_id":"cebpf4jnsgd1na2vs0mg"},{"bike_id":"90ae8cb9-4320-4dce-9fc9-f33f1ceb1b70","system_id":"levelo_inurba_marseille","lat":43.31684,"lon":5.40475,"is_reserved":false,"is_disabled":false,"rental_uris":{"android":"levelo://app?vid=90ae8cb9-4320-4dce-9fc9-f33f1ceb1b70","ios":"levelo://app?vid=90ae8cb9-4320-4dce-9fc9-f33f1ceb1b70"},"vehicle_type_id":"4","last_reported":1751015470,"current_range_meters":13600,"station_id":"ce4bh012rcd13ifvqd00","pricing_plan_id":"cebpf4jnsgd1na2vs0mg"},{"bike_id":"1350bd26-fe2d-4030-af2e-d2fa9f9d0e41","system_id":"levelo_inurba_marseille","lat":43.28668,"lon":5.36346,"is_reserved":false,"is_disabled":false,"rental_uris":{"android":"levelo://app?vid=1350bd26-fe2d-4030-af2e-d2fa9f9d0e41","ios":"levelo://app?vid=1350bd26-fe2d-4030-af2e-d2fa9f9d0e41"},"vehicle_type_id":"4","last_reported":1751015470,"current_range_meters":13600,"station_id":"ce4bhah2rcd13ifvqej0","pricing_plan_id":"cebpf4jnsgd1na2vs0mg"},{"bike_id":"d0692d4d-a499-4c93-9a2d-41d5d8d19d0d","system_id":"levelo_inurba_marseille","lat":43.24802,"lon":5.37454,"is_reserved":false,"is_disabled":false,"rental_uris":{"android":"levelo://app?vid=d0692d4d-a499-4c93-9a2d-41d5d8d19d0d","ios":"levelo://app?vid=d0692d4d-a499-4c93-9a2d-41d5d8d19d0d"},"vehicle_type_id":"4","last_reported":1751015470,"current_range_meters":13600,"station_id":"ce4bhgh2rcd13ifvqfb0","pricing_plan_id":"cebpf4jnsgd1na2vs0mg"},{"bike_id":"100162a6-cf27-423d-9080-44d33019b17f","system_id":"levelo_inurba_marseille","lat":43.27223,"lon":5.39158,"is_reserved":false,"is_disabled":false,"rental_uris":{"android":"levelo://app?vid=100162a6-cf27-423d-9080-44d33019b17f","ios":"levelo://app?vid=100162a6-cf27-423d-9080-44d33019b17f"},"vehicle_type_id":"4","last_reported":1751015470,"current_range_meters":13600,"station_id":"ce4bhhp2rcd13ifvqfm0","pricing_plan_id":"cebpf4jnsgd1na2vs0mg"},{"bike_id":"3f2e5038-cd5f-466d-9578-2783163f088e","system_id":"levelo_inurba_marseille","lat":43.32104,"lon":5.36778,"is_reserved":false,"is_disabled":false,"rental_uris":{"android":"levelo://app?vid=3f2e5038-cd5f-466d-9578-2783163f088e","ios":"levelo://app?vid=3f2e5038-cd5f-466d-9578-2783163f088e"},"vehicle_type_id":"4","last_reported":1751015470,"current_range_meters":13600,"station_id":"ce4bhrh2rcd13ifvqhug","pricing_plan_id":"cebpf4jnsgd1na2vs0mg"},{"bike_id":"a8cbac99-e5e2-4544-85a1-388f92a46007","system_id":"levelo_inurba_marseille","lat":43.30153,"lon":5.38077,"is_reserved":false,"is_disabled":false,"rental_uris":{"android":"levelo://app?vid=a8cbac99-e5e2-4544-85a1-388f92a46007","ios":"levelo://app?vid=a8cbac99-e5e2-4544-85a1-388f92a46007"},"vehicle_type_id":"4","last_reported":1751015470,"current_range_meters":14000,"station_id":"ce4bgjp2rcd13ifvqbh0","pricing_plan_id":"cebpf4jnsgd1na2vs0mg"},{"bike_id":"8310acd7-c7f9-4228-ad1a-9d3de265b419","system_id":"levelo_inurba_marseille","lat":43.29668,"lon":5.37291,"is_reserved":false,"is_disabled":false,"rental_uris":{"android":"levelo://app?vid=8310acd7-c7f9-4228-ad1a-9d3de265b419","ios":"levelo://app?vid=8310acd7-c7f9-4228-ad1a-9d3de265b419"},"vehicle_type_id":"4","last_reported":1751015470,"current_range_meters":14000,"station_id":"ce4bgk12rcd13ifvqbj0","pricing_plan_id":"cebpf4jnsgd1na2vs0mg"},{"bike_id":"8b1a9877-8735-4790-b013-59ea90b17ce4","system_id":"levelo_inurba_marseille","lat":43.29746,"lon":5.37112,"is_reserved":false,"is_disabled":false,"rental_uris":{"android":"levelo://app?vid=8b1a9877-8735-4790-b013-59ea90b17ce4","ios":"levelo://app?vid=8b1a9877-8735-4790-b013-59ea90b17ce4"},"vehicle_type_id":"4","last_reported":1751015470,"current_range_meters":14000,"station_id":"ce4bgop2rcd13ifvqc1g","pricing_plan_id":"cebpf4jnsgd1na2vs0mg"},{"bike_id":"4bc3c66c-12ae-4894-90ff-34ae53f577f2","system_id":"levelo_inurba_marseille","lat":43.30207,"lon":5.39467,"is_reserved":false,"is_disabled":false,"rental_uris":{"android":"levelo://app?vid=4bc3c66c-12ae-4894-90ff-34ae53f577f2","ios":"levelo://app?vid=4bc3c66c-12ae-4894-90ff-34ae53f577f2"},"vehicle_type_id":"4","last_reported":1751015470,"current_range_meters":14000,"station_id":"ce4bh0p2rcd13ifvqd70","pricing_plan_id":"cebpf4jnsgd1na2vs0mg"},{"bike_id":"104d9a39-d4fe-4577-bd3e-dfa2a6c208e7","system_id":"levelo_inurba_marseille","lat":43.27203,"lon":5.40981,"is_reserved":false,"is_disabled":false,"rental_uris":{"android":"levelo://app?vid=104d9a39-d4fe-4577-bd3e-dfa2a6c208e7","ios":"levelo://app?vid=104d9a39-d4fe-4577-bd3e-dfa2a6c208e7"},"vehicle_type_id":"4","last_reported":1751015470,"current_range_meters":14000,"station_id":"ce4bhl12rcd13ifvqgf0","pricing_plan_id":"cebpf4jnsgd1na2vs0mg"},{"bike_id":"e7c86b76-fec6-4d82-9589-044e8efa048a","system_id":"levelo_inurba_marseille","lat":43.3229,"lon":5.38265,"is_reserved":false,"is_disabled":false,"rental_uris":{"android":"levelo://app?vid=e7c86b76-fec6-4d82-9589-044e8efa048a","ios":"levelo://app?vid=e7c86b76-fec6-4d82-9589-044e8efa048a"},"vehicle_type_id":"4","last_reported":1751015470,"current_range_meters":14000,"station_id":"ce4bhr12rcd13ifvqhqg","pricing_plan_id":"cebpf4jnsgd1na2vs0mg"},{"bike_id":"5a01ae6d-9064-484c-8d77-2d9e141e2313","system_id":"levelo_inurba_marseille","lat":43.24495,"lon":5.38988,"is_reserved":false,"is_disabled":false,"rental_uris":{"android":"levelo://app?vid=5a01ae6d-9064-484c-8d77-2d9e141e2313","ios":"levelo://app?vid=5a01ae6d-9064-484c-8d77-2d9e141e2313"},"vehicle_type_id":"4","last_reported":1751015470,"current_range_meters":14400,"station_id":"","pricing_plan_id":"cebpf4jnsgd1na2vs0mg"},{"bike_id":"a4c47847-0ebf-461f-8f89-7376bc139baa","system_id":"levelo_inurba_marseille","lat":43.30309,"lon":5.39203,"is_reserved":false,"is_disabled":false,"rental_uris":{"android":"levelo://app?vid=a4c47847-0ebf-461f-8f89-7376bc139baa","ios":"levelo://app?vid=a4c47847-0ebf-461f-8f89-7376bc139baa"},"vehicle_type_id":"4","last_reported":1751015470,"current_range_meters":14400,"station_id":"ce4bgkh2rcd13ifvqbk0","pricing_plan_id":"cebpf4jnsgd1na2vs0mg"},{"bike_id":"4680b3e2-9e9c-40d4-8e0d-f060fdcf1d41","system_id":"levelo_inurba_marseille","lat":43.30139,"lon":5.37388,"is_reserved":false,"is_disabled":false,"rental_uris":{"android":"levelo://app?vid=4680b3e2-9e9c-40d4-8e0d-f060fdcf1d41","ios":"levelo://app?vid=4680b3e2-9e9c-40d4-8e0d-f060fdcf1d41"},"vehicle_type_id":"4","last_reported":1751015470,"current_range_meters":14400,"station_id":"ce4bgs92rcd13ifvqcc0","pricing_plan_id":"cebpf4jnsgd1na2vs0mg"},{"bike_id":"b2dcb15b-2c05-40c4-a627-d512b63ab63e","system_id":"levelo_inurba_marseille","lat":43.24806,"lon":5.37425,"is_reserved":false,"is_disabled":false,"rental_uris":{"android":"levelo://app?vid=b2dcb15b-2c05-40c4-a627-d512b63ab63e","ios":"levelo://app?vid=b2dcb15b-2c05-40c4-a627-d512b63ab63e"},"vehicle_type_id":"4","last_reported":1751015470,"current_range_meters":14400,"station_id":"ce4bhgh2rcd13ifvqfb0","pricing_plan_id":"cebpf4jnsgd1na2vs0mg"},{"bike_id":"2fa60e55-9039-4847-9ce6-cf31799c8aa5","system_id":"levelo_inurba_marseille","lat":43.24181,"lon":5.39718,"is_reserved":false,"is_disabled":false,"rental_uris":{"android":"levelo://app?vid=2fa60e55-9039-4847-9ce6-cf31799c8aa5","ios":"levelo://app?vid=2fa60e55-9039-4847-9ce6-cf31799c8aa5"},"vehicle_type_id":"4","last_reported":1751015470,"current_range_meters":14400,"station_id":"ce4bhn12rcd13ifvqgpg","pricing_plan_id":"cebpf4jnsgd1na2vs0mg"},{"bike_id":"85d2e80a-d9c0-40bf-b172-df38bfa13836","system_id":"levelo_inurba_marseille","lat":43.29621,"lon":5.37714,"is_reserved":false,"is_disabled":false,"rental_uris":{"android":"levelo://app?vid=85d2e80a-d9c0-40bf-b172-df38bfa13836","ios":"levelo://app?vid=85d2e80a-d9c0-40bf-b172-df38bfa13836"},"vehicle_type_id":"4","last_reported":1751015470,"current_range_meters":14800,"station_id":"ce4bgi92rcd13ifvqb90","pricing_plan_id":"cebpf4jnsgd1na2vs0mg"},{"bike_id":"193d7ed7-3e66-4e56-acd0-254def2d6804","system_id":"levelo_inurba_marseille","lat":43.29359,"lon":5.3784,"is_reserved":false,"is_disabled":false,"rental_uris":{"android":"levelo://app?vid=193d7ed7-3e66-4e56-acd0-254def2d6804","ios":"levelo://app?vid=193d7ed7-3e66-4e56-acd0-254def2d6804"},"vehicle_type_id":"4","last_reported":1751015470,"current_range_meters":14800,"station_id":"ce4bgjh2rcd13ifvqbf0","pricing_plan_id":"cebpf4jnsgd1na2vs0mg"},{"bike_id":"b8094826-a7d8-439e-81ea-79ce926552e6","system_id":"levelo_inurba_marseille","lat":43.30908,"lon":5.36841,"is_reserved":false,"is_disabled":false,"rental_uris":{"android":"levelo://app?vid=b8094826-a7d8-439e-81ea-79ce926552e6","ios":"levelo://app?vid=b8094826-a7d8-439e-81ea-79ce926552e6"},"vehicle_type_id":"4","last_reported":1751015470,"current_range_meters":14800,"station_id":"ce4bgn92rcd13ifvqbvg","pricing_plan_id":"cebpf4jnsgd1na2vs0mg"},{"bike_id":"4c2fc901-6fc9-49e5-8fa5-3debbd7c2e4b","system_id":"levelo_inurba_marseille","lat":43.29926,"lon":5.37178,"is_reserved":false,"is_disabled":false,"rental_uris":{"android":"levelo://app?vid=4c2fc901-6fc9-49e5-8fa5-3debbd7c2e4b","ios":"levelo://app?vid=4c2fc901-6fc9-49e5-8fa5-3debbd7c2e4b"},"vehicle_type_id":"4","last_reported":1751015470,"current_range_meters":14800,"station_id":"ce4bgr92rcd13ifvqc7g","pricing_plan_id":"cebpf4jnsgd1na2vs0mg"},{"bike_id":"d2b6899a-4fd7-456e-a51f-91f254d564fe","system_id":"levelo_inurba_marseille","lat":43.3019,"lon":5.36631,"is_reserved":false,"is_disabled":false,"rental_uris":{"android":"levelo://app?vid=d2b6899a-4fd7-456e-a51f-91f254d564fe","ios":"levelo://app?vid=d2b6899a-4fd7-456e-a51f-91f254d564fe"},"vehicle_type_id":"4","last_reported":1751015470,"current_range_meters":14800,"station_id":"ce4bgrh2rcd13ifvqc8g","pricing_plan_id":"cebpf4jnsgd1na2vs0mg"},{"bike_id":"e3aa9769-07bd-40fc-b1ee-9cc66211ab32","system_id":"levelo_inurba_marseille","lat":43.33769,"lon":5.37431,"is_reserved":false,"is_disabled":false,"rental_uris":{"android":"levelo://app?vid=e3aa9769-07bd-40fc-b1ee-9cc66211ab32","ios":"levelo://app?vid=e3aa9769-07bd-40fc-b1ee-9cc66211ab32"},"vehicle_type_id":"4","last_reported":1751015470,"current_range_meters":15200,"station_id":"","pricing_plan_id":"cebpf4jnsgd1na2vs0mg"},{"bike_id":"e5ae1fdd-ad1c-4e69-ac70-f715e6402e6b","system_id":"levelo_inurba_marseille","lat":43.27755,"lon":5.39886,"is_reserved":false,"is_disabled":false,"rental_uris":{"android":"levelo://app?vid=e5ae1fdd-ad1c-4e69-ac70-f715e6402e6b","ios":"levelo://app?vid=e5ae1fdd-ad1c-4e69-ac70-f715e6402e6b"},"vehicle_type_id":"4","last_reported":1751015470,"current_range_meters":15200,"station_id":"","pricing_plan_id":"cebpf4jnsgd1na2vs0mg"},{"bike_id":"b54a6df0-ba54-4ea5-86b0-276d4d37ac3e","system_id":"levelo_inurba_marseille","lat":43.30878,"lon":5.36851,"is_reserved":false,"is_disabled":false,"rental_uris":{"android":"levelo://app?vid=b54a6df0-ba54-4ea5-86b0-276d4d37ac3e","ios":"levelo://app?vid=b54a6df0-ba54-4ea5-86b0-276d4d37ac3e"},"vehicle_type_id":"4","last_reported":1751015470,"current_range_meters":15200,"station_id":"","pricing_plan_id":"cebpf4jnsgd1na2vs0mg"},{"bike_id":"043c761b-e520-4e3e-8ecc-be309699ee14","system_id":"levelo_inurba_marseille","lat":43.305,"lon":5.36514,"is_reserved":false,"is_disabled":false,"rental_uris":{"android":"levelo://app?vid=043c761b-e520-4e3e-8ecc-be309699ee14","ios":"levelo://app?vid=043c761b-e520-4e3e-8ecc-be309699ee14"},"vehicle_type_id":"4","last_reported":1751015470,"current_range_meters":15200,"station_id":"ce4bgs12rcd13ifvqcag","pricing_plan_id":"cebpf4jnsgd1na2vs0mg"},{"bike_id":"5d4164c2-df8c-4cfb-a850-2f8f984d4e42","system_id":"levelo_inurba_marseille","lat":43.3149,"lon":5.37304,"is_reserved":false,"is_disabled":false,"rental_uris":{"android":"levelo://app?vid=5d4164c2-df8c-4cfb-a850-2f8f984d4e42","ios":"levelo://app?vid=5d4164c2-df8c-4cfb-a850-2f8f984d4e42"},"vehicle_type_id":"4","last_reported":1751015470,"current_range_meters":15200,"station_id":"ce4bgt12rcd13ifvqcd0","pricing_plan_id":"cebpf4jnsgd1na2vs0mg"},{"bike_id":"91073607-145c-426a-b5e4-7f5e3524a674","system_id":"levelo_inurba_marseille","lat":43.29006,"lon":5.35608,"is_reserved":false,"is_disabled":false,"rental_uris":{"android":"levelo://app?vid=91073607-145c-426a-b5e4-7f5e3524a674","ios":"levelo://app?vid=91073607-145c-426a-b5e4-7f5e3524a674"},"vehicle_type_id":"4","last_reported":1751015470,"current_range_meters":15200,"station_id":"ce4bhb92rcd13ifvqen0","pricing_plan_id":"cebpf4jnsgd1na2vs0mg"},{"bike_id":"bb69c1e1-7084-4be7-966a-57a7bcdfcb6c","system_id":"levelo_inurba_marseille","lat":43.24601,"lon":5.41653,"is_reserved":false,"is_disabled":false,"rental_uris":{"android":"levelo://app?vid=bb69c1e1-7084-4be7-966a-57a7bcdfcb6c","ios":"levelo://app?vid=bb69c1e1-7084-4be7-966a-57a7bcdfcb6c"},"vehicle_type_id":"4","last_reported":1751015470,"current_range_meters":16000,"station_id":"","pricing_plan_id":"cebpf4jnsgd1na2vs0mg"},{"bike_id":"cefc4803-4bc8-49e1-b0ee-01e83e6bf58d","system_id":"levelo_inurba_marseille","lat":43.30532,"lon":5.38429,"is_reserved":false,"is_disabled":false,"rental_uris":{"android":"levelo://app?vid=cefc4803-4bc8-49e1-b0ee-01e83e6bf58d","ios":"levelo://app?vid=cefc4803-4bc8-49e1-b0ee-01e83e6bf58d"},"vehicle_type_id":"4","last_reported":1751015470,"current_range_meters":16000,"station_id":"ce4bgg92rcd13ifvqb30","pricing_plan_id":"cebpf4jnsgd1na2vs0mg"},{"bike_id":"c26c0a60-2f0d-410a-9a12-c5ccf1088f4d","system_id":"levelo_inurba_marseille","lat":43.30145,"lon":5.38081,"is_reserved":false,"is_disabled":false,"rental_uris":{"android":"levelo://app?vid=c26c0a60-2f0d-410a-9a12-c5ccf1088f4d","ios":"levelo://app?vid=c26c0a60-2f0d-410a-9a12-c5ccf1088f4d"},"vehicle_type_id":"4","last_reported":1751015470,"current_range_meters":16000,"station_id":"ce4bgjp2rcd13ifvqbh0","pricing_plan_id":"cebpf4jnsgd1na2vs0mg"},{"bike_id":"af2e1670-f935-42d0-a5da-9ba52e0b6812","system_id":"levelo_inurba_marseille","lat":43.30908,"lon":5.3685,"is_reserved":false,"is_disabled":false,"rental_uris":{"android":"levelo://app?vid=af2e1670-f935-42d0-a5da-9ba52e0b6812","ios":"levelo://app?vid=af2e1670-f935-42d0-a5da-9ba52e0b6812"},"vehicle_type_id":"4","last_reported":1751015470,"current_range_meters":16000,"station_id":"ce4bgn92rcd13ifvqbvg","pricing_plan_id":"cebpf4jnsgd1na2vs0mg"},{"bike_id":"c44402be-ab8f-4697-9193-7f503efe054f","system_id":"levelo_inurba_marseille","lat":43.3015,"lon":5.37414,"is_reserved":false,"is_disabled":false,"rental_uris":{"android":"levelo://app?vid=c44402be-ab8f-4697-9193-7f503efe054f","ios":"levelo://app?vid=c44402be-ab8f-4697-9193-7f503efe054f"},"vehicle_type_id":"4","last_reported":1751015470,"current_range_meters":16000,"station_id":"ce4bgs92rcd13ifvqcc0","pricing_plan_id":"cebpf4jnsgd1na2vs0mg"},{"bike_id":"071b13cb-6188-410a-9240-e5fb9a8a36af","system_id":"levelo_inurba_marseille","lat":43.28414,"lon":5.34982,"is_reserved":false,"is_disabled":false,"rental_uris":{"android":"levelo://app?vid=071b13cb-6188-410a-9240-e5fb9a8a36af","ios":"levelo://app?vid=071b13cb-6188-410a-9240-e5fb9a8a36af"},"vehicle_type_id":"4","last_reported":1751015470,"current_range_meters":16000,"station_id":"ce4bhbh2rcd13ifvqepg","pricing_plan_id":"cebpf4jnsgd1na2vs0mg"},{"bike_id":"46fc1da8-b21e-49ec-9f51-bd3892d403d9","system_id":"levelo_inurba_marseille","lat":43.24164,"lon":5.36418,"is_reserved":false,"is_disabled":false,"rental_uris":{"android":"levelo://app?vid=46fc1da8-b21e-49ec-9f51-bd3892d403d9","ios":"levelo://app?vid=46fc1da8-b21e-49ec-9f51-bd3892d403d9"},"vehicle_type_id":"4","last_reported":1751015470,"current_range_meters":16000,"station_id":"cpo36qri1sfpv3e86is0","pricing_plan_id":"cebpf4jnsgd1na2vs0mg"},{"bike_id":"763b6217-e837-48d9-a3bf-42206cc398fc","system_id":"levelo_inurba_marseille","lat":43.33003,"lon":5.37779,"is_reserved":false,"is_disabled":false,"rental_uris":{"android":"levelo://app?vid=763b6217-e837-48d9-a3bf-42206cc398fc","ios":"levelo://app?vid=763b6217-e837-48d9-a3bf-42206cc398fc"},"vehicle_type_id":"4","last_reported":1751015470,"current_range_meters":16400,"station_id":"","pricing_plan_id":"cebpf4jnsgd1na2vs0mg"},{"bike_id":"e89d2a76-7791-436b-bcc1-6e27bb9c4662","system_id":"levelo_inurba_marseille","lat":43.2989,"lon":5.38131,"is_reserved":false,"is_disabled":false,"rental_uris":{"android":"levelo://app?vid=e89d2a76-7791-436b-bcc1-6e27bb9c4662","ios":"levelo://app?vid=e89d2a76-7791-436b-bcc1-6e27bb9c4662"},"vehicle_type_id":"4","last_reported":1751015470,"current_range_meters":16400,"station_id":"ce4bgj12rcd13ifvqbc0","pricing_plan_id":"cebpf4jnsgd1na2vs0mg"},{"bike_id":"ba5e5b9e-7c7e-4a79-9f6b-40979a220907","system_id":"levelo_inurba_marseille","lat":43.29711,"lon":5.37694,"is_reserved":false,"is_disabled":false,"rental_uris":{"android":"levelo://app?vid=ba5e5b9e-7c7e-4a79-9f6b-40979a220907","ios":"levelo://app?vid=ba5e5b9e-7c7e-4a79-9f6b-40979a220907"},"vehicle_type_id":"4","last_reported":1751015470,"current_range_meters":16400,"station_id":"ce4bgkh2rcd13ifvqbl0","pricing_plan_id":"cebpf4jnsgd1na2vs0mg"},{"bike_id":"84dea4e9-03a8-4848-868c-ac9b13a40882","system_id":"levelo_inurba_marseille","lat":43.29024,"lon":5.38148,"is_reserved":false,"is_disabled":false,"rental_uris":{"android":"levelo://app?vid=84dea4e9-03a8-4848-868c-ac9b13a40882","ios":"levelo://app?vid=84dea4e9-03a8-4848-868c-ac9b13a40882"},"vehicle_type_id":"4","last_reported":1751015470,"current_range_meters":16400,"station_id":"ce4bh4p2rcd13ifvqe1g","pricing_plan_id":"cebpf4jnsgd1na2vs0mg"},{"bike_id":"c9233017-cd13-4c69-83a2-4d83e62c3873","system_id":"levelo_inurba_marseille","lat":43.24991,"lon":5.38948,"is_reserved":false,"is_disabled":false,"rental_uris":{"android":"levelo://app?vid=c9233017-cd13-4c69-83a2-4d83e62c3873","ios":"levelo://app?vid=c9233017-cd13-4c69-83a2-4d83e62c3873"},"vehicle_type_id":"4","last_reported":1751015470,"current_range_meters":16400,"station_id":"ce4bhgp2rcd13ifvqfd0","pricing_plan_id":"cebpf4jnsgd1na2vs0mg"},{"bike_id":"2907f1f1-c082-4502-97da-daf76aec87d6","system_id":"levelo_inurba_marseille","lat":43.25873,"lon":5.39893,"is_reserved":false,"is_disabled":false,"rental_uris":{"android":"levelo://app?vid=2907f1f1-c082-4502-97da-daf76aec87d6","ios":"levelo://app?vid=2907f1f1-c082-4502-97da-daf76aec87d6"},"vehicle_type_id":"4","last_reported":1751015470,"current_range_meters":16400,"station_id":"ce4bhl92rcd13ifvqghg","pricing_plan_id":"cebpf4jnsgd1na2vs0mg"},{"bike_id":"15462c81-b561-4e17-8e18-4861348b7e12","system_id":"levelo_inurba_marseille","lat":43.25941,"lon":5.40905,"is_reserved":false,"is_disabled":false,"rental_uris":{"android":"levelo://app?vid=15462c81-b561-4e17-8e18-4861348b7e12","ios":"levelo://app?vid=15462c81-b561-4e17-8e18-4861348b7e12"},"vehicle_type_id":"4","last_reported":1751015470,"current_range_meters":16400,"station_id":"ce4bhm92rcd13ifvqglg","pricing_plan_id":"cebpf4jnsgd1na2vs0mg"},{"bike_id":"e6ce70f7-9138-485c-a4db-2c9174614cff","system_id":"levelo_inurba_marseille","lat":43.317695,"lon":5.368562,"is_reserved":false,"is_disabled":false,"rental_uris":{"android":"levelo://app?vid=e6ce70f7-9138-485c-a4db-2c9174614cff","ios":"levelo://app?vid=e6ce70f7-9138-485c-a4db-2c9174614cff"},"vehicle_type_id":"4","last_reported":1751015470,"current_range_meters":16800,"station_id":"","pricing_plan_id":"cebpf4jnsgd1na2vs0mg"},{"bike_id":"28088631-91f6-4679-9cfa-4602908b7642","system_id":"levelo_inurba_marseille","lat":43.31385,"lon":5.36701,"is_reserved":false,"is_disabled":false,"rental_uris":{"android":"levelo://app?vid=28088631-91f6-4679-9cfa-4602908b7642","ios":"levelo://app?vid=28088631-91f6-4679-9cfa-4602908b7642"},"vehicle_type_id":"4","last_reported":1751015470,"current_range_meters":16800,"station_id":"","pricing_plan_id":"cebpf4jnsgd1na2vs0mg"},{"bike_id":"57d6eb9e-33e5-482e-9465-914c364d7397","system_id":"levelo_inurba_marseille","lat":43.32299,"lon":5.38208,"is_reserved":false,"is_disabled":false,"rental_uris":{"android":"levelo://app?vid=57d6eb9e-33e5-482e-9465-914c364d7397","ios":"levelo://app?vid=57d6eb9e-33e5-482e-9465-914c364d7397"},"vehicle_type_id":"4","last_reported":1751015470,"current_range_meters":16800,"station_id":"","pricing_plan_id":"cebpf4jnsgd1na2vs0mg"},{"bike_id":"ad31fae6-4da4-4b6b-8844-651d9203a873","system_id":"levelo_inurba_marseille","lat":43.30883,"lon":5.36887,"is_reserved":false,"is_disabled":false,"rental_uris":{"android":"levelo://app?vid=ad31fae6-4da4-4b6b-8844-651d9203a873","ios":"levelo://app?vid=ad31fae6-4da4-4b6b-8844-651d9203a873"},"vehicle_type_id":"4","last_reported":1751015470,"current_range_meters":16800,"station_id":"ce4bgn92rcd13ifvqbvg","pricing_plan_id":"cebpf4jnsgd1na2vs0mg"},{"bike_id":"7b9561a3-f7ea-4a59-9836-27499b8951c1","system_id":"levelo_inurba_marseille","lat":43.30959,"lon":5.39041,"is_reserved":false,"is_disabled":false,"rental_uris":{"android":"levelo://app?vid=7b9561a3-f7ea-4a59-9836-27499b8951c1","ios":"levelo://app?vid=7b9561a3-f7ea-4a59-9836-27499b8951c1"},"vehicle_type_id":"4","last_reported":1751015470,"current_range_meters":16800,"station_id":"ce4bgup2rcd13ifvqco0","pricing_plan_id":"cebpf4jnsgd1na2vs0mg"},{"bike_id":"001b031d-09d7-4189-9caf-bdcd819378fa","system_id":"levelo_inurba_marseille","lat":43.28427,"lon":5.349917,"is_reserved":false,"is_disabled":false,"rental_uris":{"android":"levelo://app?vid=001b031d-09d7-4189-9caf-bdcd819378fa","ios":"levelo://app?vid=001b031d-09d7-4189-9caf-bdcd819378fa"},"vehicle_type_id":"4","last_reported":1751015470,"current_range_meters":16800,"station_id":"ce4bhbh2rcd13ifvqepg","pricing_plan_id":"cebpf4jnsgd1na2vs0mg"},{"bike_id":"dcc2eb45-85d4-4349-af1c-4ad462335342","system_id":"levelo_inurba_marseille","lat":43.28265,"lon":5.3506,"is_reserved":false,"is_disabled":false,"rental_uris":{"android":"levelo://app?vid=dcc2eb45-85d4-4349-af1c-4ad462335342","ios":"levelo://app?vid=dcc2eb45-85d4-4349-af1c-4ad462335342"},"vehicle_type_id":"4","last_reported":1751015470,"current_range_meters":16800,"station_id":"ce4bhbp2rcd13ifvqerg","pricing_plan_id":"cebpf4jnsgd1na2vs0mg"},{"bike_id":"f0057ca2-de2d-4464-8902-068dc3677e00","system_id":"levelo_inurba_marseille","lat":43.21187,"lon":5.35068,"is_reserved":false,"is_disabled":false,"rental_uris":{"android":"levelo://app?vid=f0057ca2-de2d-4464-8902-068dc3677e00","ios":"levelo://app?vid=f0057ca2-de2d-4464-8902-068dc3677e00"},"vehicle_type_id":"4","last_reported":1751015470,"current_range_meters":16800,"station_id":"st_cvj6sg6p6f1abm77japg","pricing_plan_id":"cebpf4jnsgd1na2vs0mg"},{"bike_id":"a4cc70c0-0440-427d-89e8-5c1a356f7bf6","system_id":"levelo_inurba_marseille","lat":43.30599,"lon":5.37225,"is_reserved":false,"is_disabled":false,"rental_uris":{"android":"levelo://app?vid=a4cc70c0-0440-427d-89e8-5c1a356f7bf6","ios":"levelo://app?vid=a4cc70c0-0440-427d-89e8-5c1a356f7bf6"},"vehicle_type_id":"4","last_reported":1751015470,"current_range_meters":17200,"station_id":"ce4bgqh2rcd13ifvqc4g","pricing_plan_id":"cebpf4jnsgd1na2vs0mg"},{"bike_id":"bad20152-5d0c-479b-8656-e3b2e99e76b6","system_id":"levelo_inurba_marseille","lat":43.30534,"lon":5.36545,"is_reserved":false,"is_disabled":false,"rental_uris":{"android":"levelo://app?vid=bad20152-5d0c-479b-8656-e3b2e99e76b6","ios":"levelo://app?vid=bad20152-5d0c-479b-8656-e3b2e99e76b6"},"vehicle_type_id":"4","last_reported":1751015470,"current_range_meters":17200,"station_id":"ce4bgs12rcd13ifvqcag","pricing_plan_id":"cebpf4jnsgd1na2vs0mg"},{"bike_id":"130fd3b1-7e84-47c4-97a9-9edd92f6cd4b","system_id":"levelo_inurba_marseille","lat":43.30462,"lon":5.37892,"is_reserved":false,"is_disabled":false,"rental_uris":{"android":"levelo://app?vid=130fd3b1-7e84-47c4-97a9-9edd92f6cd4b","ios":"levelo://app?vid=130fd3b1-7e84-47c4-97a9-9edd92f6cd4b"},"vehicle_type_id":"4","last_reported":1751015470,"current_range_meters":17200,"station_id":"ce4bgup2rcd13ifvqcn0","pricing_plan_id":"cebpf4jnsgd1na2vs0mg"},{"bike_id":"7d1860e7-bfdd-4f92-8af7-2cdf3157fb61","system_id":"levelo_inurba_marseille","lat":43.23172,"lon":5.39993,"is_reserved":false,"is_disabled":false,"rental_uris":{"android":"levelo://app?vid=7d1860e7-bfdd-4f92-8af7-2cdf3157fb61","ios":"levelo://app?vid=7d1860e7-bfdd-4f92-8af7-2cdf3157fb61"},"vehicle_type_id":"4","last_reported":1751015470,"current_range_meters":17200,"station_id":"ce4bhn12rcd13ifvqgqg","pricing_plan_id":"cebpf4jnsgd1na2vs0mg"},{"bike_id":"935c8062-ae25-46e0-901d-4b81929b99b7","system_id":"levelo_inurba_marseille","lat":43.21729,"lon":5.34606,"is_reserved":false,"is_disabled":false,"rental_uris":{"android":"levelo://app?vid=935c8062-ae25-46e0-901d-4b81929b99b7","ios":"levelo://app?vid=935c8062-ae25-46e0-901d-4b81929b99b7"},"vehicle_type_id":"4","last_reported":1751015470,"current_range_meters":17200,"station_id":"st_cvj6r9ubvosntc0bgbag","pricing_plan_id":"cebpf4jnsgd1na2vs0mg"},{"bike_id":"1a23948e-522f-4e95-8795-c2eaa1af670a","system_id":"levelo_inurba_marseille","lat":43.28119,"lon":5.39852,"is_reserved":false,"is_disabled":false,"rental_uris":{"android":"levelo://app?vid=1a23948e-522f-4e95-8795-c2eaa1af670a","ios":"levelo://app?vid=1a23948e-522f-4e95-8795-c2eaa1af670a"},"vehicle_type_id":"4","last_reported":1751015470,"current_range_meters":17600,"station_id":"","pricing_plan_id":"cebpf4jnsgd1na2vs0mg"},{"bike_id":"9fd15b51-c27a-4a76-996a-644caac9cee1","system_id":"levelo_inurba_marseille","lat":43.29934,"lon":5.40053,"is_reserved":false,"is_disabled":false,"rental_uris":{"android":"levelo://app?vid=9fd15b51-c27a-4a76-996a-644caac9cee1","ios":"levelo://app?vid=9fd15b51-c27a-4a76-996a-644caac9cee1"},"vehicle_type_id":"4","last_reported":1751015470,"current_range_meters":17600,"station_id":"","pricing_plan_id":"cebpf4jnsgd1na2vs0mg"},{"bike_id":"815201a7-dbbe-4827-ab77-bd49f80ea5ee","system_id":"levelo_inurba_marseille","lat":43.29767,"lon":5.4597,"is_reserved":false,"is_disabled":false,"rental_uris":{"android":"levelo://app?vid=815201a7-dbbe-4827-ab77-bd49f80ea5ee","ios":"levelo://app?vid=815201a7-dbbe-4827-ab77-bd49f80ea5ee"},"vehicle_type_id":"4","last_reported":1751015470,"current_range_meters":17600,"station_id":"","pricing_plan_id":"cebpf4jnsgd1na2vs0mg"},{"bike_id":"1b39abf9-3a3f-4d80-915b-22905554f4a6","system_id":"levelo_inurba_marseille","lat":43.30125,"lon":5.36389,"is_reserved":false,"is_disabled":false,"rental_uris":{"android":"levelo://app?vid=1b39abf9-3a3f-4d80-915b-22905554f4a6","ios":"levelo://app?vid=1b39abf9-3a3f-4d80-915b-22905554f4a6"},"vehicle_type_id":"4","last_reported":1751015470,"current_range_meters":17600,"station_id":"","pricing_plan_id":"cebpf4jnsgd1na2vs0mg"},{"bike_id":"c9a99b63-28d9-4f62-a78c-9f43741861bc","system_id":"levelo_inurba_marseille","lat":43.30536,"lon":5.38434,"is_reserved":false,"is_disabled":false,"rental_uris":{"android":"levelo://app?vid=c9a99b63-28d9-4f62-a78c-9f43741861bc","ios":"levelo://app?vid=c9a99b63-28d9-4f62-a78c-9f43741861bc"},"vehicle_type_id":"4","last_reported":1751015470,"current_range_meters":17600,"station_id":"ce4bgg92rcd13ifvqb30","pricing_plan_id":"cebpf4jnsgd1na2vs0mg"},{"bike_id":"2a38f599-a5c6-4dd1-beaa-9dd25b63ecf7","system_id":"levelo_inurba_marseille","lat":43.29301,"lon":5.37454,"is_reserved":false,"is_disabled":false,"rental_uris":{"android":"levelo://app?vid=2a38f599-a5c6-4dd1-beaa-9dd25b63ecf7","ios":"levelo://app?vid=2a38f599-a5c6-4dd1-beaa-9dd25b63ecf7"},"vehicle_type_id":"4","last_reported":1751015470,"current_range_meters":17600,"station_id":"ce4bgi12rcd13ifvqb70","pricing_plan_id":"cebpf4jnsgd1na2vs0mg"},{"bike_id":"b005344a-e4c2-44bd-8aca-976c8e4adb0a","system_id":"levelo_inurba_marseille","lat":43.29356,"lon":5.3785,"is_reserved":false,"is_disabled":false,"rental_uris":{"android":"levelo://app?vid=b005344a-e4c2-44bd-8aca-976c8e4adb0a","ios":"levelo://app?vid=b005344a-e4c2-44bd-8aca-976c8e4adb0a"},"vehicle_type_id":"4","last_reported":1751015470,"current_range_meters":18000,"station_id":"ce4bgjh2rcd13ifvqbf0","pricing_plan_id":"cebpf4jnsgd1na2vs0mg"},{"bike_id":"1a628205-6cca-4071-9a0c-1701721f6398","system_id":"levelo_inurba_marseille","lat":43.28467,"lon":5.35884,"is_reserved":false,"is_disabled":false,"rental_uris":{"android":"levelo://app?vid=1a628205-6cca-4071-9a0c-1701721f6398","ios":"levelo://app?vid=1a628205-6cca-4071-9a0c-1701721f6398"},"vehicle_type_id":"4","last_reported":1751015470,"current_range_meters":18000,"station_id":"ce4bhah2rcd13ifvqei0","pricing_plan_id":"cebpf4jnsgd1na2vs0mg"},{"bike_id":"9c007d2b-99e0-4469-ba73-06c57adc38c5","system_id":"levelo_inurba_marseille","lat":43.25913,"lon":5.40888,"is_reserved":false,"is_disabled":false,"rental_uris":{"android":"levelo://app?vid=9c007d2b-99e0-4469-ba73-06c57adc38c5","ios":"levelo://app?vid=9c007d2b-99e0-4469-ba73-06c57adc38c5"},"vehicle_type_id":"4","last_reported":1751015470,"current_range_meters":18000,"station_id":"ce4bhm92rcd13ifvqglg","pricing_plan_id":"cebpf4jnsgd1na2vs0mg"},{"bike_id":"c2488c70-ec0d-4450-b5e6-75774967bb64","system_id":"levelo_inurba_marseille","lat":43.27493,"lon":5.42455,"is_reserved":false,"is_disabled":false,"rental_uris":{"android":"levelo://app?vid=c2488c70-ec0d-4450-b5e6-75774967bb64","ios":"levelo://app?vid=c2488c70-ec0d-4450-b5e6-75774967bb64"},"vehicle_type_id":"4","last_reported":1751015470,"current_range_meters":18000,"station_id":"ce4bhn92rcd13ifvqgrg","pricing_plan_id":"cebpf4jnsgd1na2vs0mg"},{"bike_id":"15d128bd-cfe4-4fde-84e3-861a91e21785","system_id":"levelo_inurba_marseille","lat":43.33708,"lon":5.39179,"is_reserved":false,"is_disabled":false,"rental_uris":{"android":"levelo://app?vid=15d128bd-cfe4-4fde-84e3-861a91e21785","ios":"levelo://app?vid=15d128bd-cfe4-4fde-84e3-861a91e21785"},"vehicle_type_id":"4","last_reported":1751015470,"current_range_meters":18000,"station_id":"ce4bhr92rcd13ifvqhsg","pricing_plan_id":"cebpf4jnsgd1na2vs0mg"},{"bike_id":"721165c1-ef6f-40cc-8d33-af3a7999864b","system_id":"levelo_inurba_marseille","lat":43.32731,"lon":5.37946,"is_reserved":false,"is_disabled":false,"rental_uris":{"android":"levelo://app?vid=721165c1-ef6f-40cc-8d33-af3a7999864b","ios":"levelo://app?vid=721165c1-ef6f-40cc-8d33-af3a7999864b"},"vehicle_type_id":"4","last_reported":1751015470,"current_range_meters":18800,"station_id":"","pricing_plan_id":"cebpf4jnsgd1na2vs0mg"},{"bike_id":"36cd1613-dc0e-43c8-9239-7d2f06e59f39","system_id":"levelo_inurba_marseille","lat":43.303711,"lon":5.369263,"is_reserved":false,"is_disabled":false,"rental_uris":{"android":"levelo://app?vid=36cd1613-dc0e-43c8-9239-7d2f06e59f39","ios":"levelo://app?vid=36cd1613-dc0e-43c8-9239-7d2f06e59f39"},"vehicle_type_id":"4","last_reported":1751015470,"current_range_meters":18800,"station_id":"ce4bgqh2rcd13ifvqc5g","pricing_plan_id":"cebpf4jnsgd1na2vs0mg"},{"bike_id":"a9788619-98e9-4a7f-8e11-51219d142a63","system_id":"levelo_inurba_marseille","lat":43.30564,"lon":5.36564,"is_reserved":false,"is_disabled":false,"rental_uris":{"android":"levelo://app?vid=a9788619-98e9-4a7f-8e11-51219d142a63","ios":"levelo://app?vid=a9788619-98e9-4a7f-8e11-51219d142a63"},"vehicle_type_id":"4","last_reported":1751015470,"current_range_meters":18800,"station_id":"ce4bgs12rcd13ifvqcag","pricing_plan_id":"cebpf4jnsgd1na2vs0mg"},{"bike_id":"f96d55ff-617b-4b2b-a82b-14787e65c285","system_id":"levelo_inurba_marseille","lat":43.30456,"lon":5.37904,"is_reserved":false,"is_disabled":false,"rental_uris":{"android":"levelo://app?vid=f96d55ff-617b-4b2b-a82b-14787e65c285","ios":"levelo://app?vid=f96d55ff-617b-4b2b-a82b-14787e65c285"},"vehicle_type_id":"4","last_reported":1751015470,"current_range_meters":18800,"station_id":"ce4bgup2rcd13ifvqcn0","pricing_plan_id":"cebpf4jnsgd1na2vs0mg"},{"bike_id":"3a2347c3-1400-49bc-8cb4-e3a635614388","system_id":"levelo_inurba_marseille","lat":43.298677,"lon":5.397336,"is_reserved":false,"is_disabled":false,"rental_uris":{"android":"levelo://app?vid=3a2347c3-1400-49bc-8cb4-e3a635614388","ios":"levelo://app?vid=3a2347c3-1400-49bc-8cb4-e3a635614388"},"vehicle_type_id":"4","last_reported":1751015470,"current_range_meters":18800,"station_id":"ce4bh0h2rcd13ifvqd50","pricing_plan_id":"cebpf4jnsgd1na2vs0mg"},{"bike_id":"48d9b04c-e4e3-4303-99b8-b4e29cf0b458","system_id":"levelo_inurba_marseille","lat":43.27374,"lon":5.36259,"is_reserved":false,"is_disabled":false,"rental_uris":{"android":"levelo://app?vid=48d9b04c-e4e3-4303-99b8-b4e29cf0b458","ios":"levelo://app?vid=48d9b04c-e4e3-4303-99b8-b4e29cf0b458"},"vehicle_type_id":"4","last_reported":1751015470,"current_range_meters":18800,"station_id":"ce4bhbh2rcd13ifvqeo0","pricing_plan_id":"cebpf4jnsgd1na2vs0mg"},{"bike_id":"0c3a8ede-f31e-4911-903f-fc2ddf2e7ebd","system_id":"levelo_inurba_marseille","lat":43.27202,"lon":5.39181,"is_reserved":false,"is_disabled":false,"rental_uris":{"android":"levelo://app?vid=0c3a8ede-f31e-4911-903f-fc2ddf2e7ebd","ios":"levelo://app?vid=0c3a8ede-f31e-4911-903f-fc2ddf2e7ebd"},"vehicle_type_id":"4","last_reported":1751015470,"current_range_meters":18800,"station_id":"ce4bhhp2rcd13ifvqfm0","pricing_plan_id":"cebpf4jnsgd1na2vs0mg"},{"bike_id":"87266b58-02c1-43ad-8d7c-67f8303b1381","system_id":"levelo_inurba_marseille","lat":43.32474,"lon":5.36556,"is_reserved":false,"is_disabled":false,"rental_uris":{"android":"levelo://app?vid=87266b58-02c1-43ad-8d7c-67f8303b1381","ios":"levelo://app?vid=87266b58-02c1-43ad-8d7c-67f8303b1381"},"vehicle_type_id":"4","last_reported":1751015470,"current_range_meters":18800,"station_id":"ce4bhs12rcd13ifvqhvg","pricing_plan_id":"cebpf4jnsgd1na2vs0mg"},{"bike_id":"3c3143db-eff2-43ab-93c6-7cc207b8a48b","system_id":"levelo_inurba_marseille","lat":43.337647,"lon":5.374349,"is_reserved":false,"is_disabled":false,"rental_uris":{"android":"levelo://app?vid=3c3143db-eff2-43ab-93c6-7cc207b8a48b","ios":"levelo://app?vid=3c3143db-eff2-43ab-93c6-7cc207b8a48b"},"vehicle_type_id":"4","last_reported":1751015470,"current_range_meters":19200,"station_id":"","pricing_plan_id":"cebpf4jnsgd1na2vs0mg"},{"bike_id":"9b8348d8-41f3-4558-a995-13030a92a6e6","system_id":"levelo_inurba_marseille","lat":43.30594,"lon":5.37227,"is_reserved":false,"is_disabled":false,"rental_uris":{"android":"levelo://app?vid=9b8348d8-41f3-4558-a995-13030a92a6e6","ios":"levelo://app?vid=9b8348d8-41f3-4558-a995-13030a92a6e6"},"vehicle_type_id":"4","last_reported":1751015470,"current_range_meters":19200,"station_id":"ce4bgqh2rcd13ifvqc4g","pricing_plan_id":"cebpf4jnsgd1na2vs0mg"},{"bike_id":"0a4849b8-d7e0-4f0c-a5b5-e80e4e7dcdde","system_id":"levelo_inurba_marseille","lat":43.30534,"lon":5.36534,"is_reserved":false,"is_disabled":false,"rental_uris":{"android":"levelo://app?vid=0a4849b8-d7e0-4f0c-a5b5-e80e4e7dcdde","ios":"levelo://app?vid=0a4849b8-d7e0-4f0c-a5b5-e80e4e7dcdde"},"vehicle_type_id":"4","last_reported":1751015470,"current_range_meters":19200,"station_id":"ce4bgs12rcd13ifvqcag","pricing_plan_id":"cebpf4jnsgd1na2vs0mg"},{"bike_id":"4483ad56-4f80-4d2b-9785-8ee8fe84f2f8","system_id":"levelo_inurba_marseille","lat":43.30273,"lon":5.37699,"is_reserved":false,"is_disabled":false,"rental_uris":{"android":"levelo://app?vid=4483ad56-4f80-4d2b-9785-8ee8fe84f2f8","ios":"levelo://app?vid=4483ad56-4f80-4d2b-9785-8ee8fe84f2f8"},"vehicle_type_id":"4","last_reported":1751015470,"current_range_meters":19200,"station_id":"ce4bguh2rcd13ifvqcj0","pricing_plan_id":"cebpf4jnsgd1na2vs0mg"},{"bike_id":"92432358-7c04-41b7-951a-9478630f1c9f","system_id":"levelo_inurba_marseille","lat":43.30268,"lon":5.37708,"is_reserved":false,"is_disabled":false,"rental_uris":{"android":"levelo://app?vid=92432358-7c04-41b7-951a-9478630f1c9f","ios":"levelo://app?vid=92432358-7c04-41b7-951a-9478630f1c9f"},"vehicle_type_id":"4","last_reported":1751015470,"current_range_meters":19200,"station_id":"ce4bguh2rcd13ifvqcj0","pricing_plan_id":"cebpf4jnsgd1na2vs0mg"},{"bike_id":"81115363-d7ba-42ce-969b-a1d7ad97fa06","system_id":"levelo_inurba_marseille","lat":43.33733,"lon":5.39188,"is_reserved":false,"is_disabled":false,"rental_uris":{"android":"levelo://app?vid=81115363-d7ba-42ce-969b-a1d7ad97fa06","ios":"levelo://app?vid=81115363-d7ba-42ce-969b-a1d7ad97fa06"},"vehicle_type_id":"4","last_reported":1751015470,"current_range_meters":19200,"station_id":"ce4bhr92rcd13ifvqhsg","pricing_plan_id":"cebpf4jnsgd1na2vs0mg"},{"bike_id":"a7883090-0e10-4075-944b-a3cca54bc544","system_id":"levelo_inurba_marseille","lat":43.22505,"lon":5.34786,"is_reserved":false,"is_disabled":false,"rental_uris":{"android":"levelo://app?vid=a7883090-0e10-4075-944b-a3cca54bc544","ios":"levelo://app?vid=a7883090-0e10-4075-944b-a3cca54bc544"},"vehicle_type_id":"4","last_reported":1751015470,"current_range_meters":19200,"station_id":"st_cvj5dfep6f1abm77gieg","pricing_plan_id":"cebpf4jnsgd1na2vs0mg"},{"bike_id":"68ba553f-21c6-4e54-95b0-38cf227ee3c9","system_id":"levelo_inurba_marseille","lat":43.26284,"lon":5.40085,"is_reserved":false,"is_disabled":false,"rental_uris":{"android":"levelo://app?vid=68ba553f-21c6-4e54-95b0-38cf227ee3c9","ios":"levelo://app?vid=68ba553f-21c6-4e54-95b0-38cf227ee3c9"},"vehicle_type_id":"4","last_reported":1751015470,"current_range_meters":19600,"station_id":"","pricing_plan_id":"cebpf4jnsgd1na2vs0mg"},{"bike_id":"12c7fc9f-7c7b-4185-9b2f-badd0c17e36b","system_id":"levelo_inurba_marseille","lat":43.247442,"lon":5.374471,"is_reserved":false,"is_disabled":false,"rental_uris":{"android":"levelo://app?vid=12c7fc9f-7c7b-4185-9b2f-badd0c17e36b","ios":"levelo://app?vid=12c7fc9f-7c7b-4185-9b2f-badd0c17e36b"},"vehicle_type_id":"4","last_reported":1751015470,"current_range_meters":19600,"station_id":"","pricing_plan_id":"cebpf4jnsgd1na2vs0mg"},{"bike_id":"81728784-010b-4643-b42f-3a3b52bee891","system_id":"levelo_inurba_marseille","lat":43.24048,"lon":5.36749,"is_reserved":false,"is_disabled":false,"rental_uris":{"android":"levelo://app?vid=81728784-010b-4643-b42f-3a3b52bee891","ios":"levelo://app?vid=81728784-010b-4643-b42f-3a3b52bee891"},"vehicle_type_id":"4","last_reported":1751015470,"current_range_meters":19600,"station_id":"","pricing_plan_id":"cebpf4jnsgd1na2vs0mg"},{"bike_id":"f4ae8d9e-d656-4579-9b63-e016faab8d95","system_id":"levelo_inurba_marseille","lat":43.3088,"lon":5.36844,"is_reserved":false,"is_disabled":false,"rental_uris":{"android":"levelo://app?vid=f4ae8d9e-d656-4579-9b63-e016faab8d95","ios":"levelo://app?vid=f4ae8d9e-d656-4579-9b63-e016faab8d95"},"vehicle_type_id":"4","last_reported":1751015470,"current_range_meters":19600,"station_id":"","pricing_plan_id":"cebpf4jnsgd1na2vs0mg"},{"bike_id":"de34346d-3d4d-482e-bf81-fbd352668352","system_id":"levelo_inurba_marseille","lat":43.30944,"lon":5.36834,"is_reserved":false,"is_disabled":false,"rental_uris":{"android":"levelo://app?vid=de34346d-3d4d-482e-bf81-fbd352668352","ios":"levelo://app?vid=de34346d-3d4d-482e-bf81-fbd352668352"},"vehicle_type_id":"4","last_reported":1751015470,"current_range_meters":19600,"station_id":"ce4bgn92rcd13ifvqbvg","pricing_plan_id":"cebpf4jnsgd1na2vs0mg"},{"bike_id":"5ca5e94a-14bb-4b57-a763-80c624d82214","system_id":"levelo_inurba_marseille","lat":43.3136,"lon":5.38495,"is_reserved":false,"is_disabled":false,"rental_uris":{"android":"levelo://app?vid=5ca5e94a-14bb-4b57-a763-80c624d82214","ios":"levelo://app?vid=5ca5e94a-14bb-4b57-a763-80c624d82214"},"vehicle_type_id":"4","last_reported":1751015470,"current_range_meters":19600,"station_id":"ce4bgt92rcd13ifvqcf0","pricing_plan_id":"cebpf4jnsgd1na2vs0mg"},{"bike_id":"14e8ef37-e834-4d76-9946-e98f7a083a2f","system_id":"levelo_inurba_marseille","lat":43.21193,"lon":5.35068,"is_reserved":false,"is_disabled":false,"rental_uris":{"android":"levelo://app?vid=14e8ef37-e834-4d76-9946-e98f7a083a2f","ios":"levelo://app?vid=14e8ef37-e834-4d76-9946-e98f7a083a2f"},"vehicle_type_id":"4","last_reported":1751015470,"current_range_meters":19600,"station_id":"st_cvj6sg6p6f1abm77japg","pricing_plan_id":"cebpf4jnsgd1na2vs0mg"},{"bike_id":"0c803610-f6e9-41d4-936d-0b433fa62796","system_id":"levelo_inurba_marseille","lat":43.301803,"lon":5.378208,"is_reserved":false,"is_disabled":false,"rental_uris":{"android":"levelo://app?vid=0c803610-f6e9-41d4-936d-0b433fa62796","ios":"levelo://app?vid=0c803610-f6e9-41d4-936d-0b433fa62796"},"vehicle_type_id":"4","last_reported":1751015470,"current_range_meters":20000,"station_id":"","pricing_plan_id":"cebpf4jnsgd1na2vs0mg"},{"bike_id":"1b28e76f-5530-434d-91c4-8ddde483789e","system_id":"levelo_inurba_marseille","lat":43.29845,"lon":5.36276,"is_reserved":false,"is_disabled":false,"rental_uris":{"android":"levelo://app?vid=1b28e76f-5530-434d-91c4-8ddde483789e","ios":"levelo://app?vid=1b28e76f-5530-434d-91c4-8ddde483789e"},"vehicle_type_id":"4","last_reported":1751015470,"current_range_meters":20000,"station_id":"ce4bgpp2rcd13ifvqc3g","pricing_plan_id":"cebpf4jnsgd1na2vs0mg"},{"bike_id":"bba15b74-744b-43aa-b407-4c077942af4a","system_id":"levelo_inurba_marseille","lat":43.29144,"lon":5.37156,"is_reserved":false,"is_disabled":false,"rental_uris":{"android":"levelo://app?vid=bba15b74-744b-43aa-b407-4c077942af4a","ios":"levelo://app?vid=bba15b74-744b-43aa-b407-4c077942af4a"},"vehicle_type_id":"4","last_reported":1751015470,"current_range_meters":20000,"station_id":"ce4bha92rcd13ifvqeh0","pricing_plan_id":"cebpf4jnsgd1na2vs0mg"},{"bike_id":"78a7a6a5-0996-46e6-8684-1257ffc5738e","system_id":"levelo_inurba_marseille","lat":43.28412,"lon":5.34982,"is_reserved":false,"is_disabled":false,"rental_uris":{"android":"levelo://app?vid=78a7a6a5-0996-46e6-8684-1257ffc5738e","ios":"levelo://app?vid=78a7a6a5-0996-46e6-8684-1257ffc5738e"},"vehicle_type_id":"4","last_reported":1751015470,"current_range_meters":20000,"station_id":"ce4bhbh2rcd13ifvqepg","pricing_plan_id":"cebpf4jnsgd1na2vs0mg"},{"bike_id":"9a0878e5-4687-43a1-b6d6-b81d12369b32","system_id":"levelo_inurba_marseille","lat":43.23963,"lon":5.36617,"is_reserved":false,"is_disabled":false,"rental_uris":{"android":"levelo://app?vid=9a0878e5-4687-43a1-b6d6-b81d12369b32","ios":"levelo://app?vid=9a0878e5-4687-43a1-b6d6-b81d12369b32"},"vehicle_type_id":"4","last_reported":1751015470,"current_range_meters":20000,"station_id":"ce4bhi12rcd13ifvqfp0","pricing_plan_id":"cebpf4jnsgd1na2vs0mg"},{"bike_id":"d0447f10-2e0f-4303-a22d-913ac1ec8015","system_id":"levelo_inurba_marseille","lat":43.246568,"lon":5.381644,"is_reserved":false,"is_disabled":false,"rental_uris":{"android":"levelo://app?vid=d0447f10-2e0f-4303-a22d-913ac1ec8015","ios":"levelo://app?vid=d0447f10-2e0f-4303-a22d-913ac1ec8015"},"vehicle_type_id":"4","last_reported":1751015470,"current_range_meters":20000,"station_id":"ce4bhih2rcd13ifvqfr0","pricing_plan_id":"cebpf4jnsgd1na2vs0mg"},{"bike_id":"af426b78-3737-4ecb-8f04-3ac2d08ac498","system_id":"levelo_inurba_marseille","lat":43.25717,"lon":5.41122,"is_reserved":false,"is_disabled":false,"rental_uris":{"android":"levelo://app?vid=af426b78-3737-4ecb-8f04-3ac2d08ac498","ios":"levelo://app?vid=af426b78-3737-4ecb-8f04-3ac2d08ac498"},"vehicle_type_id":"4","last_reported":1751015470,"current_range_meters":20000,"station_id":"ce4bhkp2rcd13ifvqgd0","pricing_plan_id":"cebpf4jnsgd1na2vs0mg"},{"bike_id":"e96a6a52-7b1a-49a4-83b4-1d5ea4807d64","system_id":"levelo_inurba_marseille","lat":43.25717,"lon":5.41137,"is_reserved":false,"is_disabled":false,"rental_uris":{"android":"levelo://app?vid=e96a6a52-7b1a-49a4-83b4-1d5ea4807d64","ios":"levelo://app?vid=e96a6a52-7b1a-49a4-83b4-1d5ea4807d64"},"vehicle_type_id":"4","last_reported":1751015470,"current_range_meters":20000,"station_id":"ce4bhkp2rcd13ifvqgd0","pricing_plan_id":"cebpf4jnsgd1na2vs0mg"},{"bike_id":"e9e3daab-137e-4430-ac89-5c3179ec07e8","system_id":"levelo_inurba_marseille","lat":43.30373,"lon":5.42488,"is_reserved":false,"is_disabled":false,"rental_uris":{"android":"levelo://app?vid=e9e3daab-137e-4430-ac89-5c3179ec07e8","ios":"levelo://app?vid=e9e3daab-137e-4430-ac89-5c3179ec07e8"},"vehicle_type_id":"4","last_reported":1751015470,"current_range_meters":20000,"station_id":"ce4bhoh2rcd13ifvqh6g","pricing_plan_id":"cebpf4jnsgd1na2vs0mg"},{"bike_id":"9fa7515b-502b-4ec3-bdbb-5301e040343f","system_id":"levelo_inurba_marseille","lat":43.31999,"lon":5.38153,"is_reserved":false,"is_disabled":false,"rental_uris":{"android":"levelo://app?vid=9fa7515b-502b-4ec3-bdbb-5301e040343f","ios":"levelo://app?vid=9fa7515b-502b-4ec3-bdbb-5301e040343f"},"vehicle_type_id":"4","last_reported":1751015470,"current_range_meters":20000,"station_id":"ce4bhr12rcd13ifvqhpg","pricing_plan_id":"cebpf4jnsgd1na2vs0mg"},{"bike_id":"4043f5ed-1c71-456d-9c90-de5b8866cdaf","system_id":"levelo_inurba_marseille","lat":43.2293,"lon":5.35376,"is_reserved":false,"is_disabled":false,"rental_uris":{"android":"levelo://app?vid=4043f5ed-1c71-456d-9c90-de5b8866cdaf","ios":"levelo://app?vid=4043f5ed-1c71-456d-9c90-de5b8866cdaf"},"vehicle_type_id":"4","last_reported":1751015470,"current_range_meters":20000,"station_id":"cpo3532slgdg3j2ikp40","pricing_plan_id":"cebpf4jnsgd1na2vs0mg"},