{"last_updated":1740956885,"ttl":60,"version":"2.2","data":{"bikes":[{"bike_id":"6dab8afa-be88-4425-9fd0-c3a196806ce9","system_id":"levelo_inurba_marseille","lat":43.27789,"lon":5.40753,"is_reserved":false,"is_disabled":true,"rental_uris":{"android":"levelo://app?vid=6dab8afa-be88-4425-9fd0-c3a196806ce9","ios":"levelo://app?vid=6dab8afa-be88-4425-9fd0-c3a196806ce9"},"vehicle_type_id":"4","last_reported":1740956885,"current_range_meters":2800,"station_id":"ce4bhnh2rcd13ifvqgtg","pricing_plan_id":"cebpf4jnsgd1na2vs0mg"},{"bike_id":"6b5f8581-f7f5-4d82-a8b4-b4cbc6437c81","system_id":"levelo_inurba_marseille","lat":43.278298,"lon":5.391835,"is_reserved":false,"is_disabled":false,"rental_uris":{"android":"levelo://app?vid=6b5f8581-f7f5-4d82-a8b4-b4cbc6437c81","ios":"levelo://app?vid=6b5f8581-f7f5-4d82-a8b4-b4cbc6437c81"},"vehicle_type_id":"4","last_reported":1740956885,"current_range_meters":2800,"station_id":"ce4bhjp2rcd13ifvqga0","pricing_plan_id":"cebpf4jnsgd1na2vs0mg"},{"bike_id":"1e42ea53-463b-4a03-92f5-c395ff4abf73","system_id":"levelo_inurba_marseille","lat":43.25485,"lon":5.3765,"is_reserved":false,"is_disabled":true,"rental_uris":{"android":"levelo://app?vid=1e42ea53-463b-4a03-92f5-c395ff4abf73","ios":"levelo://app?vid=1e42ea53-463b-4a03-92f5-c395ff4abf73"},"vehicle_type_id":"4","last_reported":1740956885,"current_range_meters":2800,"station_id":"ce4bhh12rcd13ifvqff0","pricing_plan_id":"cebpf4jnsgd1na2vs0mg"},{"bike_id":"09dd3675-3481-4067-a8c0-48ac686f0f03","system_id":"levelo_inurba_marseille","lat":43.27927,"lon":5.4267,"is_reserved":false,"is_disabled":false,"rental_uris":{"android":"levelo://app?vid=09dd3675-3481-4067-a8c0-48ac686f0f03","ios":"levelo://app?vid=09dd3675-3481-4067-a8c0-48ac686f0f03"},"vehicle_type_id":"4","last_reported":1740956885,"current_range_meters":2800,"station_id":"","pricing_plan_id":"cebpf4jnsgd1na2vs0mg"},{"bike_id":"01db09d2-daee-4fa5-8866-08b35e9af81f","system_id":"levelo_inurba_marseille","lat":43.29563,"lon":5.42276,"is_reserved":false,"is_disabled":true,"rental_uris":{"android":"levelo://app?vid=01db09d2-daee-4fa5-8866-08b35e9af81f","ios":"levelo://app?vid=01db09d2-daee-4fa5-8866-08b35e9af81f"},"vehicle_type_id":"4","last_reported":1740956885,"current_range_meters":2800,"station_id":"ce4bhph2rcd13ifvqhdg","pricing_plan_id":"cebpf4jnsgd1na2vs0mg"},{"bike_id":"05efb80a-a1a5-4b4d-8733-2780fddf4e5b","system_id":"levelo_inurba_marseille","lat":43.28049,"lon":5.40774,"is_reserved":false,"is_disabled":false,"rental_uris":{"android":"levelo://app?vid=05efb80a-a1a5-4b4d-8733-2780fddf4e5b","ios":"levelo://app?vid=05efb80a-a1a5-4b4d-8733-2780fddf4e5b"},"vehicle_type_id":"4","last_reported":1740956885,"current_range_meters":3200,"station_id":"","pricing_plan_id":"cebpf4jnsgd1na2vs0mg"},{"bike_id":"d5de36dd-5d22-4765-8f01-09ddd8b02c2e","system_id":"levelo_inurba_marseille","lat":43.32962,"lon":5.40886,"is_reserved":false,"is_disabled":false,"rental_uris":{"android":"levelo://app?vid=d5de36dd-5d22-4765-8f01-09ddd8b02c2e","ios":"levelo://app?vid=d5de36dd-5d22-4765-8f01-09ddd8b02c2e"},"vehicle_type_id":"4","last_reported":1740956885,"current_range_meters":3200,"station_id":"","pricing_plan_id":"cebpf4jnsgd1na2vs0mg"},{"bike_id":"d0dc1d95-9382-4d94-bde6-6947b7112511","system_id":"levelo_inurba_marseille","lat":43.27203,"lon":5.3919,"is_reserved":false,"is_disabled":true,"rental_uris":{"android":"levelo://app?vid=d0dc1d95-9382-4d94-bde6-6947b7112511","ios":"levelo://app?vid=d0dc1d95-9382-4d94-bde6-6947b7112511"},"vehicle_type_id":"4","last_reported":1740956885,"current_range_meters":3600,"station_id":"ce4bhhp2rcd13ifvqfm0","pricing_plan_id":"cebpf4jnsgd1na2vs0mg"},{"bike_id":"d5f3545a-d7d3-4bdb-b9ca-af46e105f623","system_id":"levelo_inurba_marseille","lat":43.27493,"lon":5.39384,"is_reserved":false,"is_disabled":true,"rental_uris":{"android":"levelo://app?vid=d5f3545a-d7d3-4bdb-b9ca-af46e105f623","ios":"levelo://app?vid=d5f3545a-d7d3-4bdb-b9ca-af46e105f623"},"vehicle_type_id":"4","last_reported":1740956885,"current_range_meters":4000,"station_id":"ce4bhdp2rcd13ifvqf20","pricing_plan_id":"cebpf4jnsgd1na2vs0mg"},{"bike_id":"2fcd25b0-c421-4d0f-ba30-5f6f5ff608f3","system_id":"levelo_inurba_marseille","lat":43.30748,"lon":5.38631,"is_reserved":false,"is_disabled":false,"rental_uris":{"android":"levelo://app?vid=2fcd25b0-c421-4d0f-ba30-5f6f5ff608f3","ios":"levelo://app?vid=2fcd25b0-c421-4d0f-ba30-5f6f5ff608f3"},"vehicle_type_id":"4","last_reported":1740956885,"current_range_meters":4400,"station_id":"","pricing_plan_id":"cebpf4jnsgd1na2vs0mg"},{"bike_id":"b153ddf9-462f-41c3-a8fd-f616df44872f","system_id":"levelo_inurba_marseille","lat":43.25097,"lon":5.3951,"is_reserved":false,"is_disabled":false,"rental_uris":{"android":"levelo://app?vid=b153ddf9-462f-41c3-a8fd-f616df44872f","ios":"levelo://app?vid=b153ddf9-462f-41c3-a8fd-f616df44872f"},"vehicle_type_id":"4","last_reported":1740956885,"current_range_meters":4400,"station_id":"ce4bhm12rcd13ifvqgkg","pricing_plan_id":"cebpf4jnsgd1na2vs0mg"},{"bike_id":"39d82624-ea19-4844-a592-f67f7bd5f616","system_id":"levelo_inurba_marseille","lat":43.30434,"lon":5.37321,"is_reserved":false,"is_disabled":false,"rental_uris":{"android":"levelo://app?vid=39d82624-ea19-4844-a592-f67f7bd5f616","ios":"levelo://app?vid=39d82624-ea19-4844-a592-f67f7bd5f616"},"vehicle_type_id":"4","last_reported":1740956885,"current_range_meters":4800,"station_id":"","pricing_plan_id":"cebpf4jnsgd1na2vs0mg"},{"bike_id":"b07555c5-3a6c-4852-8dfe-5f8cb9c6048e","system_id":"levelo_inurba_marseille","lat":43.28144,"lon":5.42638,"is_reserved":false,"is_disabled":false,"rental_uris":{"android":"levelo://app?vid=b07555c5-3a6c-4852-8dfe-5f8cb9c6048e","ios":"levelo://app?vid=b07555c5-3a6c-4852-8dfe-5f8cb9c6048e"},"vehicle_type_id":"4","last_reported":1740956885,"current_range_meters":4400,"station_id":"ce4bhnh2rcd13ifvqgug","pricing_plan_id":"cebpf4jnsgd1na2vs0mg"},{"bike_id":"b4885ea7-931a-407b-beea-f03e677a29a3","system_id":"levelo_inurba_marseille","lat":43.2397,"lon":5.36624,"is_reserved":false,"is_disabled":true,"rental_uris":{"android":"levelo://app?vid=b4885ea7-931a-407b-beea-f03e677a29a3","ios":"levelo://app?vid=b4885ea7-931a-407b-beea-f03e677a29a3"},"vehicle_type_id":"4","last_reported":1740956885,"current_range_meters":4800,"station_id":"ce4bhi12rcd13ifvqfp0","pricing_plan_id":"cebpf4jnsgd1na2vs0mg"},{"bike_id":"b7fd1e70-7b73-46db-94c7-c5ecc4a7a859","system_id":"levelo_inurba_marseille","lat":43.33028,"lon":5.3903,"is_reserved":false,"is_disabled":true,"rental_uris":{"android":"levelo://app?vid=b7fd1e70-7b73-46db-94c7-c5ecc4a7a859","ios":"levelo://app?vid=b7fd1e70-7b73-46db-94c7-c5ecc4a7a859"},"vehicle_type_id":"4","last_reported":1740956885,"current_range_meters":4800,"station_id":"ce4bhr92rcd13ifvqhrg","pricing_plan_id":"cebpf4jnsgd1na2vs0mg"},{"bike_id":"1ee6ee85-aacf-4f28-85b7-1722f623e4c8","system_id":"levelo_inurba_marseille","lat":43.273165,"lon":5.390565,"is_reserved":false,"is_disabled":true,"rental_uris":{"android":"levelo://app?vid=1ee6ee85-aacf-4f28-85b7-1722f623e4c8","ios":"levelo://app?vid=1ee6ee85-aacf-4f28-85b7-1722f623e4c8"},"vehicle_type_id":"4","last_reported":1740956885,"current_range_meters":5600,"station_id":"ce4bhgp2rcd13ifvqfe0","pricing_plan_id":"cebpf4jnsgd1na2vs0mg"},{"bike_id":"53ebed9a-fd1a-4d94-96e3-0c8bc5887ace","system_id":"levelo_inurba_marseille","lat":43.31384,"lon":5.39356,"is_reserved":false,"is_disabled":false,"rental_uris":{"android":"levelo://app?vid=53ebed9a-fd1a-4d94-96e3-0c8bc5887ace","ios":"levelo://app?vid=53ebed9a-fd1a-4d94-96e3-0c8bc5887ace"},"vehicle_type_id":"4","last_reported":1740956885,"current_range_meters":6000,"station_id":"","pricing_plan_id":"cebpf4jnsgd1na2vs0mg"},{"bike_id":"b849f981-3c18-4cde-8394-b24b04122ef0","system_id":"levelo_inurba_marseille","lat":43.26261,"lon":5.38243,"is_reserved":false,"is_disabled":false,"rental_uris":{"android":"levelo://app?vid=b849f981-3c18-4cde-8394-b24b04122ef0","ios":"levelo://app?vid=b849f981-3c18-4cde-8394-b24b04122ef0"},"vehicle_type_id":"4","last_reported":1740956885,"current_range_meters":6000,"station_id":"","pricing_plan_id":"cebpf4jnsgd1na2vs0mg"},{"bike_id":"b811c60a-6933-40a7-84ba-ba9cab9803d2","system_id":"levelo_inurba_marseille","lat":43.24999,"lon":5.38949,"is_reserved":false,"is_disabled":false,"rental_uris":{"android":"levelo://app?vid=b811c60a-6933-40a7-84ba-ba9cab9803d2","ios":"levelo://app?vid=b811c60a-6933-40a7-84ba-ba9cab9803d2"},"vehicle_type_id":"4","last_reported":1740956885,"current_range_meters":6400,"station_id":"ce4bhgp2rcd13ifvqfd0","pricing_plan_id":"cebpf4jnsgd1na2vs0mg"},{"bike_id":"318dcb1b-9247-409e-9dad-ff18bd11104d","system_id":"levelo_inurba_marseille","lat":43.24805,"lon":5.37442,"is_reserved":false,"is_disabled":false,"rental_uris":{"android":"levelo://app?vid=318dcb1b-9247-409e-9dad-ff18bd11104d","ios":"levelo://app?vid=318dcb1b-9247-409e-9dad-ff18bd11104d"},"vehicle_type_id":"4","last_reported":1740956885,"current_range_meters":6400,"station_id":"ce4bhgh2rcd13ifvqfb0","pricing_plan_id":"cebpf4jnsgd1na2vs0mg"},{"bike_id":"c505eebc-4dab-4790-978f-6a47cee7f8c9","system_id":"levelo_inurba_marseille","lat":43.30886,"lon":5.39622,"is_reserved":false,"is_disabled":false,"rental_uris":{"android":"levelo://app?vid=c505eebc-4dab-4790-978f-6a47cee7f8c9","ios":"levelo://app?vid=c505eebc-4dab-4790-978f-6a47cee7f8c9"},"vehicle_type_id":"4","last_reported":1740956885,"current_range_meters":6400,"station_id":"ce4bh012rcd13ifvqcv0","pricing_plan_id":"cebpf4jnsgd1na2vs0mg"},{"bike_id":"651a43c0-24fb-4c31-9ca0-442bd9c02099","system_id":"levelo_inurba_marseille","lat":43.23962,"lon":5.36628,"is_reserved":false,"is_disabled":false,"rental_uris":{"android":"levelo://app?vid=651a43c0-24fb-4c31-9ca0-442bd9c02099","ios":"levelo://app?vid=651a43c0-24fb-4c31-9ca0-442bd9c02099"},"vehicle_type_id":"4","last_reported":1740956885,"current_range_meters":6400,"station_id":"ce4bhi12rcd13ifvqfp0","pricing_plan_id":"cebpf4jnsgd1na2vs0mg"},{"bike_id":"0ebc927c-b227-4ab8-8536-bbdaeeed9fe1","system_id":"levelo_inurba_marseille","lat":43.26182,"lon":5.37449,"is_reserved":false,"is_disabled":false,"rental_uris":{"android":"levelo://app?vid=0ebc927c-b227-4ab8-8536-bbdaeeed9fe1","ios":"levelo://app?vid=0ebc927c-b227-4ab8-8536-bbdaeeed9fe1"},"vehicle_type_id":"4","last_reported":1740956885,"current_range_meters":6400,"station_id":"ce4bhgp2rcd13ifvqfc0","pricing_plan_id":"cebpf4jnsgd1na2vs0mg"},{"bike_id":"04b3114d-71e2-4665-b060-3924ff591f86","system_id":"levelo_inurba_marseille","lat":43.2864,"lon":5.35083,"is_reserved":false,"is_disabled":false,"rental_uris":{"android":"levelo://app?vid=04b3114d-71e2-4665-b060-3924ff591f86","ios":"levelo://app?vid=04b3114d-71e2-4665-b060-3924ff591f86"},"vehicle_type_id":"4","last_reported":1740956885,"current_range_meters":6800,"station_id":"ce4bhch2rcd13ifvqeug","pricing_plan_id":"cebpf4jnsgd1na2vs0mg"},{"bike_id":"ea731fe0-f368-4c85-8313-0d046c7fe180","system_id":"levelo_inurba_marseille","lat":43.31197,"lon":5.37183,"is_reserved":false,"is_disabled":false,"rental_uris":{"android":"levelo://app?vid=ea731fe0-f368-4c85-8313-0d046c7fe180","ios":"levelo://app?vid=ea731fe0-f368-4c85-8313-0d046c7fe180"},"vehicle_type_id":"4","last_reported":1740956885,"current_range_meters":6800,"station_id":"","pricing_plan_id":"cebpf4jnsgd1na2vs0mg"},{"bike_id":"0d686916-13a7-4f83-8183-8dc732393ae6","system_id":"levelo_inurba_marseille","lat":43.3228,"lon":5.38284,"is_reserved":false,"is_disabled":false,"rental_uris":{"android":"levelo://app?vid=0d686916-13a7-4f83-8183-8dc732393ae6","ios":"levelo://app?vid=0d686916-13a7-4f83-8183-8dc732393ae6"},"vehicle_type_id":"4","last_reported":1740956885,"current_range_meters":4400,"station_id":"ce4bhr12rcd13ifvqhqg","pricing_plan_id":"cebpf4jnsgd1na2vs0mg"},{"bike_id":"eafe4694-db55-4cde-85aa-971c3787bde8","system_id":"levelo_inurba_marseille","lat":43.24181,"lon":5.36401,"is_reserved":false,"is_disabled":false,"rental_uris":{"android":"levelo://app?vid=eafe4694-db55-4cde-85aa-971c3787bde8","ios":"levelo://app?vid=eafe4694-db55-4cde-85aa-971c3787bde8"},"vehicle_type_id":"4","last_reported":1740956885,"current_range_meters":6800,"station_id":"cpo36qri1sfpv3e86is0","pricing_plan_id":"cebpf4jnsgd1na2vs0mg"},{"bike_id":"875e0e4e-acc7-4916-a21e-8a4a106acaf9","system_id":"levelo_inurba_marseille","lat":43.31271,"lon":5.40183,"is_reserved":false,"is_disabled":true,"rental_uris":{"android":"levelo://app?vid=875e0e4e-acc7-4916-a21e-8a4a106acaf9","ios":"levelo://app?vid=875e0e4e-acc7-4916-a21e-8a4a106acaf9"},"vehicle_type_id":"4","last_reported":1740956885,"current_range_meters":6800,"station_id":"ce4bh092rcd13ifvqd30","pricing_plan_id":"cebpf4jnsgd1na2vs0mg"},{"bike_id":"27ee9ae2-c5e7-4c2e-ad90-0c911cf7f55f","system_id":"levelo_inurba_marseille","lat":43.25011,"lon":5.38918,"is_reserved":false,"is_disabled":false,"rental_uris":{"android":"levelo://app?vid=27ee9ae2-c5e7-4c2e-ad90-0c911cf7f55f","ios":"levelo://app?vid=27ee9ae2-c5e7-4c2e-ad90-0c911cf7f55f"},"vehicle_type_id":"4","last_reported":1740956885,"current_range_meters":6800,"station_id":"ce4bhgp2rcd13ifvqfd0","pricing_plan_id":"cebpf4jnsgd1na2vs0mg"},{"bike_id":"76d97f00-053b-4a61-a3cf-c4ee7e918fe4","system_id":"levelo_inurba_marseille","lat":43.31329,"lon":5.39683,"is_reserved":false,"is_disabled":false,"rental_uris":{"android":"levelo://app?vid=76d97f00-053b-4a61-a3cf-c4ee7e918fe4","ios":"levelo://app?vid=76d97f00-053b-4a61-a3cf-c4ee7e918fe4"},"vehicle_type_id":"4","last_reported":1740956885,"current_range_meters":7200,"station_id":"ce4bgvp2rcd13ifvqcu0","pricing_plan_id":"cebpf4jnsgd1na2vs0mg"},{"bike_id":"f480da84-1887-4ade-84fb-1c0d19a4cdd8","system_id":"levelo_inurba_marseille","lat":43.322986,"lon":5.389591,"is_reserved":false,"is_disabled":true,"rental_uris":{"android":"levelo://app?vid=f480da84-1887-4ade-84fb-1c0d19a4cdd8","ios":"levelo://app?vid=f480da84-1887-4ade-84fb-1c0d19a4cdd8"},"vehicle_type_id":"4","last_reported":1740956885,"current_range_meters":7200,"station_id":"","pricing_plan_id":"cebpf4jnsgd1na2vs0mg"},{"bike_id":"97e8d4c3-f9a5-4604-95d3-9a0f93d23194","system_id":"levelo_inurba_marseille","lat":43.29196,"lon":5.40893,"is_reserved":false,"is_disabled":false,"rental_uris":{"android":"levelo://app?vid=97e8d4c3-f9a5-4604-95d3-9a0f93d23194","ios":"levelo://app?vid=97e8d4c3-f9a5-4604-95d3-9a0f93d23194"},"vehicle_type_id":"4","last_reported":1740956885,"current_range_meters":7200,"station_id":"","pricing_plan_id":"cebpf4jnsgd1na2vs0mg"},{"bike_id":"5d581bbf-c03d-40c4-8c08-d40ad9eeaa19","system_id":"levelo_inurba_marseille","lat":43.2923,"lon":5.42652,"is_reserved":false,"is_disabled":false,"rental_uris":{"android":"levelo://app?vid=5d581bbf-c03d-40c4-8c08-d40ad9eeaa19","ios":"levelo://app?vid=5d581bbf-c03d-40c4-8c08-d40ad9eeaa19"},"vehicle_type_id":"4","last_reported":1740956885,"current_range_meters":7200,"station_id":"","pricing_plan_id":"cebpf4jnsgd1na2vs0mg"},{"bike_id":"65d0eb0a-a0fe-45dc-95d3-9b5b2e9c75df","system_id":"levelo_inurba_marseille","lat":43.27985,"lon":5.40006,"is_reserved":false,"is_disabled":true,"rental_uris":{"android":"levelo://app?vid=65d0eb0a-a0fe-45dc-95d3-9b5b2e9c75df","ios":"levelo://app?vid=65d0eb0a-a0fe-45dc-95d3-9b5b2e9c75df"},"vehicle_type_id":"4","last_reported":1740956885,"current_range_meters":7200,"station_id":"ce4bho92rcd13ifvqh4g","pricing_plan_id":"cebpf4jnsgd1na2vs0mg"},{"bike_id":"3b899ec8-5a44-4ffd-8e3c-ea3713149e76","system_id":"levelo_inurba_marseille","lat":43.25731,"lon":5.41096,"is_reserved":false,"is_disabled":false,"rental_uris":{"android":"levelo://app?vid=3b899ec8-5a44-4ffd-8e3c-ea3713149e76","ios":"levelo://app?vid=3b899ec8-5a44-4ffd-8e3c-ea3713149e76"},"vehicle_type_id":"4","last_reported":1740956885,"current_range_meters":7200,"station_id":"ce4bhkp2rcd13ifvqgd0","pricing_plan_id":"cebpf4jnsgd1na2vs0mg"},{"bike_id":"3cbb5843-7d6f-4ab1-8221-c879ecca96e4","system_id":"levelo_inurba_marseille","lat":43.32727,"lon":5.36296,"is_reserved":false,"is_disabled":false,"rental_uris":{"android":"levelo://app?vid=3cbb5843-7d6f-4ab1-8221-c879ecca96e4","ios":"levelo://app?vid=3cbb5843-7d6f-4ab1-8221-c879ecca96e4"},"vehicle_type_id":"4","last_reported":1740956885,"current_range_meters":7200,"station_id":"","pricing_plan_id":"cebpf4jnsgd1na2vs0mg"},{"bike_id":"8e2ea686-2ed9-4286-b302-de7e1e0dbacd","system_id":"levelo_inurba_marseille","lat":43.302806,"lon":5.396818,"is_reserved":false,"is_disabled":false,"rental_uris":{"android":"levelo://app?vid=8e2ea686-2ed9-4286-b302-de7e1e0dbacd","ios":"levelo://app?vid=8e2ea686-2ed9-4286-b302-de7e1e0dbacd"},"vehicle_type_id":"4","last_reported":1740956885,"current_range_meters":7200,"station_id":"","pricing_plan_id":"cebpf4jnsgd1na2vs0mg"},{"bike_id":"0adfc9a4-085b-40f8-a0b9-f0d5aa223b41","system_id":"levelo_inurba_marseille","lat":43.27218,"lon":5.40978,"is_reserved":false,"is_disabled":true,"rental_uris":{"android":"levelo://app?vid=0adfc9a4-085b-40f8-a0b9-f0d5aa223b41","ios":"levelo://app?vid=0adfc9a4-085b-40f8-a0b9-f0d5aa223b41"},"vehicle_type_id":"4","last_reported":1740956885,"current_range_meters":8000,"station_id":"","pricing_plan_id":"cebpf4jnsgd1na2vs0mg"},{"bike_id":"0693b9d6-4a9d-4e38-bfa2-80f934bcc2e3","system_id":"levelo_inurba_marseille","lat":43.24169,"lon":5.36403,"is_reserved":false,"is_disabled":false,"rental_uris":{"android":"levelo://app?vid=0693b9d6-4a9d-4e38-bfa2-80f934bcc2e3","ios":"levelo://app?vid=0693b9d6-4a9d-4e38-bfa2-80f934bcc2e3"},"vehicle_type_id":"4","last_reported":1740956885,"current_range_meters":8000,"station_id":"cpo36qri1sfpv3e86is0","pricing_plan_id":"cebpf4jnsgd1na2vs0mg"},{"bike_id":"1ee106b5-112d-45a0-be59-c83ec195b4f1","system_id":"levelo_inurba_marseille","lat":43.337444,"lon":5.374475,"is_reserved":false,"is_disabled":true,"rental_uris":{"android":"levelo://app?vid=1ee106b5-112d-45a0-be59-c83ec195b4f1","ios":"levelo://app?vid=1ee106b5-112d-45a0-be59-c83ec195b4f1"},"vehicle_type_id":"4","last_reported":1740956885,"current_range_meters":8000,"station_id":"","pricing_plan_id":"cebpf4jnsgd1na2vs0mg"},{"bike_id":"da83a632-cd86-47d6-862a-46cfb5563955","system_id":"levelo_inurba_marseille","lat":43.25118,"lon":5.40314,"is_reserved":false,"is_disabled":false,"rental_uris":{"android":"levelo://app?vid=da83a632-cd86-47d6-862a-46cfb5563955","ios":"levelo://app?vid=da83a632-cd86-47d6-862a-46cfb5563955"},"vehicle_type_id":"4","last_reported":1740956885,"current_range_meters":8000,"station_id":"ce4bhlh2rcd13ifvqgig","pricing_plan_id":"cebpf4jnsgd1na2vs0mg"},{"bike_id":"e68ffee2-157d-4d6d-9753-411110e2f70e","system_id":"levelo_inurba_marseille","lat":43.25711,"lon":5.41093,"is_reserved":false,"is_disabled":true,"rental_uris":{"android":"levelo://app?vid=e68ffee2-157d-4d6d-9753-411110e2f70e","ios":"levelo://app?vid=e68ffee2-157d-4d6d-9753-411110e2f70e"},"vehicle_type_id":"4","last_reported":1740956885,"current_range_meters":8000,"station_id":"ce4bhkp2rcd13ifvqgd0","pricing_plan_id":"cebpf4jnsgd1na2vs0mg"},{"bike_id":"99c8d1a7-c6bc-4199-9764-2d2cb4ce492c","system_id":"levelo_inurba_marseille","lat":43.24674,"lon":5.38153,"is_reserved":false,"is_disabled":false,"rental_uris":{"android":"levelo://app?vid=99c8d1a7-c6bc-4199-9764-2d2cb4ce492c","ios":"levelo://app?vid=99c8d1a7-c6bc-4199-9764-2d2cb4ce492c"},"vehicle_type_id":"4","last_reported":1740956885,"current_range_meters":8000,"station_id":"ce4bhih2rcd13ifvqfr0","pricing_plan_id":"cebpf4jnsgd1na2vs0mg"},{"bike_id":"8376f2c7-56e7-4f97-ab2e-379f815c64cf","system_id":"levelo_inurba_marseille","lat":43.29799,"lon":5.38094,"is_reserved":false,"is_disabled":false,"rental_uris":{"android":"levelo://app?vid=8376f2c7-56e7-4f97-ab2e-379f815c64cf","ios":"levelo://app?vid=8376f2c7-56e7-4f97-ab2e-379f815c64cf"},"vehicle_type_id":"4","last_reported":1740956885,"current_range_meters":8000,"station_id":"ce4bh312rcd13ifvqdj0","pricing_plan_id":"cebpf4jnsgd1na2vs0mg"},{"bike_id":"0e4d5d36-7d5d-4fbf-9597-759cc9a1b223","system_id":"levelo_inurba_marseille","lat":43.30563,"lon":5.37246,"is_reserved":false,"is_disabled":false,"rental_uris":{"android":"levelo://app?vid=0e4d5d36-7d5d-4fbf-9597-759cc9a1b223","ios":"levelo://app?vid=0e4d5d36-7d5d-4fbf-9597-759cc9a1b223"},"vehicle_type_id":"4","last_reported":1740956885,"current_range_meters":8000,"station_id":"","pricing_plan_id":"cebpf4jnsgd1na2vs0mg"},{"bike_id":"7f47d482-09e6-40be-bf28-f1af69f2fc72","system_id":"levelo_inurba_marseille","lat":43.24072,"lon":5.3776,"is_reserved":false,"is_disabled":false,"rental_uris":{"android":"levelo://app?vid=7f47d482-09e6-40be-bf28-f1af69f2fc72","ios":"levelo://app?vid=7f47d482-09e6-40be-bf28-f1af69f2fc72"},"vehicle_type_id":"4","last_reported":1740956885,"current_range_meters":8000,"station_id":"ce4bhnp2rcd13ifvqgvg","pricing_plan_id":"cebpf4jnsgd1na2vs0mg"},{"bike_id":"93c8ac2c-dd48-4059-8e12-2bbb5dfdb523","system_id":"levelo_inurba_marseille","lat":43.30636,"lon":5.40087,"is_reserved":false,"is_disabled":false,"rental_uris":{"android":"levelo://app?vid=93c8ac2c-dd48-4059-8e12-2bbb5dfdb523","ios":"levelo://app?vid=93c8ac2c-dd48-4059-8e12-2bbb5dfdb523"},"vehicle_type_id":"4","last_reported":1740956885,"current_range_meters":8000,"station_id":"ce4bh112rcd13ifvqda0","pricing_plan_id":"cebpf4jnsgd1na2vs0mg"},{"bike_id":"5365f3e3-1095-4284-be0e-5e73a795384b","system_id":"levelo_inurba_marseille","lat":43.25718,"lon":5.41117,"is_reserved":false,"is_disabled":false,"rental_uris":{"android":"levelo://app?vid=5365f3e3-1095-4284-be0e-5e73a795384b","ios":"levelo://app?vid=5365f3e3-1095-4284-be0e-5e73a795384b"},"vehicle_type_id":"4","last_reported":1740956885,"current_range_meters":8400,"station_id":"ce4bhkp2rcd13ifvqgd0","pricing_plan_id":"cebpf4jnsgd1na2vs0mg"},{"bike_id":"e417a9c1-97bd-4a47-9727-1477bdbd1cf1","system_id":"levelo_inurba_marseille","lat":43.24076,"lon":5.3773,"is_reserved":false,"is_disabled":false,"rental_uris":{"android":"levelo://app?vid=e417a9c1-97bd-4a47-9727-1477bdbd1cf1","ios":"levelo://app?vid=e417a9c1-97bd-4a47-9727-1477bdbd1cf1"},"vehicle_type_id":"4","last_reported":1740956885,"current_range_meters":8400,"station_id":"ce4bhnp2rcd13ifvqgvg","pricing_plan_id":"cebpf4jnsgd1na2vs0mg"},{"bike_id":"55557f7f-e148-47f2-9828-3c3248ab3324","system_id":"levelo_inurba_marseille","lat":43.23173,"lon":5.39995,"is_reserved":false,"is_disabled":false,"rental_uris":{"android":"levelo://app?vid=55557f7f-e148-47f2-9828-3c3248ab3324","ios":"levelo://app?vid=55557f7f-e148-47f2-9828-3c3248ab3324"},"vehicle_type_id":"4","last_reported":1740956885,"current_range_meters":8400,"station_id":"ce4bhn12rcd13ifvqgqg","pricing_plan_id":"cebpf4jnsgd1na2vs0mg"},{"bike_id":"adaef3d7-1b95-490c-a7fc-4e761e475ef8","system_id":"levelo_inurba_marseille","lat":43.24812,"lon":5.37451,"is_reserved":false,"is_disabled":false,"rental_uris":{"android":"levelo://app?vid=adaef3d7-1b95-490c-a7fc-4e761e475ef8","ios":"levelo://app?vid=adaef3d7-1b95-490c-a7fc-4e761e475ef8"},"vehicle_type_id":"4","last_reported":1740956885,"current_range_meters":8400,"station_id":"ce4bhgh2rcd13ifvqfb0","pricing_plan_id":"cebpf4jnsgd1na2vs0mg"},{"bike_id":"3bb60d81-263f-4c01-b89b-e6042baf1c71","system_id":"levelo_inurba_marseille","lat":43.25002,"lon":5.38926,"is_reserved":false,"is_disabled":false,"rental_uris":{"android":"levelo://app?vid=3bb60d81-263f-4c01-b89b-e6042baf1c71","ios":"levelo://app?vid=3bb60d81-263f-4c01-b89b-e6042baf1c71"},"vehicle_type_id":"4","last_reported":1740956885,"current_range_meters":8400,"station_id":"ce4bhgp2rcd13ifvqfd0","pricing_plan_id":"cebpf4jnsgd1na2vs0mg"},{"bike_id":"59ef5800-ff3c-4c18-9229-7ba16507dc77","system_id":"levelo_inurba_marseille","lat":43.27834,"lon":5.40719,"is_reserved":false,"is_disabled":false,"rental_uris":{"android":"levelo://app?vid=59ef5800-ff3c-4c18-9229-7ba16507dc77","ios":"levelo://app?vid=59ef5800-ff3c-4c18-9229-7ba16507dc77"},"vehicle_type_id":"4","last_reported":1740956885,"current_range_meters":8400,"station_id":"ce4bhnh2rcd13ifvqgtg","pricing_plan_id":"cebpf4jnsgd1na2vs0mg"},{"bike_id":"f3d62443-ec22-4dba-8f32-6ce3d44fa6f1","system_id":"levelo_inurba_marseille","lat":43.30579,"lon":5.39351,"is_reserved":false,"is_disabled":false,"rental_uris":{"android":"levelo://app?vid=f3d62443-ec22-4dba-8f32-6ce3d44fa6f1","ios":"levelo://app?vid=f3d62443-ec22-4dba-8f32-6ce3d44fa6f1"},"vehicle_type_id":"4","last_reported":1740956885,"current_range_meters":8800,"station_id":"ce4bh0p2rcd13ifvqd80","pricing_plan_id":"cebpf4jnsgd1na2vs0mg"},{"bike_id":"ea645cba-dcde-4f06-9ad2-12701b76727e","system_id":"levelo_inurba_marseille","lat":43.28935,"lon":5.36636,"is_reserved":false,"is_disabled":false,"rental_uris":{"android":"levelo://app?vid=ea645cba-dcde-4f06-9ad2-12701b76727e","ios":"levelo://app?vid=ea645cba-dcde-4f06-9ad2-12701b76727e"},"vehicle_type_id":"4","last_reported":1740956885,"current_range_meters":8800,"station_id":"ce4bhap2rcd13ifvqek0","pricing_plan_id":"cebpf4jnsgd1na2vs0mg"},{"bike_id":"de0374b1-5b21-43cc-9ff6-5bd80acc1bd8","system_id":"levelo_inurba_marseille","lat":43.28266,"lon":5.35089,"is_reserved":false,"is_disabled":false,"rental_uris":{"android":"levelo://app?vid=de0374b1-5b21-43cc-9ff6-5bd80acc1bd8","ios":"levelo://app?vid=de0374b1-5b21-43cc-9ff6-5bd80acc1bd8"},"vehicle_type_id":"4","last_reported":1740956885,"current_range_meters":8800,"station_id":"ce4bhbp2rcd13ifvqerg","pricing_plan_id":"cebpf4jnsgd1na2vs0mg"},{"bike_id":"f711a177-8c95-4e96-bcaf-e6e0dc33f59e","system_id":"levelo_inurba_marseille","lat":43.24378,"lon":5.37053,"is_reserved":false,"is_disabled":false,"rental_uris":{"android":"levelo://app?vid=f711a177-8c95-4e96-bcaf-e6e0dc33f59e","ios":"levelo://app?vid=f711a177-8c95-4e96-bcaf-e6e0dc33f59e"},"vehicle_type_id":"4","last_reported":1740956885,"current_range_meters":8800,"station_id":"ce4bhhh2rcd13ifvqfk0","pricing_plan_id":"cebpf4jnsgd1na2vs0mg"},{"bike_id":"5e40e677-73ed-4b49-bdf6-1d82fe61512c","system_id":"levelo_inurba_marseille","lat":43.295603,"lon":5.422739,"is_reserved":false,"is_disabled":true,"rental_uris":{"android":"levelo://app?vid=5e40e677-73ed-4b49-bdf6-1d82fe61512c","ios":"levelo://app?vid=5e40e677-73ed-4b49-bdf6-1d82fe61512c"},"vehicle_type_id":"4","last_reported":1740956885,"current_range_meters":8800,"station_id":"ce4bhph2rcd13ifvqhdg","pricing_plan_id":"cebpf4jnsgd1na2vs0mg"},{"bike_id":"35d95d72-1d3e-4c7a-b702-cf399579e390","system_id":"levelo_inurba_marseille","lat":43.27808,"lon":5.40724,"is_reserved":false,"is_disabled":false,"rental_uris":{"android":"levelo://app?vid=35d95d72-1d3e-4c7a-b702-cf399579e390","ios":"levelo://app?vid=35d95d72-1d3e-4c7a-b702-cf399579e390"},"vehicle_type_id":"4","last_reported":1740956885,"current_range_meters":8800,"station_id":"ce4bhnh2rcd13ifvqgtg","pricing_plan_id":"cebpf4jnsgd1na2vs0mg"},{"bike_id":"d63a8c49-e202-4545-a198-50742a9ab85f","system_id":"levelo_inurba_marseille","lat":43.25003,"lon":5.38951,"is_reserved":false,"is_disabled":false,"rental_uris":{"android":"levelo://app?vid=d63a8c49-e202-4545-a198-50742a9ab85f","ios":"levelo://app?vid=d63a8c49-e202-4545-a198-50742a9ab85f"},"vehicle_type_id":"4","last_reported":1740956885,"current_range_meters":8800,"station_id":"ce4bhgp2rcd13ifvqfd0","pricing_plan_id":"cebpf4jnsgd1na2vs0mg"},{"bike_id":"5a9ed32d-635a-4b6a-99eb-e8d9d052f6d4","system_id":"levelo_inurba_marseille","lat":43.25725,"lon":5.41134,"is_reserved":false,"is_disabled":false,"rental_uris":{"android":"levelo://app?vid=5a9ed32d-635a-4b6a-99eb-e8d9d052f6d4","ios":"levelo://app?vid=5a9ed32d-635a-4b6a-99eb-e8d9d052f6d4"},"vehicle_type_id":"4","last_reported":1740956885,"current_range_meters":8800,"station_id":"ce4bhkp2rcd13ifvqgd0","pricing_plan_id":"cebpf4jnsgd1na2vs0mg"},{"bike_id":"d606c3a5-ef02-42b0-930d-884ebc257989","system_id":"levelo_inurba_marseille","lat":43.28711,"lon":5.37395,"is_reserved":false,"is_disabled":false,"rental_uris":{"android":"levelo://app?vid=d606c3a5-ef02-42b0-930d-884ebc257989","ios":"levelo://app?vid=d606c3a5-ef02-42b0-930d-884ebc257989"},"vehicle_type_id":"4","last_reported":1740956885,"current_range_meters":9200,"station_id":"ce4bh3p2rcd13ifvqdq0","pricing_plan_id":"cebpf4jnsgd1na2vs0mg"},{"bike_id":"3acaa5ae-5d8f-4fc5-af7a-623fd368a10a","system_id":"levelo_inurba_marseille","lat":43.23965,"lon":5.36626,"is_reserved":false,"is_disabled":false,"rental_uris":{"android":"levelo://app?vid=3acaa5ae-5d8f-4fc5-af7a-623fd368a10a","ios":"levelo://app?vid=3acaa5ae-5d8f-4fc5-af7a-623fd368a10a"},"vehicle_type_id":"4","last_reported":1740956885,"current_range_meters":9200,"station_id":"ce4bhi12rcd13ifvqfp0","pricing_plan_id":"cebpf4jnsgd1na2vs0mg"},{"bike_id":"426c9d0f-151d-4aeb-b601-ddecaec8315b","system_id":"levelo_inurba_marseille","lat":43.29887,"lon":5.38902,"is_reserved":false,"is_disabled":false,"rental_uris":{"android":"levelo://app?vid=426c9d0f-151d-4aeb-b601-ddecaec8315b","ios":"levelo://app?vid=426c9d0f-151d-4aeb-b601-ddecaec8315b"},"vehicle_type_id":"4","last_reported":1740956885,"current_range_meters":9200,"station_id":"ce4bh392rcd13ifvqdl0","pricing_plan_id":"cebpf4jnsgd1na2vs0mg"},{"bike_id":"bae8e615-6f72-446a-9e54-b9d8bf3e3a79","system_id":"levelo_inurba_marseille","lat":43.28721,"lon":5.36092,"is_reserved":false,"is_disabled":false,"rental_uris":{"android":"levelo://app?vid=bae8e615-6f72-446a-9e54-b9d8bf3e3a79","ios":"levelo://app?vid=bae8e615-6f72-446a-9e54-b9d8bf3e3a79"},"vehicle_type_id":"4","last_reported":1740956885,"current_range_meters":9200,"station_id":"cki0cbj6b192h4jlfktg","pricing_plan_id":"cebpf4jnsgd1na2vs0mg"},{"bike_id":"f3dbd8c6-02cc-4c81-ab5c-28d141829e91","system_id":"levelo_inurba_marseille","lat":43.27956,"lon":5.38716,"is_reserved":false,"is_disabled":true,"rental_uris":{"android":"levelo://app?vid=f3dbd8c6-02cc-4c81-ab5c-28d141829e91","ios":"levelo://app?vid=f3dbd8c6-02cc-4c81-ab5c-28d141829e91"},"vehicle_type_id":"4","last_reported":1740956885,"current_range_meters":9200,"station_id":"ce4bhg12rcd13ifvqf80","pricing_plan_id":"cebpf4jnsgd1na2vs0mg"},{"bike_id":"367fb4ce-d5e7-4054-aafc-c4d30cf921b6","system_id":"levelo_inurba_marseille","lat":43.2927,"lon":5.38213,"is_reserved":false,"is_disabled":false,"rental_uris":{"android":"levelo://app?vid=367fb4ce-d5e7-4054-aafc-c4d30cf921b6","ios":"levelo://app?vid=367fb4ce-d5e7-4054-aafc-c4d30cf921b6"},"vehicle_type_id":"4","last_reported":1740956885,"current_range_meters":9200,"station_id":"","pricing_plan_id":"cebpf4jnsgd1na2vs0mg"},{"bike_id":"0059809f-cccf-4b14-b160-c0a961644256","system_id":"levelo_inurba_marseille","lat":43.28403,"lon":5.37518,"is_reserved":false,"is_disabled":false,"rental_uris":{"android":"levelo://app?vid=0059809f-cccf-4b14-b160-c0a961644256","ios":"levelo://app?vid=0059809f-cccf-4b14-b160-c0a961644256"},"vehicle_type_id":"4","last_reported":1740956885,"current_range_meters":9200,"station_id":"ce4bh412rcd13ifvqds0","pricing_plan_id":"cebpf4jnsgd1na2vs0mg"},{"bike_id":"ee8338ba-0f97-4826-83f5-3271605e8158","system_id":"levelo_inurba_marseille","lat":43.254913,"lon":5.376512,"is_reserved":false,"is_disabled":true,"rental_uris":{"android":"levelo://app?vid=ee8338ba-0f97-4826-83f5-3271605e8158","ios":"levelo://app?vid=ee8338ba-0f97-4826-83f5-3271605e8158"},"vehicle_type_id":"4","last_reported":1740956885,"current_range_meters":9600,"station_id":"ce4bhh12rcd13ifvqff0","pricing_plan_id":"cebpf4jnsgd1na2vs0mg"},{"bike_id":"20d46fcb-4529-4896-b225-392c7b6d1f52","system_id":"levelo_inurba_marseille","lat":43.29211,"lon":5.3932,"is_reserved":false,"is_disabled":true,"rental_uris":{"android":"levelo://app?vid=20d46fcb-4529-4896-b225-392c7b6d1f52","ios":"levelo://app?vid=20d46fcb-4529-4896-b225-392c7b6d1f52"},"vehicle_type_id":"4","last_reported":1740956885,"current_range_meters":9600,"station_id":"ce4bh192rcd13ifvqdd0","pricing_plan_id":"cebpf4jnsgd1na2vs0mg"},{"bike_id":"c52f616b-3464-417a-a1bc-41003b356f42","system_id":"levelo_inurba_marseille","lat":43.26033,"lon":5.37553,"is_reserved":false,"is_disabled":true,"rental_uris":{"android":"levelo://app?vid=c52f616b-3464-417a-a1bc-41003b356f42","ios":"levelo://app?vid=c52f616b-3464-417a-a1bc-41003b356f42"},"vehicle_type_id":"4","last_reported":1740956885,"current_range_meters":9600,"station_id":"ce4bhgh2rcd13ifvqfa0","pricing_plan_id":"cebpf4jnsgd1na2vs0mg"},{"bike_id":"1a1b3d7b-03b5-45f6-8069-197089a906da","system_id":"levelo_inurba_marseille","lat":43.28294,"lon":5.38124,"is_reserved":false,"is_disabled":false,"rental_uris":{"android":"levelo://app?vid=1a1b3d7b-03b5-45f6-8069-197089a906da","ios":"levelo://app?vid=1a1b3d7b-03b5-45f6-8069-197089a906da"},"vehicle_type_id":"4","last_reported":1740956885,"current_range_meters":9600,"station_id":"","pricing_plan_id":"cebpf4jnsgd1na2vs0mg"},{"bike_id":"8f9aa5f2-0146-4402-b822-67cdb00b2b3e","system_id":"levelo_inurba_marseille","lat":43.30596,"lon":5.37205,"is_reserved":false,"is_disabled":false,"rental_uris":{"android":"levelo://app?vid=8f9aa5f2-0146-4402-b822-67cdb00b2b3e","ios":"levelo://app?vid=8f9aa5f2-0146-4402-b822-67cdb00b2b3e"},"vehicle_type_id":"4","last_reported":1740956885,"current_range_meters":9600,"station_id":"ce4bgqh2rcd13ifvqc4g","pricing_plan_id":"cebpf4jnsgd1na2vs0mg"},{"bike_id":"49aa3f3f-0d66-4862-8940-d4232186286e","system_id":"levelo_inurba_marseille","lat":43.29918,"lon":5.37479,"is_reserved":false,"is_disabled":false,"rental_uris":{"android":"levelo://app?vid=49aa3f3f-0d66-4862-8940-d4232186286e","ios":"levelo://app?vid=49aa3f3f-0d66-4862-8940-d4232186286e"},"vehicle_type_id":"4","last_reported":1740956885,"current_range_meters":10000,"station_id":"ce4bgjh2rcd13ifvqbg0","pricing_plan_id":"cebpf4jnsgd1na2vs0mg"},{"bike_id":"8e58708e-24eb-4be6-ab67-2fdbde3a8fff","system_id":"levelo_inurba_marseille","lat":43.29287,"lon":5.38404,"is_reserved":false,"is_disabled":true,"rental_uris":{"android":"levelo://app?vid=8e58708e-24eb-4be6-ab67-2fdbde3a8fff","ios":"levelo://app?vid=8e58708e-24eb-4be6-ab67-2fdbde3a8fff"},"vehicle_type_id":"4","last_reported":1740956885,"current_range_meters":10000,"station_id":"ce4bh692rcd13ifvqea0","pricing_plan_id":"cebpf4jnsgd1na2vs0mg"},{"bike_id":"d15a920c-600b-4ae1-bbc4-6f27080680ca","system_id":"levelo_inurba_marseille","lat":43.24684,"lon":5.38144,"is_reserved":false,"is_disabled":false,"rental_uris":{"android":"levelo://app?vid=d15a920c-600b-4ae1-bbc4-6f27080680ca","ios":"levelo://app?vid=d15a920c-600b-4ae1-bbc4-6f27080680ca"},"vehicle_type_id":"4","last_reported":1740956885,"current_range_meters":10000,"station_id":"ce4bhih2rcd13ifvqfr0","pricing_plan_id":"cebpf4jnsgd1na2vs0mg"},{"bike_id":"9f2f5afa-dba6-4a22-a334-4307fd9e7da8","system_id":"levelo_inurba_marseille","lat":43.24165,"lon":5.36397,"is_reserved":false,"is_disabled":true,"rental_uris":{"android":"levelo://app?vid=9f2f5afa-dba6-4a22-a334-4307fd9e7da8","ios":"levelo://app?vid=9f2f5afa-dba6-4a22-a334-4307fd9e7da8"},"vehicle_type_id":"4","last_reported":1740956885,"current_range_meters":10000,"station_id":"cpo36qri1sfpv3e86is0","pricing_plan_id":"cebpf4jnsgd1na2vs0mg"},{"bike_id":"827852fb-8eea-4d89-a222-a9f71090e1a1","system_id":"levelo_inurba_marseille","lat":43.30947,"lon":5.39058,"is_reserved":false,"is_disabled":false,"rental_uris":{"android":"levelo://app?vid=827852fb-8eea-4d89-a222-a9f71090e1a1","ios":"levelo://app?vid=827852fb-8eea-4d89-a222-a9f71090e1a1"},"vehicle_type_id":"4","last_reported":1740956885,"current_range_meters":10000,"station_id":"ce4bgup2rcd13ifvqco0","pricing_plan_id":"cebpf4jnsgd1na2vs0mg"},{"bike_id":"1d3c7fd7-b709-4008-8e9f-a0f764fe60d9","system_id":"levelo_inurba_marseille","lat":43.28247,"lon":5.38554,"is_reserved":false,"is_disabled":false,"rental_uris":{"android":"levelo://app?vid=1d3c7fd7-b709-4008-8e9f-a0f764fe60d9","ios":"levelo://app?vid=1d3c7fd7-b709-4008-8e9f-a0f764fe60d9"},"vehicle_type_id":"4","last_reported":1740956885,"current_range_meters":10000,"station_id":"","pricing_plan_id":"cebpf4jnsgd1na2vs0mg"},{"bike_id":"902d4f9e-c598-4fd4-bd35-847d4b7a6b35","system_id":"levelo_inurba_marseille","lat":43.27818,"lon":5.40714,"is_reserved":false,"is_disabled":false,"rental_uris":{"android":"levelo://app?vid=902d4f9e-c598-4fd4-bd35-847d4b7a6b35","ios":"levelo://app?vid=902d4f9e-c598-4fd4-bd35-847d4b7a6b35"},"vehicle_type_id":"4","last_reported":1740956885,"current_range_meters":10000,"station_id":"ce4bhnh2rcd13ifvqgtg","pricing_plan_id":"cebpf4jnsgd1na2vs0mg"},{"bike_id":"f7201458-4a84-41e3-9432-885042a6d55a","system_id":"levelo_inurba_marseille","lat":43.26209,"lon":5.37461,"is_reserved":false,"is_disabled":false,"rental_uris":{"android":"levelo://app?vid=f7201458-4a84-41e3-9432-885042a6d55a","ios":"levelo://app?vid=f7201458-4a84-41e3-9432-885042a6d55a"},"vehicle_type_id":"4","last_reported":1740956885,"current_range_meters":10000,"station_id":"ce4bhgp2rcd13ifvqfc0","pricing_plan_id":"cebpf4jnsgd1na2vs0mg"},{"bike_id":"3c9c65ff-a2a8-4c52-a6f4-62bcc77556ef","system_id":"levelo_inurba_marseille","lat":43.24188,"lon":5.36364,"is_reserved":false,"is_disabled":false,"rental_uris":{"android":"levelo://app?vid=3c9c65ff-a2a8-4c52-a6f4-62bcc77556ef","ios":"levelo://app?vid=3c9c65ff-a2a8-4c52-a6f4-62bcc77556ef"},"vehicle_type_id":"4","last_reported":1740956885,"current_range_meters":10000,"station_id":"cpo36qri1sfpv3e86is0","pricing_plan_id":"cebpf4jnsgd1na2vs0mg"},{"bike_id":"24c526bd-d370-4ef3-8593-b03621bdcb47","system_id":"levelo_inurba_marseille","lat":43.28418,"lon":5.37528,"is_reserved":false,"is_disabled":false,"rental_uris":{"android":"levelo://app?vid=24c526bd-d370-4ef3-8593-b03621bdcb47","ios":"levelo://app?vid=24c526bd-d370-4ef3-8593-b03621bdcb47"},"vehicle_type_id":"4","last_reported":1740956885,"current_range_meters":10000,"station_id":"ce4bh412rcd13ifvqds0","pricing_plan_id":"cebpf4jnsgd1na2vs0mg"},{"bike_id":"7fd86324-8970-442c-bcfb-a25007ac9e10","system_id":"levelo_inurba_marseille","lat":43.28721,"lon":5.39957,"is_reserved":false,"is_disabled":false,"rental_uris":{"android":"levelo://app?vid=7fd86324-8970-442c-bcfb-a25007ac9e10","ios":"levelo://app?vid=7fd86324-8970-442c-bcfb-a25007ac9e10"},"vehicle_type_id":"4","last_reported":1740956885,"current_range_meters":10000,"station_id":"ce4bho92rcd13ifvqh3g","pricing_plan_id":"cebpf4jnsgd1na2vs0mg"},{"bike_id":"f8774b53-6aad-4c74-8fcb-de09dc38caee","system_id":"levelo_inurba_marseille","lat":43.27375,"lon":5.36253,"is_reserved":false,"is_disabled":true,"rental_uris":{"android":"levelo://app?vid=f8774b53-6aad-4c74-8fcb-de09dc38caee","ios":"levelo://app?vid=f8774b53-6aad-4c74-8fcb-de09dc38caee"},"vehicle_type_id":"4","last_reported":1740956885,"current_range_meters":10800,"station_id":"ce4bhbh2rcd13ifvqeo0","pricing_plan_id":"cebpf4jnsgd1na2vs0mg"},{"bike_id":"620a5eb3-daee-44ad-a3ba-f984dc8c768a","system_id":"levelo_inurba_marseille","lat":43.30167,"lon":5.36627,"is_reserved":false,"is_disabled":true,"rental_uris":{"android":"levelo://app?vid=620a5eb3-daee-44ad-a3ba-f984dc8c768a","ios":"levelo://app?vid=620a5eb3-daee-44ad-a3ba-f984dc8c768a"},"vehicle_type_id":"4","last_reported":1740956885,"current_range_meters":10800,"station_id":"ce4bgrh2rcd13ifvqc8g","pricing_plan_id":"cebpf4jnsgd1na2vs0mg"},{"bike_id":"cf062e91-5239-401d-ba8e-8d3d65b3d274","system_id":"levelo_inurba_marseille","lat":43.30253,"lon":5.40069,"is_reserved":false,"is_disabled":false,"rental_uris":{"android":"levelo://app?vid=cf062e91-5239-401d-ba8e-8d3d65b3d274","ios":"levelo://app?vid=cf062e91-5239-401d-ba8e-8d3d65b3d274"},"vehicle_type_id":"4","last_reported":1740956885,"current_range_meters":10800,"station_id":"ce4bgvh2rcd13ifvqcs0","pricing_plan_id":"cebpf4jnsgd1na2vs0mg"},{"bike_id":"a20e6d10-3a48-45b7-92fd-a1243587151b","system_id":"levelo_inurba_marseille","lat":43.25118,"lon":5.40322,"is_reserved":false,"is_disabled":false,"rental_uris":{"android":"levelo://app?vid=a20e6d10-3a48-45b7-92fd-a1243587151b","ios":"levelo://app?vid=a20e6d10-3a48-45b7-92fd-a1243587151b"},"vehicle_type_id":"4","last_reported":1740956885,"current_range_meters":10800,"station_id":"ce4bhlh2rcd13ifvqgig","pricing_plan_id":"cebpf4jnsgd1na2vs0mg"},{"bike_id":"73ed1160-cb36-4333-904a-756c85e9b332","system_id":"levelo_inurba_marseille","lat":43.31067,"lon":5.38355,"is_reserved":false,"is_disabled":false,"rental_uris":{"android":"levelo://app?vid=73ed1160-cb36-4333-904a-756c85e9b332","ios":"levelo://app?vid=73ed1160-cb36-4333-904a-756c85e9b332"},"vehicle_type_id":"4","last_reported":1740956885,"current_range_meters":10800,"station_id":"ce4bgv92rcd13ifvqcr0","pricing_plan_id":"cebpf4jnsgd1na2vs0mg"},{"bike_id":"4cb16c1e-94e8-463e-9f2d-59234e663607","system_id":"levelo_inurba_marseille","lat":43.28736,"lon":5.3609,"is_reserved":false,"is_disabled":false,"rental_uris":{"android":"levelo://app?vid=4cb16c1e-94e8-463e-9f2d-59234e663607","ios":"levelo://app?vid=4cb16c1e-94e8-463e-9f2d-59234e663607"},"vehicle_type_id":"4","last_reported":1740956885,"current_range_meters":10800,"station_id":"cki0cbj6b192h4jlfktg","pricing_plan_id":"cebpf4jnsgd1na2vs0mg"},{"bike_id":"a994759e-b15e-48e7-a5c5-284331461eb0","system_id":"levelo_inurba_marseille","lat":43.28394,"lon":5.37534,"is_reserved":false,"is_disabled":false,"rental_uris":{"android":"levelo://app?vid=a994759e-b15e-48e7-a5c5-284331461eb0","ios":"levelo://app?vid=a994759e-b15e-48e7-a5c5-284331461eb0"},"vehicle_type_id":"4","last_reported":1740956885,"current_range_meters":10800,"station_id":"ce4bh412rcd13ifvqds0","pricing_plan_id":"cebpf4jnsgd1na2vs0mg"},{"bike_id":"fe86a910-fa8f-4b0f-9c40-85f23f0a542b","system_id":"levelo_inurba_marseille","lat":43.27909,"lon":5.39579,"is_reserved":false,"is_disabled":false,"rental_uris":{"android":"levelo://app?vid=fe86a910-fa8f-4b0f-9c40-85f23f0a542b","ios":"levelo://app?vid=fe86a910-fa8f-4b0f-9c40-85f23f0a542b"},"vehicle_type_id":"4","last_reported":1740956885,"current_range_meters":10800,"station_id":"ce4bhf92rcd13ifvqf40","pricing_plan_id":"cebpf4jnsgd1na2vs0mg"},{"bike_id":"a3e4e670-96af-42cb-8c2e-a7c558780b0b","system_id":"levelo_inurba_marseille","lat":43.24065,"lon":5.37736,"is_reserved":false,"is_disabled":false,"rental_uris":{"android":"levelo://app?vid=a3e4e670-96af-42cb-8c2e-a7c558780b0b","ios":"levelo://app?vid=a3e4e670-96af-42cb-8c2e-a7c558780b0b"},"vehicle_type_id":"4","last_reported":1740956885,"current_range_meters":10800,"station_id":"ce4bhnp2rcd13ifvqgvg","pricing_plan_id":"cebpf4jnsgd1na2vs0mg"},{"bike_id":"afaa6ab0-706f-48b9-9e8b-246ecf081361","system_id":"levelo_inurba_marseille","lat":43.2439,"lon":5.37057,"is_reserved":false,"is_disabled":false,"rental_uris":{"android":"levelo://app?vid=afaa6ab0-706f-48b9-9e8b-246ecf081361","ios":"levelo://app?vid=afaa6ab0-706f-48b9-9e8b-246ecf081361"},"vehicle_type_id":"4","last_reported":1740956885,"current_range_meters":10800,"station_id":"ce4bhhh2rcd13ifvqfk0","pricing_plan_id":"cebpf4jnsgd1na2vs0mg"},{"bike_id":"88d09cbc-1497-4fea-99b9-c1fe29ff58f0","system_id":"levelo_inurba_marseille","lat":43.28044,"lon":5.3661,"is_reserved":false,"is_disabled":false,"rental_uris":{"android":"levelo://app?vid=88d09cbc-1497-4fea-99b9-c1fe29ff58f0","ios":"levelo://app?vid=88d09cbc-1497-4fea-99b9-c1fe29ff58f0"},"vehicle_type_id":"4","last_reported":1740956885,"current_range_meters":10800,"station_id":"","pricing_plan_id":"cebpf4jnsgd1na2vs0mg"},{"bike_id":"fe0526a3-ca87-451c-ae75-80a08f5dec8f","system_id":"levelo_inurba_marseille","lat":43.311762,"lon":5.387046,"is_reserved":false,"is_disabled":false,"rental_uris":{"android":"levelo://app?vid=fe0526a3-ca87-451c-ae75-80a08f5dec8f","ios":"levelo://app?vid=fe0526a3-ca87-451c-ae75-80a08f5dec8f"},"vehicle_type_id":"4","last_reported":1740956885,"current_range_meters":11200,"station_id":"ce4bgv12rcd13ifvqcp0","pricing_plan_id":"cebpf4jnsgd1na2vs0mg"},{"bike_id":"61e3c74e-7012-4cb6-8ef4-17db5d82fdf7","system_id":"levelo_inurba_marseille","lat":43.25305,"lon":5.39313,"is_reserved":false,"is_disabled":false,"rental_uris":{"android":"levelo://app?vid=61e3c74e-7012-4cb6-8ef4-17db5d82fdf7","ios":"levelo://app?vid=61e3c74e-7012-4cb6-8ef4-17db5d82fdf7"},"vehicle_type_id":"4","last_reported":1740956885,"current_range_meters":11200,"station_id":"","pricing_plan_id":"cebpf4jnsgd1na2vs0mg"},{"bike_id":"f5a9e498-9324-43f3-b8bf-6bc33379f722","system_id":"levelo_inurba_marseille","lat":43.28689,"lon":5.37393,"is_reserved":false,"is_disabled":false,"rental_uris":{"android":"levelo://app?vid=f5a9e498-9324-43f3-b8bf-6bc33379f722","ios":"levelo://app?vid=f5a9e498-9324-43f3-b8bf-6bc33379f722"},"vehicle_type_id":"4","last_reported":1740956885,"current_range_meters":11200,"station_id":"ce4bh3p2rcd13ifvqdq0","pricing_plan_id":"cebpf4jnsgd1na2vs0mg"},{"bike_id":"9fe32dd4-8c83-4f55-8d4d-26816ab2fe7e","system_id":"levelo_inurba_marseille","lat":43.23154,"lon":5.43713,"is_reserved":false,"is_disabled":false,"rental_uris":{"android":"levelo://app?vid=9fe32dd4-8c83-4f55-8d4d-26816ab2fe7e","ios":"levelo://app?vid=9fe32dd4-8c83-4f55-8d4d-26816ab2fe7e"},"vehicle_type_id":"4","last_reported":1740956885,"current_range_meters":11200,"station_id":"ce4bhmp2rcd13ifvqgog","pricing_plan_id":"cebpf4jnsgd1na2vs0mg"},{"bike_id":"f2c0ca3b-8324-45cc-9282-3b53540210ba","system_id":"levelo_inurba_marseille","lat":43.29553,"lon":5.42287,"is_reserved":false,"is_disabled":false,"rental_uris":{"android":"levelo://app?vid=f2c0ca3b-8324-45cc-9282-3b53540210ba","ios":"levelo://app?vid=f2c0ca3b-8324-45cc-9282-3b53540210ba"},"vehicle_type_id":"4","last_reported":1740956885,"current_range_meters":11600,"station_id":"ce4bhph2rcd13ifvqhdg","pricing_plan_id":"cebpf4jnsgd1na2vs0mg"},{"bike_id":"e0c607bf-7f3d-4c22-8ed8-7156f04c1a25","system_id":"levelo_inurba_marseille","lat":43.28158,"lon":5.42648,"is_reserved":false,"is_disabled":false,"rental_uris":{"android":"levelo://app?vid=e0c607bf-7f3d-4c22-8ed8-7156f04c1a25","ios":"levelo://app?vid=e0c607bf-7f3d-4c22-8ed8-7156f04c1a25"},"vehicle_type_id":"4","last_reported":1740956885,"current_range_meters":11600,"station_id":"ce4bhnh2rcd13ifvqgug","pricing_plan_id":"cebpf4jnsgd1na2vs0mg"},{"bike_id":"12ab922a-f881-4968-9e63-ec8d58f2ca05","system_id":"levelo_inurba_marseille","lat":43.24818,"lon":5.37443,"is_reserved":false,"is_disabled":false,"rental_uris":{"android":"levelo://app?vid=12ab922a-f881-4968-9e63-ec8d58f2ca05","ios":"levelo://app?vid=12ab922a-f881-4968-9e63-ec8d58f2ca05"},"vehicle_type_id":"4","last_reported":1740956885,"current_range_meters":11600,"station_id":"ce4bhgh2rcd13ifvqfb0","pricing_plan_id":"cebpf4jnsgd1na2vs0mg"},{"bike_id":"8492bbc1-1334-43af-8a78-40ef006e5c3f","system_id":"levelo_inurba_marseille","lat":43.29993,"lon":5.37373,"is_reserved":false,"is_disabled":false,"rental_uris":{"android":"levelo://app?vid=8492bbc1-1334-43af-8a78-40ef006e5c3f","ios":"levelo://app?vid=8492bbc1-1334-43af-8a78-40ef006e5c3f"},"vehicle_type_id":"4","last_reported":1740956885,"current_range_meters":11600,"station_id":"","pricing_plan_id":"cebpf4jnsgd1na2vs0mg"},{"bike_id":"db851dd0-48db-4d3b-95f1-bc5c817db1a0","system_id":"levelo_inurba_marseille","lat":43.31171,"lon":5.38712,"is_reserved":false,"is_disabled":false,"rental_uris":{"android":"levelo://app?vid=db851dd0-48db-4d3b-95f1-bc5c817db1a0","ios":"levelo://app?vid=db851dd0-48db-4d3b-95f1-bc5c817db1a0"},"vehicle_type_id":"4","last_reported":1740956885,"current_range_meters":11600,"station_id":"ce4bgv12rcd13ifvqcp0","pricing_plan_id":"cebpf4jnsgd1na2vs0mg"},{"bike_id":"a6616dd5-92cc-467b-9e35-342ed34b28ea","system_id":"levelo_inurba_marseille","lat":43.28728,"lon":5.36083,"is_reserved":false,"is_disabled":false,"rental_uris":{"android":"levelo://app?vid=a6616dd5-92cc-467b-9e35-342ed34b28ea","ios":"levelo://app?vid=a6616dd5-92cc-467b-9e35-342ed34b28ea"},"vehicle_type_id":"4","last_reported":1740956885,"current_range_meters":11600,"station_id":"cki0cbj6b192h4jlfktg","pricing_plan_id":"cebpf4jnsgd1na2vs0mg"},{"bike_id":"8ae3b1c3-aaad-4efb-802c-97a1e162b8ab","system_id":"levelo_inurba_marseille","lat":43.25576,"lon":5.38246,"is_reserved":false,"is_disabled":false,"rental_uris":{"android":"levelo://app?vid=8ae3b1c3-aaad-4efb-802c-97a1e162b8ab","ios":"levelo://app?vid=8ae3b1c3-aaad-4efb-802c-97a1e162b8ab"},"vehicle_type_id":"4","last_reported":1740956885,"current_range_meters":11600,"station_id":"ce4bhih2rcd13ifvqfs0","pricing_plan_id":"cebpf4jnsgd1na2vs0mg"},{"bike_id":"59e3015f-c397-404c-8ef0-6169c7f7e233","system_id":"levelo_inurba_marseille","lat":43.24394,"lon":5.37069,"is_reserved":false,"is_disabled":true,"rental_uris":{"android":"levelo://app?vid=59e3015f-c397-404c-8ef0-6169c7f7e233","ios":"levelo://app?vid=59e3015f-c397-404c-8ef0-6169c7f7e233"},"vehicle_type_id":"4","last_reported":1740956885,"current_range_meters":12000,"station_id":"ce4bhhh2rcd13ifvqfk0","pricing_plan_id":"cebpf4jnsgd1na2vs0mg"},{"bike_id":"09a69b53-5e12-44c5-bcc5-94f0c7a96e58","system_id":"levelo_inurba_marseille","lat":43.26945,"lon":5.38629,"is_reserved":false,"is_disabled":false,"rental_uris":{"android":"levelo://app?vid=09a69b53-5e12-44c5-bcc5-94f0c7a96e58","ios":"levelo://app?vid=09a69b53-5e12-44c5-bcc5-94f0c7a96e58"},"vehicle_type_id":"4","last_reported":1740956885,"current_range_meters":8800,"station_id":"ce4bhh92rcd13ifvqfh0","pricing_plan_id":"cebpf4jnsgd1na2vs0mg"},{"bike_id":"75612a96-0141-415c-b0fc-e3f61a89cae8","system_id":"levelo_inurba_marseille","lat":43.32001,"lon":5.38147,"is_reserved":false,"is_disabled":false,"rental_uris":{"android":"levelo://app?vid=75612a96-0141-415c-b0fc-e3f61a89cae8","ios":"levelo://app?vid=75612a96-0141-415c-b0fc-e3f61a89cae8"},"vehicle_type_id":"4","last_reported":1740956885,"current_range_meters":12000,"station_id":"ce4bhr12rcd13ifvqhpg","pricing_plan_id":"cebpf4jnsgd1na2vs0mg"},{"bike_id":"78b83f52-c5a6-4c25-a933-23d391bd81e7","system_id":"levelo_inurba_marseille","lat":43.29848,"lon":5.36286,"is_reserved":false,"is_disabled":false,"rental_uris":{"android":"levelo://app?vid=78b83f52-c5a6-4c25-a933-23d391bd81e7","ios":"levelo://app?vid=78b83f52-c5a6-4c25-a933-23d391bd81e7"},"vehicle_type_id":"4","last_reported":1740956885,"current_range_meters":12000,"station_id":"ce4bgpp2rcd13ifvqc3g","pricing_plan_id":"cebpf4jnsgd1na2vs0mg"},{"bike_id":"94601201-a01b-491a-846a-5d9968f2226a","system_id":"levelo_inurba_marseille","lat":43.31124,"lon":5.3775,"is_reserved":false,"is_disabled":false,"rental_uris":{"android":"levelo://app?vid=94601201-a01b-491a-846a-5d9968f2226a","ios":"levelo://app?vid=94601201-a01b-491a-846a-5d9968f2226a"},"vehicle_type_id":"4","last_reported":1740956885,"current_range_meters":12400,"station_id":"ce4bgt92rcd13ifvqcg0","pricing_plan_id":"cebpf4jnsgd1na2vs0mg"},{"bike_id":"adbad922-317c-40d7-a8d7-fe9317726cc3","system_id":"levelo_inurba_marseille","lat":43.29958,"lon":5.385,"is_reserved":false,"is_disabled":true,"rental_uris":{"android":"levelo://app?vid=adbad922-317c-40d7-a8d7-fe9317726cc3","ios":"levelo://app?vid=adbad922-317c-40d7-a8d7-fe9317726cc3"},"vehicle_type_id":"4","last_reported":1740956885,"current_range_meters":12400,"station_id":"ce4bgj92rcd13ifvqbd0","pricing_plan_id":"cebpf4jnsgd1na2vs0mg"},{"bike_id":"dffb7aa6-bf57-44a7-8dd3-369a2314f318","system_id":"levelo_inurba_marseille","lat":43.27603,"lon":5.36136,"is_reserved":false,"is_disabled":false,"rental_uris":{"android":"levelo://app?vid=dffb7aa6-bf57-44a7-8dd3-369a2314f318","ios":"levelo://app?vid=dffb7aa6-bf57-44a7-8dd3-369a2314f318"},"vehicle_type_id":"4","last_reported":1740956885,"current_range_meters":12000,"station_id":"ce4bgj92rcd13ifvqbe0","pricing_plan_id":"cebpf4jnsgd1na2vs0mg"},{"bike_id":"cfcb0273-7337-4621-96ed-1e1413e21f71","system_id":"levelo_inurba_marseille","lat":43.3105,"lon":5.3896,"is_reserved":false,"is_disabled":false,"rental_uris":{"android":"levelo://app?vid=cfcb0273-7337-4621-96ed-1e1413e21f71","ios":"levelo://app?vid=cfcb0273-7337-4621-96ed-1e1413e21f71"},"vehicle_type_id":"4","last_reported":1740956885,"current_range_meters":12400,"station_id":"","pricing_plan_id":"cebpf4jnsgd1na2vs0mg"},{"bike_id":"c5b35fc3-133b-4fcd-9bc1-000b1b46221f","system_id":"levelo_inurba_marseille","lat":43.24262,"lon":5.362,"is_reserved":false,"is_disabled":false,"rental_uris":{"android":"levelo://app?vid=c5b35fc3-133b-4fcd-9bc1-000b1b46221f","ios":"levelo://app?vid=c5b35fc3-133b-4fcd-9bc1-000b1b46221f"},"vehicle_type_id":"4","last_reported":1740956885,"current_range_meters":12800,"station_id":"cpo36qri1sfpv3e86is0","pricing_plan_id":"cebpf4jnsgd1na2vs0mg"},{"bike_id":"18ed809a-93be-4ceb-a90d-b4661309b51d","system_id":"levelo_inurba_marseille","lat":43.30956,"lon":5.3747,"is_reserved":false,"is_disabled":false,"rental_uris":{"android":"levelo://app?vid=18ed809a-93be-4ceb-a90d-b4661309b51d","ios":"levelo://app?vid=18ed809a-93be-4ceb-a90d-b4661309b51d"},"vehicle_type_id":"4","last_reported":1740956885,"current_range_meters":12800,"station_id":"","pricing_plan_id":"cebpf4jnsgd1na2vs0mg"},{"bike_id":"9c32cbd4-b6a1-44a3-85c5-c2ca2c7493ec","system_id":"levelo_inurba_marseille","lat":43.32356,"lon":5.38897,"is_reserved":false,"is_disabled":false,"rental_uris":{"android":"levelo://app?vid=9c32cbd4-b6a1-44a3-85c5-c2ca2c7493ec","ios":"levelo://app?vid=9c32cbd4-b6a1-44a3-85c5-c2ca2c7493ec"},"vehicle_type_id":"4","last_reported":1740956885,"current_range_meters":12800,"station_id":"ce4bhqp2rcd13ifvqhog","pricing_plan_id":"cebpf4jnsgd1na2vs0mg"},{"bike_id":"d292c1a1-5d48-4870-96f4-cf5f26c43837","system_id":"levelo_inurba_marseille","lat":43.27907,"lon":5.42669,"is_reserved":false,"is_disabled":false,"rental_uris":{"android":"levelo://app?vid=d292c1a1-5d48-4870-96f4-cf5f26c43837","ios":"levelo://app?vid=d292c1a1-5d48-4870-96f4-cf5f26c43837"},"vehicle_type_id":"4","last_reported":1740956885,"current_range_meters":12800,"station_id":"","pricing_plan_id":"cebpf4jnsgd1na2vs0mg"},{"bike_id":"6b46004f-4edb-4030-b1fc-dc3fa9f0e4b6","system_id":"levelo_inurba_marseille","lat":43.25104,"lon":5.40332,"is_reserved":false,"is_disabled":false,"rental_uris":{"android":"levelo://app?vid=6b46004f-4edb-4030-b1fc-dc3fa9f0e4b6","ios":"levelo://app?vid=6b46004f-4edb-4030-b1fc-dc3fa9f0e4b6"},"vehicle_type_id":"4","last_reported":1740956885,"current_range_meters":12800,"station_id":"ce4bhlh2rcd13ifvqgig","pricing_plan_id":"cebpf4jnsgd1na2vs0mg"},{"bike_id":"4be490f8-5b55-4384-bc0f-6a2b39fcb072","system_id":"levelo_inurba_marseille","lat":43.28364,"lon":5.38643,"is_reserved":false,"is_disabled":false,"rental_uris":{"android":"levelo://app?vid=4be490f8-5b55-4384-bc0f-6a2b39fcb072","ios":"levelo://app?vid=4be490f8-5b55-4384-bc0f-6a2b39fcb072"},"vehicle_type_id":"4","last_reported":1740956885,"current_range_meters":12800,"station_id":"ce4bh492rcd13ifvqdvg","pricing_plan_id":"cebpf4jnsgd1na2vs0mg"},{"bike_id":"b863bc21-ecc3-4be8-b58d-8f3ecf2d3213","system_id":"levelo_inurba_marseille","lat":43.2944,"lon":5.39752,"is_reserved":false,"is_disabled":true,"rental_uris":{"android":"levelo://app?vid=b863bc21-ecc3-4be8-b58d-8f3ecf2d3213","ios":"levelo://app?vid=b863bc21-ecc3-4be8-b58d-8f3ecf2d3213"},"vehicle_type_id":"4","last_reported":1740956885,"current_range_meters":12800,"station_id":"ce4bh3h2rcd13ifvqdo0","pricing_plan_id":"cebpf4jnsgd1na2vs0mg"},{"bike_id":"781ab538-640d-4870-af8b-470c14b8e81a","system_id":"levelo_inurba_marseille","lat":43.28931,"lon":5.36644,"is_reserved":false,"is_disabled":false,"rental_uris":{"android":"levelo://app?vid=781ab538-640d-4870-af8b-470c14b8e81a","ios":"levelo://app?vid=781ab538-640d-4870-af8b-470c14b8e81a"},"vehicle_type_id":"4","last_reported":1740956885,"current_range_meters":12800,"station_id":"ce4bhap2rcd13ifvqek0","pricing_plan_id":"cebpf4jnsgd1na2vs0mg"},{"bike_id":"1307fc65-524d-4570-b1d0-3705c0568da3","system_id":"levelo_inurba_marseille","lat":43.27809,"lon":5.40705,"is_reserved":false,"is_disabled":false,"rental_uris":{"android":"levelo://app?vid=1307fc65-524d-4570-b1d0-3705c0568da3","ios":"levelo://app?vid=1307fc65-524d-4570-b1d0-3705c0568da3"},"vehicle_type_id":"4","last_reported":1740956885,"current_range_meters":13600,"station_id":"ce4bhnh2rcd13ifvqgtg","pricing_plan_id":"cebpf4jnsgd1na2vs0mg"},{"bike_id":"09393a00-973d-43b6-814c-ce2027404caf","system_id":"levelo_inurba_marseille","lat":43.2582,"lon":5.39448,"is_reserved":false,"is_disabled":false,"rental_uris":{"android":"levelo://app?vid=09393a00-973d-43b6-814c-ce2027404caf","ios":"levelo://app?vid=09393a00-973d-43b6-814c-ce2027404caf"},"vehicle_type_id":"4","last_reported":1740956885,"current_range_meters":13600,"station_id":"ce4bhip2rcd13ifvqft0","pricing_plan_id":"cebpf4jnsgd1na2vs0mg"},{"bike_id":"627bd7fd-0fcc-4e03-9b9a-f5c00ac410f7","system_id":"levelo_inurba_marseille","lat":43.30592,"lon":5.39361,"is_reserved":false,"is_disabled":false,"rental_uris":{"android":"levelo://app?vid=627bd7fd-0fcc-4e03-9b9a-f5c00ac410f7","ios":"levelo://app?vid=627bd7fd-0fcc-4e03-9b9a-f5c00ac410f7"},"vehicle_type_id":"4","last_reported":1740956885,"current_range_meters":13600,"station_id":"ce4bh0p2rcd13ifvqd80","pricing_plan_id":"cebpf4jnsgd1na2vs0mg"},{"bike_id":"edc1a413-247b-4125-8ff6-3193d9b9b0b7","system_id":"levelo_inurba_marseille","lat":43.2439,"lon":5.37055,"is_reserved":false,"is_disabled":false,"rental_uris":{"android":"levelo://app?vid=edc1a413-247b-4125-8ff6-3193d9b9b0b7","ios":"levelo://app?vid=edc1a413-247b-4125-8ff6-3193d9b9b0b7"},"vehicle_type_id":"4","last_reported":1740956885,"current_range_meters":13600,"station_id":"ce4bhhh2rcd13ifvqfk0","pricing_plan_id":"cebpf4jnsgd1na2vs0mg"},{"bike_id":"6954c153-5d0d-45dc-876e-fc194e6c1170","system_id":"levelo_inurba_marseille","lat":43.28729,"lon":5.39978,"is_reserved":false,"is_disabled":false,"rental_uris":{"android":"levelo://app?vid=6954c153-5d0d-45dc-876e-fc194e6c1170","ios":"levelo://app?vid=6954c153-5d0d-45dc-876e-fc194e6c1170"},"vehicle_type_id":"4","last_reported":1740956885,"current_range_meters":14000,"station_id":"ce4bho92rcd13ifvqh3g","pricing_plan_id":"cebpf4jnsgd1na2vs0mg"},{"bike_id":"020e76f3-8739-43a9-87b2-4eef420375ab","system_id":"levelo_inurba_marseille","lat":43.2844,"lon":5.39179,"is_reserved":false,"is_disabled":false,"rental_uris":{"android":"levelo://app?vid=020e76f3-8739-43a9-87b2-4eef420375ab","ios":"levelo://app?vid=020e76f3-8739-43a9-87b2-4eef420375ab"},"vehicle_type_id":"4","last_reported":1740956885,"current_range_meters":12800,"station_id":"ce4bhoh2rcd13ifvqh5g","pricing_plan_id":"cebpf4jnsgd1na2vs0mg"},{"bike_id":"1801897b-8eb0-4a57-806d-8f693f78454f","system_id":"levelo_inurba_marseille","lat":43.29737,"lon":5.37675,"is_reserved":false,"is_disabled":false,"rental_uris":{"android":"levelo://app?vid=1801897b-8eb0-4a57-806d-8f693f78454f","ios":"levelo://app?vid=1801897b-8eb0-4a57-806d-8f693f78454f"},"vehicle_type_id":"4","last_reported":1740956885,"current_range_meters":15200,"station_id":"ce4bgkh2rcd13ifvqbl0","pricing_plan_id":"cebpf4jnsgd1na2vs0mg"},{"bike_id":"6ef121dc-1889-4795-bbef-28609514bd7b","system_id":"levelo_inurba_marseille","lat":43.248,"lon":5.37465,"is_reserved":false,"is_disabled":false,"rental_uris":{"android":"levelo://app?vid=6ef121dc-1889-4795-bbef-28609514bd7b","ios":"levelo://app?vid=6ef121dc-1889-4795-bbef-28609514bd7b"},"vehicle_type_id":"4","last_reported":1740956885,"current_range_meters":14000,"station_id":"ce4bhgh2rcd13ifvqfb0","pricing_plan_id":"cebpf4jnsgd1na2vs0mg"},{"bike_id":"3540c589-9554-4809-a9dc-9e143004422b","system_id":"levelo_inurba_marseille","lat":43.274933,"lon":5.424503,"is_reserved":false,"is_disabled":false,"rental_uris":{"android":"levelo://app?vid=3540c589-9554-4809-a9dc-9e143004422b","ios":"levelo://app?vid=3540c589-9554-4809-a9dc-9e143004422b"},"vehicle_type_id":"4","last_reported":1740956885,"current_range_meters":14000,"station_id":"ce4bhn92rcd13ifvqgrg","pricing_plan_id":"cebpf4jnsgd1na2vs0mg"},{"bike_id":"8afe136c-0c51-4aca-ad51-f30e81f8c519","system_id":"levelo_inurba_marseille","lat":43.32429,"lon":5.42671,"is_reserved":false,"is_disabled":false,"rental_uris":{"android":"levelo://app?vid=8afe136c-0c51-4aca-ad51-f30e81f8c519","ios":"levelo://app?vid=8afe136c-0c51-4aca-ad51-f30e81f8c519"},"vehicle_type_id":"4","last_reported":1740956885,"current_range_meters":14400,"station_id":"","pricing_plan_id":"cebpf4jnsgd1na2vs0mg"},{"bike_id":"21a25fa3-011a-487c-a6a1-9a4a8b99ec63","system_id":"levelo_inurba_marseille","lat":43.31277,"lon":5.37732,"is_reserved":false,"is_disabled":false,"rental_uris":{"android":"levelo://app?vid=21a25fa3-011a-487c-a6a1-9a4a8b99ec63","ios":"levelo://app?vid=21a25fa3-011a-487c-a6a1-9a4a8b99ec63"},"vehicle_type_id":"4","last_reported":1740956885,"current_range_meters":14400,"station_id":"","pricing_plan_id":"cebpf4jnsgd1na2vs0mg"},{"bike_id":"2c5f6957-d531-40e4-8342-1a9be631de97","system_id":"levelo_inurba_marseille","lat":43.28399,"lon":5.37528,"is_reserved":false,"is_disabled":false,"rental_uris":{"android":"levelo://app?vid=2c5f6957-d531-40e4-8342-1a9be631de97","ios":"levelo://app?vid=2c5f6957-d531-40e4-8342-1a9be631de97"},"vehicle_type_id":"4","last_reported":1740956885,"current_range_meters":14400,"station_id":"ce4bh412rcd13ifvqds0","pricing_plan_id":"cebpf4jnsgd1na2vs0mg"},{"bike_id":"670122a3-157a-4ef1-82d1-a5574649dac0","system_id":"levelo_inurba_marseille","lat":43.23965,"lon":5.36619,"is_reserved":false,"is_disabled":false,"rental_uris":{"android":"levelo://app?vid=670122a3-157a-4ef1-82d1-a5574649dac0","ios":"levelo://app?vid=670122a3-157a-4ef1-82d1-a5574649dac0"},"vehicle_type_id":"4","last_reported":1740956885,"current_range_meters":14400,"station_id":"ce4bhi12rcd13ifvqfp0","pricing_plan_id":"cebpf4jnsgd1na2vs0mg"},{"bike_id":"be5e3511-1df9-4502-af93-104035f27a2c","system_id":"levelo_inurba_marseille","lat":43.27915,"lon":5.39582,"is_reserved":false,"is_disabled":false,"rental_uris":{"android":"levelo://app?vid=be5e3511-1df9-4502-af93-104035f27a2c","ios":"levelo://app?vid=be5e3511-1df9-4502-af93-104035f27a2c"},"vehicle_type_id":"4","last_reported":1740956885,"current_range_meters":14400,"station_id":"ce4bhf92rcd13ifvqf40","pricing_plan_id":"cebpf4jnsgd1na2vs0mg"},{"bike_id":"731d9886-aaf7-433e-9630-d1211c1ce4e9","system_id":"levelo_inurba_marseille","lat":43.30884,"lon":5.37207,"is_reserved":false,"is_disabled":false,"rental_uris":{"android":"levelo://app?vid=731d9886-aaf7-433e-9630-d1211c1ce4e9","ios":"levelo://app?vid=731d9886-aaf7-433e-9630-d1211c1ce4e9"},"vehicle_type_id":"4","last_reported":1740956885,"current_range_meters":14400,"station_id":"ce4bguh2rcd13ifvqckg","pricing_plan_id":"cebpf4jnsgd1na2vs0mg"},{"bike_id":"9bd40bf9-60e1-407a-bee7-58ca71b4886f","system_id":"levelo_inurba_marseille","lat":43.27502,"lon":5.42463,"is_reserved":false,"is_disabled":false,"rental_uris":{"android":"levelo://app?vid=9bd40bf9-60e1-407a-bee7-58ca71b4886f","ios":"levelo://app?vid=9bd40bf9-60e1-407a-bee7-58ca71b4886f"},"vehicle_type_id":"4","last_reported":1740956885,"current_range_meters":14800,"station_id":"ce4bhn92rcd13ifvqgrg","pricing_plan_id":"cebpf4jnsgd1na2vs0mg"},{"bike_id":"45e6ed2f-8b37-4217-96dd-71d8268a36a2","system_id":"levelo_inurba_marseille","lat":43.31419,"lon":5.39379,"is_reserved":false,"is_disabled":false,"rental_uris":{"android":"levelo://app?vid=45e6ed2f-8b37-4217-96dd-71d8268a36a2","ios":"levelo://app?vid=45e6ed2f-8b37-4217-96dd-71d8268a36a2"},"vehicle_type_id":"4","last_reported":1740956885,"current_range_meters":14800,"station_id":"","pricing_plan_id":"cebpf4jnsgd1na2vs0mg"},{"bike_id":"4344c971-43c3-4c92-b0ff-47be87956c14","system_id":"levelo_inurba_marseille","lat":43.28382,"lon":5.37534,"is_reserved":false,"is_disabled":false,"rental_uris":{"android":"levelo://app?vid=4344c971-43c3-4c92-b0ff-47be87956c14","ios":"levelo://app?vid=4344c971-43c3-4c92-b0ff-47be87956c14"},"vehicle_type_id":"4","last_reported":1740956885,"current_range_meters":14800,"station_id":"ce4bh412rcd13ifvqds0","pricing_plan_id":"cebpf4jnsgd1na2vs0mg"},{"bike_id":"d3834156-9a22-451a-8f40-c3e048e4afbe","system_id":"levelo_inurba_marseille","lat":43.34144,"lon":5.40894,"is_reserved":false,"is_disabled":false,"rental_uris":{"android":"levelo://app?vid=d3834156-9a22-451a-8f40-c3e048e4afbe","ios":"levelo://app?vid=d3834156-9a22-451a-8f40-c3e048e4afbe"},"vehicle_type_id":"4","last_reported":1740956885,"current_range_meters":14800,"station_id":"ce4bhqh2rcd13ifvqhlg","pricing_plan_id":"cebpf4jnsgd1na2vs0mg"},{"bike_id":"a4befc2e-2274-4931-b766-4cd55656eb23","system_id":"levelo_inurba_marseille","lat":43.24404,"lon":5.37049,"is_reserved":false,"is_disabled":false,"rental_uris":{"android":"levelo://app?vid=a4befc2e-2274-4931-b766-4cd55656eb23","ios":"levelo://app?vid=a4befc2e-2274-4931-b766-4cd55656eb23"},"vehicle_type_id":"4","last_reported":1740956885,"current_range_meters":14800,"station_id":"ce4bhhh2rcd13ifvqfk0","pricing_plan_id":"cebpf4jnsgd1na2vs0mg"},{"bike_id":"a531b33e-0c70-4fda-a8fd-f89898decd7c","system_id":"levelo_inurba_marseille","lat":43.28709,"lon":5.37386,"is_reserved":false,"is_disabled":false,"rental_uris":{"android":"levelo://app?vid=a531b33e-0c70-4fda-a8fd-f89898decd7c","ios":"levelo://app?vid=a531b33e-0c70-4fda-a8fd-f89898decd7c"},"vehicle_type_id":"4","last_reported":1740956885,"current_range_meters":14800,"station_id":"ce4bh3p2rcd13ifvqdq0","pricing_plan_id":"cebpf4jnsgd1na2vs0mg"},{"bike_id":"4dd78a9f-9698-4bed-9997-ee4fd5bc3a76","system_id":"levelo_inurba_marseille","lat":43.27128,"lon":5.42243,"is_reserved":false,"is_disabled":false,"rental_uris":{"android":"levelo://app?vid=4dd78a9f-9698-4bed-9997-ee4fd5bc3a76","ios":"levelo://app?vid=4dd78a9f-9698-4bed-9997-ee4fd5bc3a76"},"vehicle_type_id":"4","last_reported":1740956885,"current_range_meters":14800,"station_id":"ce4bhk92rcd13ifvqgb0","pricing_plan_id":"cebpf4jnsgd1na2vs0mg"},{"bike_id":"8a679bb1-08fd-411a-8e5e-d38137ae07c7","system_id":"levelo_inurba_marseille","lat":43.23036,"lon":5.35518,"is_reserved":false,"is_disabled":true,"rental_uris":{"android":"levelo://app?vid=8a679bb1-08fd-411a-8e5e-d38137ae07c7","ios":"levelo://app?vid=8a679bb1-08fd-411a-8e5e-d38137ae07c7"},"vehicle_type_id":"4","last_reported":1740956885,"current_range_meters":14800,"station_id":"cpo3342slgdg3j2ifvpg","pricing_plan_id":"cebpf4jnsgd1na2vs0mg"},{"bike_id":"a6e03227-9a90-4644-8efe-bc8533ca3835","system_id":"levelo_inurba_marseille","lat":43.29734,"lon":5.37677,"is_reserved":false,"is_disabled":true,"rental_uris":{"android":"levelo://app?vid=a6e03227-9a90-4644-8efe-bc8533ca3835","ios":"levelo://app?vid=a6e03227-9a90-4644-8efe-bc8533ca3835"},"vehicle_type_id":"4","last_reported":1740956885,"current_range_meters":14800,"station_id":"ce4bgkh2rcd13ifvqbl0","pricing_plan_id":"cebpf4jnsgd1na2vs0mg"},{"bike_id":"63dcab76-0761-480a-aef8-858c58bb1f08","system_id":"levelo_inurba_marseille","lat":43.31754,"lon":5.39016,"is_reserved":false,"is_disabled":false,"rental_uris":{"android":"levelo://app?vid=63dcab76-0761-480a-aef8-858c58bb1f08","ios":"levelo://app?vid=63dcab76-0761-480a-aef8-858c58bb1f08"},"vehicle_type_id":"4","last_reported":1740956885,"current_range_meters":15200,"station_id":"ce4bhqp2rcd13ifvqhng","pricing_plan_id":"cebpf4jnsgd1na2vs0mg"},{"bike_id":"3197c5b0-21af-481b-bcc8-d254b5db5e46","system_id":"levelo_inurba_marseille","lat":43.27371,"lon":5.36248,"is_reserved":false,"is_disabled":false,"rental_uris":{"android":"levelo://app?vid=3197c5b0-21af-481b-bcc8-d254b5db5e46","ios":"levelo://app?vid=3197c5b0-21af-481b-bcc8-d254b5db5e46"},"vehicle_type_id":"4","last_reported":1740956885,"current_range_meters":15200,"station_id":"ce4bhbh2rcd13ifvqeo0","pricing_plan_id":"cebpf4jnsgd1na2vs0mg"},{"bike_id":"2848430c-e0ac-406b-99f8-d4a1f7459337","system_id":"levelo_inurba_marseille","lat":43.21267,"lon":5.35329,"is_reserved":false,"is_disabled":false,"rental_uris":{"android":"levelo://app?vid=2848430c-e0ac-406b-99f8-d4a1f7459337","ios":"levelo://app?vid=2848430c-e0ac-406b-99f8-d4a1f7459337"},"vehicle_type_id":"4","last_reported":1740956885,"current_range_meters":15200,"station_id":"","pricing_plan_id":"cebpf4jnsgd1na2vs0mg"},{"bike_id":"2bf0d03b-6ed8-4f69-9e17-aaedf8c13f72","system_id":"levelo_inurba_marseille","lat":43.29107,"lon":5.38068,"is_reserved":false,"is_disabled":false,"rental_uris":{"android":"levelo://app?vid=2bf0d03b-6ed8-4f69-9e17-aaedf8c13f72","ios":"levelo://app?vid=2bf0d03b-6ed8-4f69-9e17-aaedf8c13f72"},"vehicle_type_id":"4","last_reported":1740956885,"current_range_meters":15200,"station_id":"ce4bgr92rcd13ifvqc7g","pricing_plan_id":"cebpf4jnsgd1na2vs0mg"},{"bike_id":"d2b63791-cb9e-4ce3-a718-0f474e8c7075","system_id":"levelo_inurba_marseille","lat":43.28465,"lon":5.35882,"is_reserved":false,"is_disabled":false,"rental_uris":{"android":"levelo://app?vid=d2b63791-cb9e-4ce3-a718-0f474e8c7075","ios":"levelo://app?vid=d2b63791-cb9e-4ce3-a718-0f474e8c7075"},"vehicle_type_id":"4","last_reported":1740956885,"current_range_meters":15200,"station_id":"ce4bhah2rcd13ifvqei0","pricing_plan_id":"cebpf4jnsgd1na2vs0mg"},{"bike_id":"ca5edb48-c193-49eb-b738-99f416095581","system_id":"levelo_inurba_marseille","lat":43.28935,"lon":5.36639,"is_reserved":false,"is_disabled":false,"rental_uris":{"android":"levelo://app?vid=ca5edb48-c193-49eb-b738-99f416095581","ios":"levelo://app?vid=ca5edb48-c193-49eb-b738-99f416095581"},"vehicle_type_id":"4","last_reported":1740956885,"current_range_meters":15200,"station_id":"ce4bhap2rcd13ifvqek0","pricing_plan_id":"cebpf4jnsgd1na2vs0mg"},{"bike_id":"b51c9290-e38c-4595-bba0-956a32f0c3b3","system_id":"levelo_inurba_marseille","lat":43.27066,"lon":5.42269,"is_reserved":false,"is_disabled":false,"rental_uris":{"android":"levelo://app?vid=b51c9290-e38c-4595-bba0-956a32f0c3b3","ios":"levelo://app?vid=b51c9290-e38c-4595-bba0-956a32f0c3b3"},"vehicle_type_id":"4","last_reported":1740956885,"current_range_meters":15200,"station_id":"ce4bhk92rcd13ifvqgb0","pricing_plan_id":"cebpf4jnsgd1na2vs0mg"},{"bike_id":"687cd9e6-0cef-4cf3-a0fd-75f582330f2e","system_id":"levelo_inurba_marseille","lat":43.337444,"lon":5.374475,"is_reserved":false,"is_disabled":false,"rental_uris":{"android":"levelo://app?vid=687cd9e6-0cef-4cf3-a0fd-75f582330f2e","ios":"levelo://app?vid=687cd9e6-0cef-4cf3-a0fd-75f582330f2e"},"vehicle_type_id":"4","last_reported":1740956885,"current_range_meters":16000,"station_id":"","pricing_plan_id":"cebpf4jnsgd1na2vs0mg"},{"bike_id":"0a52e410-1453-4b88-978c-055cd9405b73","system_id":"levelo_inurba_marseille","lat":43.28344,"lon":5.38099,"is_reserved":false,"is_disabled":false,"rental_uris":{"android":"levelo://app?vid=0a52e410-1453-4b88-978c-055cd9405b73","ios":"levelo://app?vid=0a52e410-1453-4b88-978c-055cd9405b73"},"vehicle_type_id":"4","last_reported":1740956885,"current_range_meters":16000,"station_id":"ce4bh412rcd13ifvqdr0","pricing_plan_id":"cebpf4jnsgd1na2vs0mg"},{"bike_id":"69379c57-b1c7-4e95-b8eb-049067b38329","system_id":"levelo_inurba_marseille","lat":43.27486,"lon":5.42449,"is_reserved":false,"is_disabled":false,"rental_uris":{"android":"levelo://app?vid=69379c57-b1c7-4e95-b8eb-049067b38329","ios":"levelo://app?vid=69379c57-b1c7-4e95-b8eb-049067b38329"},"vehicle_type_id":"4","last_reported":1740956885,"current_range_meters":16000,"station_id":"ce4bhn92rcd13ifvqgrg","pricing_plan_id":"cebpf4jnsgd1na2vs0mg"},{"bike_id":"3495a79b-07bc-439e-94f1-f63668354302","system_id":"levelo_inurba_marseille","lat":43.28343,"lon":5.38118,"is_reserved":false,"is_disabled":false,"rental_uris":{"android":"levelo://app?vid=3495a79b-07bc-439e-94f1-f63668354302","ios":"levelo://app?vid=3495a79b-07bc-439e-94f1-f63668354302"},"vehicle_type_id":"4","last_reported":1740956885,"current_range_meters":16000,"station_id":"ce4bh412rcd13ifvqdr0","pricing_plan_id":"cebpf4jnsgd1na2vs0mg"},{"bike_id":"557ccd60-d0a5-4038-8f8a-c7042e3bbdfb","system_id":"levelo_inurba_marseille","lat":43.28399,"lon":5.37523,"is_reserved":false,"is_disabled":false,"rental_uris":{"android":"levelo://app?vid=557ccd60-d0a5-4038-8f8a-c7042e3bbdfb","ios":"levelo://app?vid=557ccd60-d0a5-4038-8f8a-c7042e3bbdfb"},"vehicle_type_id":"4","last_reported":1740956885,"current_range_meters":16000,"station_id":"ce4bh412rcd13ifvqds0","pricing_plan_id":"cebpf4jnsgd1na2vs0mg"},{"bike_id":"0b4e7ef9-221c-4a2a-9f9b-4db2bb826919","system_id":"levelo_inurba_marseille","lat":43.24783,"lon":5.3751,"is_reserved":false,"is_disabled":false,"rental_uris":{"android":"levelo://app?vid=0b4e7ef9-221c-4a2a-9f9b-4db2bb826919","ios":"levelo://app?vid=0b4e7ef9-221c-4a2a-9f9b-4db2bb826919"},"vehicle_type_id":"4","last_reported":1740956885,"current_range_meters":16000,"station_id":"","pricing_plan_id":"cebpf4jnsgd1na2vs0mg"},{"bike_id":"52ff5010-2859-425b-af44-f12decd1a1d8","system_id":"levelo_inurba_marseille","lat":43.28433,"lon":5.35899,"is_reserved":false,"is_disabled":false,"rental_uris":{"android":"levelo://app?vid=52ff5010-2859-425b-af44-f12decd1a1d8","ios":"levelo://app?vid=52ff5010-2859-425b-af44-f12decd1a1d8"},"vehicle_type_id":"4","last_reported":1740956885,"current_range_meters":16000,"station_id":"ce4bhah2rcd13ifvqei0","pricing_plan_id":"cebpf4jnsgd1na2vs0mg"},{"bike_id":"05c5652e-f473-4c7f-aa5b-d18dd96fe6c0","system_id":"levelo_inurba_marseille","lat":43.27978,"lon":5.41636,"is_reserved":false,"is_disabled":false,"rental_uris":{"android":"levelo://app?vid=05c5652e-f473-4c7f-aa5b-d18dd96fe6c0","ios":"levelo://app?vid=05c5652e-f473-4c7f-aa5b-d18dd96fe6c0"},"vehicle_type_id":"4","last_reported":1740956885,"current_range_meters":16000,"station_id":"ce4bho12rcd13ifvqh1g","pricing_plan_id":"cebpf4jnsgd1na2vs0mg"},{"bike_id":"339db111-c74b-42e6-8ea3-8bd25ec9d67a","system_id":"levelo_inurba_marseille","lat":43.32362,"lon":5.38891,"is_reserved":false,"is_disabled":false,"rental_uris":{"android":"levelo://app?vid=339db111-c74b-42e6-8ea3-8bd25ec9d67a","ios":"levelo://app?vid=339db111-c74b-42e6-8ea3-8bd25ec9d67a"},"vehicle_type_id":"4","last_reported":1740956885,"current_range_meters":16000,"station_id":"ce4bhqp2rcd13ifvqhog","pricing_plan_id":"cebpf4jnsgd1na2vs0mg"},{"bike_id":"ba72841c-d9ab-4f73-875a-cfe65abc830d","system_id":"levelo_inurba_marseille","lat":43.25086,"lon":5.39523,"is_reserved":false,"is_disabled":false,"rental_uris":{"android":"levelo://app?vid=ba72841c-d9ab-4f73-875a-cfe65abc830d","ios":"levelo://app?vid=ba72841c-d9ab-4f73-875a-cfe65abc830d"},"vehicle_type_id":"4","last_reported":1740956885,"current_range_meters":16400,"station_id":"ce4bhm12rcd13ifvqgkg","pricing_plan_id":"cebpf4jnsgd1na2vs0mg"},{"bike_id":"8f6ccb25-eead-40b2-a3a0-e6130c68a4ab","system_id":"levelo_inurba_marseille","lat":43.28555,"lon":5.3949,"is_reserved":false,"is_disabled":false,"rental_uris":{"android":"levelo://app?vid=8f6ccb25-eead-40b2-a3a0-e6130c68a4ab","ios":"levelo://app?vid=8f6ccb25-eead-40b2-a3a0-e6130c68a4ab"},"vehicle_type_id":"4","last_reported":1740956885,"current_range_meters":16400,"station_id":"ce4bh292rcd13ifvqdg0","pricing_plan_id":"cebpf4jnsgd1na2vs0mg"},{"bike_id":"68637cb7-a80c-4ff7-b3c5-35ec8928b167","system_id":"levelo_inurba_marseille","lat":43.26193,"lon":5.37451,"is_reserved":false,"is_disabled":false,"rental_uris":{"android":"levelo://app?vid=68637cb7-a80c-4ff7-b3c5-35ec8928b167","ios":"levelo://app?vid=68637cb7-a80c-4ff7-b3c5-35ec8928b167"},"vehicle_type_id":"4","last_reported":1740956885,"current_range_meters":16400,"station_id":"ce4bhgp2rcd13ifvqfc0","pricing_plan_id":"cebpf4jnsgd1na2vs0mg"},{"bike_id":"ab9cb69f-91d1-457e-a12a-43f5ddea2219","system_id":"levelo_inurba_marseille","lat":43.24877,"lon":5.37457,"is_reserved":false,"is_disabled":false,"rental_uris":{"android":"levelo://app?vid=ab9cb69f-91d1-457e-a12a-43f5ddea2219","ios":"levelo://app?vid=ab9cb69f-91d1-457e-a12a-43f5ddea2219"},"vehicle_type_id":"4","last_reported":1740956885,"current_range_meters":16400,"station_id":"","pricing_plan_id":"cebpf4jnsgd1na2vs0mg"},{"bike_id":"6f49f80d-0e5e-405d-ae12-d32d2bc2cb09","system_id":"levelo_inurba_marseille","lat":43.25831,"lon":5.39441,"is_reserved":false,"is_disabled":false,"rental_uris":{"android":"levelo://app?vid=6f49f80d-0e5e-405d-ae12-d32d2bc2cb09","ios":"levelo://app?vid=6f49f80d-0e5e-405d-ae12-d32d2bc2cb09"},"vehicle_type_id":"4","last_reported":1740956885,"current_range_meters":16400,"station_id":"ce4bhip2rcd13ifvqft0","pricing_plan_id":"cebpf4jnsgd1na2vs0mg"},{"bike_id":"051a2e3b-4695-429d-925d-8c0c0e56cdf7","system_id":"levelo_inurba_marseille","lat":43.28267,"lon":5.35081,"is_reserved":false,"is_disabled":false,"rental_uris":{"android":"levelo://app?vid=051a2e3b-4695-429d-925d-8c0c0e56cdf7","ios":"levelo://app?vid=051a2e3b-4695-429d-925d-8c0c0e56cdf7"},"vehicle_type_id":"4","last_reported":1740956885,"current_range_meters":16400,"station_id":"ce4bhbp2rcd13ifvqerg","pricing_plan_id":"cebpf4jnsgd1na2vs0mg"},{"bike_id":"6cd8556e-bfd7-441e-993f-3943409b936f","system_id":"levelo_inurba_marseille","lat":43.28407,"lon":5.3752,"is_reserved":false,"is_disabled":false,"rental_uris":{"android":"levelo://app?vid=6cd8556e-bfd7-441e-993f-3943409b936f","ios":"levelo://app?vid=6cd8556e-bfd7-441e-993f-3943409b936f"},"vehicle_type_id":"4","last_reported":1740956885,"current_range_meters":16400,"station_id":"ce4bh412rcd13ifvqds0","pricing_plan_id":"cebpf4jnsgd1na2vs0mg"},{"bike_id":"afd4d28e-4233-4f47-9435-de469dccd557","system_id":"levelo_inurba_marseille","lat":43.30298,"lon":5.39214,"is_reserved":false,"is_disabled":false,"rental_uris":{"android":"levelo://app?vid=afd4d28e-4233-4f47-9435-de469dccd557","ios":"levelo://app?vid=afd4d28e-4233-4f47-9435-de469dccd557"},"vehicle_type_id":"4","last_reported":1740956885,"current_range_meters":16400,"station_id":"ce4bgkh2rcd13ifvqbk0","pricing_plan_id":"cebpf4jnsgd1na2vs0mg"},{"bike_id":"9cad0cad-7f6e-456c-bfe4-e8ab332d7e33","system_id":"levelo_inurba_marseille","lat":43.29252,"lon":5.40893,"is_reserved":false,"is_disabled":false,"rental_uris":{"android":"levelo://app?vid=9cad0cad-7f6e-456c-bfe4-e8ab332d7e33","ios":"levelo://app?vid=9cad0cad-7f6e-456c-bfe4-e8ab332d7e33"},"vehicle_type_id":"4","last_reported":1740956885,"current_range_meters":16400,"station_id":"ce4bh192rcd13ifvqdc0","pricing_plan_id":"cebpf4jnsgd1na2vs0mg"},{"bike_id":"7d3f29a2-77e1-43cf-a74e-c2df62166b7a","system_id":"levelo_inurba_marseille","lat":43.24924,"lon":5.37467,"is_reserved":false,"is_disabled":false,"rental_uris":{"android":"levelo://app?vid=7d3f29a2-77e1-43cf-a74e-c2df62166b7a","ios":"levelo://app?vid=7d3f29a2-77e1-43cf-a74e-c2df62166b7a"},"vehicle_type_id":"4","last_reported":1740956885,"current_range_meters":16800,"station_id":"","pricing_plan_id":"cebpf4jnsgd1na2vs0mg"},{"bike_id":"723acd6a-9b0c-476a-814f-fdd661ef6b12","system_id":"levelo_inurba_marseille","lat":43.30654,"lon":5.40102,"is_reserved":false,"is_disabled":false,"rental_uris":{"android":"levelo://app?vid=723acd6a-9b0c-476a-814f-fdd661ef6b12","ios":"levelo://app?vid=723acd6a-9b0c-476a-814f-fdd661ef6b12"},"vehicle_type_id":"4","last_reported":1740956885,"current_range_meters":16800,"station_id":"ce4bh112rcd13ifvqda0","pricing_plan_id":"cebpf4jnsgd1na2vs0mg"},{"bike_id":"dc9f73cd-8a57-47e9-8824-6ff8e23da710","system_id":"levelo_inurba_marseille","lat":43.24067,"lon":5.3775,"is_reserved":false,"is_disabled":false,"rental_uris":{"android":"levelo://app?vid=dc9f73cd-8a57-47e9-8824-6ff8e23da710","ios":"levelo://app?vid=dc9f73cd-8a57-47e9-8824-6ff8e23da710"},"vehicle_type_id":"4","last_reported":1740956885,"current_range_meters":16800,"station_id":"ce4bhnp2rcd13ifvqgvg","pricing_plan_id":"cebpf4jnsgd1na2vs0mg"},{"bike_id":"094c0b15-000f-4053-a468-1220311592ad","system_id":"levelo_inurba_marseille","lat":43.31074,"lon":5.38347,"is_reserved":false,"is_disabled":false,"rental_uris":{"android":"levelo://app?vid=094c0b15-000f-4053-a468-1220311592ad","ios":"levelo://app?vid=094c0b15-000f-4053-a468-1220311592ad"},"vehicle_type_id":"4","last_reported":1740956885,"current_range_meters":16800,"station_id":"ce4bgv92rcd13ifvqcr0","pricing_plan_id":"cebpf4jnsgd1na2vs0mg"},{"bike_id":"76f0ecc2-74d2-4458-9089-c4bdf8553e65","system_id":"levelo_inurba_marseille","lat":43.27124,"lon":5.41851,"is_reserved":false,"is_disabled":false,"rental_uris":{"android":"levelo://app?vid=76f0ecc2-74d2-4458-9089-c4bdf8553e65","ios":"levelo://app?vid=76f0ecc2-74d2-4458-9089-c4bdf8553e65"},"vehicle_type_id":"4","last_reported":1740956885,"current_range_meters":16800,"station_id":"","pricing_plan_id":"cebpf4jnsgd1na2vs0mg"},{"bike_id":"a1d898d8-192d-40ad-a089-1f59d6ba08a9","system_id":"levelo_inurba_marseille","lat":43.30905,"lon":5.40161,"is_reserved":false,"is_disabled":false,"rental_uris":{"android":"levelo://app?vid=a1d898d8-192d-40ad-a089-1f59d6ba08a9","ios":"levelo://app?vid=a1d898d8-192d-40ad-a089-1f59d6ba08a9"},"vehicle_type_id":"4","last_reported":1740956885,"current_range_meters":16800,"station_id":"ce4bgvp2rcd13ifvqct0","pricing_plan_id":"cebpf4jnsgd1na2vs0mg"},{"bike_id":"c33169c6-73c7-474c-82cb-ab1ba732e42e","system_id":"levelo_inurba_marseille","lat":43.29419,"lon":5.39765,"is_reserved":false,"is_disabled":false,"rental_uris":{"android":"levelo://app?vid=c33169c6-73c7-474c-82cb-ab1ba732e42e","ios":"levelo://app?vid=c33169c6-73c7-474c-82cb-ab1ba732e42e"},"vehicle_type_id":"4","last_reported":1740956885,"current_range_meters":16800,"station_id":"ce4bh3h2rcd13ifvqdo0","pricing_plan_id":"cebpf4jnsgd1na2vs0mg"},{"bike_id":"478f4a61-c728-4347-b139-784ea28ddd03","system_id":"levelo_inurba_marseille","lat":43.31692,"lon":5.43692,"is_reserved":false,"is_disabled":true,"rental_uris":{"android":"levelo://app?vid=478f4a61-c728-4347-b139-784ea28ddd03","ios":"levelo://app?vid=478f4a61-c728-4347-b139-784ea28ddd03"},"vehicle_type_id":"4","last_reported":1740956885,"current_range_meters":17200,"station_id":"ce4bhp92rcd13ifvqhcg","pricing_plan_id":"cebpf4jnsgd1na2vs0mg"},{"bike_id":"911e4466-023c-4e44-aa53-7106feebb12a","system_id":"levelo_inurba_marseille","lat":43.284621,"lon":5.358883,"is_reserved":false,"is_disabled":true,"rental_uris":{"android":"levelo://app?vid=911e4466-023c-4e44-aa53-7106feebb12a","ios":"levelo://app?vid=911e4466-023c-4e44-aa53-7106feebb12a"},"vehicle_type_id":"4","last_reported":1740956885,"current_range_meters":17200,"station_id":"ce4bhah2rcd13ifvqei0","pricing_plan_id":"cebpf4jnsgd1na2vs0mg"},{"bike_id":"ce280c57-5f16-44c8-bae7-cf873db8b5c0","system_id":"levelo_inurba_marseille","lat":43.27985,"lon":5.41657,"is_reserved":false,"is_disabled":false,"rental_uris":{"android":"levelo://app?vid=ce280c57-5f16-44c8-bae7-cf873db8b5c0","ios":"levelo://app?vid=ce280c57-5f16-44c8-bae7-cf873db8b5c0"},"vehicle_type_id":"4","last_reported":1740956885,"current_range_meters":17200,"station_id":"ce4bho12rcd13ifvqh1g","pricing_plan_id":"cebpf4jnsgd1na2vs0mg"},{"bike_id":"afcdaf3e-e9ca-4979-9590-15d682021cde","system_id":"levelo_inurba_marseille","lat":43.26491,"lon":5.39555,"is_reserved":false,"is_disabled":true,"rental_uris":{"android":"levelo://app?vid=afcdaf3e-e9ca-4979-9590-15d682021cde","ios":"levelo://app?vid=afcdaf3e-e9ca-4979-9590-15d682021cde"},"vehicle_type_id":"4","last_reported":1740956885,"current_range_meters":17200,"station_id":"ce4bhi12rcd13ifvqfq0","pricing_plan_id":"cebpf4jnsgd1na2vs0mg"},{"bike_id":"dd08ebc2-aa76-4ae1-bbb5-be14674673e2","system_id":"levelo_inurba_marseille","lat":43.3042,"lon":5.38902,"is_reserved":false,"is_disabled":true,"rental_uris":{"android":"levelo://app?vid=dd08ebc2-aa76-4ae1-bbb5-be14674673e2","ios":"levelo://app?vid=dd08ebc2-aa76-4ae1-bbb5-be14674673e2"},"vehicle_type_id":"4","last_reported":1740956885,"current_range_meters":17200,"station_id":"ce4bgk12rcd13ifvqbi0","pricing_plan_id":"cebpf4jnsgd1na2vs0mg"},{"bike_id":"2c8b5801-32f4-4284-bacb-ecaf1f1e7782","system_id":"levelo_inurba_marseille","lat":43.23179,"lon":5.39986,"is_reserved":false,"is_disabled":false,"rental_uris":{"android":"levelo://app?vid=2c8b5801-32f4-4284-bacb-ecaf1f1e7782","ios":"levelo://app?vid=2c8b5801-32f4-4284-bacb-ecaf1f1e7782"},"vehicle_type_id":"4","last_reported":1740956885,"current_range_meters":17200,"station_id":"ce4bhn12rcd13ifvqgqg","pricing_plan_id":"cebpf4jnsgd1na2vs0mg"},{"bike_id":"ab182dc5-b946-408a-947f-a103a20161c5","system_id":"levelo_inurba_marseille","lat":43.25113,"lon":5.40317,"is_reserved":false,"is_disabled":false,"rental_uris":{"android":"levelo://app?vid=ab182dc5-b946-408a-947f-a103a20161c5","ios":"levelo://app?vid=ab182dc5-b946-408a-947f-a103a20161c5"},"vehicle_type_id":"4","last_reported":1740956885,"current_range_meters":17200,"station_id":"ce4bhlh2rcd13ifvqgig","pricing_plan_id":"cebpf4jnsgd1na2vs0mg"},{"bike_id":"ee64b076-db53-4a07-8a61-f790fb3d7f18","system_id":"levelo_inurba_marseille","lat":43.29598,"lon":5.37335,"is_reserved":false,"is_disabled":false,"rental_uris":{"android":"levelo://app?vid=ee64b076-db53-4a07-8a61-f790fb3d7f18","ios":"levelo://app?vid=ee64b076-db53-4a07-8a61-f790fb3d7f18"},"vehicle_type_id":"4","last_reported":1740956885,"current_range_meters":17200,"station_id":"","pricing_plan_id":"cebpf4jnsgd1na2vs0mg"},{"bike_id":"e49d17b4-3b89-4c7d-8025-3cbcbabc8a2e","system_id":"levelo_inurba_marseille","lat":43.30643,"lon":5.40105,"is_reserved":false,"is_disabled":false,"rental_uris":{"android":"levelo://app?vid=e49d17b4-3b89-4c7d-8025-3cbcbabc8a2e","ios":"levelo://app?vid=e49d17b4-3b89-4c7d-8025-3cbcbabc8a2e"},"vehicle_type_id":"4","last_reported":1740956885,"current_range_meters":17200,"station_id":"ce4bh112rcd13ifvqda0","pricing_plan_id":"cebpf4jnsgd1na2vs0mg"},{"bike_id":"1dbc9757-22d2-4295-b050-956977fb3f49","system_id":"levelo_inurba_marseille","lat":43.30287,"lon":5.39183,"is_reserved":false,"is_disabled":true,"rental_uris":{"android":"levelo://app?vid=1dbc9757-22d2-4295-b050-956977fb3f49","ios":"levelo://app?vid=1dbc9757-22d2-4295-b050-956977fb3f49"},"vehicle_type_id":"4","last_reported":1740956885,"current_range_meters":17200,"station_id":"ce4bgkh2rcd13ifvqbk0","pricing_plan_id":"cebpf4jnsgd1na2vs0mg"},{"bike_id":"97d34d4c-0e7c-4d3d-9a3c-fd26ccd48a3b","system_id":"levelo_inurba_marseille","lat":43.29537,"lon":5.38549,"is_reserved":false,"is_disabled":false,"rental_uris":{"android":"levelo://app?vid=97d34d4c-0e7c-4d3d-9a3c-fd26ccd48a3b","ios":"levelo://app?vid=97d34d4c-0e7c-4d3d-9a3c-fd26ccd48a3b"},"vehicle_type_id":"4","last_reported":1740956885,"current_range_meters":17200,"station_id":"ce4bgih2rcd13ifvqba0","pricing_plan_id":"cebpf4jnsgd1na2vs0mg"},{"bike_id":"aaace025-3089-417e-a8d0-a68c689fb08f","system_id":"levelo_inurba_marseille","lat":43.28402,"lon":5.37553,"is_reserved":false,"is_disabled":false,"rental_uris":{"android":"levelo://app?vid=aaace025-3089-417e-a8d0-a68c689fb08f","ios":"levelo://app?vid=aaace025-3089-417e-a8d0-a68c689fb08f"},"vehicle_type_id":"4","last_reported":1740956885,"current_range_meters":17200,"station_id":"ce4bh412rcd13ifvqds0","pricing_plan_id":"cebpf4jnsgd1na2vs0mg"},{"bike_id":"c9afee4d-b391-4be7-a3f6-f28a19e7c3b5","system_id":"levelo_inurba_marseille","lat":43.29597,"lon":5.38119,"is_reserved":false,"is_disabled":false,"rental_uris":{"android":"levelo://app?vid=c9afee4d-b391-4be7-a3f6-f28a19e7c3b5","ios":"levelo://app?vid=c9afee4d-b391-4be7-a3f6-f28a19e7c3b5"},"vehicle_type_id":"4","last_reported":1740956885,"current_range_meters":17200,"station_id":"ce4bgl12rcd13ifvqbo0","pricing_plan_id":"cebpf4jnsgd1na2vs0mg"},{"bike_id":"76394e5b-b5d3-409a-954a-e09b2559a295","system_id":"levelo_inurba_marseille","lat":43.2326,"lon":5.3557,"is_reserved":false,"is_disabled":false,"rental_uris":{"android":"levelo://app?vid=76394e5b-b5d3-409a-954a-e09b2559a295","ios":"levelo://app?vid=76394e5b-b5d3-409a-954a-e09b2559a295"},"vehicle_type_id":"4","last_reported":1740956885,"current_range_meters":17200,"station_id":"","pricing_plan_id":"cebpf4jnsgd1na2vs0mg"},{"bike_id":"62cb0cc9-5e6c-492a-b088-33fea151eb3e","system_id":"levelo_inurba_marseille","lat":43.27932,"lon":5.41641,"is_reserved":false,"is_disabled":false,"rental_uris":{"android":"levelo://app?vid=62cb0cc9-5e6c-492a-b088-33fea151eb3e","ios":"levelo://app?vid=62cb0cc9-5e6c-492a-b088-33fea151eb3e"},"vehicle_type_id":"4","last_reported":1740956885,"current_range_meters":17600,"station_id":"","pricing_plan_id":"cebpf4jnsgd1na2vs0mg"},{"bike_id":"0846796b-c260-4b2b-8113-c556f70f4309","system_id":"levelo_inurba_marseille","lat":43.32705,"lon":5.39232,"is_reserved":false,"is_disabled":false,"rental_uris":{"android":"levelo://app?vid=0846796b-c260-4b2b-8113-c556f70f4309","ios":"levelo://app?vid=0846796b-c260-4b2b-8113-c556f70f4309"},"vehicle_type_id":"4","last_reported":1740956885,"current_range_meters":17600,"station_id":"","pricing_plan_id":"cebpf4jnsgd1na2vs0mg"},{"bike_id":"bd8b66fe-bce0-4c2a-a2ca-f7aeec053c7e","system_id":"levelo_inurba_marseille","lat":43.31366,"lon":5.38495,"is_reserved":false,"is_disabled":false,"rental_uris":{"android":"levelo://app?vid=bd8b66fe-bce0-4c2a-a2ca-f7aeec053c7e","ios":"levelo://app?vid=bd8b66fe-bce0-4c2a-a2ca-f7aeec053c7e"},"vehicle_type_id":"4","last_reported":1740956885,"current_range_meters":16800,"station_id":"ce4bgt92rcd13ifvqcf0","pricing_plan_id":"cebpf4jnsgd1na2vs0mg"},{"bike_id":"db6557e3-d612-45f1-870f-c403bf17088e","system_id":"levelo_inurba_marseille","lat":43.21273,"lon":5.35361,"is_reserved":false,"is_disabled":false,"rental_uris":{"android":"levelo://app?vid=db6557e3-d612-45f1-870f-c403bf17088e","ios":"levelo://app?vid=db6557e3-d612-45f1-870f-c403bf17088e"},"vehicle_type_id":"4","last_reported":1740956885,"current_range_meters":17600,"station_id":"","pricing_plan_id":"cebpf4jnsgd1na2vs0mg"},{"bike_id":"32f9f108-e8f9-4746-a4ef-817334bdf25f","system_id":"levelo_inurba_marseille","lat":43.265568,"lon":5.372831,"is_reserved":false,"is_disabled":false,"rental_uris":{"android":"levelo://app?vid=32f9f108-e8f9-4746-a4ef-817334bdf25f","ios":"levelo://app?vid=32f9f108-e8f9-4746-a4ef-817334bdf25f"},"vehicle_type_id":"4","last_reported":1740956885,"current_range_meters":17600,"station_id":"ce4bhg12rcd13ifvqf70","pricing_plan_id":"cebpf4jnsgd1na2vs0mg"},{"bike_id":"553e3afb-3686-4ac0-a033-58eaeab25741","system_id":"levelo_inurba_marseille","lat":43.27047,"lon":5.42267,"is_reserved":false,"is_disabled":false,"rental_uris":{"android":"levelo://app?vid=553e3afb-3686-4ac0-a033-58eaeab25741","ios":"levelo://app?vid=553e3afb-3686-4ac0-a033-58eaeab25741"},"vehicle_type_id":"4","last_reported":1740956885,"current_range_meters":17600,"station_id":"ce4bhk92rcd13ifvqgb0","pricing_plan_id":"cebpf4jnsgd1na2vs0mg"},{"bike_id":"360cb8fb-ae2d-4942-a777-0b20fe1843ea","system_id":"levelo_inurba_marseille","lat":43.265556,"lon":5.372777,"is_reserved":false,"is_disabled":false,"rental_uris":{"android":"levelo://app?vid=360cb8fb-ae2d-4942-a777-0b20fe1843ea","ios":"levelo://app?vid=360cb8fb-ae2d-4942-a777-0b20fe1843ea"},"vehicle_type_id":"4","last_reported":1740956885,"current_range_meters":17600,"station_id":"ce4bhg12rcd13ifvqf70","pricing_plan_id":"cebpf4jnsgd1na2vs0mg"},{"bike_id":"fe8f2f98-69ba-4677-8082-b0976f6af55b","system_id":"levelo_inurba_marseille","lat":43.30755,"lon":5.37663,"is_reserved":false,"is_disabled":false,"rental_uris":{"android":"levelo://app?vid=fe8f2f98-69ba-4677-8082-b0976f6af55b","ios":"levelo://app?vid=fe8f2f98-69ba-4677-8082-b0976f6af55b"},"vehicle_type_id":"4","last_reported":1740956885,"current_range_meters":17600,"station_id":"ce4bgv92rcd13ifvqcq0","pricing_plan_id":"cebpf4jnsgd1na2vs0mg"},{"bike_id":"02edecfb-e84e-4c29-a581-a32536b312b8","system_id":"levelo_inurba_marseille","lat":43.29031,"lon":5.38643,"is_reserved":false,"is_disabled":false,"rental_uris":{"android":"levelo://app?vid=02edecfb-e84e-4c29-a581-a32536b312b8","ios":"levelo://app?vid=02edecfb-e84e-4c29-a581-a32536b312b8"},"vehicle_type_id":"4","last_reported":1740956885,"current_range_meters":18000,"station_id":"ce4bh4p2rcd13ifvqe0g","pricing_plan_id":"cebpf4jnsgd1na2vs0mg"},{"bike_id":"62de4809-4fb9-4c08-b3cb-05bbc68de13f","system_id":"levelo_inurba_marseille","lat":43.29516,"lon":5.39408,"is_reserved":false,"is_disabled":false,"rental_uris":{"android":"levelo://app?vid=62de4809-4fb9-4c08-b3cb-05bbc68de13f","ios":"levelo://app?vid=62de4809-4fb9-4c08-b3cb-05bbc68de13f"},"vehicle_type_id":"4","last_reported":1740956885,"current_range_meters":17600,"station_id":"ce4bh292rcd13ifvqdf0","pricing_plan_id":"cebpf4jnsgd1na2vs0mg"},{"bike_id":"a2b1df92-4430-43e7-aefa-aead754347cf","system_id":"levelo_inurba_marseille","lat":43.2571,"lon":5.41074,"is_reserved":false,"is_disabled":false,"rental_uris":{"android":"levelo://app?vid=a2b1df92-4430-43e7-aefa-aead754347cf","ios":"levelo://app?vid=a2b1df92-4430-43e7-aefa-aead754347cf"},"vehicle_type_id":"4","last_reported":1740956885,"current_range_meters":17600,"station_id":"ce4bhkp2rcd13ifvqgd0","pricing_plan_id":"cebpf4jnsgd1na2vs0mg"},{"bike_id":"f52cb430-51f4-4ab8-9f8b-6083a50fe509","system_id":"levelo_inurba_marseille","lat":43.30596,"lon":5.37225,"is_reserved":false,"is_disabled":false,"rental_uris":{"android":"levelo://app?vid=f52cb430-51f4-4ab8-9f8b-6083a50fe509","ios":"levelo://app?vid=f52cb430-51f4-4ab8-9f8b-6083a50fe509"},"vehicle_type_id":"4","last_reported":1740956885,"current_range_meters":17600,"station_id":"ce4bgqh2rcd13ifvqc4g","pricing_plan_id":"cebpf4jnsgd1na2vs0mg"},{"bike_id":"123d5adf-8e93-46cc-93b8-80cd2a012f7c","system_id":"levelo_inurba_marseille","lat":43.27072,"lon":5.42301,"is_reserved":false,"is_disabled":false,"rental_uris":{"android":"levelo://app?vid=123d5adf-8e93-46cc-93b8-80cd2a012f7c","ios":"levelo://app?vid=123d5adf-8e93-46cc-93b8-80cd2a012f7c"},"vehicle_type_id":"4","last_reported":1740956885,"current_range_meters":17600,"station_id":"ce4bhk92rcd13ifvqgb0","pricing_plan_id":"cebpf4jnsgd1na2vs0mg"},{"bike_id":"a16892fe-34be-41ea-ba24-aa647e5e0bd1","system_id":"levelo_inurba_marseille","lat":43.2929,"lon":5.37178,"is_reserved":false,"is_disabled":false,"rental_uris":{"android":"levelo://app?vid=a16892fe-34be-41ea-ba24-aa647e5e0bd1","ios":"levelo://app?vid=a16892fe-34be-41ea-ba24-aa647e5e0bd1"},"vehicle_type_id":"4","last_reported":1740956885,"current_range_meters":17600,"station_id":"ce4bgh92rcd13ifvqb40","pricing_plan_id":"cebpf4jnsgd1na2vs0mg"},{"bike_id":"7be43b25-6565-4b28-ad0c-7c316f8da2fc","system_id":"levelo_inurba_marseille","lat":43.30786,"lon":5.37648,"is_reserved":false,"is_disabled":false,"rental_uris":{"android":"levelo://app?vid=7be43b25-6565-4b28-ad0c-7c316f8da2fc","ios":"levelo://app?vid=7be43b25-6565-4b28-ad0c-7c316f8da2fc"},"vehicle_type_id":"4","last_reported":1740956885,"current_range_meters":17200,"station_id":"ce4bgv92rcd13ifvqcq0","pricing_plan_id":"cebpf4jnsgd1na2vs0mg"},{"bike_id":"5f175402-fb1d-4614-aab7-777644e29c25","system_id":"levelo_inurba_marseille","lat":43.28029,"lon":5.40829,"is_reserved":false,"is_disabled":false,"rental_uris":{"android":"levelo://app?vid=5f175402-fb1d-4614-aab7-777644e29c25","ios":"levelo://app?vid=5f175402-fb1d-4614-aab7-777644e29c25"},"vehicle_type_id":"4","last_reported":1740956885,"current_range_meters":18000,"station_id":"","pricing_plan_id":"cebpf4jnsgd1na2vs0mg"},{"bike_id":"629425e8-15a0-4686-b875-23668b3a9ad3","system_id":"levelo_inurba_marseille","lat":43.3089,"lon":5.37206,"is_reserved":false,"is_disabled":false,"rental_uris":{"android":"levelo://app?vid=629425e8-15a0-4686-b875-23668b3a9ad3","ios":"levelo://app?vid=629425e8-15a0-4686-b875-23668b3a9ad3"},"vehicle_type_id":"4","last_reported":1740956885,"current_range_meters":18000,"station_id":"ce4bguh2rcd13ifvqckg","pricing_plan_id":"cebpf4jnsgd1na2vs0mg"},{"bike_id":"ca0e9643-2963-4c44-801e-0e6e8b7a0440","system_id":"levelo_inurba_marseille","lat":43.28429,"lon":5.3751,"is_reserved":false,"is_disabled":false,"rental_uris":{"android":"levelo://app?vid=ca0e9643-2963-4c44-801e-0e6e8b7a0440","ios":"levelo://app?vid=ca0e9643-2963-4c44-801e-0e6e8b7a0440"},"vehicle_type_id":"4","last_reported":1740956885,"current_range_meters":18000,"station_id":"ce4bh412rcd13ifvqds0","pricing_plan_id":"cebpf4jnsgd1na2vs0mg"},{"bike_id":"5ce749a8-c3d8-4d9e-b9b9-5eeeba6b7563","system_id":"levelo_inurba_marseille","lat":43.29879,"lon":5.38911,"is_reserved":false,"is_disabled":false,"rental_uris":{"android":"levelo://app?vid=5ce749a8-c3d8-4d9e-b9b9-5eeeba6b7563","ios":"levelo://app?vid=5ce749a8-c3d8-4d9e-b9b9-5eeeba6b7563"},"vehicle_type_id":"4","last_reported":1740956885,"current_range_meters":18000,"station_id":"ce4bh392rcd13ifvqdl0","pricing_plan_id":"cebpf4jnsgd1na2vs0mg"},{"bike_id":"c32e8f0a-fa6b-4c58-8f33-95ce536b97b3","system_id":"levelo_inurba_marseille","lat":43.28335,"lon":5.38106,"is_reserved":false,"is_disabled":false,"rental_uris":{"android":"levelo://app?vid=c32e8f0a-fa6b-4c58-8f33-95ce536b97b3","ios":"levelo://app?vid=c32e8f0a-fa6b-4c58-8f33-95ce536b97b3"},"vehicle_type_id":"4","last_reported":1740956885,"current_range_meters":18000,"station_id":"ce4bh412rcd13ifvqdr0","pricing_plan_id":"cebpf4jnsgd1na2vs0mg"},{"bike_id":"8325dad4-1989-447f-b883-aaa2a76a4725","system_id":"levelo_inurba_marseille","lat":43.2439,"lon":5.37047,"is_reserved":false,"is_disabled":false,"rental_uris":{"android":"levelo://app?vid=8325dad4-1989-447f-b883-aaa2a76a4725","ios":"levelo://app?vid=8325dad4-1989-447f-b883-aaa2a76a4725"},"vehicle_type_id":"4","last_reported":1740956885,"current_range_meters":18000,"station_id":"ce4bhhh2rcd13ifvqfk0","pricing_plan_id":"cebpf4jnsgd1na2vs0mg"},{"bike_id":"7d695a58-63a4-43e9-89b1-ac2ab387c82b","system_id":"levelo_inurba_marseille","lat":43.28934,"lon":5.36641,"is_reserved":false,"is_disabled":false,"rental_uris":{"android":"levelo://app?vid=7d695a58-63a4-43e9-89b1-ac2ab387c82b","ios":"levelo://app?vid=7d695a58-63a4-43e9-89b1-ac2ab387c82b"},"vehicle_type_id":"4","last_reported":1740956885,"current_range_meters":18000,"station_id":"ce4bhap2rcd13ifvqek0","pricing_plan_id":"cebpf4jnsgd1na2vs0mg"},{"bike_id":"60259ecb-b0bf-4b6e-b44f-590928596347","system_id":"levelo_inurba_marseille","lat":43.2929,"lon":5.4012,"is_reserved":false,"is_disabled":false,"rental_uris":{"android":"levelo://app?vid=60259ecb-b0bf-4b6e-b44f-590928596347","ios":"levelo://app?vid=60259ecb-b0bf-4b6e-b44f-590928596347"},"vehicle_type_id":"4","last_reported":1740956885,"current_range_meters":18000,"station_id":"ce4bh312rcd13ifvqdk0","pricing_plan_id":"cebpf4jnsgd1na2vs0mg"},{"bike_id":"a2b61635-99e1-4ca4-b954-91a3fef7b139","system_id":"levelo_inurba_marseille","lat":43.298627,"lon":5.397519,"is_reserved":false,"is_disabled":true,"rental_uris":{"android":"levelo://app?vid=a2b61635-99e1-4ca4-b954-91a3fef7b139","ios":"levelo://app?vid=a2b61635-99e1-4ca4-b954-91a3fef7b139"},"vehicle_type_id":"4","last_reported":1740956885,"current_range_meters":18000,"station_id":"ce4bh0h2rcd13ifvqd50","pricing_plan_id":"cebpf4jnsgd1na2vs0mg"},{"bike_id":"36c4d28b-a1e8-4ec8-899d-5b78e5851159","system_id":"levelo_inurba_marseille","lat":43.27831,"lon":5.40729,"is_reserved":false,"is_disabled":false,"rental_uris":{"android":"levelo://app?vid=36c4d28b-a1e8-4ec8-899d-5b78e5851159","ios":"levelo://app?vid=36c4d28b-a1e8-4ec8-899d-5b78e5851159"},"vehicle_type_id":"4","last_reported":1740956885,"current_range_meters":18000,"station_id":"ce4bhnh2rcd13ifvqgtg","pricing_plan_id":"cebpf4jnsgd1na2vs0mg"},{"bike_id":"de2d55cb-42b2-4a46-a1e3-4e228f8009af","system_id":"levelo_inurba_marseille","lat":43.29,"lon":5.35612,"is_reserved":false,"is_disabled":false,"rental_uris":{"android":"levelo://app?vid=de2d55cb-42b2-4a46-a1e3-4e228f8009af","ios":"levelo://app?vid=de2d55cb-42b2-4a46-a1e3-4e228f8009af"},"vehicle_type_id":"4","last_reported":1740956885,"current_range_meters":17200,"station_id":"ce4bhb92rcd13ifvqen0","pricing_plan_id":"cebpf4jnsgd1na2vs0mg"},{"bike_id":"ba1ba081-a651-458b-864c-f93419b9b0b6","system_id":"levelo_inurba_marseille","lat":43.25012,"lon":5.38921,"is_reserved":false,"is_disabled":false,"rental_uris":{"android":"levelo://app?vid=ba1ba081-a651-458b-864c-f93419b9b0b6","ios":"levelo://app?vid=ba1ba081-a651-458b-864c-f93419b9b0b6"},"vehicle_type_id":"4","last_reported":1740956885,"current_range_meters":18000,"station_id":"ce4bhgp2rcd13ifvqfd0","pricing_plan_id":"cebpf4jnsgd1na2vs0mg"},{"bike_id":"0b1d16a8-c879-4989-bfe7-7eb35a59ec23","system_id":"levelo_inurba_marseille","lat":43.25175,"lon":5.37817,"is_reserved":false,"is_disabled":false,"rental_uris":{"android":"levelo://app?vid=0b1d16a8-c879-4989-bfe7-7eb35a59ec23","ios":"levelo://app?vid=0b1d16a8-c879-4989-bfe7-7eb35a59ec23"},"vehicle_type_id":"4","last_reported":1740956885,"current_range_meters":18800,"station_id":"","pricing_plan_id":"cebpf4jnsgd1na2vs0mg"},{"bike_id":"132dd1c8-eaff-40bd-ab95-ca5ba6f07040","system_id":"levelo_inurba_marseille","lat":43.28337,"lon":5.38109,"is_reserved":false,"is_disabled":false,"rental_uris":{"android":"levelo://app?vid=132dd1c8-eaff-40bd-ab95-ca5ba6f07040","ios":"levelo://app?vid=132dd1c8-eaff-40bd-ab95-ca5ba6f07040"},