{"last_updated":1731402582,"ttl":60,"version":"2.2","data":{"bikes":[{"bike_id":"2afb4c00-67cc-42f1-ae32-502f5aecb4b2","system_id":"levelo_inurba_marseille","lat":43.24084,"lon":5.3774,"is_reserved":false,"is_disabled":false,"rental_uris":{"android":"levelo://app?vid=2afb4c00-67cc-42f1-ae32-502f5aecb4b2","ios":"levelo://app?vid=2afb4c00-67cc-42f1-ae32-502f5aecb4b2"},"vehicle_type_id":"4","last_reported":1731402582,"current_range_meters":30000,"station_id":"ce4bhnp2rcd13ifvqgvg","pricing_plan_id":"cebpf4jnsgd1na2vs0mg"},{"bike_id":"55f338da-564d-4339-bcb5-5d0a4b68c4e6","system_id":"levelo_inurba_marseille","lat":43.31072,"lon":5.40092,"is_reserved":false,"is_disabled":false,"rental_uris":{"android":"levelo://app?vid=55f338da-564d-4339-bcb5-5d0a4b68c4e6","ios":"levelo://app?vid=55f338da-564d-4339-bcb5-5d0a4b68c4e6"},"vehicle_type_id":"4","last_reported":1731402582,"current_range_meters":6000,"station_id":"","pricing_plan_id":"cebpf4jnsgd1na2vs0mg"},{"bike_id":"6a970c6e-55f9-4555-92d6-30cb08773f0a","system_id":"levelo_inurba_marseille","lat":43.33593,"lon":5.40997,"is_reserved":false,"is_disabled":false,"rental_uris":{"android":"levelo://app?vid=6a970c6e-55f9-4555-92d6-30cb08773f0a","ios":"levelo://app?vid=6a970c6e-55f9-4555-92d6-30cb08773f0a"},"vehicle_type_id":"4","last_reported":1731402582,"current_range_meters":30000,"station_id":"ce4bhqh2rcd13ifvqhmg","pricing_plan_id":"cebpf4jnsgd1na2vs0mg"},{"bike_id":"ca7b51c1-41f7-48c3-b99c-ac6c08ca46fd","system_id":"levelo_inurba_marseille","lat":43.27489,"lon":5.42453,"is_reserved":false,"is_disabled":false,"rental_uris":{"android":"levelo://app?vid=ca7b51c1-41f7-48c3-b99c-ac6c08ca46fd","ios":"levelo://app?vid=ca7b51c1-41f7-48c3-b99c-ac6c08ca46fd"},"vehicle_type_id":"4","last_reported":1731402582,"current_range_meters":28400,"station_id":"ce4bhn92rcd13ifvqgrg","pricing_plan_id":"cebpf4jnsgd1na2vs0mg"},{"bike_id":"fcb09439-4032-4ae2-a973-a9cbd659ad1f","system_id":"levelo_inurba_marseille","lat":43.29919,"lon":5.37469,"is_reserved":false,"is_disabled":false,"rental_uris":{"android":"levelo://app?vid=fcb09439-4032-4ae2-a973-a9cbd659ad1f","ios":"levelo://app?vid=fcb09439-4032-4ae2-a973-a9cbd659ad1f"},"vehicle_type_id":"4","last_reported":1731402582,"current_range_meters":24000,"station_id":"ce4bgjh2rcd13ifvqbg0","pricing_plan_id":"cebpf4jnsgd1na2vs0mg"},{"bike_id":"e0c6e299-63b7-40c1-9c74-eee595335ea6","system_id":"levelo_inurba_marseille","lat":43.2695,"lon":5.38631,"is_reserved":false,"is_disabled":false,"rental_uris":{"android":"levelo://app?vid=e0c6e299-63b7-40c1-9c74-eee595335ea6","ios":"levelo://app?vid=e0c6e299-63b7-40c1-9c74-eee595335ea6"},"vehicle_type_id":"4","last_reported":1731402582,"current_range_meters":29600,"station_id":"ce4bhh92rcd13ifvqfh0","pricing_plan_id":"cebpf4jnsgd1na2vs0mg"},{"bike_id":"6ac7e8f3-ecae-451a-bf85-b68ad0a05e2c","system_id":"levelo_inurba_marseille","lat":43.24075,"lon":5.37765,"is_reserved":false,"is_disabled":false,"rental_uris":{"android":"levelo://app?vid=6ac7e8f3-ecae-451a-bf85-b68ad0a05e2c","ios":"levelo://app?vid=6ac7e8f3-ecae-451a-bf85-b68ad0a05e2c"},"vehicle_type_id":"4","last_reported":1731402582,"current_range_meters":21600,"station_id":"ce4bhnp2rcd13ifvqgvg","pricing_plan_id":"cebpf4jnsgd1na2vs0mg"},{"bike_id":"e14fb0d4-1de0-40ad-a77c-0d95c62f151f","system_id":"levelo_inurba_marseille","lat":43.26936,"lon":5.38914,"is_reserved":false,"is_disabled":false,"rental_uris":{"android":"levelo://app?vid=e14fb0d4-1de0-40ad-a77c-0d95c62f151f","ios":"levelo://app?vid=e14fb0d4-1de0-40ad-a77c-0d95c62f151f"},"vehicle_type_id":"4","last_reported":1731402582,"current_range_meters":28800,"station_id":"ce4bhhh2rcd13ifvqfl0","pricing_plan_id":"cebpf4jnsgd1na2vs0mg"},{"bike_id":"4d92cc83-c16a-422a-90d1-a7a79833704d","system_id":"levelo_inurba_marseille","lat":43.29923,"lon":5.36544,"is_reserved":false,"is_disabled":false,"rental_uris":{"android":"levelo://app?vid=4d92cc83-c16a-422a-90d1-a7a79833704d","ios":"levelo://app?vid=4d92cc83-c16a-422a-90d1-a7a79833704d"},"vehicle_type_id":"4","last_reported":1731402582,"current_range_meters":34800,"station_id":"ce4bgm92rcd13ifvqbr0","pricing_plan_id":"cebpf4jnsgd1na2vs0mg"},{"bike_id":"ff92ab82-b2f0-4f06-a111-0e846c1b4fe2","system_id":"levelo_inurba_marseille","lat":43.29279,"lon":5.36855,"is_reserved":false,"is_disabled":false,"rental_uris":{"android":"levelo://app?vid=ff92ab82-b2f0-4f06-a111-0e846c1b4fe2","ios":"levelo://app?vid=ff92ab82-b2f0-4f06-a111-0e846c1b4fe2"},"vehicle_type_id":"4","last_reported":1731402582,"current_range_meters":4000,"station_id":"ce4bhbp2rcd13ifvqesg","pricing_plan_id":"cebpf4jnsgd1na2vs0mg"},{"bike_id":"12622422-82da-4c7f-aa3d-b84c32d52a68","system_id":"levelo_inurba_marseille","lat":43.286621,"lon":5.383328,"is_reserved":false,"is_disabled":false,"rental_uris":{"android":"levelo://app?vid=12622422-82da-4c7f-aa3d-b84c32d52a68","ios":"levelo://app?vid=12622422-82da-4c7f-aa3d-b84c32d52a68"},"vehicle_type_id":"4","last_reported":1731402582,"current_range_meters":32400,"station_id":"","pricing_plan_id":"cebpf4jnsgd1na2vs0mg"},{"bike_id":"a8bf9178-1fc7-4cf1-8534-0454319d3cc8","system_id":"levelo_inurba_marseille","lat":43.30913,"lon":5.36851,"is_reserved":false,"is_disabled":false,"rental_uris":{"android":"levelo://app?vid=a8bf9178-1fc7-4cf1-8534-0454319d3cc8","ios":"levelo://app?vid=a8bf9178-1fc7-4cf1-8534-0454319d3cc8"},"vehicle_type_id":"4","last_reported":1731402582,"current_range_meters":39200,"station_id":"ce4bgn92rcd13ifvqbvg","pricing_plan_id":"cebpf4jnsgd1na2vs0mg"},{"bike_id":"49effbc6-1aad-46bf-8c53-c4b5d41bdb91","system_id":"levelo_inurba_marseille","lat":43.31344,"lon":5.36705,"is_reserved":false,"is_disabled":false,"rental_uris":{"android":"levelo://app?vid=49effbc6-1aad-46bf-8c53-c4b5d41bdb91","ios":"levelo://app?vid=49effbc6-1aad-46bf-8c53-c4b5d41bdb91"},"vehicle_type_id":"4","last_reported":1731402582,"current_range_meters":29600,"station_id":"ce4bgr92rcd13ifvqc6g","pricing_plan_id":"cebpf4jnsgd1na2vs0mg"},{"bike_id":"3e392b66-91b0-4ce2-b24e-779ddf9eacb4","system_id":"levelo_inurba_marseille","lat":43.32498,"lon":5.36549,"is_reserved":false,"is_disabled":false,"rental_uris":{"android":"levelo://app?vid=3e392b66-91b0-4ce2-b24e-779ddf9eacb4","ios":"levelo://app?vid=3e392b66-91b0-4ce2-b24e-779ddf9eacb4"},"vehicle_type_id":"4","last_reported":1731402582,"current_range_meters":26800,"station_id":"ce4bhs12rcd13ifvqhvg","pricing_plan_id":"cebpf4jnsgd1na2vs0mg"},{"bike_id":"2304846b-89c8-4be1-84d6-1e7f5de392b0","system_id":"levelo_inurba_marseille","lat":43.29789,"lon":5.37092,"is_reserved":false,"is_disabled":false,"rental_uris":{"android":"levelo://app?vid=2304846b-89c8-4be1-84d6-1e7f5de392b0","ios":"levelo://app?vid=2304846b-89c8-4be1-84d6-1e7f5de392b0"},"vehicle_type_id":"4","last_reported":1731402582,"current_range_meters":21600,"station_id":"ce4bgop2rcd13ifvqc1g","pricing_plan_id":"cebpf4jnsgd1na2vs0mg"},{"bike_id":"54dc11b8-b928-4e53-b8e7-2cddb0a8e43a","system_id":"levelo_inurba_marseille","lat":43.2408,"lon":5.3776,"is_reserved":false,"is_disabled":false,"rental_uris":{"android":"levelo://app?vid=54dc11b8-b928-4e53-b8e7-2cddb0a8e43a","ios":"levelo://app?vid=54dc11b8-b928-4e53-b8e7-2cddb0a8e43a"},"vehicle_type_id":"4","last_reported":1731402582,"current_range_meters":27200,"station_id":"ce4bhnp2rcd13ifvqgvg","pricing_plan_id":"cebpf4jnsgd1na2vs0mg"},{"bike_id":"b1a74415-2cd8-4130-a98c-9603b6a0bc62","system_id":"levelo_inurba_marseille","lat":43.28486,"lon":5.38551,"is_reserved":false,"is_disabled":false,"rental_uris":{"android":"levelo://app?vid=b1a74415-2cd8-4130-a98c-9603b6a0bc62","ios":"levelo://app?vid=b1a74415-2cd8-4130-a98c-9603b6a0bc62"},"vehicle_type_id":"4","last_reported":1731402582,"current_range_meters":30000,"station_id":"ce4bh8p2rcd13ifvqeb0","pricing_plan_id":"cebpf4jnsgd1na2vs0mg"},{"bike_id":"ce87ee49-8e2f-4b62-afc9-3c4a0031b9a3","system_id":"levelo_inurba_marseille","lat":43.30959,"lon":5.39042,"is_reserved":false,"is_disabled":false,"rental_uris":{"android":"levelo://app?vid=ce87ee49-8e2f-4b62-afc9-3c4a0031b9a3","ios":"levelo://app?vid=ce87ee49-8e2f-4b62-afc9-3c4a0031b9a3"},"vehicle_type_id":"4","last_reported":1731402582,"current_range_meters":34000,"station_id":"ce4bgup2rcd13ifvqco0","pricing_plan_id":"cebpf4jnsgd1na2vs0mg"},{"bike_id":"bae50857-428c-4980-b66d-c84ae6c60a0b","system_id":"levelo_inurba_marseille","lat":43.31117,"lon":5.37772,"is_reserved":false,"is_disabled":false,"rental_uris":{"android":"levelo://app?vid=bae50857-428c-4980-b66d-c84ae6c60a0b","ios":"levelo://app?vid=bae50857-428c-4980-b66d-c84ae6c60a0b"},"vehicle_type_id":"4","last_reported":1731402582,"current_range_meters":12400,"station_id":"ce4bgt92rcd13ifvqcg0","pricing_plan_id":"cebpf4jnsgd1na2vs0mg"},{"bike_id":"aad201f8-4768-4529-bb34-9edba7f0114d","system_id":"levelo_inurba_marseille","lat":43.26957,"lon":5.38629,"is_reserved":false,"is_disabled":false,"rental_uris":{"android":"levelo://app?vid=aad201f8-4768-4529-bb34-9edba7f0114d","ios":"levelo://app?vid=aad201f8-4768-4529-bb34-9edba7f0114d"},"vehicle_type_id":"4","last_reported":1731402582,"current_range_meters":36000,"station_id":"ce4bhh92rcd13ifvqfh0","pricing_plan_id":"cebpf4jnsgd1na2vs0mg"},{"bike_id":"277ad6b8-54fe-4577-9ebc-85b6613b3c4f","system_id":"levelo_inurba_marseille","lat":43.31352,"lon":5.36705,"is_reserved":false,"is_disabled":false,"rental_uris":{"android":"levelo://app?vid=277ad6b8-54fe-4577-9ebc-85b6613b3c4f","ios":"levelo://app?vid=277ad6b8-54fe-4577-9ebc-85b6613b3c4f"},"vehicle_type_id":"4","last_reported":1731402582,"current_range_meters":24400,"station_id":"ce4bgr92rcd13ifvqc6g","pricing_plan_id":"cebpf4jnsgd1na2vs0mg"},{"bike_id":"27ea959b-7f74-43aa-b24f-19e0f8e6b155","system_id":"levelo_inurba_marseille","lat":43.25587,"lon":5.38232,"is_reserved":false,"is_disabled":false,"rental_uris":{"android":"levelo://app?vid=27ea959b-7f74-43aa-b24f-19e0f8e6b155","ios":"levelo://app?vid=27ea959b-7f74-43aa-b24f-19e0f8e6b155"},"vehicle_type_id":"4","last_reported":1731402582,"current_range_meters":6800,"station_id":"ce4bhih2rcd13ifvqfs0","pricing_plan_id":"cebpf4jnsgd1na2vs0mg"},{"bike_id":"d9ebbf26-a8b9-49e9-a05c-0532faeb36dd","system_id":"levelo_inurba_marseille","lat":43.25945,"lon":5.40903,"is_reserved":false,"is_disabled":false,"rental_uris":{"android":"levelo://app?vid=d9ebbf26-a8b9-49e9-a05c-0532faeb36dd","ios":"levelo://app?vid=d9ebbf26-a8b9-49e9-a05c-0532faeb36dd"},"vehicle_type_id":"4","last_reported":1731402582,"current_range_meters":22400,"station_id":"ce4bhm92rcd13ifvqglg","pricing_plan_id":"cebpf4jnsgd1na2vs0mg"},{"bike_id":"e6ea7628-653f-486a-a82c-a3cafa77bbcc","system_id":"levelo_inurba_marseille","lat":43.27499,"lon":5.42439,"is_reserved":false,"is_disabled":false,"rental_uris":{"android":"levelo://app?vid=e6ea7628-653f-486a-a82c-a3cafa77bbcc","ios":"levelo://app?vid=e6ea7628-653f-486a-a82c-a3cafa77bbcc"},"vehicle_type_id":"4","last_reported":1731402582,"current_range_meters":18000,"station_id":"ce4bhn92rcd13ifvqgrg","pricing_plan_id":"cebpf4jnsgd1na2vs0mg"},{"bike_id":"a6cebce8-5cc9-4e63-856d-8b5d14b3f2bb","system_id":"levelo_inurba_marseille","lat":43.24083,"lon":5.37752,"is_reserved":false,"is_disabled":false,"rental_uris":{"android":"levelo://app?vid=a6cebce8-5cc9-4e63-856d-8b5d14b3f2bb","ios":"levelo://app?vid=a6cebce8-5cc9-4e63-856d-8b5d14b3f2bb"},"vehicle_type_id":"4","last_reported":1731402582,"current_range_meters":8400,"station_id":"ce4bhnp2rcd13ifvqgvg","pricing_plan_id":"cebpf4jnsgd1na2vs0mg"},{"bike_id":"c7cc186c-26e9-4fb6-a862-d1d2e220d488","system_id":"levelo_inurba_marseille","lat":43.2908,"lon":5.37169,"is_reserved":false,"is_disabled":false,"rental_uris":{"android":"levelo://app?vid=c7cc186c-26e9-4fb6-a862-d1d2e220d488","ios":"levelo://app?vid=c7cc186c-26e9-4fb6-a862-d1d2e220d488"},"vehicle_type_id":"4","last_reported":1731402582,"current_range_meters":38400,"station_id":"ce4bh5p2rcd13ifvqe4g","pricing_plan_id":"cebpf4jnsgd1na2vs0mg"},{"bike_id":"7b62d9a1-4410-4919-b265-e09aff197a53","system_id":"levelo_inurba_marseille","lat":43.27068,"lon":5.42276,"is_reserved":false,"is_disabled":false,"rental_uris":{"android":"levelo://app?vid=7b62d9a1-4410-4919-b265-e09aff197a53","ios":"levelo://app?vid=7b62d9a1-4410-4919-b265-e09aff197a53"},"vehicle_type_id":"4","last_reported":1731402582,"current_range_meters":38400,"station_id":"ce4bhk92rcd13ifvqgb0","pricing_plan_id":"cebpf4jnsgd1na2vs0mg"},{"bike_id":"8a1aeb54-d35f-4889-92af-9a6b52db4350","system_id":"levelo_inurba_marseille","lat":43.30967,"lon":5.39036,"is_reserved":false,"is_disabled":false,"rental_uris":{"android":"levelo://app?vid=8a1aeb54-d35f-4889-92af-9a6b52db4350","ios":"levelo://app?vid=8a1aeb54-d35f-4889-92af-9a6b52db4350"},"vehicle_type_id":"4","last_reported":1731402582,"current_range_meters":6800,"station_id":"ce4bgup2rcd13ifvqco0","pricing_plan_id":"cebpf4jnsgd1na2vs0mg"},{"bike_id":"5f9f9b90-d6a2-486d-a813-43efd2f0b193","system_id":"levelo_inurba_marseille","lat":43.31366,"lon":5.36715,"is_reserved":false,"is_disabled":false,"rental_uris":{"android":"levelo://app?vid=5f9f9b90-d6a2-486d-a813-43efd2f0b193","ios":"levelo://app?vid=5f9f9b90-d6a2-486d-a813-43efd2f0b193"},"vehicle_type_id":"4","last_reported":1731402582,"current_range_meters":16800,"station_id":"ce4bgr92rcd13ifvqc6g","pricing_plan_id":"cebpf4jnsgd1na2vs0mg"},{"bike_id":"b0864b2f-248e-47d9-ac2d-dc9ee7e07860","system_id":"levelo_inurba_marseille","lat":43.27176,"lon":5.40993,"is_reserved":false,"is_disabled":false,"rental_uris":{"android":"levelo://app?vid=b0864b2f-248e-47d9-ac2d-dc9ee7e07860","ios":"levelo://app?vid=b0864b2f-248e-47d9-ac2d-dc9ee7e07860"},"vehicle_type_id":"4","last_reported":1731402582,"current_range_meters":38800,"station_id":"ce4bhl12rcd13ifvqgf0","pricing_plan_id":"cebpf4jnsgd1na2vs0mg"},{"bike_id":"93589d03-0077-46a1-b4d8-727da1af30b6","system_id":"levelo_inurba_marseille","lat":43.31486,"lon":5.37311,"is_reserved":false,"is_disabled":false,"rental_uris":{"android":"levelo://app?vid=93589d03-0077-46a1-b4d8-727da1af30b6","ios":"levelo://app?vid=93589d03-0077-46a1-b4d8-727da1af30b6"},"vehicle_type_id":"4","last_reported":1731402582,"current_range_meters":38400,"station_id":"ce4bgt12rcd13ifvqcd0","pricing_plan_id":"cebpf4jnsgd1na2vs0mg"},{"bike_id":"eb8c3cc5-fe7b-45af-aab6-4f9d0cd7ba0b","system_id":"levelo_inurba_marseille","lat":43.26687,"lon":5.38275,"is_reserved":false,"is_disabled":false,"rental_uris":{"android":"levelo://app?vid=eb8c3cc5-fe7b-45af-aab6-4f9d0cd7ba0b","ios":"levelo://app?vid=eb8c3cc5-fe7b-45af-aab6-4f9d0cd7ba0b"},"vehicle_type_id":"4","last_reported":1731402582,"current_range_meters":37600,"station_id":"ce4bhg92rcd13ifvqf90","pricing_plan_id":"cebpf4jnsgd1na2vs0mg"},{"bike_id":"86a1e8ec-924c-482f-a632-e7f0600dca6f","system_id":"levelo_inurba_marseille","lat":43.33614,"lon":5.40994,"is_reserved":false,"is_disabled":false,"rental_uris":{"android":"levelo://app?vid=86a1e8ec-924c-482f-a632-e7f0600dca6f","ios":"levelo://app?vid=86a1e8ec-924c-482f-a632-e7f0600dca6f"},"vehicle_type_id":"4","last_reported":1731402582,"current_range_meters":37600,"station_id":"ce4bhqh2rcd13ifvqhmg","pricing_plan_id":"cebpf4jnsgd1na2vs0mg"},{"bike_id":"3b03b7e5-6c8f-45ab-848a-3b2b10553b2c","system_id":"levelo_inurba_marseille","lat":43.24084,"lon":5.37744,"is_reserved":false,"is_disabled":false,"rental_uris":{"android":"levelo://app?vid=3b03b7e5-6c8f-45ab-848a-3b2b10553b2c","ios":"levelo://app?vid=3b03b7e5-6c8f-45ab-848a-3b2b10553b2c"},"vehicle_type_id":"4","last_reported":1731402582,"current_range_meters":8000,"station_id":"ce4bhnp2rcd13ifvqgvg","pricing_plan_id":"cebpf4jnsgd1na2vs0mg"},{"bike_id":"43bd4df6-40bb-4eee-a218-cdd879e9efdd","system_id":"levelo_inurba_marseille","lat":43.31234,"lon":5.36857,"is_reserved":false,"is_disabled":false,"rental_uris":{"android":"levelo://app?vid=43bd4df6-40bb-4eee-a218-cdd879e9efdd","ios":"levelo://app?vid=43bd4df6-40bb-4eee-a218-cdd879e9efdd"},"vehicle_type_id":"4","last_reported":1731402582,"current_range_meters":28000,"station_id":"ce4bgl92rcd13ifvqbq0","pricing_plan_id":"cebpf4jnsgd1na2vs0mg"},{"bike_id":"d46ec40f-cc3d-4fe6-b9e7-3cb07f3c1980","system_id":"levelo_inurba_marseille","lat":43.2668,"lon":5.38267,"is_reserved":false,"is_disabled":false,"rental_uris":{"android":"levelo://app?vid=d46ec40f-cc3d-4fe6-b9e7-3cb07f3c1980","ios":"levelo://app?vid=d46ec40f-cc3d-4fe6-b9e7-3cb07f3c1980"},"vehicle_type_id":"4","last_reported":1731402582,"current_range_meters":38800,"station_id":"ce4bhg92rcd13ifvqf90","pricing_plan_id":"cebpf4jnsgd1na2vs0mg"},{"bike_id":"36019b4c-12eb-4a40-878e-1cad7b7b78c8","system_id":"levelo_inurba_marseille","lat":43.29307,"lon":5.37177,"is_reserved":false,"is_disabled":false,"rental_uris":{"android":"levelo://app?vid=36019b4c-12eb-4a40-878e-1cad7b7b78c8","ios":"levelo://app?vid=36019b4c-12eb-4a40-878e-1cad7b7b78c8"},"vehicle_type_id":"4","last_reported":1731402582,"current_range_meters":38400,"station_id":"ce4bgh92rcd13ifvqb40","pricing_plan_id":"cebpf4jnsgd1na2vs0mg"},{"bike_id":"5fbd5809-42eb-48c6-8c2f-1b3fe116c3f5","system_id":"levelo_inurba_marseille","lat":43.29851,"lon":5.36284,"is_reserved":false,"is_disabled":false,"rental_uris":{"android":"levelo://app?vid=5fbd5809-42eb-48c6-8c2f-1b3fe116c3f5","ios":"levelo://app?vid=5fbd5809-42eb-48c6-8c2f-1b3fe116c3f5"},"vehicle_type_id":"4","last_reported":1731402582,"current_range_meters":13600,"station_id":"ce4bgpp2rcd13ifvqc3g","pricing_plan_id":"cebpf4jnsgd1na2vs0mg"},{"bike_id":"79bdeb02-992a-4811-8d5e-df446ae6c46c","system_id":"levelo_inurba_marseille","lat":43.29033,"lon":5.37559,"is_reserved":false,"is_disabled":false,"rental_uris":{"android":"levelo://app?vid=79bdeb02-992a-4811-8d5e-df446ae6c46c","ios":"levelo://app?vid=79bdeb02-992a-4811-8d5e-df446ae6c46c"},"vehicle_type_id":"4","last_reported":1731402582,"current_range_meters":35200,"station_id":"ce4bh692rcd13ifvqe90","pricing_plan_id":"cebpf4jnsgd1na2vs0mg"},{"bike_id":"791689bc-b073-4cdc-9869-27b338165735","system_id":"levelo_inurba_marseille","lat":43.32656,"lon":5.40993,"is_reserved":false,"is_disabled":false,"rental_uris":{"android":"levelo://app?vid=791689bc-b073-4cdc-9869-27b338165735","ios":"levelo://app?vid=791689bc-b073-4cdc-9869-27b338165735"},"vehicle_type_id":"4","last_reported":1731402582,"current_range_meters":37600,"station_id":"ce4bhpp2rcd13ifvqhgg","pricing_plan_id":"cebpf4jnsgd1na2vs0mg"},{"bike_id":"8040d7c4-6694-4b28-9857-79c43852da14","system_id":"levelo_inurba_marseille","lat":43.28973,"lon":5.36613,"is_reserved":false,"is_disabled":false,"rental_uris":{"android":"levelo://app?vid=8040d7c4-6694-4b28-9857-79c43852da14","ios":"levelo://app?vid=8040d7c4-6694-4b28-9857-79c43852da14"},"vehicle_type_id":"4","last_reported":1731402582,"current_range_meters":13600,"station_id":"ce4bh692rcd13ifvqe90","pricing_plan_id":"cebpf4jnsgd1na2vs0mg"},{"bike_id":"a7d71a95-aff9-47f9-8c01-defabf3b40db","system_id":"levelo_inurba_marseille","lat":43.28156,"lon":5.42638,"is_reserved":false,"is_disabled":false,"rental_uris":{"android":"levelo://app?vid=a7d71a95-aff9-47f9-8c01-defabf3b40db","ios":"levelo://app?vid=a7d71a95-aff9-47f9-8c01-defabf3b40db"},"vehicle_type_id":"4","last_reported":1731402582,"current_range_meters":8000,"station_id":"ce4bhnh2rcd13ifvqgug","pricing_plan_id":"cebpf4jnsgd1na2vs0mg"},{"bike_id":"0efa8546-84a6-4c0c-ab60-ffc695fb3d4b","system_id":"levelo_inurba_marseille","lat":43.30542,"lon":5.36711,"is_reserved":false,"is_disabled":false,"rental_uris":{"android":"levelo://app?vid=0efa8546-84a6-4c0c-ab60-ffc695fb3d4b","ios":"levelo://app?vid=0efa8546-84a6-4c0c-ab60-ffc695fb3d4b"},"vehicle_type_id":"4","last_reported":1731402582,"current_range_meters":36000,"station_id":"ce4bgrp2rcd13ifvqc9g","pricing_plan_id":"cebpf4jnsgd1na2vs0mg"},{"bike_id":"2999b89d-a990-486d-90a7-4db2b5365e8f","system_id":"levelo_inurba_marseille","lat":43.30462,"lon":5.37903,"is_reserved":false,"is_disabled":false,"rental_uris":{"android":"levelo://app?vid=2999b89d-a990-486d-90a7-4db2b5365e8f","ios":"levelo://app?vid=2999b89d-a990-486d-90a7-4db2b5365e8f"},"vehicle_type_id":"4","last_reported":1731402582,"current_range_meters":29600,"station_id":"ce4bgup2rcd13ifvqcn0","pricing_plan_id":"cebpf4jnsgd1na2vs0mg"},{"bike_id":"ec5899ca-f462-4f0a-af00-68e188e1cdc1","system_id":"levelo_inurba_marseille","lat":43.25938,"lon":5.40907,"is_reserved":false,"is_disabled":false,"rental_uris":{"android":"levelo://app?vid=ec5899ca-f462-4f0a-af00-68e188e1cdc1","ios":"levelo://app?vid=ec5899ca-f462-4f0a-af00-68e188e1cdc1"},"vehicle_type_id":"4","last_reported":1731402582,"current_range_meters":30000,"station_id":"ce4bhm92rcd13ifvqglg","pricing_plan_id":"cebpf4jnsgd1na2vs0mg"},{"bike_id":"f7db8d50-4ce4-4ad7-9b62-87557b2d49d5","system_id":"levelo_inurba_marseille","lat":43.30949,"lon":5.39042,"is_reserved":false,"is_disabled":false,"rental_uris":{"android":"levelo://app?vid=f7db8d50-4ce4-4ad7-9b62-87557b2d49d5","ios":"levelo://app?vid=f7db8d50-4ce4-4ad7-9b62-87557b2d49d5"},"vehicle_type_id":"4","last_reported":1731402582,"current_range_meters":8400,"station_id":"ce4bgup2rcd13ifvqco0","pricing_plan_id":"cebpf4jnsgd1na2vs0mg"},{"bike_id":"770900e9-d2e6-49a4-b596-4bb9e857a31a","system_id":"levelo_inurba_marseille","lat":43.30468,"lon":5.379,"is_reserved":false,"is_disabled":false,"rental_uris":{"android":"levelo://app?vid=770900e9-d2e6-49a4-b596-4bb9e857a31a","ios":"levelo://app?vid=770900e9-d2e6-49a4-b596-4bb9e857a31a"},"vehicle_type_id":"4","last_reported":1731402582,"current_range_meters":10000,"station_id":"ce4bgup2rcd13ifvqcn0","pricing_plan_id":"cebpf4jnsgd1na2vs0mg"},{"bike_id":"86c6ff49-2b5b-4afb-8125-7091456fb85f","system_id":"levelo_inurba_marseille","lat":43.29313,"lon":5.3717,"is_reserved":false,"is_disabled":false,"rental_uris":{"android":"levelo://app?vid=86c6ff49-2b5b-4afb-8125-7091456fb85f","ios":"levelo://app?vid=86c6ff49-2b5b-4afb-8125-7091456fb85f"},"vehicle_type_id":"4","last_reported":1731402582,"current_range_meters":38800,"station_id":"ce4bgh92rcd13ifvqb40","pricing_plan_id":"cebpf4jnsgd1na2vs0mg"},{"bike_id":"868a76b2-4399-49df-a1e4-86df2777b865","system_id":"levelo_inurba_marseille","lat":43.30141,"lon":5.37427,"is_reserved":false,"is_disabled":false,"rental_uris":{"android":"levelo://app?vid=868a76b2-4399-49df-a1e4-86df2777b865","ios":"levelo://app?vid=868a76b2-4399-49df-a1e4-86df2777b865"},"vehicle_type_id":"4","last_reported":1731402582,"current_range_meters":20800,"station_id":"ce4bgs92rcd13ifvqcc0","pricing_plan_id":"cebpf4jnsgd1na2vs0mg"},{"bike_id":"4207dc09-ccec-4f07-8c1f-2084b2368698","system_id":"levelo_inurba_marseille","lat":43.29803,"lon":5.40398,"is_reserved":false,"is_disabled":false,"rental_uris":{"android":"levelo://app?vid=4207dc09-ccec-4f07-8c1f-2084b2368698","ios":"levelo://app?vid=4207dc09-ccec-4f07-8c1f-2084b2368698"},"vehicle_type_id":"4","last_reported":1731402582,"current_range_meters":37600,"station_id":"ce4bh112rcd13ifvqd90","pricing_plan_id":"cebpf4jnsgd1na2vs0mg"},{"bike_id":"70885094-4d88-494e-b843-6d899a74693a","system_id":"levelo_inurba_marseille","lat":43.2873,"lon":5.37954,"is_reserved":false,"is_disabled":false,"rental_uris":{"android":"levelo://app?vid=70885094-4d88-494e-b843-6d899a74693a","ios":"levelo://app?vid=70885094-4d88-494e-b843-6d899a74693a"},"vehicle_type_id":"4","last_reported":1731402582,"current_range_meters":33200,"station_id":"ce4bh9p2rcd13ifvqec0","pricing_plan_id":"cebpf4jnsgd1na2vs0mg"},{"bike_id":"4a19371a-296c-4821-8792-54911128b33e","system_id":"levelo_inurba_marseille","lat":43.29049,"lon":5.39949,"is_reserved":false,"is_disabled":false,"rental_uris":{"android":"levelo://app?vid=4a19371a-296c-4821-8792-54911128b33e","ios":"levelo://app?vid=4a19371a-296c-4821-8792-54911128b33e"},"vehicle_type_id":"4","last_reported":1731402582,"current_range_meters":30400,"station_id":"ce4bh392rcd13ifvqdm0","pricing_plan_id":"cebpf4jnsgd1na2vs0mg"},{"bike_id":"4c62d813-e09c-46f8-96c5-40ef2aa6b1c6","system_id":"levelo_inurba_marseille","lat":43.2904,"lon":5.39952,"is_reserved":false,"is_disabled":false,"rental_uris":{"android":"levelo://app?vid=4c62d813-e09c-46f8-96c5-40ef2aa6b1c6","ios":"levelo://app?vid=4c62d813-e09c-46f8-96c5-40ef2aa6b1c6"},"vehicle_type_id":"4","last_reported":1731402582,"current_range_meters":30000,"station_id":"ce4bh392rcd13ifvqdm0","pricing_plan_id":"cebpf4jnsgd1na2vs0mg"},{"bike_id":"320e12a1-288b-4e41-acf1-914d9b0a850f","system_id":"levelo_inurba_marseille","lat":43.259695,"lon":5.375775,"is_reserved":false,"is_disabled":false,"rental_uris":{"android":"levelo://app?vid=320e12a1-288b-4e41-acf1-914d9b0a850f","ios":"levelo://app?vid=320e12a1-288b-4e41-acf1-914d9b0a850f"},"vehicle_type_id":"4","last_reported":1731402582,"current_range_meters":37600,"station_id":"","pricing_plan_id":"cebpf4jnsgd1na2vs0mg"},{"bike_id":"d6fd36c1-bf21-466e-af76-289d8b368155","system_id":"levelo_inurba_marseille","lat":43.30463,"lon":5.37904,"is_reserved":false,"is_disabled":false,"rental_uris":{"android":"levelo://app?vid=d6fd36c1-bf21-466e-af76-289d8b368155","ios":"levelo://app?vid=d6fd36c1-bf21-466e-af76-289d8b368155"},"vehicle_type_id":"4","last_reported":1731402582,"current_range_meters":36800,"station_id":"ce4bgup2rcd13ifvqcn0","pricing_plan_id":"cebpf4jnsgd1na2vs0mg"},{"bike_id":"72f2459d-a66f-4594-a47a-d7559414586e","system_id":"levelo_inurba_marseille","lat":43.29308,"lon":5.37178,"is_reserved":false,"is_disabled":false,"rental_uris":{"android":"levelo://app?vid=72f2459d-a66f-4594-a47a-d7559414586e","ios":"levelo://app?vid=72f2459d-a66f-4594-a47a-d7559414586e"},"vehicle_type_id":"4","last_reported":1731402582,"current_range_meters":6400,"station_id":"ce4bgh92rcd13ifvqb40","pricing_plan_id":"cebpf4jnsgd1na2vs0mg"},{"bike_id":"9695f125-d10c-47ba-b131-80736ea5e6f2","system_id":"levelo_inurba_marseille","lat":43.2894,"lon":5.39627,"is_reserved":false,"is_disabled":false,"rental_uris":{"android":"levelo://app?vid=9695f125-d10c-47ba-b131-80736ea5e6f2","ios":"levelo://app?vid=9695f125-d10c-47ba-b131-80736ea5e6f2"},"vehicle_type_id":"4","last_reported":1731402582,"current_range_meters":12800,"station_id":"ce4bh3h2rcd13ifvqdn0","pricing_plan_id":"cebpf4jnsgd1na2vs0mg"},{"bike_id":"b453a817-b2ea-4985-8ffe-28a038a11218","system_id":"levelo_inurba_marseille","lat":43.24083,"lon":5.37743,"is_reserved":false,"is_disabled":false,"rental_uris":{"android":"levelo://app?vid=b453a817-b2ea-4985-8ffe-28a038a11218","ios":"levelo://app?vid=b453a817-b2ea-4985-8ffe-28a038a11218"},"vehicle_type_id":"4","last_reported":1731402582,"current_range_meters":14800,"station_id":"ce4bhnp2rcd13ifvqgvg","pricing_plan_id":"cebpf4jnsgd1na2vs0mg"},{"bike_id":"40ee769d-1238-4013-8434-6704bade4ce4","system_id":"levelo_inurba_marseille","lat":43.33606,"lon":5.4103,"is_reserved":false,"is_disabled":false,"rental_uris":{"android":"levelo://app?vid=40ee769d-1238-4013-8434-6704bade4ce4","ios":"levelo://app?vid=40ee769d-1238-4013-8434-6704bade4ce4"},"vehicle_type_id":"4","last_reported":1731402582,"current_range_meters":32800,"station_id":"ce4bhqh2rcd13ifvqhmg","pricing_plan_id":"cebpf4jnsgd1na2vs0mg"},{"bike_id":"2f085ddc-4d69-4c79-9514-8165bb5c8a06","system_id":"levelo_inurba_marseille","lat":43.30554,"lon":5.36541,"is_reserved":false,"is_disabled":false,"rental_uris":{"android":"levelo://app?vid=2f085ddc-4d69-4c79-9514-8165bb5c8a06","ios":"levelo://app?vid=2f085ddc-4d69-4c79-9514-8165bb5c8a06"},"vehicle_type_id":"4","last_reported":1731402582,"current_range_meters":29600,"station_id":"ce4bgs12rcd13ifvqcag","pricing_plan_id":"cebpf4jnsgd1na2vs0mg"},{"bike_id":"b101fd27-9e23-4f31-abdd-6393677f4589","system_id":"levelo_inurba_marseille","lat":43.24074,"lon":5.37758,"is_reserved":false,"is_disabled":false,"rental_uris":{"android":"levelo://app?vid=b101fd27-9e23-4f31-abdd-6393677f4589","ios":"levelo://app?vid=b101fd27-9e23-4f31-abdd-6393677f4589"},"vehicle_type_id":"4","last_reported":1731402582,"current_range_meters":36400,"station_id":"ce4bhnp2rcd13ifvqgvg","pricing_plan_id":"cebpf4jnsgd1na2vs0mg"},{"bike_id":"77d92518-dd48-4d99-b61f-eaeaf2d3446b","system_id":"levelo_inurba_marseille","lat":43.30555,"lon":5.36544,"is_reserved":false,"is_disabled":false,"rental_uris":{"android":"levelo://app?vid=77d92518-dd48-4d99-b61f-eaeaf2d3446b","ios":"levelo://app?vid=77d92518-dd48-4d99-b61f-eaeaf2d3446b"},"vehicle_type_id":"4","last_reported":1731402582,"current_range_meters":20400,"station_id":"ce4bgs12rcd13ifvqcag","pricing_plan_id":"cebpf4jnsgd1na2vs0mg"},{"bike_id":"0c0c226c-4311-40bc-966e-4d8a46b2c5c4","system_id":"levelo_inurba_marseille","lat":43.24073,"lon":5.37757,"is_reserved":false,"is_disabled":false,"rental_uris":{"android":"levelo://app?vid=0c0c226c-4311-40bc-966e-4d8a46b2c5c4","ios":"levelo://app?vid=0c0c226c-4311-40bc-966e-4d8a46b2c5c4"},"vehicle_type_id":"4","last_reported":1731402582,"current_range_meters":18000,"station_id":"ce4bhnp2rcd13ifvqgvg","pricing_plan_id":"cebpf4jnsgd1na2vs0mg"},{"bike_id":"af5e3c2a-c449-43ab-b290-4cdf9e20f1aa","system_id":"levelo_inurba_marseille","lat":43.27912,"lon":5.41213,"is_reserved":false,"is_disabled":false,"rental_uris":{"android":"levelo://app?vid=af5e3c2a-c449-43ab-b290-4cdf9e20f1aa","ios":"levelo://app?vid=af5e3c2a-c449-43ab-b290-4cdf9e20f1aa"},"vehicle_type_id":"4","last_reported":1731402582,"current_range_meters":19600,"station_id":"ce4bho12rcd13ifvqh1g","pricing_plan_id":"cebpf4jnsgd1na2vs0mg"},{"bike_id":"6cecce0a-2ac4-4613-824e-348102fe947a","system_id":"levelo_inurba_marseille","lat":43.24082,"lon":5.37752,"is_reserved":false,"is_disabled":false,"rental_uris":{"android":"levelo://app?vid=6cecce0a-2ac4-4613-824e-348102fe947a","ios":"levelo://app?vid=6cecce0a-2ac4-4613-824e-348102fe947a"},"vehicle_type_id":"4","last_reported":1731402582,"current_range_meters":28800,"station_id":"ce4bhnp2rcd13ifvqgvg","pricing_plan_id":"cebpf4jnsgd1na2vs0mg"},{"bike_id":"9a9ae3db-8709-4305-bfaf-c685e69fe84e","system_id":"levelo_inurba_marseille","lat":43.29099,"lon":5.38117,"is_reserved":false,"is_disabled":false,"rental_uris":{"android":"levelo://app?vid=9a9ae3db-8709-4305-bfaf-c685e69fe84e","ios":"levelo://app?vid=9a9ae3db-8709-4305-bfaf-c685e69fe84e"},"vehicle_type_id":"4","last_reported":1731402582,"current_range_meters":33200,"station_id":"ce4bh512rcd13ifvqe2g","pricing_plan_id":"cebpf4jnsgd1na2vs0mg"},{"bike_id":"29c01c91-58dc-4ed0-a5c3-e829489caba9","system_id":"levelo_inurba_marseille","lat":43.30947,"lon":5.39048,"is_reserved":false,"is_disabled":false,"rental_uris":{"android":"levelo://app?vid=29c01c91-58dc-4ed0-a5c3-e829489caba9","ios":"levelo://app?vid=29c01c91-58dc-4ed0-a5c3-e829489caba9"},"vehicle_type_id":"4","last_reported":1731402582,"current_range_meters":35600,"station_id":"ce4bgup2rcd13ifvqco0","pricing_plan_id":"cebpf4jnsgd1na2vs0mg"},{"bike_id":"8efbb9f4-e414-4e8a-86c0-9a60e267dcda","system_id":"levelo_inurba_marseille","lat":43.25826,"lon":5.39435,"is_reserved":false,"is_disabled":false,"rental_uris":{"android":"levelo://app?vid=8efbb9f4-e414-4e8a-86c0-9a60e267dcda","ios":"levelo://app?vid=8efbb9f4-e414-4e8a-86c0-9a60e267dcda"},"vehicle_type_id":"4","last_reported":1731402582,"current_range_meters":37600,"station_id":"ce4bhip2rcd13ifvqft0","pricing_plan_id":"cebpf4jnsgd1na2vs0mg"},{"bike_id":"e7f46eb4-6b70-41c0-b2ec-d4f5352531c8","system_id":"levelo_inurba_marseille","lat":43.27499,"lon":5.42447,"is_reserved":false,"is_disabled":false,"rental_uris":{"android":"levelo://app?vid=e7f46eb4-6b70-41c0-b2ec-d4f5352531c8","ios":"levelo://app?vid=e7f46eb4-6b70-41c0-b2ec-d4f5352531c8"},"vehicle_type_id":"4","last_reported":1731402582,"current_range_meters":35200,"station_id":"ce4bhn92rcd13ifvqgrg","pricing_plan_id":"cebpf4jnsgd1na2vs0mg"},{"bike_id":"9e463de3-d076-4eb4-920d-8d7f44b93168","system_id":"levelo_inurba_marseille","lat":43.276139,"lon":5.36104,"is_reserved":false,"is_disabled":false,"rental_uris":{"android":"levelo://app?vid=9e463de3-d076-4eb4-920d-8d7f44b93168","ios":"levelo://app?vid=9e463de3-d076-4eb4-920d-8d7f44b93168"},"vehicle_type_id":"4","last_reported":1731402582,"current_range_meters":38000,"station_id":"ce4bgj92rcd13ifvqbe0","pricing_plan_id":"cebpf4jnsgd1na2vs0mg"},{"bike_id":"c2c0c158-e994-4346-894a-aa2c5884f6bb","system_id":"levelo_inurba_marseille","lat":43.25497,"lon":5.37648,"is_reserved":false,"is_disabled":false,"rental_uris":{"android":"levelo://app?vid=c2c0c158-e994-4346-894a-aa2c5884f6bb","ios":"levelo://app?vid=c2c0c158-e994-4346-894a-aa2c5884f6bb"},"vehicle_type_id":"4","last_reported":1731402582,"current_range_meters":36800,"station_id":"ce4bhh12rcd13ifvqff0","pricing_plan_id":"cebpf4jnsgd1na2vs0mg"},{"bike_id":"61d8a043-72c9-47b7-9a04-90c5c24ff775","system_id":"levelo_inurba_marseille","lat":43.30456,"lon":5.37906,"is_reserved":false,"is_disabled":false,"rental_uris":{"android":"levelo://app?vid=61d8a043-72c9-47b7-9a04-90c5c24ff775","ios":"levelo://app?vid=61d8a043-72c9-47b7-9a04-90c5c24ff775"},"vehicle_type_id":"4","last_reported":1731402582,"current_range_meters":6400,"station_id":"ce4bgup2rcd13ifvqcn0","pricing_plan_id":"cebpf4jnsgd1na2vs0mg"},{"bike_id":"da022ab9-b6d2-4f4f-adf8-80cde48d4848","system_id":"levelo_inurba_marseille","lat":43.28985,"lon":5.37827,"is_reserved":false,"is_disabled":false,"rental_uris":{"android":"levelo://app?vid=da022ab9-b6d2-4f4f-adf8-80cde48d4848","ios":"levelo://app?vid=da022ab9-b6d2-4f4f-adf8-80cde48d4848"},"vehicle_type_id":"4","last_reported":1731402582,"current_range_meters":14400,"station_id":"ce4bh9p2rcd13ifvqed0","pricing_plan_id":"cebpf4jnsgd1na2vs0mg"},{"bike_id":"360bc08a-f969-4ec3-bf1c-00dfb5d8677c","system_id":"levelo_inurba_marseille","lat":43.30191,"lon":5.36599,"is_reserved":false,"is_disabled":false,"rental_uris":{"android":"levelo://app?vid=360bc08a-f969-4ec3-bf1c-00dfb5d8677c","ios":"levelo://app?vid=360bc08a-f969-4ec3-bf1c-00dfb5d8677c"},"vehicle_type_id":"4","last_reported":1731402582,"current_range_meters":36000,"station_id":"ce4bgrh2rcd13ifvqc8g","pricing_plan_id":"cebpf4jnsgd1na2vs0mg"},{"bike_id":"6e10a7c4-8d89-4533-93b6-d9e04eb0b330","system_id":"levelo_inurba_marseille","lat":43.3091,"lon":5.36852,"is_reserved":false,"is_disabled":false,"rental_uris":{"android":"levelo://app?vid=6e10a7c4-8d89-4533-93b6-d9e04eb0b330","ios":"levelo://app?vid=6e10a7c4-8d89-4533-93b6-d9e04eb0b330"},"vehicle_type_id":"4","last_reported":1731402582,"current_range_meters":26800,"station_id":"ce4bgn92rcd13ifvqbvg","pricing_plan_id":"cebpf4jnsgd1na2vs0mg"},{"bike_id":"aa3ec2fd-0efd-439c-b6af-32c66c48e006","system_id":"levelo_inurba_marseille","lat":43.24073,"lon":5.37753,"is_reserved":false,"is_disabled":false,"rental_uris":{"android":"levelo://app?vid=aa3ec2fd-0efd-439c-b6af-32c66c48e006","ios":"levelo://app?vid=aa3ec2fd-0efd-439c-b6af-32c66c48e006"},"vehicle_type_id":"4","last_reported":1731402582,"current_range_meters":14800,"station_id":"ce4bhnp2rcd13ifvqgvg","pricing_plan_id":"cebpf4jnsgd1na2vs0mg"},{"bike_id":"dd2b8768-f22e-480b-8778-9d9e6cf2b8b7","system_id":"levelo_inurba_marseille","lat":43.27439,"lon":5.39407,"is_reserved":false,"is_disabled":false,"rental_uris":{"android":"levelo://app?vid=dd2b8768-f22e-480b-8778-9d9e6cf2b8b7","ios":"levelo://app?vid=dd2b8768-f22e-480b-8778-9d9e6cf2b8b7"},"vehicle_type_id":"4","last_reported":1731402582,"current_range_meters":30800,"station_id":"ce4bhdp2rcd13ifvqf20","pricing_plan_id":"cebpf4jnsgd1na2vs0mg"},{"bike_id":"49b84d54-e9a8-414b-8f96-35ff1ec47098","system_id":"levelo_inurba_marseille","lat":43.24067,"lon":5.37763,"is_reserved":false,"is_disabled":false,"rental_uris":{"android":"levelo://app?vid=49b84d54-e9a8-414b-8f96-35ff1ec47098","ios":"levelo://app?vid=49b84d54-e9a8-414b-8f96-35ff1ec47098"},"vehicle_type_id":"4","last_reported":1731402582,"current_range_meters":25200,"station_id":"ce4bhnp2rcd13ifvqgvg","pricing_plan_id":"cebpf4jnsgd1na2vs0mg"},{"bike_id":"8af6838a-5ba9-411f-a20f-25a00328e0bc","system_id":"levelo_inurba_marseille","lat":43.25939,"lon":5.40907,"is_reserved":false,"is_disabled":false,"rental_uris":{"android":"levelo://app?vid=8af6838a-5ba9-411f-a20f-25a00328e0bc","ios":"levelo://app?vid=8af6838a-5ba9-411f-a20f-25a00328e0bc"},"vehicle_type_id":"4","last_reported":1731402582,"current_range_meters":38800,"station_id":"ce4bhm92rcd13ifvqglg","pricing_plan_id":"cebpf4jnsgd1na2vs0mg"},{"bike_id":"3466e13c-8b96-4577-a469-2c96bb00210f","system_id":"levelo_inurba_marseille","lat":43.28983,"lon":5.37843,"is_reserved":false,"is_disabled":false,"rental_uris":{"android":"levelo://app?vid=3466e13c-8b96-4577-a469-2c96bb00210f","ios":"levelo://app?vid=3466e13c-8b96-4577-a469-2c96bb00210f"},"vehicle_type_id":"4","last_reported":1731402582,"current_range_meters":36800,"station_id":"ce4bh9p2rcd13ifvqed0","pricing_plan_id":"cebpf4jnsgd1na2vs0mg"},{"bike_id":"5d5336c7-9cee-434d-a908-9eb965076091","system_id":"levelo_inurba_marseille","lat":43.29273,"lon":5.36847,"is_reserved":false,"is_disabled":false,"rental_uris":{"android":"levelo://app?vid=5d5336c7-9cee-434d-a908-9eb965076091","ios":"levelo://app?vid=5d5336c7-9cee-434d-a908-9eb965076091"},"vehicle_type_id":"4","last_reported":1731402582,"current_range_meters":38800,"station_id":"ce4bhbp2rcd13ifvqesg","pricing_plan_id":"cebpf4jnsgd1na2vs0mg"},{"bike_id":"f5f7adb1-08a0-41e5-84f8-4eacbb87fa6f","system_id":"levelo_inurba_marseille","lat":43.23964,"lon":5.3663,"is_reserved":false,"is_disabled":false,"rental_uris":{"android":"levelo://app?vid=f5f7adb1-08a0-41e5-84f8-4eacbb87fa6f","ios":"levelo://app?vid=f5f7adb1-08a0-41e5-84f8-4eacbb87fa6f"},"vehicle_type_id":"4","last_reported":1731402582,"current_range_meters":36400,"station_id":"ce4bhi12rcd13ifvqfp0","pricing_plan_id":"cebpf4jnsgd1na2vs0mg"},{"bike_id":"92458f41-bfe8-46d5-a2b8-66b90a905a47","system_id":"levelo_inurba_marseille","lat":43.34149,"lon":5.40909,"is_reserved":false,"is_disabled":false,"rental_uris":{"android":"levelo://app?vid=92458f41-bfe8-46d5-a2b8-66b90a905a47","ios":"levelo://app?vid=92458f41-bfe8-46d5-a2b8-66b90a905a47"},"vehicle_type_id":"4","last_reported":1731402582,"current_range_meters":35600,"station_id":"ce4bhqh2rcd13ifvqhlg","pricing_plan_id":"cebpf4jnsgd1na2vs0mg"},{"bike_id":"9c56d67c-431c-402a-b76c-8c6200e67dd6","system_id":"levelo_inurba_marseille","lat":43.2901,"lon":5.374143,"is_reserved":false,"is_disabled":false,"rental_uris":{"android":"levelo://app?vid=9c56d67c-431c-402a-b76c-8c6200e67dd6","ios":"levelo://app?vid=9c56d67c-431c-402a-b76c-8c6200e67dd6"},"vehicle_type_id":"4","last_reported":1731402582,"current_range_meters":19600,"station_id":"ce4bgih2rcd13ifvqba0","pricing_plan_id":"cebpf4jnsgd1na2vs0mg"},{"bike_id":"002ea831-86df-4729-a086-c17469923863","system_id":"levelo_inurba_marseille","lat":43.24082,"lon":5.37754,"is_reserved":false,"is_disabled":false,"rental_uris":{"android":"levelo://app?vid=002ea831-86df-4729-a086-c17469923863","ios":"levelo://app?vid=002ea831-86df-4729-a086-c17469923863"},"vehicle_type_id":"4","last_reported":1731402582,"current_range_meters":33200,"station_id":"ce4bhnp2rcd13ifvqgvg","pricing_plan_id":"cebpf4jnsgd1na2vs0mg"},{"bike_id":"eedf0c2a-a7d8-44a6-ab26-4773ad682f4a","system_id":"levelo_inurba_marseille","lat":43.30533,"lon":5.36537,"is_reserved":false,"is_disabled":false,"rental_uris":{"android":"levelo://app?vid=eedf0c2a-a7d8-44a6-ab26-4773ad682f4a","ios":"levelo://app?vid=eedf0c2a-a7d8-44a6-ab26-4773ad682f4a"},"vehicle_type_id":"4","last_reported":1731402582,"current_range_meters":28000,"station_id":"ce4bgs12rcd13ifvqcag","pricing_plan_id":"cebpf4jnsgd1na2vs0mg"},{"bike_id":"fe96562b-5601-498a-af19-9d68eb44f05f","system_id":"levelo_inurba_marseille","lat":43.32545,"lon":5.41436,"is_reserved":false,"is_disabled":false,"rental_uris":{"android":"levelo://app?vid=fe96562b-5601-498a-af19-9d68eb44f05f","ios":"levelo://app?vid=fe96562b-5601-498a-af19-9d68eb44f05f"},"vehicle_type_id":"4","last_reported":1731402582,"current_range_meters":38800,"station_id":"ce4bhq12rcd13ifvqhhg","pricing_plan_id":"cebpf4jnsgd1na2vs0mg"},{"bike_id":"51e4106b-ae7d-4ceb-b87d-0c30ad9b3b74","system_id":"levelo_inurba_marseille","lat":43.33618,"lon":5.41032,"is_reserved":false,"is_disabled":false,"rental_uris":{"android":"levelo://app?vid=51e4106b-ae7d-4ceb-b87d-0c30ad9b3b74","ios":"levelo://app?vid=51e4106b-ae7d-4ceb-b87d-0c30ad9b3b74"},"vehicle_type_id":"4","last_reported":1731402582,"current_range_meters":38400,"station_id":"ce4bhqh2rcd13ifvqhmg","pricing_plan_id":"cebpf4jnsgd1na2vs0mg"},{"bike_id":"34c4e5fd-d09b-481c-889a-20f2df0a03b0","system_id":"levelo_inurba_marseille","lat":43.28156,"lon":5.42642,"is_reserved":false,"is_disabled":false,"rental_uris":{"android":"levelo://app?vid=34c4e5fd-d09b-481c-889a-20f2df0a03b0","ios":"levelo://app?vid=34c4e5fd-d09b-481c-889a-20f2df0a03b0"},"vehicle_type_id":"4","last_reported":1731402582,"current_range_meters":38000,"station_id":"ce4bhnh2rcd13ifvqgug","pricing_plan_id":"cebpf4jnsgd1na2vs0mg"},{"bike_id":"e4b422ee-c56c-42a5-8df2-24e8624e43d7","system_id":"levelo_inurba_marseille","lat":43.25936,"lon":5.40907,"is_reserved":false,"is_disabled":false,"rental_uris":{"android":"levelo://app?vid=e4b422ee-c56c-42a5-8df2-24e8624e43d7","ios":"levelo://app?vid=e4b422ee-c56c-42a5-8df2-24e8624e43d7"},"vehicle_type_id":"4","last_reported":1731402582,"current_range_meters":36000,"station_id":"ce4bhm92rcd13ifvqglg","pricing_plan_id":"cebpf4jnsgd1na2vs0mg"},{"bike_id":"d33ad2a6-0433-4690-8668-63ffec3b0898","system_id":"levelo_inurba_marseille","lat":43.30902,"lon":5.36851,"is_reserved":false,"is_disabled":false,"rental_uris":{"android":"levelo://app?vid=d33ad2a6-0433-4690-8668-63ffec3b0898","ios":"levelo://app?vid=d33ad2a6-0433-4690-8668-63ffec3b0898"},"vehicle_type_id":"4","last_reported":1731402582,"current_range_meters":38800,"station_id":"ce4bgn92rcd13ifvqbvg","pricing_plan_id":"cebpf4jnsgd1na2vs0mg"},{"bike_id":"cf99cb58-44fe-4f90-853b-d980ae4d84fe","system_id":"levelo_inurba_marseille","lat":43.30453,"lon":5.37909,"is_reserved":false,"is_disabled":false,"rental_uris":{"android":"levelo://app?vid=cf99cb58-44fe-4f90-853b-d980ae4d84fe","ios":"levelo://app?vid=cf99cb58-44fe-4f90-853b-d980ae4d84fe"},"vehicle_type_id":"4","last_reported":1731402582,"current_range_meters":29600,"station_id":"ce4bgup2rcd13ifvqcn0","pricing_plan_id":"cebpf4jnsgd1na2vs0mg"},{"bike_id":"3a2e7f8c-0ea4-42a9-b178-b32d95d3cdcf","system_id":"levelo_inurba_marseille","lat":43.3095,"lon":5.39034,"is_reserved":false,"is_disabled":false,"rental_uris":{"android":"levelo://app?vid=3a2e7f8c-0ea4-42a9-b178-b32d95d3cdcf","ios":"levelo://app?vid=3a2e7f8c-0ea4-42a9-b178-b32d95d3cdcf"},"vehicle_type_id":"4","last_reported":1731402582,"current_range_meters":23200,"station_id":"ce4bgup2rcd13ifvqco0","pricing_plan_id":"cebpf4jnsgd1na2vs0mg"},{"bike_id":"b6649fd5-6529-4736-962c-37237ff042d4","system_id":"levelo_inurba_marseille","lat":43.26564,"lon":5.38999,"is_reserved":false,"is_disabled":false,"rental_uris":{"android":"levelo://app?vid=b6649fd5-6529-4736-962c-37237ff042d4","ios":"levelo://app?vid=b6649fd5-6529-4736-962c-37237ff042d4"},"vehicle_type_id":"4","last_reported":1731402582,"current_range_meters":36800,"station_id":"ce4bhe12rcd13ifvqf30","pricing_plan_id":"cebpf4jnsgd1na2vs0mg"},{"bike_id":"c5fbd54c-1338-4a6e-a2bb-558c73be5fd0","system_id":"levelo_inurba_marseille","lat":43.28979,"lon":5.37832,"is_reserved":false,"is_disabled":false,"rental_uris":{"android":"levelo://app?vid=c5fbd54c-1338-4a6e-a2bb-558c73be5fd0","ios":"levelo://app?vid=c5fbd54c-1338-4a6e-a2bb-558c73be5fd0"},"vehicle_type_id":"4","last_reported":1731402582,"current_range_meters":32400,"station_id":"ce4bh9p2rcd13ifvqed0","pricing_plan_id":"cebpf4jnsgd1na2vs0mg"},{"bike_id":"6be11af8-ae51-43fa-b143-e3077cde111f","system_id":"levelo_inurba_marseille","lat":43.26957,"lon":5.38627,"is_reserved":false,"is_disabled":false,"rental_uris":{"android":"levelo://app?vid=6be11af8-ae51-43fa-b143-e3077cde111f","ios":"levelo://app?vid=6be11af8-ae51-43fa-b143-e3077cde111f"},"vehicle_type_id":"4","last_reported":1731402582,"current_range_meters":38800,"station_id":"ce4bhh92rcd13ifvqfh0","pricing_plan_id":"cebpf4jnsgd1na2vs0mg"},{"bike_id":"1d75d4ce-da07-47a0-83ad-027ef32b7b53","system_id":"levelo_inurba_marseille","lat":43.27406,"lon":5.38955,"is_reserved":false,"is_disabled":false,"rental_uris":{"android":"levelo://app?vid=1d75d4ce-da07-47a0-83ad-027ef32b7b53","ios":"levelo://app?vid=1d75d4ce-da07-47a0-83ad-027ef32b7b53"},"vehicle_type_id":"4","last_reported":1731402582,"current_range_meters":16000,"station_id":"","pricing_plan_id":"cebpf4jnsgd1na2vs0mg"},{"bike_id":"0a51ff2e-475b-4b17-8879-98ed5c095c5d","system_id":"levelo_inurba_marseille","lat":43.29292,"lon":5.37465,"is_reserved":false,"is_disabled":false,"rental_uris":{"android":"levelo://app?vid=0a51ff2e-475b-4b17-8879-98ed5c095c5d","ios":"levelo://app?vid=0a51ff2e-475b-4b17-8879-98ed5c095c5d"},"vehicle_type_id":"4","last_reported":1731402582,"current_range_meters":35200,"station_id":"ce4bgi12rcd13ifvqb70","pricing_plan_id":"cebpf4jnsgd1na2vs0mg"},{"bike_id":"679f1fda-66e8-4f01-9056-cdfa47220d96","system_id":"levelo_inurba_marseille","lat":43.23152,"lon":5.4372,"is_reserved":false,"is_disabled":false,"rental_uris":{"android":"levelo://app?vid=679f1fda-66e8-4f01-9056-cdfa47220d96","ios":"levelo://app?vid=679f1fda-66e8-4f01-9056-cdfa47220d96"},"vehicle_type_id":"4","last_reported":1731402582,"current_range_meters":8000,"station_id":"ce4bhmp2rcd13ifvqgog","pricing_plan_id":"cebpf4jnsgd1na2vs0mg"},{"bike_id":"0b006fb3-804d-41b0-9b56-41fc325ad39f","system_id":"levelo_inurba_marseille","lat":43.27488,"lon":5.42456,"is_reserved":false,"is_disabled":false,"rental_uris":{"android":"levelo://app?vid=0b006fb3-804d-41b0-9b56-41fc325ad39f","ios":"levelo://app?vid=0b006fb3-804d-41b0-9b56-41fc325ad39f"},"vehicle_type_id":"4","last_reported":1731402582,"current_range_meters":38800,"station_id":"ce4bhn92rcd13ifvqgrg","pricing_plan_id":"cebpf4jnsgd1na2vs0mg"},{"bike_id":"d881a04b-7487-46c8-bcc3-e9689650446f","system_id":"levelo_inurba_marseille","lat":43.26191,"lon":5.3745,"is_reserved":false,"is_disabled":false,"rental_uris":{"android":"levelo://app?vid=d881a04b-7487-46c8-bcc3-e9689650446f","ios":"levelo://app?vid=d881a04b-7487-46c8-bcc3-e9689650446f"},"vehicle_type_id":"4","last_reported":1731402582,"current_range_meters":37600,"station_id":"ce4bhgp2rcd13ifvqfc0","pricing_plan_id":"cebpf4jnsgd1na2vs0mg"},{"bike_id":"14f63860-a6d5-45f4-b937-f276623be314","system_id":"levelo_inurba_marseille","lat":43.29589,"lon":5.36734,"is_reserved":false,"is_disabled":false,"rental_uris":{"android":"levelo://app?vid=14f63860-a6d5-45f4-b937-f276623be314","ios":"levelo://app?vid=14f63860-a6d5-45f4-b937-f276623be314"},"vehicle_type_id":"4","last_reported":1731402582,"current_range_meters":29600,"station_id":"ce4bgph2rcd13ifvqc2g","pricing_plan_id":"cebpf4jnsgd1na2vs0mg"},{"bike_id":"4be7edbe-5982-45b2-a3b1-2e4ca0a06526","system_id":"levelo_inurba_marseille","lat":43.24072,"lon":5.37754,"is_reserved":false,"is_disabled":false,"rental_uris":{"android":"levelo://app?vid=4be7edbe-5982-45b2-a3b1-2e4ca0a06526","ios":"levelo://app?vid=4be7edbe-5982-45b2-a3b1-2e4ca0a06526"},"vehicle_type_id":"4","last_reported":1731402582,"current_range_meters":39200,"station_id":"ce4bhnp2rcd13ifvqgvg","pricing_plan_id":"cebpf4jnsgd1na2vs0mg"},{"bike_id":"36eeb58a-a7f6-473b-bbae-38abfebe226c","system_id":"levelo_inurba_marseille","lat":43.3092,"lon":5.36847,"is_reserved":false,"is_disabled":false,"rental_uris":{"android":"levelo://app?vid=36eeb58a-a7f6-473b-bbae-38abfebe226c","ios":"levelo://app?vid=36eeb58a-a7f6-473b-bbae-38abfebe226c"},"vehicle_type_id":"4","last_reported":1731402582,"current_range_meters":26800,"station_id":"ce4bgn92rcd13ifvqbvg","pricing_plan_id":"cebpf4jnsgd1na2vs0mg"},{"bike_id":"550f848b-ada4-405a-a9af-7b11afaa578c","system_id":"levelo_inurba_marseille","lat":43.25938,"lon":5.40896,"is_reserved":false,"is_disabled":false,"rental_uris":{"android":"levelo://app?vid=550f848b-ada4-405a-a9af-7b11afaa578c","ios":"levelo://app?vid=550f848b-ada4-405a-a9af-7b11afaa578c"},"vehicle_type_id":"4","last_reported":1731402582,"current_range_meters":34000,"station_id":"ce4bhm92rcd13ifvqglg","pricing_plan_id":"cebpf4jnsgd1na2vs0mg"},{"bike_id":"3a8f3d4b-aa28-428e-afd1-fac9ce82cb9e","system_id":"levelo_inurba_marseille","lat":43.2705,"lon":5.4026,"is_reserved":false,"is_disabled":false,"rental_uris":{"android":"levelo://app?vid=3a8f3d4b-aa28-428e-afd1-fac9ce82cb9e","ios":"levelo://app?vid=3a8f3d4b-aa28-428e-afd1-fac9ce82cb9e"},"vehicle_type_id":"4","last_reported":1731402582,"current_range_meters":33200,"station_id":"ce4bhk92rcd13ifvqgc0","pricing_plan_id":"cebpf4jnsgd1na2vs0mg"},{"bike_id":"8fa421b0-0fd3-44f0-8b0e-2347348fad2e","system_id":"levelo_inurba_marseille","lat":43.2465,"lon":5.38891,"is_reserved":false,"is_disabled":false,"rental_uris":{"android":"levelo://app?vid=8fa421b0-0fd3-44f0-8b0e-2347348fad2e","ios":"levelo://app?vid=8fa421b0-0fd3-44f0-8b0e-2347348fad2e"},"vehicle_type_id":"4","last_reported":1731402582,"current_range_meters":39200,"station_id":"ce4bhg12rcd13ifvqf60","pricing_plan_id":"cebpf4jnsgd1na2vs0mg"},{"bike_id":"7ff6ef98-537e-4cc4-9ee9-d4490c062e3a","system_id":"levelo_inurba_marseille","lat":43.30597,"lon":5.3934,"is_reserved":false,"is_disabled":false,"rental_uris":{"android":"levelo://app?vid=7ff6ef98-537e-4cc4-9ee9-d4490c062e3a","ios":"levelo://app?vid=7ff6ef98-537e-4cc4-9ee9-d4490c062e3a"},"vehicle_type_id":"4","last_reported":1731402582,"current_range_meters":36400,"station_id":"ce4bh0p2rcd13ifvqd80","pricing_plan_id":"cebpf4jnsgd1na2vs0mg"},{"bike_id":"348da5c4-c4fe-4df0-98e3-b5f3b4a4d069","system_id":"levelo_inurba_marseille","lat":43.29626,"lon":5.37171,"is_reserved":false,"is_disabled":false,"rental_uris":{"android":"levelo://app?vid=348da5c4-c4fe-4df0-98e3-b5f3b4a4d069","ios":"levelo://app?vid=348da5c4-c4fe-4df0-98e3-b5f3b4a4d069"},"vehicle_type_id":"4","last_reported":1731402582,"current_range_meters":38000,"station_id":"ce4bgnh2rcd13ifvqc0g","pricing_plan_id":"cebpf4jnsgd1na2vs0mg"},{"bike_id":"c2cda817-43f0-435f-bd1d-0ba8e14369aa","system_id":"levelo_inurba_marseille","lat":43.24075,"lon":5.37761,"is_reserved":false,"is_disabled":false,"rental_uris":{"android":"levelo://app?vid=c2cda817-43f0-435f-bd1d-0ba8e14369aa","ios":"levelo://app?vid=c2cda817-43f0-435f-bd1d-0ba8e14369aa"},"vehicle_type_id":"4","last_reported":1731402582,"current_range_meters":35600,"station_id":"ce4bhnp2rcd13ifvqgvg","pricing_plan_id":"cebpf4jnsgd1na2vs0mg"},{"bike_id":"2aa34768-e9fe-462a-ac91-d1bb644b1438","system_id":"levelo_inurba_marseille","lat":43.29689,"lon":5.37298,"is_reserved":false,"is_disabled":false,"rental_uris":{"android":"levelo://app?vid=2aa34768-e9fe-462a-ac91-d1bb644b1438","ios":"levelo://app?vid=2aa34768-e9fe-462a-ac91-d1bb644b1438"},"vehicle_type_id":"4","last_reported":1731402582,"current_range_meters":37600,"station_id":"ce4bgk12rcd13ifvqbj0","pricing_plan_id":"cebpf4jnsgd1na2vs0mg"},{"bike_id":"db35f45e-1a73-42fd-876e-0a145e339ca7","system_id":"levelo_inurba_marseille","lat":43.24181,"lon":5.39729,"is_reserved":false,"is_disabled":false,"rental_uris":{"android":"levelo://app?vid=db35f45e-1a73-42fd-876e-0a145e339ca7","ios":"levelo://app?vid=db35f45e-1a73-42fd-876e-0a145e339ca7"},"vehicle_type_id":"4","last_reported":1731402582,"current_range_meters":34000,"station_id":"ce4bhn12rcd13ifvqgpg","pricing_plan_id":"cebpf4jnsgd1na2vs0mg"},{"bike_id":"9c9e0c5a-2fcf-4a2b-a3ec-94e915bc3bba","system_id":"levelo_inurba_marseille","lat":43.305493,"lon":5.36701,"is_reserved":false,"is_disabled":false,"rental_uris":{"android":"levelo://app?vid=9c9e0c5a-2fcf-4a2b-a3ec-94e915bc3bba","ios":"levelo://app?vid=9c9e0c5a-2fcf-4a2b-a3ec-94e915bc3bba"},"vehicle_type_id":"4","last_reported":1731402582,"current_range_meters":35200,"station_id":"ce4bgrp2rcd13ifvqc9g","pricing_plan_id":"cebpf4jnsgd1na2vs0mg"},{"bike_id":"da885111-535b-4329-b013-a1bab5dd6158","system_id":"levelo_inurba_marseille","lat":43.24111,"lon":5.37791,"is_reserved":false,"is_disabled":false,"rental_uris":{"android":"levelo://app?vid=da885111-535b-4329-b013-a1bab5dd6158","ios":"levelo://app?vid=da885111-535b-4329-b013-a1bab5dd6158"},"vehicle_type_id":"4","last_reported":1731402582,"current_range_meters":36000,"station_id":"ce4bhnp2rcd13ifvqgvg","pricing_plan_id":"cebpf4jnsgd1na2vs0mg"},{"bike_id":"cd624a46-7c22-4a05-8916-495388cc6377","system_id":"levelo_inurba_marseille","lat":43.30914,"lon":5.36852,"is_reserved":false,"is_disabled":false,"rental_uris":{"android":"levelo://app?vid=cd624a46-7c22-4a05-8916-495388cc6377","ios":"levelo://app?vid=cd624a46-7c22-4a05-8916-495388cc6377"},"vehicle_type_id":"4","last_reported":1731402582,"current_range_meters":33200,"station_id":"ce4bgn92rcd13ifvqbvg","pricing_plan_id":"cebpf4jnsgd1na2vs0mg"},{"bike_id":"a981cddb-35b3-4b69-a3bf-cfde7e96370a","system_id":"levelo_inurba_marseille","lat":43.2315,"lon":5.43716,"is_reserved":false,"is_disabled":false,"rental_uris":{"android":"levelo://app?vid=a981cddb-35b3-4b69-a3bf-cfde7e96370a","ios":"levelo://app?vid=a981cddb-35b3-4b69-a3bf-cfde7e96370a"},"vehicle_type_id":"4","last_reported":1731402582,"current_range_meters":40000,"station_id":"ce4bhmp2rcd13ifvqgog","pricing_plan_id":"cebpf4jnsgd1na2vs0mg"},{"bike_id":"9b418ee2-e5cb-47ca-a8a0-5edbaa5c3582","system_id":"levelo_inurba_marseille","lat":43.29315,"lon":5.3717,"is_reserved":false,"is_disabled":false,"rental_uris":{"android":"levelo://app?vid=9b418ee2-e5cb-47ca-a8a0-5edbaa5c3582","ios":"levelo://app?vid=9b418ee2-e5cb-47ca-a8a0-5edbaa5c3582"},"vehicle_type_id":"4","last_reported":1731402582,"current_range_meters":36800,"station_id":"ce4bgh92rcd13ifvqb40","pricing_plan_id":"cebpf4jnsgd1na2vs0mg"},{"bike_id":"f7ac3658-e4f8-45b5-8cf5-25d1bf4fe733","system_id":"levelo_inurba_marseille","lat":43.30102,"lon":5.39073,"is_reserved":false,"is_disabled":false,"rental_uris":{"android":"levelo://app?vid=f7ac3658-e4f8-45b5-8cf5-25d1bf4fe733","ios":"levelo://app?vid=f7ac3658-e4f8-45b5-8cf5-25d1bf4fe733"},"vehicle_type_id":"4","last_reported":1731402582,"current_range_meters":8400,"station_id":"ce4bh192rcd13ifvqdb0","pricing_plan_id":"cebpf4jnsgd1na2vs0mg"},{"bike_id":"0e2a69ec-b7ef-44c0-a22a-09843c03940d","system_id":"levelo_inurba_marseille","lat":43.26957,"lon":5.38634,"is_reserved":false,"is_disabled":false,"rental_uris":{"android":"levelo://app?vid=0e2a69ec-b7ef-44c0-a22a-09843c03940d","ios":"levelo://app?vid=0e2a69ec-b7ef-44c0-a22a-09843c03940d"},"vehicle_type_id":"4","last_reported":1731402582,"current_range_meters":18000,"station_id":"ce4bhh92rcd13ifvqfh0","pricing_plan_id":"cebpf4jnsgd1na2vs0mg"},{"bike_id":"9af40b21-f36c-4a2a-bff5-adf2b9837795","system_id":"levelo_inurba_marseille","lat":43.31366,"lon":5.36706,"is_reserved":false,"is_disabled":false,"rental_uris":{"android":"levelo://app?vid=9af40b21-f36c-4a2a-bff5-adf2b9837795","ios":"levelo://app?vid=9af40b21-f36c-4a2a-bff5-adf2b9837795"},"vehicle_type_id":"4","last_reported":1731402582,"current_range_meters":10000,"station_id":"ce4bgr92rcd13ifvqc6g","pricing_plan_id":"cebpf4jnsgd1na2vs0mg"},{"bike_id":"181fa628-fd06-4339-88f4-5d411c857699","system_id":"levelo_inurba_marseille","lat":43.270698,"lon":5.422855,"is_reserved":false,"is_disabled":false,"rental_uris":{"android":"levelo://app?vid=181fa628-fd06-4339-88f4-5d411c857699","ios":"levelo://app?vid=181fa628-fd06-4339-88f4-5d411c857699"},"vehicle_type_id":"4","last_reported":1731402582,"current_range_meters":32400,"station_id":"ce4bhk92rcd13ifvqgb0","pricing_plan_id":"cebpf4jnsgd1na2vs0mg"},{"bike_id":"24d9d586-8c32-4471-a664-bc6edf687549","system_id":"levelo_inurba_marseille","lat":43.26953,"lon":5.38632,"is_reserved":false,"is_disabled":false,"rental_uris":{"android":"levelo://app?vid=24d9d586-8c32-4471-a664-bc6edf687549","ios":"levelo://app?vid=24d9d586-8c32-4471-a664-bc6edf687549"},"vehicle_type_id":"4","last_reported":1731402582,"current_range_meters":31200,"station_id":"ce4bhh92rcd13ifvqfh0","pricing_plan_id":"cebpf4jnsgd1na2vs0mg"},{"bike_id":"66e87406-2b0a-40a2-ac3f-a3194ab98cae","system_id":"levelo_inurba_marseille","lat":43.29927,"lon":5.36549,"is_reserved":false,"is_disabled":false,"rental_uris":{"android":"levelo://app?vid=66e87406-2b0a-40a2-ac3f-a3194ab98cae","ios":"levelo://app?vid=66e87406-2b0a-40a2-ac3f-a3194ab98cae"},"vehicle_type_id":"4","last_reported":1731402582,"current_range_meters":18800,"station_id":"ce4bgm92rcd13ifvqbr0","pricing_plan_id":"cebpf4jnsgd1na2vs0mg"},{"bike_id":"f57e5e8f-0f39-4d06-aee6-2b65851c9097","system_id":"levelo_inurba_marseille","lat":43.33027,"lon":5.39045,"is_reserved":false,"is_disabled":false,"rental_uris":{"android":"levelo://app?vid=f57e5e8f-0f39-4d06-aee6-2b65851c9097","ios":"levelo://app?vid=f57e5e8f-0f39-4d06-aee6-2b65851c9097"},"vehicle_type_id":"4","last_reported":1731402582,"current_range_meters":19600,"station_id":"ce4bhr92rcd13ifvqhrg","pricing_plan_id":"cebpf4jnsgd1na2vs0mg"},{"bike_id":"02765f10-6779-4697-88bc-357ee78c819a","system_id":"levelo_inurba_marseille","lat":43.28422,"lon":5.3499,"is_reserved":false,"is_disabled":false,"rental_uris":{"android":"levelo://app?vid=02765f10-6779-4697-88bc-357ee78c819a","ios":"levelo://app?vid=02765f10-6779-4697-88bc-357ee78c819a"},"vehicle_type_id":"4","last_reported":1731402582,"current_range_meters":31200,"station_id":"ce4bhbh2rcd13ifvqepg","pricing_plan_id":"cebpf4jnsgd1na2vs0mg"},{"bike_id":"bd5d2367-1e38-44d1-9328-f8a27f959ddf","system_id":"levelo_inurba_marseille","lat":43.30539,"lon":5.36532,"is_reserved":false,"is_disabled":false,"rental_uris":{"android":"levelo://app?vid=bd5d2367-1e38-44d1-9328-f8a27f959ddf","ios":"levelo://app?vid=bd5d2367-1e38-44d1-9328-f8a27f959ddf"},"vehicle_type_id":"4","last_reported":1731402582,"current_range_meters":33600,"station_id":"ce4bgs12rcd13ifvqcag","pricing_plan_id":"cebpf4jnsgd1na2vs0mg"},{"bike_id":"e0dd5ad8-53cf-4379-b894-58b137568b15","system_id":"levelo_inurba_marseille","lat":43.22925,"lon":5.3538,"is_reserved":false,"is_disabled":false,"rental_uris":{"android":"levelo://app?vid=e0dd5ad8-53cf-4379-b894-58b137568b15","ios":"levelo://app?vid=e0dd5ad8-53cf-4379-b894-58b137568b15"},"vehicle_type_id":"4","last_reported":1731402582,"current_range_meters":36800,"station_id":"cpo3532slgdg3j2ikp40","pricing_plan_id":"cebpf4jnsgd1na2vs0mg"},{"bike_id":"e6cb4a02-eadb-4fff-bc4d-b987f0341f37","system_id":"levelo_inurba_marseille","lat":43.2848,"lon":5.38407,"is_reserved":false,"is_disabled":false,"rental_uris":{"android":"levelo://app?vid=e6cb4a02-eadb-4fff-bc4d-b987f0341f37","ios":"levelo://app?vid=e6cb4a02-eadb-4fff-bc4d-b987f0341f37"},"vehicle_type_id":"4","last_reported":1731402582,"current_range_meters":24400,"station_id":"ce4bh512rcd13ifvqe3g","pricing_plan_id":"cebpf4jnsgd1na2vs0mg"},{"bike_id":"0ff30c97-d032-4bd2-b806-0ba1b23f1458","system_id":"levelo_inurba_marseille","lat":43.29896,"lon":5.43662,"is_reserved":false,"is_disabled":false,"rental_uris":{"android":"levelo://app?vid=0ff30c97-d032-4bd2-b806-0ba1b23f1458","ios":"levelo://app?vid=0ff30c97-d032-4bd2-b806-0ba1b23f1458"},"vehicle_type_id":"4","last_reported":1731402582,"current_range_meters":38800,"station_id":"ce4bhpp2rcd13ifvqhfg","pricing_plan_id":"cebpf4jnsgd1na2vs0mg"},{"bike_id":"81bbffab-2294-4802-a46f-42950b37b5d6","system_id":"levelo_inurba_marseille","lat":43.239549,"lon":5.366278,"is_reserved":false,"is_disabled":false,"rental_uris":{"android":"levelo://app?vid=81bbffab-2294-4802-a46f-42950b37b5d6","ios":"levelo://app?vid=81bbffab-2294-4802-a46f-42950b37b5d6"},"vehicle_type_id":"4","last_reported":1731402582,"current_range_meters":37600,"station_id":"ce4bhi12rcd13ifvqfp0","pricing_plan_id":"cebpf4jnsgd1na2vs0mg"},{"bike_id":"6602e21d-774a-455a-ab04-dfbbf03a4dce","system_id":"levelo_inurba_marseille","lat":43.25581,"lon":5.38237,"is_reserved":false,"is_disabled":false,"rental_uris":{"android":"levelo://app?vid=6602e21d-774a-455a-ab04-dfbbf03a4dce","ios":"levelo://app?vid=6602e21d-774a-455a-ab04-dfbbf03a4dce"},"vehicle_type_id":"4","last_reported":1731402582,"current_range_meters":33600,"station_id":"ce4bhih2rcd13ifvqfs0","pricing_plan_id":"cebpf4jnsgd1na2vs0mg"},{"bike_id":"ad045db2-503d-4081-b02f-af492ea16c38","system_id":"levelo_inurba_marseille","lat":43.27973,"lon":5.38747,"is_reserved":false,"is_disabled":false,"rental_uris":{"android":"levelo://app?vid=ad045db2-503d-4081-b02f-af492ea16c38","ios":"levelo://app?vid=ad045db2-503d-4081-b02f-af492ea16c38"},"vehicle_type_id":"4","last_reported":1731402582,"current_range_meters":38000,"station_id":"ce4bhg12rcd13ifvqf80","pricing_plan_id":"cebpf4jnsgd1na2vs0mg"},{"bike_id":"0e932888-aaad-46e5-a564-bfbc93c45cab","system_id":"levelo_inurba_marseille","lat":43.337444,"lon":5.374475,"is_reserved":false,"is_disabled":false,"rental_uris":{"android":"levelo://app?vid=0e932888-aaad-46e5-a564-bfbc93c45cab","ios":"levelo://app?vid=0e932888-aaad-46e5-a564-bfbc93c45cab"},"vehicle_type_id":"4","last_reported":1731402582,"current_range_meters":19200,"station_id":"","pricing_plan_id":"cebpf4jnsgd1na2vs0mg"},{"bike_id":"00e272f2-84fd-4928-b4f9-6dcf50a03a04","system_id":"levelo_inurba_marseille","lat":43.29621,"lon":5.37164,"is_reserved":false,"is_disabled":false,"rental_uris":{"android":"levelo://app?vid=00e272f2-84fd-4928-b4f9-6dcf50a03a04","ios":"levelo://app?vid=00e272f2-84fd-4928-b4f9-6dcf50a03a04"},"vehicle_type_id":"4","last_reported":1731402582,"current_range_meters":28400,"station_id":"ce4bgnh2rcd13ifvqc0g","pricing_plan_id":"cebpf4jnsgd1na2vs0mg"},{"bike_id":"71b63164-c3d8-426b-ace8-eec8b1a7f67a","system_id":"levelo_inurba_marseille","lat":43.23151,"lon":5.43724,"is_reserved":false,"is_disabled":false,"rental_uris":{"android":"levelo://app?vid=71b63164-c3d8-426b-ace8-eec8b1a7f67a","ios":"levelo://app?vid=71b63164-c3d8-426b-ace8-eec8b1a7f67a"},"vehicle_type_id":"4","last_reported":1731402582,"current_range_meters":16000,"station_id":"ce4bhmp2rcd13ifvqgog","pricing_plan_id":"cebpf4jnsgd1na2vs0mg"},{"bike_id":"32bba11a-37a7-4112-94c2-a5dac8ba3e67","system_id":"levelo_inurba_marseille","lat":43.29425,"lon":5.397622,"is_reserved":false,"is_disabled":false,"rental_uris":{"android":"levelo://app?vid=32bba11a-37a7-4112-94c2-a5dac8ba3e67","ios":"levelo://app?vid=32bba11a-37a7-4112-94c2-a5dac8ba3e67"},"vehicle_type_id":"4","last_reported":1731402582,"current_range_meters":29600,"station_id":"ce4bh3h2rcd13ifvqdo0","pricing_plan_id":"cebpf4jnsgd1na2vs0mg"},{"bike_id":"9627e088-e51f-4725-aa4b-03686fa877e5","system_id":"levelo_inurba_marseille","lat":43.269507,"lon":5.386443,"is_reserved":false,"is_disabled":false,"rental_uris":{"android":"levelo://app?vid=9627e088-e51f-4725-aa4b-03686fa877e5","ios":"levelo://app?vid=9627e088-e51f-4725-aa4b-03686fa877e5"},"vehicle_type_id":"4","last_reported":1731402582,"current_range_meters":4800,"station_id":"ce4bhh92rcd13ifvqfh0","pricing_plan_id":"cebpf4jnsgd1na2vs0mg"},{"bike_id":"2782d62c-5db7-48b5-b1c9-aae6d82c7531","system_id":"levelo_inurba_marseille","lat":43.31997,"lon":5.38147,"is_reserved":false,"is_disabled":false,"rental_uris":{"android":"levelo://app?vid=2782d62c-5db7-48b5-b1c9-aae6d82c7531","ios":"levelo://app?vid=2782d62c-5db7-48b5-b1c9-aae6d82c7531"},"vehicle_type_id":"4","last_reported":1731402582,"current_range_meters":38000,"station_id":"ce4bhr12rcd13ifvqhpg","pricing_plan_id":"cebpf4jnsgd1na2vs0mg"},{"bike_id":"d1bc247d-59f1-4f79-b760-0b5489bee37e","system_id":"levelo_inurba_marseille","lat":43.25723,"lon":5.41099,"is_reserved":false,"is_disabled":false,"rental_uris":{"android":"levelo://app?vid=d1bc247d-59f1-4f79-b760-0b5489bee37e","ios":"levelo://app?vid=d1bc247d-59f1-4f79-b760-0b5489bee37e"},"vehicle_type_id":"4","last_reported":1731402582,"current_range_meters":28000,"station_id":"ce4bhkp2rcd13ifvqgd0","pricing_plan_id":"cebpf4jnsgd1na2vs0mg"},{"bike_id":"3c599d78-96ef-467f-aad7-b2108f28d38a","system_id":"levelo_inurba_marseille","lat":43.26956,"lon":5.38631,"is_reserved":false,"is_disabled":false,"rental_uris":{"android":"levelo://app?vid=3c599d78-96ef-467f-aad7-b2108f28d38a","ios":"levelo://app?vid=3c599d78-96ef-467f-aad7-b2108f28d38a"},"vehicle_type_id":"4","last_reported":1731402582,"current_range_meters":31200,"station_id":"ce4bhh92rcd13ifvqfh0","pricing_plan_id":"cebpf4jnsgd1na2vs0mg"},{"bike_id":"737da3e9-6241-4705-99e9-ca27d529ee45","system_id":"levelo_inurba_marseille","lat":43.28721,"lon":5.37948,"is_reserved":false,"is_disabled":false,"rental_uris":{"android":"levelo://app?vid=737da3e9-6241-4705-99e9-ca27d529ee45","ios":"levelo://app?vid=737da3e9-6241-4705-99e9-ca27d529ee45"},"vehicle_type_id":"4","last_reported":1731402582,"current_range_meters":36800,"station_id":"ce4bh9p2rcd13ifvqec0","pricing_plan_id":"cebpf4jnsgd1na2vs0mg"},{"bike_id":"9181c5f3-2257-401d-b99d-a63e014ee85d","system_id":"levelo_inurba_marseille","lat":43.25,"lon":5.38924,"is_reserved":false,"is_disabled":false,"rental_uris":{"android":"levelo://app?vid=9181c5f3-2257-401d-b99d-a63e014ee85d","ios":"levelo://app?vid=9181c5f3-2257-401d-b99d-a63e014ee85d"},"vehicle_type_id":"4","last_reported":1731402582,"current_range_meters":25200,"station_id":"ce4bhgp2rcd13ifvqfd0","pricing_plan_id":"cebpf4jnsgd1na2vs0mg"},{"bike_id":"ca470591-2acf-4dcf-8a9b-56688197c9a2","system_id":"levelo_inurba_marseille","lat":43.28659,"lon":5.3635,"is_reserved":false,"is_disabled":false,"rental_uris":{"android":"levelo://app?vid=ca470591-2acf-4dcf-8a9b-56688197c9a2","ios":"levelo://app?vid=ca470591-2acf-4dcf-8a9b-56688197c9a2"},"vehicle_type_id":"4","last_reported":1731402582,"current_range_meters":32400,"station_id":"ce4bhah2rcd13ifvqej0","pricing_plan_id":"cebpf4jnsgd1na2vs0mg"},{"bike_id":"c82de6bc-afc0-4dff-a091-f29850463deb","system_id":"levelo_inurba_marseille","lat":43.33603,"lon":5.41031,"is_reserved":false,"is_disabled":false,"rental_uris":{"android":"levelo://app?vid=c82de6bc-afc0-4dff-a091-f29850463deb","ios":"levelo://app?vid=c82de6bc-afc0-4dff-a091-f29850463deb"},"vehicle_type_id":"4","last_reported":1731402582,"current_range_meters":38000,"station_id":"ce4bhqh2rcd13ifvqhmg","pricing_plan_id":"cebpf4jnsgd1na2vs0mg"},{"bike_id":"79c87aa0-4d12-43b2-98f2-6522e5bbbf10","system_id":"levelo_inurba_marseille","lat":43.28354,"lon":5.38104,"is_reserved":false,"is_disabled":false,"rental_uris":{"android":"levelo://app?vid=79c87aa0-4d12-43b2-98f2-6522e5bbbf10","ios":"levelo://app?vid=79c87aa0-4d12-43b2-98f2-6522e5bbbf10"},"vehicle_type_id":"4","last_reported":1731402582,"current_range_meters":38800,"station_id":"ce4bh412rcd13ifvqdr0","pricing_plan_id":"cebpf4jnsgd1na2vs0mg"},{"bike_id":"a4d57b56-88aa-4467-9897-70b3255c4814","system_id":"levelo_inurba_marseille","lat":43.27073,"lon":5.42274,"is_reserved":false,"is_disabled":false,"rental_uris":{"android":"levelo://app?vid=a4d57b56-88aa-4467-9897-70b3255c4814","ios":"levelo://app?vid=a4d57b56-88aa-4467-9897-70b3255c4814"},"vehicle_type_id":"4","last_reported":1731402582,"current_range_meters":31200,"station_id":"ce4bhk92rcd13ifvqgb0","pricing_plan_id":"cebpf4jnsgd1na2vs0mg"},{"bike_id":"c219d8b9-ab04-46a3-b99f-56c7947b9a58","system_id":"levelo_inurba_marseille","lat":43.29196,"lon":5.35814,"is_reserved":false,"is_disabled":false,"rental_uris":{"android":"levelo://app?vid=c219d8b9-ab04-46a3-b99f-56c7947b9a58","ios":"levelo://app?vid=c219d8b9-ab04-46a3-b99f-56c7947b9a58"},"vehicle_type_id":"4","last_reported":1731402582,"current_range_meters":9200,"station_id":"ce4bhb12rcd13ifvqel0","pricing_plan_id":"cebpf4jnsgd1na2vs0mg"},{"bike_id":"9807afc9-8358-4ed0-b943-7dad1d26b814","system_id":"levelo_inurba_marseille","lat":43.33613,"lon":5.41034,"is_reserved":false,"is_disabled":false,"rental_uris":{"android":"levelo://app?vid=9807afc9-8358-4ed0-b943-7dad1d26b814","ios":"levelo://app?vid=9807afc9-8358-4ed0-b943-7dad1d26b814"},"vehicle_type_id":"4","last_reported":1731402582,"current_range_meters":11200,"station_id":"ce4bhqh2rcd13ifvqhmg","pricing_plan_id":"cebpf4jnsgd1na2vs0mg"},{"bike_id":"90d04b64-9faa-4eac-976a-1e912da98cdd","system_id":"levelo_inurba_marseille","lat":43.26956,"lon":5.38626,"is_reserved":false,"is_disabled":false,"rental_uris":{"android":"levelo://app?vid=90d04b64-9faa-4eac-976a-1e912da98cdd","ios":"levelo://app?vid=90d04b64-9faa-4eac-976a-1e912da98cdd"},"vehicle_type_id":"4","last_reported":1731402582,"current_range_meters":22800,"station_id":"ce4bhh92rcd13ifvqfh0","pricing_plan_id":"cebpf4jnsgd1na2vs0mg"},{"bike_id":"41bc15f4-beff-4b4b-8a90-8df4586b1f36","system_id":"levelo_inurba_marseille","lat":43.26956,"lon":5.3863,"is_reserved":false,"is_disabled":false,"rental_uris":{"android":"levelo://app?vid=41bc15f4-beff-4b4b-8a90-8df4586b1f36","ios":"levelo://app?vid=41bc15f4-beff-4b4b-8a90-8df4586b1f36"},"vehicle_type_id":"4","last_reported":1731402582,"current_range_meters":28800,"station_id":"ce4bhh92rcd13ifvqfh0","pricing_plan_id":"cebpf4jnsgd1na2vs0mg"},{"bike_id":"0389f6ba-9b11-4bae-aa59-6c887bee55e5","system_id":"levelo_inurba_marseille","lat":43.31861,"lon":5.3877,"is_reserved":false,"is_disabled":false,"rental_uris":{"android":"levelo://app?vid=0389f6ba-9b11-4bae-aa59-6c887bee55e5","ios":"levelo://app?vid=0389f6ba-9b11-4bae-aa59-6c887bee55e5"},"vehicle_type_id":"4","last_reported":1731402582,"current_range_meters":29600,"station_id":"","pricing_plan_id":"cebpf4jnsgd1na2vs0mg"},{"bike_id":"0f51005a-d816-498c-9985-fee40ab1f5df","system_id":"levelo_inurba_marseille","lat":43.29044,"lon":5.39963,"is_reserved":false,"is_disabled":false,"rental_uris":{"android":"levelo://app?vid=0f51005a-d816-498c-9985-fee40ab1f5df","ios":"levelo://app?vid=0f51005a-d816-498c-9985-fee40ab1f5df"},"vehicle_type_id":"4","last_reported":1731402582,"current_range_meters":32800,"station_id":"ce4bh392rcd13ifvqdm0","pricing_plan_id":"cebpf4jnsgd1na2vs0mg"},{"bike_id":"63c21793-ca40-4153-8256-f644496502b0","system_id":"levelo_inurba_marseille","lat":43.24084,"lon":5.37752,"is_reserved":false,"is_disabled":false,"rental_uris":{"android":"levelo://app?vid=63c21793-ca40-4153-8256-f644496502b0","ios":"levelo://app?vid=63c21793-ca40-4153-8256-f644496502b0"},"vehicle_type_id":"4","last_reported":1731402582,"current_range_meters":14400,"station_id":"ce4bhnp2rcd13ifvqgvg","pricing_plan_id":"cebpf4jnsgd1na2vs0mg"},{"bike_id":"0d4a7c64-c0bc-4dea-b791-1f5ab46055ea","system_id":"levelo_inurba_marseille","lat":43.28678,"lon":5.38659,"is_reserved":false,"is_disabled":false,"rental_uris":{"android":"levelo://app?vid=0d4a7c64-c0bc-4dea-b791-1f5ab46055ea","ios":"levelo://app?vid=0d4a7c64-c0bc-4dea-b791-1f5ab46055ea"},"vehicle_type_id":"4","last_reported":1731402582,"current_range_meters":31200,"station_id":"ce4bh492rcd13ifvqdug","pricing_plan_id":"cebpf4jnsgd1na2vs0mg"},{"bike_id":"6a6bc5de-7288-497d-bcb4-215b164e88d4","system_id":"levelo_inurba_marseille","lat":43.30546,"lon":5.36537,"is_reserved":false,"is_disabled":false,"rental_uris":{"android":"levelo://app?vid=6a6bc5de-7288-497d-bcb4-215b164e88d4","ios":"levelo://app?vid=6a6bc5de-7288-497d-bcb4-215b164e88d4"},"vehicle_type_id":"4","last_reported":1731402582,"current_range_meters":28800,"station_id":"ce4bgs12rcd13ifvqcag","pricing_plan_id":"cebpf4jnsgd1na2vs0mg"},{"bike_id":"68abcea4-b254-472c-83f6-01826308fdb8","system_id":"levelo_inurba_marseille","lat":43.28585,"lon":5.42562,"is_reserved":false,"is_disabled":false,"rental_uris":{"android":"levelo://app?vid=68abcea4-b254-472c-83f6-01826308fdb8","ios":"levelo://app?vid=68abcea4-b254-472c-83f6-01826308fdb8"},"vehicle_type_id":"4","last_reported":1731402582,"current_range_meters":28000,"station_id":"","pricing_plan_id":"cebpf4jnsgd1na2vs0mg"},{"bike_id":"f9337123-8b88-41dc-aa21-e3b610fc2b0d","system_id":"levelo_inurba_marseille","lat":43.29798,"lon":5.38092,"is_reserved":false,"is_disabled":false,"rental_uris":{"android":"levelo://app?vid=f9337123-8b88-41dc-aa21-e3b610fc2b0d","ios":"levelo://app?vid=f9337123-8b88-41dc-aa21-e3b610fc2b0d"},"vehicle_type_id":"4","last_reported":1731402582,"current_range_meters":8400,"station_id":"ce4bgip2rcd13ifvqbb0","pricing_plan_id":"cebpf4jnsgd1na2vs0mg"},{"bike_id":"b8679e6d-7ac1-4e7c-bd69-63e93ea1742f","system_id":"levelo_inurba_marseille","lat":43.26204,"lon":5.37926,"is_reserved":false,"is_disabled":false,"rental_uris":{"android":"levelo://app?vid=b8679e6d-7ac1-4e7c-bd69-63e93ea1742f","ios":"levelo://app?vid=b8679e6d-7ac1-4e7c-bd69-63e93ea1742f"},"vehicle_type_id":"4","last_reported":1731402582,"current_range_meters":19600,"station_id":"ce4bhih2rcd13ifvqfs0","pricing_plan_id":"cebpf4jnsgd1na2vs0mg"},{"bike_id":"4ff97317-fbad-43fd-9ff4-cb7af7570ad5","system_id":"levelo_inurba_marseille","lat":43.29844,"lon":5.36268,"is_reserved":false,"is_disabled":false,"rental_uris":{"android":"levelo://app?vid=4ff97317-fbad-43fd-9ff4-cb7af7570ad5","ios":"levelo://app?vid=4ff97317-fbad-43fd-9ff4-cb7af7570ad5"},"vehicle_type_id":"4","last_reported":1731402582,"current_range_meters":20800,"station_id":"ce4bgpp2rcd13ifvqc3g","pricing_plan_id":"cebpf4jnsgd1na2vs0mg"},{"bike_id":"dea8e24b-36b5-4c6f-a7a1-18720dbf8f12","system_id":"levelo_inurba_marseille","lat":43.32485,"lon":5.36566,"is_reserved":false,"is_disabled":false,"rental_uris":{"android":"levelo://app?vid=dea8e24b-36b5-4c6f-a7a1-18720dbf8f12","ios":"levelo://app?vid=dea8e24b-36b5-4c6f-a7a1-18720dbf8f12"},"vehicle_type_id":"4","last_reported":1731402582,"current_range_meters":37600,"station_id":"ce4bhs12rcd13ifvqhvg","pricing_plan_id":"cebpf4jnsgd1na2vs0mg"},{"bike_id":"1f81c4d4-3355-46d5-acd3-aad47be887f7","system_id":"levelo_inurba_marseille","lat":43.30543,"lon":5.36527,"is_reserved":false,"is_disabled":false,"rental_uris":{"android":"levelo://app?vid=1f81c4d4-3355-46d5-acd3-aad47be887f7","ios":"levelo://app?vid=1f81c4d4-3355-46d5-acd3-aad47be887f7"},"vehicle_type_id":"4","last_reported":1731402582,"current_range_meters":20400,"station_id":"ce4bgs12rcd13ifvqcag","pricing_plan_id":"cebpf4jnsgd1na2vs0mg"},{"bike_id":"f34c1380-d92f-4bc1-abe1-52a2cde73fb2","system_id":"levelo_inurba_marseille","lat":43.30186,"lon":5.36603,"is_reserved":false,"is_disabled":false,"rental_uris":{"android":"levelo://app?vid=f34c1380-d92f-4bc1-abe1-52a2cde73fb2","ios":"levelo://app?vid=f34c1380-d92f-4bc1-abe1-52a2cde73fb2"},"vehicle_type_id":"4","last_reported":1731402582,"current_range_meters":38400,"station_id":"ce4bgrh2rcd13ifvqc8g","pricing_plan_id":"cebpf4jnsgd1na2vs0mg"},{"bike_id":"d32c33e6-eff0-48df-84d8-eca23af7c1de","system_id":"levelo_inurba_marseille","lat":43.3372,"lon":5.39186,"is_reserved":false,"is_disabled":false,"rental_uris":{"android":"levelo://app?vid=d32c33e6-eff0-48df-84d8-eca23af7c1de","ios":"levelo://app?vid=d32c33e6-eff0-48df-84d8-eca23af7c1de"},"vehicle_type_id":"4","last_reported":1731402582,"current_range_meters":38000,"station_id":"ce4bhr92rcd13ifvqhsg","pricing_plan_id":"cebpf4jnsgd1na2vs0mg"},{"bike_id":"3d538f50-8563-4193-82a5-d417b677c48f","system_id":"levelo_inurba_marseille","lat":43.30544,"lon":5.3653,"is_reserved":false,"is_disabled":false,"rental_uris":{"android":"levelo://app?vid=3d538f50-8563-4193-82a5-d417b677c48f","ios":"levelo://app?vid=3d538f50-8563-4193-82a5-d417b677c48f"},"vehicle_type_id":"4","last_reported":1731402582,"current_range_meters":38800,"station_id":"ce4bgs12rcd13ifvqcag","pricing_plan_id":"cebpf4jnsgd1na2vs0mg"},{"bike_id":"2736195e-df05-4cae-9145-08820a97c3a9","system_id":"levelo_inurba_marseille","lat":43.33608,"lon":5.41034,"is_reserved":false,"is_disabled":false,"rental_uris":{"android":"levelo://app?vid=2736195e-df05-4cae-9145-08820a97c3a9","ios":"levelo://app?vid=2736195e-df05-4cae-9145-08820a97c3a9"},"vehicle_type_id":"4","last_reported":1731402582,"current_range_meters":24800,"station_id":"ce4bhqh2rcd13ifvqhmg","pricing_plan_id":"cebpf4jnsgd1na2vs0mg"},{"bike_id":"566a5334-3f8f-47bc-a4cb-b69269b5f3f2","system_id":"levelo_inurba_marseille","lat":43.27968,"lon":5.38719,"is_reserved":false,"is_disabled":false,"rental_uris":{"android":"levelo://app?vid=566a5334-3f8f-47bc-a4cb-b69269b5f3f2","ios":"levelo://app?vid=566a5334-3f8f-47bc-a4cb-b69269b5f3f2"},"vehicle_type_id":"4","last_reported":1731402582,"current_range_meters":36400,"station_id":"ce4bhg12rcd13ifvqf80","pricing_plan_id":"cebpf4jnsgd1na2vs0mg"},{"bike_id":"6d79db44-9bc4-4c0c-8b62-911b1ea55158","system_id":"levelo_inurba_marseille","lat":43.26942,"lon":5.40249,"is_reserved":false,"is_disabled":false,"rental_uris":{"android":"levelo://app?vid=6d79db44-9bc4-4c0c-8b62-911b1ea55158","ios":"levelo://app?vid=6d79db44-9bc4-4c0c-8b62-911b1ea55158"},"vehicle_type_id":"4","last_reported":1731402582,"current_range_meters":37600,"station_id":"cjm6bp8fraef2m0cb0m0","pricing_plan_id":"cebpf4jnsgd1na2vs0mg"},{"bike_id":"0133f3d4-648e-4961-8fb8-2cbdab02ac87","system_id":"levelo_inurba_marseille","lat":43.27995,"lon":5.40016,"is_reserved":false,"is_disabled":false,"rental_uris":{"android":"levelo://app?vid=0133f3d4-648e-4961-8fb8-2cbdab02ac87","ios":"levelo://app?vid=0133f3d4-648e-4961-8fb8-2cbdab02ac87"},"vehicle_type_id":"4","last_reported":1731402582,"current_range_meters":38800,"station_id":"ce4bho92rcd13ifvqh4g","pricing_plan_id":"cebpf4jnsgd1na2vs0mg"},{"bike_id":"d18f8d32-e2b0-45ff-9de1-befe5676c05f","system_id":"levelo_inurba_marseille","lat":43.29841,"lon":5.36268,"is_reserved":false,"is_disabled":false,"rental_uris":{"android":"levelo://app?vid=d18f8d32-e2b0-45ff-9de1-befe5676c05f","ios":"levelo://app?vid=d18f8d32-e2b0-45ff-9de1-befe5676c05f"},"vehicle_type_id":"4","last_reported":1731402582,"current_range_meters":26800,"station_id":"ce4bgpp2rcd13ifvqc3g","pricing_plan_id":"cebpf4jnsgd1na2vs0mg"},{"bike_id":"ac8f93f2-2615-4d23-a598-307ab298c267","system_id":"levelo_inurba_marseille","lat":43.29171,"lon":5.37163,"is_reserved":false,"is_disabled":false,"rental_uris":{"android":"levelo://app?vid=ac8f93f2-2615-4d23-a598-307ab298c267","ios":"levelo://app?vid=ac8f93f2-2615-4d23-a598-307ab298c267"},"vehicle_type_id":"4","last_reported":1731402582,"current_range_meters":10800,"station_id":"ce4bha92rcd13ifvqeh0","pricing_plan_id":"cebpf4jnsgd1na2vs0mg"},{"bike_id":"ece13cc8-5906-48ad-bc54-734e791b9b7d","system_id":"levelo_inurba_marseille","lat":43.30468,"lon":5.37904,"is_reserved":false,"is_disabled":false,"rental_uris":{"android":"levelo://app?vid=ece13cc8-5906-48ad-bc54-734e791b9b7d","ios":"levelo://app?vid=ece13cc8-5906-48ad-bc54-734e791b9b7d"},"vehicle_type_id":"4","last_reported":1731402582,"current_range_meters":17200,"station_id":"ce4bgup2rcd13ifvqcn0","pricing_plan_id":"cebpf4jnsgd1na2vs0mg"},{"bike_id":"ebd4f82c-11dc-4dc9-8fd9-d0a742def808","system_id":"levelo_inurba_marseille","lat":43.24073,"lon":5.3776,"is_reserved":false,"is_disabled":false,"rental_uris":{"android":"levelo://app?vid=ebd4f82c-11dc-4dc9-8fd9-d0a742def808","ios":"levelo://app?vid=ebd4f82c-11dc-4dc9-8fd9-d0a742def808"},"vehicle_type_id":"4","last_reported":1731402582,"current_range_meters":24800,"station_id":"ce4bhnp2rcd13ifvqgvg","pricing_plan_id":"cebpf4jnsgd1na2vs0mg"},{"bike_id":"298a5c5b-d6a2-458a-b047-36721ea57e0a","system_id":"levelo_inurba_marseille","lat":43.27829,"lon":5.39214,"is_reserved":false,"is_disabled":false,"rental_uris":{"android":"levelo://app?vid=298a5c5b-d6a2-458a-b047-36721ea57e0a","ios":"levelo://app?vid=298a5c5b-d6a2-458a-b047-36721ea57e0a"},"vehicle_type_id":"4","last_reported":1731402582,"current_range_meters":27600,"station_id":"ce4bhjp2rcd13ifvqga0","pricing_plan_id":"cebpf4jnsgd1na2vs0mg"},{"bike_id":"3a380d17-df8f-4b0b-9249-c031a1e66b20","system_id":"levelo_inurba_marseille","lat":43.25581,"lon":5.38233,"is_reserved":false,"is_disabled":false,"rental_uris":{"android":"levelo://app?vid=3a380d17-df8f-4b0b-9249-c031a1e66b20","ios":"levelo://app?vid=3a380d17-df8f-4b0b-9249-c031a1e66b20"},"vehicle_type_id":"4","last_reported":1731402582,"current_range_meters":34000,"station_id":"ce4bhih2rcd13ifvqfs0","pricing_plan_id":"cebpf4jnsgd1na2vs0mg"},{"bike_id":"f78b25b9-25c6-4c7b-aa27-1f97f7068c81","system_id":"levelo_inurba_marseille","lat":43.31356,"lon":5.38494,"is_reserved":false,"is_disabled":false,"rental_uris":{"android":"levelo://app?vid=f78b25b9-25c6-4c7b-aa27-1f97f7068c81","ios":"levelo://app?vid=f78b25b9-25c6-4c7b-aa27-1f97f7068c81"},"vehicle_type_id":"4","last_reported":1731402582,"current_range_meters":32800,"station_id":"ce4bgt92rcd13ifvqcf0","pricing_plan_id":"cebpf4jnsgd1na2vs0mg"},{"bike_id":"298980d2-b8b5-4c6e-90d6-60f920aa0770","system_id":"levelo_inurba_marseille","lat":43.28672,"lon":5.38665,"is_reserved":false,"is_disabled":false,"rental_uris":{"android":"levelo://app?vid=298980d2-b8b5-4c6e-90d6-60f920aa0770","ios":"levelo://app?vid=298980d2-b8b5-4c6e-90d6-60f920aa0770"},"vehicle_type_id":"4","last_reported":1731402582,"current_range_meters":30800,"station_id":"ce4bh492rcd13ifvqdug","pricing_plan_id":"cebpf4jnsgd1na2vs0mg"},{"bike_id":"ab6a8b2e-1d37-4a8a-acab-d5ef823cba97","system_id":"levelo_inurba_marseille","lat":43.27433,"lon":5.39408,"is_reserved":false,"is_disabled":false,"rental_uris":{"android":"levelo://app?vid=ab6a8b2e-1d37-4a8a-acab-d5ef823cba97","ios":"levelo://app?vid=ab6a8b2e-1d37-4a8a-acab-d5ef823cba97"},"vehicle_type_id":"4","last_reported":1731402582,"current_range_meters":33600,"station_id":"ce4bhdp2rcd13ifvqf20","pricing_plan_id":"cebpf4jnsgd1na2vs0mg"},{"bike_id":"9ced07d2-d6e3-402e-ad71-da7fcc490ca5","system_id":"levelo_inurba_marseille","lat":43.30278,"lon":5.37694,"is_reserved":false,"is_disabled":false,"rental_uris":{"android":"levelo://app?vid=9ced07d2-d6e3-402e-ad71-da7fcc490ca5","ios":"levelo://app?vid=9ced07d2-d6e3-402e-ad71-da7fcc490ca5"},"vehicle_type_id":"4","last_reported":1731402582,"current_range_meters":38800,"station_id":"ce4bguh2rcd13ifvqcj0","pricing_plan_id":"cebpf4jnsgd1na2vs0mg"},{"bike_id":"e0eb8327-3dcc-4d03-9d09-efe5346430a6","system_id":"levelo_inurba_marseille","lat":43.290264,"lon":5.386493,"is_reserved":false,"is_disabled":false,"rental_uris":{"android":"levelo://app?vid=e0eb8327-3dcc-4d03-9d09-efe5346430a6","ios":"levelo://app?vid=e0eb8327-3dcc-4d03-9d09-efe5346430a6"},"vehicle_type_id":"4","last_reported":1731402582,"current_range_meters":16800,"station_id":"ce4bh4p2rcd13ifvqe0g","pricing_plan_id":"cebpf4jnsgd1na2vs0mg"},{"bike_id":"307f472c-576c-4d90-a06d-9ae8a20dafea","system_id":"levelo_inurba_marseille","lat":43.3135,"lon":5.3671,"is_reserved":false,"is_disabled":false,"rental_uris":{"android":"levelo://app?vid=307f472c-576c-4d90-a06d-9ae8a20dafea","ios":"levelo://app?vid=307f472c-576c-4d90-a06d-9ae8a20dafea"},"vehicle_type_id":"4","last_reported":1731402582,"current_range_meters":36000,"station_id":"ce4bgr92rcd13ifvqc6g","pricing_plan_id":"cebpf4jnsgd1na2vs0mg"},{"bike_id":"73d8d45d-7c7f-4b6c-b465-6f303315b183","system_id":"levelo_inurba_marseille","lat":43.29368,"lon":5.37851,"is_reserved":false,"is_disabled":false,"rental_uris":{"android":"levelo://app?vid=73d8d45d-7c7f-4b6c-b465-6f303315b183","ios":"levelo://app?vid=73d8d45d-7c7f-4b6c-b465-6f303315b183"},"vehicle_type_id":"4","last_reported":1731402582,"current_range_meters":38800,"station_id":"ce4bgjh2rcd13ifvqbf0","pricing_plan_id":"cebpf4jnsgd1na2vs0mg"},{"bike_id":"b6d3e5d0-5aa7-4629-a58b-3c726e7f4b07","system_id":"levelo_inurba_marseille","lat":43.2397,"lon":5.3664,"is_reserved":false,"is_disabled":false,"rental_uris":{"android":"levelo://app?vid=b6d3e5d0-5aa7-4629-a58b-3c726e7f4b07","ios":"levelo://app?vid=b6d3e5d0-5aa7-4629-a58b-3c726e7f4b07"},"vehicle_type_id":"4","last_reported":1731402582,"current_range_meters":7200,"station_id":"ce4bhi12rcd13ifvqfp0","pricing_plan_id":"cebpf4jnsgd1na2vs0mg"},{"bike_id":"ca5db060-c02c-4c9c-85b8-fa89c45fc361","system_id":"levelo_inurba_marseille","lat":43.28151,"lon":5.42629,"is_reserved":false,"is_disabled":false,"rental_uris":{"android":"levelo://app?vid=ca5db060-c02c-4c9c-85b8-fa89c45fc361","ios":"levelo://app?vid=ca5db060-c02c-4c9c-85b8-fa89c45fc361"},"vehicle_type_id":"4","last_reported":1731402582,"current_range_meters":38800,"station_id":"ce4bhnh2rcd13ifvqgug","pricing_plan_id":"cebpf4jnsgd1na2vs0mg"},{"bike_id":"39c92a6d-0353-4eed-a491-34d313dd0cef","system_id":"levelo_inurba_marseille","lat":43.33763,"lon":5.37432,"is_reserved":false,"is_disabled":false,"rental_uris":{"android":"levelo://app?vid=39c92a6d-0353-4eed-a491-34d313dd0cef","ios":"levelo://app?vid=39c92a6d-0353-4eed-a491-34d313dd0cef"},"vehicle_type_id":"4","last_reported":1731402582,"current_range_meters":38400,"station_id":"","pricing_plan_id":"cebpf4jnsgd1na2vs0mg"},{"bike_id":"1174db90-b436-4737-8473-4b00cd6cf36a","system_id":"levelo_inurba_marseille","lat":43.292927,"lon":5.374617,"is_reserved":false,"is_disabled":false,"rental_uris":{"android":"levelo://app?vid=1174db90-b436-4737-8473-4b00cd6cf36a","ios":"levelo://app?vid=1174db90-b436-4737-8473-4b00cd6cf36a"},"vehicle_type_id":"4","last_reported":1731402582,"current_range_meters":38800,"station_id":"ce4bgi12rcd13ifvqb70","pricing_plan_id":"cebpf4jnsgd1na2vs0mg"},{"bike_id":"1cb296ca-e768-4ff4-9ba6-d9720f6d8c12","system_id":"levelo_inurba_marseille","lat":43.24082,"lon":5.37747,"is_reserved":false,"is_disabled":false,"rental_uris":{"android":"levelo://app?vid=1cb296ca-e768-4ff4-9ba6-d9720f6d8c12","ios":"levelo://app?vid=1cb296ca-e768-4ff4-9ba6-d9720f6d8c12"},"vehicle_type_id":"4","last_reported":1731402582,"current_range_meters":35200,"station_id":"ce4bhnp2rcd13ifvqgvg","pricing_plan_id":"cebpf4jnsgd1na2vs0mg"},{"bike_id":"93e3593b-df5d-4dda-89c1-1fa6527e296f","system_id":"levelo_inurba_marseille","lat":43.27054,"lon":5.40261,"is_reserved":false,"is_disabled":false,"rental_uris":{"android":"levelo://app?vid=93e3593b-df5d-4dda-89c1-1fa6527e296f","ios":"levelo://app?vid=93e3593b-df5d-4dda-89c1-1fa6527e296f"},"vehicle_type_id":"4","last_reported":1731402582,"current_range_meters":38000,"station_id":"ce4bhk92rcd13ifvqgc0","pricing_plan_id":"cebpf4jnsgd1na2vs0mg"},{"bike_id":"a4b926dd-90c8-45af-863f-b70152495bc3","system_id":"levelo_inurba_marseille","lat":43.24806,"lon":5.37454,"is_reserved":false,"is_disabled":false,"rental_uris":{"android":"levelo://app?vid=a4b926dd-90c8-45af-863f-b70152495bc3","ios":"levelo://app?vid=a4b926dd-90c8-45af-863f-b70152495bc3"},"vehicle_type_id":"4","last_reported":1731402582,"current_range_meters":26800,"station_id":"ce4bhgh2rcd13ifvqfb0","pricing_plan_id":"cebpf4jnsgd1na2vs0mg"},{"bike_id":"e8c085d8-09e1-431a-bbb8-5e4873879e38","system_id":"levelo_inurba_marseille","lat":43.27491,"lon":5.4245,"is_reserved":false,"is_disabled":false,"rental_uris":{"android":"levelo://app?vid=e8c085d8-09e1-431a-bbb8-5e4873879e38","ios":"levelo://app?vid=e8c085d8-09e1-431a-bbb8-5e4873879e38"},"vehicle_type_id":"4","last_reported":1731402582,"current_range_meters":28800,"station_id":"ce4bhn92rcd13ifvqgrg","pricing_plan_id":"cebpf4jnsgd1na2vs0mg"},{"bike_id":"e029f39c-9b59-4309-85cc-cfaac8b31b8c","system_id":"levelo_inurba_marseille","lat":43.30949,"lon":5.39048,"is_reserved":false,"is_disabled":false,"rental_uris":{"android":"levelo://app?vid=e029f39c-9b59-4309-85cc-cfaac8b31b8c","ios":"levelo://app?vid=e029f39c-9b59-4309-85cc-cfaac8b31b8c"},"vehicle_type_id":"4","last_reported":1731402582,"current_range_meters":24400,"station_id":"ce4bgup2rcd13ifvqco0","pricing_plan_id":"cebpf4jnsgd1na2vs0mg"},{"bike_id":"91744202-1e40-4d2f-a4c2-19300a2d7bc5","system_id":"levelo_inurba_marseille","lat":43.2903,"lon":5.39969,"is_reserved":false,"is_disabled":false,"rental_uris":{"android":"levelo://app?vid=91744202-1e40-4d2f-a4c2-19300a2d7bc5","ios":"levelo://app?vid=91744202-1e40-4d2f-a4c2-19300a2d7bc5"},"vehicle_type_id":"4","last_reported":1731402582,"current_range_meters":11200,"station_id":"ce4bh392rcd13ifvqdm0","pricing_plan_id":"cebpf4jnsgd1na2vs0mg"},{"bike_id":"36f09f9a-5d9d-4d1a-bbe6-a7c8d0359045","system_id":"levelo_inurba_marseille","lat":43.31228,"lon":5.36867,"is_reserved":false,"is_disabled":false,"rental_uris":{"android":"levelo://app?vid=36f09f9a-5d9d-4d1a-bbe6-a7c8d0359045","ios":"levelo://app?vid=36f09f9a-5d9d-4d1a-bbe6-a7c8d0359045"},"vehicle_type_id":"4","last_reported":1731402582,"current_range_meters":27200,"station_id":"ce4bgl92rcd13ifvqbq0","pricing_plan_id":"cebpf4jnsgd1na2vs0mg"},{"bike_id":"9d59599d-1ddc-4584-9619-36b075aff25d","system_id":"levelo_inurba_marseille","lat":43.2408,"lon":5.37756,"is_reserved":false,"is_disabled":false,"rental_uris":{"android":"levelo://app?vid=9d59599d-1ddc-4584-9619-36b075aff25d","ios":"levelo://app?vid=9d59599d-1ddc-4584-9619-36b075aff25d"},"vehicle_type_id":"4","last_reported":1731402582,"current_range_meters":36800,"station_id":"ce4bhnp2rcd13ifvqgvg","pricing_plan_id":"cebpf4jnsgd1na2vs0mg"},{"bike_id":"b72ca6e7-47e9-42be-9a97-b74e22acdc0e","system_id":"levelo_inurba_marseille","lat":43.32102,"lon":5.36777,"is_reserved":false,"is_disabled":false,"rental_uris":{"android":"levelo://app?vid=b72ca6e7-47e9-42be-9a97-b74e22acdc0e","ios":"levelo://app?vid=b72ca6e7-47e9-42be-9a97-b74e22acdc0e"},"vehicle_type_id":"4","last_reported":1731402582,"current_range_meters":25200,"station_id":"ce4bhrh2rcd13ifvqhug","pricing_plan_id":"cebpf4jnsgd1na2vs0mg"},{"bike_id":"dd1756de-4ba6-4e50-92e4-173e7a2f91bf","system_id":"levelo_inurba_marseille","lat":43.30312,"lon":5.36893,"is_reserved":false,"is_disabled":false,"rental_uris":{"android":"levelo://app?vid=dd1756de-4ba6-4e50-92e4-173e7a2f91bf","ios":"levelo://app?vid=dd1756de-4ba6-4e50-92e4-173e7a2f91bf"},"vehicle_type_id":"4","last_reported":1731402582,"current_range_meters":32800,"station_id":"ce4bgqh2rcd13ifvqc5g","pricing_plan_id":"cebpf4jnsgd1na2vs0mg"},{"bike_id":"5b46ce18-e7d5-4e30-8def-85cfb1b5102d","system_id":"levelo_inurba_marseille","lat":43.23152,"lon":5.43721,"is_reserved":false,"is_disabled":false,"rental_uris":{"android":"levelo://app?vid=5b46ce18-e7d5-4e30-8def-85cfb1b5102d","ios":"levelo://app?vid=5b46ce18-e7d5-4e30-8def-85cfb1b5102d"},"vehicle_type_id":"4","last_reported":1731402582,"current_range_meters":39200,"station_id":"ce4bhmp2rcd13ifvqgog","pricing_plan_id":"cebpf4jnsgd1na2vs0mg"},{"bike_id":"bcfd7453-f6c5-4a61-a535-9937cc1ac31b","system_id":"levelo_inurba_marseille","lat":43.28465,"lon":5.38552,"is_reserved":false,"is_disabled":false,"rental_uris":{"android":"levelo://app?vid=bcfd7453-f6c5-4a61-a535-9937cc1ac31b","ios":"levelo://app?vid=bcfd7453-f6c5-4a61-a535-9937cc1ac31b"},"vehicle_type_id":"4","last_reported":1731402582,"current_range_meters":32000,"station_id":"ce4bhq12rcd13ifvqhig","pricing_plan_id":"cebpf4jnsgd1na2vs0mg"},{"bike_id":"169a71c2-9129-43be-8aba-22f0822d15c1","system_id":"levelo_inurba_marseille","lat":43.30103,"lon":5.3907,"is_reserved":false,"is_disabled":false,"rental_uris":{"android":"levelo://app?vid=169a71c2-9129-43be-8aba-22f0822d15c1","ios":"levelo://app?vid=169a71c2-9129-43be-8aba-22f0822d15c1"},"vehicle_type_id":"4","last_reported":1731402582,"current_range_meters":21600,"station_id":"ce4bh192rcd13ifvqdb0","pricing_plan_id":"cebpf4jnsgd1na2vs0mg"},{"bike_id":"dad0856d-cf38-41ce-9c69-fc14f6a6fe3c","system_id":"levelo_inurba_marseille","lat":43.30545,"lon":5.36535,"is_reserved":false,"is_disabled":false,"rental_uris":{"android":"levelo://app?vid=dad0856d-cf38-41ce-9c69-fc14f6a6fe3c","ios":"levelo://app?vid=dad0856d-cf38-41ce-9c69-fc14f6a6fe3c"},"vehicle_type_id":"4","last_reported":1731402582,"current_range_meters":34800,"station_id":"ce4bgs12rcd13ifvqcag","pricing_plan_id":"cebpf4jnsgd1na2vs0mg"},{"bike_id":"d200f736-33ff-4949-a4fa-9c168ba1cf59","system_id":"levelo_inurba_marseille","lat":43.28423,"lon":5.34986,"is_reserved":false,"is_disabled":false,"rental_uris":{"android":"levelo://app?vid=d200f736-33ff-4949-a4fa-9c168ba1cf59","ios":"levelo://app?vid=d200f736-33ff-4949-a4fa-9c168ba1cf59"},"vehicle_type_id":"4","last_reported":1731402582,"current_range_meters":36400,"station_id":"ce4bhbh2rcd13ifvqepg","pricing_plan_id":"cebpf4jnsgd1na2vs0mg"},{"bike_id":"497e460a-1736-464f-9065-efe9a8e6b7c3","system_id":"levelo_inurba_marseille","lat":43.305332,"lon":5.365496,"is_reserved":false,"is_disabled":false,"rental_uris":{"android":"levelo://app?vid=497e460a-1736-464f-9065-efe9a8e6b7c3","ios":"levelo://app?vid=497e460a-1736-464f-9065-efe9a8e6b7c3"},"vehicle_type_id":"4","last_reported":1731402582,"current_range_meters":3200,"station_id":"ce4bgk12rcd13ifvqbi0","pricing_plan_id":"cebpf4jnsgd1na2vs0mg"},{"bike_id":"a36a53ca-12b9-411d-9bc8-6fa00b7fe8e8","system_id":"levelo_inurba_marseille","lat":43.30201,"lon":5.3663,"is_reserved":false,"is_disabled":false,"rental_uris":{"android":"levelo://app?vid=a36a53ca-12b9-411d-9bc8-6fa00b7fe8e8","ios":"levelo://app?vid=a36a53ca-12b9-411d-9bc8-6fa00b7fe8e8"},"vehicle_type_id":"4","last_reported":1731402582,"current_range_meters":15200,"station_id":"ce4bgrh2rcd13ifvqc8g","pricing_plan_id":"cebpf4jnsgd1na2vs0mg"},{"bike_id":"924162cd-7390-4a1d-abb5-a197730e7115","system_id":"levelo_inurba_marseille","lat":43.30906,"lon":5.36844,"is_reserved":false,"is_disabled":false,"rental_uris":{"android":"levelo://app?vid=924162cd-7390-4a1d-abb5-a197730e7115","ios":"levelo://app?vid=924162cd-7390-4a1d-abb5-a197730e7115"},"vehicle_type_id":"4","last_reported":1731402582,"current_range_meters":20000,"station_id":"ce4bgn92rcd13ifvqbvg","pricing_plan_id":"cebpf4jnsgd1na2vs0mg"},{"bike_id":"0828155a-0414-43d7-8cd8-ac8c3b8ed352","system_id":"levelo_inurba_marseille","lat":43.24081,"lon":5.37751,"is_reserved":false,"is_disabled":false,"rental_uris":{"android":"levelo://app?vid=0828155a-0414-43d7-8cd8-ac8c3b8ed352","ios":"levelo://app?vid=0828155a-0414-43d7-8cd8-ac8c3b8ed352"},"vehicle_type_id":"4","last_reported":1731402582,"current_range_meters":36400,"station_id":"ce4bhnp2rcd13ifvqgvg","pricing_plan_id":"cebpf4jnsgd1na2vs0mg"},{"bike_id":"2c507cd7-54ef-475c-8faa-961482f8a251","system_id":"levelo_inurba_marseille","lat":43.29558,"lon":5.42291,"is_reserved":false,"is_disabled":false,"rental_uris":{"android":"levelo://app?vid=2c507cd7-54ef-475c-8faa-961482f8a251","ios":"levelo://app?vid=2c507cd7-54ef-475c-8faa-961482f8a251"},"vehicle_type_id":"4","last_reported":1731402582,"current_range_meters":23200,"station_id":"ce4bhph2rcd13ifvqhdg","pricing_plan_id":"cebpf4jnsgd1na2vs0mg"},{"bike_id":"f1af8f39-a82b-4b08-bab5-57f36dceb73b","system_id":"levelo_inurba_marseille","lat":43.29966,"lon":5.37167,"is_reserved":false,"is_disabled":false,"rental_uris":{"android":"levelo://app?vid=f1af8f39-a82b-4b08-bab5-57f36dceb73b","ios":"levelo://app?vid=f1af8f39-a82b-4b08-bab5-57f36dceb73b"},"vehicle_type_id":"4","last_reported":1731402582,"current_range_meters":17200,"station_id":"ce4bgr92rcd13ifvqc7g","pricing_plan_id":"cebpf4jnsgd1na2vs0mg"},{"bike_id":"3ee03585-6871-46ae-8e29-826fc8ed046b","system_id":"levelo_inurba_marseille","lat":43.29929,"lon":5.36548,"is_reserved":false,"is_disabled":false,"rental_uris":{"android":"levelo://app?vid=3ee03585-6871-46ae-8e29-826fc8ed046b","ios":"levelo://app?vid=3ee03585-6871-46ae-8e29-826fc8ed046b"},"vehicle_type_id":"4","last_reported":1731402582,"current_range_meters":38800,"station_id":"ce4bgm92rcd13ifvqbr0","pricing_plan_id":"cebpf4jnsgd1na2vs0mg"},{"bike_id":"bbf9823c-0b18-4994-a232-2b7ce0a92a74","system_id":"levelo_inurba_marseille","lat":43.32484,"lon":5.36553,"is_reserved":false,"is_disabled":false,"rental_uris":{"android":"levelo://app?vid=bbf9823c-0b18-4994-a232-2b7ce0a92a74","ios":"levelo://app?vid=bbf9823c-0b18-4994-a232-2b7ce0a92a74"},"vehicle_type_id":"4","last_reported":1731402582,"current_range_meters":27600,"station_id":"ce4bhs12rcd13ifvqhvg","pricing_plan_id":"cebpf4jnsgd1na2vs0mg"},{"bike_id":"218d87a8-fb65-4209-8609-267cc1d63387","system_id":"levelo_inurba_marseille","lat":43.337444,"lon":5.374475,"is_reserved":false,"is_disabled":false,"rental_uris":{"android":"levelo://app?vid=218d87a8-fb65-4209-8609-267cc1d63387","ios":"levelo://app?vid=218d87a8-fb65-4209-8609-267cc1d63387"},"vehicle_type_id":"4","last_reported":1731402582,"current_range_meters":38800,"station_id":"","pricing_plan_id":"cebpf4jnsgd1na2vs0mg"},{"bike_id":"56336af0-3345-4d21-acc8-14daad65336a","system_id":"levelo_inurba_marseille","lat":43.2815,"lon":5.42639,"is_reserved":false,"is_disabled":false,"rental_uris":{"android":"levelo://app?vid=56336af0-3345-4d21-acc8-14daad65336a","ios":"levelo://app?vid=56336af0-3345-4d21-acc8-14daad65336a"},"vehicle_type_id":"4","last_reported":1731402582,"current_range_meters":37600,"station_id":"ce4bhnh2rcd13ifvqgug","pricing_plan_id":"cebpf4jnsgd1na2vs0mg"},{"bike_id":"c02a192e-5825-44fe-a0c9-fd04411f4ff2","system_id":"levelo_inurba_marseille","lat":43.25006,"lon":5.38918,"is_reserved":false,"is_disabled":false,"rental_uris":{"android":"levelo://app?vid=c02a192e-5825-44fe-a0c9-fd04411f4ff2","ios":"levelo://app?vid=c02a192e-5825-44fe-a0c9-fd04411f4ff2"},"vehicle_type_id":"4","last_reported":1731402582,"current_range_meters":20800,"station_id":"ce4bhgp2rcd13ifvqfd0","pricing_plan_id":"cebpf4jnsgd1na2vs0mg"},{"bike_id":"31ebf8e5-7f52-40a6-bacf-756e54d0b2ed","system_id":"levelo_inurba_marseille","lat":43.3148,"lon":5.37308,"is_reserved":false,"is_disabled":false,"rental_uris":{"android":"levelo://app?vid=31ebf8e5-7f52-40a6-bacf-756e54d0b2ed","ios":"levelo://app?vid=31ebf8e5-7f52-40a6-bacf-756e54d0b2ed"},"vehicle_type_id":"4","last_reported":1731402582,"current_range_meters":37600,"station_id":"ce4bgt12rcd13ifvqcd0","pricing_plan_id":"cebpf4jnsgd1na2vs0mg"},{"bike_id":"feb86f62-2c80-4064-8e38-33c5534046da","system_id":"levelo_inurba_marseille","lat":43.28198,"lon":5.3989,"is_reserved":false,"is_disabled":false,"rental_uris":{"android":"levelo://app?vid=feb86f62-2c80-4064-8e38-33c5534046da","ios":"levelo://app?vid=feb86f62-2c80-4064-8e38-33c5534046da"},"vehicle_type_id":"4","last_reported":1731402582,"current_range_meters":11600,"station_id":"","pricing_plan_id":"cebpf4jnsgd1na2vs0mg"},{"bike_id":"c755ce56-b797-4db4-b77f-66af599d7c95","system_id":"levelo_inurba_marseille","lat":43.24066,"lon":5.37755,"is_reserved":false,"is_disabled":false,"rental_uris":{"android":"levelo://app?vid=c755ce56-b797-4db4-b77f-66af599d7c95","ios":"levelo://app?vid=c755ce56-b797-4db4-b77f-66af599d7c95"},"vehicle_type_id":"4","last_reported":1731402582,"current_range_meters":14000,"station_id":"ce4bhnp2rcd13ifvqgvg","pricing_plan_id":"cebpf4jnsgd1na2vs0mg"},{"bike_id":"d3377a1e-52db-45c8-af35-1e82c98e5fba","system_id":"levelo_inurba_marseille","lat":43.24067,"lon":5.37767,"is_reserved":false,"is_disabled":false,"rental_uris":{"android":"levelo://app?vid=d3377a1e-52db-45c8-af35-1e82c98e5fba","ios":"levelo://app?vid=d3377a1e-52db-45c8-af35-1e82c98e5fba"},"vehicle_type_id":"4","last_reported":1731402582,"current_range_meters":33600,"station_id":"ce4bhnp2rcd13ifvqgvg","pricing_plan_id":"cebpf4jnsgd1na2vs0mg"},{"bike_id":"ef9ddb39-107a-4a54-b8c7-8686fd28396f","system_id":"levelo_inurba_marseille","lat":43.32362,"lon":5.36756,"is_reserved":false,"is_disabled":false,"rental_uris":{"android":"levelo://app?vid=ef9ddb39-107a-4a54-b8c7-8686fd28396f","ios":"levelo://app?vid=ef9ddb39-107a-4a54-b8c7-8686fd28396f"},"vehicle_type_id":"4","last_reported":1731402582,"current_range_meters":15200,"station_id":"ce4bhsh2rcd13ifvqi2g","pricing_plan_id":"cebpf4jnsgd1na2vs0mg"},{"bike_id":"72f6cdfd-2d6e-43ea-a4ae-d5390b13446e","system_id":"levelo_inurba_marseille","lat":43.28929,"lon":5.38408,"is_reserved":false,"is_disabled":false,"rental_uris":{"android":"levelo://app?vid=72f6cdfd-2d6e-43ea-a4ae-d5390b13446e","ios":"levelo://app?vid=72f6cdfd-2d6e-43ea-a4ae-d5390b13446e"},"vehicle_type_id":"4","last_reported":1731402582,"current_range_meters":38000,"station_id":"ce4bh612rcd13ifvqe6g","pricing_plan_id":"cebpf4jnsgd1na2vs0mg"},{"bike_id":"60d209e1-4c3b-4fd1-a226-45744e3f9541","system_id":"levelo_inurba_marseille","lat":43.25932,"lon":5.40912,"is_reserved":false,"is_disabled":false,"rental_uris":{"android":"levelo://app?vid=60d209e1-4c3b-4fd1-a226-45744e3f9541","ios":"levelo://app?vid=60d209e1-4c3b-4fd1-a226-45744e3f9541"},"vehicle_type_id":"4","last_reported":1731402582,"current_range_meters":38800,"station_id":"ce4bhm92rcd13ifvqglg","pricing_plan_id":"cebpf4jnsgd1na2vs0mg"},{"bike_id":"1048326d-15a3-47bb-b1ed-5e1e84213221","system_id":"levelo_inurba_marseille","lat":43.23149,"lon":5.4373,"is_reserved":false,"is_disabled":false,"rental_uris":{"android":"levelo://app?vid=1048326d-15a3-47bb-b1ed-5e1e84213221","ios":"levelo://app?vid=1048326d-15a3-47bb-b1ed-5e1e84213221"},"vehicle_type_id":"4","last_reported":1731402582,"current_range_meters":33600,"station_id":"ce4bhmp2rcd13ifvqgog","pricing_plan_id":"cebpf4jnsgd1na2vs0mg"},