{"last_updated":1711217293,"ttl":30,"version":"2.2","data":{"bikes":[{"bike_id":"4c682624-b341-4a47-a0ca-3d04edc3b8bf","system_id":"levelo_inurba_marseille","lat":43.312239,"lon":5.368562,"is_reserved":false,"is_disabled":false,"rental_uris":{"android":"levelo://app?vid=4c682624-b341-4a47-a0ca-3d04edc3b8bf","ios":"levelo://app?vid=4c682624-b341-4a47-a0ca-3d04edc3b8bf"},"vehicle_type_id":"4","last_reported":1711217293,"current_range_meters":6000,"station_id":"ce4bgl92rcd13ifvqbq0","pricing_plan_id":"cebpf4jnsgd1na2vs0mg"},{"bike_id":"2324b843-25df-4418-a3c5-11882aa2751c","system_id":"levelo_inurba_marseille","lat":43.312239,"lon":5.368562,"is_reserved":false,"is_disabled":false,"rental_uris":{"android":"levelo://app?vid=2324b843-25df-4418-a3c5-11882aa2751c","ios":"levelo://app?vid=2324b843-25df-4418-a3c5-11882aa2751c"},"vehicle_type_id":"4","last_reported":1711217293,"current_range_meters":14400,"station_id":"ce4bgl92rcd13ifvqbq0","pricing_plan_id":"cebpf4jnsgd1na2vs0mg"},{"bike_id":"5b6145b4-d8d3-4da6-8799-e3c101a50ff3","system_id":"levelo_inurba_marseille","lat":43.309076,"lon":5.368465,"is_reserved":false,"is_disabled":false,"rental_uris":{"android":"levelo://app?vid=5b6145b4-d8d3-4da6-8799-e3c101a50ff3","ios":"levelo://app?vid=5b6145b4-d8d3-4da6-8799-e3c101a50ff3"},"vehicle_type_id":"4","last_reported":1711217293,"current_range_meters":10800,"station_id":"ce4bgn92rcd13ifvqbvg","pricing_plan_id":"cebpf4jnsgd1na2vs0mg"},{"bike_id":"90647ce9-7224-45d1-94b9-490cb63eea25","system_id":"levelo_inurba_marseille","lat":43.30909,"lon":5.36847,"is_reserved":false,"is_disabled":false,"rental_uris":{"android":"levelo://app?vid=90647ce9-7224-45d1-94b9-490cb63eea25","ios":"levelo://app?vid=90647ce9-7224-45d1-94b9-490cb63eea25"},"vehicle_type_id":"4","last_reported":1711217293,"current_range_meters":14000,"station_id":"ce4bgn92rcd13ifvqbvg","pricing_plan_id":"cebpf4jnsgd1na2vs0mg"},{"bike_id":"1a65909d-2149-4afd-b179-9904a7c87e2b","system_id":"levelo_inurba_marseille","lat":43.30906,"lon":5.3685,"is_reserved":false,"is_disabled":false,"rental_uris":{"android":"levelo://app?vid=1a65909d-2149-4afd-b179-9904a7c87e2b","ios":"levelo://app?vid=1a65909d-2149-4afd-b179-9904a7c87e2b"},"vehicle_type_id":"4","last_reported":1711217293,"current_range_meters":18000,"station_id":"ce4bgn92rcd13ifvqbvg","pricing_plan_id":"cebpf4jnsgd1na2vs0mg"},{"bike_id":"63591acb-8e5f-4d79-95fe-d2e253450ac0","system_id":"levelo_inurba_marseille","lat":43.309076,"lon":5.368465,"is_reserved":false,"is_disabled":false,"rental_uris":{"android":"levelo://app?vid=63591acb-8e5f-4d79-95fe-d2e253450ac0","ios":"levelo://app?vid=63591acb-8e5f-4d79-95fe-d2e253450ac0"},"vehicle_type_id":"4","last_reported":1711217293,"current_range_meters":2000,"station_id":"ce4bgn92rcd13ifvqbvg","pricing_plan_id":"cebpf4jnsgd1na2vs0mg"},{"bike_id":"7a9487e3-3b23-4657-9501-a1045f115bfa","system_id":"levelo_inurba_marseille","lat":43.314811,"lon":5.373103,"is_reserved":false,"is_disabled":false,"rental_uris":{"android":"levelo://app?vid=7a9487e3-3b23-4657-9501-a1045f115bfa","ios":"levelo://app?vid=7a9487e3-3b23-4657-9501-a1045f115bfa"},"vehicle_type_id":"4","last_reported":1711217293,"current_range_meters":21600,"station_id":"ce4bgt12rcd13ifvqcd0","pricing_plan_id":"cebpf4jnsgd1na2vs0mg"},{"bike_id":"d15a963c-1fbc-4e16-b46a-c24a8a7d7f39","system_id":"levelo_inurba_marseille","lat":43.314963,"lon":5.373065,"is_reserved":false,"is_disabled":false,"rental_uris":{"android":"levelo://app?vid=d15a963c-1fbc-4e16-b46a-c24a8a7d7f39","ios":"levelo://app?vid=d15a963c-1fbc-4e16-b46a-c24a8a7d7f39"},"vehicle_type_id":"4","last_reported":1711217293,"current_range_meters":5600,"station_id":"ce4bgt12rcd13ifvqcd0","pricing_plan_id":"cebpf4jnsgd1na2vs0mg"},{"bike_id":"46e5d194-17a5-43e3-b0ee-1ac5ba1f1a16","system_id":"levelo_inurba_marseille","lat":43.31497,"lon":5.37308,"is_reserved":false,"is_disabled":false,"rental_uris":{"android":"levelo://app?vid=46e5d194-17a5-43e3-b0ee-1ac5ba1f1a16","ios":"levelo://app?vid=46e5d194-17a5-43e3-b0ee-1ac5ba1f1a16"},"vehicle_type_id":"4","last_reported":1711217293,"current_range_meters":0,"station_id":"ce4bgt12rcd13ifvqcd0","pricing_plan_id":"cebpf4jnsgd1na2vs0mg"},{"bike_id":"11df13b7-1474-435b-8ba4-987282885ecc","system_id":"levelo_inurba_marseille","lat":43.309039,"lon":5.371797,"is_reserved":false,"is_disabled":false,"rental_uris":{"android":"levelo://app?vid=11df13b7-1474-435b-8ba4-987282885ecc","ios":"levelo://app?vid=11df13b7-1474-435b-8ba4-987282885ecc"},"vehicle_type_id":"4","last_reported":1711217293,"current_range_meters":8800,"station_id":"ce4bguh2rcd13ifvqckg","pricing_plan_id":"cebpf4jnsgd1na2vs0mg"},{"bike_id":"3cf0b1fd-3d77-4ea1-a04f-f62279502d38","system_id":"levelo_inurba_marseille","lat":43.311125,"lon":5.377624,"is_reserved":false,"is_disabled":false,"rental_uris":{"android":"levelo://app?vid=3cf0b1fd-3d77-4ea1-a04f-f62279502d38","ios":"levelo://app?vid=3cf0b1fd-3d77-4ea1-a04f-f62279502d38"},"vehicle_type_id":"4","last_reported":1711217293,"current_range_meters":6800,"station_id":"ce4bgt92rcd13ifvqcg0","pricing_plan_id":"cebpf4jnsgd1na2vs0mg"},{"bike_id":"36922c23-dd5b-41c5-a564-1436a244428d","system_id":"levelo_inurba_marseille","lat":43.309076,"lon":5.368465,"is_reserved":false,"is_disabled":false,"rental_uris":{"android":"levelo://app?vid=36922c23-dd5b-41c5-a564-1436a244428d","ios":"levelo://app?vid=36922c23-dd5b-41c5-a564-1436a244428d"},"vehicle_type_id":"4","last_reported":1711217293,"current_range_meters":6400,"station_id":"ce4bgn92rcd13ifvqbvg","pricing_plan_id":"cebpf4jnsgd1na2vs0mg"},{"bike_id":"6083964a-f525-4ac7-b91e-c5ae818cf0d7","system_id":"levelo_inurba_marseille","lat":43.305368,"lon":5.367343,"is_reserved":false,"is_disabled":false,"rental_uris":{"android":"levelo://app?vid=6083964a-f525-4ac7-b91e-c5ae818cf0d7","ios":"levelo://app?vid=6083964a-f525-4ac7-b91e-c5ae818cf0d7"},"vehicle_type_id":"4","last_reported":1711217293,"current_range_meters":4400,"station_id":"ce4bgrp2rcd13ifvqc9g","pricing_plan_id":"cebpf4jnsgd1na2vs0mg"},{"bike_id":"d4972e9a-2808-4baa-b261-3eea3fc1a6f4","system_id":"levelo_inurba_marseille","lat":43.305706,"lon":5.365654,"is_reserved":false,"is_disabled":false,"rental_uris":{"android":"levelo://app?vid=d4972e9a-2808-4baa-b261-3eea3fc1a6f4","ios":"levelo://app?vid=d4972e9a-2808-4baa-b261-3eea3fc1a6f4"},"vehicle_type_id":"4","last_reported":1711217293,"current_range_meters":0,"station_id":"ce4bgs12rcd13ifvqcag","pricing_plan_id":"cebpf4jnsgd1na2vs0mg"},{"bike_id":"451f572d-ef3c-49a0-b9b9-e521fed7b50f","system_id":"levelo_inurba_marseille","lat":43.30532,"lon":5.36541,"is_reserved":false,"is_disabled":false,"rental_uris":{"android":"levelo://app?vid=451f572d-ef3c-49a0-b9b9-e521fed7b50f","ios":"levelo://app?vid=451f572d-ef3c-49a0-b9b9-e521fed7b50f"},"vehicle_type_id":"4","last_reported":1711217293,"current_range_meters":0,"station_id":"ce4bgs12rcd13ifvqcag","pricing_plan_id":"cebpf4jnsgd1na2vs0mg"},{"bike_id":"8c5d23e6-185c-48c1-be8e-717b35d00470","system_id":"levelo_inurba_marseille","lat":43.30533,"lon":5.36532,"is_reserved":false,"is_disabled":false,"rental_uris":{"android":"levelo://app?vid=8c5d23e6-185c-48c1-be8e-717b35d00470","ios":"levelo://app?vid=8c5d23e6-185c-48c1-be8e-717b35d00470"},"vehicle_type_id":"4","last_reported":1711217293,"current_range_meters":0,"station_id":"ce4bgs12rcd13ifvqcag","pricing_plan_id":"cebpf4jnsgd1na2vs0mg"},{"bike_id":"b15a01b7-fa54-4b0b-aad2-929299182ef8","system_id":"levelo_inurba_marseille","lat":43.305989,"lon":5.37225,"is_reserved":false,"is_disabled":false,"rental_uris":{"android":"levelo://app?vid=b15a01b7-fa54-4b0b-aad2-929299182ef8","ios":"levelo://app?vid=b15a01b7-fa54-4b0b-aad2-929299182ef8"},"vehicle_type_id":"4","last_reported":1711217293,"current_range_meters":10000,"station_id":"ce4bgqh2rcd13ifvqc4g","pricing_plan_id":"cebpf4jnsgd1na2vs0mg"},{"bike_id":"2dad6b24-88dd-4f9f-9c9b-1dab70d16147","system_id":"levelo_inurba_marseille","lat":43.305989,"lon":5.37225,"is_reserved":false,"is_disabled":false,"rental_uris":{"android":"levelo://app?vid=2dad6b24-88dd-4f9f-9c9b-1dab70d16147","ios":"levelo://app?vid=2dad6b24-88dd-4f9f-9c9b-1dab70d16147"},"vehicle_type_id":"4","last_reported":1711217293,"current_range_meters":1200,"station_id":"ce4bgqh2rcd13ifvqc4g","pricing_plan_id":"cebpf4jnsgd1na2vs0mg"},{"bike_id":"fc4d6114-8f4e-4f7f-9e47-086334bc1b42","system_id":"levelo_inurba_marseille","lat":43.311125,"lon":5.377624,"is_reserved":false,"is_disabled":false,"rental_uris":{"android":"levelo://app?vid=fc4d6114-8f4e-4f7f-9e47-086334bc1b42","ios":"levelo://app?vid=fc4d6114-8f4e-4f7f-9e47-086334bc1b42"},"vehicle_type_id":"4","last_reported":1711217293,"current_range_meters":5600,"station_id":"ce4bgt92rcd13ifvqcg0","pricing_plan_id":"cebpf4jnsgd1na2vs0mg"},{"bike_id":"0243ad6b-35d5-4e30-a2b8-471b2ed7d757","system_id":"levelo_inurba_marseille","lat":43.311125,"lon":5.377624,"is_reserved":false,"is_disabled":false,"rental_uris":{"android":"levelo://app?vid=0243ad6b-35d5-4e30-a2b8-471b2ed7d757","ios":"levelo://app?vid=0243ad6b-35d5-4e30-a2b8-471b2ed7d757"},"vehicle_type_id":"4","last_reported":1711217293,"current_range_meters":25200,"station_id":"ce4bgt92rcd13ifvqcg0","pricing_plan_id":"cebpf4jnsgd1na2vs0mg"},{"bike_id":"7909538e-f459-4b20-857c-e8e3f1bcc37f","system_id":"levelo_inurba_marseille","lat":43.311131,"lon":5.377651,"is_reserved":false,"is_disabled":false,"rental_uris":{"android":"levelo://app?vid=7909538e-f459-4b20-857c-e8e3f1bcc37f","ios":"levelo://app?vid=7909538e-f459-4b20-857c-e8e3f1bcc37f"},"vehicle_type_id":"4","last_reported":1711217293,"current_range_meters":8800,"station_id":"ce4bgt92rcd13ifvqcg0","pricing_plan_id":"cebpf4jnsgd1na2vs0mg"},{"bike_id":"9e180db9-1b5b-4628-a1a7-78f63ce023c1","system_id":"levelo_inurba_marseille","lat":43.311131,"lon":5.377651,"is_reserved":false,"is_disabled":false,"rental_uris":{"android":"levelo://app?vid=9e180db9-1b5b-4628-a1a7-78f63ce023c1","ios":"levelo://app?vid=9e180db9-1b5b-4628-a1a7-78f63ce023c1"},"vehicle_type_id":"4","last_reported":1711217293,"current_range_meters":25200,"station_id":"ce4bgt92rcd13ifvqcg0","pricing_plan_id":"cebpf4jnsgd1na2vs0mg"},{"bike_id":"72001c04-7b07-4bdc-8669-dfe1068b6c49","system_id":"levelo_inurba_marseille","lat":43.311125,"lon":5.377624,"is_reserved":false,"is_disabled":false,"rental_uris":{"android":"levelo://app?vid=72001c04-7b07-4bdc-8669-dfe1068b6c49","ios":"levelo://app?vid=72001c04-7b07-4bdc-8669-dfe1068b6c49"},"vehicle_type_id":"4","last_reported":1711217293,"current_range_meters":6000,"station_id":"ce4bgt92rcd13ifvqcg0","pricing_plan_id":"cebpf4jnsgd1na2vs0mg"},{"bike_id":"b916e65d-9470-4670-a63f-7acc05595928","system_id":"levelo_inurba_marseille","lat":43.31933,"lon":5.37393,"is_reserved":false,"is_disabled":false,"rental_uris":{"android":"levelo://app?vid=b916e65d-9470-4670-a63f-7acc05595928","ios":"levelo://app?vid=b916e65d-9470-4670-a63f-7acc05595928"},"vehicle_type_id":"4","last_reported":1711217293,"current_range_meters":24800,"station_id":"","pricing_plan_id":"cebpf4jnsgd1na2vs0mg"},{"bike_id":"8e41d9de-436f-4c14-9ba7-0a7997ad822a","system_id":"levelo_inurba_marseille","lat":43.319935,"lon":5.381699,"is_reserved":false,"is_disabled":false,"rental_uris":{"android":"levelo://app?vid=8e41d9de-436f-4c14-9ba7-0a7997ad822a","ios":"levelo://app?vid=8e41d9de-436f-4c14-9ba7-0a7997ad822a"},"vehicle_type_id":"4","last_reported":1711217293,"current_range_meters":3600,"station_id":"ce4bhr12rcd13ifvqhpg","pricing_plan_id":"cebpf4jnsgd1na2vs0mg"},{"bike_id":"af2367c0-83be-4298-9e7b-b3520bd16c10","system_id":"levelo_inurba_marseille","lat":43.307945,"lon":5.376487,"is_reserved":false,"is_disabled":false,"rental_uris":{"android":"levelo://app?vid=af2367c0-83be-4298-9e7b-b3520bd16c10","ios":"levelo://app?vid=af2367c0-83be-4298-9e7b-b3520bd16c10"},"vehicle_type_id":"4","last_reported":1711217293,"current_range_meters":15200,"station_id":"ce4bgv92rcd13ifvqcq0","pricing_plan_id":"cebpf4jnsgd1na2vs0mg"},{"bike_id":"2df12b92-2545-4d65-88d1-dbdc61e0cf51","system_id":"levelo_inurba_marseille","lat":43.30774,"lon":5.37659,"is_reserved":false,"is_disabled":false,"rental_uris":{"android":"levelo://app?vid=2df12b92-2545-4d65-88d1-dbdc61e0cf51","ios":"levelo://app?vid=2df12b92-2545-4d65-88d1-dbdc61e0cf51"},"vehicle_type_id":"4","last_reported":1711217293,"current_range_meters":0,"station_id":"ce4bgv92rcd13ifvqcq0","pricing_plan_id":"cebpf4jnsgd1na2vs0mg"},{"bike_id":"119d13e6-624c-4a49-8d33-82350671da9e","system_id":"levelo_inurba_marseille","lat":43.317075,"lon":5.377367,"is_reserved":false,"is_disabled":false,"rental_uris":{"android":"levelo://app?vid=119d13e6-624c-4a49-8d33-82350671da9e","ios":"levelo://app?vid=119d13e6-624c-4a49-8d33-82350671da9e"},"vehicle_type_id":"4","last_reported":1711217293,"current_range_meters":11600,"station_id":"ce4bgth2rcd13ifvqch0","pricing_plan_id":"cebpf4jnsgd1na2vs0mg"},{"bike_id":"4f94beb4-d9c8-4ce6-a620-c47a83649b9b","system_id":"levelo_inurba_marseille","lat":43.317075,"lon":5.377367,"is_reserved":false,"is_disabled":false,"rental_uris":{"android":"levelo://app?vid=4f94beb4-d9c8-4ce6-a620-c47a83649b9b","ios":"levelo://app?vid=4f94beb4-d9c8-4ce6-a620-c47a83649b9b"},"vehicle_type_id":"4","last_reported":1711217293,"current_range_meters":0,"station_id":"ce4bgth2rcd13ifvqch0","pricing_plan_id":"cebpf4jnsgd1na2vs0mg"},{"bike_id":"59e8db1e-4c89-4c4d-821f-a972463d0012","system_id":"levelo_inurba_marseille","lat":43.317075,"lon":5.377367,"is_reserved":false,"is_disabled":false,"rental_uris":{"android":"levelo://app?vid=59e8db1e-4c89-4c4d-821f-a972463d0012","ios":"levelo://app?vid=59e8db1e-4c89-4c4d-821f-a972463d0012"},"vehicle_type_id":"4","last_reported":1711217293,"current_range_meters":6400,"station_id":"ce4bgth2rcd13ifvqch0","pricing_plan_id":"cebpf4jnsgd1na2vs0mg"},{"bike_id":"9dba8faa-be30-4458-8d55-a2843a459800","system_id":"levelo_inurba_marseille","lat":43.317075,"lon":5.377367,"is_reserved":false,"is_disabled":false,"rental_uris":{"android":"levelo://app?vid=9dba8faa-be30-4458-8d55-a2843a459800","ios":"levelo://app?vid=9dba8faa-be30-4458-8d55-a2843a459800"},"vehicle_type_id":"4","last_reported":1711217293,"current_range_meters":16800,"station_id":"ce4bgth2rcd13ifvqch0","pricing_plan_id":"cebpf4jnsgd1na2vs0mg"},{"bike_id":"92483286-dfec-4071-865e-71e94ecb6259","system_id":"levelo_inurba_marseille","lat":43.31709,"lon":5.37753,"is_reserved":false,"is_disabled":false,"rental_uris":{"android":"levelo://app?vid=92483286-dfec-4071-865e-71e94ecb6259","ios":"levelo://app?vid=92483286-dfec-4071-865e-71e94ecb6259"},"vehicle_type_id":"4","last_reported":1711217293,"current_range_meters":0,"station_id":"ce4bgth2rcd13ifvqch0","pricing_plan_id":"cebpf4jnsgd1na2vs0mg"},{"bike_id":"7692f021-ce8f-4596-9df3-d7eabbba993e","system_id":"levelo_inurba_marseille","lat":43.317052,"lon":5.377654,"is_reserved":false,"is_disabled":false,"rental_uris":{"android":"levelo://app?vid=7692f021-ce8f-4596-9df3-d7eabbba993e","ios":"levelo://app?vid=7692f021-ce8f-4596-9df3-d7eabbba993e"},"vehicle_type_id":"4","last_reported":1711217293,"current_range_meters":4800,"station_id":"ce4bgth2rcd13ifvqch0","pricing_plan_id":"cebpf4jnsgd1na2vs0mg"},{"bike_id":"20c7cc37-4871-440b-abeb-a3d89d71c933","system_id":"levelo_inurba_marseille","lat":43.303046,"lon":5.368981,"is_reserved":false,"is_disabled":false,"rental_uris":{"android":"levelo://app?vid=20c7cc37-4871-440b-abeb-a3d89d71c933","ios":"levelo://app?vid=20c7cc37-4871-440b-abeb-a3d89d71c933"},"vehicle_type_id":"4","last_reported":1711217293,"current_range_meters":0,"station_id":"ce4bgqh2rcd13ifvqc5g","pricing_plan_id":"cebpf4jnsgd1na2vs0mg"},{"bike_id":"34ad4ab9-7307-4791-9845-37cc61049cfc","system_id":"levelo_inurba_marseille","lat":43.303046,"lon":5.368981,"is_reserved":false,"is_disabled":false,"rental_uris":{"android":"levelo://app?vid=34ad4ab9-7307-4791-9845-37cc61049cfc","ios":"levelo://app?vid=34ad4ab9-7307-4791-9845-37cc61049cfc"},"vehicle_type_id":"4","last_reported":1711217293,"current_range_meters":0,"station_id":"ce4bgqh2rcd13ifvqc5g","pricing_plan_id":"cebpf4jnsgd1na2vs0mg"},{"bike_id":"a1f4fd5a-cf30-4b3a-9597-b4acc43a4768","system_id":"levelo_inurba_marseille","lat":43.303046,"lon":5.368981,"is_reserved":false,"is_disabled":false,"rental_uris":{"android":"levelo://app?vid=a1f4fd5a-cf30-4b3a-9597-b4acc43a4768","ios":"levelo://app?vid=a1f4fd5a-cf30-4b3a-9597-b4acc43a4768"},"vehicle_type_id":"4","last_reported":1711217293,"current_range_meters":0,"station_id":"ce4bgqh2rcd13ifvqc5g","pricing_plan_id":"cebpf4jnsgd1na2vs0mg"},{"bike_id":"0b5559fc-3889-4222-baa3-e39126b8a1ed","system_id":"levelo_inurba_marseille","lat":43.315293,"lon":5.380349,"is_reserved":false,"is_disabled":false,"rental_uris":{"android":"levelo://app?vid=0b5559fc-3889-4222-baa3-e39126b8a1ed","ios":"levelo://app?vid=0b5559fc-3889-4222-baa3-e39126b8a1ed"},"vehicle_type_id":"4","last_reported":1711217293,"current_range_meters":10800,"station_id":"ce4bhsp2rcd13ifvqi50","pricing_plan_id":"cebpf4jnsgd1na2vs0mg"},{"bike_id":"eb61974e-6c13-4064-b0b3-ddd66847d8e8","system_id":"levelo_inurba_marseille","lat":43.315293,"lon":5.380349,"is_reserved":false,"is_disabled":false,"rental_uris":{"android":"levelo://app?vid=eb61974e-6c13-4064-b0b3-ddd66847d8e8","ios":"levelo://app?vid=eb61974e-6c13-4064-b0b3-ddd66847d8e8"},"vehicle_type_id":"4","last_reported":1711217293,"current_range_meters":28800,"station_id":"ce4bhsp2rcd13ifvqi50","pricing_plan_id":"cebpf4jnsgd1na2vs0mg"},{"bike_id":"c9fbbd7f-ec95-4709-a64a-e2ff2bdc6667","system_id":"levelo_inurba_marseille","lat":43.301939,"lon":5.366286,"is_reserved":false,"is_disabled":false,"rental_uris":{"android":"levelo://app?vid=c9fbbd7f-ec95-4709-a64a-e2ff2bdc6667","ios":"levelo://app?vid=c9fbbd7f-ec95-4709-a64a-e2ff2bdc6667"},"vehicle_type_id":"4","last_reported":1711217293,"current_range_meters":6800,"station_id":"ce4bgrh2rcd13ifvqc8g","pricing_plan_id":"cebpf4jnsgd1na2vs0mg"},{"bike_id":"d5d7f7d1-0592-4acf-ae6c-182a44487f66","system_id":"levelo_inurba_marseille","lat":43.301939,"lon":5.366286,"is_reserved":false,"is_disabled":false,"rental_uris":{"android":"levelo://app?vid=d5d7f7d1-0592-4acf-ae6c-182a44487f66","ios":"levelo://app?vid=d5d7f7d1-0592-4acf-ae6c-182a44487f66"},"vehicle_type_id":"4","last_reported":1711217293,"current_range_meters":16000,"station_id":"ce4bgrh2rcd13ifvqc8g","pricing_plan_id":"cebpf4jnsgd1na2vs0mg"},{"bike_id":"4f006df7-4021-4894-a978-e7fbd68140e6","system_id":"levelo_inurba_marseille","lat":43.316112,"lon":5.381842,"is_reserved":false,"is_disabled":false,"rental_uris":{"android":"levelo://app?vid=4f006df7-4021-4894-a978-e7fbd68140e6","ios":"levelo://app?vid=4f006df7-4021-4894-a978-e7fbd68140e6"},"vehicle_type_id":"4","last_reported":1711217293,"current_range_meters":11600,"station_id":"","pricing_plan_id":"cebpf4jnsgd1na2vs0mg"},{"bike_id":"e5dd2649-76d6-414a-98c0-0b2972a2ec78","system_id":"levelo_inurba_marseille","lat":43.30808,"lon":5.38134,"is_reserved":false,"is_disabled":false,"rental_uris":{"android":"levelo://app?vid=e5dd2649-76d6-414a-98c0-0b2972a2ec78","ios":"levelo://app?vid=e5dd2649-76d6-414a-98c0-0b2972a2ec78"},"vehicle_type_id":"4","last_reported":1711217293,"current_range_meters":0,"station_id":"ce4bgt12rcd13ifvqce0","pricing_plan_id":"cebpf4jnsgd1na2vs0mg"},{"bike_id":"f902d019-28cf-4a4a-88b1-1b908d574e19","system_id":"levelo_inurba_marseille","lat":43.308012,"lon":5.381511,"is_reserved":false,"is_disabled":false,"rental_uris":{"android":"levelo://app?vid=f902d019-28cf-4a4a-88b1-1b908d574e19","ios":"levelo://app?vid=f902d019-28cf-4a4a-88b1-1b908d574e19"},"vehicle_type_id":"4","last_reported":1711217293,"current_range_meters":14800,"station_id":"ce4bgt12rcd13ifvqce0","pricing_plan_id":"cebpf4jnsgd1na2vs0mg"},{"bike_id":"be2b6aad-9714-4f72-a0bf-2dc1b674be58","system_id":"levelo_inurba_marseille","lat":43.308012,"lon":5.381511,"is_reserved":false,"is_disabled":false,"rental_uris":{"android":"levelo://app?vid=be2b6aad-9714-4f72-a0bf-2dc1b674be58","ios":"levelo://app?vid=be2b6aad-9714-4f72-a0bf-2dc1b674be58"},"vehicle_type_id":"4","last_reported":1711217293,"current_range_meters":6000,"station_id":"ce4bgt12rcd13ifvqce0","pricing_plan_id":"cebpf4jnsgd1na2vs0mg"},{"bike_id":"8d6b861e-20ca-4a09-ab8b-69de82622aef","system_id":"levelo_inurba_marseille","lat":43.30463,"lon":5.37894,"is_reserved":false,"is_disabled":false,"rental_uris":{"android":"levelo://app?vid=8d6b861e-20ca-4a09-ab8b-69de82622aef","ios":"levelo://app?vid=8d6b861e-20ca-4a09-ab8b-69de82622aef"},"vehicle_type_id":"4","last_reported":1711217293,"current_range_meters":0,"station_id":"ce4bgup2rcd13ifvqcn0","pricing_plan_id":"cebpf4jnsgd1na2vs0mg"},{"bike_id":"1da5e40e-58a0-4d1b-a7e7-2641b7356d14","system_id":"levelo_inurba_marseille","lat":43.324771,"lon":5.36557,"is_reserved":false,"is_disabled":false,"rental_uris":{"android":"levelo://app?vid=1da5e40e-58a0-4d1b-a7e7-2641b7356d14","ios":"levelo://app?vid=1da5e40e-58a0-4d1b-a7e7-2641b7356d14"},"vehicle_type_id":"4","last_reported":1711217293,"current_range_meters":3600,"station_id":"ce4bhs12rcd13ifvqhvg","pricing_plan_id":"cebpf4jnsgd1na2vs0mg"},{"bike_id":"ca7e6977-44ec-4b1f-8fe2-f0a04aa8303f","system_id":"levelo_inurba_marseille","lat":43.324771,"lon":5.36557,"is_reserved":false,"is_disabled":false,"rental_uris":{"android":"levelo://app?vid=ca7e6977-44ec-4b1f-8fe2-f0a04aa8303f","ios":"levelo://app?vid=ca7e6977-44ec-4b1f-8fe2-f0a04aa8303f"},"vehicle_type_id":"4","last_reported":1711217293,"current_range_meters":28800,"station_id":"ce4bhs12rcd13ifvqhvg","pricing_plan_id":"cebpf4jnsgd1na2vs0mg"},{"bike_id":"d7bbf469-0702-482a-9065-81a731bc5d18","system_id":"levelo_inurba_marseille","lat":43.324771,"lon":5.36557,"is_reserved":false,"is_disabled":false,"rental_uris":{"android":"levelo://app?vid=d7bbf469-0702-482a-9065-81a731bc5d18","ios":"levelo://app?vid=d7bbf469-0702-482a-9065-81a731bc5d18"},"vehicle_type_id":"4","last_reported":1711217293,"current_range_meters":2000,"station_id":"ce4bhs12rcd13ifvqhvg","pricing_plan_id":"cebpf4jnsgd1na2vs0mg"},{"bike_id":"6cc20f86-eab6-4635-8f90-6882d139dbf5","system_id":"levelo_inurba_marseille","lat":43.324771,"lon":5.36557,"is_reserved":false,"is_disabled":false,"rental_uris":{"android":"levelo://app?vid=6cc20f86-eab6-4635-8f90-6882d139dbf5","ios":"levelo://app?vid=6cc20f86-eab6-4635-8f90-6882d139dbf5"},"vehicle_type_id":"4","last_reported":1711217293,"current_range_meters":27600,"station_id":"ce4bhs12rcd13ifvqhvg","pricing_plan_id":"cebpf4jnsgd1na2vs0mg"},{"bike_id":"7da53701-90d3-4a38-995f-79eab59d821c","system_id":"levelo_inurba_marseille","lat":43.324771,"lon":5.36557,"is_reserved":false,"is_disabled":false,"rental_uris":{"android":"levelo://app?vid=7da53701-90d3-4a38-995f-79eab59d821c","ios":"levelo://app?vid=7da53701-90d3-4a38-995f-79eab59d821c"},"vehicle_type_id":"4","last_reported":1711217293,"current_range_meters":400,"station_id":"ce4bhs12rcd13ifvqhvg","pricing_plan_id":"cebpf4jnsgd1na2vs0mg"},{"bike_id":"fa05d3e5-f409-4e05-ace7-f6f819e528e8","system_id":"levelo_inurba_marseille","lat":43.32482,"lon":5.365599,"is_reserved":false,"is_disabled":false,"rental_uris":{"android":"levelo://app?vid=fa05d3e5-f409-4e05-ace7-f6f819e528e8","ios":"levelo://app?vid=fa05d3e5-f409-4e05-ace7-f6f819e528e8"},"vehicle_type_id":"4","last_reported":1711217293,"current_range_meters":4400,"station_id":"ce4bhs12rcd13ifvqhvg","pricing_plan_id":"cebpf4jnsgd1na2vs0mg"},{"bike_id":"b88553c7-39de-4a84-8d1f-6c11f9d43ddb","system_id":"levelo_inurba_marseille","lat":43.324771,"lon":5.36557,"is_reserved":false,"is_disabled":false,"rental_uris":{"android":"levelo://app?vid=b88553c7-39de-4a84-8d1f-6c11f9d43ddb","ios":"levelo://app?vid=b88553c7-39de-4a84-8d1f-6c11f9d43ddb"},"vehicle_type_id":"4","last_reported":1711217293,"current_range_meters":3200,"station_id":"ce4bhs12rcd13ifvqhvg","pricing_plan_id":"cebpf4jnsgd1na2vs0mg"},{"bike_id":"fb073e17-0d3a-45b1-86d1-1c76902a33ac","system_id":"levelo_inurba_marseille","lat":43.324771,"lon":5.36557,"is_reserved":false,"is_disabled":false,"rental_uris":{"android":"levelo://app?vid=fb073e17-0d3a-45b1-86d1-1c76902a33ac","ios":"levelo://app?vid=fb073e17-0d3a-45b1-86d1-1c76902a33ac"},"vehicle_type_id":"4","last_reported":1711217293,"current_range_meters":8400,"station_id":"ce4bhs12rcd13ifvqhvg","pricing_plan_id":"cebpf4jnsgd1na2vs0mg"},{"bike_id":"f5faf25f-fb90-4a21-8107-de16028ff217","system_id":"levelo_inurba_marseille","lat":43.32485,"lon":5.36565,"is_reserved":false,"is_disabled":false,"rental_uris":{"android":"levelo://app?vid=f5faf25f-fb90-4a21-8107-de16028ff217","ios":"levelo://app?vid=f5faf25f-fb90-4a21-8107-de16028ff217"},"vehicle_type_id":"4","last_reported":1711217293,"current_range_meters":3200,"station_id":"ce4bhs12rcd13ifvqhvg","pricing_plan_id":"cebpf4jnsgd1na2vs0mg"},{"bike_id":"4dd5e982-99eb-402b-9e42-7f84f6fe1ae1","system_id":"levelo_inurba_marseille","lat":43.32489,"lon":5.36561,"is_reserved":false,"is_disabled":false,"rental_uris":{"android":"levelo://app?vid=4dd5e982-99eb-402b-9e42-7f84f6fe1ae1","ios":"levelo://app?vid=4dd5e982-99eb-402b-9e42-7f84f6fe1ae1"},"vehicle_type_id":"4","last_reported":1711217293,"current_range_meters":10400,"station_id":"ce4bhs12rcd13ifvqhvg","pricing_plan_id":"cebpf4jnsgd1na2vs0mg"},{"bike_id":"efb53d63-8279-44ee-bdda-dd538e60645b","system_id":"levelo_inurba_marseille","lat":43.310753,"lon":5.38358,"is_reserved":false,"is_disabled":false,"rental_uris":{"android":"levelo://app?vid=efb53d63-8279-44ee-bdda-dd538e60645b","ios":"levelo://app?vid=efb53d63-8279-44ee-bdda-dd538e60645b"},"vehicle_type_id":"4","last_reported":1711217293,"current_range_meters":0,"station_id":"ce4bgv92rcd13ifvqcr0","pricing_plan_id":"cebpf4jnsgd1na2vs0mg"},{"bike_id":"16a29715-d413-4a15-9f67-6bfcdfc61d62","system_id":"levelo_inurba_marseille","lat":43.313571,"lon":5.384829,"is_reserved":false,"is_disabled":false,"rental_uris":{"android":"levelo://app?vid=16a29715-d413-4a15-9f67-6bfcdfc61d62","ios":"levelo://app?vid=16a29715-d413-4a15-9f67-6bfcdfc61d62"},"vehicle_type_id":"4","last_reported":1711217293,"current_range_meters":10000,"station_id":"ce4bgt92rcd13ifvqcf0","pricing_plan_id":"cebpf4jnsgd1na2vs0mg"},{"bike_id":"73175961-e6f4-4982-9652-acd10da10d76","system_id":"levelo_inurba_marseille","lat":43.313571,"lon":5.384829,"is_reserved":false,"is_disabled":false,"rental_uris":{"android":"levelo://app?vid=73175961-e6f4-4982-9652-acd10da10d76","ios":"levelo://app?vid=73175961-e6f4-4982-9652-acd10da10d76"},"vehicle_type_id":"4","last_reported":1711217293,"current_range_meters":8800,"station_id":"ce4bgt92rcd13ifvqcf0","pricing_plan_id":"cebpf4jnsgd1na2vs0mg"},{"bike_id":"af8df512-d1f0-4466-97fa-6447e030e183","system_id":"levelo_inurba_marseille","lat":43.313571,"lon":5.384829,"is_reserved":false,"is_disabled":false,"rental_uris":{"android":"levelo://app?vid=af8df512-d1f0-4466-97fa-6447e030e183","ios":"levelo://app?vid=af8df512-d1f0-4466-97fa-6447e030e183"},"vehicle_type_id":"4","last_reported":1711217293,"current_range_meters":2000,"station_id":"ce4bgt92rcd13ifvqcf0","pricing_plan_id":"cebpf4jnsgd1na2vs0mg"},{"bike_id":"80da3f11-6ba2-40ab-bd81-264e0b1e7d58","system_id":"levelo_inurba_marseille","lat":43.313571,"lon":5.384829,"is_reserved":false,"is_disabled":false,"rental_uris":{"android":"levelo://app?vid=80da3f11-6ba2-40ab-bd81-264e0b1e7d58","ios":"levelo://app?vid=80da3f11-6ba2-40ab-bd81-264e0b1e7d58"},"vehicle_type_id":"4","last_reported":1711217293,"current_range_meters":6000,"station_id":"ce4bgt92rcd13ifvqcf0","pricing_plan_id":"cebpf4jnsgd1na2vs0mg"},{"bike_id":"f44f383c-fd8b-4cdb-8523-51d1f924247f","system_id":"levelo_inurba_marseille","lat":43.299724,"lon":5.371829,"is_reserved":false,"is_disabled":false,"rental_uris":{"android":"levelo://app?vid=f44f383c-fd8b-4cdb-8523-51d1f924247f","ios":"levelo://app?vid=f44f383c-fd8b-4cdb-8523-51d1f924247f"},"vehicle_type_id":"4","last_reported":1711217293,"current_range_meters":8000,"station_id":"ce4bgr92rcd13ifvqc7g","pricing_plan_id":"cebpf4jnsgd1na2vs0mg"},{"bike_id":"9df17fd7-c999-420d-836c-29d8c739b660","system_id":"levelo_inurba_marseille","lat":43.299724,"lon":5.371829,"is_reserved":false,"is_disabled":false,"rental_uris":{"android":"levelo://app?vid=9df17fd7-c999-420d-836c-29d8c739b660","ios":"levelo://app?vid=9df17fd7-c999-420d-836c-29d8c739b660"},"vehicle_type_id":"4","last_reported":1711217293,"current_range_meters":0,"station_id":"ce4bgr92rcd13ifvqc7g","pricing_plan_id":"cebpf4jnsgd1na2vs0mg"},{"bike_id":"d3d3ecf6-c2e9-4877-8f7f-9e118ba93da5","system_id":"levelo_inurba_marseille","lat":43.299881,"lon":5.371823,"is_reserved":false,"is_disabled":false,"rental_uris":{"android":"levelo://app?vid=d3d3ecf6-c2e9-4877-8f7f-9e118ba93da5","ios":"levelo://app?vid=d3d3ecf6-c2e9-4877-8f7f-9e118ba93da5"},"vehicle_type_id":"4","last_reported":1711217293,"current_range_meters":0,"station_id":"ce4bgr92rcd13ifvqc7g","pricing_plan_id":"cebpf4jnsgd1na2vs0mg"},{"bike_id":"4353289a-440e-455d-9f55-37a0e3f69bbe","system_id":"levelo_inurba_marseille","lat":43.299724,"lon":5.371829,"is_reserved":false,"is_disabled":false,"rental_uris":{"android":"levelo://app?vid=4353289a-440e-455d-9f55-37a0e3f69bbe","ios":"levelo://app?vid=4353289a-440e-455d-9f55-37a0e3f69bbe"},"vehicle_type_id":"4","last_reported":1711217293,"current_range_meters":0,"station_id":"ce4bgr92rcd13ifvqc7g","pricing_plan_id":"cebpf4jnsgd1na2vs0mg"},{"bike_id":"1cc55de5-e6fc-412a-831c-03871d71d130","system_id":"levelo_inurba_marseille","lat":43.299724,"lon":5.371829,"is_reserved":false,"is_disabled":false,"rental_uris":{"android":"levelo://app?vid=1cc55de5-e6fc-412a-831c-03871d71d130","ios":"levelo://app?vid=1cc55de5-e6fc-412a-831c-03871d71d130"},"vehicle_type_id":"4","last_reported":1711217293,"current_range_meters":1200,"station_id":"ce4bgr92rcd13ifvqc7g","pricing_plan_id":"cebpf4jnsgd1na2vs0mg"},{"bike_id":"8e9c9c4a-c4de-4f74-8769-3249f514a60a","system_id":"levelo_inurba_marseille","lat":43.299724,"lon":5.371829,"is_reserved":false,"is_disabled":false,"rental_uris":{"android":"levelo://app?vid=8e9c9c4a-c4de-4f74-8769-3249f514a60a","ios":"levelo://app?vid=8e9c9c4a-c4de-4f74-8769-3249f514a60a"},"vehicle_type_id":"4","last_reported":1711217293,"current_range_meters":9600,"station_id":"ce4bgr92rcd13ifvqc7g","pricing_plan_id":"cebpf4jnsgd1na2vs0mg"},{"bike_id":"ae6d518f-0bd1-4c99-b314-03dc3a48f3d0","system_id":"levelo_inurba_marseille","lat":43.299724,"lon":5.371829,"is_reserved":false,"is_disabled":false,"rental_uris":{"android":"levelo://app?vid=ae6d518f-0bd1-4c99-b314-03dc3a48f3d0","ios":"levelo://app?vid=ae6d518f-0bd1-4c99-b314-03dc3a48f3d0"},"vehicle_type_id":"4","last_reported":1711217293,"current_range_meters":11200,"station_id":"ce4bgr92rcd13ifvqc7g","pricing_plan_id":"cebpf4jnsgd1na2vs0mg"},{"bike_id":"efa43d8f-4739-455f-a4f7-f471edf75064","system_id":"levelo_inurba_marseille","lat":43.299724,"lon":5.371829,"is_reserved":false,"is_disabled":false,"rental_uris":{"android":"levelo://app?vid=efa43d8f-4739-455f-a4f7-f471edf75064","ios":"levelo://app?vid=efa43d8f-4739-455f-a4f7-f471edf75064"},"vehicle_type_id":"4","last_reported":1711217293,"current_range_meters":15600,"station_id":"ce4bgr92rcd13ifvqc7g","pricing_plan_id":"cebpf4jnsgd1na2vs0mg"},{"bike_id":"633787d4-8624-4dca-897f-8e6cc3ef2c92","system_id":"levelo_inurba_marseille","lat":43.299724,"lon":5.371829,"is_reserved":false,"is_disabled":false,"rental_uris":{"android":"levelo://app?vid=633787d4-8624-4dca-897f-8e6cc3ef2c92","ios":"levelo://app?vid=633787d4-8624-4dca-897f-8e6cc3ef2c92"},"vehicle_type_id":"4","last_reported":1711217293,"current_range_meters":0,"station_id":"ce4bgr92rcd13ifvqc7g","pricing_plan_id":"cebpf4jnsgd1na2vs0mg"},{"bike_id":"3f29d82f-65f5-4ffc-8f3a-5a1b98e718ff","system_id":"levelo_inurba_marseille","lat":43.299724,"lon":5.371829,"is_reserved":false,"is_disabled":false,"rental_uris":{"android":"levelo://app?vid=3f29d82f-65f5-4ffc-8f3a-5a1b98e718ff","ios":"levelo://app?vid=3f29d82f-65f5-4ffc-8f3a-5a1b98e718ff"},"vehicle_type_id":"4","last_reported":1711217293,"current_range_meters":12000,"station_id":"ce4bgr92rcd13ifvqc7g","pricing_plan_id":"cebpf4jnsgd1na2vs0mg"},{"bike_id":"89a2346a-f5b9-46ed-8557-b90c06bddd58","system_id":"levelo_inurba_marseille","lat":43.299724,"lon":5.371829,"is_reserved":false,"is_disabled":false,"rental_uris":{"android":"levelo://app?vid=89a2346a-f5b9-46ed-8557-b90c06bddd58","ios":"levelo://app?vid=89a2346a-f5b9-46ed-8557-b90c06bddd58"},"vehicle_type_id":"4","last_reported":1711217293,"current_range_meters":5200,"station_id":"ce4bgr92rcd13ifvqc7g","pricing_plan_id":"cebpf4jnsgd1na2vs0mg"},{"bike_id":"f697ad1a-c0d2-4e2e-8b08-38cc745081b7","system_id":"levelo_inurba_marseille","lat":43.299724,"lon":5.371829,"is_reserved":false,"is_disabled":false,"rental_uris":{"android":"levelo://app?vid=f697ad1a-c0d2-4e2e-8b08-38cc745081b7","ios":"levelo://app?vid=f697ad1a-c0d2-4e2e-8b08-38cc745081b7"},"vehicle_type_id":"4","last_reported":1711217293,"current_range_meters":5600,"station_id":"ce4bgr92rcd13ifvqc7g","pricing_plan_id":"cebpf4jnsgd1na2vs0mg"},{"bike_id":"0130f206-19b1-4a03-aaaa-f73905a69fe1","system_id":"levelo_inurba_marseille","lat":43.29853,"lon":5.36284,"is_reserved":false,"is_disabled":false,"rental_uris":{"android":"levelo://app?vid=0130f206-19b1-4a03-aaaa-f73905a69fe1","ios":"levelo://app?vid=0130f206-19b1-4a03-aaaa-f73905a69fe1"},"vehicle_type_id":"4","last_reported":1711217293,"current_range_meters":0,"station_id":"ce4bgpp2rcd13ifvqc3g","pricing_plan_id":"cebpf4jnsgd1na2vs0mg"},{"bike_id":"1a821e86-4972-4ab3-b404-3adab49a2bda","system_id":"levelo_inurba_marseille","lat":43.305364,"lon":5.384119,"is_reserved":false,"is_disabled":false,"rental_uris":{"android":"levelo://app?vid=1a821e86-4972-4ab3-b404-3adab49a2bda","ios":"levelo://app?vid=1a821e86-4972-4ab3-b404-3adab49a2bda"},"vehicle_type_id":"4","last_reported":1711217293,"current_range_meters":6000,"station_id":"ce4bgg92rcd13ifvqb30","pricing_plan_id":"cebpf4jnsgd1na2vs0mg"},{"bike_id":"479878ec-8507-4d72-9635-fb325a54fb3a","system_id":"levelo_inurba_marseille","lat":43.298433,"lon":5.362774,"is_reserved":false,"is_disabled":false,"rental_uris":{"android":"levelo://app?vid=479878ec-8507-4d72-9635-fb325a54fb3a","ios":"levelo://app?vid=479878ec-8507-4d72-9635-fb325a54fb3a"},"vehicle_type_id":"4","last_reported":1711217293,"current_range_meters":17200,"station_id":"ce4bgpp2rcd13ifvqc3g","pricing_plan_id":"cebpf4jnsgd1na2vs0mg"},{"bike_id":"32c385e9-cbb2-463a-b8de-0833b36aa241","system_id":"levelo_inurba_marseille","lat":43.298433,"lon":5.362774,"is_reserved":false,"is_disabled":false,"rental_uris":{"android":"levelo://app?vid=32c385e9-cbb2-463a-b8de-0833b36aa241","ios":"levelo://app?vid=32c385e9-cbb2-463a-b8de-0833b36aa241"},"vehicle_type_id":"4","last_reported":1711217293,"current_range_meters":25200,"station_id":"ce4bgpp2rcd13ifvqc3g","pricing_plan_id":"cebpf4jnsgd1na2vs0mg"},{"bike_id":"b94c9bf0-29bd-404d-878b-b052ddecbe9b","system_id":"levelo_inurba_marseille","lat":43.298433,"lon":5.362774,"is_reserved":false,"is_disabled":false,"rental_uris":{"android":"levelo://app?vid=b94c9bf0-29bd-404d-878b-b052ddecbe9b","ios":"levelo://app?vid=b94c9bf0-29bd-404d-878b-b052ddecbe9b"},"vehicle_type_id":"4","last_reported":1711217293,"current_range_meters":12000,"station_id":"ce4bgpp2rcd13ifvqc3g","pricing_plan_id":"cebpf4jnsgd1na2vs0mg"},{"bike_id":"382bcc30-e1a4-4696-96ba-090d940ce6e7","system_id":"levelo_inurba_marseille","lat":43.298433,"lon":5.362774,"is_reserved":false,"is_disabled":false,"rental_uris":{"android":"levelo://app?vid=382bcc30-e1a4-4696-96ba-090d940ce6e7","ios":"levelo://app?vid=382bcc30-e1a4-4696-96ba-090d940ce6e7"},"vehicle_type_id":"4","last_reported":1711217293,"current_range_meters":0,"station_id":"ce4bgpp2rcd13ifvqc3g","pricing_plan_id":"cebpf4jnsgd1na2vs0mg"},{"bike_id":"ac2372c3-edb8-416e-8f8a-f118ff312a52","system_id":"levelo_inurba_marseille","lat":43.298433,"lon":5.362774,"is_reserved":false,"is_disabled":false,"rental_uris":{"android":"levelo://app?vid=ac2372c3-edb8-416e-8f8a-f118ff312a52","ios":"levelo://app?vid=ac2372c3-edb8-416e-8f8a-f118ff312a52"},"vehicle_type_id":"4","last_reported":1711217293,"current_range_meters":8400,"station_id":"ce4bgpp2rcd13ifvqc3g","pricing_plan_id":"cebpf4jnsgd1na2vs0mg"},{"bike_id":"b853ca96-0a1e-44b7-926b-cad26d2fd35b","system_id":"levelo_inurba_marseille","lat":43.298433,"lon":5.362774,"is_reserved":false,"is_disabled":false,"rental_uris":{"android":"levelo://app?vid=b853ca96-0a1e-44b7-926b-cad26d2fd35b","ios":"levelo://app?vid=b853ca96-0a1e-44b7-926b-cad26d2fd35b"},"vehicle_type_id":"4","last_reported":1711217293,"current_range_meters":800,"station_id":"ce4bgpp2rcd13ifvqc3g","pricing_plan_id":"cebpf4jnsgd1na2vs0mg"},{"bike_id":"4a055de6-47a3-4f55-a8f3-fa5ab541ebcb","system_id":"levelo_inurba_marseille","lat":43.298433,"lon":5.362774,"is_reserved":false,"is_disabled":false,"rental_uris":{"android":"levelo://app?vid=4a055de6-47a3-4f55-a8f3-fa5ab541ebcb","ios":"levelo://app?vid=4a055de6-47a3-4f55-a8f3-fa5ab541ebcb"},"vehicle_type_id":"4","last_reported":1711217293,"current_range_meters":20000,"station_id":"ce4bgpp2rcd13ifvqc3g","pricing_plan_id":"cebpf4jnsgd1na2vs0mg"},{"bike_id":"018eddbe-f556-4fe1-b6b8-9340954f547e","system_id":"levelo_inurba_marseille","lat":43.299243,"lon":5.374807,"is_reserved":false,"is_disabled":false,"rental_uris":{"android":"levelo://app?vid=018eddbe-f556-4fe1-b6b8-9340954f547e","ios":"levelo://app?vid=018eddbe-f556-4fe1-b6b8-9340954f547e"},"vehicle_type_id":"4","last_reported":1711217293,"current_range_meters":8000,"station_id":"ce4bgjh2rcd13ifvqbg0","pricing_plan_id":"cebpf4jnsgd1na2vs0mg"},{"bike_id":"3e81b57e-25fa-464b-8efe-dfa9b3a09200","system_id":"levelo_inurba_marseille","lat":43.311722,"lon":5.387247,"is_reserved":false,"is_disabled":false,"rental_uris":{"android":"levelo://app?vid=3e81b57e-25fa-464b-8efe-dfa9b3a09200","ios":"levelo://app?vid=3e81b57e-25fa-464b-8efe-dfa9b3a09200"},"vehicle_type_id":"4","last_reported":1711217293,"current_range_meters":2000,"station_id":"ce4bgv12rcd13ifvqcp0","pricing_plan_id":"cebpf4jnsgd1na2vs0mg"},{"bike_id":"de553151-e6c3-4a57-ae4a-c5da9953b7d1","system_id":"levelo_inurba_marseille","lat":43.311722,"lon":5.387247,"is_reserved":false,"is_disabled":false,"rental_uris":{"android":"levelo://app?vid=de553151-e6c3-4a57-ae4a-c5da9953b7d1","ios":"levelo://app?vid=de553151-e6c3-4a57-ae4a-c5da9953b7d1"},"vehicle_type_id":"4","last_reported":1711217293,"current_range_meters":18800,"station_id":"ce4bgv12rcd13ifvqcp0","pricing_plan_id":"cebpf4jnsgd1na2vs0mg"},{"bike_id":"5811d588-1b93-4146-9148-29aca5d511a4","system_id":"levelo_inurba_marseille","lat":43.299243,"lon":5.37481,"is_reserved":false,"is_disabled":false,"rental_uris":{"android":"levelo://app?vid=5811d588-1b93-4146-9148-29aca5d511a4","ios":"levelo://app?vid=5811d588-1b93-4146-9148-29aca5d511a4"},"vehicle_type_id":"4","last_reported":1711217293,"current_range_meters":8800,"station_id":"ce4bgjh2rcd13ifvqbg0","pricing_plan_id":"cebpf4jnsgd1na2vs0mg"},{"bike_id":"68998104-2be9-4096-b96e-2c3cdcf8afc6","system_id":"levelo_inurba_marseille","lat":43.311722,"lon":5.387247,"is_reserved":false,"is_disabled":false,"rental_uris":{"android":"levelo://app?vid=68998104-2be9-4096-b96e-2c3cdcf8afc6","ios":"levelo://app?vid=68998104-2be9-4096-b96e-2c3cdcf8afc6"},"vehicle_type_id":"4","last_reported":1711217293,"current_range_meters":0,"station_id":"ce4bgv12rcd13ifvqcp0","pricing_plan_id":"cebpf4jnsgd1na2vs0mg"},{"bike_id":"b1d8b3ba-77d2-46a9-8459-bc9ad756763f","system_id":"levelo_inurba_marseille","lat":43.297794,"lon":5.370888,"is_reserved":false,"is_disabled":false,"rental_uris":{"android":"levelo://app?vid=b1d8b3ba-77d2-46a9-8459-bc9ad756763f","ios":"levelo://app?vid=b1d8b3ba-77d2-46a9-8459-bc9ad756763f"},"vehicle_type_id":"4","last_reported":1711217293,"current_range_meters":4000,"station_id":"ce4bgop2rcd13ifvqc1g","pricing_plan_id":"cebpf4jnsgd1na2vs0mg"},{"bike_id":"c0806d2c-91c2-4363-b2fe-eb774cae897c","system_id":"levelo_inurba_marseille","lat":43.311722,"lon":5.387247,"is_reserved":false,"is_disabled":false,"rental_uris":{"android":"levelo://app?vid=c0806d2c-91c2-4363-b2fe-eb774cae897c","ios":"levelo://app?vid=c0806d2c-91c2-4363-b2fe-eb774cae897c"},"vehicle_type_id":"4","last_reported":1711217293,"current_range_meters":12400,"station_id":"ce4bgv12rcd13ifvqcp0","pricing_plan_id":"cebpf4jnsgd1na2vs0mg"},{"bike_id":"feead7e7-9cee-4c57-94a6-da647512767c","system_id":"levelo_inurba_marseille","lat":43.322896,"lon":5.382515,"is_reserved":false,"is_disabled":false,"rental_uris":{"android":"levelo://app?vid=feead7e7-9cee-4c57-94a6-da647512767c","ios":"levelo://app?vid=feead7e7-9cee-4c57-94a6-da647512767c"},"vehicle_type_id":"4","last_reported":1711217293,"current_range_meters":6400,"station_id":"ce4bhr12rcd13ifvqhqg","pricing_plan_id":"cebpf4jnsgd1na2vs0mg"},{"bike_id":"5e1a9ee3-8790-4b8a-a435-f6f8973fffe2","system_id":"levelo_inurba_marseille","lat":43.2978,"lon":5.37101,"is_reserved":false,"is_disabled":false,"rental_uris":{"android":"levelo://app?vid=5e1a9ee3-8790-4b8a-a435-f6f8973fffe2","ios":"levelo://app?vid=5e1a9ee3-8790-4b8a-a435-f6f8973fffe2"},"vehicle_type_id":"4","last_reported":1711217293,"current_range_meters":0,"station_id":"ce4bgop2rcd13ifvqc1g","pricing_plan_id":"cebpf4jnsgd1na2vs0mg"},{"bike_id":"8b004ee8-7400-4db7-97a8-7a3b78ef5c51","system_id":"levelo_inurba_marseille","lat":43.322916,"lon":5.382548,"is_reserved":false,"is_disabled":false,"rental_uris":{"android":"levelo://app?vid=8b004ee8-7400-4db7-97a8-7a3b78ef5c51","ios":"levelo://app?vid=8b004ee8-7400-4db7-97a8-7a3b78ef5c51"},"vehicle_type_id":"4","last_reported":1711217293,"current_range_meters":28400,"station_id":"ce4bhr12rcd13ifvqhqg","pricing_plan_id":"cebpf4jnsgd1na2vs0mg"},{"bike_id":"31c0c7e0-4cda-426d-95af-a2bfa0b9855b","system_id":"levelo_inurba_marseille","lat":43.297794,"lon":5.370888,"is_reserved":false,"is_disabled":false,"rental_uris":{"android":"levelo://app?vid=31c0c7e0-4cda-426d-95af-a2bfa0b9855b","ios":"levelo://app?vid=31c0c7e0-4cda-426d-95af-a2bfa0b9855b"},"vehicle_type_id":"4","last_reported":1711217293,"current_range_meters":4000,"station_id":"ce4bgop2rcd13ifvqc1g","pricing_plan_id":"cebpf4jnsgd1na2vs0mg"},{"bike_id":"d2132f33-8d37-458a-9c43-c14da6405c03","system_id":"levelo_inurba_marseille","lat":43.322872,"lon":5.382756,"is_reserved":false,"is_disabled":false,"rental_uris":{"android":"levelo://app?vid=d2132f33-8d37-458a-9c43-c14da6405c03","ios":"levelo://app?vid=d2132f33-8d37-458a-9c43-c14da6405c03"},"vehicle_type_id":"4","last_reported":1711217293,"current_range_meters":22800,"station_id":"ce4bhr12rcd13ifvqhqg","pricing_plan_id":"cebpf4jnsgd1na2vs0mg"},{"bike_id":"36727d06-0af4-4c64-88de-4193d3d2494b","system_id":"levelo_inurba_marseille","lat":43.322879,"lon":5.382663,"is_reserved":false,"is_disabled":false,"rental_uris":{"android":"levelo://app?vid=36727d06-0af4-4c64-88de-4193d3d2494b","ios":"levelo://app?vid=36727d06-0af4-4c64-88de-4193d3d2494b"},"vehicle_type_id":"4","last_reported":1711217293,"current_range_meters":0,"station_id":"ce4bhr12rcd13ifvqhqg","pricing_plan_id":"cebpf4jnsgd1na2vs0mg"},{"bike_id":"4db45d44-2f33-4645-a75b-6a1737027bbb","system_id":"levelo_inurba_marseille","lat":43.32289,"lon":5.38265,"is_reserved":false,"is_disabled":false,"rental_uris":{"android":"levelo://app?vid=4db45d44-2f33-4645-a75b-6a1737027bbb","ios":"levelo://app?vid=4db45d44-2f33-4645-a75b-6a1737027bbb"},"vehicle_type_id":"4","last_reported":1711217293,"current_range_meters":1200,"station_id":"ce4bhr12rcd13ifvqhqg","pricing_plan_id":"cebpf4jnsgd1na2vs0mg"},{"bike_id":"5852ac4b-fdad-40b3-8c84-23902e63564b","system_id":"levelo_inurba_marseille","lat":43.322872,"lon":5.382756,"is_reserved":false,"is_disabled":false,"rental_uris":{"android":"levelo://app?vid=5852ac4b-fdad-40b3-8c84-23902e63564b","ios":"levelo://app?vid=5852ac4b-fdad-40b3-8c84-23902e63564b"},"vehicle_type_id":"4","last_reported":1711217293,"current_range_meters":6800,"station_id":"ce4bhr12rcd13ifvqhqg","pricing_plan_id":"cebpf4jnsgd1na2vs0mg"},{"bike_id":"4f4a75fa-11e1-4b9c-9fc5-7e2938322638","system_id":"levelo_inurba_marseille","lat":43.32287,"lon":5.3827,"is_reserved":false,"is_disabled":false,"rental_uris":{"android":"levelo://app?vid=4f4a75fa-11e1-4b9c-9fc5-7e2938322638","ios":"levelo://app?vid=4f4a75fa-11e1-4b9c-9fc5-7e2938322638"},"vehicle_type_id":"4","last_reported":1711217293,"current_range_meters":11200,"station_id":"ce4bhr12rcd13ifvqhqg","pricing_plan_id":"cebpf4jnsgd1na2vs0mg"},{"bike_id":"c38bb8e1-17a8-4ac5-94e4-07820104ea11","system_id":"levelo_inurba_marseille","lat":43.322898,"lon":5.382685,"is_reserved":false,"is_disabled":false,"rental_uris":{"android":"levelo://app?vid=c38bb8e1-17a8-4ac5-94e4-07820104ea11","ios":"levelo://app?vid=c38bb8e1-17a8-4ac5-94e4-07820104ea11"},"vehicle_type_id":"4","last_reported":1711217293,"current_range_meters":8400,"station_id":"","pricing_plan_id":"cebpf4jnsgd1na2vs0mg"},{"bike_id":"3ff125a5-dff1-4591-b6cc-449dc2424878","system_id":"levelo_inurba_marseille","lat":43.32293,"lon":5.38268,"is_reserved":false,"is_disabled":false,"rental_uris":{"android":"levelo://app?vid=3ff125a5-dff1-4591-b6cc-449dc2424878","ios":"levelo://app?vid=3ff125a5-dff1-4591-b6cc-449dc2424878"},"vehicle_type_id":"4","last_reported":1711217293,"current_range_meters":5600,"station_id":"ce4bhr12rcd13ifvqhqg","pricing_plan_id":"cebpf4jnsgd1na2vs0mg"},{"bike_id":"16540177-0f8b-46b6-b4a4-3821bff5dadd","system_id":"levelo_inurba_marseille","lat":43.322872,"lon":5.382756,"is_reserved":false,"is_disabled":false,"rental_uris":{"android":"levelo://app?vid=16540177-0f8b-46b6-b4a4-3821bff5dadd","ios":"levelo://app?vid=16540177-0f8b-46b6-b4a4-3821bff5dadd"},"vehicle_type_id":"4","last_reported":1711217293,"current_range_meters":0,"station_id":"ce4bhr12rcd13ifvqhqg","pricing_plan_id":"cebpf4jnsgd1na2vs0mg"},{"bike_id":"6778861f-913f-46d7-9610-423069fb6471","system_id":"levelo_inurba_marseille","lat":43.32294,"lon":5.38267,"is_reserved":false,"is_disabled":false,"rental_uris":{"android":"levelo://app?vid=6778861f-913f-46d7-9610-423069fb6471","ios":"levelo://app?vid=6778861f-913f-46d7-9610-423069fb6471"},"vehicle_type_id":"4","last_reported":1711217293,"current_range_meters":8400,"station_id":"ce4bhr12rcd13ifvqhqg","pricing_plan_id":"cebpf4jnsgd1na2vs0mg"},{"bike_id":"9607cebd-f2b1-4cda-94e6-b812c1eeae5d","system_id":"levelo_inurba_marseille","lat":43.322872,"lon":5.382756,"is_reserved":false,"is_disabled":false,"rental_uris":{"android":"levelo://app?vid=9607cebd-f2b1-4cda-94e6-b812c1eeae5d","ios":"levelo://app?vid=9607cebd-f2b1-4cda-94e6-b812c1eeae5d"},"vehicle_type_id":"4","last_reported":1711217293,"current_range_meters":27600,"station_id":"ce4bhr12rcd13ifvqhqg","pricing_plan_id":"cebpf4jnsgd1na2vs0mg"},{"bike_id":"85d4d71c-b2c1-426a-b0b8-be8461195f7e","system_id":"levelo_inurba_marseille","lat":43.322872,"lon":5.382756,"is_reserved":false,"is_disabled":false,"rental_uris":{"android":"levelo://app?vid=85d4d71c-b2c1-426a-b0b8-be8461195f7e","ios":"levelo://app?vid=85d4d71c-b2c1-426a-b0b8-be8461195f7e"},"vehicle_type_id":"4","last_reported":1711217293,"current_range_meters":30800,"station_id":"ce4bhr12rcd13ifvqhqg","pricing_plan_id":"cebpf4jnsgd1na2vs0mg"},{"bike_id":"25d10225-bdc0-4b28-98f7-f8e722128a68","system_id":"levelo_inurba_marseille","lat":43.297161,"lon":5.366093,"is_reserved":false,"is_disabled":false,"rental_uris":{"android":"levelo://app?vid=25d10225-bdc0-4b28-98f7-f8e722128a68","ios":"levelo://app?vid=25d10225-bdc0-4b28-98f7-f8e722128a68"},"vehicle_type_id":"4","last_reported":1711217293,"current_range_meters":0,"station_id":"ce4bgn12rcd13ifvqbt0","pricing_plan_id":"cebpf4jnsgd1na2vs0mg"},{"bike_id":"4809d908-421e-4409-b2a1-9288368078f6","system_id":"levelo_inurba_marseille","lat":43.297794,"lon":5.370888,"is_reserved":false,"is_disabled":false,"rental_uris":{"android":"levelo://app?vid=4809d908-421e-4409-b2a1-9288368078f6","ios":"levelo://app?vid=4809d908-421e-4409-b2a1-9288368078f6"},"vehicle_type_id":"4","last_reported":1711217293,"current_range_meters":18400,"station_id":"ce4bgop2rcd13ifvqc1g","pricing_plan_id":"cebpf4jnsgd1na2vs0mg"},{"bike_id":"81168cc7-918c-40cb-b165-aa5e8342c915","system_id":"levelo_inurba_marseille","lat":43.297163,"lon":5.365866,"is_reserved":false,"is_disabled":false,"rental_uris":{"android":"levelo://app?vid=81168cc7-918c-40cb-b165-aa5e8342c915","ios":"levelo://app?vid=81168cc7-918c-40cb-b165-aa5e8342c915"},"vehicle_type_id":"4","last_reported":1711217293,"current_range_meters":4800,"station_id":"ce4bgn12rcd13ifvqbt0","pricing_plan_id":"cebpf4jnsgd1na2vs0mg"},{"bike_id":"656d5d7b-43b0-4075-8bdb-52d101f00cf7","system_id":"levelo_inurba_marseille","lat":43.297163,"lon":5.365866,"is_reserved":false,"is_disabled":false,"rental_uris":{"android":"levelo://app?vid=656d5d7b-43b0-4075-8bdb-52d101f00cf7","ios":"levelo://app?vid=656d5d7b-43b0-4075-8bdb-52d101f00cf7"},"vehicle_type_id":"4","last_reported":1711217293,"current_range_meters":2800,"station_id":"ce4bgn12rcd13ifvqbt0","pricing_plan_id":"cebpf4jnsgd1na2vs0mg"},{"bike_id":"2a4541ab-9917-411c-b072-881944f55559","system_id":"levelo_inurba_marseille","lat":43.297794,"lon":5.370888,"is_reserved":false,"is_disabled":false,"rental_uris":{"android":"levelo://app?vid=2a4541ab-9917-411c-b072-881944f55559","ios":"levelo://app?vid=2a4541ab-9917-411c-b072-881944f55559"},"vehicle_type_id":"4","last_reported":1711217293,"current_range_meters":6800,"station_id":"ce4bgop2rcd13ifvqc1g","pricing_plan_id":"cebpf4jnsgd1na2vs0mg"},{"bike_id":"62ff48b7-874a-4777-87d7-38b4448f5c4e","system_id":"levelo_inurba_marseille","lat":43.2968,"lon":5.37291,"is_reserved":false,"is_disabled":false,"rental_uris":{"android":"levelo://app?vid=62ff48b7-874a-4777-87d7-38b4448f5c4e","ios":"levelo://app?vid=62ff48b7-874a-4777-87d7-38b4448f5c4e"},"vehicle_type_id":"4","last_reported":1711217293,"current_range_meters":16000,"station_id":"ce4bgk12rcd13ifvqbj0","pricing_plan_id":"cebpf4jnsgd1na2vs0mg"},{"bike_id":"3e6754d1-f930-492b-ba7c-1c58f6a0c286","system_id":"levelo_inurba_marseille","lat":43.296131,"lon":5.370791,"is_reserved":false,"is_disabled":false,"rental_uris":{"android":"levelo://app?vid=3e6754d1-f930-492b-ba7c-1c58f6a0c286","ios":"levelo://app?vid=3e6754d1-f930-492b-ba7c-1c58f6a0c286"},"vehicle_type_id":"4","last_reported":1711217293,"current_range_meters":0,"station_id":"ce4bgnh2rcd13ifvqc0g","pricing_plan_id":"cebpf4jnsgd1na2vs0mg"},{"bike_id":"1f296984-8081-4bc8-900c-5f603743a475","system_id":"levelo_inurba_marseille","lat":43.296131,"lon":5.370791,"is_reserved":false,"is_disabled":false,"rental_uris":{"android":"levelo://app?vid=1f296984-8081-4bc8-900c-5f603743a475","ios":"levelo://app?vid=1f296984-8081-4bc8-900c-5f603743a475"},"vehicle_type_id":"4","last_reported":1711217293,"current_range_meters":16000,"station_id":"ce4bgnh2rcd13ifvqc0g","pricing_plan_id":"cebpf4jnsgd1na2vs0mg"},{"bike_id":"57688855-9794-45ba-afcc-55f4a04427cf","system_id":"levelo_inurba_marseille","lat":43.29573,"lon":5.367355,"is_reserved":false,"is_disabled":false,"rental_uris":{"android":"levelo://app?vid=57688855-9794-45ba-afcc-55f4a04427cf","ios":"levelo://app?vid=57688855-9794-45ba-afcc-55f4a04427cf"},"vehicle_type_id":"4","last_reported":1711217293,"current_range_meters":10800,"station_id":"ce4bgph2rcd13ifvqc2g","pricing_plan_id":"cebpf4jnsgd1na2vs0mg"},{"bike_id":"5aaa684b-60d2-4f7e-aa35-fbc055c3da1e","system_id":"levelo_inurba_marseille","lat":43.311722,"lon":5.387247,"is_reserved":false,"is_disabled":false,"rental_uris":{"android":"levelo://app?vid=5aaa684b-60d2-4f7e-aa35-fbc055c3da1e","ios":"levelo://app?vid=5aaa684b-60d2-4f7e-aa35-fbc055c3da1e"},"vehicle_type_id":"4","last_reported":1711217293,"current_range_meters":10800,"station_id":"ce4bgv12rcd13ifvqcp0","pricing_plan_id":"cebpf4jnsgd1na2vs0mg"},{"bike_id":"5bc53cd2-8237-46ff-affd-a1c1874b6359","system_id":"levelo_inurba_marseille","lat":43.2962,"lon":5.37162,"is_reserved":false,"is_disabled":false,"rental_uris":{"android":"levelo://app?vid=5bc53cd2-8237-46ff-affd-a1c1874b6359","ios":"levelo://app?vid=5bc53cd2-8237-46ff-affd-a1c1874b6359"},"vehicle_type_id":"4","last_reported":1711217293,"current_range_meters":22800,"station_id":"","pricing_plan_id":"cebpf4jnsgd1na2vs0mg"},{"bike_id":"0d98f90e-8d2d-4433-b0dd-19e81b6f898e","system_id":"levelo_inurba_marseille","lat":43.29573,"lon":5.367355,"is_reserved":false,"is_disabled":false,"rental_uris":{"android":"levelo://app?vid=0d98f90e-8d2d-4433-b0dd-19e81b6f898e","ios":"levelo://app?vid=0d98f90e-8d2d-4433-b0dd-19e81b6f898e"},"vehicle_type_id":"4","last_reported":1711217293,"current_range_meters":0,"station_id":"ce4bgph2rcd13ifvqc2g","pricing_plan_id":"cebpf4jnsgd1na2vs0mg"},{"bike_id":"c22c9892-af6c-4b53-a819-d6c71dbd2bde","system_id":"levelo_inurba_marseille","lat":43.299028,"lon":5.381509,"is_reserved":false,"is_disabled":false,"rental_uris":{"android":"levelo://app?vid=c22c9892-af6c-4b53-a819-d6c71dbd2bde","ios":"levelo://app?vid=c22c9892-af6c-4b53-a819-d6c71dbd2bde"},"vehicle_type_id":"4","last_reported":1711217293,"current_range_meters":0,"station_id":"ce4bgj12rcd13ifvqbc0","pricing_plan_id":"cebpf4jnsgd1na2vs0mg"},{"bike_id":"ba9227b8-4f4f-465b-be68-abcaf821117a","system_id":"levelo_inurba_marseille","lat":43.299028,"lon":5.381509,"is_reserved":false,"is_disabled":false,"rental_uris":{"android":"levelo://app?vid=ba9227b8-4f4f-465b-be68-abcaf821117a","ios":"levelo://app?vid=ba9227b8-4f4f-465b-be68-abcaf821117a"},"vehicle_type_id":"4","last_reported":1711217293,"current_range_meters":4800,"station_id":"ce4bgj12rcd13ifvqbc0","pricing_plan_id":"cebpf4jnsgd1na2vs0mg"},{"bike_id":"739ebe74-e3bb-493a-85ed-a813041d94b7","system_id":"levelo_inurba_marseille","lat":43.296921,"lon":5.376579,"is_reserved":false,"is_disabled":false,"rental_uris":{"android":"levelo://app?vid=739ebe74-e3bb-493a-85ed-a813041d94b7","ios":"levelo://app?vid=739ebe74-e3bb-493a-85ed-a813041d94b7"},"vehicle_type_id":"4","last_reported":1711217293,"current_range_meters":24000,"station_id":"ce4bgkh2rcd13ifvqbl0","pricing_plan_id":"cebpf4jnsgd1na2vs0mg"},{"bike_id":"f5385803-60b9-40d4-a785-a682b56a87c7","system_id":"levelo_inurba_marseille","lat":43.31762,"lon":5.39011,"is_reserved":false,"is_disabled":false,"rental_uris":{"android":"levelo://app?vid=f5385803-60b9-40d4-a785-a682b56a87c7","ios":"levelo://app?vid=f5385803-60b9-40d4-a785-a682b56a87c7"},"vehicle_type_id":"4","last_reported":1711217293,"current_range_meters":7200,"station_id":"ce4bhqp2rcd13ifvqhng","pricing_plan_id":"cebpf4jnsgd1na2vs0mg"},{"bike_id":"88dc3ee1-29c2-4500-8c71-cb92402f006b","system_id":"levelo_inurba_marseille","lat":43.317557,"lon":5.390173,"is_reserved":false,"is_disabled":false,"rental_uris":{"android":"levelo://app?vid=88dc3ee1-29c2-4500-8c71-cb92402f006b","ios":"levelo://app?vid=88dc3ee1-29c2-4500-8c71-cb92402f006b"},"vehicle_type_id":"4","last_reported":1711217293,"current_range_meters":16800,"station_id":"ce4bhqp2rcd13ifvqhng","pricing_plan_id":"cebpf4jnsgd1na2vs0mg"},{"bike_id":"7c6d33e7-ac90-4f9c-9622-3f081863d0a4","system_id":"levelo_inurba_marseille","lat":43.31769,"lon":5.3901,"is_reserved":false,"is_disabled":false,"rental_uris":{"android":"levelo://app?vid=7c6d33e7-ac90-4f9c-9622-3f081863d0a4","ios":"levelo://app?vid=7c6d33e7-ac90-4f9c-9622-3f081863d0a4"},"vehicle_type_id":"4","last_reported":1711217293,"current_range_meters":9200,"station_id":"ce4bhqp2rcd13ifvqhng","pricing_plan_id":"cebpf4jnsgd1na2vs0mg"},{"bike_id":"8038916e-1d0c-4aef-9319-ddb1489fca3e","system_id":"levelo_inurba_marseille","lat":43.31757,"lon":5.39015,"is_reserved":false,"is_disabled":false,"rental_uris":{"android":"levelo://app?vid=8038916e-1d0c-4aef-9319-ddb1489fca3e","ios":"levelo://app?vid=8038916e-1d0c-4aef-9319-ddb1489fca3e"},"vehicle_type_id":"4","last_reported":1711217293,"current_range_meters":1600,"station_id":"ce4bhqp2rcd13ifvqhng","pricing_plan_id":"cebpf4jnsgd1na2vs0mg"},{"bike_id":"d18b1c8b-0b71-4df3-9eb4-55a046b3c33d","system_id":"levelo_inurba_marseille","lat":43.317592,"lon":5.390145,"is_reserved":false,"is_disabled":false,"rental_uris":{"android":"levelo://app?vid=d18b1c8b-0b71-4df3-9eb4-55a046b3c33d","ios":"levelo://app?vid=d18b1c8b-0b71-4df3-9eb4-55a046b3c33d"},"vehicle_type_id":"4","last_reported":1711217293,"current_range_meters":4800,"station_id":"ce4bhqp2rcd13ifvqhng","pricing_plan_id":"cebpf4jnsgd1na2vs0mg"},{"bike_id":"f094d01c-5a96-4449-a3c2-ca0ed18b8b5b","system_id":"levelo_inurba_marseille","lat":43.31763,"lon":5.39013,"is_reserved":false,"is_disabled":false,"rental_uris":{"android":"levelo://app?vid=f094d01c-5a96-4449-a3c2-ca0ed18b8b5b","ios":"levelo://app?vid=f094d01c-5a96-4449-a3c2-ca0ed18b8b5b"},"vehicle_type_id":"4","last_reported":1711217293,"current_range_meters":2400,"station_id":"ce4bhqp2rcd13ifvqhng","pricing_plan_id":"cebpf4jnsgd1na2vs0mg"},{"bike_id":"9bd5e674-e56c-4573-9c0d-85050958b0a0","system_id":"levelo_inurba_marseille","lat":43.317557,"lon":5.390173,"is_reserved":false,"is_disabled":false,"rental_uris":{"android":"levelo://app?vid=9bd5e674-e56c-4573-9c0d-85050958b0a0","ios":"levelo://app?vid=9bd5e674-e56c-4573-9c0d-85050958b0a0"},"vehicle_type_id":"4","last_reported":1711217293,"current_range_meters":24800,"station_id":"ce4bhqp2rcd13ifvqhng","pricing_plan_id":"cebpf4jnsgd1na2vs0mg"},{"bike_id":"a84494ff-e488-44c6-9347-0b89aeb12141","system_id":"levelo_inurba_marseille","lat":43.317557,"lon":5.390173,"is_reserved":false,"is_disabled":false,"rental_uris":{"android":"levelo://app?vid=a84494ff-e488-44c6-9347-0b89aeb12141","ios":"levelo://app?vid=a84494ff-e488-44c6-9347-0b89aeb12141"},"vehicle_type_id":"4","last_reported":1711217293,"current_range_meters":9200,"station_id":"ce4bhqp2rcd13ifvqhng","pricing_plan_id":"cebpf4jnsgd1na2vs0mg"},{"bike_id":"8613e140-9742-4900-beb7-bb86bd73b07a","system_id":"levelo_inurba_marseille","lat":43.317557,"lon":5.390173,"is_reserved":false,"is_disabled":false,"rental_uris":{"android":"levelo://app?vid=8613e140-9742-4900-beb7-bb86bd73b07a","ios":"levelo://app?vid=8613e140-9742-4900-beb7-bb86bd73b07a"},"vehicle_type_id":"4","last_reported":1711217293,"current_range_meters":2400,"station_id":"ce4bhqp2rcd13ifvqhng","pricing_plan_id":"cebpf4jnsgd1na2vs0mg"},{"bike_id":"64faaf0e-8299-47ab-9335-1274f7d2f7f6","system_id":"levelo_inurba_marseille","lat":43.317552,"lon":5.390231,"is_reserved":false,"is_disabled":false,"rental_uris":{"android":"levelo://app?vid=64faaf0e-8299-47ab-9335-1274f7d2f7f6","ios":"levelo://app?vid=64faaf0e-8299-47ab-9335-1274f7d2f7f6"},"vehicle_type_id":"4","last_reported":1711217293,"current_range_meters":11200,"station_id":"ce4bhqp2rcd13ifvqhng","pricing_plan_id":"cebpf4jnsgd1na2vs0mg"},{"bike_id":"1c876ad1-5738-4b0f-9a60-adf91ab08496","system_id":"levelo_inurba_marseille","lat":43.29798,"lon":5.38092,"is_reserved":false,"is_disabled":false,"rental_uris":{"android":"levelo://app?vid=1c876ad1-5738-4b0f-9a60-adf91ab08496","ios":"levelo://app?vid=1c876ad1-5738-4b0f-9a60-adf91ab08496"},"vehicle_type_id":"4","last_reported":1711217293,"current_range_meters":0,"station_id":"ce4bgip2rcd13ifvqbb0","pricing_plan_id":"cebpf4jnsgd1na2vs0mg"},{"bike_id":"4f791474-da68-4067-a827-3b8a5cf2c5f2","system_id":"levelo_inurba_marseille","lat":43.29578,"lon":5.37502,"is_reserved":false,"is_disabled":false,"rental_uris":{"android":"levelo://app?vid=4f791474-da68-4067-a827-3b8a5cf2c5f2","ios":"levelo://app?vid=4f791474-da68-4067-a827-3b8a5cf2c5f2"},"vehicle_type_id":"4","last_reported":1711217293,"current_range_meters":0,"station_id":"ce4bgh92rcd13ifvqb50","pricing_plan_id":"cebpf4jnsgd1na2vs0mg"},{"bike_id":"fb3551c8-c1b9-4996-83fc-8a842b502497","system_id":"levelo_inurba_marseille","lat":43.29794,"lon":5.38095,"is_reserved":false,"is_disabled":false,"rental_uris":{"android":"levelo://app?vid=fb3551c8-c1b9-4996-83fc-8a842b502497","ios":"levelo://app?vid=fb3551c8-c1b9-4996-83fc-8a842b502497"},"vehicle_type_id":"4","last_reported":1711217293,"current_range_meters":0,"station_id":"ce4bgip2rcd13ifvqbb0","pricing_plan_id":"cebpf4jnsgd1na2vs0mg"},{"bike_id":"68a55473-8120-4c8b-b49c-f1bbf44679ed","system_id":"levelo_inurba_marseille","lat":43.295748,"lon":5.37522,"is_reserved":false,"is_disabled":false,"rental_uris":{"android":"levelo://app?vid=68a55473-8120-4c8b-b49c-f1bbf44679ed","ios":"levelo://app?vid=68a55473-8120-4c8b-b49c-f1bbf44679ed"},"vehicle_type_id":"4","last_reported":1711217293,"current_range_meters":0,"station_id":"ce4bgh92rcd13ifvqb50","pricing_plan_id":"cebpf4jnsgd1na2vs0mg"},{"bike_id":"9813c4bc-0448-4ee2-85b1-7170cf8cfe58","system_id":"levelo_inurba_marseille","lat":43.295748,"lon":5.37522,"is_reserved":false,"is_disabled":false,"rental_uris":{"android":"levelo://app?vid=9813c4bc-0448-4ee2-85b1-7170cf8cfe58","ios":"levelo://app?vid=9813c4bc-0448-4ee2-85b1-7170cf8cfe58"},"vehicle_type_id":"4","last_reported":1711217293,"current_range_meters":10000,"station_id":"ce4bgh92rcd13ifvqb50","pricing_plan_id":"cebpf4jnsgd1na2vs0mg"},{"bike_id":"b849a708-6606-49b6-a1b7-b420eb04ab06","system_id":"levelo_inurba_marseille","lat":43.29787,"lon":5.38097,"is_reserved":false,"is_disabled":false,"rental_uris":{"android":"levelo://app?vid=b849a708-6606-49b6-a1b7-b420eb04ab06","ios":"levelo://app?vid=b849a708-6606-49b6-a1b7-b420eb04ab06"},"vehicle_type_id":"4","last_reported":1711217293,"current_range_meters":0,"station_id":"ce4bgip2rcd13ifvqbb0","pricing_plan_id":"cebpf4jnsgd1na2vs0mg"},{"bike_id":"07243793-2a5c-45da-83a6-244ec0b025f6","system_id":"levelo_inurba_marseille","lat":43.29566,"lon":5.37502,"is_reserved":false,"is_disabled":false,"rental_uris":{"android":"levelo://app?vid=07243793-2a5c-45da-83a6-244ec0b025f6","ios":"levelo://app?vid=07243793-2a5c-45da-83a6-244ec0b025f6"},"vehicle_type_id":"4","last_reported":1711217293,"current_range_meters":0,"station_id":"ce4bgh92rcd13ifvqb50","pricing_plan_id":"cebpf4jnsgd1na2vs0mg"},{"bike_id":"0a7522dd-26ae-4128-ba37-7057b12dd17f","system_id":"levelo_inurba_marseille","lat":43.295748,"lon":5.37522,"is_reserved":false,"is_disabled":false,"rental_uris":{"android":"levelo://app?vid=0a7522dd-26ae-4128-ba37-7057b12dd17f","ios":"levelo://app?vid=0a7522dd-26ae-4128-ba37-7057b12dd17f"},"vehicle_type_id":"4","last_reported":1711217293,"current_range_meters":17600,"station_id":"ce4bgh92rcd13ifvqb50","pricing_plan_id":"cebpf4jnsgd1na2vs0mg"},{"bike_id":"82374e2a-5fa4-4fbe-ad99-c482cc9d4b95","system_id":"levelo_inurba_marseille","lat":43.296263,"lon":5.377094,"is_reserved":false,"is_disabled":false,"rental_uris":{"android":"levelo://app?vid=82374e2a-5fa4-4fbe-ad99-c482cc9d4b95","ios":"levelo://app?vid=82374e2a-5fa4-4fbe-ad99-c482cc9d4b95"},"vehicle_type_id":"4","last_reported":1711217293,"current_range_meters":23200,"station_id":"ce4bgi92rcd13ifvqb90","pricing_plan_id":"cebpf4jnsgd1na2vs0mg"},{"bike_id":"b86af53a-23ba-4222-8c04-a510c0ac697f","system_id":"levelo_inurba_marseille","lat":43.295748,"lon":5.37522,"is_reserved":false,"is_disabled":false,"rental_uris":{"android":"levelo://app?vid=b86af53a-23ba-4222-8c04-a510c0ac697f","ios":"levelo://app?vid=b86af53a-23ba-4222-8c04-a510c0ac697f"},"vehicle_type_id":"4","last_reported":1711217293,"current_range_meters":14800,"station_id":"ce4bgh92rcd13ifvqb50","pricing_plan_id":"cebpf4jnsgd1na2vs0mg"},{"bike_id":"b08cb062-3939-415a-af48-6fb6514e956a","system_id":"levelo_inurba_marseille","lat":43.296263,"lon":5.377094,"is_reserved":false,"is_disabled":false,"rental_uris":{"android":"levelo://app?vid=b08cb062-3939-415a-af48-6fb6514e956a","ios":"levelo://app?vid=b08cb062-3939-415a-af48-6fb6514e956a"},"vehicle_type_id":"4","last_reported":1711217293,"current_range_meters":0,"station_id":"ce4bgi92rcd13ifvqb90","pricing_plan_id":"cebpf4jnsgd1na2vs0mg"},{"bike_id":"8eb5b533-bf75-4ae1-a093-73193807e090","system_id":"levelo_inurba_marseille","lat":43.296263,"lon":5.377094,"is_reserved":false,"is_disabled":false,"rental_uris":{"android":"levelo://app?vid=8eb5b533-bf75-4ae1-a093-73193807e090","ios":"levelo://app?vid=8eb5b533-bf75-4ae1-a093-73193807e090"},"vehicle_type_id":"4","last_reported":1711217293,"current_range_meters":7200,"station_id":"ce4bgi92rcd13ifvqb90","pricing_plan_id":"cebpf4jnsgd1na2vs0mg"},{"bike_id":"f1e4f3a9-8896-488f-bca4-613961d89e5a","system_id":"levelo_inurba_marseille","lat":43.296263,"lon":5.377094,"is_reserved":false,"is_disabled":false,"rental_uris":{"android":"levelo://app?vid=f1e4f3a9-8896-488f-bca4-613961d89e5a","ios":"levelo://app?vid=f1e4f3a9-8896-488f-bca4-613961d89e5a"},"vehicle_type_id":"4","last_reported":1711217293,"current_range_meters":11600,"station_id":"ce4bgi92rcd13ifvqb90","pricing_plan_id":"cebpf4jnsgd1na2vs0mg"},{"bike_id":"0e8d2084-ea57-4f28-8eab-af35b4ca7e60","system_id":"levelo_inurba_marseille","lat":43.296277,"lon":5.377108,"is_reserved":false,"is_disabled":false,"rental_uris":{"android":"levelo://app?vid=0e8d2084-ea57-4f28-8eab-af35b4ca7e60","ios":"levelo://app?vid=0e8d2084-ea57-4f28-8eab-af35b4ca7e60"},"vehicle_type_id":"4","last_reported":1711217293,"current_range_meters":7200,"station_id":"ce4bgi92rcd13ifvqb90","pricing_plan_id":"cebpf4jnsgd1na2vs0mg"},{"bike_id":"786cc339-c6d4-488f-821f-c68115e534fa","system_id":"levelo_inurba_marseille","lat":43.296277,"lon":5.377108,"is_reserved":false,"is_disabled":false,"rental_uris":{"android":"levelo://app?vid=786cc339-c6d4-488f-821f-c68115e534fa","ios":"levelo://app?vid=786cc339-c6d4-488f-821f-c68115e534fa"},"vehicle_type_id":"4","last_reported":1711217293,"current_range_meters":0,"station_id":"ce4bgi92rcd13ifvqb90","pricing_plan_id":"cebpf4jnsgd1na2vs0mg"},{"bike_id":"b6483fac-1e85-4bab-9099-9bf6722a9e34","system_id":"levelo_inurba_marseille","lat":43.296263,"lon":5.377094,"is_reserved":false,"is_disabled":false,"rental_uris":{"android":"levelo://app?vid=b6483fac-1e85-4bab-9099-9bf6722a9e34","ios":"levelo://app?vid=b6483fac-1e85-4bab-9099-9bf6722a9e34"},"vehicle_type_id":"4","last_reported":1711217293,"current_range_meters":0,"station_id":"ce4bgi92rcd13ifvqb90","pricing_plan_id":"cebpf4jnsgd1na2vs0mg"},{"bike_id":"092c9b52-728a-43c2-95ae-1e05a9209b2e","system_id":"levelo_inurba_marseille","lat":43.296277,"lon":5.377108,"is_reserved":false,"is_disabled":false,"rental_uris":{"android":"levelo://app?vid=092c9b52-728a-43c2-95ae-1e05a9209b2e","ios":"levelo://app?vid=092c9b52-728a-43c2-95ae-1e05a9209b2e"},"vehicle_type_id":"4","last_reported":1711217293,"current_range_meters":25200,"station_id":"ce4bgi92rcd13ifvqb90","pricing_plan_id":"cebpf4jnsgd1na2vs0mg"},{"bike_id":"be4c30c8-0ac2-4c5a-8c4f-c69d88ed7835","system_id":"levelo_inurba_marseille","lat":43.295748,"lon":5.37522,"is_reserved":false,"is_disabled":false,"rental_uris":{"android":"levelo://app?vid=be4c30c8-0ac2-4c5a-8c4f-c69d88ed7835","ios":"levelo://app?vid=be4c30c8-0ac2-4c5a-8c4f-c69d88ed7835"},"vehicle_type_id":"4","last_reported":1711217293,"current_range_meters":18800,"station_id":"ce4bgh92rcd13ifvqb50","pricing_plan_id":"cebpf4jnsgd1na2vs0mg"},{"bike_id":"38fbe523-78a9-43af-ac96-ce1bfd4550b8","system_id":"levelo_inurba_marseille","lat":43.295279,"lon":5.375048,"is_reserved":false,"is_disabled":false,"rental_uris":{"android":"levelo://app?vid=38fbe523-78a9-43af-ac96-ce1bfd4550b8","ios":"levelo://app?vid=38fbe523-78a9-43af-ac96-ce1bfd4550b8"},"vehicle_type_id":"4","last_reported":1711217293,"current_range_meters":1600,"station_id":"ce4bgkp2rcd13ifvqbmg","pricing_plan_id":"cebpf4jnsgd1na2vs0mg"},{"bike_id":"0d8f9c6a-5425-4fa2-a359-3a3204ece8e0","system_id":"levelo_inurba_marseille","lat":43.29986,"lon":5.38485,"is_reserved":false,"is_disabled":false,"rental_uris":{"android":"levelo://app?vid=0d8f9c6a-5425-4fa2-a359-3a3204ece8e0","ios":"levelo://app?vid=0d8f9c6a-5425-4fa2-a359-3a3204ece8e0"},"vehicle_type_id":"4","last_reported":1711217293,"current_range_meters":0,"station_id":"ce4bgj92rcd13ifvqbd0","pricing_plan_id":"cebpf4jnsgd1na2vs0mg"},{"bike_id":"3305cfca-aa30-4db3-b9bf-2129824b26b4","system_id":"levelo_inurba_marseille","lat":43.295279,"lon":5.375048,"is_reserved":false,"is_disabled":false,"rental_uris":{"android":"levelo://app?vid=3305cfca-aa30-4db3-b9bf-2129824b26b4","ios":"levelo://app?vid=3305cfca-aa30-4db3-b9bf-2129824b26b4"},"vehicle_type_id":"4","last_reported":1711217293,"current_range_meters":0,"station_id":"ce4bgkp2rcd13ifvqbmg","pricing_plan_id":"cebpf4jnsgd1na2vs0mg"},{"bike_id":"5d0851b4-cf8a-4843-90c8-8f7d900ea1e0","system_id":"levelo_inurba_marseille","lat":43.295279,"lon":5.375048,"is_reserved":false,"is_disabled":false,"rental_uris":{"android":"levelo://app?vid=5d0851b4-cf8a-4843-90c8-8f7d900ea1e0","ios":"levelo://app?vid=5d0851b4-cf8a-4843-90c8-8f7d900ea1e0"},"vehicle_type_id":"4","last_reported":1711217293,"current_range_meters":28000,"station_id":"ce4bgkp2rcd13ifvqbmg","pricing_plan_id":"cebpf4jnsgd1na2vs0mg"},{"bike_id":"dd808039-18db-4ac4-bb64-4cf2d3240b8c","system_id":"levelo_inurba_marseille","lat":43.295279,"lon":5.375048,"is_reserved":false,"is_disabled":false,"rental_uris":{"android":"levelo://app?vid=dd808039-18db-4ac4-bb64-4cf2d3240b8c","ios":"levelo://app?vid=dd808039-18db-4ac4-bb64-4cf2d3240b8c"},"vehicle_type_id":"4","last_reported":1711217293,"current_range_meters":28000,"station_id":"ce4bgkp2rcd13ifvqbmg","pricing_plan_id":"cebpf4jnsgd1na2vs0mg"},{"bike_id":"6426d7ab-5218-4824-b7d1-dc676104904e","system_id":"levelo_inurba_marseille","lat":43.299707,"lon":5.384859,"is_reserved":false,"is_disabled":false,"rental_uris":{"android":"levelo://app?vid=6426d7ab-5218-4824-b7d1-dc676104904e","ios":"levelo://app?vid=6426d7ab-5218-4824-b7d1-dc676104904e"},"vehicle_type_id":"4","last_reported":1711217293,"current_range_meters":0,"station_id":"ce4bgj92rcd13ifvqbd0","pricing_plan_id":"cebpf4jnsgd1na2vs0mg"},{"bike_id":"617b0e6f-676e-40f0-bbaf-c9395e5b4dcd","system_id":"levelo_inurba_marseille","lat":43.314603,"lon":5.392114,"is_reserved":false,"is_disabled":false,"rental_uris":{"android":"levelo://app?vid=617b0e6f-676e-40f0-bbaf-c9395e5b4dcd","ios":"levelo://app?vid=617b0e6f-676e-40f0-bbaf-c9395e5b4dcd"},"vehicle_type_id":"4","last_reported":1711217293,"current_range_meters":10800,"station_id":"","pricing_plan_id":"cebpf4jnsgd1na2vs0mg"},{"bike_id":"2336fe52-f8c4-4db5-a493-c731ee9dbaca","system_id":"levelo_inurba_marseille","lat":43.299717,"lon":5.384845,"is_reserved":false,"is_disabled":false,"rental_uris":{"android":"levelo://app?vid=2336fe52-f8c4-4db5-a493-c731ee9dbaca","ios":"levelo://app?vid=2336fe52-f8c4-4db5-a493-c731ee9dbaca"},"vehicle_type_id":"4","last_reported":1711217293,"current_range_meters":0,"station_id":"ce4bgj92rcd13ifvqbd0","pricing_plan_id":"cebpf4jnsgd1na2vs0mg"},{"bike_id":"b8d9f71e-3d48-4ea0-a5c2-ca53517313cf","system_id":"levelo_inurba_marseille","lat":43.299724,"lon":5.384848,"is_reserved":false,"is_disabled":false,"rental_uris":{"android":"levelo://app?vid=b8d9f71e-3d48-4ea0-a5c2-ca53517313cf","ios":"levelo://app?vid=b8d9f71e-3d48-4ea0-a5c2-ca53517313cf"},"vehicle_type_id":"4","last_reported":1711217293,"current_range_meters":0,"station_id":"ce4bgj92rcd13ifvqbd0","pricing_plan_id":"cebpf4jnsgd1na2vs0mg"},{"bike_id":"f9f23bf2-f39b-48ab-bde5-deddb20735fe","system_id":"levelo_inurba_marseille","lat":43.32365,"lon":5.38878,"is_reserved":false,"is_disabled":false,"rental_uris":{"android":"levelo://app?vid=f9f23bf2-f39b-48ab-bde5-deddb20735fe","ios":"levelo://app?vid=f9f23bf2-f39b-48ab-bde5-deddb20735fe"},"vehicle_type_id":"4","last_reported":1711217293,"current_range_meters":0,"station_id":"ce4bhqp2rcd13ifvqhog","pricing_plan_id":"cebpf4jnsgd1na2vs0mg"},{"bike_id":"cd3ad0dd-115f-4e17-bc69-39e1287d5727","system_id":"levelo_inurba_marseille","lat":43.32365,"lon":5.38882,"is_reserved":false,"is_disabled":false,"rental_uris":{"android":"levelo://app?vid=cd3ad0dd-115f-4e17-bc69-39e1287d5727","ios":"levelo://app?vid=cd3ad0dd-115f-4e17-bc69-39e1287d5727"},"vehicle_type_id":"4","last_reported":1711217293,"current_range_meters":5600,"station_id":"ce4bhqp2rcd13ifvqhog","pricing_plan_id":"cebpf4jnsgd1na2vs0mg"},{"bike_id":"21d8f879-ebbd-469b-aada-b9b3eb895347","system_id":"levelo_inurba_marseille","lat":43.32367,"lon":5.388836,"is_reserved":false,"is_disabled":false,"rental_uris":{"android":"levelo://app?vid=21d8f879-ebbd-469b-aada-b9b3eb895347","ios":"levelo://app?vid=21d8f879-ebbd-469b-aada-b9b3eb895347"},"vehicle_type_id":"4","last_reported":1711217293,"current_range_meters":12800,"station_id":"ce4bhqp2rcd13ifvqhog","pricing_plan_id":"cebpf4jnsgd1na2vs0mg"},{"bike_id":"0283b869-4093-47cb-b34f-d5e4a958e8e6","system_id":"levelo_inurba_marseille","lat":43.32368,"lon":5.38883,"is_reserved":false,"is_disabled":false,"rental_uris":{"android":"levelo://app?vid=0283b869-4093-47cb-b34f-d5e4a958e8e6","ios":"levelo://app?vid=0283b869-4093-47cb-b34f-d5e4a958e8e6"},"vehicle_type_id":"4","last_reported":1711217293,"current_range_meters":9200,"station_id":"ce4bhqp2rcd13ifvqhog","pricing_plan_id":"cebpf4jnsgd1na2vs0mg"},{"bike_id":"69738a8d-1063-40c1-9fbe-d87a7e8c839f","system_id":"levelo_inurba_marseille","lat":43.32367,"lon":5.388836,"is_reserved":false,"is_disabled":false,"rental_uris":{"android":"levelo://app?vid=69738a8d-1063-40c1-9fbe-d87a7e8c839f","ios":"levelo://app?vid=69738a8d-1063-40c1-9fbe-d87a7e8c839f"},"vehicle_type_id":"4","last_reported":1711217293,"current_range_meters":10800,"station_id":"ce4bhqp2rcd13ifvqhog","pricing_plan_id":"cebpf4jnsgd1na2vs0mg"},{"bike_id":"703ef7c5-1f6d-4c4d-9ac8-3871bf5cf5b1","system_id":"levelo_inurba_marseille","lat":43.294105,"lon":5.374036,"is_reserved":false,"is_disabled":false,"rental_uris":{"android":"levelo://app?vid=703ef7c5-1f6d-4c4d-9ac8-3871bf5cf5b1","ios":"levelo://app?vid=703ef7c5-1f6d-4c4d-9ac8-3871bf5cf5b1"},"vehicle_type_id":"4","last_reported":1711217293,"current_range_meters":20000,"station_id":"","pricing_plan_id":"cebpf4jnsgd1na2vs0mg"},{"bike_id":"69377fc2-8b2a-4316-ae68-3664d4d5fc7e","system_id":"levelo_inurba_marseille","lat":43.32369,"lon":5.38885,"is_reserved":false,"is_disabled":false,"rental_uris":{"android":"levelo://app?vid=69377fc2-8b2a-4316-ae68-3664d4d5fc7e","ios":"levelo://app?vid=69377fc2-8b2a-4316-ae68-3664d4d5fc7e"},"vehicle_type_id":"4","last_reported":1711217293,"current_range_meters":7200,"station_id":"ce4bhqp2rcd13ifvqhog","pricing_plan_id":"cebpf4jnsgd1na2vs0mg"},{"bike_id":"027a5530-a946-4b31-acf0-a872c596d298","system_id":"levelo_inurba_marseille","lat":43.29602,"lon":5.381084,"is_reserved":false,"is_disabled":false,"rental_uris":{"android":"levelo://app?vid=027a5530-a946-4b31-acf0-a872c596d298","ios":"levelo://app?vid=027a5530-a946-4b31-acf0-a872c596d298"},"vehicle_type_id":"4","last_reported":1711217293,"current_range_meters":6000,"station_id":"ce4bgl12rcd13ifvqbo0","pricing_plan_id":"cebpf4jnsgd1na2vs0mg"},{"bike_id":"76a471c7-e469-4afb-aa44-e6f84a9107e8","system_id":"levelo_inurba_marseille","lat":43.29601,"lon":5.38104,"is_reserved":false,"is_disabled":false,"rental_uris":{"android":"levelo://app?vid=76a471c7-e469-4afb-aa44-e6f84a9107e8","ios":"levelo://app?vid=76a471c7-e469-4afb-aa44-e6f84a9107e8"},"vehicle_type_id":"4","last_reported":1711217293,"current_range_meters":0,"station_id":"ce4bgl12rcd13ifvqbo0","pricing_plan_id":"cebpf4jnsgd1na2vs0mg"},{"bike_id":"eb509a22-9432-4cd6-8344-10a2c9bd8ebe","system_id":"levelo_inurba_marseille","lat":43.29597,"lon":5.38101,"is_reserved":false,"is_disabled":false,"rental_uris":{"android":"levelo://app?vid=eb509a22-9432-4cd6-8344-10a2c9bd8ebe","ios":"levelo://app?vid=eb509a22-9432-4cd6-8344-10a2c9bd8ebe"},"vehicle_type_id":"4","last_reported":1711217293,"current_range_meters":0,"station_id":"ce4bgl12rcd13ifvqbo0","pricing_plan_id":"cebpf4jnsgd1na2vs0mg"},{"bike_id":"587ad4a3-f206-450d-a20c-d1cfc8adf1a8","system_id":"levelo_inurba_marseille","lat":43.29279,"lon":5.36845,"is_reserved":false,"is_disabled":false,"rental_uris":{"android":"levelo://app?vid=587ad4a3-f206-450d-a20c-d1cfc8adf1a8","ios":"levelo://app?vid=587ad4a3-f206-450d-a20c-d1cfc8adf1a8"},"vehicle_type_id":"4","last_reported":1711217293,"current_range_meters":7200,"station_id":"ce4bhbp2rcd13ifvqesg","pricing_plan_id":"cebpf4jnsgd1na2vs0mg"},{"bike_id":"02980fda-eca1-4d83-8ebf-8b3741cca74f","system_id":"levelo_inurba_marseille","lat":43.292749,"lon":5.368402,"is_reserved":false,"is_disabled":false,"rental_uris":{"android":"levelo://app?vid=02980fda-eca1-4d83-8ebf-8b3741cca74f","ios":"levelo://app?vid=02980fda-eca1-4d83-8ebf-8b3741cca74f"},"vehicle_type_id":"4","last_reported":1711217293,"current_range_meters":0,"station_id":"ce4bhbp2rcd13ifvqesg","pricing_plan_id":"cebpf4jnsgd1na2vs0mg"},{"bike_id":"bb561750-99cb-422e-a24f-400545f88e9a","system_id":"levelo_inurba_marseille","lat":43.29302,"lon":5.37166,"is_reserved":false,"is_disabled":false,"rental_uris":{"android":"levelo://app?vid=bb561750-99cb-422e-a24f-400545f88e9a","ios":"levelo://app?vid=bb561750-99cb-422e-a24f-400545f88e9a"},"vehicle_type_id":"4","last_reported":1711217293,"current_range_meters":0,"station_id":"ce4bgh92rcd13ifvqb40","pricing_plan_id":"cebpf4jnsgd1na2vs0mg"},{"bike_id":"cc89ce9d-c460-40ed-a8ba-6a00f9ae6a06","system_id":"levelo_inurba_marseille","lat":43.292749,"lon":5.368402,"is_reserved":false,"is_disabled":false,"rental_uris":{"android":"levelo://app?vid=cc89ce9d-c460-40ed-a8ba-6a00f9ae6a06","ios":"levelo://app?vid=cc89ce9d-c460-40ed-a8ba-6a00f9ae6a06"},"vehicle_type_id":"4","last_reported":1711217293,"current_range_meters":15600,"station_id":"ce4bhbp2rcd13ifvqesg","pricing_plan_id":"cebpf4jnsgd1na2vs0mg"},{"bike_id":"64cc9052-3bbb-49a6-a0b2-39f0e8abee96","system_id":"levelo_inurba_marseille","lat":43.292749,"lon":5.368402,"is_reserved":false,"is_disabled":false,"rental_uris":{"android":"levelo://app?vid=64cc9052-3bbb-49a6-a0b2-39f0e8abee96","ios":"levelo://app?vid=64cc9052-3bbb-49a6-a0b2-39f0e8abee96"},"vehicle_type_id":"4","last_reported":1711217293,"current_range_meters":0,"station_id":"ce4bhbp2rcd13ifvqesg","pricing_plan_id":"cebpf4jnsgd1na2vs0mg"},{"bike_id":"b7556c85-6976-4c3c-b752-09a73b62cf7b","system_id":"levelo_inurba_marseille","lat":43.29298,"lon":5.37179,"is_reserved":false,"is_disabled":false,"rental_uris":{"android":"levelo://app?vid=b7556c85-6976-4c3c-b752-09a73b62cf7b","ios":"levelo://app?vid=b7556c85-6976-4c3c-b752-09a73b62cf7b"},"vehicle_type_id":"4","last_reported":1711217293,"current_range_meters":0,"station_id":"ce4bgh92rcd13ifvqb40","pricing_plan_id":"cebpf4jnsgd1na2vs0mg"},{"bike_id":"1842e599-f7bf-4702-9050-9381c9eebb25","system_id":"levelo_inurba_marseille","lat":43.29268,"lon":5.368514,"is_reserved":false,"is_disabled":false,"rental_uris":{"android":"levelo://app?vid=1842e599-f7bf-4702-9050-9381c9eebb25","ios":"levelo://app?vid=1842e599-f7bf-4702-9050-9381c9eebb25"},"vehicle_type_id":"4","last_reported":1711217293,"current_range_meters":0,"station_id":"ce4bhbp2rcd13ifvqesg","pricing_plan_id":"cebpf4jnsgd1na2vs0mg"},{"bike_id":"f6c0ab7e-254b-4aa0-867f-dbd4db1c461f","system_id":"levelo_inurba_marseille","lat":43.293009,"lon":5.374584,"is_reserved":false,"is_disabled":false,"rental_uris":{"android":"levelo://app?vid=f6c0ab7e-254b-4aa0-867f-dbd4db1c461f","ios":"levelo://app?vid=f6c0ab7e-254b-4aa0-867f-dbd4db1c461f"},"vehicle_type_id":"4","last_reported":1711217293,"current_range_meters":0,"station_id":"ce4bgi12rcd13ifvqb70","pricing_plan_id":"cebpf4jnsgd1na2vs0mg"},{"bike_id":"209512a6-9d15-4cc6-bff7-74fff5d2436d","system_id":"levelo_inurba_marseille","lat":43.293009,"lon":5.374584,"is_reserved":false,"is_disabled":false,"rental_uris":{"android":"levelo://app?vid=209512a6-9d15-4cc6-bff7-74fff5d2436d","ios":"levelo://app?vid=209512a6-9d15-4cc6-bff7-74fff5d2436d"},"vehicle_type_id":"4","last_reported":1711217293,"current_range_meters":0,"station_id":"ce4bgi12rcd13ifvqb70","pricing_plan_id":"cebpf4jnsgd1na2vs0mg"},{"bike_id":"8cd81ec1-7e5a-48d6-bde6-4357fe8a92f5","system_id":"levelo_inurba_marseille","lat":43.31809,"lon":5.39429,"is_reserved":false,"is_disabled":false,"rental_uris":{"android":"levelo://app?vid=8cd81ec1-7e5a-48d6-bde6-4357fe8a92f5","ios":"levelo://app?vid=8cd81ec1-7e5a-48d6-bde6-4357fe8a92f5"},"vehicle_type_id":"4","last_reported":1711217293,"current_range_meters":0,"station_id":"","pricing_plan_id":"cebpf4jnsgd1na2vs0mg"},{"bike_id":"2400b396-9972-43d3-b7da-cc03e3d3a3e1","system_id":"levelo_inurba_marseille","lat":43.30308,"lon":5.392064,"is_reserved":false,"is_disabled":false,"rental_uris":{"android":"levelo://app?vid=2400b396-9972-43d3-b7da-cc03e3d3a3e1","ios":"levelo://app?vid=2400b396-9972-43d3-b7da-cc03e3d3a3e1"},"vehicle_type_id":"4","last_reported":1711217293,"current_range_meters":0,"station_id":"ce4bgkh2rcd13ifvqbk0","pricing_plan_id":"cebpf4jnsgd1na2vs0mg"},{"bike_id":"c0c35264-63f1-4180-9ad2-cf0c7ec063e0","system_id":"levelo_inurba_marseille","lat":43.30299,"lon":5.3921,"is_reserved":false,"is_disabled":false,"rental_uris":{"android":"levelo://app?vid=c0c35264-63f1-4180-9ad2-cf0c7ec063e0","ios":"levelo://app?vid=c0c35264-63f1-4180-9ad2-cf0c7ec063e0"},"vehicle_type_id":"4","last_reported":1711217293,"current_range_meters":0,"station_id":"ce4bgkh2rcd13ifvqbk0","pricing_plan_id":"cebpf4jnsgd1na2vs0mg"},{"bike_id":"4bf91826-c6cb-4e9d-b20e-ef451e405533","system_id":"levelo_inurba_marseille","lat":43.292311,"lon":5.360731,"is_reserved":false,"is_disabled":false,"rental_uris":{"android":"levelo://app?vid=4bf91826-c6cb-4e9d-b20e-ef451e405533","ios":"levelo://app?vid=4bf91826-c6cb-4e9d-b20e-ef451e405533"},"vehicle_type_id":"4","last_reported":1711217293,"current_range_meters":0,"station_id":"ce4bhbh2rcd13ifvqeqg","pricing_plan_id":"cebpf4jnsgd1na2vs0mg"},{"bike_id":"0da146e6-0d05-46c3-85fa-232b44fdc991","system_id":"levelo_inurba_marseille","lat":43.293009,"lon":5.374584,"is_reserved":false,"is_disabled":false,"rental_uris":{"android":"levelo://app?vid=0da146e6-0d05-46c3-85fa-232b44fdc991","ios":"levelo://app?vid=0da146e6-0d05-46c3-85fa-232b44fdc991"},"vehicle_type_id":"4","last_reported":1711217293,"current_range_meters":18400,"station_id":"ce4bgi12rcd13ifvqb70","pricing_plan_id":"cebpf4jnsgd1na2vs0mg"},{"bike_id":"420b725f-fe3c-4d5c-b059-83366fa69de3","system_id":"levelo_inurba_marseille","lat":43.292311,"lon":5.360731,"is_reserved":false,"is_disabled":false,"rental_uris":{"android":"levelo://app?vid=420b725f-fe3c-4d5c-b059-83366fa69de3","ios":"levelo://app?vid=420b725f-fe3c-4d5c-b059-83366fa69de3"},"vehicle_type_id":"4","last_reported":1711217293,"current_range_meters":11600,"station_id":"ce4bhbh2rcd13ifvqeqg","pricing_plan_id":"cebpf4jnsgd1na2vs0mg"},{"bike_id":"8dd7c07b-e3f4-4a13-abca-4e6a6438f9cc","system_id":"levelo_inurba_marseille","lat":43.293009,"lon":5.374584,"is_reserved":false,"is_disabled":false,"rental_uris":{"android":"levelo://app?vid=8dd7c07b-e3f4-4a13-abca-4e6a6438f9cc","ios":"levelo://app?vid=8dd7c07b-e3f4-4a13-abca-4e6a6438f9cc"},"vehicle_type_id":"4","last_reported":1711217293,"current_range_meters":15200,"station_id":"ce4bgi12rcd13ifvqb70","pricing_plan_id":"cebpf4jnsgd1na2vs0mg"},{"bike_id":"e4789282-e47f-4771-b153-abcbb18da609","system_id":"levelo_inurba_marseille","lat":43.298764,"lon":5.388973,"is_reserved":false,"is_disabled":false,"rental_uris":{"android":"levelo://app?vid=e4789282-e47f-4771-b153-abcbb18da609","ios":"levelo://app?vid=e4789282-e47f-4771-b153-abcbb18da609"},"vehicle_type_id":"4","last_reported":1711217293,"current_range_meters":6000,"station_id":"ce4bh392rcd13ifvqdl0","pricing_plan_id":"cebpf4jnsgd1na2vs0mg"},{"bike_id":"c82ab3d4-5cd7-4a7a-8672-8d4be9d0bd3b","system_id":"levelo_inurba_marseille","lat":43.291994,"lon":5.357886,"is_reserved":false,"is_disabled":false,"rental_uris":{"android":"levelo://app?vid=c82ab3d4-5cd7-4a7a-8672-8d4be9d0bd3b","ios":"levelo://app?vid=c82ab3d4-5cd7-4a7a-8672-8d4be9d0bd3b"},"vehicle_type_id":"4","last_reported":1711217293,"current_range_meters":0,"station_id":"ce4bhb12rcd13ifvqel0","pricing_plan_id":"cebpf4jnsgd1na2vs0mg"},{"bike_id":"2971876c-805a-40e7-b2d2-614992082423","system_id":"levelo_inurba_marseille","lat":43.291994,"lon":5.357886,"is_reserved":false,"is_disabled":false,"rental_uris":{"android":"levelo://app?vid=2971876c-805a-40e7-b2d2-614992082423","ios":"levelo://app?vid=2971876c-805a-40e7-b2d2-614992082423"},"vehicle_type_id":"4","last_reported":1711217293,"current_range_meters":0,"station_id":"ce4bhb12rcd13ifvqel0","pricing_plan_id":"cebpf4jnsgd1na2vs0mg"},{"bike_id":"79a30f73-a7d6-41af-9f86-90131f3f9589","system_id":"levelo_inurba_marseille","lat":43.313291,"lon":5.396838,"is_reserved":false,"is_disabled":false,"rental_uris":{"android":"levelo://app?vid=79a30f73-a7d6-41af-9f86-90131f3f9589","ios":"levelo://app?vid=79a30f73-a7d6-41af-9f86-90131f3f9589"},"vehicle_type_id":"4","last_reported":1711217293,"current_range_meters":3200,"station_id":"ce4bgvp2rcd13ifvqcu0","pricing_plan_id":"cebpf4jnsgd1na2vs0mg"},{"bike_id":"82b9cb93-e043-418f-8df4-0568f0580032","system_id":"levelo_inurba_marseille","lat":43.313291,"lon":5.396838,"is_reserved":false,"is_disabled":false,"rental_uris":{"android":"levelo://app?vid=82b9cb93-e043-418f-8df4-0568f0580032","ios":"levelo://app?vid=82b9cb93-e043-418f-8df4-0568f0580032"},"vehicle_type_id":"4","last_reported":1711217293,"current_range_meters":15200,"station_id":"ce4bgvp2rcd13ifvqcu0","pricing_plan_id":"cebpf4jnsgd1na2vs0mg"},{"bike_id":"ae12149c-7a3c-4401-aefa-3f660f1e4ba9","system_id":"levelo_inurba_marseille","lat":43.313291,"lon":5.396838,"is_reserved":false,"is_disabled":false,"rental_uris":{"android":"levelo://app?vid=ae12149c-7a3c-4401-aefa-3f660f1e4ba9","ios":"levelo://app?vid=ae12149c-7a3c-4401-aefa-3f660f1e4ba9"},"vehicle_type_id":"4","last_reported":1711217293,"current_range_meters":19200,"station_id":"ce4bgvp2rcd13ifvqcu0","pricing_plan_id":"cebpf4jnsgd1na2vs0mg"},{"bike_id":"dc37a3a2-8420-4126-a4a9-cdf641b610b4","system_id":"levelo_inurba_marseille","lat":43.313291,"lon":5.396838,"is_reserved":false,"is_disabled":false,"rental_uris":{"android":"levelo://app?vid=dc37a3a2-8420-4126-a4a9-cdf641b610b4","ios":"levelo://app?vid=dc37a3a2-8420-4126-a4a9-cdf641b610b4"},"vehicle_type_id":"4","last_reported":1711217293,"current_range_meters":26800,"station_id":"ce4bgvp2rcd13ifvqcu0","pricing_plan_id":"cebpf4jnsgd1na2vs0mg"},{"bike_id":"908637b9-882c-4057-b819-38901e18f8c3","system_id":"levelo_inurba_marseille","lat":43.290779,"lon":5.371482,"is_reserved":false,"is_disabled":false,"rental_uris":{"android":"levelo://app?vid=908637b9-882c-4057-b819-38901e18f8c3","ios":"levelo://app?vid=908637b9-882c-4057-b819-38901e18f8c3"},"vehicle_type_id":"4","last_reported":1711217293,"current_range_meters":800,"station_id":"ce4bh5p2rcd13ifvqe4g","pricing_plan_id":"cebpf4jnsgd1na2vs0mg"},{"bike_id":"b3a3195c-5f00-46ec-94cc-8b24dd5eb9db","system_id":"levelo_inurba_marseille","lat":43.290779,"lon":5.371482,"is_reserved":false,"is_disabled":false,"rental_uris":{"android":"levelo://app?vid=b3a3195c-5f00-46ec-94cc-8b24dd5eb9db","ios":"levelo://app?vid=b3a3195c-5f00-46ec-94cc-8b24dd5eb9db"},"vehicle_type_id":"4","last_reported":1711217293,"current_range_meters":1200,"station_id":"ce4bh5p2rcd13ifvqe4g","pricing_plan_id":"cebpf4jnsgd1na2vs0mg"},{"bike_id":"553be6ba-c65d-4cef-80a9-9bd5e9dea82e","system_id":"levelo_inurba_marseille","lat":43.327768,"lon":5.389608,"is_reserved":false,"is_disabled":false,"rental_uris":{"android":"levelo://app?vid=553be6ba-c65d-4cef-80a9-9bd5e9dea82e","ios":"levelo://app?vid=553be6ba-c65d-4cef-80a9-9bd5e9dea82e"},"vehicle_type_id":"4","last_reported":1711217293,"current_range_meters":30400,"station_id":"","pricing_plan_id":"cebpf4jnsgd1na2vs0mg"},{"bike_id":"8a2f4ad8-04c5-4877-8388-40fcadfa34b8","system_id":"levelo_inurba_marseille","lat":43.296375,"lon":5.387806,"is_reserved":false,"is_disabled":false,"rental_uris":{"android":"levelo://app?vid=8a2f4ad8-04c5-4877-8388-40fcadfa34b8","ios":"levelo://app?vid=8a2f4ad8-04c5-4877-8388-40fcadfa34b8"},"vehicle_type_id":"4","last_reported":1711217293,"current_range_meters":22800,"station_id":"","pricing_plan_id":"cebpf4jnsgd1na2vs0mg"},{"bike_id":"4a0605e1-2e8e-4e36-90cd-8b8c618e71fa","system_id":"levelo_inurba_marseille","lat":43.304606,"lon":5.379026,"is_reserved":false,"is_disabled":false,"rental_uris":{"android":"levelo://app?vid=4a0605e1-2e8e-4e36-90cd-8b8c618e71fa","ios":"levelo://app?vid=4a0605e1-2e8e-4e36-90cd-8b8c618e71fa"},"vehicle_type_id":"4","last_reported":1711217293,"current_range_meters":27600,"station_id":"ce4bgup2rcd13ifvqcn0","pricing_plan_id":"cebpf4jnsgd1na2vs0mg"},{"bike_id":"d3b09abc-3ea1-4954-bcd7-029753224ac4","system_id":"levelo_inurba_marseille","lat":43.302008,"lon":5.394694,"is_reserved":false,"is_disabled":false,"rental_uris":{"android":"levelo://app?vid=d3b09abc-3ea1-4954-bcd7-029753224ac4","ios":"levelo://app?vid=d3b09abc-3ea1-4954-bcd7-029753224ac4"},"vehicle_type_id":"4","last_reported":1711217293,"current_range_meters":14000,"station_id":"ce4bh0p2rcd13ifvqd70","pricing_plan_id":"cebpf4jnsgd1na2vs0mg"},{"bike_id":"c8af88f3-9e9b-4701-9df5-0913c2f96f92","system_id":"levelo_inurba_marseille","lat":43.302008,"lon":5.394694,"is_reserved":false,"is_disabled":false,"rental_uris":{"android":"levelo://app?vid=c8af88f3-9e9b-4701-9df5-0913c2f96f92","ios":"levelo://app?vid=c8af88f3-9e9b-4701-9df5-0913c2f96f92"},"vehicle_type_id":"4","last_reported":1711217293,"current_range_meters":0,"station_id":"ce4bh0p2rcd13ifvqd70","pricing_plan_id":"cebpf4jnsgd1na2vs0mg"},{"bike_id":"02a2e410-4d82-48c7-8648-b6f520b9169c","system_id":"levelo_inurba_marseille","lat":43.289184,"lon":5.366408,"is_reserved":false,"is_disabled":false,"rental_uris":{"android":"levelo://app?vid=02a2e410-4d82-48c7-8648-b6f520b9169c","ios":"levelo://app?vid=02a2e410-4d82-48c7-8648-b6f520b9169c"},"vehicle_type_id":"4","last_reported":1711217293,"current_range_meters":4400,"station_id":"ce4bhap2rcd13ifvqek0","pricing_plan_id":"cebpf4jnsgd1na2vs0mg"},{"bike_id":"eabb5760-d43c-42df-bb26-082ca58346c9","system_id":"levelo_inurba_marseille","lat":43.290624,"lon":5.359245,"is_reserved":false,"is_disabled":false,"rental_uris":{"android":"levelo://app?vid=eabb5760-d43c-42df-bb26-082ca58346c9","ios":"levelo://app?vid=eabb5760-d43c-42df-bb26-082ca58346c9"},"vehicle_type_id":"4","last_reported":1711217293,"current_range_meters":5200,"station_id":"ce4bha92rcd13ifvqeg0","pricing_plan_id":"cebpf4jnsgd1na2vs0mg"},{"bike_id":"a11521fc-6506-43bd-8cd1-64994a4c2df9","system_id":"levelo_inurba_marseille","lat":43.289184,"lon":5.366408,"is_reserved":false,"is_disabled":false,"rental_uris":{"android":"levelo://app?vid=a11521fc-6506-43bd-8cd1-64994a4c2df9","ios":"levelo://app?vid=a11521fc-6506-43bd-8cd1-64994a4c2df9"},"vehicle_type_id":"4","last_reported":1711217293,"current_range_meters":2400,"station_id":"ce4bhap2rcd13ifvqek0","pricing_plan_id":"cebpf4jnsgd1na2vs0mg"},{"bike_id":"75d28ce9-9a93-486a-b44d-b5b1a45e22e6","system_id":"levelo_inurba_marseille","lat":43.290327,"lon":5.375711,"is_reserved":false,"is_disabled":false,"rental_uris":{"android":"levelo://app?vid=75d28ce9-9a93-486a-b44d-b5b1a45e22e6","ios":"levelo://app?vid=75d28ce9-9a93-486a-b44d-b5b1a45e22e6"},"vehicle_type_id":"4","last_reported":1711217293,"current_range_meters":18400,"station_id":"ce4bh692rcd13ifvqe90","pricing_plan_id":"cebpf4jnsgd1na2vs0mg"},{"bike_id":"ed0557c6-fafa-4cff-b410-528dc436bc77","system_id":"levelo_inurba_marseille","lat":43.290327,"lon":5.375711,"is_reserved":false,"is_disabled":false,"rental_uris":{"android":"levelo://app?vid=ed0557c6-fafa-4cff-b410-528dc436bc77","ios":"levelo://app?vid=ed0557c6-fafa-4cff-b410-528dc436bc77"},"vehicle_type_id":"4","last_reported":1711217293,"current_range_meters":8000,"station_id":"ce4bh692rcd13ifvqe90","pricing_plan_id":"cebpf4jnsgd1na2vs0mg"},{"bike_id":"12eeee19-d718-4579-93ec-362d29e971bb","system_id":"levelo_inurba_marseille","lat":43.294162,"lon":5.386292,"is_reserved":false,"is_disabled":false,"rental_uris":{"android":"levelo://app?vid=12eeee19-d718-4579-93ec-362d29e971bb","ios":"levelo://app?vid=12eeee19-d718-4579-93ec-362d29e971bb"},"vehicle_type_id":"4","last_reported":1711217293,"current_range_meters":17600,"station_id":"ce4bh2h2rcd13ifvqdh0","pricing_plan_id":"cebpf4jnsgd1na2vs0mg"},{"bike_id":"57449c9a-8732-4700-a3c3-75cb70e2f36b","system_id":"levelo_inurba_marseille","lat":43.294162,"lon":5.386292,"is_reserved":false,"is_disabled":false,"rental_uris":{"android":"levelo://app?vid=57449c9a-8732-4700-a3c3-75cb70e2f36b","ios":"levelo://app?vid=57449c9a-8732-4700-a3c3-75cb70e2f36b"},"vehicle_type_id":"4","last_reported":1711217293,"current_range_meters":0,"station_id":"ce4bh2h2rcd13ifvqdh0","pricing_plan_id":"cebpf4jnsgd1na2vs0mg"},{"bike_id":"e70f7c1b-c5ec-4d94-a22f-6e442b858ae8","system_id":"levelo_inurba_marseille","lat":43.294162,"lon":5.386292,"is_reserved":false,"is_disabled":false,"rental_uris":{"android":"levelo://app?vid=e70f7c1b-c5ec-4d94-a22f-6e442b858ae8","ios":"levelo://app?vid=e70f7c1b-c5ec-4d94-a22f-6e442b858ae8"},"vehicle_type_id":"4","last_reported":1711217293,"current_range_meters":0,"station_id":"ce4bh2h2rcd13ifvqdh0","pricing_plan_id":"cebpf4jnsgd1na2vs0mg"},{"bike_id":"72b910db-3f13-425d-943d-1c26e50bd54a","system_id":"levelo_inurba_marseille","lat":43.289184,"lon":5.366408,"is_reserved":false,"is_disabled":false,"rental_uris":{"android":"levelo://app?vid=72b910db-3f13-425d-943d-1c26e50bd54a","ios":"levelo://app?vid=72b910db-3f13-425d-943d-1c26e50bd54a"},"vehicle_type_id":"4","last_reported":1711217293,"current_range_meters":0,"station_id":"ce4bhap2rcd13ifvqek0","pricing_plan_id":"cebpf4jnsgd1na2vs0mg"},{"bike_id":"ae5d9bdc-d8c0-40d1-8256-a777249df505","system_id":"levelo_inurba_marseille","lat":43.289468,"lon":5.363719,"is_reserved":false,"is_disabled":false,"rental_uris":{"android":"levelo://app?vid=ae5d9bdc-d8c0-40d1-8256-a777249df505","ios":"levelo://app?vid=ae5d9bdc-d8c0-40d1-8256-a777249df505"},"vehicle_type_id":"4","last_reported":1711217293,"current_range_meters":23600,"station_id":"ce4bhc92rcd13ifvqetg","pricing_plan_id":"cebpf4jnsgd1na2vs0mg"},{"bike_id":"dd703ac4-537e-4b17-a077-d885b607775f","system_id":"levelo_inurba_marseille","lat":43.292642,"lon":5.384254,"is_reserved":false,"is_disabled":false,"rental_uris":{"android":"levelo://app?vid=dd703ac4-537e-4b17-a077-d885b607775f","ios":"levelo://app?vid=dd703ac4-537e-4b17-a077-d885b607775f"},"vehicle_type_id":"4","last_reported":1711217293,"current_range_meters":2000,"station_id":"ce4bh692rcd13ifvqea0","pricing_plan_id":"cebpf4jnsgd1na2vs0mg"},{"bike_id":"29eed108-5088-46c6-a8f4-51ab883a9377","system_id":"levelo_inurba_marseille","lat":43.2904,"lon":5.37757,"is_reserved":false,"is_disabled":false,"rental_uris":{"android":"levelo://app?vid=29eed108-5088-46c6-a8f4-51ab883a9377","ios":"levelo://app?vid=29eed108-5088-46c6-a8f4-51ab883a9377"},"vehicle_type_id":"4","last_reported":1711217293,"current_range_meters":0,"station_id":"","pricing_plan_id":"cebpf4jnsgd1na2vs0mg"},{"bike_id":"17e9cc84-46a7-4294-b165-5345c485c5e3","system_id":"levelo_inurba_marseille","lat":43.298764,"lon":5.388973,"is_reserved":false,"is_disabled":false,"rental_uris":{"android":"levelo://app?vid=17e9cc84-46a7-4294-b165-5345c485c5e3","ios":"levelo://app?vid=17e9cc84-46a7-4294-b165-5345c485c5e3"},"vehicle_type_id":"4","last_reported":1711217293,"current_range_meters":16000,"station_id":"ce4bh392rcd13ifvqdl0","pricing_plan_id":"cebpf4jnsgd1na2vs0mg"},{"bike_id":"2a8f680f-9275-46ef-ab15-9bcabcbb7064","system_id":"levelo_inurba_marseille","lat":43.292642,"lon":5.384254,"is_reserved":false,"is_disabled":false,"rental_uris":{"android":"levelo://app?vid=2a8f680f-9275-46ef-ab15-9bcabcbb7064","ios":"levelo://app?vid=2a8f680f-9275-46ef-ab15-9bcabcbb7064"},"vehicle_type_id":"4","last_reported":1711217293,"current_range_meters":4400,"station_id":"ce4bh692rcd13ifvqea0","pricing_plan_id":"cebpf4jnsgd1na2vs0mg"},{"bike_id":"68da2d05-0428-4c68-8e76-6a75a02a323b","system_id":"levelo_inurba_marseille","lat":43.292642,"lon":5.384254,"is_reserved":false,"is_disabled":false,"rental_uris":{"android":"levelo://app?vid=68da2d05-0428-4c68-8e76-6a75a02a323b","ios":"levelo://app?vid=68da2d05-0428-4c68-8e76-6a75a02a323b"},"vehicle_type_id":"4","last_reported":1711217293,"current_range_meters":2000,"station_id":"ce4bh692rcd13ifvqea0","pricing_plan_id":"cebpf4jnsgd1na2vs0mg"},{"bike_id":"9a132ad1-58fc-4ded-8224-620b1e5faa06","system_id":"levelo_inurba_marseille","lat":43.29262,"lon":5.3844,"is_reserved":false,"is_disabled":false,"rental_uris":{"android":"levelo://app?vid=9a132ad1-58fc-4ded-8224-620b1e5faa06","ios":"levelo://app?vid=9a132ad1-58fc-4ded-8224-620b1e5faa06"},"vehicle_type_id":"4","last_reported":1711217293,"current_range_meters":0,"station_id":"ce4bh692rcd13ifvqea0","pricing_plan_id":"cebpf4jnsgd1na2vs0mg"},{"bike_id":"29b72644-c25a-4a63-a7e7-3e6043c40c7d","system_id":"levelo_inurba_marseille","lat":43.292611,"lon":5.384396,"is_reserved":false,"is_disabled":false,"rental_uris":{"android":"levelo://app?vid=29b72644-c25a-4a63-a7e7-3e6043c40c7d","ios":"levelo://app?vid=29b72644-c25a-4a63-a7e7-3e6043c40c7d"},"vehicle_type_id":"4","last_reported":1711217293,"current_range_meters":0,"station_id":"","pricing_plan_id":"cebpf4jnsgd1na2vs0mg"},{"bike_id":"d9d1bba4-a794-4a8c-9c9a-8a3d52614176","system_id":"levelo_inurba_marseille","lat":43.290104,"lon":5.356111,"is_reserved":false,"is_disabled":false,"rental_uris":{"android":"levelo://app?vid=d9d1bba4-a794-4a8c-9c9a-8a3d52614176","ios":"levelo://app?vid=d9d1bba4-a794-4a8c-9c9a-8a3d52614176"},"vehicle_type_id":"4","last_reported":1711217293,"current_range_meters":1200,"station_id":"ce4bhb92rcd13ifvqen0","pricing_plan_id":"cebpf4jnsgd1na2vs0mg"},{"bike_id":"c44b8a11-0aad-441f-baa6-5920ceb79cbd","system_id":"levelo_inurba_marseille","lat":43.29006,"lon":5.35618,"is_reserved":false,"is_disabled":false,"rental_uris":{"android":"levelo://app?vid=c44b8a11-0aad-441f-baa6-5920ceb79cbd","ios":"levelo://app?vid=c44b8a11-0aad-441f-baa6-5920ceb79cbd"},"vehicle_type_id":"4","last_reported":1711217293,"current_range_meters":0,"station_id":"ce4bhb92rcd13ifvqen0","pricing_plan_id":"cebpf4jnsgd1na2vs0mg"},{"bike_id":"8c610a08-0781-4ecd-be99-0887e91b6470","system_id":"levelo_inurba_marseille","lat":43.29005,"lon":5.35617,"is_reserved":false,"is_disabled":false,"rental_uris":{"android":"levelo://app?vid=8c610a08-0781-4ecd-be99-0887e91b6470","ios":"levelo://app?vid=8c610a08-0781-4ecd-be99-0887e91b6470"},"vehicle_type_id":"4","last_reported":1711217293,"current_range_meters":0,"station_id":"ce4bhb92rcd13ifvqen0","pricing_plan_id":"cebpf4jnsgd1na2vs0mg"},{"bike_id":"44f132cd-2aea-4b8b-9217-74a5cc6007ac","system_id":"levelo_inurba_marseille","lat":43.29006,"lon":5.3561,"is_reserved":false,"is_disabled":false,"rental_uris":{"android":"levelo://app?vid=44f132cd-2aea-4b8b-9217-74a5cc6007ac","ios":"levelo://app?vid=44f132cd-2aea-4b8b-9217-74a5cc6007ac"},"vehicle_type_id":"4","last_reported":1711217293,"current_range_meters":0,"station_id":"ce4bhb92rcd13ifvqen0","pricing_plan_id":"cebpf4jnsgd1na2vs0mg"},{"bike_id":"58cb87f7-43ec-4e50-a12c-5569bc506cf0","system_id":"levelo_inurba_marseille","lat":43.29006,"lon":5.35609,"is_reserved":false,"is_disabled":false,"rental_uris":{"android":"levelo://app?vid=58cb87f7-43ec-4e50-a12c-5569bc506cf0","ios":"levelo://app?vid=58cb87f7-43ec-4e50-a12c-5569bc506cf0"},"vehicle_type_id":"4","last_reported":1711217293,"current_range_meters":0,"station_id":"ce4bhb92rcd13ifvqen0","pricing_plan_id":"cebpf4jnsgd1na2vs0mg"},{"bike_id":"33933cdd-66f4-4c4d-a3fd-d1ae94f75c82","system_id":"levelo_inurba_marseille","lat":43.290076,"lon":5.355982,"is_reserved":false,"is_disabled":false,"rental_uris":{"android":"levelo://app?vid=33933cdd-66f4-4c4d-a3fd-d1ae94f75c82","ios":"levelo://app?vid=33933cdd-66f4-4c4d-a3fd-d1ae94f75c82"},"vehicle_type_id":"4","last_reported":1711217293,"current_range_meters":6800,"station_id":"ce4bhb92rcd13ifvqen0","pricing_plan_id":"cebpf4jnsgd1na2vs0mg"},{"bike_id":"e0b34dde-bc0d-436b-a10d-20d4df3f205e","system_id":"levelo_inurba_marseille","lat":43.29002,"lon":5.35611,"is_reserved":false,"is_disabled":false,"rental_uris":{"android":"levelo://app?vid=e0b34dde-bc0d-436b-a10d-20d4df3f205e","ios":"levelo://app?vid=e0b34dde-bc0d-436b-a10d-20d4df3f205e"},"vehicle_type_id":"4","last_reported":1711217293,"current_range_meters":16000,"station_id":"ce4bhb92rcd13ifvqen0","pricing_plan_id":"cebpf4jnsgd1na2vs0mg"},