{"last_updated":1753186944,"ttl":60,"version":"2.2","data":{"bikes":[{"bike_id":"40518629-bdf9-4d49-91d2-1b3a9647c660","system_id":"levelo_inurba_marseille","lat":43.337725,"lon":5.374294,"is_reserved":false,"is_disabled":false,"rental_uris":{"android":"levelo://app?vid=40518629-bdf9-4d49-91d2-1b3a9647c660","ios":"levelo://app?vid=40518629-bdf9-4d49-91d2-1b3a9647c660"},"vehicle_type_id":"4","last_reported":1753186944,"current_range_meters":2800,"station_id":"","pricing_plan_id":"cebpf4jnsgd1na2vs0mg"},{"bike_id":"b9abfa9f-d514-47d2-bd3b-963fd90a16d7","system_id":"levelo_inurba_marseille","lat":43.29498,"lon":5.38184,"is_reserved":false,"is_disabled":false,"rental_uris":{"android":"levelo://app?vid=b9abfa9f-d514-47d2-bd3b-963fd90a16d7","ios":"levelo://app?vid=b9abfa9f-d514-47d2-bd3b-963fd90a16d7"},"vehicle_type_id":"4","last_reported":1753186944,"current_range_meters":3200,"station_id":"","pricing_plan_id":"cebpf4jnsgd1na2vs0mg"},{"bike_id":"bfd797d6-3cf1-4480-8b36-c45099b5a559","system_id":"levelo_inurba_marseille","lat":43.3093,"lon":5.40142,"is_reserved":false,"is_disabled":false,"rental_uris":{"android":"levelo://app?vid=bfd797d6-3cf1-4480-8b36-c45099b5a559","ios":"levelo://app?vid=bfd797d6-3cf1-4480-8b36-c45099b5a559"},"vehicle_type_id":"4","last_reported":1753186944,"current_range_meters":3200,"station_id":"ce4bgvp2rcd13ifvqct0","pricing_plan_id":"cebpf4jnsgd1na2vs0mg"},{"bike_id":"dde0eddc-4280-429f-b106-9fea4c1ca5bc","system_id":"levelo_inurba_marseille","lat":43.2318,"lon":5.39992,"is_reserved":false,"is_disabled":false,"rental_uris":{"android":"levelo://app?vid=dde0eddc-4280-429f-b106-9fea4c1ca5bc","ios":"levelo://app?vid=dde0eddc-4280-429f-b106-9fea4c1ca5bc"},"vehicle_type_id":"4","last_reported":1753186944,"current_range_meters":3200,"station_id":"ce4bhn12rcd13ifvqgqg","pricing_plan_id":"cebpf4jnsgd1na2vs0mg"},{"bike_id":"fee5c878-49ed-4b27-a71f-3942cb4cbca7","system_id":"levelo_inurba_marseille","lat":43.28153,"lon":5.42641,"is_reserved":false,"is_disabled":false,"rental_uris":{"android":"levelo://app?vid=fee5c878-49ed-4b27-a71f-3942cb4cbca7","ios":"levelo://app?vid=fee5c878-49ed-4b27-a71f-3942cb4cbca7"},"vehicle_type_id":"4","last_reported":1753186944,"current_range_meters":4400,"station_id":"ce4bhnh2rcd13ifvqgug","pricing_plan_id":"cebpf4jnsgd1na2vs0mg"},{"bike_id":"e3393bc5-903f-4743-9c16-46ca700cf797","system_id":"levelo_inurba_marseille","lat":43.3247,"lon":5.36559,"is_reserved":false,"is_disabled":false,"rental_uris":{"android":"levelo://app?vid=e3393bc5-903f-4743-9c16-46ca700cf797","ios":"levelo://app?vid=e3393bc5-903f-4743-9c16-46ca700cf797"},"vehicle_type_id":"4","last_reported":1753186944,"current_range_meters":4800,"station_id":"ce4bhs12rcd13ifvqhvg","pricing_plan_id":"cebpf4jnsgd1na2vs0mg"},{"bike_id":"b0e9b717-8e8a-4a4d-bca8-f5c189f80f1d","system_id":"levelo_inurba_marseille","lat":43.27908,"lon":5.39571,"is_reserved":false,"is_disabled":false,"rental_uris":{"android":"levelo://app?vid=b0e9b717-8e8a-4a4d-bca8-f5c189f80f1d","ios":"levelo://app?vid=b0e9b717-8e8a-4a4d-bca8-f5c189f80f1d"},"vehicle_type_id":"4","last_reported":1753186944,"current_range_meters":4800,"station_id":"ce4bhf92rcd13ifvqf40","pricing_plan_id":"cebpf4jnsgd1na2vs0mg"},{"bike_id":"4cabb560-7a75-4353-a0ed-bc93ed12f5cd","system_id":"levelo_inurba_marseille","lat":43.30106,"lon":5.38079,"is_reserved":false,"is_disabled":false,"rental_uris":{"android":"levelo://app?vid=4cabb560-7a75-4353-a0ed-bc93ed12f5cd","ios":"levelo://app?vid=4cabb560-7a75-4353-a0ed-bc93ed12f5cd"},"vehicle_type_id":"4","last_reported":1753186944,"current_range_meters":4800,"station_id":"ce4bgjp2rcd13ifvqbh0","pricing_plan_id":"cebpf4jnsgd1na2vs0mg"},{"bike_id":"5225f200-23bd-456a-8206-5a7a5d7dc7dd","system_id":"levelo_inurba_marseille","lat":43.26787,"lon":5.39419,"is_reserved":false,"is_disabled":false,"rental_uris":{"android":"levelo://app?vid=5225f200-23bd-456a-8206-5a7a5d7dc7dd","ios":"levelo://app?vid=5225f200-23bd-456a-8206-5a7a5d7dc7dd"},"vehicle_type_id":"4","last_reported":1753186944,"current_range_meters":4800,"station_id":"ce4bhh12rcd13ifvqfg0","pricing_plan_id":"cebpf4jnsgd1na2vs0mg"},{"bike_id":"4f27d6c1-afb7-491c-a6de-45869e783533","system_id":"levelo_inurba_marseille","lat":43.28962,"lon":5.37837,"is_reserved":false,"is_disabled":false,"rental_uris":{"android":"levelo://app?vid=4f27d6c1-afb7-491c-a6de-45869e783533","ios":"levelo://app?vid=4f27d6c1-afb7-491c-a6de-45869e783533"},"vehicle_type_id":"4","last_reported":1753186944,"current_range_meters":6000,"station_id":"ce4bh9p2rcd13ifvqed0","pricing_plan_id":"cebpf4jnsgd1na2vs0mg"},{"bike_id":"9b54a24b-9c71-4f91-bdb0-54aed06d8621","system_id":"levelo_inurba_marseille","lat":43.29797,"lon":5.404,"is_reserved":false,"is_disabled":false,"rental_uris":{"android":"levelo://app?vid=9b54a24b-9c71-4f91-bdb0-54aed06d8621","ios":"levelo://app?vid=9b54a24b-9c71-4f91-bdb0-54aed06d8621"},"vehicle_type_id":"4","last_reported":1753186944,"current_range_meters":6400,"station_id":"ce4bh112rcd13ifvqd90","pricing_plan_id":"cebpf4jnsgd1na2vs0mg"},{"bike_id":"5999e1b7-f77a-4b6f-9b3f-36ca63f608c6","system_id":"levelo_inurba_marseille","lat":43.30929,"lon":5.40142,"is_reserved":false,"is_disabled":false,"rental_uris":{"android":"levelo://app?vid=5999e1b7-f77a-4b6f-9b3f-36ca63f608c6","ios":"levelo://app?vid=5999e1b7-f77a-4b6f-9b3f-36ca63f608c6"},"vehicle_type_id":"4","last_reported":1753186944,"current_range_meters":6000,"station_id":"ce4bgvp2rcd13ifvqct0","pricing_plan_id":"cebpf4jnsgd1na2vs0mg"},{"bike_id":"9e03c602-0b73-4bca-9b07-014b9738d4b1","system_id":"levelo_inurba_marseille","lat":43.27803,"lon":5.35505,"is_reserved":false,"is_disabled":false,"rental_uris":{"android":"levelo://app?vid=9e03c602-0b73-4bca-9b07-014b9738d4b1","ios":"levelo://app?vid=9e03c602-0b73-4bca-9b07-014b9738d4b1"},"vehicle_type_id":"4","last_reported":1753186944,"current_range_meters":6800,"station_id":"","pricing_plan_id":"cebpf4jnsgd1na2vs0mg"},{"bike_id":"edf44d63-2d18-4fe3-a026-1a0e1e48b0b7","system_id":"levelo_inurba_marseille","lat":43.26684,"lon":5.38272,"is_reserved":false,"is_disabled":false,"rental_uris":{"android":"levelo://app?vid=edf44d63-2d18-4fe3-a026-1a0e1e48b0b7","ios":"levelo://app?vid=edf44d63-2d18-4fe3-a026-1a0e1e48b0b7"},"vehicle_type_id":"4","last_reported":1753186944,"current_range_meters":7200,"station_id":"ce4bhg92rcd13ifvqf90","pricing_plan_id":"cebpf4jnsgd1na2vs0mg"},{"bike_id":"59eecf26-4fd8-4daf-87a8-4f2127f523c9","system_id":"levelo_inurba_marseille","lat":43.29901,"lon":5.43669,"is_reserved":false,"is_disabled":false,"rental_uris":{"android":"levelo://app?vid=59eecf26-4fd8-4daf-87a8-4f2127f523c9","ios":"levelo://app?vid=59eecf26-4fd8-4daf-87a8-4f2127f523c9"},"vehicle_type_id":"4","last_reported":1753186944,"current_range_meters":7200,"station_id":"ce4bhpp2rcd13ifvqhfg","pricing_plan_id":"cebpf4jnsgd1na2vs0mg"},{"bike_id":"5ee90f5d-c2dc-4596-afac-8aac8e0482dc","system_id":"levelo_inurba_marseille","lat":43.32476,"lon":5.36565,"is_reserved":false,"is_disabled":false,"rental_uris":{"android":"levelo://app?vid=5ee90f5d-c2dc-4596-afac-8aac8e0482dc","ios":"levelo://app?vid=5ee90f5d-c2dc-4596-afac-8aac8e0482dc"},"vehicle_type_id":"4","last_reported":1753186944,"current_range_meters":7200,"station_id":"ce4bhs12rcd13ifvqhvg","pricing_plan_id":"cebpf4jnsgd1na2vs0mg"},{"bike_id":"d50ebc57-f701-476d-8cab-476b062ca8a3","system_id":"levelo_inurba_marseille","lat":43.29541,"lon":5.39395,"is_reserved":false,"is_disabled":false,"rental_uris":{"android":"levelo://app?vid=d50ebc57-f701-476d-8cab-476b062ca8a3","ios":"levelo://app?vid=d50ebc57-f701-476d-8cab-476b062ca8a3"},"vehicle_type_id":"4","last_reported":1753186944,"current_range_meters":8400,"station_id":"ce4bh292rcd13ifvqdf0","pricing_plan_id":"cebpf4jnsgd1na2vs0mg"},{"bike_id":"c4e42566-fd82-4c95-bdcb-9066a8d57916","system_id":"levelo_inurba_marseille","lat":43.31352,"lon":5.36721,"is_reserved":false,"is_disabled":false,"rental_uris":{"android":"levelo://app?vid=c4e42566-fd82-4c95-bdcb-9066a8d57916","ios":"levelo://app?vid=c4e42566-fd82-4c95-bdcb-9066a8d57916"},"vehicle_type_id":"4","last_reported":1753186944,"current_range_meters":8400,"station_id":"ce4bgr92rcd13ifvqc6g","pricing_plan_id":"cebpf4jnsgd1na2vs0mg"},{"bike_id":"8940f366-1f94-4caf-91e1-af4cce7505b5","system_id":"levelo_inurba_marseille","lat":43.31198,"lon":5.3689,"is_reserved":false,"is_disabled":false,"rental_uris":{"android":"levelo://app?vid=8940f366-1f94-4caf-91e1-af4cce7505b5","ios":"levelo://app?vid=8940f366-1f94-4caf-91e1-af4cce7505b5"},"vehicle_type_id":"4","last_reported":1753186944,"current_range_meters":8400,"station_id":"ce4bgl92rcd13ifvqbq0","pricing_plan_id":"cebpf4jnsgd1na2vs0mg"},{"bike_id":"f2d78566-54d3-43f0-8aa3-3c29ebf890ef","system_id":"levelo_inurba_marseille","lat":43.31737,"lon":5.43708,"is_reserved":false,"is_disabled":false,"rental_uris":{"android":"levelo://app?vid=f2d78566-54d3-43f0-8aa3-3c29ebf890ef","ios":"levelo://app?vid=f2d78566-54d3-43f0-8aa3-3c29ebf890ef"},"vehicle_type_id":"4","last_reported":1753186944,"current_range_meters":8400,"station_id":"ce4bhp92rcd13ifvqhcg","pricing_plan_id":"cebpf4jnsgd1na2vs0mg"},{"bike_id":"b99825d2-6a60-40b7-bc7e-0ad92a6468f6","system_id":"levelo_inurba_marseille","lat":43.31234,"lon":5.36875,"is_reserved":false,"is_disabled":false,"rental_uris":{"android":"levelo://app?vid=b99825d2-6a60-40b7-bc7e-0ad92a6468f6","ios":"levelo://app?vid=b99825d2-6a60-40b7-bc7e-0ad92a6468f6"},"vehicle_type_id":"4","last_reported":1753186944,"current_range_meters":8400,"station_id":"ce4bgl92rcd13ifvqbq0","pricing_plan_id":"cebpf4jnsgd1na2vs0mg"},{"bike_id":"1095c923-6256-4942-b4a6-f108588ec313","system_id":"levelo_inurba_marseille","lat":43.313498,"lon":5.367146,"is_reserved":false,"is_disabled":false,"rental_uris":{"android":"levelo://app?vid=1095c923-6256-4942-b4a6-f108588ec313","ios":"levelo://app?vid=1095c923-6256-4942-b4a6-f108588ec313"},"vehicle_type_id":"4","last_reported":1753186944,"current_range_meters":9200,"station_id":"","pricing_plan_id":"cebpf4jnsgd1na2vs0mg"},{"bike_id":"43551ae3-0546-44f3-8d36-dfc7bd5feec1","system_id":"levelo_inurba_marseille","lat":43.27618,"lon":5.36114,"is_reserved":false,"is_disabled":false,"rental_uris":{"android":"levelo://app?vid=43551ae3-0546-44f3-8d36-dfc7bd5feec1","ios":"levelo://app?vid=43551ae3-0546-44f3-8d36-dfc7bd5feec1"},"vehicle_type_id":"4","last_reported":1753186944,"current_range_meters":9200,"station_id":"ce4bgj92rcd13ifvqbe0","pricing_plan_id":"cebpf4jnsgd1na2vs0mg"},{"bike_id":"54171c88-6595-4564-b737-7c6a146724d5","system_id":"levelo_inurba_marseille","lat":43.240699,"lon":5.377723,"is_reserved":false,"is_disabled":false,"rental_uris":{"android":"levelo://app?vid=54171c88-6595-4564-b737-7c6a146724d5","ios":"levelo://app?vid=54171c88-6595-4564-b737-7c6a146724d5"},"vehicle_type_id":"4","last_reported":1753186944,"current_range_meters":9600,"station_id":"ce4bhnp2rcd13ifvqgvg","pricing_plan_id":"cebpf4jnsgd1na2vs0mg"},{"bike_id":"9e104be9-427d-4536-9648-5648fe60b371","system_id":"levelo_inurba_marseille","lat":43.27777,"lon":5.3994,"is_reserved":false,"is_disabled":false,"rental_uris":{"android":"levelo://app?vid=9e104be9-427d-4536-9648-5648fe60b371","ios":"levelo://app?vid=9e104be9-427d-4536-9648-5648fe60b371"},"vehicle_type_id":"4","last_reported":1753186944,"current_range_meters":9600,"station_id":"","pricing_plan_id":"cebpf4jnsgd1na2vs0mg"},{"bike_id":"4a2c1821-d3aa-4e11-99ad-d4d78e6b2621","system_id":"levelo_inurba_marseille","lat":43.24082,"lon":5.37577,"is_reserved":false,"is_disabled":false,"rental_uris":{"android":"levelo://app?vid=4a2c1821-d3aa-4e11-99ad-d4d78e6b2621","ios":"levelo://app?vid=4a2c1821-d3aa-4e11-99ad-d4d78e6b2621"},"vehicle_type_id":"4","last_reported":1753186944,"current_range_meters":9600,"station_id":"","pricing_plan_id":"cebpf4jnsgd1na2vs0mg"},{"bike_id":"c5041863-f747-4af0-8627-a1a2a521a3ce","system_id":"levelo_inurba_marseille","lat":43.22328,"lon":5.34626,"is_reserved":false,"is_disabled":false,"rental_uris":{"android":"levelo://app?vid=c5041863-f747-4af0-8627-a1a2a521a3ce","ios":"levelo://app?vid=c5041863-f747-4af0-8627-a1a2a521a3ce"},"vehicle_type_id":"4","last_reported":1753186944,"current_range_meters":9600,"station_id":"","pricing_plan_id":"cebpf4jnsgd1na2vs0mg"},{"bike_id":"16ae4873-ac37-452a-908d-86a965b9f22e","system_id":"levelo_inurba_marseille","lat":43.290273,"lon":5.376279,"is_reserved":false,"is_disabled":false,"rental_uris":{"android":"levelo://app?vid=16ae4873-ac37-452a-908d-86a965b9f22e","ios":"levelo://app?vid=16ae4873-ac37-452a-908d-86a965b9f22e"},"vehicle_type_id":"4","last_reported":1753186944,"current_range_meters":9600,"station_id":"ce4bh692rcd13ifvqe90","pricing_plan_id":"cebpf4jnsgd1na2vs0mg"},{"bike_id":"3e1ea307-c30a-43f8-bcaa-0b7bb4cd7222","system_id":"levelo_inurba_marseille","lat":43.22814,"lon":5.3498,"is_reserved":false,"is_disabled":false,"rental_uris":{"android":"levelo://app?vid=3e1ea307-c30a-43f8-bcaa-0b7bb4cd7222","ios":"levelo://app?vid=3e1ea307-c30a-43f8-bcaa-0b7bb4cd7222"},"vehicle_type_id":"4","last_reported":1753186944,"current_range_meters":9600,"station_id":"","pricing_plan_id":"cebpf4jnsgd1na2vs0mg"},{"bike_id":"fe8d3368-2284-45b8-882e-f92944481878","system_id":"levelo_inurba_marseille","lat":43.29267,"lon":5.36846,"is_reserved":false,"is_disabled":false,"rental_uris":{"android":"levelo://app?vid=fe8d3368-2284-45b8-882e-f92944481878","ios":"levelo://app?vid=fe8d3368-2284-45b8-882e-f92944481878"},"vehicle_type_id":"4","last_reported":1753186944,"current_range_meters":9600,"station_id":"ce4bhbp2rcd13ifvqesg","pricing_plan_id":"cebpf4jnsgd1na2vs0mg"},{"bike_id":"de167d6f-472f-4834-9bbf-cf6e387af8e3","system_id":"levelo_inurba_marseille","lat":43.31707,"lon":5.37688,"is_reserved":false,"is_disabled":false,"rental_uris":{"android":"levelo://app?vid=de167d6f-472f-4834-9bbf-cf6e387af8e3","ios":"levelo://app?vid=de167d6f-472f-4834-9bbf-cf6e387af8e3"},"vehicle_type_id":"4","last_reported":1753186944,"current_range_meters":9600,"station_id":"ce4bgth2rcd13ifvqch0","pricing_plan_id":"cebpf4jnsgd1na2vs0mg"},{"bike_id":"5ca5b63c-80a8-4770-9baf-0934b499f0cc","system_id":"levelo_inurba_marseille","lat":43.29931,"lon":5.37462,"is_reserved":false,"is_disabled":false,"rental_uris":{"android":"levelo://app?vid=5ca5b63c-80a8-4770-9baf-0934b499f0cc","ios":"levelo://app?vid=5ca5b63c-80a8-4770-9baf-0934b499f0cc"},"vehicle_type_id":"4","last_reported":1753186944,"current_range_meters":10000,"station_id":"ce4bgjh2rcd13ifvqbg0","pricing_plan_id":"cebpf4jnsgd1na2vs0mg"},{"bike_id":"2323532e-81b1-40c3-a626-d62ba1924512","system_id":"levelo_inurba_marseille","lat":43.31082,"lon":5.4243,"is_reserved":false,"is_disabled":false,"rental_uris":{"android":"levelo://app?vid=2323532e-81b1-40c3-a626-d62ba1924512","ios":"levelo://app?vid=2323532e-81b1-40c3-a626-d62ba1924512"},"vehicle_type_id":"4","last_reported":1753186944,"current_range_meters":10000,"station_id":"ce4bhp92rcd13ifvqhag","pricing_plan_id":"cebpf4jnsgd1na2vs0mg"},{"bike_id":"0977b1ce-586a-4bd6-a6ff-03419b55a174","system_id":"levelo_inurba_marseille","lat":43.321,"lon":5.3677,"is_reserved":false,"is_disabled":false,"rental_uris":{"android":"levelo://app?vid=0977b1ce-586a-4bd6-a6ff-03419b55a174","ios":"levelo://app?vid=0977b1ce-586a-4bd6-a6ff-03419b55a174"},"vehicle_type_id":"4","last_reported":1753186944,"current_range_meters":10000,"station_id":"ce4bhrh2rcd13ifvqhug","pricing_plan_id":"cebpf4jnsgd1na2vs0mg"},{"bike_id":"841c341b-916b-47c7-a7fd-d5acfaebd129","system_id":"levelo_inurba_marseille","lat":43.28417,"lon":5.34986,"is_reserved":false,"is_disabled":false,"rental_uris":{"android":"levelo://app?vid=841c341b-916b-47c7-a7fd-d5acfaebd129","ios":"levelo://app?vid=841c341b-916b-47c7-a7fd-d5acfaebd129"},"vehicle_type_id":"4","last_reported":1753186944,"current_range_meters":10000,"station_id":"ce4bhbh2rcd13ifvqepg","pricing_plan_id":"cebpf4jnsgd1na2vs0mg"},{"bike_id":"aa234af7-d771-4075-8032-1e944964234e","system_id":"levelo_inurba_marseille","lat":43.28272,"lon":5.35055,"is_reserved":false,"is_disabled":false,"rental_uris":{"android":"levelo://app?vid=aa234af7-d771-4075-8032-1e944964234e","ios":"levelo://app?vid=aa234af7-d771-4075-8032-1e944964234e"},"vehicle_type_id":"4","last_reported":1753186944,"current_range_meters":10000,"station_id":"ce4bhbp2rcd13ifvqerg","pricing_plan_id":"cebpf4jnsgd1na2vs0mg"},{"bike_id":"b1ac4eae-a045-49c4-b887-fb43382b5ff9","system_id":"levelo_inurba_marseille","lat":43.267803,"lon":5.394183,"is_reserved":false,"is_disabled":true,"rental_uris":{"android":"levelo://app?vid=b1ac4eae-a045-49c4-b887-fb43382b5ff9","ios":"levelo://app?vid=b1ac4eae-a045-49c4-b887-fb43382b5ff9"},"vehicle_type_id":"4","last_reported":1753186944,"current_range_meters":10800,"station_id":"ce4bhh12rcd13ifvqfg0","pricing_plan_id":"cebpf4jnsgd1na2vs0mg"},{"bike_id":"88f7ff47-f812-4d47-9a62-9e00187ed78b","system_id":"levelo_inurba_marseille","lat":43.23188,"lon":5.3998,"is_reserved":false,"is_disabled":false,"rental_uris":{"android":"levelo://app?vid=88f7ff47-f812-4d47-9a62-9e00187ed78b","ios":"levelo://app?vid=88f7ff47-f812-4d47-9a62-9e00187ed78b"},"vehicle_type_id":"4","last_reported":1753186944,"current_range_meters":10800,"station_id":"ce4bhn12rcd13ifvqgqg","pricing_plan_id":"cebpf4jnsgd1na2vs0mg"},{"bike_id":"25c4b831-37ae-4633-a515-fea7b60de25c","system_id":"levelo_inurba_marseille","lat":43.2957,"lon":5.37503,"is_reserved":false,"is_disabled":false,"rental_uris":{"android":"levelo://app?vid=25c4b831-37ae-4633-a515-fea7b60de25c","ios":"levelo://app?vid=25c4b831-37ae-4633-a515-fea7b60de25c"},"vehicle_type_id":"4","last_reported":1753186944,"current_range_meters":10800,"station_id":"ce4bgh92rcd13ifvqb50","pricing_plan_id":"cebpf4jnsgd1na2vs0mg"},{"bike_id":"bf55709b-022b-4c1a-abff-9c91eefb2280","system_id":"levelo_inurba_marseille","lat":43.32088,"lon":5.36803,"is_reserved":false,"is_disabled":false,"rental_uris":{"android":"levelo://app?vid=bf55709b-022b-4c1a-abff-9c91eefb2280","ios":"levelo://app?vid=bf55709b-022b-4c1a-abff-9c91eefb2280"},"vehicle_type_id":"4","last_reported":1753186944,"current_range_meters":10800,"station_id":"ce4bhrh2rcd13ifvqhug","pricing_plan_id":"cebpf4jnsgd1na2vs0mg"},{"bike_id":"ed8c81f0-df0a-4114-b424-4f9f4ddd93f0","system_id":"levelo_inurba_marseille","lat":43.22502,"lon":5.34783,"is_reserved":false,"is_disabled":false,"rental_uris":{"android":"levelo://app?vid=ed8c81f0-df0a-4114-b424-4f9f4ddd93f0","ios":"levelo://app?vid=ed8c81f0-df0a-4114-b424-4f9f4ddd93f0"},"vehicle_type_id":"4","last_reported":1753186944,"current_range_meters":10800,"station_id":"st_cvj5dfep6f1abm77gieg","pricing_plan_id":"cebpf4jnsgd1na2vs0mg"},{"bike_id":"26e62cb4-c854-4b8b-962f-e5136b7eb120","system_id":"levelo_inurba_marseille","lat":43.22497,"lon":5.34786,"is_reserved":false,"is_disabled":false,"rental_uris":{"android":"levelo://app?vid=26e62cb4-c854-4b8b-962f-e5136b7eb120","ios":"levelo://app?vid=26e62cb4-c854-4b8b-962f-e5136b7eb120"},"vehicle_type_id":"4","last_reported":1753186944,"current_range_meters":10800,"station_id":"st_cvj5dfep6f1abm77gieg","pricing_plan_id":"cebpf4jnsgd1na2vs0mg"},{"bike_id":"0aa91eed-d30a-42d4-964b-bc61f543ef54","system_id":"levelo_inurba_marseille","lat":43.27055,"lon":5.40262,"is_reserved":false,"is_disabled":false,"rental_uris":{"android":"levelo://app?vid=0aa91eed-d30a-42d4-964b-bc61f543ef54","ios":"levelo://app?vid=0aa91eed-d30a-42d4-964b-bc61f543ef54"},"vehicle_type_id":"4","last_reported":1753186944,"current_range_meters":11200,"station_id":"ce4bhk92rcd13ifvqgc0","pricing_plan_id":"cebpf4jnsgd1na2vs0mg"},{"bike_id":"2b1d8806-5d99-43db-8544-89ce3b546d39","system_id":"levelo_inurba_marseille","lat":43.29716,"lon":5.37682,"is_reserved":false,"is_disabled":false,"rental_uris":{"android":"levelo://app?vid=2b1d8806-5d99-43db-8544-89ce3b546d39","ios":"levelo://app?vid=2b1d8806-5d99-43db-8544-89ce3b546d39"},"vehicle_type_id":"4","last_reported":1753186944,"current_range_meters":11200,"station_id":"ce4bgkh2rcd13ifvqbl0","pricing_plan_id":"cebpf4jnsgd1na2vs0mg"},{"bike_id":"96360203-3237-4e84-8f79-0ed9066509db","system_id":"levelo_inurba_marseille","lat":43.30196,"lon":5.36604,"is_reserved":false,"is_disabled":false,"rental_uris":{"android":"levelo://app?vid=96360203-3237-4e84-8f79-0ed9066509db","ios":"levelo://app?vid=96360203-3237-4e84-8f79-0ed9066509db"},"vehicle_type_id":"4","last_reported":1753186944,"current_range_meters":11200,"station_id":"ce4bgrh2rcd13ifvqc8g","pricing_plan_id":"cebpf4jnsgd1na2vs0mg"},{"bike_id":"498f8e7d-6930-4561-ad5a-8bc69dda9ffa","system_id":"levelo_inurba_marseille","lat":43.28271,"lon":5.35064,"is_reserved":false,"is_disabled":false,"rental_uris":{"android":"levelo://app?vid=498f8e7d-6930-4561-ad5a-8bc69dda9ffa","ios":"levelo://app?vid=498f8e7d-6930-4561-ad5a-8bc69dda9ffa"},"vehicle_type_id":"4","last_reported":1753186944,"current_range_meters":11200,"station_id":"ce4bhbp2rcd13ifvqerg","pricing_plan_id":"cebpf4jnsgd1na2vs0mg"},{"bike_id":"6d72ecea-b632-4f07-b1e7-5aefc1fa6020","system_id":"levelo_inurba_marseille","lat":43.32532,"lon":5.41422,"is_reserved":false,"is_disabled":false,"rental_uris":{"android":"levelo://app?vid=6d72ecea-b632-4f07-b1e7-5aefc1fa6020","ios":"levelo://app?vid=6d72ecea-b632-4f07-b1e7-5aefc1fa6020"},"vehicle_type_id":"4","last_reported":1753186944,"current_range_meters":11600,"station_id":"ce4bhq12rcd13ifvqhhg","pricing_plan_id":"cebpf4jnsgd1na2vs0mg"},{"bike_id":"27cb1f0f-3623-438e-8d27-2b7e959eac34","system_id":"levelo_inurba_marseille","lat":43.282825,"lon":5.350616,"is_reserved":false,"is_disabled":false,"rental_uris":{"android":"levelo://app?vid=27cb1f0f-3623-438e-8d27-2b7e959eac34","ios":"levelo://app?vid=27cb1f0f-3623-438e-8d27-2b7e959eac34"},"vehicle_type_id":"4","last_reported":1753186944,"current_range_meters":11600,"station_id":"ce4bhch2rcd13ifvqeug","pricing_plan_id":"cebpf4jnsgd1na2vs0mg"},{"bike_id":"ecbb06ee-269f-4350-ad04-1ee5bdb5549d","system_id":"levelo_inurba_marseille","lat":43.31184,"lon":5.36867,"is_reserved":false,"is_disabled":false,"rental_uris":{"android":"levelo://app?vid=ecbb06ee-269f-4350-ad04-1ee5bdb5549d","ios":"levelo://app?vid=ecbb06ee-269f-4350-ad04-1ee5bdb5549d"},"vehicle_type_id":"4","last_reported":1753186944,"current_range_meters":11600,"station_id":"ce4bgl92rcd13ifvqbq0","pricing_plan_id":"cebpf4jnsgd1na2vs0mg"},{"bike_id":"2e9d1261-2eeb-45ba-b452-9c94d34d7463","system_id":"levelo_inurba_marseille","lat":43.30308,"lon":5.36888,"is_reserved":false,"is_disabled":false,"rental_uris":{"android":"levelo://app?vid=2e9d1261-2eeb-45ba-b452-9c94d34d7463","ios":"levelo://app?vid=2e9d1261-2eeb-45ba-b452-9c94d34d7463"},"vehicle_type_id":"4","last_reported":1753186944,"current_range_meters":12000,"station_id":"ce4bgqh2rcd13ifvqc5g","pricing_plan_id":"cebpf4jnsgd1na2vs0mg"},{"bike_id":"15633abd-9af5-4a74-bedf-b918c0a78b79","system_id":"levelo_inurba_marseille","lat":43.26204,"lon":5.37454,"is_reserved":false,"is_disabled":false,"rental_uris":{"android":"levelo://app?vid=15633abd-9af5-4a74-bedf-b918c0a78b79","ios":"levelo://app?vid=15633abd-9af5-4a74-bedf-b918c0a78b79"},"vehicle_type_id":"4","last_reported":1753186944,"current_range_meters":12000,"station_id":"ce4bhgp2rcd13ifvqfc0","pricing_plan_id":"cebpf4jnsgd1na2vs0mg"},{"bike_id":"5324b466-0df3-4146-b62b-cb29a2354c60","system_id":"levelo_inurba_marseille","lat":43.30507,"lon":5.36514,"is_reserved":false,"is_disabled":false,"rental_uris":{"android":"levelo://app?vid=5324b466-0df3-4146-b62b-cb29a2354c60","ios":"levelo://app?vid=5324b466-0df3-4146-b62b-cb29a2354c60"},"vehicle_type_id":"4","last_reported":1753186944,"current_range_meters":12000,"station_id":"ce4bgs12rcd13ifvqcag","pricing_plan_id":"cebpf4jnsgd1na2vs0mg"},{"bike_id":"e2f407c8-9f4b-4ba0-a9e1-c86820576d78","system_id":"levelo_inurba_marseille","lat":43.33048,"lon":5.37826,"is_reserved":false,"is_disabled":false,"rental_uris":{"android":"levelo://app?vid=e2f407c8-9f4b-4ba0-a9e1-c86820576d78","ios":"levelo://app?vid=e2f407c8-9f4b-4ba0-a9e1-c86820576d78"},"vehicle_type_id":"4","last_reported":1753186944,"current_range_meters":12000,"station_id":"","pricing_plan_id":"cebpf4jnsgd1na2vs0mg"},{"bike_id":"74ed126c-b62f-43a7-9d22-12809237a107","system_id":"levelo_inurba_marseille","lat":43.32361,"lon":5.36765,"is_reserved":false,"is_disabled":false,"rental_uris":{"android":"levelo://app?vid=74ed126c-b62f-43a7-9d22-12809237a107","ios":"levelo://app?vid=74ed126c-b62f-43a7-9d22-12809237a107"},"vehicle_type_id":"4","last_reported":1753186944,"current_range_meters":12000,"station_id":"ce4bhsh2rcd13ifvqi2g","pricing_plan_id":"cebpf4jnsgd1na2vs0mg"},{"bike_id":"db0563b4-36b1-4a46-b18d-4f658a72c169","system_id":"levelo_inurba_marseille","lat":43.28271,"lon":5.35075,"is_reserved":false,"is_disabled":false,"rental_uris":{"android":"levelo://app?vid=db0563b4-36b1-4a46-b18d-4f658a72c169","ios":"levelo://app?vid=db0563b4-36b1-4a46-b18d-4f658a72c169"},"vehicle_type_id":"4","last_reported":1753186944,"current_range_meters":12000,"station_id":"ce4bhbp2rcd13ifvqerg","pricing_plan_id":"cebpf4jnsgd1na2vs0mg"},{"bike_id":"595c122a-4b97-4981-aaa1-b45312d6b3f5","system_id":"levelo_inurba_marseille","lat":43.290228,"lon":5.374387,"is_reserved":false,"is_disabled":false,"rental_uris":{"android":"levelo://app?vid=595c122a-4b97-4981-aaa1-b45312d6b3f5","ios":"levelo://app?vid=595c122a-4b97-4981-aaa1-b45312d6b3f5"},"vehicle_type_id":"4","last_reported":1753186944,"current_range_meters":12400,"station_id":"cki0cbj6b192h4jlfktg","pricing_plan_id":"cebpf4jnsgd1na2vs0mg"},{"bike_id":"c9c95dc0-7679-480e-afa7-d98fae334686","system_id":"levelo_inurba_marseille","lat":43.28614,"lon":5.35103,"is_reserved":false,"is_disabled":false,"rental_uris":{"android":"levelo://app?vid=c9c95dc0-7679-480e-afa7-d98fae334686","ios":"levelo://app?vid=c9c95dc0-7679-480e-afa7-d98fae334686"},"vehicle_type_id":"4","last_reported":1753186944,"current_range_meters":12400,"station_id":"ce4bhch2rcd13ifvqeug","pricing_plan_id":"cebpf4jnsgd1na2vs0mg"},{"bike_id":"cf0f5b74-1fd5-4388-9a17-71e8c4b04d0b","system_id":"levelo_inurba_marseille","lat":43.29073,"lon":5.35916,"is_reserved":false,"is_disabled":false,"rental_uris":{"android":"levelo://app?vid=cf0f5b74-1fd5-4388-9a17-71e8c4b04d0b","ios":"levelo://app?vid=cf0f5b74-1fd5-4388-9a17-71e8c4b04d0b"},"vehicle_type_id":"4","last_reported":1753186944,"current_range_meters":12400,"station_id":"ce4bha92rcd13ifvqeg0","pricing_plan_id":"cebpf4jnsgd1na2vs0mg"},{"bike_id":"9494f30b-2e46-4d82-bf3a-e6eff7759eca","system_id":"levelo_inurba_marseille","lat":43.25122,"lon":5.37357,"is_reserved":false,"is_disabled":false,"rental_uris":{"android":"levelo://app?vid=9494f30b-2e46-4d82-bf3a-e6eff7759eca","ios":"levelo://app?vid=9494f30b-2e46-4d82-bf3a-e6eff7759eca"},"vehicle_type_id":"4","last_reported":1753186944,"current_range_meters":12400,"station_id":"","pricing_plan_id":"cebpf4jnsgd1na2vs0mg"},{"bike_id":"01ba4027-69e1-4c33-996e-edd4676f9062","system_id":"levelo_inurba_marseille","lat":43.29519,"lon":5.39056,"is_reserved":false,"is_disabled":false,"rental_uris":{"android":"levelo://app?vid=01ba4027-69e1-4c33-996e-edd4676f9062","ios":"levelo://app?vid=01ba4027-69e1-4c33-996e-edd4676f9062"},"vehicle_type_id":"4","last_reported":1753186944,"current_range_meters":12800,"station_id":"ce4bh3p2rcd13ifvqdp0","pricing_plan_id":"cebpf4jnsgd1na2vs0mg"},{"bike_id":"f09ddb97-0092-489e-8b06-39368f390b90","system_id":"levelo_inurba_marseille","lat":43.28273,"lon":5.35066,"is_reserved":false,"is_disabled":false,"rental_uris":{"android":"levelo://app?vid=f09ddb97-0092-489e-8b06-39368f390b90","ios":"levelo://app?vid=f09ddb97-0092-489e-8b06-39368f390b90"},"vehicle_type_id":"4","last_reported":1753186944,"current_range_meters":12800,"station_id":"ce4bhbp2rcd13ifvqerg","pricing_plan_id":"cebpf4jnsgd1na2vs0mg"},{"bike_id":"3c01765e-5d1f-4917-97d3-6b2e5bcbb246","system_id":"levelo_inurba_marseille","lat":43.266812,"lon":5.382627,"is_reserved":false,"is_disabled":false,"rental_uris":{"android":"levelo://app?vid=3c01765e-5d1f-4917-97d3-6b2e5bcbb246","ios":"levelo://app?vid=3c01765e-5d1f-4917-97d3-6b2e5bcbb246"},"vehicle_type_id":"4","last_reported":1753186944,"current_range_meters":12800,"station_id":"ce4bhg92rcd13ifvqf90","pricing_plan_id":"cebpf4jnsgd1na2vs0mg"},{"bike_id":"a8d9d9f1-09a6-4438-aa66-b6bfb36e54d6","system_id":"levelo_inurba_marseille","lat":43.28402,"lon":5.35,"is_reserved":false,"is_disabled":false,"rental_uris":{"android":"levelo://app?vid=a8d9d9f1-09a6-4438-aa66-b6bfb36e54d6","ios":"levelo://app?vid=a8d9d9f1-09a6-4438-aa66-b6bfb36e54d6"},"vehicle_type_id":"4","last_reported":1753186944,"current_range_meters":12800,"station_id":"ce4bhbh2rcd13ifvqepg","pricing_plan_id":"cebpf4jnsgd1na2vs0mg"},{"bike_id":"5217aa8f-ae3f-4c72-9dcb-1604cce0fe15","system_id":"levelo_inurba_marseille","lat":43.28408,"lon":5.35018,"is_reserved":false,"is_disabled":false,"rental_uris":{"android":"levelo://app?vid=5217aa8f-ae3f-4c72-9dcb-1604cce0fe15","ios":"levelo://app?vid=5217aa8f-ae3f-4c72-9dcb-1604cce0fe15"},"vehicle_type_id":"4","last_reported":1753186944,"current_range_meters":12800,"station_id":"ce4bhbh2rcd13ifvqepg","pricing_plan_id":"cebpf4jnsgd1na2vs0mg"},{"bike_id":"c7383570-11ad-4715-8bff-682a714dbca5","system_id":"levelo_inurba_marseille","lat":43.28566,"lon":5.39499,"is_reserved":false,"is_disabled":false,"rental_uris":{"android":"levelo://app?vid=c7383570-11ad-4715-8bff-682a714dbca5","ios":"levelo://app?vid=c7383570-11ad-4715-8bff-682a714dbca5"},"vehicle_type_id":"4","last_reported":1753186944,"current_range_meters":12400,"station_id":"ce4bh292rcd13ifvqdg0","pricing_plan_id":"cebpf4jnsgd1na2vs0mg"},{"bike_id":"b0ae4cf9-dd54-4515-90c2-e90e4cb0547a","system_id":"levelo_inurba_marseille","lat":43.31366,"lon":5.36685,"is_reserved":false,"is_disabled":false,"rental_uris":{"android":"levelo://app?vid=b0ae4cf9-dd54-4515-90c2-e90e4cb0547a","ios":"levelo://app?vid=b0ae4cf9-dd54-4515-90c2-e90e4cb0547a"},"vehicle_type_id":"4","last_reported":1753186944,"current_range_meters":12800,"station_id":"ce4bgr92rcd13ifvqc6g","pricing_plan_id":"cebpf4jnsgd1na2vs0mg"},{"bike_id":"d0fed546-894c-4ce1-9464-a3fa1a63af4b","system_id":"levelo_inurba_marseille","lat":43.32364,"lon":5.36751,"is_reserved":false,"is_disabled":false,"rental_uris":{"android":"levelo://app?vid=d0fed546-894c-4ce1-9464-a3fa1a63af4b","ios":"levelo://app?vid=d0fed546-894c-4ce1-9464-a3fa1a63af4b"},"vehicle_type_id":"4","last_reported":1753186944,"current_range_meters":13600,"station_id":"ce4bhsh2rcd13ifvqi2g","pricing_plan_id":"cebpf4jnsgd1na2vs0mg"},{"bike_id":"472d2dd8-f22c-4c24-90cc-b930aa928c1e","system_id":"levelo_inurba_marseille","lat":43.2846,"lon":5.35887,"is_reserved":false,"is_disabled":false,"rental_uris":{"android":"levelo://app?vid=472d2dd8-f22c-4c24-90cc-b930aa928c1e","ios":"levelo://app?vid=472d2dd8-f22c-4c24-90cc-b930aa928c1e"},"vehicle_type_id":"4","last_reported":1753186944,"current_range_meters":13600,"station_id":"ce4bhah2rcd13ifvqei0","pricing_plan_id":"cebpf4jnsgd1na2vs0mg"},{"bike_id":"0be9ddb8-b617-4cc8-ab5f-98d5f3411cd6","system_id":"levelo_inurba_marseille","lat":43.29919,"lon":5.37454,"is_reserved":false,"is_disabled":false,"rental_uris":{"android":"levelo://app?vid=0be9ddb8-b617-4cc8-ab5f-98d5f3411cd6","ios":"levelo://app?vid=0be9ddb8-b617-4cc8-ab5f-98d5f3411cd6"},"vehicle_type_id":"4","last_reported":1753186944,"current_range_meters":12800,"station_id":"ce4bgjh2rcd13ifvqbg0","pricing_plan_id":"cebpf4jnsgd1na2vs0mg"},{"bike_id":"f6478a2c-0dc0-4041-aa39-aae3d933463f","system_id":"levelo_inurba_marseille","lat":43.29892,"lon":5.43664,"is_reserved":false,"is_disabled":false,"rental_uris":{"android":"levelo://app?vid=f6478a2c-0dc0-4041-aa39-aae3d933463f","ios":"levelo://app?vid=f6478a2c-0dc0-4041-aa39-aae3d933463f"},"vehicle_type_id":"4","last_reported":1753186944,"current_range_meters":14000,"station_id":"ce4bhpp2rcd13ifvqhfg","pricing_plan_id":"cebpf4jnsgd1na2vs0mg"},{"bike_id":"b321d231-b143-4001-99a5-68b4f6367ee8","system_id":"levelo_inurba_marseille","lat":43.299006,"lon":5.436674,"is_reserved":false,"is_disabled":false,"rental_uris":{"android":"levelo://app?vid=b321d231-b143-4001-99a5-68b4f6367ee8","ios":"levelo://app?vid=b321d231-b143-4001-99a5-68b4f6367ee8"},"vehicle_type_id":"4","last_reported":1753186944,"current_range_meters":14000,"station_id":"ce4bhpp2rcd13ifvqhfg","pricing_plan_id":"cebpf4jnsgd1na2vs0mg"},{"bike_id":"97067c11-f754-4a10-a888-1d57d6316b7d","system_id":"levelo_inurba_marseille","lat":43.2591,"lon":5.40879,"is_reserved":false,"is_disabled":false,"rental_uris":{"android":"levelo://app?vid=97067c11-f754-4a10-a888-1d57d6316b7d","ios":"levelo://app?vid=97067c11-f754-4a10-a888-1d57d6316b7d"},"vehicle_type_id":"4","last_reported":1753186944,"current_range_meters":14000,"station_id":"ce4bhm92rcd13ifvqglg","pricing_plan_id":"cebpf4jnsgd1na2vs0mg"},{"bike_id":"30d2b07b-fb1b-4037-b216-31785ae43f23","system_id":"levelo_inurba_marseille","lat":43.32652,"lon":5.40986,"is_reserved":false,"is_disabled":false,"rental_uris":{"android":"levelo://app?vid=30d2b07b-fb1b-4037-b216-31785ae43f23","ios":"levelo://app?vid=30d2b07b-fb1b-4037-b216-31785ae43f23"},"vehicle_type_id":"4","last_reported":1753186944,"current_range_meters":14000,"station_id":"ce4bhpp2rcd13ifvqhgg","pricing_plan_id":"cebpf4jnsgd1na2vs0mg"},{"bike_id":"3d47b6fc-7900-4ad4-bfa3-7e7092c879f3","system_id":"levelo_inurba_marseille","lat":43.30428,"lon":5.38895,"is_reserved":false,"is_disabled":false,"rental_uris":{"android":"levelo://app?vid=3d47b6fc-7900-4ad4-bfa3-7e7092c879f3","ios":"levelo://app?vid=3d47b6fc-7900-4ad4-bfa3-7e7092c879f3"},"vehicle_type_id":"4","last_reported":1753186944,"current_range_meters":14400,"station_id":"ce4bgk12rcd13ifvqbi0","pricing_plan_id":"cebpf4jnsgd1na2vs0mg"},{"bike_id":"44eae796-4db2-4196-ba55-d0b464c2a423","system_id":"levelo_inurba_marseille","lat":43.32063,"lon":5.41581,"is_reserved":false,"is_disabled":false,"rental_uris":{"android":"levelo://app?vid=44eae796-4db2-4196-ba55-d0b464c2a423","ios":"levelo://app?vid=44eae796-4db2-4196-ba55-d0b464c2a423"},"vehicle_type_id":"4","last_reported":1753186944,"current_range_meters":14400,"station_id":"ce4bhq92rcd13ifvqhkg","pricing_plan_id":"cebpf4jnsgd1na2vs0mg"},{"bike_id":"e19e9572-d47e-42b8-9cad-330d625658c5","system_id":"levelo_inurba_marseille","lat":43.28485,"lon":5.38536,"is_reserved":false,"is_disabled":false,"rental_uris":{"android":"levelo://app?vid=e19e9572-d47e-42b8-9cad-330d625658c5","ios":"levelo://app?vid=e19e9572-d47e-42b8-9cad-330d625658c5"},"vehicle_type_id":"4","last_reported":1753186944,"current_range_meters":14400,"station_id":"","pricing_plan_id":"cebpf4jnsgd1na2vs0mg"},{"bike_id":"11a506c2-6225-48bc-a38d-8a478e428003","system_id":"levelo_inurba_marseille","lat":43.282203,"lon":5.39516,"is_reserved":false,"is_disabled":false,"rental_uris":{"android":"levelo://app?vid=11a506c2-6225-48bc-a38d-8a478e428003","ios":"levelo://app?vid=11a506c2-6225-48bc-a38d-8a478e428003"},"vehicle_type_id":"4","last_reported":1753186944,"current_range_meters":14400,"station_id":"","pricing_plan_id":"cebpf4jnsgd1na2vs0mg"},{"bike_id":"b2ae5190-d09a-4fb3-bd14-d3fd7c958c82","system_id":"levelo_inurba_marseille","lat":43.30395,"lon":5.42494,"is_reserved":false,"is_disabled":false,"rental_uris":{"android":"levelo://app?vid=b2ae5190-d09a-4fb3-bd14-d3fd7c958c82","ios":"levelo://app?vid=b2ae5190-d09a-4fb3-bd14-d3fd7c958c82"},"vehicle_type_id":"4","last_reported":1753186944,"current_range_meters":14800,"station_id":"ce4bhoh2rcd13ifvqh6g","pricing_plan_id":"cebpf4jnsgd1na2vs0mg"},{"bike_id":"64625a2d-1aad-4238-a047-30b03af6a35f","system_id":"levelo_inurba_marseille","lat":43.251019,"lon":5.403208,"is_reserved":false,"is_disabled":false,"rental_uris":{"android":"levelo://app?vid=64625a2d-1aad-4238-a047-30b03af6a35f","ios":"levelo://app?vid=64625a2d-1aad-4238-a047-30b03af6a35f"},"vehicle_type_id":"4","last_reported":1753186944,"current_range_meters":14800,"station_id":"ce4bhlh2rcd13ifvqgig","pricing_plan_id":"cebpf4jnsgd1na2vs0mg"},{"bike_id":"de9cae7f-a1d2-48ec-bf73-84f1fcb34a31","system_id":"levelo_inurba_marseille","lat":43.312292,"lon":5.368587,"is_reserved":false,"is_disabled":false,"rental_uris":{"android":"levelo://app?vid=de9cae7f-a1d2-48ec-bf73-84f1fcb34a31","ios":"levelo://app?vid=de9cae7f-a1d2-48ec-bf73-84f1fcb34a31"},"vehicle_type_id":"4","last_reported":1753186944,"current_range_meters":14800,"station_id":"ce4bgl92rcd13ifvqbq0","pricing_plan_id":"cebpf4jnsgd1na2vs0mg"},{"bike_id":"3c8c9cd4-c6c6-437f-8e4c-d4ebcbd99d0b","system_id":"levelo_inurba_marseille","lat":43.22946,"lon":5.35385,"is_reserved":false,"is_disabled":false,"rental_uris":{"android":"levelo://app?vid=3c8c9cd4-c6c6-437f-8e4c-d4ebcbd99d0b","ios":"levelo://app?vid=3c8c9cd4-c6c6-437f-8e4c-d4ebcbd99d0b"},"vehicle_type_id":"4","last_reported":1753186944,"current_range_meters":14800,"station_id":"cpo3532slgdg3j2ikp40","pricing_plan_id":"cebpf4jnsgd1na2vs0mg"},{"bike_id":"21bba4f7-2358-41fc-b07e-73d20d870d03","system_id":"levelo_inurba_marseille","lat":43.27563,"lon":5.38422,"is_reserved":false,"is_disabled":false,"rental_uris":{"android":"levelo://app?vid=21bba4f7-2358-41fc-b07e-73d20d870d03","ios":"levelo://app?vid=21bba4f7-2358-41fc-b07e-73d20d870d03"},"vehicle_type_id":"4","last_reported":1753186944,"current_range_meters":14800,"station_id":"ce4bhh92rcd13ifvqfi0","pricing_plan_id":"cebpf4jnsgd1na2vs0mg"},{"bike_id":"ad0406a0-0969-413c-b136-4f1566eb456d","system_id":"levelo_inurba_marseille","lat":43.2825,"lon":5.35076,"is_reserved":false,"is_disabled":false,"rental_uris":{"android":"levelo://app?vid=ad0406a0-0969-413c-b136-4f1566eb456d","ios":"levelo://app?vid=ad0406a0-0969-413c-b136-4f1566eb456d"},"vehicle_type_id":"4","last_reported":1753186944,"current_range_meters":14800,"station_id":"ce4bhbp2rcd13ifvqerg","pricing_plan_id":"cebpf4jnsgd1na2vs0mg"},{"bike_id":"8ce8135a-c93f-4d1a-8ec0-70da0d67f5d0","system_id":"levelo_inurba_marseille","lat":43.30541,"lon":5.36534,"is_reserved":false,"is_disabled":false,"rental_uris":{"android":"levelo://app?vid=8ce8135a-c93f-4d1a-8ec0-70da0d67f5d0","ios":"levelo://app?vid=8ce8135a-c93f-4d1a-8ec0-70da0d67f5d0"},"vehicle_type_id":"4","last_reported":1753186944,"current_range_meters":15200,"station_id":"ce4bgs12rcd13ifvqcag","pricing_plan_id":"cebpf4jnsgd1na2vs0mg"},{"bike_id":"a0ef2ab1-2834-48c5-8660-1bdb4d08ab34","system_id":"levelo_inurba_marseille","lat":43.241448,"lon":5.363743,"is_reserved":false,"is_disabled":false,"rental_uris":{"android":"levelo://app?vid=a0ef2ab1-2834-48c5-8660-1bdb4d08ab34","ios":"levelo://app?vid=a0ef2ab1-2834-48c5-8660-1bdb4d08ab34"},"vehicle_type_id":"4","last_reported":1753186944,"current_range_meters":15200,"station_id":"","pricing_plan_id":"cebpf4jnsgd1na2vs0mg"},{"bike_id":"4fb76b3a-55b4-4603-95c1-0798ec6f4eca","system_id":"levelo_inurba_marseille","lat":43.30149,"lon":5.38096,"is_reserved":false,"is_disabled":false,"rental_uris":{"android":"levelo://app?vid=4fb76b3a-55b4-4603-95c1-0798ec6f4eca","ios":"levelo://app?vid=4fb76b3a-55b4-4603-95c1-0798ec6f4eca"},"vehicle_type_id":"4","last_reported":1753186944,"current_range_meters":14800,"station_id":"ce4bgjp2rcd13ifvqbh0","pricing_plan_id":"cebpf4jnsgd1na2vs0mg"},{"bike_id":"fec4d810-1bc9-456c-ad7b-e99b65733a8a","system_id":"levelo_inurba_marseille","lat":43.29058,"lon":5.3717,"is_reserved":false,"is_disabled":false,"rental_uris":{"android":"levelo://app?vid=fec4d810-1bc9-456c-ad7b-e99b65733a8a","ios":"levelo://app?vid=fec4d810-1bc9-456c-ad7b-e99b65733a8a"},"vehicle_type_id":"4","last_reported":1753186944,"current_range_meters":15200,"station_id":"ce4bgh92rcd13ifvqb40","pricing_plan_id":"cebpf4jnsgd1na2vs0mg"},{"bike_id":"d466f695-21bc-4cf4-b8f2-4884ab4a3c70","system_id":"levelo_inurba_marseille","lat":43.24177,"lon":5.36397,"is_reserved":false,"is_disabled":false,"rental_uris":{"android":"levelo://app?vid=d466f695-21bc-4cf4-b8f2-4884ab4a3c70","ios":"levelo://app?vid=d466f695-21bc-4cf4-b8f2-4884ab4a3c70"},"vehicle_type_id":"4","last_reported":1753186944,"current_range_meters":15200,"station_id":"cpo36qri1sfpv3e86is0","pricing_plan_id":"cebpf4jnsgd1na2vs0mg"},{"bike_id":"678d7ea9-0f65-4c30-add8-9eced76f8f98","system_id":"levelo_inurba_marseille","lat":43.31334,"lon":5.397,"is_reserved":false,"is_disabled":false,"rental_uris":{"android":"levelo://app?vid=678d7ea9-0f65-4c30-add8-9eced76f8f98","ios":"levelo://app?vid=678d7ea9-0f65-4c30-add8-9eced76f8f98"},"vehicle_type_id":"4","last_reported":1753186944,"current_range_meters":14800,"station_id":"ce4bgvp2rcd13ifvqcu0","pricing_plan_id":"cebpf4jnsgd1na2vs0mg"},{"bike_id":"f4994682-69a6-4b46-98de-8687ed851b0b","system_id":"levelo_inurba_marseille","lat":43.33138,"lon":5.385951,"is_reserved":false,"is_disabled":false,"rental_uris":{"android":"levelo://app?vid=f4994682-69a6-4b46-98de-8687ed851b0b","ios":"levelo://app?vid=f4994682-69a6-4b46-98de-8687ed851b0b"},"vehicle_type_id":"4","last_reported":1753186944,"current_range_meters":15200,"station_id":"","pricing_plan_id":"cebpf4jnsgd1na2vs0mg"},{"bike_id":"9893b9a1-9a23-4a59-8005-4746c221f748","system_id":"levelo_inurba_marseille","lat":43.3061,"lon":5.37215,"is_reserved":false,"is_disabled":false,"rental_uris":{"android":"levelo://app?vid=9893b9a1-9a23-4a59-8005-4746c221f748","ios":"levelo://app?vid=9893b9a1-9a23-4a59-8005-4746c221f748"},"vehicle_type_id":"4","last_reported":1753186944,"current_range_meters":15200,"station_id":"ce4bgqh2rcd13ifvqc4g","pricing_plan_id":"cebpf4jnsgd1na2vs0mg"},{"bike_id":"5b97e958-3c09-4075-aff1-3724765a9162","system_id":"levelo_inurba_marseille","lat":43.24189,"lon":5.36395,"is_reserved":false,"is_disabled":false,"rental_uris":{"android":"levelo://app?vid=5b97e958-3c09-4075-aff1-3724765a9162","ios":"levelo://app?vid=5b97e958-3c09-4075-aff1-3724765a9162"},"vehicle_type_id":"4","last_reported":1753186944,"current_range_meters":15200,"station_id":"cpo36qri1sfpv3e86is0","pricing_plan_id":"cebpf4jnsgd1na2vs0mg"},{"bike_id":"05573cc2-868d-434a-bea4-7c4457c64b97","system_id":"levelo_inurba_marseille","lat":43.2582,"lon":5.39438,"is_reserved":false,"is_disabled":false,"rental_uris":{"android":"levelo://app?vid=05573cc2-868d-434a-bea4-7c4457c64b97","ios":"levelo://app?vid=05573cc2-868d-434a-bea4-7c4457c64b97"},"vehicle_type_id":"4","last_reported":1753186944,"current_range_meters":15200,"station_id":"ce4bhih2rcd13ifvqfr0","pricing_plan_id":"cebpf4jnsgd1na2vs0mg"},{"bike_id":"07784a65-a965-4731-8747-dca7b851c957","system_id":"levelo_inurba_marseille","lat":43.29046,"lon":5.38655,"is_reserved":false,"is_disabled":false,"rental_uris":{"android":"levelo://app?vid=07784a65-a965-4731-8747-dca7b851c957","ios":"levelo://app?vid=07784a65-a965-4731-8747-dca7b851c957"},"vehicle_type_id":"4","last_reported":1753186944,"current_range_meters":15200,"station_id":"ce4bh4p2rcd13ifvqe0g","pricing_plan_id":"cebpf4jnsgd1na2vs0mg"},{"bike_id":"8c020165-b8c4-4018-8ac8-2b8059b2d552","system_id":"levelo_inurba_marseille","lat":43.305353,"lon":5.367001,"is_reserved":false,"is_disabled":false,"rental_uris":{"android":"levelo://app?vid=8c020165-b8c4-4018-8ac8-2b8059b2d552","ios":"levelo://app?vid=8c020165-b8c4-4018-8ac8-2b8059b2d552"},"vehicle_type_id":"4","last_reported":1753186944,"current_range_meters":16000,"station_id":"ce4bgrp2rcd13ifvqc9g","pricing_plan_id":"cebpf4jnsgd1na2vs0mg"},{"bike_id":"8befca06-21d0-4dee-ac1e-2349984e2154","system_id":"levelo_inurba_marseille","lat":43.22509,"lon":5.34784,"is_reserved":false,"is_disabled":false,"rental_uris":{"android":"levelo://app?vid=8befca06-21d0-4dee-ac1e-2349984e2154","ios":"levelo://app?vid=8befca06-21d0-4dee-ac1e-2349984e2154"},"vehicle_type_id":"4","last_reported":1753186944,"current_range_meters":16000,"station_id":"st_cvj5dfep6f1abm77gieg","pricing_plan_id":"cebpf4jnsgd1na2vs0mg"},{"bike_id":"03d89140-1150-4744-8585-b0cf92b5be33","system_id":"levelo_inurba_marseille","lat":43.25011,"lon":5.38912,"is_reserved":false,"is_disabled":false,"rental_uris":{"android":"levelo://app?vid=03d89140-1150-4744-8585-b0cf92b5be33","ios":"levelo://app?vid=03d89140-1150-4744-8585-b0cf92b5be33"},"vehicle_type_id":"4","last_reported":1753186944,"current_range_meters":16000,"station_id":"ce4bhgp2rcd13ifvqfd0","pricing_plan_id":"cebpf4jnsgd1na2vs0mg"},{"bike_id":"7c27a924-beea-4a92-8111-c3166ed6b24e","system_id":"levelo_inurba_marseille","lat":43.25937,"lon":5.40903,"is_reserved":false,"is_disabled":false,"rental_uris":{"android":"levelo://app?vid=7c27a924-beea-4a92-8111-c3166ed6b24e","ios":"levelo://app?vid=7c27a924-beea-4a92-8111-c3166ed6b24e"},"vehicle_type_id":"4","last_reported":1753186944,"current_range_meters":16000,"station_id":"ce4bhm92rcd13ifvqglg","pricing_plan_id":"cebpf4jnsgd1na2vs0mg"},{"bike_id":"dae8ebc2-055f-472d-9807-82ac48037179","system_id":"levelo_inurba_marseille","lat":43.30658,"lon":5.38184,"is_reserved":false,"is_disabled":false,"rental_uris":{"android":"levelo://app?vid=dae8ebc2-055f-472d-9807-82ac48037179","ios":"levelo://app?vid=dae8ebc2-055f-472d-9807-82ac48037179"},"vehicle_type_id":"4","last_reported":1753186944,"current_range_meters":16000,"station_id":"","pricing_plan_id":"cebpf4jnsgd1na2vs0mg"},{"bike_id":"0343f426-9e56-4503-8224-4fd2d38a83be","system_id":"levelo_inurba_marseille","lat":43.2292,"lon":5.35392,"is_reserved":false,"is_disabled":false,"rental_uris":{"android":"levelo://app?vid=0343f426-9e56-4503-8224-4fd2d38a83be","ios":"levelo://app?vid=0343f426-9e56-4503-8224-4fd2d38a83be"},"vehicle_type_id":"4","last_reported":1753186944,"current_range_meters":16000,"station_id":"cpo3532slgdg3j2ikp40","pricing_plan_id":"cebpf4jnsgd1na2vs0mg"},{"bike_id":"efb36690-08ea-490e-9846-77a102a78d7d","system_id":"levelo_inurba_marseille","lat":43.26555,"lon":5.37281,"is_reserved":false,"is_disabled":false,"rental_uris":{"android":"levelo://app?vid=efb36690-08ea-490e-9846-77a102a78d7d","ios":"levelo://app?vid=efb36690-08ea-490e-9846-77a102a78d7d"},"vehicle_type_id":"4","last_reported":1753186944,"current_range_meters":16000,"station_id":"ce4bhg12rcd13ifvqf70","pricing_plan_id":"cebpf4jnsgd1na2vs0mg"},{"bike_id":"19b72205-3e69-46b3-937a-ae403736ceae","system_id":"levelo_inurba_marseille","lat":43.327415,"lon":5.377429,"is_reserved":false,"is_disabled":false,"rental_uris":{"android":"levelo://app?vid=19b72205-3e69-46b3-937a-ae403736ceae","ios":"levelo://app?vid=19b72205-3e69-46b3-937a-ae403736ceae"},"vehicle_type_id":"4","last_reported":1753186944,"current_range_meters":16000,"station_id":"","pricing_plan_id":"cebpf4jnsgd1na2vs0mg"},{"bike_id":"f27ca6cf-69a6-4554-88a1-6564bca0ba61","system_id":"levelo_inurba_marseille","lat":43.21743,"lon":5.34602,"is_reserved":false,"is_disabled":false,"rental_uris":{"android":"levelo://app?vid=f27ca6cf-69a6-4554-88a1-6564bca0ba61","ios":"levelo://app?vid=f27ca6cf-69a6-4554-88a1-6564bca0ba61"},"vehicle_type_id":"4","last_reported":1753186944,"current_range_meters":16000,"station_id":"st_cvj6r9ubvosntc0bgbag","pricing_plan_id":"cebpf4jnsgd1na2vs0mg"},{"bike_id":"20f62270-ece1-49b2-a695-c1f2abf33c2a","system_id":"levelo_inurba_marseille","lat":43.246584,"lon":5.381679,"is_reserved":false,"is_disabled":false,"rental_uris":{"android":"levelo://app?vid=20f62270-ece1-49b2-a695-c1f2abf33c2a","ios":"levelo://app?vid=20f62270-ece1-49b2-a695-c1f2abf33c2a"},"vehicle_type_id":"4","last_reported":1753186944,"current_range_meters":16400,"station_id":"ce4bhih2rcd13ifvqfr0","pricing_plan_id":"cebpf4jnsgd1na2vs0mg"},{"bike_id":"9fda9e6b-e71d-4362-9544-c5290aeb5203","system_id":"levelo_inurba_marseille","lat":43.29447,"lon":5.39733,"is_reserved":false,"is_disabled":false,"rental_uris":{"android":"levelo://app?vid=9fda9e6b-e71d-4362-9544-c5290aeb5203","ios":"levelo://app?vid=9fda9e6b-e71d-4362-9544-c5290aeb5203"},"vehicle_type_id":"4","last_reported":1753186944,"current_range_meters":16400,"station_id":"ce4bh3h2rcd13ifvqdo0","pricing_plan_id":"cebpf4jnsgd1na2vs0mg"},{"bike_id":"e549dc6c-5853-485c-bbff-99c4a2b4a635","system_id":"levelo_inurba_marseille","lat":43.21188,"lon":5.3507,"is_reserved":false,"is_disabled":false,"rental_uris":{"android":"levelo://app?vid=e549dc6c-5853-485c-bbff-99c4a2b4a635","ios":"levelo://app?vid=e549dc6c-5853-485c-bbff-99c4a2b4a635"},"vehicle_type_id":"4","last_reported":1753186944,"current_range_meters":16400,"station_id":"st_cvj6sg6p6f1abm77japg","pricing_plan_id":"cebpf4jnsgd1na2vs0mg"},{"bike_id":"5ac5eb2b-39af-495a-9fa9-ae40b6299fc7","system_id":"levelo_inurba_marseille","lat":43.28098,"lon":5.37839,"is_reserved":false,"is_disabled":false,"rental_uris":{"android":"levelo://app?vid=5ac5eb2b-39af-495a-9fa9-ae40b6299fc7","ios":"levelo://app?vid=5ac5eb2b-39af-495a-9fa9-ae40b6299fc7"},"vehicle_type_id":"4","last_reported":1753186944,"current_range_meters":16400,"station_id":"ce4bha12rcd13ifvqee0","pricing_plan_id":"cebpf4jnsgd1na2vs0mg"},{"bike_id":"b96d25a1-3b18-4a66-8b97-0f86e9d20bbd","system_id":"levelo_inurba_marseille","lat":43.27833,"lon":5.39207,"is_reserved":false,"is_disabled":false,"rental_uris":{"android":"levelo://app?vid=b96d25a1-3b18-4a66-8b97-0f86e9d20bbd","ios":"levelo://app?vid=b96d25a1-3b18-4a66-8b97-0f86e9d20bbd"},"vehicle_type_id":"4","last_reported":1753186944,"current_range_meters":16000,"station_id":"ce4bhjp2rcd13ifvqga0","pricing_plan_id":"cebpf4jnsgd1na2vs0mg"},{"bike_id":"acb2baa9-46bd-4b5a-b886-5c409280a2b6","system_id":"levelo_inurba_marseille","lat":43.28264,"lon":5.35073,"is_reserved":false,"is_disabled":false,"rental_uris":{"android":"levelo://app?vid=acb2baa9-46bd-4b5a-b886-5c409280a2b6","ios":"levelo://app?vid=acb2baa9-46bd-4b5a-b886-5c409280a2b6"},"vehicle_type_id":"4","last_reported":1753186944,"current_range_meters":16400,"station_id":"ce4bhbp2rcd13ifvqerg","pricing_plan_id":"cebpf4jnsgd1na2vs0mg"},{"bike_id":"cda7ed17-c764-4f04-bb13-18177bcddc39","system_id":"levelo_inurba_marseille","lat":43.29577,"lon":5.36738,"is_reserved":false,"is_disabled":false,"rental_uris":{"android":"levelo://app?vid=cda7ed17-c764-4f04-bb13-18177bcddc39","ios":"levelo://app?vid=cda7ed17-c764-4f04-bb13-18177bcddc39"},"vehicle_type_id":"4","last_reported":1753186944,"current_range_meters":16400,"station_id":"ce4bgph2rcd13ifvqc2g","pricing_plan_id":"cebpf4jnsgd1na2vs0mg"},{"bike_id":"6c12771f-634d-41a5-bce2-02403cf71205","system_id":"levelo_inurba_marseille","lat":43.290212,"lon":5.375513,"is_reserved":false,"is_disabled":true,"rental_uris":{"android":"levelo://app?vid=6c12771f-634d-41a5-bce2-02403cf71205","ios":"levelo://app?vid=6c12771f-634d-41a5-bce2-02403cf71205"},"vehicle_type_id":"4","last_reported":1753186944,"current_range_meters":16400,"station_id":"ce4bh692rcd13ifvqe90","pricing_plan_id":"cebpf4jnsgd1na2vs0mg"},{"bike_id":"f8520ffd-653f-4fb6-b737-01b3249e9654","system_id":"levelo_inurba_marseille","lat":43.29307,"lon":5.37182,"is_reserved":false,"is_disabled":false,"rental_uris":{"android":"levelo://app?vid=f8520ffd-653f-4fb6-b737-01b3249e9654","ios":"levelo://app?vid=f8520ffd-653f-4fb6-b737-01b3249e9654"},"vehicle_type_id":"4","last_reported":1753186944,"current_range_meters":16000,"station_id":"ce4bgh92rcd13ifvqb40","pricing_plan_id":"cebpf4jnsgd1na2vs0mg"},{"bike_id":"d721dfdb-386b-427a-a0f8-e9045c7557f5","system_id":"levelo_inurba_marseille","lat":43.21192,"lon":5.35075,"is_reserved":false,"is_disabled":false,"rental_uris":{"android":"levelo://app?vid=d721dfdb-386b-427a-a0f8-e9045c7557f5","ios":"levelo://app?vid=d721dfdb-386b-427a-a0f8-e9045c7557f5"},"vehicle_type_id":"4","last_reported":1753186944,"current_range_meters":16400,"station_id":"st_cvj6sg6p6f1abm77japg","pricing_plan_id":"cebpf4jnsgd1na2vs0mg"},{"bike_id":"d58c0a7a-b7ac-4581-8ceb-41c3a6f6af72","system_id":"levelo_inurba_marseille","lat":43.27413,"lon":5.39416,"is_reserved":false,"is_disabled":false,"rental_uris":{"android":"levelo://app?vid=d58c0a7a-b7ac-4581-8ceb-41c3a6f6af72","ios":"levelo://app?vid=d58c0a7a-b7ac-4581-8ceb-41c3a6f6af72"},"vehicle_type_id":"4","last_reported":1753186944,"current_range_meters":16400,"station_id":"ce4bhgp2rcd13ifvqfe0","pricing_plan_id":"cebpf4jnsgd1na2vs0mg"},{"bike_id":"6329e008-9bb8-456d-a992-75b8fa85d539","system_id":"levelo_inurba_marseille","lat":43.21192,"lon":5.35076,"is_reserved":false,"is_disabled":false,"rental_uris":{"android":"levelo://app?vid=6329e008-9bb8-456d-a992-75b8fa85d539","ios":"levelo://app?vid=6329e008-9bb8-456d-a992-75b8fa85d539"},"vehicle_type_id":"4","last_reported":1753186944,"current_range_meters":16400,"station_id":"st_cvj6sg6p6f1abm77japg","pricing_plan_id":"cebpf4jnsgd1na2vs0mg"},{"bike_id":"5582ff9a-175e-4070-956c-15ad914d1f1f","system_id":"levelo_inurba_marseille","lat":43.29189,"lon":5.35806,"is_reserved":false,"is_disabled":false,"rental_uris":{"android":"levelo://app?vid=5582ff9a-175e-4070-956c-15ad914d1f1f","ios":"levelo://app?vid=5582ff9a-175e-4070-956c-15ad914d1f1f"},"vehicle_type_id":"4","last_reported":1753186944,"current_range_meters":16400,"station_id":"ce4bhb12rcd13ifvqel0","pricing_plan_id":"cebpf4jnsgd1na2vs0mg"},{"bike_id":"5affdc6d-a2d8-4124-9659-b5a825f33bbe","system_id":"levelo_inurba_marseille","lat":43.21181,"lon":5.351,"is_reserved":false,"is_disabled":false,"rental_uris":{"android":"levelo://app?vid=5affdc6d-a2d8-4124-9659-b5a825f33bbe","ios":"levelo://app?vid=5affdc6d-a2d8-4124-9659-b5a825f33bbe"},"vehicle_type_id":"4","last_reported":1753186944,"current_range_meters":16800,"station_id":"st_cvj6sg6p6f1abm77japg","pricing_plan_id":"cebpf4jnsgd1na2vs0mg"},{"bike_id":"325420c9-3da6-4685-96e4-8d9c72ce4de5","system_id":"levelo_inurba_marseille","lat":43.261923,"lon":5.374517,"is_reserved":false,"is_disabled":false,"rental_uris":{"android":"levelo://app?vid=325420c9-3da6-4685-96e4-8d9c72ce4de5","ios":"levelo://app?vid=325420c9-3da6-4685-96e4-8d9c72ce4de5"},"vehicle_type_id":"4","last_reported":1753186944,"current_range_meters":16800,"station_id":"ce4bhgp2rcd13ifvqfc0","pricing_plan_id":"cebpf4jnsgd1na2vs0mg"},{"bike_id":"0afd87d7-5e38-485b-9a69-89004a3bc433","system_id":"levelo_inurba_marseille","lat":43.24168,"lon":5.36412,"is_reserved":false,"is_disabled":false,"rental_uris":{"android":"levelo://app?vid=0afd87d7-5e38-485b-9a69-89004a3bc433","ios":"levelo://app?vid=0afd87d7-5e38-485b-9a69-89004a3bc433"},"vehicle_type_id":"4","last_reported":1753186944,"current_range_meters":16800,"station_id":"cpo36qri1sfpv3e86is0","pricing_plan_id":"cebpf4jnsgd1na2vs0mg"},{"bike_id":"850cc2b2-0ca7-43f3-8c86-a35c8758572b","system_id":"levelo_inurba_marseille","lat":43.25012,"lon":5.38913,"is_reserved":false,"is_disabled":false,"rental_uris":{"android":"levelo://app?vid=850cc2b2-0ca7-43f3-8c86-a35c8758572b","ios":"levelo://app?vid=850cc2b2-0ca7-43f3-8c86-a35c8758572b"},"vehicle_type_id":"4","last_reported":1753186944,"current_range_meters":16800,"station_id":"ce4bhgp2rcd13ifvqfd0","pricing_plan_id":"cebpf4jnsgd1na2vs0mg"},{"bike_id":"65e086a6-5f6c-4580-8304-6fefd7736cc7","system_id":"levelo_inurba_marseille","lat":43.29018,"lon":5.3814,"is_reserved":false,"is_disabled":false,"rental_uris":{"android":"levelo://app?vid=65e086a6-5f6c-4580-8304-6fefd7736cc7","ios":"levelo://app?vid=65e086a6-5f6c-4580-8304-6fefd7736cc7"},"vehicle_type_id":"4","last_reported":1753186944,"current_range_meters":16400,"station_id":"ce4bh4p2rcd13ifvqe1g","pricing_plan_id":"cebpf4jnsgd1na2vs0mg"},{"bike_id":"c85ebe77-664c-422c-84fe-c03f351ca4af","system_id":"levelo_inurba_marseille","lat":43.230648,"lon":5.354875,"is_reserved":false,"is_disabled":false,"rental_uris":{"android":"levelo://app?vid=c85ebe77-664c-422c-84fe-c03f351ca4af","ios":"levelo://app?vid=c85ebe77-664c-422c-84fe-c03f351ca4af"},"vehicle_type_id":"4","last_reported":1753186944,"current_range_meters":16800,"station_id":"cpo3342slgdg3j2ifvpg","pricing_plan_id":"cebpf4jnsgd1na2vs0mg"},{"bike_id":"60aa3303-1102-430c-babb-4e68b810ae47","system_id":"levelo_inurba_marseille","lat":43.21203,"lon":5.35049,"is_reserved":false,"is_disabled":false,"rental_uris":{"android":"levelo://app?vid=60aa3303-1102-430c-babb-4e68b810ae47","ios":"levelo://app?vid=60aa3303-1102-430c-babb-4e68b810ae47"},"vehicle_type_id":"4","last_reported":1753186944,"current_range_meters":16800,"station_id":"st_cvj6sg6p6f1abm77japg","pricing_plan_id":"cebpf4jnsgd1na2vs0mg"},{"bike_id":"f1921998-dc9f-42e7-87c1-64f1e7280dcb","system_id":"levelo_inurba_marseille","lat":43.292297,"lon":5.360714,"is_reserved":false,"is_disabled":false,"rental_uris":{"android":"levelo://app?vid=f1921998-dc9f-42e7-87c1-64f1e7280dcb","ios":"levelo://app?vid=f1921998-dc9f-42e7-87c1-64f1e7280dcb"},"vehicle_type_id":"4","last_reported":1753186944,"current_range_meters":16800,"station_id":"ce4bhbh2rcd13ifvqeqg","pricing_plan_id":"cebpf4jnsgd1na2vs0mg"},{"bike_id":"46541013-e2f1-4ffe-8f40-29b310051d07","system_id":"levelo_inurba_marseille","lat":43.25949,"lon":5.40905,"is_reserved":false,"is_disabled":false,"rental_uris":{"android":"levelo://app?vid=46541013-e2f1-4ffe-8f40-29b310051d07","ios":"levelo://app?vid=46541013-e2f1-4ffe-8f40-29b310051d07"},"vehicle_type_id":"4","last_reported":1753186944,"current_range_meters":16800,"station_id":"ce4bhm92rcd13ifvqglg","pricing_plan_id":"cebpf4jnsgd1na2vs0mg"},{"bike_id":"8ab4396c-5ef1-4bcd-9c96-788da2360e19","system_id":"levelo_inurba_marseille","lat":43.29224,"lon":5.36057,"is_reserved":false,"is_disabled":false,"rental_uris":{"android":"levelo://app?vid=8ab4396c-5ef1-4bcd-9c96-788da2360e19","ios":"levelo://app?vid=8ab4396c-5ef1-4bcd-9c96-788da2360e19"},"vehicle_type_id":"4","last_reported":1753186944,"current_range_meters":16800,"station_id":"ce4bhbh2rcd13ifvqeqg","pricing_plan_id":"cebpf4jnsgd1na2vs0mg"},{"bike_id":"db4deaee-a941-47a3-93ba-1fb8c6c8947a","system_id":"levelo_inurba_marseille","lat":43.28402,"lon":5.34991,"is_reserved":false,"is_disabled":false,"rental_uris":{"android":"levelo://app?vid=db4deaee-a941-47a3-93ba-1fb8c6c8947a","ios":"levelo://app?vid=db4deaee-a941-47a3-93ba-1fb8c6c8947a"},"vehicle_type_id":"4","last_reported":1753186944,"current_range_meters":16800,"station_id":"ce4bhbh2rcd13ifvqepg","pricing_plan_id":"cebpf4jnsgd1na2vs0mg"},{"bike_id":"2645e7ec-b8fc-4e34-9e26-4134670625a8","system_id":"levelo_inurba_marseille","lat":43.30305,"lon":5.36889,"is_reserved":false,"is_disabled":false,"rental_uris":{"android":"levelo://app?vid=2645e7ec-b8fc-4e34-9e26-4134670625a8","ios":"levelo://app?vid=2645e7ec-b8fc-4e34-9e26-4134670625a8"},"vehicle_type_id":"4","last_reported":1753186944,"current_range_meters":16800,"station_id":"ce4bgqh2rcd13ifvqc5g","pricing_plan_id":"cebpf4jnsgd1na2vs0mg"},{"bike_id":"6df17f80-ca71-4a96-93bf-92698e54ca85","system_id":"levelo_inurba_marseille","lat":43.24087,"lon":5.37825,"is_reserved":false,"is_disabled":false,"rental_uris":{"android":"levelo://app?vid=6df17f80-ca71-4a96-93bf-92698e54ca85","ios":"levelo://app?vid=6df17f80-ca71-4a96-93bf-92698e54ca85"},"vehicle_type_id":"4","last_reported":1753186944,"current_range_meters":16800,"station_id":"","pricing_plan_id":"cebpf4jnsgd1na2vs0mg"},{"bike_id":"3e552ebe-6d94-4d7e-a7ba-24f3a3d32ef0","system_id":"levelo_inurba_marseille","lat":43.25003,"lon":5.38911,"is_reserved":false,"is_disabled":false,"rental_uris":{"android":"levelo://app?vid=3e552ebe-6d94-4d7e-a7ba-24f3a3d32ef0","ios":"levelo://app?vid=3e552ebe-6d94-4d7e-a7ba-24f3a3d32ef0"},"vehicle_type_id":"4","last_reported":1753186944,"current_range_meters":17200,"station_id":"ce4bhgp2rcd13ifvqfd0","pricing_plan_id":"cebpf4jnsgd1na2vs0mg"},{"bike_id":"26c00407-61c7-4ed0-9102-32f906c4f73e","system_id":"levelo_inurba_marseille","lat":43.29846,"lon":5.36282,"is_reserved":false,"is_disabled":false,"rental_uris":{"android":"levelo://app?vid=26c00407-61c7-4ed0-9102-32f906c4f73e","ios":"levelo://app?vid=26c00407-61c7-4ed0-9102-32f906c4f73e"},"vehicle_type_id":"4","last_reported":1753186944,"current_range_meters":17200,"station_id":"ce4bgpp2rcd13ifvqc3g","pricing_plan_id":"cebpf4jnsgd1na2vs0mg"},{"bike_id":"fa6be926-75f7-4b71-a847-099cd1df3626","system_id":"levelo_inurba_marseille","lat":43.28416,"lon":5.34999,"is_reserved":false,"is_disabled":false,"rental_uris":{"android":"levelo://app?vid=fa6be926-75f7-4b71-a847-099cd1df3626","ios":"levelo://app?vid=fa6be926-75f7-4b71-a847-099cd1df3626"},"vehicle_type_id":"4","last_reported":1753186944,"current_range_meters":17200,"station_id":"ce4bhbh2rcd13ifvqepg","pricing_plan_id":"cebpf4jnsgd1na2vs0mg"},{"bike_id":"86a97ec3-741e-4484-b2bc-9b831c3ef346","system_id":"levelo_inurba_marseille","lat":43.306991,"lon":5.438005,"is_reserved":false,"is_disabled":false,"rental_uris":{"android":"levelo://app?vid=86a97ec3-741e-4484-b2bc-9b831c3ef346","ios":"levelo://app?vid=86a97ec3-741e-4484-b2bc-9b831c3ef346"},"vehicle_type_id":"4","last_reported":1753186944,"current_range_meters":17200,"station_id":"ce4bhph2rcd13ifvqheg","pricing_plan_id":"cebpf4jnsgd1na2vs0mg"},{"bike_id":"5c2a585a-c38f-4add-a135-f458ed4d1031","system_id":"levelo_inurba_marseille","lat":43.21751,"lon":5.34603,"is_reserved":false,"is_disabled":false,"rental_uris":{"android":"levelo://app?vid=5c2a585a-c38f-4add-a135-f458ed4d1031","ios":"levelo://app?vid=5c2a585a-c38f-4add-a135-f458ed4d1031"},"vehicle_type_id":"4","last_reported":1753186944,"current_range_meters":17200,"station_id":"st_cvj6r9ubvosntc0bgbag","pricing_plan_id":"cebpf4jnsgd1na2vs0mg"},{"bike_id":"c9cecd00-7847-46ac-9b07-3c579be97282","system_id":"levelo_inurba_marseille","lat":43.31335,"lon":5.36725,"is_reserved":false,"is_disabled":false,"rental_uris":{"android":"levelo://app?vid=c9cecd00-7847-46ac-9b07-3c579be97282","ios":"levelo://app?vid=c9cecd00-7847-46ac-9b07-3c579be97282"},"vehicle_type_id":"4","last_reported":1753186944,"current_range_meters":17200,"station_id":"ce4bgr92rcd13ifvqc6g","pricing_plan_id":"cebpf4jnsgd1na2vs0mg"},{"bike_id":"03ae679e-ff02-44dd-8a40-0b2b9ff30986","system_id":"levelo_inurba_marseille","lat":43.26571,"lon":5.372879,"is_reserved":false,"is_disabled":false,"rental_uris":{"android":"levelo://app?vid=03ae679e-ff02-44dd-8a40-0b2b9ff30986","ios":"levelo://app?vid=03ae679e-ff02-44dd-8a40-0b2b9ff30986"},"vehicle_type_id":"4","last_reported":1753186944,"current_range_meters":17600,"station_id":"","pricing_plan_id":"cebpf4jnsgd1na2vs0mg"},{"bike_id":"7db1666e-1e9d-493f-aae3-617553c7e237","system_id":"levelo_inurba_marseille","lat":43.32355,"lon":5.36743,"is_reserved":false,"is_disabled":false,"rental_uris":{"android":"levelo://app?vid=7db1666e-1e9d-493f-aae3-617553c7e237","ios":"levelo://app?vid=7db1666e-1e9d-493f-aae3-617553c7e237"},"vehicle_type_id":"4","last_reported":1753186944,"current_range_meters":17600,"station_id":"ce4bhsh2rcd13ifvqi2g","pricing_plan_id":"cebpf4jnsgd1na2vs0mg"},{"bike_id":"26301659-d9ed-4445-ab69-f4b55095d9fe","system_id":"levelo_inurba_marseille","lat":43.22959,"lon":5.354,"is_reserved":false,"is_disabled":false,"rental_uris":{"android":"levelo://app?vid=26301659-d9ed-4445-ab69-f4b55095d9fe","ios":"levelo://app?vid=26301659-d9ed-4445-ab69-f4b55095d9fe"},"vehicle_type_id":"4","last_reported":1753186944,"current_range_meters":18000,"station_id":"cpo3532slgdg3j2ikp40","pricing_plan_id":"cebpf4jnsgd1na2vs0mg"},{"bike_id":"0da06c6e-d181-4b6d-a61e-adacf394efff","system_id":"levelo_inurba_marseille","lat":43.280995,"lon":5.378303,"is_reserved":false,"is_disabled":false,"rental_uris":{"android":"levelo://app?vid=0da06c6e-d181-4b6d-a61e-adacf394efff","ios":"levelo://app?vid=0da06c6e-d181-4b6d-a61e-adacf394efff"},"vehicle_type_id":"4","last_reported":1753186944,"current_range_meters":18000,"station_id":"ce4bha12rcd13ifvqee0","pricing_plan_id":"cebpf4jnsgd1na2vs0mg"},{"bike_id":"524f1573-7de7-4c7b-94e0-a9dea0b1e17c","system_id":"levelo_inurba_marseille","lat":43.270686,"lon":5.363418,"is_reserved":false,"is_disabled":false,"rental_uris":{"android":"levelo://app?vid=524f1573-7de7-4c7b-94e0-a9dea0b1e17c","ios":"levelo://app?vid=524f1573-7de7-4c7b-94e0-a9dea0b1e17c"},"vehicle_type_id":"4","last_reported":1753186944,"current_range_meters":18000,"station_id":"ce4bhgp2rcd13ifvqfd0","pricing_plan_id":"cebpf4jnsgd1na2vs0mg"},{"bike_id":"1487f37a-929a-4921-a4a4-4adc0cc700f6","system_id":"levelo_inurba_marseille","lat":43.28436,"lon":5.35009,"is_reserved":false,"is_disabled":true,"rental_uris":{"android":"levelo://app?vid=1487f37a-929a-4921-a4a4-4adc0cc700f6","ios":"levelo://app?vid=1487f37a-929a-4921-a4a4-4adc0cc700f6"},"vehicle_type_id":"4","last_reported":1753186944,"current_range_meters":18000,"station_id":"ce4bhbh2rcd13ifvqepg","pricing_plan_id":"cebpf4jnsgd1na2vs0mg"},{"bike_id":"f11bca1c-a794-44d2-9952-8049f701e31e","system_id":"levelo_inurba_marseille","lat":43.30545,"lon":5.36535,"is_reserved":false,"is_disabled":false,"rental_uris":{"android":"levelo://app?vid=f11bca1c-a794-44d2-9952-8049f701e31e","ios":"levelo://app?vid=f11bca1c-a794-44d2-9952-8049f701e31e"},"vehicle_type_id":"4","last_reported":1753186944,"current_range_meters":18000,"station_id":"ce4bgs12rcd13ifvqcag","pricing_plan_id":"cebpf4jnsgd1na2vs0mg"},{"bike_id":"c159acc4-b9de-4189-b163-6836bbed312e","system_id":"levelo_inurba_marseille","lat":43.29541,"lon":5.38557,"is_reserved":false,"is_disabled":true,"rental_uris":{"android":"levelo://app?vid=c159acc4-b9de-4189-b163-6836bbed312e","ios":"levelo://app?vid=c159acc4-b9de-4189-b163-6836bbed312e"},"vehicle_type_id":"4","last_reported":1753186944,"current_range_meters":18000,"station_id":"ce4bgih2rcd13ifvqba0","pricing_plan_id":"cebpf4jnsgd1na2vs0mg"},{"bike_id":"2a8d20e5-622e-426a-b22f-190a29976c77","system_id":"levelo_inurba_marseille","lat":43.23193,"lon":5.35539,"is_reserved":false,"is_disabled":false,"rental_uris":{"android":"levelo://app?vid=2a8d20e5-622e-426a-b22f-190a29976c77","ios":"levelo://app?vid=2a8d20e5-622e-426a-b22f-190a29976c77"},"vehicle_type_id":"4","last_reported":1753186944,"current_range_meters":18000,"station_id":"ce4bhu92rcd13ifvqi70","pricing_plan_id":"cebpf4jnsgd1na2vs0mg"},{"bike_id":"61b64842-99da-4ecd-8de7-a1061491dd30","system_id":"levelo_inurba_marseille","lat":43.25014,"lon":5.389181,"is_reserved":false,"is_disabled":false,"rental_uris":{"android":"levelo://app?vid=61b64842-99da-4ecd-8de7-a1061491dd30","ios":"levelo://app?vid=61b64842-99da-4ecd-8de7-a1061491dd30"},"vehicle_type_id":"4","last_reported":1753186944,"current_range_meters":18000,"station_id":"ce4bhgp2rcd13ifvqfd0","pricing_plan_id":"cebpf4jnsgd1na2vs0mg"},{"bike_id":"196e28b9-b9b5-46cd-b5a7-be644efe92b4","system_id":"levelo_inurba_marseille","lat":43.28408,"lon":5.34998,"is_reserved":false,"is_disabled":false,"rental_uris":{"android":"levelo://app?vid=196e28b9-b9b5-46cd-b5a7-be644efe92b4","ios":"levelo://app?vid=196e28b9-b9b5-46cd-b5a7-be644efe92b4"},"vehicle_type_id":"4","last_reported":1753186944,"current_range_meters":18000,"station_id":"ce4bhbh2rcd13ifvqepg","pricing_plan_id":"cebpf4jnsgd1na2vs0mg"},{"bike_id":"6be6b3db-e55d-4aaa-940b-016ed890cd45","system_id":"levelo_inurba_marseille","lat":43.28669,"lon":5.36344,"is_reserved":false,"is_disabled":false,"rental_uris":{"android":"levelo://app?vid=6be6b3db-e55d-4aaa-940b-016ed890cd45","ios":"levelo://app?vid=6be6b3db-e55d-4aaa-940b-016ed890cd45"},"vehicle_type_id":"4","last_reported":1753186944,"current_range_meters":18000,"station_id":"ce4bhah2rcd13ifvqej0","pricing_plan_id":"cebpf4jnsgd1na2vs0mg"},{"bike_id":"5672c664-e260-49be-9251-5b1957cd776f","system_id":"levelo_inurba_marseille","lat":43.22919,"lon":5.35375,"is_reserved":false,"is_disabled":false,"rental_uris":{"android":"levelo://app?vid=5672c664-e260-49be-9251-5b1957cd776f","ios":"levelo://app?vid=5672c664-e260-49be-9251-5b1957cd776f"},"vehicle_type_id":"4","last_reported":1753186944,"current_range_meters":18800,"station_id":"cpo3532slgdg3j2ikp40","pricing_plan_id":"cebpf4jnsgd1na2vs0mg"},{"bike_id":"24d624cf-77d4-40d3-b7b5-9ab721abba2d","system_id":"levelo_inurba_marseille","lat":43.31356,"lon":5.36718,"is_reserved":false,"is_disabled":false,"rental_uris":{"android":"levelo://app?vid=24d624cf-77d4-40d3-b7b5-9ab721abba2d","ios":"levelo://app?vid=24d624cf-77d4-40d3-b7b5-9ab721abba2d"},"vehicle_type_id":"4","last_reported":1753186944,"current_range_meters":18800,"station_id":"ce4bgr92rcd13ifvqc6g","pricing_plan_id":"cebpf4jnsgd1na2vs0mg"},{"bike_id":"5bf47765-e290-4289-82de-cbddc11babfc","system_id":"levelo_inurba_marseille","lat":43.265576,"lon":5.3729,"is_reserved":false,"is_disabled":false,"rental_uris":{"android":"levelo://app?vid=5bf47765-e290-4289-82de-cbddc11babfc","ios":"levelo://app?vid=5bf47765-e290-4289-82de-cbddc11babfc"},"vehicle_type_id":"4","last_reported":1753186944,"current_range_meters":18800,"station_id":"ce4bhg12rcd13ifvqf70","pricing_plan_id":"cebpf4jnsgd1na2vs0mg"},{"bike_id":"37cf64c5-4690-460d-848d-976de41454d7","system_id":"levelo_inurba_marseille","lat":43.298157,"lon":5.403937,"is_reserved":false,"is_disabled":false,"rental_uris":{"android":"levelo://app?vid=37cf64c5-4690-460d-848d-976de41454d7","ios":"levelo://app?vid=37cf64c5-4690-460d-848d-976de41454d7"},"vehicle_type_id":"4","last_reported":1753186944,"current_range_meters":18000,"station_id":"ce4bh112rcd13ifvqd90","pricing_plan_id":"cebpf4jnsgd1na2vs0mg"},{"bike_id":"be56d0a2-6a9b-4dcc-ad88-e50318103aee","system_id":"levelo_inurba_marseille","lat":43.21192,"lon":5.35072,"is_reserved":false,"is_disabled":false,"rental_uris":{"android":"levelo://app?vid=be56d0a2-6a9b-4dcc-ad88-e50318103aee","ios":"levelo://app?vid=be56d0a2-6a9b-4dcc-ad88-e50318103aee"},"vehicle_type_id":"4","last_reported":1753186944,"current_range_meters":18800,"station_id":"st_cvj6sg6p6f1abm77japg","pricing_plan_id":"cebpf4jnsgd1na2vs0mg"},{"bike_id":"ea04131e-a42e-442d-9c64-7065fe6a925c","system_id":"levelo_inurba_marseille","lat":43.28395,"lon":5.37519,"is_reserved":false,"is_disabled":false,"rental_uris":{"android":"levelo://app?vid=ea04131e-a42e-442d-9c64-7065fe6a925c","ios":"levelo://app?vid=ea04131e-a42e-442d-9c64-7065fe6a925c"},"vehicle_type_id":"4","last_reported":1753186944,"current_range_meters":18800,"station_id":"ce4bh412rcd13ifvqds0","pricing_plan_id":"cebpf4jnsgd1na2vs0mg"},{"bike_id":"e5605378-fca7-4843-b6cc-078e66dabd57","system_id":"levelo_inurba_marseille","lat":43.29581,"lon":5.36741,"is_reserved":false,"is_disabled":false,"rental_uris":{"android":"levelo://app?vid=e5605378-fca7-4843-b6cc-078e66dabd57","ios":"levelo://app?vid=e5605378-fca7-4843-b6cc-078e66dabd57"},"vehicle_type_id":"4","last_reported":1753186944,"current_range_meters":19200,"station_id":"ce4bgph2rcd13ifvqc2g","pricing_plan_id":"cebpf4jnsgd1na2vs0mg"},{"bike_id":"07d8fa33-fc8b-4c88-8367-acc356162f63","system_id":"levelo_inurba_marseille","lat":43.217463,"lon":5.346056,"is_reserved":false,"is_disabled":false,"rental_uris":{"android":"levelo://app?vid=07d8fa33-fc8b-4c88-8367-acc356162f63","ios":"levelo://app?vid=07d8fa33-fc8b-4c88-8367-acc356162f63"},"vehicle_type_id":"4","last_reported":1753186944,"current_range_meters":19200,"station_id":"","pricing_plan_id":"cebpf4jnsgd1na2vs0mg"},{"bike_id":"9a76d60f-a9ff-47c7-b65e-fe35a9bfbb26","system_id":"levelo_inurba_marseille","lat":43.29958,"lon":5.37442,"is_reserved":false,"is_disabled":false,"rental_uris":{"android":"levelo://app?vid=9a76d60f-a9ff-47c7-b65e-fe35a9bfbb26","ios":"levelo://app?vid=9a76d60f-a9ff-47c7-b65e-fe35a9bfbb26"},"vehicle_type_id":"4","last_reported":1753186944,"current_range_meters":19200,"station_id":"ce4bgjh2rcd13ifvqbg0","pricing_plan_id":"cebpf4jnsgd1na2vs0mg"},{"bike_id":"c3552388-8c8d-4d0d-8674-f55d1c56e683","system_id":"levelo_inurba_marseille","lat":43.21193,"lon":5.35046,"is_reserved":false,"is_disabled":false,"rental_uris":{"android":"levelo://app?vid=c3552388-8c8d-4d0d-8674-f55d1c56e683","ios":"levelo://app?vid=c3552388-8c8d-4d0d-8674-f55d1c56e683"},"vehicle_type_id":"4","last_reported":1753186944,"current_range_meters":19200,"station_id":"st_cvj6sg6p6f1abm77japg","pricing_plan_id":"cebpf4jnsgd1na2vs0mg"},{"bike_id":"3bc17d43-ee35-4e1e-b11a-898f32ad7443","system_id":"levelo_inurba_marseille","lat":43.2861,"lon":5.37073,"is_reserved":false,"is_disabled":true,"rental_uris":{"android":"levelo://app?vid=3bc17d43-ee35-4e1e-b11a-898f32ad7443","ios":"levelo://app?vid=3bc17d43-ee35-4e1e-b11a-898f32ad7443"},"vehicle_type_id":"4","last_reported":1753186944,"current_range_meters":19200,"station_id":"ce4bht12rcd13ifvqi60","pricing_plan_id":"cebpf4jnsgd1na2vs0mg"},{"bike_id":"af0e27e4-2c0b-4dfb-aade-5e0871e17cb3","system_id":"levelo_inurba_marseille","lat":43.29534,"lon":5.37489,"is_reserved":false,"is_disabled":false,"rental_uris":{"android":"levelo://app?vid=af0e27e4-2c0b-4dfb-aade-5e0871e17cb3","ios":"levelo://app?vid=af0e27e4-2c0b-4dfb-aade-5e0871e17cb3"},"vehicle_type_id":"4","last_reported":1753186944,"current_range_meters":19200,"station_id":"ce4bgkp2rcd13ifvqbmg","pricing_plan_id":"cebpf4jnsgd1na2vs0mg"},{"bike_id":"d4da666f-64f1-4c4c-a10e-2bec5ce236af","system_id":"levelo_inurba_marseille","lat":43.28264,"lon":5.35061,"is_reserved":false,"is_disabled":false,"rental_uris":{"android":"levelo://app?vid=d4da666f-64f1-4c4c-a10e-2bec5ce236af","ios":"levelo://app?vid=d4da666f-64f1-4c4c-a10e-2bec5ce236af"},"vehicle_type_id":"4","last_reported":1753186944,"current_range_meters":19200,"station_id":"ce4bhbp2rcd13ifvqerg","pricing_plan_id":"cebpf4jnsgd1na2vs0mg"},{"bike_id":"96c3ad5b-59c8-4b1b-b885-27b9e6b1d885","system_id":"levelo_inurba_marseille","lat":43.24546,"lon":5.39527,"is_reserved":false,"is_disabled":false,"rental_uris":{"android":"levelo://app?vid=96c3ad5b-59c8-4b1b-b885-27b9e6b1d885","ios":"levelo://app?vid=96c3ad5b-59c8-4b1b-b885-27b9e6b1d885"},"vehicle_type_id":"4","last_reported":1753186944,"current_range_meters":19200,"station_id":"ce4bhlp2rcd13ifvqgjg","pricing_plan_id":"cebpf4jnsgd1na2vs0mg"},{"bike_id":"199a4da0-1736-4a6a-82f1-1efdd10b0f4b","system_id":"levelo_inurba_marseille","lat":43.2705,"lon":5.40263,"is_reserved":false,"is_disabled":false,"rental_uris":{"android":"levelo://app?vid=199a4da0-1736-4a6a-82f1-1efdd10b0f4b","ios":"levelo://app?vid=199a4da0-1736-4a6a-82f1-1efdd10b0f4b"},"vehicle_type_id":"4","last_reported":1753186944,"current_range_meters":19200,"station_id":"ce4bhk92rcd13ifvqgc0","pricing_plan_id":"cebpf4jnsgd1na2vs0mg"},{"bike_id":"f9e8d842-4154-4d79-a3a0-b474c93a0e94","system_id":"levelo_inurba_marseille","lat":43.29259,"lon":5.37611,"is_reserved":false,"is_disabled":false,"rental_uris":{"android":"levelo://app?vid=f9e8d842-4154-4d79-a3a0-b474c93a0e94","ios":"levelo://app?vid=f9e8d842-4154-4d79-a3a0-b474c93a0e94"},"vehicle_type_id":"4","last_reported":1753186944,"current_range_meters":19200,"station_id":"ce4bgi12rcd13ifvqb80","pricing_plan_id":"cebpf4jnsgd1na2vs0mg"},{"bike_id":"b63ae3cc-1e00-4617-bb81-73b7806f90f2","system_id":"levelo_inurba_marseille","lat":43.29856,"lon":5.39741,"is_reserved":false,"is_disabled":false,"rental_uris":{"android":"levelo://app?vid=b63ae3cc-1e00-4617-bb81-73b7806f90f2","ios":"levelo://app?vid=b63ae3cc-1e00-4617-bb81-73b7806f90f2"},"vehicle_type_id":"4","last_reported":1753186944,"current_range_meters":19200,"station_id":"ce4bh0h2rcd13ifvqd50","pricing_plan_id":"cebpf4jnsgd1na2vs0mg"},{"bike_id":"2ee9ea7b-15ed-4552-8c5f-9fdab7c2f774","system_id":"levelo_inurba_marseille","lat":43.27048,"lon":5.40282,"is_reserved":false,"is_disabled":false,"rental_uris":{"android":"levelo://app?vid=2ee9ea7b-15ed-4552-8c5f-9fdab7c2f774","ios":"levelo://app?vid=2ee9ea7b-15ed-4552-8c5f-9fdab7c2f774"},"vehicle_type_id":"4","last_reported":1753186944,"current_range_meters":19600,"station_id":"ce4bhk92rcd13ifvqgc0","pricing_plan_id":"cebpf4jnsgd1na2vs0mg"},{"bike_id":"6bcc74c0-c3ee-4839-aab8-9c6c1bd256da","system_id":"levelo_inurba_marseille","lat":43.25579,"lon":5.38234,"is_reserved":false,"is_disabled":true,"rental_uris":{"android":"levelo://app?vid=6bcc74c0-c3ee-4839-aab8-9c6c1bd256da","ios":"levelo://app?vid=6bcc74c0-c3ee-4839-aab8-9c6c1bd256da"},"vehicle_type_id":"4","last_reported":1753186944,"current_range_meters":19600,"station_id":"ce4bhih2rcd13ifvqfs0","pricing_plan_id":"cebpf4jnsgd1na2vs0mg"},{"bike_id":"bf56d487-7d0f-4327-b5f7-3d7165154b37","system_id":"levelo_inurba_marseille","lat":43.241704,"lon":5.363899,"is_reserved":false,"is_disabled":false,"rental_uris":{"android":"levelo://app?vid=bf56d487-7d0f-4327-b5f7-3d7165154b37","ios":"levelo://app?vid=bf56d487-7d0f-4327-b5f7-3d7165154b37"},"vehicle_type_id":"4","last_reported":1753186944,"current_range_meters":19600,"station_id":"cpo36qri1sfpv3e86is0","pricing_plan_id":"cebpf4jnsgd1na2vs0mg"},{"bike_id":"224a2148-da5c-4104-ab76-220c362118ed","system_id":"levelo_inurba_marseille","lat":43.276176,"lon":5.361005,"is_reserved":false,"is_disabled":false,"rental_uris":{"android":"levelo://app?vid=224a2148-da5c-4104-ab76-220c362118ed","ios":"levelo://app?vid=224a2148-da5c-4104-ab76-220c362118ed"},"vehicle_type_id":"4","last_reported":1753186944,"current_range_meters":20000,"station_id":"","pricing_plan_id":"cebpf4jnsgd1na2vs0mg"},{"bike_id":"061f7199-e491-49f8-a355-47fb6ca3a8a3","system_id":"levelo_inurba_marseille","lat":43.21767,"lon":5.34624,"is_reserved":false,"is_disabled":false,"rental_uris":{"android":"levelo://app?vid=061f7199-e491-49f8-a355-47fb6ca3a8a3","ios":"levelo://app?vid=061f7199-e491-49f8-a355-47fb6ca3a8a3"},"vehicle_type_id":"4","last_reported":1753186944,"current_range_meters":19600,"station_id":"st_cvj6r9ubvosntc0bgbag","pricing_plan_id":"cebpf4jnsgd1na2vs0mg"},{"bike_id":"6cb6efd4-4da9-4c72-b47b-4b1ffefba1cd","system_id":"levelo_inurba_marseille","lat":43.337534,"lon":5.374547,"is_reserved":false,"is_disabled":false,"rental_uris":{"android":"levelo://app?vid=6cb6efd4-4da9-4c72-b47b-4b1ffefba1cd","ios":"levelo://app?vid=6cb6efd4-4da9-4c72-b47b-4b1ffefba1cd"},"vehicle_type_id":"4","last_reported":1753186944,"current_range_meters":19600,"station_id":"","pricing_plan_id":"cebpf4jnsgd1na2vs0mg"},{"bike_id":"4fb6a507-f7b8-48e1-9007-49db0414de22","system_id":"levelo_inurba_marseille","lat":43.21752,"lon":5.34563,"is_reserved":false,"is_disabled":false,"rental_uris":{"android":"levelo://app?vid=4fb6a507-f7b8-48e1-9007-49db0414de22","ios":"levelo://app?vid=4fb6a507-f7b8-48e1-9007-49db0414de22"},"vehicle_type_id":"4","last_reported":1753186944,"current_range_meters":19600,"station_id":"st_cvj6r9ubvosntc0bgbag","pricing_plan_id":"cebpf4jnsgd1na2vs0mg"},{"bike_id":"f40c1b37-c065-47ae-9f8d-950dd72fea37","system_id":"levelo_inurba_marseille","lat":43.32109,"lon":5.36776,"is_reserved":false,"is_disabled":false,"rental_uris":{"android":"levelo://app?vid=f40c1b37-c065-47ae-9f8d-950dd72fea37","ios":"levelo://app?vid=f40c1b37-c065-47ae-9f8d-950dd72fea37"},"vehicle_type_id":"4","last_reported":1753186944,"current_range_meters":19600,"station_id":"ce4bhrh2rcd13ifvqhug","pricing_plan_id":"cebpf4jnsgd1na2vs0mg"},{"bike_id":"8ac0032d-b284-4125-8f18-2b3fd520bb09","system_id":"levelo_inurba_marseille","lat":43.23181,"lon":5.39975,"is_reserved":false,"is_disabled":false,"rental_uris":{"android":"levelo://app?vid=8ac0032d-b284-4125-8f18-2b3fd520bb09","ios":"levelo://app?vid=8ac0032d-b284-4125-8f18-2b3fd520bb09"},"vehicle_type_id":"4","last_reported":1753186944,"current_range_meters":19600,"station_id":"ce4bhn12rcd13ifvqgqg","pricing_plan_id":"cebpf4jnsgd1na2vs0mg"},{"bike_id":"1acb2a27-3e9c-4a70-91e7-73a99ca00cdf","system_id":"levelo_inurba_marseille","lat":43.31843,"lon":5.36805,"is_reserved":false,"is_disabled":false,"rental_uris":{"android":"levelo://app?vid=1acb2a27-3e9c-4a70-91e7-73a99ca00cdf","ios":"levelo://app?vid=1acb2a27-3e9c-4a70-91e7-73a99ca00cdf"},"vehicle_type_id":"4","last_reported":1753186944,"current_range_meters":19600,"station_id":"","pricing_plan_id":"cebpf4jnsgd1na2vs0mg"},{"bike_id":"e7544058-c873-41f1-9fb6-166b3f38736a","system_id":"levelo_inurba_marseille","lat":43.23142,"lon":5.43721,"is_reserved":false,"is_disabled":false,"rental_uris":{"android":"levelo://app?vid=e7544058-c873-41f1-9fb6-166b3f38736a","ios":"levelo://app?vid=e7544058-c873-41f1-9fb6-166b3f38736a"},"vehicle_type_id":"4","last_reported":1753186944,"current_range_meters":19600,"station_id":"ce4bhmp2rcd13ifvqgog","pricing_plan_id":"cebpf4jnsgd1na2vs0mg"},{"bike_id":"b5b7af76-e836-4488-8587-2efa0f2ca530","system_id":"levelo_inurba_marseille","lat":43.25736,"lon":5.41099,"is_reserved":false,"is_disabled":false,"rental_uris":{"android":"levelo://app?vid=b5b7af76-e836-4488-8587-2efa0f2ca530","ios":"levelo://app?vid=b5b7af76-e836-4488-8587-2efa0f2ca530"},"vehicle_type_id":"4","last_reported":1753186944,"current_range_meters":20000,"station_id":"ce4bhkp2rcd13ifvqgd0","pricing_plan_id":"cebpf4jnsgd1na2vs0mg"},{"bike_id":"76443916-61b0-4185-a4ea-78a51ff412ae","system_id":"levelo_inurba_marseille","lat":43.28268,"lon":5.35058,"is_reserved":false,"is_disabled":false,"rental_uris":{"android":"levelo://app?vid=76443916-61b0-4185-a4ea-78a51ff412ae","ios":"levelo://app?vid=76443916-61b0-4185-a4ea-78a51ff412ae"},"vehicle_type_id":"4","last_reported":1753186944,"current_range_meters":20000,"station_id":"ce4bhbp2rcd13ifvqerg","pricing_plan_id":"cebpf4jnsgd1na2vs0mg"},{"bike_id":"3ffa1a94-3760-40b1-a059-f4d078ee1637","system_id":"levelo_inurba_marseille","lat":43.30547,"lon":5.36706,"is_reserved":false,"is_disabled":false,"rental_uris":{"android":"levelo://app?vid=3ffa1a94-3760-40b1-a059-f4d078ee1637","ios":"levelo://app?vid=3ffa1a94-3760-40b1-a059-f4d078ee1637"},"vehicle_type_id":"4","last_reported":1753186944,"current_range_meters":20000,"station_id":"ce4bgrp2rcd13ifvqc9g","pricing_plan_id":"cebpf4jnsgd1na2vs0mg"},{"bike_id":"045e8b4b-7526-4f88-9164-61da146a0613","system_id":"levelo_inurba_marseille","lat":43.33757,"lon":5.37465,"is_reserved":false,"is_disabled":false,"rental_uris":{"android":"levelo://app?vid=045e8b4b-7526-4f88-9164-61da146a0613","ios":"levelo://app?vid=045e8b4b-7526-4f88-9164-61da146a0613"},"vehicle_type_id":"4","last_reported":1753186944,"current_range_meters":20000,"station_id":"","pricing_plan_id":"cebpf4jnsgd1na2vs0mg"},{"bike_id":"12aea84f-e74f-4a71-ad4b-270bc9d3c98f","system_id":"levelo_inurba_marseille","lat":43.32099,"lon":5.36781,"is_reserved":false,"is_disabled":false,"rental_uris":{"android":"levelo://app?vid=12aea84f-e74f-4a71-ad4b-270bc9d3c98f","ios":"levelo://app?vid=12aea84f-e74f-4a71-ad4b-270bc9d3c98f"},"vehicle_type_id":"4","last_reported":1753186944,"current_range_meters":20000,"station_id":"ce4bhrh2rcd13ifvqhug","pricing_plan_id":"cebpf4jnsgd1na2vs0mg"},{"bike_id":"23064375-e9a5-469e-b458-c074c786902a","system_id":"levelo_inurba_marseille","lat":43.25923,"lon":5.40887,"is_reserved":false,"is_disabled":false,"rental_uris":{"android":"levelo://app?vid=23064375-e9a5-469e-b458-c074c786902a","ios":"levelo://app?vid=23064375-e9a5-469e-b458-c074c786902a"},"vehicle_type_id":"4","last_reported":1753186944,"current_range_meters":20000,"station_id":"ce4bhm92rcd13ifvqglg","pricing_plan_id":"cebpf4jnsgd1na2vs0mg"},{"bike_id":"0e6a0cda-870a-4a3c-abca-f281158def47","system_id":"levelo_inurba_marseille","lat":43.259332,"lon":5.40908,"is_reserved":false,"is_disabled":false,"rental_uris":{"android":"levelo://app?vid=0e6a0cda-870a-4a3c-abca-f281158def47","ios":"levelo://app?vid=0e6a0cda-870a-4a3c-abca-f281158def47"},"vehicle_type_id":"4","last_reported":1753186944,"current_range_meters":20000,"station_id":"ce4bhm92rcd13ifvqglg","pricing_plan_id":"cebpf4jnsgd1na2vs0mg"},{"bike_id":"c09bc5ec-7469-41a9-bfc2-43c9821ea00a","system_id":"levelo_inurba_marseille","lat":43.32349,"lon":5.36763,"is_reserved":false,"is_disabled":false,"rental_uris":{"android":"levelo://app?vid=c09bc5ec-7469-41a9-bfc2-43c9821ea00a","ios":"levelo://app?vid=c09bc5ec-7469-41a9-bfc2-43c9821ea00a"},"vehicle_type_id":"4","last_reported":1753186944,"current_range_meters":20000,"station_id":"ce4bhsh2rcd13ifvqi2g","pricing_plan_id":"cebpf4jnsgd1na2vs0mg"},{"bike_id":"7773e5a1-5470-43c1-b2ef-62ca8ed2716d","system_id":"levelo_inurba_marseille","lat":43.32715,"lon":5.38302,"is_reserved":false,"is_disabled":false,"rental_uris":{"android":"levelo://app?vid=7773e5a1-5470-43c1-b2ef-62ca8ed2716d","ios":"levelo://app?vid=7773e5a1-5470-43c1-b2ef-62ca8ed2716d"},"vehicle_type_id":"4","last_reported":1753186944,"current_range_meters":20000,"station_id":"","pricing_plan_id":"cebpf4jnsgd1na2vs0mg"},{"bike_id":"e9c70eba-58b6-4d20-9517-3c8d401c4e86","system_id":"levelo_inurba_marseille","lat":43.29273,"lon":5.36843,"is_reserved":false,"is_disabled":false,"rental_uris":{"android":"levelo://app?vid=e9c70eba-58b6-4d20-9517-3c8d401c4e86","ios":"levelo://app?vid=e9c70eba-58b6-4d20-9517-3c8d401c4e86"},"vehicle_type_id":"4","last_reported":1753186944,"current_range_meters":20000,"station_id":"ce4bhbp2rcd13ifvqesg","pricing_plan_id":"cebpf4jnsgd1na2vs0mg"},{"bike_id":"e8f5d1a6-6bf2-4ea3-b4f7-7ba6837eae79","system_id":"levelo_inurba_marseille","lat":43.27618,"lon":5.36099,"is_reserved":false,"is_disabled":false,"rental_uris":{"android":"levelo://app?vid=e8f5d1a6-6bf2-4ea3-b4f7-7ba6837eae79","ios":"levelo://app?vid=e8f5d1a6-6bf2-4ea3-b4f7-7ba6837eae79"},"vehicle_type_id":"4","last_reported":1753186944,"current_range_meters":20000,"station_id":"ce4bgj92rcd13ifvqbe0","pricing_plan_id":"cebpf4jnsgd1na2vs0mg"},{"bike_id":"7c705e1d-a91d-4565-9862-7a36248e89dd","system_id":"levelo_inurba_marseille","lat":43.28419,"lon":5.34991,"is_reserved":false,"is_disabled":false,"rental_uris":{"android":"levelo://app?vid=7c705e1d-a91d-4565-9862-7a36248e89dd","ios":"levelo://app?vid=7c705e1d-a91d-4565-9862-7a36248e89dd"},"vehicle_type_id":"4","last_reported":1753186944,"current_range_meters":20000,"station_id":"ce4bhbh2rcd13ifvqepg","pricing_plan_id":"cebpf4jnsgd1na2vs0mg"},{"bike_id":"43afc811-3b56-46d1-92c2-6f46f6ceb3b2","system_id":"levelo_inurba_marseille","lat":43.21745,"lon":5.34587,"is_reserved":false,"is_disabled":false,"rental_uris":{"android":"levelo://app?vid=43afc811-3b56-46d1-92c2-6f46f6ceb3b2","ios":"levelo://app?vid=43afc811-3b56-46d1-92c2-6f46f6ceb3b2"},"vehicle_type_id":"4","last_reported":1753186944,"current_range_meters":20000,"station_id":"st_cvj6r9ubvosntc0bgbag","pricing_plan_id":"cebpf4jnsgd1na2vs0mg"},{"bike_id":"32f85fbc-b4a9-45f3-a5e2-93dc94570e89","system_id":"levelo_inurba_marseille","lat":43.28622,"lon":5.35158,"is_reserved":false,"is_disabled":false,"rental_uris":{"android":"levelo://app?vid=32f85fbc-b4a9-45f3-a5e2-93dc94570e89","ios":"levelo://app?vid=32f85fbc-b4a9-45f3-a5e2-93dc94570e89"},"vehicle_type_id":"4","last_reported":1753186944,"current_range_meters":20400,"station_id":"ce4bhch2rcd13ifvqeug","pricing_plan_id":"cebpf4jnsgd1na2vs0mg"},{"bike_id":"afa0f5b9-941f-4706-bce1-06b4f8c7fff8","system_id":"levelo_inurba_marseille","lat":43.30523,"lon":5.36712,"is_reserved":false,"is_disabled":false,"rental_uris":{"android":"levelo://app?vid=afa0f5b9-941f-4706-bce1-06b4f8c7fff8","ios":"levelo://app?vid=afa0f5b9-941f-4706-bce1-06b4f8c7fff8"},"vehicle_type_id":"4","last_reported":1753186944,"current_range_meters":20400,"station_id":"ce4bgrp2rcd13ifvqc9g","pricing_plan_id":"cebpf4jnsgd1na2vs0mg"},{"bike_id":"53e00d07-902e-4a9a-8336-5a1cfb4f3bd0","system_id":"levelo_inurba_marseille","lat":43.23148,"lon":5.43718,"is_reserved":false,"is_disabled":false,"rental_uris":{"android":"levelo://app?vid=53e00d07-902e-4a9a-8336-5a1cfb4f3bd0","ios":"levelo://app?vid=53e00d07-902e-4a9a-8336-5a1cfb4f3bd0"},"vehicle_type_id":"4","last_reported":1753186944,"current_range_meters":20400,"station_id":"ce4bhmp2rcd13ifvqgog","pricing_plan_id":"cebpf4jnsgd1na2vs0mg"},{"bike_id":"6f03813a-be0d-47e4-9856-28e2253c88f9","system_id":"levelo_inurba_marseille","lat":43.31698,"lon":5.38866,"is_reserved":false,"is_disabled":false,"rental_uris":{"android":"levelo://app?vid=6f03813a-be0d-47e4-9856-28e2253c88f9","ios":"levelo://app?vid=6f03813a-be0d-47e4-9856-28e2253c88f9"},"vehicle_type_id":"4","last_reported":1753186944,"current_range_meters":20400,"station_id":"","pricing_plan_id":"cebpf4jnsgd1na2vs0mg"},{"bike_id":"a0e5ac32-bdfb-43b5-909f-56640272599c","system_id":"levelo_inurba_marseille","lat":43.30886,"lon":5.37207,"is_reserved":false,"is_disabled":false,"rental_uris":{"android":"levelo://app?vid=a0e5ac32-bdfb-43b5-909f-56640272599c","ios":"levelo://app?vid=a0e5ac32-bdfb-43b5-909f-56640272599c"},"vehicle_type_id":"4","last_reported":1753186944,"current_range_meters":20400,"station_id":"ce4bguh2rcd13ifvqckg","pricing_plan_id":"cebpf4jnsgd1na2vs0mg"},{"bike_id":"8812b629-4dc5-4c7f-90b2-97adf2f5269f","system_id":"levelo_inurba_marseille","lat":43.305189,"lon":5.367278,"is_reserved":false,"is_disabled":false,"rental_uris":{"android":"levelo://app?vid=8812b629-4dc5-4c7f-90b2-97adf2f5269f","ios":"levelo://app?vid=8812b629-4dc5-4c7f-90b2-97adf2f5269f"},"vehicle_type_id":"4","last_reported":1753186944,"current_range_meters":20400,"station_id":"","pricing_plan_id":"cebpf4jnsgd1na2vs0mg"},{"bike_id":"c3c109ca-9ee0-406b-b579-04eb498f21af","system_id":"levelo_inurba_marseille","lat":43.305364,"lon":5.366976,"is_reserved":false,"is_disabled":false,"rental_uris":{"android":"levelo://app?vid=c3c109ca-9ee0-406b-b579-04eb498f21af","ios":"levelo://app?vid=c3c109ca-9ee0-406b-b579-04eb498f21af"},"vehicle_type_id":"4","last_reported":1753186944,"current_range_meters":20400,"station_id":"ce4bgrp2rcd13ifvqc9g","pricing_plan_id":"cebpf4jnsgd1na2vs0mg"},{"bike_id":"2e2c2e4f-8b84-40c9-8ee7-83597e081307","system_id":"levelo_inurba_marseille","lat":43.26222,"lon":5.40445,"is_reserved":false,"is_disabled":false,"rental_uris":{"android":"levelo://app?vid=2e2c2e4f-8b84-40c9-8ee7-83597e081307","ios":"levelo://app?vid=2e2c2e4f-8b84-40c9-8ee7-83597e081307"},"vehicle_type_id":"4","last_reported":1753186944,"current_range_meters":20400,"station_id":"ce4bhmh2rcd13ifvqgmg","pricing_plan_id":"cebpf4jnsgd1na2vs0mg"},{"bike_id":"fc83aae7-e759-4365-95d2-221685602adc","system_id":"levelo_inurba_marseille","lat":43.27051,"lon":5.40266,"is_reserved":false,"is_disabled":false,"rental_uris":{"android":"levelo://app?vid=fc83aae7-e759-4365-95d2-221685602adc","ios":"levelo://app?vid=fc83aae7-e759-4365-95d2-221685602adc"},"vehicle_type_id":"4","last_reported":1753186944,"current_range_meters":20400,"station_id":"ce4bhk92rcd13ifvqgc0","pricing_plan_id":"cebpf4jnsgd1na2vs0mg"},{"bike_id":"8eb2cbcc-7d77-403b-9958-0b65e89d395e","system_id":"levelo_inurba_marseille","lat":43.305437,"lon":5.367028,"is_reserved":false,"is_disabled":false,"rental_uris":{"android":"levelo://app?vid=8eb2cbcc-7d77-403b-9958-0b65e89d395e","ios":"levelo://app?vid=8eb2cbcc-7d77-403b-9958-0b65e89d395e"},"vehicle_type_id":"4","last_reported":1753186944,"current_range_meters":20400,"station_id":"ce4bgrp2rcd13ifvqc9g","pricing_plan_id":"cebpf4jnsgd1na2vs0mg"},{"bike_id":"8561f519-754c-49d0-930e-2f1720bafb94","system_id":"levelo_inurba_marseille","lat":43.28567,"lon":5.39504,"is_reserved":false,"is_disabled":false,"rental_uris":{"android":"levelo://app?vid=8561f519-754c-49d0-930e-2f1720bafb94","ios":"levelo://app?vid=8561f519-754c-49d0-930e-2f1720bafb94"},"vehicle_type_id":"4","last_reported":1753186944,"current_range_meters":20000,"station_id":"ce4bh292rcd13ifvqdg0","pricing_plan_id":"cebpf4jnsgd1na2vs0mg"},{"bike_id":"8eddb6cd-bb3a-4bef-9277-bc844a81ccfe","system_id":"levelo_inurba_marseille","lat":43.23188,"lon":5.35579,"is_reserved":false,"is_disabled":false,"rental_uris":{"android":"levelo://app?vid=8eddb6cd-bb3a-4bef-9277-bc844a81ccfe","ios":"levelo://app?vid=8eddb6cd-bb3a-4bef-9277-bc844a81ccfe"},"vehicle_type_id":"4","last_reported":1753186944,"current_range_meters":20400,"station_id":"ce4bhu92rcd13ifvqi70","pricing_plan_id":"cebpf4jnsgd1na2vs0mg"},{"bike_id":"5cd8e48d-3bd6-4187-9343-c69c33bcff46","system_id":"levelo_inurba_marseille","lat":43.259283,"lon":5.409144,"is_reserved":false,"is_disabled":false,"rental_uris":{"android":"levelo://app?vid=5cd8e48d-3bd6-4187-9343-c69c33bcff46","ios":"levelo://app?vid=5cd8e48d-3bd6-4187-9343-c69c33bcff46"},"vehicle_type_id":"4","last_reported":1753186944,"current_range_meters":20400,"station_id":"ce4bhm92rcd13ifvqglg","pricing_plan_id":"cebpf4jnsgd1na2vs0mg"},{"bike_id":"3588be22-01d8-461d-8b87-a82d2edaf644","system_id":"levelo_inurba_marseille","lat":43.2511,"lon":5.40319,"is_reserved":false,"is_disabled":false,"rental_uris":{"android":"levelo://app?vid=3588be22-01d8-461d-8b87-a82d2edaf644","ios":"levelo://app?vid=3588be22-01d8-461d-8b87-a82d2edaf644"},"vehicle_type_id":"4","last_reported":1753186944,"current_range_meters":20800,"station_id":"ce4bhlh2rcd13ifvqgig","pricing_plan_id":"cebpf4jnsgd1na2vs0mg"},{"bike_id":"1b802d42-3648-44b8-ac62-6436211d74b4","system_id":"levelo_inurba_marseille","lat":43.2318,"lon":5.35556,"is_reserved":false,"is_disabled":false,"rental_uris":{"android":"levelo://app?vid=1b802d42-3648-44b8-ac62-6436211d74b4","ios":"levelo://app?vid=1b802d42-3648-44b8-ac62-6436211d74b4"},"vehicle_type_id":"4","last_reported":1753186944,"current_range_meters":20800,"station_id":"ce4bhu92rcd13ifvqi70","pricing_plan_id":"cebpf4jnsgd1na2vs0mg"},{"bike_id":"d4d78041-a6cd-4315-92e7-4528c92a02e6","system_id":"levelo_inurba_marseille","lat":43.28421,"lon":5.35009,"is_reserved":false,"is_disabled":false,"rental_uris":{"android":"levelo://app?vid=d4d78041-a6cd-4315-92e7-4528c92a02e6","ios":"levelo://app?vid=d4d78041-a6cd-4315-92e7-4528c92a02e6"},"vehicle_type_id":"4","last_reported":1753186944,"current_range_meters":20800,"station_id":"ce4bhbh2rcd13ifvqepg","pricing_plan_id":"cebpf4jnsgd1na2vs0mg"},{"bike_id":"0146b6c7-48ca-4e69-8ab8-6cca3006ad05","system_id":"levelo_inurba_marseille","lat":43.32345,"lon":5.3893,"is_reserved":false,"is_disabled":false,"rental_uris":{"android":"levelo://app?vid=0146b6c7-48ca-4e69-8ab8-6cca3006ad05","ios":"levelo://app?vid=0146b6c7-48ca-4e69-8ab8-6cca3006ad05"},"vehicle_type_id":"4","last_reported":1753186944,"current_range_meters":20800,"station_id":"ce4bhqp2rcd13ifvqhog","pricing_plan_id":"cebpf4jnsgd1na2vs0mg"},{"bike_id":"ee85beb4-9afe-42a9-a657-19921a4e229e","system_id":"levelo_inurba_marseille","lat":43.25483,"lon":5.37638,"is_reserved":false,"is_disabled":false,"rental_uris":{"android":"levelo://app?vid=ee85beb4-9afe-42a9-a657-19921a4e229e","ios":"levelo://app?vid=ee85beb4-9afe-42a9-a657-19921a4e229e"},"vehicle_type_id":"4","last_reported":1753186944,"current_range_meters":20800,"station_id":"ce4bhh12rcd13ifvqff0","pricing_plan_id":"cebpf4jnsgd1na2vs0mg"},{"bike_id":"a4fac98d-7172-44cf-9c88-1e3a3ccfe7e3","system_id":"levelo_inurba_marseille","lat":43.211943,"lon":5.350761,"is_reserved":false,"is_disabled":false,"rental_uris":{"android":"levelo://app?vid=a4fac98d-7172-44cf-9c88-1e3a3ccfe7e3","ios":"levelo://app?vid=a4fac98d-7172-44cf-9c88-1e3a3ccfe7e3"},"vehicle_type_id":"4","last_reported":1753186944,"current_range_meters":20800,"station_id":"st_cvj6sg6p6f1abm77japg","pricing_plan_id":"cebpf4jnsgd1na2vs0mg"},{"bike_id":"221db0e2-2f53-4f58-8477-10fafa4538e7","system_id":"levelo_inurba_marseille","lat":43.31489,"lon":5.37289,"is_reserved":false,"is_disabled":false,"rental_uris":{"android":"levelo://app?vid=221db0e2-2f53-4f58-8477-10fafa4538e7","ios":"levelo://app?vid=221db0e2-2f53-4f58-8477-10fafa4538e7"},"vehicle_type_id":"4","last_reported":1753186944,"current_range_meters":20800,"station_id":"ce4bgt12rcd13ifvqcd0","pricing_plan_id":"cebpf4jnsgd1na2vs0mg"},{"bike_id":"04277fd6-90c1-4127-a394-a6cdeb86953f","system_id":"levelo_inurba_marseille","lat":43.28613,"lon":5.35107,"is_reserved":false,"is_disabled":false,"rental_uris":{"android":"levelo://app?vid=04277fd6-90c1-4127-a394-a6cdeb86953f","ios":"levelo://app?vid=04277fd6-90c1-4127-a394-a6cdeb86953f"},"vehicle_type_id":"4","last_reported":1753186944,"current_range_meters":20800,"station_id":"ce4bhch2rcd13ifvqeug","pricing_plan_id":"cebpf4jnsgd1na2vs0mg"},{"bike_id":"2d2d4502-1bf3-4b60-9b1c-c35b91f0b7f1","system_id":"levelo_inurba_marseille","lat":43.2586,"lon":5.39905,"is_reserved":false,"is_disabled":false,"rental_uris":{"android":"levelo://app?vid=2d2d4502-1bf3-4b60-9b1c-c35b91f0b7f1","ios":"levelo://app?vid=2d2d4502-1bf3-4b60-9b1c-c35b91f0b7f1"},"vehicle_type_id":"4","last_reported":1753186944,"current_range_meters":20800,"station_id":"ce4bhl92rcd13ifvqghg","pricing_plan_id":"cebpf4jnsgd1na2vs0mg"},{"bike_id":"8d5d9355-7773-465f-9260-7fe2e3c5efd5","system_id":"levelo_inurba_marseille","lat":43.30542,"lon":5.36714,"is_reserved":false,"is_disabled":false,"rental_uris":{"android":"levelo://app?vid=8d5d9355-7773-465f-9260-7fe2e3c5efd5","ios":"levelo://app?vid=8d5d9355-7773-465f-9260-7fe2e3c5efd5"},"vehicle_type_id":"4","last_reported":1753186944,"current_range_meters":20800,"station_id":"ce4bgrp2rcd13ifvqc9g","pricing_plan_id":"cebpf4jnsgd1na2vs0mg"},{"bike_id":"b8e0df35-cefd-481d-a2d5-97ae4adb38c3","system_id":"levelo_inurba_marseille","lat":43.320496,"lon":5.41545,"is_reserved":false,"is_disabled":false,"rental_uris":{"android":"levelo://app?vid=b8e0df35-cefd-481d-a2d5-97ae4adb38c3","ios":"levelo://app?vid=b8e0df35-cefd-481d-a2d5-97ae4adb38c3"},"vehicle_type_id":"4","last_reported":1753186944,"current_range_meters":20800,"station_id":"ce4bhq92rcd13ifvqhkg","pricing_plan_id":"cebpf4jnsgd1na2vs0mg"},{"bike_id":"9e98a86f-daee-4cb4-9e6f-92813ca20416","system_id":"levelo_inurba_marseille","lat":43.24177,"lon":5.39723,"is_reserved":false,"is_disabled":false,"rental_uris":{"android":"levelo://app?vid=9e98a86f-daee-4cb4-9e6f-92813ca20416","ios":"levelo://app?vid=9e98a86f-daee-4cb4-9e6f-92813ca20416"},"vehicle_type_id":"4","last_reported":1753186944,"current_range_meters":20800,"station_id":"ce4bhn12rcd13ifvqgpg","pricing_plan_id":"cebpf4jnsgd1na2vs0mg"},{"bike_id":"3d30e9ec-a5d0-437d-9a6b-8d9c66613baf","system_id":"levelo_inurba_marseille","lat":43.29265,"lon":5.38433,"is_reserved":false,"is_disabled":false,"rental_uris":{"android":"levelo://app?vid=3d30e9ec-a5d0-437d-9a6b-8d9c66613baf","ios":"levelo://app?vid=3d30e9ec-a5d0-437d-9a6b-8d9c66613baf"},"vehicle_type_id":"4","last_reported":1753186944,"current_range_meters":20800,"station_id":"ce4bh692rcd13ifvqea0","pricing_plan_id":"cebpf4jnsgd1na2vs0mg"},{"bike_id":"2dcb426e-d4e8-434a-b506-37ceb3481eb0","system_id":"levelo_inurba_marseille","lat":43.30886,"lon":5.39636,"is_reserved":false,"is_disabled":false,"rental_uris":{"android":"levelo://app?vid=2dcb426e-d4e8-434a-b506-37ceb3481eb0","ios":"levelo://app?vid=2dcb426e-d4e8-434a-b506-37ceb3481eb0"},"vehicle_type_id":"4","last_reported":1753186944,"current_range_meters":20800,"station_id":"ce4bh012rcd13ifvqcv0","pricing_plan_id":"cebpf4jnsgd1na2vs0mg"},{"bike_id":"c1db6d06-3987-4239-9628-fb395cee1e0b","system_id":"levelo_inurba_marseille","lat":43.30782,"lon":5.3765,"is_reserved":false,"is_disabled":false,"rental_uris":{"android":"levelo://app?vid=c1db6d06-3987-4239-9628-fb395cee1e0b","ios":"levelo://app?vid=c1db6d06-3987-4239-9628-fb395cee1e0b"},"vehicle_type_id":"4","last_reported":1753186944,"current_range_meters":20800,"station_id":"ce4bgv92rcd13ifvqcq0","pricing_plan_id":"cebpf4jnsgd1na2vs0mg"},{"bike_id":"c0222a59-2bf7-47b7-93a6-6aa804f108df","system_id":"levelo_inurba_marseille","lat":43.21202,"lon":5.35111,"is_reserved":false,"is_disabled":false,"rental_uris":{"android":"levelo://app?vid=c0222a59-2bf7-47b7-93a6-6aa804f108df","ios":"levelo://app?vid=c0222a59-2bf7-47b7-93a6-6aa804f108df"},"vehicle_type_id":"4","last_reported":1753186944,"current_range_meters":20800,"station_id":"st_cvj6sg6p6f1abm77japg","pricing_plan_id":"cebpf4jnsgd1na2vs0mg"},{"bike_id":"53192bdd-90b3-4894-9a78-f0acfa33ac64","system_id":"levelo_inurba_marseille","lat":43.25711,"lon":5.41101,"is_reserved":false,"is_disabled":false,"rental_uris":{"android":"levelo://app?vid=53192bdd-90b3-4894-9a78-f0acfa33ac64","ios":"levelo://app?vid=53192bdd-90b3-4894-9a78-f0acfa33ac64"},"vehicle_type_id":"4","last_reported":1753186944,"current_range_meters":20800,"station_id":"ce4bhkp2rcd13ifvqgd0","pricing_plan_id":"cebpf4jnsgd1na2vs0mg"},{"bike_id":"d6c73b38-d766-467c-aeaa-91db094aa20c","system_id":"levelo_inurba_marseille","lat":43.286689,"lon":5.386663,"is_reserved":false,"is_disabled":true,"rental_uris":{"android":"levelo://app?vid=d6c73b38-d766-467c-aeaa-91db094aa20c","ios":"levelo://app?vid=d6c73b38-d766-467c-aeaa-91db094aa20c"},"vehicle_type_id":"4","last_reported":1753186944,"current_range_meters":21600,"station_id":"ce4bh492rcd13ifvqdug","pricing_plan_id":"cebpf4jnsgd1na2vs0mg"},{"bike_id":"d2de1130-ef64-4235-90ea-e58aca4634a5","system_id":"levelo_inurba_marseille","lat":43.30425,"lon":5.39741,"is_reserved":false,"is_disabled":false,"rental_uris":{"android":"levelo://app?vid=d2de1130-ef64-4235-90ea-e58aca4634a5","ios":"levelo://app?vid=d2de1130-ef64-4235-90ea-e58aca4634a5"},