{"last_updated":1700547024,"ttl":30,"version":"2.2","data":{"bikes":[{"bike_id":"381eaa6b-819b-4d6d-9c2e-45ee7288fae0","system_id":"levelo_inurba_marseille","lat":43.313391,"lon":5.36706,"is_reserved":false,"is_disabled":false,"rental_uris":{"android":"levelo://app?vid=381eaa6b-819b-4d6d-9c2e-45ee7288fae0","ios":"levelo://app?vid=381eaa6b-819b-4d6d-9c2e-45ee7288fae0"},"vehicle_type_id":"4","last_reported":1700547025,"current_range_meters":20000,"station_id":"ce4bgr92rcd13ifvqc6g","pricing_plan_id":"free"},{"bike_id":"d657245e-499c-4a78-8bb1-20c9e1bfd9bf","system_id":"levelo_inurba_marseille","lat":43.313391,"lon":5.36706,"is_reserved":false,"is_disabled":false,"rental_uris":{"android":"levelo://app?vid=d657245e-499c-4a78-8bb1-20c9e1bfd9bf","ios":"levelo://app?vid=d657245e-499c-4a78-8bb1-20c9e1bfd9bf"},"vehicle_type_id":"4","last_reported":1700547025,"current_range_meters":22800,"station_id":"ce4bgr92rcd13ifvqc6g","pricing_plan_id":"free"},{"bike_id":"b5e7abf5-58a5-42b2-a715-3a71e32603d2","system_id":"levelo_inurba_marseille","lat":43.312239,"lon":5.368562,"is_reserved":false,"is_disabled":false,"rental_uris":{"android":"levelo://app?vid=b5e7abf5-58a5-42b2-a715-3a71e32603d2","ios":"levelo://app?vid=b5e7abf5-58a5-42b2-a715-3a71e32603d2"},"vehicle_type_id":"4","last_reported":1700547025,"current_range_meters":14000,"station_id":"ce4bgl92rcd13ifvqbq0","pricing_plan_id":"free"},{"bike_id":"f9908ce0-ef6c-4422-8b3c-5057506c0eb5","system_id":"levelo_inurba_marseille","lat":43.312239,"lon":5.368562,"is_reserved":false,"is_disabled":false,"rental_uris":{"android":"levelo://app?vid=f9908ce0-ef6c-4422-8b3c-5057506c0eb5","ios":"levelo://app?vid=f9908ce0-ef6c-4422-8b3c-5057506c0eb5"},"vehicle_type_id":"4","last_reported":1700547025,"current_range_meters":29200,"station_id":"ce4bgl92rcd13ifvqbq0","pricing_plan_id":"free"},{"bike_id":"8d1d48c9-0336-40cb-b3a6-92d2d796da41","system_id":"levelo_inurba_marseille","lat":43.311544,"lon":5.368892,"is_reserved":false,"is_disabled":false,"rental_uris":{"android":"levelo://app?vid=8d1d48c9-0336-40cb-b3a6-92d2d796da41","ios":"levelo://app?vid=8d1d48c9-0336-40cb-b3a6-92d2d796da41"},"vehicle_type_id":"4","last_reported":1700547025,"current_range_meters":0,"station_id":"","pricing_plan_id":"free"},{"bike_id":"e06257f7-9e66-453f-adaa-6307e33ccdae","system_id":"levelo_inurba_marseille","lat":43.31211,"lon":5.37194,"is_reserved":false,"is_disabled":false,"rental_uris":{"android":"levelo://app?vid=e06257f7-9e66-453f-adaa-6307e33ccdae","ios":"levelo://app?vid=e06257f7-9e66-453f-adaa-6307e33ccdae"},"vehicle_type_id":"4","last_reported":1700547025,"current_range_meters":5600,"station_id":"","pricing_plan_id":"free"},{"bike_id":"841ee792-2879-4a49-8e9b-0f31cabdbac4","system_id":"levelo_inurba_marseille","lat":43.309076,"lon":5.368465,"is_reserved":false,"is_disabled":false,"rental_uris":{"android":"levelo://app?vid=841ee792-2879-4a49-8e9b-0f31cabdbac4","ios":"levelo://app?vid=841ee792-2879-4a49-8e9b-0f31cabdbac4"},"vehicle_type_id":"4","last_reported":1700547025,"current_range_meters":27200,"station_id":"ce4bgn92rcd13ifvqbvg","pricing_plan_id":"free"},{"bike_id":"14ead429-c547-47ed-a35b-85841b61ca40","system_id":"levelo_inurba_marseille","lat":43.308456,"lon":5.368689,"is_reserved":false,"is_disabled":false,"rental_uris":{"android":"levelo://app?vid=14ead429-c547-47ed-a35b-85841b61ca40","ios":"levelo://app?vid=14ead429-c547-47ed-a35b-85841b61ca40"},"vehicle_type_id":"4","last_reported":1700547025,"current_range_meters":18000,"station_id":"","pricing_plan_id":"free"},{"bike_id":"bfaa7c3e-e93b-47a7-86ca-279df251f24b","system_id":"levelo_inurba_marseille","lat":43.314811,"lon":5.373104,"is_reserved":false,"is_disabled":false,"rental_uris":{"android":"levelo://app?vid=bfaa7c3e-e93b-47a7-86ca-279df251f24b","ios":"levelo://app?vid=bfaa7c3e-e93b-47a7-86ca-279df251f24b"},"vehicle_type_id":"4","last_reported":1700547025,"current_range_meters":3600,"station_id":"ce4bgt12rcd13ifvqcd0","pricing_plan_id":"free"},{"bike_id":"5cc0a047-e5d1-4400-9e37-13b6840c7e27","system_id":"levelo_inurba_marseille","lat":43.314811,"lon":5.373104,"is_reserved":false,"is_disabled":false,"rental_uris":{"android":"levelo://app?vid=5cc0a047-e5d1-4400-9e37-13b6840c7e27","ios":"levelo://app?vid=5cc0a047-e5d1-4400-9e37-13b6840c7e27"},"vehicle_type_id":"4","last_reported":1700547025,"current_range_meters":0,"station_id":"ce4bgt12rcd13ifvqcd0","pricing_plan_id":"free"},{"bike_id":"09f74b07-b4a0-4746-be23-5eda5c1c36a5","system_id":"levelo_inurba_marseille","lat":43.315734,"lon":5.372501,"is_reserved":false,"is_disabled":false,"rental_uris":{"android":"levelo://app?vid=09f74b07-b4a0-4746-be23-5eda5c1c36a5","ios":"levelo://app?vid=09f74b07-b4a0-4746-be23-5eda5c1c36a5"},"vehicle_type_id":"4","last_reported":1700547025,"current_range_meters":16000,"station_id":"","pricing_plan_id":"free"},{"bike_id":"2bc311dc-da0b-403e-8cae-84f8764bc67c","system_id":"levelo_inurba_marseille","lat":43.30679,"lon":5.3679,"is_reserved":false,"is_disabled":false,"rental_uris":{"android":"levelo://app?vid=2bc311dc-da0b-403e-8cae-84f8764bc67c","ios":"levelo://app?vid=2bc311dc-da0b-403e-8cae-84f8764bc67c"},"vehicle_type_id":"4","last_reported":1700547025,"current_range_meters":4400,"station_id":"","pricing_plan_id":"free"},{"bike_id":"1f3a181e-3c6d-4b6b-a861-980b2280450e","system_id":"levelo_inurba_marseille","lat":43.305714,"lon":5.365633,"is_reserved":false,"is_disabled":false,"rental_uris":{"android":"levelo://app?vid=1f3a181e-3c6d-4b6b-a861-980b2280450e","ios":"levelo://app?vid=1f3a181e-3c6d-4b6b-a861-980b2280450e"},"vehicle_type_id":"4","last_reported":1700547025,"current_range_meters":6800,"station_id":"ce4bgs12rcd13ifvqcag","pricing_plan_id":"free"},{"bike_id":"0ace8a9f-b32e-4f50-8af3-0f3da5e104c2","system_id":"levelo_inurba_marseille","lat":43.30538,"lon":5.36712,"is_reserved":false,"is_disabled":false,"rental_uris":{"android":"levelo://app?vid=0ace8a9f-b32e-4f50-8af3-0f3da5e104c2","ios":"levelo://app?vid=0ace8a9f-b32e-4f50-8af3-0f3da5e104c2"},"vehicle_type_id":"4","last_reported":1700547025,"current_range_meters":3600,"station_id":"ce4bgrp2rcd13ifvqc9g","pricing_plan_id":"free"},{"bike_id":"790d8068-0ca3-4ee2-ac94-5b1995eb78d3","system_id":"levelo_inurba_marseille","lat":43.319728,"lon":5.370977,"is_reserved":false,"is_disabled":false,"rental_uris":{"android":"levelo://app?vid=790d8068-0ca3-4ee2-ac94-5b1995eb78d3","ios":"levelo://app?vid=790d8068-0ca3-4ee2-ac94-5b1995eb78d3"},"vehicle_type_id":"4","last_reported":1700547025,"current_range_meters":0,"station_id":"","pricing_plan_id":"free"},{"bike_id":"8c78c8fa-a482-4e5c-8df6-62b7c527ef2d","system_id":"levelo_inurba_marseille","lat":43.30599,"lon":5.37211,"is_reserved":false,"is_disabled":false,"rental_uris":{"android":"levelo://app?vid=8c78c8fa-a482-4e5c-8df6-62b7c527ef2d","ios":"levelo://app?vid=8c78c8fa-a482-4e5c-8df6-62b7c527ef2d"},"vehicle_type_id":"4","last_reported":1700547025,"current_range_meters":0,"station_id":"ce4bgqh2rcd13ifvqc4g","pricing_plan_id":"free"},{"bike_id":"a57adc60-d3eb-416a-85f4-6a3c3d9588c5","system_id":"levelo_inurba_marseille","lat":43.307749,"lon":5.376473,"is_reserved":false,"is_disabled":false,"rental_uris":{"android":"levelo://app?vid=a57adc60-d3eb-416a-85f4-6a3c3d9588c5","ios":"levelo://app?vid=a57adc60-d3eb-416a-85f4-6a3c3d9588c5"},"vehicle_type_id":"4","last_reported":1700547025,"current_range_meters":16800,"station_id":"ce4bgv92rcd13ifvqcq0","pricing_plan_id":"free"},{"bike_id":"124b1e7d-4a33-4518-81f0-4e664b1b21ed","system_id":"levelo_inurba_marseille","lat":43.307945,"lon":5.376487,"is_reserved":false,"is_disabled":false,"rental_uris":{"android":"levelo://app?vid=124b1e7d-4a33-4518-81f0-4e664b1b21ed","ios":"levelo://app?vid=124b1e7d-4a33-4518-81f0-4e664b1b21ed"},"vehicle_type_id":"4","last_reported":1700547025,"current_range_meters":30800,"station_id":"ce4bgv92rcd13ifvqcq0","pricing_plan_id":"free"},{"bike_id":"eb7fd6f1-f068-474d-afc0-ad12ff42faf6","system_id":"levelo_inurba_marseille","lat":43.317075,"lon":5.377367,"is_reserved":false,"is_disabled":false,"rental_uris":{"android":"levelo://app?vid=eb7fd6f1-f068-474d-afc0-ad12ff42faf6","ios":"levelo://app?vid=eb7fd6f1-f068-474d-afc0-ad12ff42faf6"},"vehicle_type_id":"4","last_reported":1700547025,"current_range_meters":28400,"station_id":"ce4bgth2rcd13ifvqch0","pricing_plan_id":"free"},{"bike_id":"65fedc3c-8b27-4473-a255-e256fb6b0871","system_id":"levelo_inurba_marseille","lat":43.303144,"lon":5.369129,"is_reserved":false,"is_disabled":false,"rental_uris":{"android":"levelo://app?vid=65fedc3c-8b27-4473-a255-e256fb6b0871","ios":"levelo://app?vid=65fedc3c-8b27-4473-a255-e256fb6b0871"},"vehicle_type_id":"4","last_reported":1700547025,"current_range_meters":30400,"station_id":"ce4bgqh2rcd13ifvqc5g","pricing_plan_id":"free"},{"bike_id":"8dacf36b-0f1c-45d4-bbde-4d12aac1bfe3","system_id":"levelo_inurba_marseille","lat":43.30313,"lon":5.36907,"is_reserved":false,"is_disabled":false,"rental_uris":{"android":"levelo://app?vid=8dacf36b-0f1c-45d4-bbde-4d12aac1bfe3","ios":"levelo://app?vid=8dacf36b-0f1c-45d4-bbde-4d12aac1bfe3"},"vehicle_type_id":"4","last_reported":1700547025,"current_range_meters":26800,"station_id":"ce4bgqh2rcd13ifvqc5g","pricing_plan_id":"free"},{"bike_id":"82f55002-f8a6-420b-aaf0-9014e681764a","system_id":"levelo_inurba_marseille","lat":43.30311,"lon":5.369085,"is_reserved":false,"is_disabled":false,"rental_uris":{"android":"levelo://app?vid=82f55002-f8a6-420b-aaf0-9014e681764a","ios":"levelo://app?vid=82f55002-f8a6-420b-aaf0-9014e681764a"},"vehicle_type_id":"4","last_reported":1700547025,"current_range_meters":29600,"station_id":"ce4bgqh2rcd13ifvqc5g","pricing_plan_id":"free"},{"bike_id":"8be26796-dd90-4fd4-9779-b1c6cc5c63a6","system_id":"levelo_inurba_marseille","lat":43.3019,"lon":5.3662,"is_reserved":false,"is_disabled":false,"rental_uris":{"android":"levelo://app?vid=8be26796-dd90-4fd4-9779-b1c6cc5c63a6","ios":"levelo://app?vid=8be26796-dd90-4fd4-9779-b1c6cc5c63a6"},"vehicle_type_id":"4","last_reported":1700547025,"current_range_meters":14400,"station_id":"ce4bgrh2rcd13ifvqc8g","pricing_plan_id":"free"},{"bike_id":"85bd6c6b-39bf-43a6-860d-5e58d02a366b","system_id":"levelo_inurba_marseille","lat":43.30188,"lon":5.36614,"is_reserved":false,"is_disabled":false,"rental_uris":{"android":"levelo://app?vid=85bd6c6b-39bf-43a6-860d-5e58d02a366b","ios":"levelo://app?vid=85bd6c6b-39bf-43a6-860d-5e58d02a366b"},"vehicle_type_id":"4","last_reported":1700547025,"current_range_meters":28000,"station_id":"ce4bgrh2rcd13ifvqc8g","pricing_plan_id":"free"},{"bike_id":"aa59807a-b2ca-47ec-a540-ffcf99beed6d","system_id":"levelo_inurba_marseille","lat":43.304606,"lon":5.379026,"is_reserved":false,"is_disabled":false,"rental_uris":{"android":"levelo://app?vid=aa59807a-b2ca-47ec-a540-ffcf99beed6d","ios":"levelo://app?vid=aa59807a-b2ca-47ec-a540-ffcf99beed6d"},"vehicle_type_id":"4","last_reported":1700547025,"current_range_meters":17200,"station_id":"ce4bgup2rcd13ifvqcn0","pricing_plan_id":"free"},{"bike_id":"3eb6b709-c8a3-465a-aa8d-08de9be098ec","system_id":"levelo_inurba_marseille","lat":43.304606,"lon":5.379026,"is_reserved":false,"is_disabled":false,"rental_uris":{"android":"levelo://app?vid=3eb6b709-c8a3-465a-aa8d-08de9be098ec","ios":"levelo://app?vid=3eb6b709-c8a3-465a-aa8d-08de9be098ec"},"vehicle_type_id":"4","last_reported":1700547025,"current_range_meters":31600,"station_id":"ce4bgup2rcd13ifvqcn0","pricing_plan_id":"free"},{"bike_id":"9effb7bd-fe93-4a49-aff1-443fa5a62203","system_id":"levelo_inurba_marseille","lat":43.304606,"lon":5.379026,"is_reserved":false,"is_disabled":false,"rental_uris":{"android":"levelo://app?vid=9effb7bd-fe93-4a49-aff1-443fa5a62203","ios":"levelo://app?vid=9effb7bd-fe93-4a49-aff1-443fa5a62203"},"vehicle_type_id":"4","last_reported":1700547025,"current_range_meters":24800,"station_id":"ce4bgup2rcd13ifvqcn0","pricing_plan_id":"free"},{"bike_id":"8008ceba-2131-4391-8537-dd4aa3fd84a9","system_id":"levelo_inurba_marseille","lat":43.304606,"lon":5.379026,"is_reserved":false,"is_disabled":false,"rental_uris":{"android":"levelo://app?vid=8008ceba-2131-4391-8537-dd4aa3fd84a9","ios":"levelo://app?vid=8008ceba-2131-4391-8537-dd4aa3fd84a9"},"vehicle_type_id":"4","last_reported":1700547025,"current_range_meters":23600,"station_id":"ce4bgup2rcd13ifvqcn0","pricing_plan_id":"free"},{"bike_id":"e10ca026-a264-439a-be32-718eecb7ad79","system_id":"levelo_inurba_marseille","lat":43.304606,"lon":5.379026,"is_reserved":false,"is_disabled":false,"rental_uris":{"android":"levelo://app?vid=e10ca026-a264-439a-be32-718eecb7ad79","ios":"levelo://app?vid=e10ca026-a264-439a-be32-718eecb7ad79"},"vehicle_type_id":"4","last_reported":1700547025,"current_range_meters":19200,"station_id":"ce4bgup2rcd13ifvqcn0","pricing_plan_id":"free"},{"bike_id":"e849b91b-c523-4793-930a-0b1b5407e900","system_id":"levelo_inurba_marseille","lat":43.304606,"lon":5.379026,"is_reserved":false,"is_disabled":false,"rental_uris":{"android":"levelo://app?vid=e849b91b-c523-4793-930a-0b1b5407e900","ios":"levelo://app?vid=e849b91b-c523-4793-930a-0b1b5407e900"},"vehicle_type_id":"4","last_reported":1700547025,"current_range_meters":25200,"station_id":"ce4bgup2rcd13ifvqcn0","pricing_plan_id":"free"},{"bike_id":"1c89510f-ca24-4528-813d-94db6257c804","system_id":"levelo_inurba_marseille","lat":43.304606,"lon":5.379026,"is_reserved":false,"is_disabled":false,"rental_uris":{"android":"levelo://app?vid=1c89510f-ca24-4528-813d-94db6257c804","ios":"levelo://app?vid=1c89510f-ca24-4528-813d-94db6257c804"},"vehicle_type_id":"4","last_reported":1700547025,"current_range_meters":25200,"station_id":"ce4bgup2rcd13ifvqcn0","pricing_plan_id":"free"},{"bike_id":"fdcf6bff-b06a-4b4c-992c-b900dc15588c","system_id":"levelo_inurba_marseille","lat":43.304606,"lon":5.379026,"is_reserved":false,"is_disabled":false,"rental_uris":{"android":"levelo://app?vid=fdcf6bff-b06a-4b4c-992c-b900dc15588c","ios":"levelo://app?vid=fdcf6bff-b06a-4b4c-992c-b900dc15588c"},"vehicle_type_id":"4","last_reported":1700547025,"current_range_meters":26000,"station_id":"ce4bgup2rcd13ifvqcn0","pricing_plan_id":"free"},{"bike_id":"54d6cb07-01f5-4e29-941e-dba9e3340313","system_id":"levelo_inurba_marseille","lat":43.304606,"lon":5.379026,"is_reserved":false,"is_disabled":false,"rental_uris":{"android":"levelo://app?vid=54d6cb07-01f5-4e29-941e-dba9e3340313","ios":"levelo://app?vid=54d6cb07-01f5-4e29-941e-dba9e3340313"},"vehicle_type_id":"4","last_reported":1700547025,"current_range_meters":31600,"station_id":"ce4bgup2rcd13ifvqcn0","pricing_plan_id":"free"},{"bike_id":"2f7990e2-3a91-400a-abd6-175365717282","system_id":"levelo_inurba_marseille","lat":43.304606,"lon":5.379026,"is_reserved":false,"is_disabled":false,"rental_uris":{"android":"levelo://app?vid=2f7990e2-3a91-400a-abd6-175365717282","ios":"levelo://app?vid=2f7990e2-3a91-400a-abd6-175365717282"},"vehicle_type_id":"4","last_reported":1700547025,"current_range_meters":28400,"station_id":"ce4bgup2rcd13ifvqcn0","pricing_plan_id":"free"},{"bike_id":"f12f801d-b957-4ed6-ab2e-39d595d3d8e9","system_id":"levelo_inurba_marseille","lat":43.304606,"lon":5.379026,"is_reserved":false,"is_disabled":false,"rental_uris":{"android":"levelo://app?vid=f12f801d-b957-4ed6-ab2e-39d595d3d8e9","ios":"levelo://app?vid=f12f801d-b957-4ed6-ab2e-39d595d3d8e9"},"vehicle_type_id":"4","last_reported":1700547025,"current_range_meters":28000,"station_id":"ce4bgup2rcd13ifvqcn0","pricing_plan_id":"free"},{"bike_id":"a7be3f2c-19a8-47e5-bc56-89aba1bcad9b","system_id":"levelo_inurba_marseille","lat":43.304606,"lon":5.379026,"is_reserved":false,"is_disabled":false,"rental_uris":{"android":"levelo://app?vid=a7be3f2c-19a8-47e5-bc56-89aba1bcad9b","ios":"levelo://app?vid=a7be3f2c-19a8-47e5-bc56-89aba1bcad9b"},"vehicle_type_id":"4","last_reported":1700547025,"current_range_meters":31600,"station_id":"ce4bgup2rcd13ifvqcn0","pricing_plan_id":"free"},{"bike_id":"aabe8130-3e22-4a10-9c84-14f04cabc325","system_id":"levelo_inurba_marseille","lat":43.304606,"lon":5.379026,"is_reserved":false,"is_disabled":false,"rental_uris":{"android":"levelo://app?vid=aabe8130-3e22-4a10-9c84-14f04cabc325","ios":"levelo://app?vid=aabe8130-3e22-4a10-9c84-14f04cabc325"},"vehicle_type_id":"4","last_reported":1700547025,"current_range_meters":24000,"station_id":"ce4bgup2rcd13ifvqcn0","pricing_plan_id":"free"},{"bike_id":"5257b416-5b8d-4650-89e4-6bc2920126fc","system_id":"levelo_inurba_marseille","lat":43.304606,"lon":5.379026,"is_reserved":false,"is_disabled":false,"rental_uris":{"android":"levelo://app?vid=5257b416-5b8d-4650-89e4-6bc2920126fc","ios":"levelo://app?vid=5257b416-5b8d-4650-89e4-6bc2920126fc"},"vehicle_type_id":"4","last_reported":1700547025,"current_range_meters":20400,"station_id":"ce4bgup2rcd13ifvqcn0","pricing_plan_id":"free"},{"bike_id":"b3f7941f-4cda-4570-9e9c-6559f3109832","system_id":"levelo_inurba_marseille","lat":43.304606,"lon":5.379026,"is_reserved":false,"is_disabled":false,"rental_uris":{"android":"levelo://app?vid=b3f7941f-4cda-4570-9e9c-6559f3109832","ios":"levelo://app?vid=b3f7941f-4cda-4570-9e9c-6559f3109832"},"vehicle_type_id":"4","last_reported":1700547025,"current_range_meters":26400,"station_id":"ce4bgup2rcd13ifvqcn0","pricing_plan_id":"free"},{"bike_id":"e6068351-17f7-434a-8cb7-98af3fb93eb9","system_id":"levelo_inurba_marseille","lat":43.304606,"lon":5.379026,"is_reserved":false,"is_disabled":false,"rental_uris":{"android":"levelo://app?vid=e6068351-17f7-434a-8cb7-98af3fb93eb9","ios":"levelo://app?vid=e6068351-17f7-434a-8cb7-98af3fb93eb9"},"vehicle_type_id":"4","last_reported":1700547025,"current_range_meters":10000,"station_id":"ce4bgup2rcd13ifvqcn0","pricing_plan_id":"free"},{"bike_id":"f434b162-4a98-489d-9df9-5fed46537b66","system_id":"levelo_inurba_marseille","lat":43.304606,"lon":5.379026,"is_reserved":false,"is_disabled":false,"rental_uris":{"android":"levelo://app?vid=f434b162-4a98-489d-9df9-5fed46537b66","ios":"levelo://app?vid=f434b162-4a98-489d-9df9-5fed46537b66"},"vehicle_type_id":"4","last_reported":1700547025,"current_range_meters":25600,"station_id":"ce4bgup2rcd13ifvqcn0","pricing_plan_id":"free"},{"bike_id":"5cb46cef-40d5-425f-931d-d42ae64ab43e","system_id":"levelo_inurba_marseille","lat":43.32476,"lon":5.36561,"is_reserved":false,"is_disabled":false,"rental_uris":{"android":"levelo://app?vid=5cb46cef-40d5-425f-931d-d42ae64ab43e","ios":"levelo://app?vid=5cb46cef-40d5-425f-931d-d42ae64ab43e"},"vehicle_type_id":"4","last_reported":1700547025,"current_range_meters":17600,"station_id":"ce4bhs12rcd13ifvqhvg","pricing_plan_id":"free"},{"bike_id":"b63682ef-2bd5-4f75-8ff1-2afec5ef761e","system_id":"levelo_inurba_marseille","lat":43.304606,"lon":5.379026,"is_reserved":false,"is_disabled":false,"rental_uris":{"android":"levelo://app?vid=b63682ef-2bd5-4f75-8ff1-2afec5ef761e","ios":"levelo://app?vid=b63682ef-2bd5-4f75-8ff1-2afec5ef761e"},"vehicle_type_id":"4","last_reported":1700547025,"current_range_meters":26800,"station_id":"ce4bgup2rcd13ifvqcn0","pricing_plan_id":"free"},{"bike_id":"0474a9fd-b278-44bd-a0ab-e2909ab85e71","system_id":"levelo_inurba_marseille","lat":43.30143,"lon":5.37413,"is_reserved":false,"is_disabled":false,"rental_uris":{"android":"levelo://app?vid=0474a9fd-b278-44bd-a0ab-e2909ab85e71","ios":"levelo://app?vid=0474a9fd-b278-44bd-a0ab-e2909ab85e71"},"vehicle_type_id":"4","last_reported":1700547025,"current_range_meters":31600,"station_id":"ce4bgs92rcd13ifvqcc0","pricing_plan_id":"free"},{"bike_id":"8573539b-f968-4583-94f3-eccd28912abd","system_id":"levelo_inurba_marseille","lat":43.302784,"lon":5.377158,"is_reserved":false,"is_disabled":false,"rental_uris":{"android":"levelo://app?vid=8573539b-f968-4583-94f3-eccd28912abd","ios":"levelo://app?vid=8573539b-f968-4583-94f3-eccd28912abd"},"vehicle_type_id":"4","last_reported":1700547025,"current_range_meters":26800,"station_id":"ce4bguh2rcd13ifvqcj0","pricing_plan_id":"free"},{"bike_id":"02d39fc4-7d34-43b1-afb5-24d3d2f2290f","system_id":"levelo_inurba_marseille","lat":43.30143,"lon":5.37413,"is_reserved":false,"is_disabled":false,"rental_uris":{"android":"levelo://app?vid=02d39fc4-7d34-43b1-afb5-24d3d2f2290f","ios":"levelo://app?vid=02d39fc4-7d34-43b1-afb5-24d3d2f2290f"},"vehicle_type_id":"4","last_reported":1700547025,"current_range_meters":30000,"station_id":"ce4bgs92rcd13ifvqcc0","pricing_plan_id":"free"},{"bike_id":"33787db3-ee72-4248-a048-7b4f9fffdde1","system_id":"levelo_inurba_marseille","lat":43.301429,"lon":5.37413,"is_reserved":false,"is_disabled":false,"rental_uris":{"android":"levelo://app?vid=33787db3-ee72-4248-a048-7b4f9fffdde1","ios":"levelo://app?vid=33787db3-ee72-4248-a048-7b4f9fffdde1"},"vehicle_type_id":"4","last_reported":1700547025,"current_range_meters":27600,"station_id":"ce4bgs92rcd13ifvqcc0","pricing_plan_id":"free"},{"bike_id":"0cf6c103-baa6-4495-88b5-c0562c4dbe9b","system_id":"levelo_inurba_marseille","lat":43.301429,"lon":5.37413,"is_reserved":false,"is_disabled":false,"rental_uris":{"android":"levelo://app?vid=0cf6c103-baa6-4495-88b5-c0562c4dbe9b","ios":"levelo://app?vid=0cf6c103-baa6-4495-88b5-c0562c4dbe9b"},"vehicle_type_id":"4","last_reported":1700547025,"current_range_meters":30000,"station_id":"ce4bgs92rcd13ifvqcc0","pricing_plan_id":"free"},{"bike_id":"45b6d444-b644-4faa-a554-c920a523d237","system_id":"levelo_inurba_marseille","lat":43.319926,"lon":5.381483,"is_reserved":false,"is_disabled":false,"rental_uris":{"android":"levelo://app?vid=45b6d444-b644-4faa-a554-c920a523d237","ios":"levelo://app?vid=45b6d444-b644-4faa-a554-c920a523d237"},"vehicle_type_id":"4","last_reported":1700547025,"current_range_meters":18000,"station_id":"ce4bhr12rcd13ifvqhpg","pricing_plan_id":"free"},{"bike_id":"b2cb52f1-d7b7-407f-867d-b6c3409cd2b9","system_id":"levelo_inurba_marseille","lat":43.29941,"lon":5.36543,"is_reserved":false,"is_disabled":false,"rental_uris":{"android":"levelo://app?vid=b2cb52f1-d7b7-407f-867d-b6c3409cd2b9","ios":"levelo://app?vid=b2cb52f1-d7b7-407f-867d-b6c3409cd2b9"},"vehicle_type_id":"4","last_reported":1700547025,"current_range_meters":26000,"station_id":"ce4bgm92rcd13ifvqbr0","pricing_plan_id":"free"},{"bike_id":"c0b1b3a0-8809-4365-bfed-70c9be4bb402","system_id":"levelo_inurba_marseille","lat":43.29845,"lon":5.36275,"is_reserved":false,"is_disabled":false,"rental_uris":{"android":"levelo://app?vid=c0b1b3a0-8809-4365-bfed-70c9be4bb402","ios":"levelo://app?vid=c0b1b3a0-8809-4365-bfed-70c9be4bb402"},"vehicle_type_id":"4","last_reported":1700547025,"current_range_meters":0,"station_id":"ce4bgpp2rcd13ifvqc3g","pricing_plan_id":"free"},{"bike_id":"6d972e58-9f80-4dc0-97ca-7f5d438e2170","system_id":"levelo_inurba_marseille","lat":43.29918,"lon":5.37454,"is_reserved":false,"is_disabled":false,"rental_uris":{"android":"levelo://app?vid=6d972e58-9f80-4dc0-97ca-7f5d438e2170","ios":"levelo://app?vid=6d972e58-9f80-4dc0-97ca-7f5d438e2170"},"vehicle_type_id":"4","last_reported":1700547025,"current_range_meters":19200,"station_id":"ce4bgjh2rcd13ifvqbg0","pricing_plan_id":"free"},{"bike_id":"ed81c766-9880-41f3-9d4b-5110bdd0084f","system_id":"levelo_inurba_marseille","lat":43.305364,"lon":5.384119,"is_reserved":false,"is_disabled":false,"rental_uris":{"android":"levelo://app?vid=ed81c766-9880-41f3-9d4b-5110bdd0084f","ios":"levelo://app?vid=ed81c766-9880-41f3-9d4b-5110bdd0084f"},"vehicle_type_id":"4","last_reported":1700547025,"current_range_meters":28400,"station_id":"ce4bgg92rcd13ifvqb30","pricing_plan_id":"free"},{"bike_id":"a2954210-3934-42af-9ab2-e4361acf2249","system_id":"levelo_inurba_marseille","lat":43.311722,"lon":5.387247,"is_reserved":false,"is_disabled":false,"rental_uris":{"android":"levelo://app?vid=a2954210-3934-42af-9ab2-e4361acf2249","ios":"levelo://app?vid=a2954210-3934-42af-9ab2-e4361acf2249"},"vehicle_type_id":"4","last_reported":1700547025,"current_range_meters":31600,"station_id":"ce4bgv12rcd13ifvqcp0","pricing_plan_id":"free"},{"bike_id":"cb4d2ae5-f160-4767-a697-654901f078ee","system_id":"levelo_inurba_marseille","lat":43.2991,"lon":5.37471,"is_reserved":false,"is_disabled":false,"rental_uris":{"android":"levelo://app?vid=cb4d2ae5-f160-4767-a697-654901f078ee","ios":"levelo://app?vid=cb4d2ae5-f160-4767-a697-654901f078ee"},"vehicle_type_id":"4","last_reported":1700547025,"current_range_meters":0,"station_id":"ce4bgjh2rcd13ifvqbg0","pricing_plan_id":"free"},{"bike_id":"d9a95eb2-3ca7-4d5c-ae71-fae5be7a5a02","system_id":"levelo_inurba_marseille","lat":43.29811,"lon":5.37099,"is_reserved":false,"is_disabled":false,"rental_uris":{"android":"levelo://app?vid=d9a95eb2-3ca7-4d5c-ae71-fae5be7a5a02","ios":"levelo://app?vid=d9a95eb2-3ca7-4d5c-ae71-fae5be7a5a02"},"vehicle_type_id":"4","last_reported":1700547025,"current_range_meters":17200,"station_id":"ce4bgop2rcd13ifvqc1g","pricing_plan_id":"free"},{"bike_id":"8f48367f-c67e-4ae9-a0ec-8671c6efbe3c","system_id":"levelo_inurba_marseille","lat":43.322872,"lon":5.382756,"is_reserved":false,"is_disabled":false,"rental_uris":{"android":"levelo://app?vid=8f48367f-c67e-4ae9-a0ec-8671c6efbe3c","ios":"levelo://app?vid=8f48367f-c67e-4ae9-a0ec-8671c6efbe3c"},"vehicle_type_id":"4","last_reported":1700547025,"current_range_meters":31600,"station_id":"ce4bhr12rcd13ifvqhqg","pricing_plan_id":"free"},{"bike_id":"e13f952a-c1cd-445a-869b-c7b187398abd","system_id":"levelo_inurba_marseille","lat":43.322872,"lon":5.382756,"is_reserved":false,"is_disabled":false,"rental_uris":{"android":"levelo://app?vid=e13f952a-c1cd-445a-869b-c7b187398abd","ios":"levelo://app?vid=e13f952a-c1cd-445a-869b-c7b187398abd"},"vehicle_type_id":"4","last_reported":1700547025,"current_range_meters":24800,"station_id":"ce4bhr12rcd13ifvqhqg","pricing_plan_id":"free"},{"bike_id":"33f7a205-a0fa-45aa-8dec-d47c850fa3fa","system_id":"levelo_inurba_marseille","lat":43.297261,"lon":5.370124,"is_reserved":false,"is_disabled":false,"rental_uris":{"android":"levelo://app?vid=33f7a205-a0fa-45aa-8dec-d47c850fa3fa","ios":"levelo://app?vid=33f7a205-a0fa-45aa-8dec-d47c850fa3fa"},"vehicle_type_id":"4","last_reported":1700547025,"current_range_meters":2400,"station_id":"","pricing_plan_id":"free"},{"bike_id":"34a0e54a-a3c3-4696-9138-a24d7cd7a52e","system_id":"levelo_inurba_marseille","lat":43.29709,"lon":5.36624,"is_reserved":false,"is_disabled":false,"rental_uris":{"android":"levelo://app?vid=34a0e54a-a3c3-4696-9138-a24d7cd7a52e","ios":"levelo://app?vid=34a0e54a-a3c3-4696-9138-a24d7cd7a52e"},"vehicle_type_id":"4","last_reported":1700547025,"current_range_meters":30400,"station_id":"ce4bgn12rcd13ifvqbt0","pricing_plan_id":"free"},{"bike_id":"293c4f59-5e14-45f3-a364-846be1453300","system_id":"levelo_inurba_marseille","lat":43.299638,"lon":5.379181,"is_reserved":false,"is_disabled":false,"rental_uris":{"android":"levelo://app?vid=293c4f59-5e14-45f3-a364-846be1453300","ios":"levelo://app?vid=293c4f59-5e14-45f3-a364-846be1453300"},"vehicle_type_id":"4","last_reported":1700547025,"current_range_meters":0,"station_id":"","pricing_plan_id":"free"},{"bike_id":"d64a6339-bfe2-4036-b5b8-e587b73ace66","system_id":"levelo_inurba_marseille","lat":43.29573,"lon":5.367355,"is_reserved":false,"is_disabled":false,"rental_uris":{"android":"levelo://app?vid=d64a6339-bfe2-4036-b5b8-e587b73ace66","ios":"levelo://app?vid=d64a6339-bfe2-4036-b5b8-e587b73ace66"},"vehicle_type_id":"4","last_reported":1700547025,"current_range_meters":27200,"station_id":"ce4bgph2rcd13ifvqc2g","pricing_plan_id":"free"},{"bike_id":"dd9a371c-35b5-47d2-b4a9-cea5e6ac8924","system_id":"levelo_inurba_marseille","lat":43.296131,"lon":5.370791,"is_reserved":false,"is_disabled":false,"rental_uris":{"android":"levelo://app?vid=dd9a371c-35b5-47d2-b4a9-cea5e6ac8924","ios":"levelo://app?vid=dd9a371c-35b5-47d2-b4a9-cea5e6ac8924"},"vehicle_type_id":"4","last_reported":1700547025,"current_range_meters":28000,"station_id":"ce4bgnh2rcd13ifvqc0g","pricing_plan_id":"free"},{"bike_id":"beaf4826-233c-4c85-9560-90cfb365f8ed","system_id":"levelo_inurba_marseille","lat":43.296131,"lon":5.370791,"is_reserved":false,"is_disabled":false,"rental_uris":{"android":"levelo://app?vid=beaf4826-233c-4c85-9560-90cfb365f8ed","ios":"levelo://app?vid=beaf4826-233c-4c85-9560-90cfb365f8ed"},"vehicle_type_id":"4","last_reported":1700547025,"current_range_meters":30400,"station_id":"ce4bgnh2rcd13ifvqc0g","pricing_plan_id":"free"},{"bike_id":"74a2226e-089e-4939-933d-4b21e054effb","system_id":"levelo_inurba_marseille","lat":43.296129,"lon":5.370777,"is_reserved":false,"is_disabled":false,"rental_uris":{"android":"levelo://app?vid=74a2226e-089e-4939-933d-4b21e054effb","ios":"levelo://app?vid=74a2226e-089e-4939-933d-4b21e054effb"},"vehicle_type_id":"4","last_reported":1700547025,"current_range_meters":30800,"station_id":"ce4bgnh2rcd13ifvqc0g","pricing_plan_id":"free"},{"bike_id":"b5f197ba-07bf-4282-9b1f-425dfd47e68c","system_id":"levelo_inurba_marseille","lat":43.296131,"lon":5.370791,"is_reserved":false,"is_disabled":false,"rental_uris":{"android":"levelo://app?vid=b5f197ba-07bf-4282-9b1f-425dfd47e68c","ios":"levelo://app?vid=b5f197ba-07bf-4282-9b1f-425dfd47e68c"},"vehicle_type_id":"4","last_reported":1700547025,"current_range_meters":31200,"station_id":"ce4bgnh2rcd13ifvqc0g","pricing_plan_id":"free"},{"bike_id":"6af2445d-d563-498f-b713-fe476204572e","system_id":"levelo_inurba_marseille","lat":43.296131,"lon":5.370791,"is_reserved":false,"is_disabled":false,"rental_uris":{"android":"levelo://app?vid=6af2445d-d563-498f-b713-fe476204572e","ios":"levelo://app?vid=6af2445d-d563-498f-b713-fe476204572e"},"vehicle_type_id":"4","last_reported":1700547025,"current_range_meters":30000,"station_id":"ce4bgnh2rcd13ifvqc0g","pricing_plan_id":"free"},{"bike_id":"0102a8b6-d070-4ef3-9687-264e0f015384","system_id":"levelo_inurba_marseille","lat":43.296129,"lon":5.370777,"is_reserved":false,"is_disabled":false,"rental_uris":{"android":"levelo://app?vid=0102a8b6-d070-4ef3-9687-264e0f015384","ios":"levelo://app?vid=0102a8b6-d070-4ef3-9687-264e0f015384"},"vehicle_type_id":"4","last_reported":1700547025,"current_range_meters":28000,"station_id":"ce4bgnh2rcd13ifvqc0g","pricing_plan_id":"free"},{"bike_id":"876c7dc0-06ae-4404-b104-5388b4a1baf0","system_id":"levelo_inurba_marseille","lat":43.296129,"lon":5.370777,"is_reserved":false,"is_disabled":false,"rental_uris":{"android":"levelo://app?vid=876c7dc0-06ae-4404-b104-5388b4a1baf0","ios":"levelo://app?vid=876c7dc0-06ae-4404-b104-5388b4a1baf0"},"vehicle_type_id":"4","last_reported":1700547025,"current_range_meters":29600,"station_id":"ce4bgnh2rcd13ifvqc0g","pricing_plan_id":"free"},{"bike_id":"9a338123-036e-4113-a442-533c5798fbec","system_id":"levelo_inurba_marseille","lat":43.296129,"lon":5.370777,"is_reserved":false,"is_disabled":false,"rental_uris":{"android":"levelo://app?vid=9a338123-036e-4113-a442-533c5798fbec","ios":"levelo://app?vid=9a338123-036e-4113-a442-533c5798fbec"},"vehicle_type_id":"4","last_reported":1700547025,"current_range_meters":30800,"station_id":"ce4bgnh2rcd13ifvqc0g","pricing_plan_id":"free"},{"bike_id":"5aaba369-13fa-4680-a9b3-f0eaf67544f7","system_id":"levelo_inurba_marseille","lat":43.296921,"lon":5.376579,"is_reserved":false,"is_disabled":false,"rental_uris":{"android":"levelo://app?vid=5aaba369-13fa-4680-a9b3-f0eaf67544f7","ios":"levelo://app?vid=5aaba369-13fa-4680-a9b3-f0eaf67544f7"},"vehicle_type_id":"4","last_reported":1700547025,"current_range_meters":25600,"station_id":"ce4bgkh2rcd13ifvqbl0","pricing_plan_id":"free"},{"bike_id":"841db03c-79e2-40e6-a56f-5ef9b0974d5d","system_id":"levelo_inurba_marseille","lat":43.296921,"lon":5.376579,"is_reserved":false,"is_disabled":false,"rental_uris":{"android":"levelo://app?vid=841db03c-79e2-40e6-a56f-5ef9b0974d5d","ios":"levelo://app?vid=841db03c-79e2-40e6-a56f-5ef9b0974d5d"},"vehicle_type_id":"4","last_reported":1700547025,"current_range_meters":28000,"station_id":"ce4bgkh2rcd13ifvqbl0","pricing_plan_id":"free"},{"bike_id":"76573f53-50f3-4d73-8ad5-c45a7565c29e","system_id":"levelo_inurba_marseille","lat":43.299028,"lon":5.381509,"is_reserved":false,"is_disabled":false,"rental_uris":{"android":"levelo://app?vid=76573f53-50f3-4d73-8ad5-c45a7565c29e","ios":"levelo://app?vid=76573f53-50f3-4d73-8ad5-c45a7565c29e"},"vehicle_type_id":"4","last_reported":1700547025,"current_range_meters":30000,"station_id":"ce4bgj12rcd13ifvqbc0","pricing_plan_id":"free"},{"bike_id":"10206c85-ebb1-404e-bca0-8d483ea26abf","system_id":"levelo_inurba_marseille","lat":43.299028,"lon":5.381509,"is_reserved":false,"is_disabled":false,"rental_uris":{"android":"levelo://app?vid=10206c85-ebb1-404e-bca0-8d483ea26abf","ios":"levelo://app?vid=10206c85-ebb1-404e-bca0-8d483ea26abf"},"vehicle_type_id":"4","last_reported":1700547025,"current_range_meters":30800,"station_id":"ce4bgj12rcd13ifvqbc0","pricing_plan_id":"free"},{"bike_id":"e0e7b3ce-f1db-4de2-a1a0-9762d4a55736","system_id":"levelo_inurba_marseille","lat":43.299028,"lon":5.381509,"is_reserved":false,"is_disabled":false,"rental_uris":{"android":"levelo://app?vid=e0e7b3ce-f1db-4de2-a1a0-9762d4a55736","ios":"levelo://app?vid=e0e7b3ce-f1db-4de2-a1a0-9762d4a55736"},"vehicle_type_id":"4","last_reported":1700547025,"current_range_meters":21200,"station_id":"ce4bgj12rcd13ifvqbc0","pricing_plan_id":"free"},{"bike_id":"0289af43-66e5-4057-b27e-95684714f45d","system_id":"levelo_inurba_marseille","lat":43.296935,"lon":5.376544,"is_reserved":false,"is_disabled":false,"rental_uris":{"android":"levelo://app?vid=0289af43-66e5-4057-b27e-95684714f45d","ios":"levelo://app?vid=0289af43-66e5-4057-b27e-95684714f45d"},"vehicle_type_id":"4","last_reported":1700547025,"current_range_meters":30400,"station_id":"ce4bgkh2rcd13ifvqbl0","pricing_plan_id":"free"},{"bike_id":"4d20ffa8-a205-40d2-83aa-7f6369e9411d","system_id":"levelo_inurba_marseille","lat":43.309589,"lon":5.390258,"is_reserved":false,"is_disabled":false,"rental_uris":{"android":"levelo://app?vid=4d20ffa8-a205-40d2-83aa-7f6369e9411d","ios":"levelo://app?vid=4d20ffa8-a205-40d2-83aa-7f6369e9411d"},"vehicle_type_id":"4","last_reported":1700547025,"current_range_meters":30800,"station_id":"ce4bgup2rcd13ifvqco0","pricing_plan_id":"free"},{"bike_id":"8e69b43c-570c-4d1a-b4da-794aad5fcb75","system_id":"levelo_inurba_marseille","lat":43.309589,"lon":5.390258,"is_reserved":false,"is_disabled":false,"rental_uris":{"android":"levelo://app?vid=8e69b43c-570c-4d1a-b4da-794aad5fcb75","ios":"levelo://app?vid=8e69b43c-570c-4d1a-b4da-794aad5fcb75"},"vehicle_type_id":"4","last_reported":1700547025,"current_range_meters":30800,"station_id":"ce4bgup2rcd13ifvqco0","pricing_plan_id":"free"},{"bike_id":"19e5e59d-3036-4e10-bd3c-c2ffb7a2af7c","system_id":"levelo_inurba_marseille","lat":43.31458,"lon":5.39086,"is_reserved":false,"is_disabled":false,"rental_uris":{"android":"levelo://app?vid=19e5e59d-3036-4e10-bd3c-c2ffb7a2af7c","ios":"levelo://app?vid=19e5e59d-3036-4e10-bd3c-c2ffb7a2af7c"},"vehicle_type_id":"4","last_reported":1700547025,"current_range_meters":12400,"station_id":"","pricing_plan_id":"free"},{"bike_id":"719162f5-6c6a-46ba-89e2-ec3fba1221fa","system_id":"levelo_inurba_marseille","lat":43.298037,"lon":5.381066,"is_reserved":false,"is_disabled":false,"rental_uris":{"android":"levelo://app?vid=719162f5-6c6a-46ba-89e2-ec3fba1221fa","ios":"levelo://app?vid=719162f5-6c6a-46ba-89e2-ec3fba1221fa"},"vehicle_type_id":"4","last_reported":1700547025,"current_range_meters":25600,"station_id":"ce4bgip2rcd13ifvqbb0","pricing_plan_id":"free"},{"bike_id":"96954c47-9e58-4002-8b95-d5efb3411ebb","system_id":"levelo_inurba_marseille","lat":43.298037,"lon":5.381066,"is_reserved":false,"is_disabled":false,"rental_uris":{"android":"levelo://app?vid=96954c47-9e58-4002-8b95-d5efb3411ebb","ios":"levelo://app?vid=96954c47-9e58-4002-8b95-d5efb3411ebb"},"vehicle_type_id":"4","last_reported":1700547025,"current_range_meters":29600,"station_id":"ce4bgip2rcd13ifvqbb0","pricing_plan_id":"free"},{"bike_id":"6dddd1d5-2f3a-49bd-a860-47a7ac797b85","system_id":"levelo_inurba_marseille","lat":43.298037,"lon":5.381066,"is_reserved":false,"is_disabled":false,"rental_uris":{"android":"levelo://app?vid=6dddd1d5-2f3a-49bd-a860-47a7ac797b85","ios":"levelo://app?vid=6dddd1d5-2f3a-49bd-a860-47a7ac797b85"},"vehicle_type_id":"4","last_reported":1700547025,"current_range_meters":30400,"station_id":"ce4bgip2rcd13ifvqbb0","pricing_plan_id":"free"},{"bike_id":"dbfbc456-160f-40a3-a550-623081ce3d71","system_id":"levelo_inurba_marseille","lat":43.295748,"lon":5.37522,"is_reserved":false,"is_disabled":false,"rental_uris":{"android":"levelo://app?vid=dbfbc456-160f-40a3-a550-623081ce3d71","ios":"levelo://app?vid=dbfbc456-160f-40a3-a550-623081ce3d71"},"vehicle_type_id":"4","last_reported":1700547025,"current_range_meters":31600,"station_id":"ce4bgh92rcd13ifvqb50","pricing_plan_id":"free"},{"bike_id":"3059d4c1-3d42-4321-a339-0fea9a03ef82","system_id":"levelo_inurba_marseille","lat":43.328154,"lon":5.380034,"is_reserved":false,"is_disabled":false,"rental_uris":{"android":"levelo://app?vid=3059d4c1-3d42-4321-a339-0fea9a03ef82","ios":"levelo://app?vid=3059d4c1-3d42-4321-a339-0fea9a03ef82"},"vehicle_type_id":"4","last_reported":1700547025,"current_range_meters":0,"station_id":"","pricing_plan_id":"free"},{"bike_id":"e91e8f90-33d4-403b-9c43-657d0ad5563d","system_id":"levelo_inurba_marseille","lat":43.29613,"lon":5.37713,"is_reserved":false,"is_disabled":false,"rental_uris":{"android":"levelo://app?vid=e91e8f90-33d4-403b-9c43-657d0ad5563d","ios":"levelo://app?vid=e91e8f90-33d4-403b-9c43-657d0ad5563d"},"vehicle_type_id":"4","last_reported":1700547025,"current_range_meters":21200,"station_id":"ce4bgi92rcd13ifvqb90","pricing_plan_id":"free"},{"bike_id":"e46fb6f3-f8ca-452b-978b-f9fc67f8e602","system_id":"levelo_inurba_marseille","lat":43.29619,"lon":5.37732,"is_reserved":false,"is_disabled":false,"rental_uris":{"android":"levelo://app?vid=e46fb6f3-f8ca-452b-978b-f9fc67f8e602","ios":"levelo://app?vid=e46fb6f3-f8ca-452b-978b-f9fc67f8e602"},"vehicle_type_id":"4","last_reported":1700547025,"current_range_meters":31200,"station_id":"ce4bgi92rcd13ifvqb90","pricing_plan_id":"free"},{"bike_id":"305326bf-6b6e-4b23-ba2c-b08978ca52ed","system_id":"levelo_inurba_marseille","lat":43.29612,"lon":5.37724,"is_reserved":false,"is_disabled":false,"rental_uris":{"android":"levelo://app?vid=305326bf-6b6e-4b23-ba2c-b08978ca52ed","ios":"levelo://app?vid=305326bf-6b6e-4b23-ba2c-b08978ca52ed"},"vehicle_type_id":"4","last_reported":1700547025,"current_range_meters":24400,"station_id":"ce4bgi92rcd13ifvqb90","pricing_plan_id":"free"},{"bike_id":"d423c2aa-fd32-484d-8a77-d4ab3990f934","system_id":"levelo_inurba_marseille","lat":43.296107,"lon":5.3772,"is_reserved":false,"is_disabled":false,"rental_uris":{"android":"levelo://app?vid=d423c2aa-fd32-484d-8a77-d4ab3990f934","ios":"levelo://app?vid=d423c2aa-fd32-484d-8a77-d4ab3990f934"},"vehicle_type_id":"4","last_reported":1700547025,"current_range_meters":29200,"station_id":"ce4bgi92rcd13ifvqb90","pricing_plan_id":"free"},{"bike_id":"4310141d-5625-4547-8795-e8b18bbafecf","system_id":"levelo_inurba_marseille","lat":43.29617,"lon":5.37743,"is_reserved":false,"is_disabled":false,"rental_uris":{"android":"levelo://app?vid=4310141d-5625-4547-8795-e8b18bbafecf","ios":"levelo://app?vid=4310141d-5625-4547-8795-e8b18bbafecf"},"vehicle_type_id":"4","last_reported":1700547025,"current_range_meters":30800,"station_id":"ce4bgi92rcd13ifvqb90","pricing_plan_id":"free"},{"bike_id":"1f8bdabc-eb50-4a4a-af09-d2f7a141124c","system_id":"levelo_inurba_marseille","lat":43.29607,"lon":5.37728,"is_reserved":false,"is_disabled":false,"rental_uris":{"android":"levelo://app?vid=1f8bdabc-eb50-4a4a-af09-d2f7a141124c","ios":"levelo://app?vid=1f8bdabc-eb50-4a4a-af09-d2f7a141124c"},"vehicle_type_id":"4","last_reported":1700547025,"current_range_meters":29200,"station_id":"ce4bgi92rcd13ifvqb90","pricing_plan_id":"free"},{"bike_id":"fdbaf938-fc61-409f-ae12-c9b76a2fb49a","system_id":"levelo_inurba_marseille","lat":43.29605,"lon":5.37735,"is_reserved":false,"is_disabled":false,"rental_uris":{"android":"levelo://app?vid=fdbaf938-fc61-409f-ae12-c9b76a2fb49a","ios":"levelo://app?vid=fdbaf938-fc61-409f-ae12-c9b76a2fb49a"},"vehicle_type_id":"4","last_reported":1700547025,"current_range_meters":18000,"station_id":"ce4bgi92rcd13ifvqb90","pricing_plan_id":"free"},{"bike_id":"43896965-deab-4ef6-877b-1020f58c51d4","system_id":"levelo_inurba_marseille","lat":43.299707,"lon":5.384859,"is_reserved":false,"is_disabled":false,"rental_uris":{"android":"levelo://app?vid=43896965-deab-4ef6-877b-1020f58c51d4","ios":"levelo://app?vid=43896965-deab-4ef6-877b-1020f58c51d4"},"vehicle_type_id":"4","last_reported":1700547025,"current_range_meters":12800,"station_id":"ce4bgj92rcd13ifvqbd0","pricing_plan_id":"free"},{"bike_id":"b8a4e7fe-03d3-4cf9-a01e-2ce579b66d8a","system_id":"levelo_inurba_marseille","lat":43.299717,"lon":5.384845,"is_reserved":false,"is_disabled":false,"rental_uris":{"android":"levelo://app?vid=b8a4e7fe-03d3-4cf9-a01e-2ce579b66d8a","ios":"levelo://app?vid=b8a4e7fe-03d3-4cf9-a01e-2ce579b66d8a"},"vehicle_type_id":"4","last_reported":1700547025,"current_range_meters":32000,"station_id":"ce4bgj92rcd13ifvqbd0","pricing_plan_id":"free"},{"bike_id":"847b03f3-7609-49dd-be39-6cff921394d9","system_id":"levelo_inurba_marseille","lat":43.299707,"lon":5.384859,"is_reserved":false,"is_disabled":false,"rental_uris":{"android":"levelo://app?vid=847b03f3-7609-49dd-be39-6cff921394d9","ios":"levelo://app?vid=847b03f3-7609-49dd-be39-6cff921394d9"},"vehicle_type_id":"4","last_reported":1700547025,"current_range_meters":31200,"station_id":"ce4bgj92rcd13ifvqbd0","pricing_plan_id":"free"},{"bike_id":"6cca72cf-a8c0-40b1-8cfc-4fed373c948d","system_id":"levelo_inurba_marseille","lat":43.299717,"lon":5.384845,"is_reserved":false,"is_disabled":false,"rental_uris":{"android":"levelo://app?vid=6cca72cf-a8c0-40b1-8cfc-4fed373c948d","ios":"levelo://app?vid=6cca72cf-a8c0-40b1-8cfc-4fed373c948d"},"vehicle_type_id":"4","last_reported":1700547025,"current_range_meters":28400,"station_id":"ce4bgj92rcd13ifvqbd0","pricing_plan_id":"free"},{"bike_id":"6b621983-5e9e-42f7-990d-ad5a093820d2","system_id":"levelo_inurba_marseille","lat":43.293801,"lon":5.363066,"is_reserved":false,"is_disabled":false,"rental_uris":{"android":"levelo://app?vid=6b621983-5e9e-42f7-990d-ad5a093820d2","ios":"levelo://app?vid=6b621983-5e9e-42f7-990d-ad5a093820d2"},"vehicle_type_id":"4","last_reported":1700547025,"current_range_meters":17200,"station_id":"","pricing_plan_id":"free"},{"bike_id":"d08f04bf-d1cb-49fb-9aa7-04e7f7676b3c","system_id":"levelo_inurba_marseille","lat":43.323447,"lon":5.389696,"is_reserved":false,"is_disabled":false,"rental_uris":{"android":"levelo://app?vid=d08f04bf-d1cb-49fb-9aa7-04e7f7676b3c","ios":"levelo://app?vid=d08f04bf-d1cb-49fb-9aa7-04e7f7676b3c"},"vehicle_type_id":"4","last_reported":1700547025,"current_range_meters":0,"station_id":"","pricing_plan_id":"free"},{"bike_id":"1d10a1b1-d55f-4279-928a-9c6858f32ca9","system_id":"levelo_inurba_marseille","lat":43.33057,"lon":5.37886,"is_reserved":false,"is_disabled":false,"rental_uris":{"android":"levelo://app?vid=1d10a1b1-d55f-4279-928a-9c6858f32ca9","ios":"levelo://app?vid=1d10a1b1-d55f-4279-928a-9c6858f32ca9"},"vehicle_type_id":"4","last_reported":1700547025,"current_range_meters":4800,"station_id":"","pricing_plan_id":"free"},{"bike_id":"f507550b-a762-44ec-869a-df19ae56a7e2","system_id":"levelo_inurba_marseille","lat":43.293009,"lon":5.374584,"is_reserved":false,"is_disabled":false,"rental_uris":{"android":"levelo://app?vid=f507550b-a762-44ec-869a-df19ae56a7e2","ios":"levelo://app?vid=f507550b-a762-44ec-869a-df19ae56a7e2"},"vehicle_type_id":"4","last_reported":1700547025,"current_range_meters":15600,"station_id":"ce4bgi12rcd13ifvqb70","pricing_plan_id":"free"},{"bike_id":"472e0e1f-7cce-4409-b2df-7ce27ae6502a","system_id":"levelo_inurba_marseille","lat":43.29298,"lon":5.3718,"is_reserved":false,"is_disabled":false,"rental_uris":{"android":"levelo://app?vid=472e0e1f-7cce-4409-b2df-7ce27ae6502a","ios":"levelo://app?vid=472e0e1f-7cce-4409-b2df-7ce27ae6502a"},"vehicle_type_id":"4","last_reported":1700547025,"current_range_meters":10400,"station_id":"ce4bgh92rcd13ifvqb40","pricing_plan_id":"free"},{"bike_id":"2db32979-6955-4b7f-a0e1-492fa16cc215","system_id":"levelo_inurba_marseille","lat":43.293009,"lon":5.374584,"is_reserved":false,"is_disabled":false,"rental_uris":{"android":"levelo://app?vid=2db32979-6955-4b7f-a0e1-492fa16cc215","ios":"levelo://app?vid=2db32979-6955-4b7f-a0e1-492fa16cc215"},"vehicle_type_id":"4","last_reported":1700547025,"current_range_meters":19600,"station_id":"ce4bgi12rcd13ifvqb70","pricing_plan_id":"free"},{"bike_id":"74176b71-cbed-4ff1-a69a-6e70da0502ac","system_id":"levelo_inurba_marseille","lat":43.306464,"lon":5.394195,"is_reserved":false,"is_disabled":false,"rental_uris":{"android":"levelo://app?vid=74176b71-cbed-4ff1-a69a-6e70da0502ac","ios":"levelo://app?vid=74176b71-cbed-4ff1-a69a-6e70da0502ac"},"vehicle_type_id":"4","last_reported":1700547025,"current_range_meters":24000,"station_id":"","pricing_plan_id":"free"},{"bike_id":"7b415627-94bf-4e3b-8998-d5a5fbe5d5bd","system_id":"levelo_inurba_marseille","lat":43.292311,"lon":5.360731,"is_reserved":false,"is_disabled":false,"rental_uris":{"android":"levelo://app?vid=7b415627-94bf-4e3b-8998-d5a5fbe5d5bd","ios":"levelo://app?vid=7b415627-94bf-4e3b-8998-d5a5fbe5d5bd"},"vehicle_type_id":"4","last_reported":1700547025,"current_range_meters":31600,"station_id":"ce4bhbh2rcd13ifvqeqg","pricing_plan_id":"free"},{"bike_id":"6a118c41-fc37-48d3-8cf1-72afe3134857","system_id":"levelo_inurba_marseille","lat":43.300982,"lon":5.390849,"is_reserved":false,"is_disabled":false,"rental_uris":{"android":"levelo://app?vid=6a118c41-fc37-48d3-8cf1-72afe3134857","ios":"levelo://app?vid=6a118c41-fc37-48d3-8cf1-72afe3134857"},"vehicle_type_id":"4","last_reported":1700547025,"current_range_meters":29600,"station_id":"ce4bh192rcd13ifvqdb0","pricing_plan_id":"free"},{"bike_id":"3f3e49d4-132f-40d6-a563-dc70ae36e619","system_id":"levelo_inurba_marseille","lat":43.300966,"lon":5.39085,"is_reserved":false,"is_disabled":false,"rental_uris":{"android":"levelo://app?vid=3f3e49d4-132f-40d6-a563-dc70ae36e619","ios":"levelo://app?vid=3f3e49d4-132f-40d6-a563-dc70ae36e619"},"vehicle_type_id":"4","last_reported":1700547025,"current_range_meters":23600,"station_id":"ce4bh192rcd13ifvqdb0","pricing_plan_id":"free"},{"bike_id":"18014451-9a4c-43d5-8ead-d63efbbcc3d6","system_id":"levelo_inurba_marseille","lat":43.292311,"lon":5.360731,"is_reserved":false,"is_disabled":false,"rental_uris":{"android":"levelo://app?vid=18014451-9a4c-43d5-8ead-d63efbbcc3d6","ios":"levelo://app?vid=18014451-9a4c-43d5-8ead-d63efbbcc3d6"},"vehicle_type_id":"4","last_reported":1700547025,"current_range_meters":28400,"station_id":"ce4bhbh2rcd13ifvqeqg","pricing_plan_id":"free"},{"bike_id":"b47e737b-91de-4a6c-b049-f7c8dde9b138","system_id":"levelo_inurba_marseille","lat":43.292636,"lon":5.376214,"is_reserved":false,"is_disabled":false,"rental_uris":{"android":"levelo://app?vid=b47e737b-91de-4a6c-b049-f7c8dde9b138","ios":"levelo://app?vid=b47e737b-91de-4a6c-b049-f7c8dde9b138"},"vehicle_type_id":"4","last_reported":1700547025,"current_range_meters":31200,"station_id":"ce4bgi12rcd13ifvqb80","pricing_plan_id":"free"},{"bike_id":"f1db08cb-a8b0-407a-80cf-9b73382f2cd8","system_id":"levelo_inurba_marseille","lat":43.291675,"lon":5.371583,"is_reserved":false,"is_disabled":false,"rental_uris":{"android":"levelo://app?vid=f1db08cb-a8b0-407a-80cf-9b73382f2cd8","ios":"levelo://app?vid=f1db08cb-a8b0-407a-80cf-9b73382f2cd8"},"vehicle_type_id":"4","last_reported":1700547025,"current_range_meters":25200,"station_id":"ce4bha92rcd13ifvqeh0","pricing_plan_id":"free"},{"bike_id":"611cb24d-f89b-4a6a-8c1b-02447cf624fd","system_id":"levelo_inurba_marseille","lat":43.309038,"lon":5.396546,"is_reserved":false,"is_disabled":false,"rental_uris":{"android":"levelo://app?vid=611cb24d-f89b-4a6a-8c1b-02447cf624fd","ios":"levelo://app?vid=611cb24d-f89b-4a6a-8c1b-02447cf624fd"},"vehicle_type_id":"4","last_reported":1700547025,"current_range_meters":23200,"station_id":"ce4bh012rcd13ifvqcv0","pricing_plan_id":"free"},{"bike_id":"144ef5af-6bf2-4aaf-a82c-4e530be81325","system_id":"levelo_inurba_marseille","lat":43.31326,"lon":5.39685,"is_reserved":false,"is_disabled":false,"rental_uris":{"android":"levelo://app?vid=144ef5af-6bf2-4aaf-a82c-4e530be81325","ios":"levelo://app?vid=144ef5af-6bf2-4aaf-a82c-4e530be81325"},"vehicle_type_id":"4","last_reported":1700547025,"current_range_meters":9600,"station_id":"ce4bgvp2rcd13ifvqcu0","pricing_plan_id":"free"},{"bike_id":"6d0acfd0-a987-48bb-9be4-54334897d613","system_id":"levelo_inurba_marseille","lat":43.309038,"lon":5.396546,"is_reserved":false,"is_disabled":false,"rental_uris":{"android":"levelo://app?vid=6d0acfd0-a987-48bb-9be4-54334897d613","ios":"levelo://app?vid=6d0acfd0-a987-48bb-9be4-54334897d613"},"vehicle_type_id":"4","last_reported":1700547025,"current_range_meters":15600,"station_id":"ce4bh012rcd13ifvqcv0","pricing_plan_id":"free"},{"bike_id":"10ee216b-895c-4a04-8e98-04667ed690fd","system_id":"levelo_inurba_marseille","lat":43.30884,"lon":5.39639,"is_reserved":false,"is_disabled":false,"rental_uris":{"android":"levelo://app?vid=10ee216b-895c-4a04-8e98-04667ed690fd","ios":"levelo://app?vid=10ee216b-895c-4a04-8e98-04667ed690fd"},"vehicle_type_id":"4","last_reported":1700547025,"current_range_meters":30000,"station_id":"ce4bh012rcd13ifvqcv0","pricing_plan_id":"free"},{"bike_id":"9c5ef946-8315-4a73-bafd-80c276035335","system_id":"levelo_inurba_marseille","lat":43.309047,"lon":5.396551,"is_reserved":false,"is_disabled":false,"rental_uris":{"android":"levelo://app?vid=9c5ef946-8315-4a73-bafd-80c276035335","ios":"levelo://app?vid=9c5ef946-8315-4a73-bafd-80c276035335"},"vehicle_type_id":"4","last_reported":1700547025,"current_range_meters":26000,"station_id":"ce4bh012rcd13ifvqcv0","pricing_plan_id":"free"},{"bike_id":"6b4f1bb1-a79a-45a0-9198-ac373bea4f24","system_id":"levelo_inurba_marseille","lat":43.309038,"lon":5.396546,"is_reserved":false,"is_disabled":false,"rental_uris":{"android":"levelo://app?vid=6b4f1bb1-a79a-45a0-9198-ac373bea4f24","ios":"levelo://app?vid=6b4f1bb1-a79a-45a0-9198-ac373bea4f24"},"vehicle_type_id":"4","last_reported":1700547025,"current_range_meters":20400,"station_id":"ce4bh012rcd13ifvqcv0","pricing_plan_id":"free"},{"bike_id":"606f1cab-238e-4291-a597-4f1048ecfc21","system_id":"levelo_inurba_marseille","lat":43.309047,"lon":5.396551,"is_reserved":false,"is_disabled":false,"rental_uris":{"android":"levelo://app?vid=606f1cab-238e-4291-a597-4f1048ecfc21","ios":"levelo://app?vid=606f1cab-238e-4291-a597-4f1048ecfc21"},"vehicle_type_id":"4","last_reported":1700547025,"current_range_meters":28800,"station_id":"ce4bh012rcd13ifvqcv0","pricing_plan_id":"free"},{"bike_id":"29c94f60-8671-46a1-810e-4f87c180185c","system_id":"levelo_inurba_marseille","lat":43.309038,"lon":5.396546,"is_reserved":false,"is_disabled":false,"rental_uris":{"android":"levelo://app?vid=29c94f60-8671-46a1-810e-4f87c180185c","ios":"levelo://app?vid=29c94f60-8671-46a1-810e-4f87c180185c"},"vehicle_type_id":"4","last_reported":1700547025,"current_range_meters":31600,"station_id":"ce4bh012rcd13ifvqcv0","pricing_plan_id":"free"},{"bike_id":"8924b04f-227f-4e75-957e-9737bfb7017b","system_id":"levelo_inurba_marseille","lat":43.31328,"lon":5.396916,"is_reserved":false,"is_disabled":false,"rental_uris":{"android":"levelo://app?vid=8924b04f-227f-4e75-957e-9737bfb7017b","ios":"levelo://app?vid=8924b04f-227f-4e75-957e-9737bfb7017b"},"vehicle_type_id":"4","last_reported":1700547025,"current_range_meters":29600,"station_id":"ce4bgvp2rcd13ifvqcu0","pricing_plan_id":"free"},{"bike_id":"35791023-6349-462b-b332-6ed328942524","system_id":"levelo_inurba_marseille","lat":43.309047,"lon":5.396551,"is_reserved":false,"is_disabled":false,"rental_uris":{"android":"levelo://app?vid=35791023-6349-462b-b332-6ed328942524","ios":"levelo://app?vid=35791023-6349-462b-b332-6ed328942524"},"vehicle_type_id":"4","last_reported":1700547025,"current_range_meters":31600,"station_id":"ce4bh012rcd13ifvqcv0","pricing_plan_id":"free"},{"bike_id":"7fa75bf1-41dc-4a7e-9c71-41f64a3adbc9","system_id":"levelo_inurba_marseille","lat":43.313298,"lon":5.396937,"is_reserved":false,"is_disabled":false,"rental_uris":{"android":"levelo://app?vid=7fa75bf1-41dc-4a7e-9c71-41f64a3adbc9","ios":"levelo://app?vid=7fa75bf1-41dc-4a7e-9c71-41f64a3adbc9"},"vehicle_type_id":"4","last_reported":1700547025,"current_range_meters":0,"station_id":"ce4bgvp2rcd13ifvqcu0","pricing_plan_id":"free"},{"bike_id":"67feabcc-6546-406f-9df9-b62a07df4594","system_id":"levelo_inurba_marseille","lat":43.313311,"lon":5.39694,"is_reserved":false,"is_disabled":false,"rental_uris":{"android":"levelo://app?vid=67feabcc-6546-406f-9df9-b62a07df4594","ios":"levelo://app?vid=67feabcc-6546-406f-9df9-b62a07df4594"},"vehicle_type_id":"4","last_reported":1700547025,"current_range_meters":28800,"station_id":"ce4bgvp2rcd13ifvqcu0","pricing_plan_id":"free"},{"bike_id":"83ffd5c9-4788-44f3-937c-c0bed0ba13df","system_id":"levelo_inurba_marseille","lat":43.309047,"lon":5.396551,"is_reserved":false,"is_disabled":false,"rental_uris":{"android":"levelo://app?vid=83ffd5c9-4788-44f3-937c-c0bed0ba13df","ios":"levelo://app?vid=83ffd5c9-4788-44f3-937c-c0bed0ba13df"},"vehicle_type_id":"4","last_reported":1700547025,"current_range_meters":22800,"station_id":"ce4bh012rcd13ifvqcv0","pricing_plan_id":"free"},{"bike_id":"898369d7-0edf-4846-a9c1-3ad9202b958d","system_id":"levelo_inurba_marseille","lat":43.31325,"lon":5.39698,"is_reserved":false,"is_disabled":false,"rental_uris":{"android":"levelo://app?vid=898369d7-0edf-4846-a9c1-3ad9202b958d","ios":"levelo://app?vid=898369d7-0edf-4846-a9c1-3ad9202b958d"},"vehicle_type_id":"4","last_reported":1700547025,"current_range_meters":30800,"station_id":"ce4bgvp2rcd13ifvqcu0","pricing_plan_id":"free"},{"bike_id":"505e46af-f678-41e1-ba3d-ec522c6686a6","system_id":"levelo_inurba_marseille","lat":43.313286,"lon":5.396986,"is_reserved":false,"is_disabled":false,"rental_uris":{"android":"levelo://app?vid=505e46af-f678-41e1-ba3d-ec522c6686a6","ios":"levelo://app?vid=505e46af-f678-41e1-ba3d-ec522c6686a6"},"vehicle_type_id":"4","last_reported":1700547025,"current_range_meters":23600,"station_id":"ce4bgvp2rcd13ifvqcu0","pricing_plan_id":"free"},{"bike_id":"2e4392b7-bc64-4a27-95a5-34a26e2f9729","system_id":"levelo_inurba_marseille","lat":43.31328,"lon":5.39699,"is_reserved":false,"is_disabled":false,"rental_uris":{"android":"levelo://app?vid=2e4392b7-bc64-4a27-95a5-34a26e2f9729","ios":"levelo://app?vid=2e4392b7-bc64-4a27-95a5-34a26e2f9729"},"vehicle_type_id":"4","last_reported":1700547025,"current_range_meters":27600,"station_id":"ce4bgvp2rcd13ifvqcu0","pricing_plan_id":"free"},{"bike_id":"e5912c2b-e812-4484-bbc1-21db8bbc459c","system_id":"levelo_inurba_marseille","lat":43.29535,"lon":5.38547,"is_reserved":false,"is_disabled":false,"rental_uris":{"android":"levelo://app?vid=e5912c2b-e812-4484-bbc1-21db8bbc459c","ios":"levelo://app?vid=e5912c2b-e812-4484-bbc1-21db8bbc459c"},"vehicle_type_id":"4","last_reported":1700547025,"current_range_meters":6800,"station_id":"ce4bgih2rcd13ifvqba0","pricing_plan_id":"free"},{"bike_id":"b20ebddc-afc4-4a99-b3d0-b035573cbd9d","system_id":"levelo_inurba_marseille","lat":43.290624,"lon":5.359245,"is_reserved":false,"is_disabled":false,"rental_uris":{"android":"levelo://app?vid=b20ebddc-afc4-4a99-b3d0-b035573cbd9d","ios":"levelo://app?vid=b20ebddc-afc4-4a99-b3d0-b035573cbd9d"},"vehicle_type_id":"4","last_reported":1700547025,"current_range_meters":30400,"station_id":"ce4bha92rcd13ifvqeg0","pricing_plan_id":"free"},{"bike_id":"0a9b7475-9408-480a-8ed6-6ba0ab2f8513","system_id":"levelo_inurba_marseille","lat":43.289184,"lon":5.366408,"is_reserved":false,"is_disabled":false,"rental_uris":{"android":"levelo://app?vid=0a9b7475-9408-480a-8ed6-6ba0ab2f8513","ios":"levelo://app?vid=0a9b7475-9408-480a-8ed6-6ba0ab2f8513"},"vehicle_type_id":"4","last_reported":1700547025,"current_range_meters":21200,"station_id":"ce4bhap2rcd13ifvqek0","pricing_plan_id":"free"},{"bike_id":"9e14f7f6-f5d0-4c1e-8f98-b022cd595961","system_id":"levelo_inurba_marseille","lat":43.2941,"lon":5.38631,"is_reserved":false,"is_disabled":false,"rental_uris":{"android":"levelo://app?vid=9e14f7f6-f5d0-4c1e-8f98-b022cd595961","ios":"levelo://app?vid=9e14f7f6-f5d0-4c1e-8f98-b022cd595961"},"vehicle_type_id":"4","last_reported":1700547025,"current_range_meters":27600,"station_id":"ce4bh2h2rcd13ifvqdh0","pricing_plan_id":"free"},{"bike_id":"1f85aec7-42ac-42c9-a6e8-b0323af62dfe","system_id":"levelo_inurba_marseille","lat":43.289429,"lon":5.36396,"is_reserved":false,"is_disabled":false,"rental_uris":{"android":"levelo://app?vid=1f85aec7-42ac-42c9-a6e8-b0323af62dfe","ios":"levelo://app?vid=1f85aec7-42ac-42c9-a6e8-b0323af62dfe"},"vehicle_type_id":"4","last_reported":1700547025,"current_range_meters":31200,"station_id":"ce4bhc92rcd13ifvqetg","pricing_plan_id":"free"},{"bike_id":"ad4cdf3c-438d-470b-9c9d-01fe2aa0c0bd","system_id":"levelo_inurba_marseille","lat":43.289405,"lon":5.363938,"is_reserved":false,"is_disabled":false,"rental_uris":{"android":"levelo://app?vid=ad4cdf3c-438d-470b-9c9d-01fe2aa0c0bd","ios":"levelo://app?vid=ad4cdf3c-438d-470b-9c9d-01fe2aa0c0bd"},"vehicle_type_id":"4","last_reported":1700547025,"current_range_meters":28000,"station_id":"ce4bhc92rcd13ifvqetg","pricing_plan_id":"free"},{"bike_id":"d46b6bda-f694-4c37-bfdb-e84ec81864ba","system_id":"levelo_inurba_marseille","lat":43.292642,"lon":5.384254,"is_reserved":false,"is_disabled":false,"rental_uris":{"android":"levelo://app?vid=d46b6bda-f694-4c37-bfdb-e84ec81864ba","ios":"levelo://app?vid=d46b6bda-f694-4c37-bfdb-e84ec81864ba"},"vehicle_type_id":"4","last_reported":1700547025,"current_range_meters":28400,"station_id":"ce4bh692rcd13ifvqea0","pricing_plan_id":"free"},{"bike_id":"06f8e886-7690-4d20-a0cc-2accad56d14b","system_id":"levelo_inurba_marseille","lat":43.292644,"lon":5.384257,"is_reserved":false,"is_disabled":false,"rental_uris":{"android":"levelo://app?vid=06f8e886-7690-4d20-a0cc-2accad56d14b","ios":"levelo://app?vid=06f8e886-7690-4d20-a0cc-2accad56d14b"},"vehicle_type_id":"4","last_reported":1700547025,"current_range_meters":23200,"station_id":"ce4bh692rcd13ifvqea0","pricing_plan_id":"free"},{"bike_id":"e96969f2-30ff-4c2f-94d6-b7638aebaeb2","system_id":"levelo_inurba_marseille","lat":43.289893,"lon":5.356162,"is_reserved":false,"is_disabled":false,"rental_uris":{"android":"levelo://app?vid=e96969f2-30ff-4c2f-94d6-b7638aebaeb2","ios":"levelo://app?vid=e96969f2-30ff-4c2f-94d6-b7638aebaeb2"},"vehicle_type_id":"4","last_reported":1700547025,"current_range_meters":0,"station_id":"ce4bhb92rcd13ifvqen0","pricing_plan_id":"free"},{"bike_id":"653581e9-88ad-41be-ac32-3a9f1b91bf15","system_id":"levelo_inurba_marseille","lat":43.289743,"lon":5.378304,"is_reserved":false,"is_disabled":false,"rental_uris":{"android":"levelo://app?vid=653581e9-88ad-41be-ac32-3a9f1b91bf15","ios":"levelo://app?vid=653581e9-88ad-41be-ac32-3a9f1b91bf15"},"vehicle_type_id":"4","last_reported":1700547025,"current_range_meters":4000,"station_id":"ce4bh9p2rcd13ifvqed0","pricing_plan_id":"free"},{"bike_id":"7ff2d905-650d-4e27-9486-47ab1d8ded85","system_id":"levelo_inurba_marseille","lat":43.295224,"lon":5.390319,"is_reserved":false,"is_disabled":false,"rental_uris":{"android":"levelo://app?vid=7ff2d905-650d-4e27-9486-47ab1d8ded85","ios":"levelo://app?vid=7ff2d905-650d-4e27-9486-47ab1d8ded85"},"vehicle_type_id":"4","last_reported":1700547025,"current_range_meters":30000,"station_id":"ce4bh3p2rcd13ifvqdp0","pricing_plan_id":"free"},{"bike_id":"aad9a792-6976-4183-919a-aef819ff2e25","system_id":"levelo_inurba_marseille","lat":43.31251,"lon":5.40162,"is_reserved":false,"is_disabled":false,"rental_uris":{"android":"levelo://app?vid=aad9a792-6976-4183-919a-aef819ff2e25","ios":"levelo://app?vid=aad9a792-6976-4183-919a-aef819ff2e25"},"vehicle_type_id":"4","last_reported":1700547025,"current_range_meters":4400,"station_id":"","pricing_plan_id":"free"},{"bike_id":"bb67d680-b24b-47ed-8fd4-f19d015f72d2","system_id":"levelo_inurba_marseille","lat":43.312804,"lon":5.401723,"is_reserved":false,"is_disabled":false,"rental_uris":{"android":"levelo://app?vid=bb67d680-b24b-47ed-8fd4-f19d015f72d2","ios":"levelo://app?vid=bb67d680-b24b-47ed-8fd4-f19d015f72d2"},"vehicle_type_id":"4","last_reported":1700547025,"current_range_meters":29600,"station_id":"ce4bh092rcd13ifvqd30","pricing_plan_id":"free"},{"bike_id":"cd51f2b7-1c7a-423f-b786-d0963b93bc6f","system_id":"levelo_inurba_marseille","lat":43.309371,"lon":5.401449,"is_reserved":false,"is_disabled":false,"rental_uris":{"android":"levelo://app?vid=cd51f2b7-1c7a-423f-b786-d0963b93bc6f","ios":"levelo://app?vid=cd51f2b7-1c7a-423f-b786-d0963b93bc6f"},"vehicle_type_id":"4","last_reported":1700547025,"current_range_meters":13200,"station_id":"ce4bgvp2rcd13ifvqct0","pricing_plan_id":"free"},{"bike_id":"7e8bac27-6ca8-4b69-b3ff-3142809f20be","system_id":"levelo_inurba_marseille","lat":43.309371,"lon":5.401449,"is_reserved":false,"is_disabled":false,"rental_uris":{"android":"levelo://app?vid=7e8bac27-6ca8-4b69-b3ff-3142809f20be","ios":"levelo://app?vid=7e8bac27-6ca8-4b69-b3ff-3142809f20be"},"vehicle_type_id":"4","last_reported":1700547025,"current_range_meters":24000,"station_id":"ce4bgvp2rcd13ifvqct0","pricing_plan_id":"free"},{"bike_id":"b18f7129-ad48-4614-b1e6-0bd0d07bb9cc","system_id":"levelo_inurba_marseille","lat":43.306402,"lon":5.40081,"is_reserved":false,"is_disabled":false,"rental_uris":{"android":"levelo://app?vid=b18f7129-ad48-4614-b1e6-0bd0d07bb9cc","ios":"levelo://app?vid=b18f7129-ad48-4614-b1e6-0bd0d07bb9cc"},"vehicle_type_id":"4","last_reported":1700547025,"current_range_meters":9200,"station_id":"ce4bh112rcd13ifvqda0","pricing_plan_id":"free"},{"bike_id":"8693d43e-7c67-4239-9915-bdd625f6c60d","system_id":"levelo_inurba_marseille","lat":43.28727,"lon":5.36078,"is_reserved":false,"is_disabled":false,"rental_uris":{"android":"levelo://app?vid=8693d43e-7c67-4239-9915-bdd625f6c60d","ios":"levelo://app?vid=8693d43e-7c67-4239-9915-bdd625f6c60d"},"vehicle_type_id":"4","last_reported":1700547025,"current_range_meters":1600,"station_id":"cki0cbj6b192h4jlfktg","pricing_plan_id":"free"},{"bike_id":"c58b4322-360f-482a-b067-faa886cf43fd","system_id":"levelo_inurba_marseille","lat":43.28727,"lon":5.36078,"is_reserved":false,"is_disabled":false,"rental_uris":{"android":"levelo://app?vid=c58b4322-360f-482a-b067-faa886cf43fd","ios":"levelo://app?vid=c58b4322-360f-482a-b067-faa886cf43fd"},"vehicle_type_id":"4","last_reported":1700547025,"current_range_meters":31200,"station_id":"cki0cbj6b192h4jlfktg","pricing_plan_id":"free"},{"bike_id":"5d2f2a66-ab11-4632-a547-faac941783b0","system_id":"levelo_inurba_marseille","lat":43.28727,"lon":5.36078,"is_reserved":false,"is_disabled":false,"rental_uris":{"android":"levelo://app?vid=5d2f2a66-ab11-4632-a547-faac941783b0","ios":"levelo://app?vid=5d2f2a66-ab11-4632-a547-faac941783b0"},"vehicle_type_id":"4","last_reported":1700547025,"current_range_meters":31600,"station_id":"cki0cbj6b192h4jlfktg","pricing_plan_id":"free"},{"bike_id":"89638828-1fdc-423c-9e5a-b0233882246f","system_id":"levelo_inurba_marseille","lat":43.28727,"lon":5.36078,"is_reserved":false,"is_disabled":false,"rental_uris":{"android":"levelo://app?vid=89638828-1fdc-423c-9e5a-b0233882246f","ios":"levelo://app?vid=89638828-1fdc-423c-9e5a-b0233882246f"},"vehicle_type_id":"4","last_reported":1700547025,"current_range_meters":29600,"station_id":"cki0cbj6b192h4jlfktg","pricing_plan_id":"free"},{"bike_id":"a9ca8184-0af5-47b2-86f0-0780e0dee8a8","system_id":"levelo_inurba_marseille","lat":43.28727,"lon":5.36078,"is_reserved":false,"is_disabled":false,"rental_uris":{"android":"levelo://app?vid=a9ca8184-0af5-47b2-86f0-0780e0dee8a8","ios":"levelo://app?vid=a9ca8184-0af5-47b2-86f0-0780e0dee8a8"},"vehicle_type_id":"4","last_reported":1700547025,"current_range_meters":0,"station_id":"cki0cbj6b192h4jlfktg","pricing_plan_id":"free"},{"bike_id":"ec82726a-6fef-4235-a7bf-1f5d1423ddbb","system_id":"levelo_inurba_marseille","lat":43.298681,"lon":5.397225,"is_reserved":false,"is_disabled":false,"rental_uris":{"android":"levelo://app?vid=ec82726a-6fef-4235-a7bf-1f5d1423ddbb","ios":"levelo://app?vid=ec82726a-6fef-4235-a7bf-1f5d1423ddbb"},"vehicle_type_id":"4","last_reported":1700547025,"current_range_meters":29200,"station_id":"ce4bh0h2rcd13ifvqd50","pricing_plan_id":"free"},{"bike_id":"e0c99a2a-14d4-484d-ab0d-67e72459efc5","system_id":"levelo_inurba_marseille","lat":43.29874,"lon":5.39729,"is_reserved":false,"is_disabled":false,"rental_uris":{"android":"levelo://app?vid=e0c99a2a-14d4-484d-ab0d-67e72459efc5","ios":"levelo://app?vid=e0c99a2a-14d4-484d-ab0d-67e72459efc5"},"vehicle_type_id":"4","last_reported":1700547025,"current_range_meters":26400,"station_id":"ce4bh0h2rcd13ifvqd50","pricing_plan_id":"free"},{"bike_id":"1c1d4005-29cf-4146-8cb5-f658a46fd606","system_id":"levelo_inurba_marseille","lat":43.286591,"lon":5.363346,"is_reserved":false,"is_disabled":false,"rental_uris":{"android":"levelo://app?vid=1c1d4005-29cf-4146-8cb5-f658a46fd606","ios":"levelo://app?vid=1c1d4005-29cf-4146-8cb5-f658a46fd606"},"vehicle_type_id":"4","last_reported":1700547025,"current_range_meters":31600,"station_id":"ce4bhah2rcd13ifvqej0","pricing_plan_id":"free"},{"bike_id":"9765428d-a3d7-4f4e-8028-76ba006c1945","system_id":"levelo_inurba_marseille","lat":43.286593,"lon":5.363346,"is_reserved":false,"is_disabled":false,"rental_uris":{"android":"levelo://app?vid=9765428d-a3d7-4f4e-8028-76ba006c1945","ios":"levelo://app?vid=9765428d-a3d7-4f4e-8028-76ba006c1945"},"vehicle_type_id":"4","last_reported":1700547025,"current_range_meters":29600,"station_id":"ce4bhah2rcd13ifvqej0","pricing_plan_id":"free"},{"bike_id":"92cdc7b0-8e29-437d-a9b8-6262df56e37a","system_id":"levelo_inurba_marseille","lat":43.295221,"lon":5.394039,"is_reserved":false,"is_disabled":false,"rental_uris":{"android":"levelo://app?vid=92cdc7b0-8e29-437d-a9b8-6262df56e37a","ios":"levelo://app?vid=92cdc7b0-8e29-437d-a9b8-6262df56e37a"},"vehicle_type_id":"4","last_reported":1700547025,"current_range_meters":30800,"station_id":"ce4bh292rcd13ifvqdf0","pricing_plan_id":"free"},{"bike_id":"e377c0ab-9b38-416e-a1ee-92612bdb9ddd","system_id":"levelo_inurba_marseille","lat":43.295194,"lon":5.39397,"is_reserved":false,"is_disabled":false,"rental_uris":{"android":"levelo://app?vid=e377c0ab-9b38-416e-a1ee-92612bdb9ddd","ios":"levelo://app?vid=e377c0ab-9b38-416e-a1ee-92612bdb9ddd"},"vehicle_type_id":"4","last_reported":1700547025,"current_range_meters":30400,"station_id":"ce4bh292rcd13ifvqdf0","pricing_plan_id":"free"},{"bike_id":"9dec51eb-50ec-4987-bee7-a100b5a28d3f","system_id":"levelo_inurba_marseille","lat":43.29515,"lon":5.39407,"is_reserved":false,"is_disabled":false,"rental_uris":{"android":"levelo://app?vid=9dec51eb-50ec-4987-bee7-a100b5a28d3f","ios":"levelo://app?vid=9dec51eb-50ec-4987-bee7-a100b5a28d3f"},"vehicle_type_id":"4","last_reported":1700547025,"current_range_meters":30000,"station_id":"ce4bh292rcd13ifvqdf0","pricing_plan_id":"free"},{"bike_id":"592a0788-fa17-466f-8448-9b91ac1470bf","system_id":"levelo_inurba_marseille","lat":43.29034,"lon":5.38646,"is_reserved":false,"is_disabled":false,"rental_uris":{"android":"levelo://app?vid=592a0788-fa17-466f-8448-9b91ac1470bf","ios":"levelo://app?vid=592a0788-fa17-466f-8448-9b91ac1470bf"},"vehicle_type_id":"4","last_reported":1700547025,"current_range_meters":13600,"station_id":"ce4bh4p2rcd13ifvqe0g","pricing_plan_id":"free"},{"bike_id":"5e74d96b-10a2-4659-99e4-5f6dd3bd2fcf","system_id":"levelo_inurba_marseille","lat":43.289307,"lon":5.38406,"is_reserved":false,"is_disabled":false,"rental_uris":{"android":"levelo://app?vid=5e74d96b-10a2-4659-99e4-5f6dd3bd2fcf","ios":"levelo://app?vid=5e74d96b-10a2-4659-99e4-5f6dd3bd2fcf"},"vehicle_type_id":"4","last_reported":1700547025,"current_range_meters":30400,"station_id":"ce4bh612rcd13ifvqe6g","pricing_plan_id":"free"},{"bike_id":"7ecbd46a-a8ea-438f-bfd9-22b091925137","system_id":"levelo_inurba_marseille","lat":43.29033,"lon":5.38652,"is_reserved":false,"is_disabled":false,"rental_uris":{"android":"levelo://app?vid=7ecbd46a-a8ea-438f-bfd9-22b091925137","ios":"levelo://app?vid=7ecbd46a-a8ea-438f-bfd9-22b091925137"},"vehicle_type_id":"4","last_reported":1700547025,"current_range_meters":15600,"station_id":"ce4bh4p2rcd13ifvqe0g","pricing_plan_id":"free"},{"bike_id":"670a3cd3-773c-4fdf-ad90-19cfb5187cf0","system_id":"levelo_inurba_marseille","lat":43.29031,"lon":5.38648,"is_reserved":false,"is_disabled":false,"rental_uris":{"android":"levelo://app?vid=670a3cd3-773c-4fdf-ad90-19cfb5187cf0","ios":"levelo://app?vid=670a3cd3-773c-4fdf-ad90-19cfb5187cf0"},"vehicle_type_id":"4","last_reported":1700547025,"current_range_meters":31600,"station_id":"ce4bh4p2rcd13ifvqe0g","pricing_plan_id":"free"},{"bike_id":"1ab4356b-5cd2-458a-9b07-0c8dbc8bac0a","system_id":"levelo_inurba_marseille","lat":43.286039,"lon":5.370681,"is_reserved":false,"is_disabled":false,"rental_uris":{"android":"levelo://app?vid=1ab4356b-5cd2-458a-9b07-0c8dbc8bac0a","ios":"levelo://app?vid=1ab4356b-5cd2-458a-9b07-0c8dbc8bac0a"},"vehicle_type_id":"4","last_reported":1700547025,"current_range_meters":24000,"station_id":"ce4bht12rcd13ifvqi60","pricing_plan_id":"free"},{"bike_id":"80660ebb-0728-4afa-bfed-b5d93a8eb350","system_id":"levelo_inurba_marseille","lat":43.286039,"lon":5.370679,"is_reserved":false,"is_disabled":false,"rental_uris":{"android":"levelo://app?vid=80660ebb-0728-4afa-bfed-b5d93a8eb350","ios":"levelo://app?vid=80660ebb-0728-4afa-bfed-b5d93a8eb350"},"vehicle_type_id":"4","last_reported":1700547025,"current_range_meters":26800,"station_id":"ce4bht12rcd13ifvqi60","pricing_plan_id":"free"},{"bike_id":"89396e33-b524-46cf-aca3-8146ecd85dce","system_id":"levelo_inurba_marseille","lat":43.287185,"lon":5.379373,"is_reserved":false,"is_disabled":false,"rental_uris":{"android":"levelo://app?vid=89396e33-b524-46cf-aca3-8146ecd85dce","ios":"levelo://app?vid=89396e33-b524-46cf-aca3-8146ecd85dce"},"vehicle_type_id":"4","last_reported":1700547025,"current_range_meters":31600,"station_id":"ce4bh9p2rcd13ifvqec0","pricing_plan_id":"free"},{"bike_id":"89f8e323-8339-4bcd-8c3e-d3ae708e8638","system_id":"levelo_inurba_marseille","lat":43.287185,"lon":5.379373,"is_reserved":false,"is_disabled":false,"rental_uris":{"android":"levelo://app?vid=89f8e323-8339-4bcd-8c3e-d3ae708e8638","ios":"levelo://app?vid=89f8e323-8339-4bcd-8c3e-d3ae708e8638"},"vehicle_type_id":"4","last_reported":1700547025,"current_range_meters":2000,"station_id":"ce4bh9p2rcd13ifvqec0","pricing_plan_id":"free"},{"bike_id":"bb208950-e948-4a7b-9ffd-ded8e1141c02","system_id":"levelo_inurba_marseille","lat":43.29196,"lon":5.39314,"is_reserved":false,"is_disabled":false,"rental_uris":{"android":"levelo://app?vid=bb208950-e948-4a7b-9ffd-ded8e1141c02","ios":"levelo://app?vid=bb208950-e948-4a7b-9ffd-ded8e1141c02"},"vehicle_type_id":"4","last_reported":1700547025,"current_range_meters":12000,"station_id":"ce4bh192rcd13ifvqdd0","pricing_plan_id":"free"},{"bike_id":"04fff41d-0fcd-4c41-9123-99fdaba46ad9","system_id":"levelo_inurba_marseille","lat":43.291985,"lon":5.393207,"is_reserved":false,"is_disabled":false,"rental_uris":{"android":"levelo://app?vid=04fff41d-0fcd-4c41-9123-99fdaba46ad9","ios":"levelo://app?vid=04fff41d-0fcd-4c41-9123-99fdaba46ad9"},"vehicle_type_id":"4","last_reported":1700547025,"current_range_meters":28400,"station_id":"ce4bh192rcd13ifvqdd0","pricing_plan_id":"free"},{"bike_id":"a02969b9-7089-4413-98f5-eacd0e099174","system_id":"levelo_inurba_marseille","lat":43.29193,"lon":5.39316,"is_reserved":false,"is_disabled":false,"rental_uris":{"android":"levelo://app?vid=a02969b9-7089-4413-98f5-eacd0e099174","ios":"levelo://app?vid=a02969b9-7089-4413-98f5-eacd0e099174"},"vehicle_type_id":"4","last_reported":1700547025,"current_range_meters":17200,"station_id":"ce4bh192rcd13ifvqdd0","pricing_plan_id":"free"},{"bike_id":"83f7ef62-ecd6-40c8-87ea-ce78f7935b54","system_id":"levelo_inurba_marseille","lat":43.29191,"lon":5.39313,"is_reserved":false,"is_disabled":false,"rental_uris":{"android":"levelo://app?vid=83f7ef62-ecd6-40c8-87ea-ce78f7935b54","ios":"levelo://app?vid=83f7ef62-ecd6-40c8-87ea-ce78f7935b54"},"vehicle_type_id":"4","last_reported":1700547025,"current_range_meters":20800,"station_id":"ce4bh192rcd13ifvqdd0","pricing_plan_id":"free"},{"bike_id":"57255278-606c-4066-ab0b-c704e2a6f489","system_id":"levelo_inurba_marseille","lat":43.29195,"lon":5.39319,"is_reserved":false,"is_disabled":false,"rental_uris":{"android":"levelo://app?vid=57255278-606c-4066-ab0b-c704e2a6f489","ios":"levelo://app?vid=57255278-606c-4066-ab0b-c704e2a6f489"},"vehicle_type_id":"4","last_reported":1700547025,"current_range_meters":31200,"station_id":"ce4bh192rcd13ifvqdd0","pricing_plan_id":"free"},{"bike_id":"107ca024-d6e0-4b99-8399-d918210c3502","system_id":"levelo_inurba_marseille","lat":43.284538,"lon":5.358657,"is_reserved":false,"is_disabled":false,"rental_uris":{"android":"levelo://app?vid=107ca024-d6e0-4b99-8399-d918210c3502","ios":"levelo://app?vid=107ca024-d6e0-4b99-8399-d918210c3502"},"vehicle_type_id":"4","last_reported":1700547025,"current_range_meters":31600,"station_id":"ce4bhah2rcd13ifvqei0","pricing_plan_id":"free"},{"bike_id":"1c3b4e18-1850-4957-bd14-7a7e60c6cc4a","system_id":"levelo_inurba_marseille","lat":43.2846,"lon":5.35901,"is_reserved":false,"is_disabled":false,"rental_uris":{"android":"levelo://app?vid=1c3b4e18-1850-4957-bd14-7a7e60c6cc4a","ios":"levelo://app?vid=1c3b4e18-1850-4957-bd14-7a7e60c6cc4a"},"vehicle_type_id":"4","last_reported":1700547025,"current_range_meters":28800,"station_id":"ce4bhah2rcd13ifvqei0","pricing_plan_id":"free"},{"bike_id":"35132f94-9ed4-4f70-8cc8-d0584d357ba2","system_id":"levelo_inurba_marseille","lat":43.28461,"lon":5.35892,"is_reserved":false,"is_disabled":false,"rental_uris":{"android":"levelo://app?vid=35132f94-9ed4-4f70-8cc8-d0584d357ba2","ios":"levelo://app?vid=35132f94-9ed4-4f70-8cc8-d0584d357ba2"},"vehicle_type_id":"4","last_reported":1700547025,"current_range_meters":30400,"station_id":"ce4bhah2rcd13ifvqei0","pricing_plan_id":"free"},{"bike_id":"9e62039f-5055-4cc8-a128-7e59f8737422","system_id":"levelo_inurba_marseille","lat":43.284538,"lon":5.358657,"is_reserved":false,"is_disabled":false,"rental_uris":{"android":"levelo://app?vid=9e62039f-5055-4cc8-a128-7e59f8737422","ios":"levelo://app?vid=9e62039f-5055-4cc8-a128-7e59f8737422"},"vehicle_type_id":"4","last_reported":1700547025,"current_range_meters":31600,"station_id":"ce4bhah2rcd13ifvqei0","pricing_plan_id":"free"},{"bike_id":"7810e59d-528c-4975-a053-8252bd19777e","system_id":"levelo_inurba_marseille","lat":43.294314,"lon":5.397498,"is_reserved":false,"is_disabled":false,"rental_uris":{"android":"levelo://app?vid=7810e59d-528c-4975-a053-8252bd19777e","ios":"levelo://app?vid=7810e59d-528c-4975-a053-8252bd19777e"},"vehicle_type_id":"4","last_reported":1700547025,"current_range_meters":31200,"station_id":"ce4bh3h2rcd13ifvqdo0","pricing_plan_id":"free"},{"bike_id":"75e4b42f-8be6-4ff4-a35a-e7715e56ae33","system_id":"levelo_inurba_marseille","lat":43.28619,"lon":5.35095,"is_reserved":false,"is_disabled":false,"rental_uris":{"android":"levelo://app?vid=75e4b42f-8be6-4ff4-a35a-e7715e56ae33","ios":"levelo://app?vid=75e4b42f-8be6-4ff4-a35a-e7715e56ae33"},"vehicle_type_id":"4","last_reported":1700547025,"current_range_meters":28000,"station_id":"ce4bhch2rcd13ifvqeug","pricing_plan_id":"free"},{"bike_id":"dac49530-5484-4e41-9f5c-02c8109be114","system_id":"levelo_inurba_marseille","lat":43.285848,"lon":5.350787,"is_reserved":false,"is_disabled":false,"rental_uris":{"android":"levelo://app?vid=dac49530-5484-4e41-9f5c-02c8109be114","ios":"levelo://app?vid=dac49530-5484-4e41-9f5c-02c8109be114"},"vehicle_type_id":"4","last_reported":1700547025,"current_range_meters":27200,"station_id":"ce4bhch2rcd13ifvqeug","pricing_plan_id":"free"},{"bike_id":"a3c7db83-9295-4c0b-aec6-ce6c4dd82160","system_id":"levelo_inurba_marseille","lat":43.283998,"lon":5.375062,"is_reserved":false,"is_disabled":false,"rental_uris":{"android":"levelo://app?vid=a3c7db83-9295-4c0b-aec6-ce6c4dd82160","ios":"levelo://app?vid=a3c7db83-9295-4c0b-aec6-ce6c4dd82160"},"vehicle_type_id":"4","last_reported":1700547025,"current_range_meters":17600,"station_id":"ce4bh412rcd13ifvqds0","pricing_plan_id":"free"},{"bike_id":"0caea2e1-fac4-4504-8321-053e44bb20c7","system_id":"levelo_inurba_marseille","lat":43.283998,"lon":5.375062,"is_reserved":false,"is_disabled":false,"rental_uris":{"android":"levelo://app?vid=0caea2e1-fac4-4504-8321-053e44bb20c7","ios":"levelo://app?vid=0caea2e1-fac4-4504-8321-053e44bb20c7"},"vehicle_type_id":"4","last_reported":1700547025,"current_range_meters":25600,"station_id":"ce4bh412rcd13ifvqds0","pricing_plan_id":"free"},{"bike_id":"44e32e11-5cee-4901-9e46-a73d6eb4b322","system_id":"levelo_inurba_marseille","lat":43.286724,"lon":5.386604,"is_reserved":false,"is_disabled":false,"rental_uris":{"android":"levelo://app?vid=44e32e11-5cee-4901-9e46-a73d6eb4b322","ios":"levelo://app?vid=44e32e11-5cee-4901-9e46-a73d6eb4b322"},"vehicle_type_id":"4","last_reported":1700547025,"current_range_meters":12400,"station_id":"ce4bh492rcd13ifvqdug","pricing_plan_id":"free"},{"bike_id":"75753a83-0003-4830-8810-03360ffee882","system_id":"levelo_inurba_marseille","lat":43.286723,"lon":5.386603,"is_reserved":false,"is_disabled":false,"rental_uris":{"android":"levelo://app?vid=75753a83-0003-4830-8810-03360ffee882","ios":"levelo://app?vid=75753a83-0003-4830-8810-03360ffee882"},"vehicle_type_id":"4","last_reported":1700547025,"current_range_meters":30000,"station_id":"ce4bh492rcd13ifvqdug","pricing_plan_id":"free"},{"bike_id":"73e7d14e-49de-43ca-b914-beef9d2aae9b","system_id":"levelo_inurba_marseille","lat":43.2867,"lon":5.3866,"is_reserved":false,"is_disabled":false,"rental_uris":{"android":"levelo://app?vid=73e7d14e-49de-43ca-b914-beef9d2aae9b","ios":"levelo://app?vid=73e7d14e-49de-43ca-b914-beef9d2aae9b"},"vehicle_type_id":"4","last_reported":1700547025,"current_range_meters":18400,"station_id":"ce4bh492rcd13ifvqdug","pricing_plan_id":"free"},{"bike_id":"c09f55cd-b209-4502-bba2-ea391464c702","system_id":"levelo_inurba_marseille","lat":43.286658,"lon":5.386567,"is_reserved":false,"is_disabled":false,"rental_uris":{"android":"levelo://app?vid=c09f55cd-b209-4502-bba2-ea391464c702","ios":"levelo://app?vid=c09f55cd-b209-4502-bba2-ea391464c702"},"vehicle_type_id":"4","last_reported":1700547025,"current_range_meters":30000,"station_id":"ce4bh492rcd13ifvqdug","pricing_plan_id":"free"},{"bike_id":"cf4ef9e1-735d-410a-9dca-ddda935f2e99","system_id":"levelo_inurba_marseille","lat":43.28666,"lon":5.38664,"is_reserved":false,"is_disabled":false,"rental_uris":{"android":"levelo://app?vid=cf4ef9e1-735d-410a-9dca-ddda935f2e99","ios":"levelo://app?vid=cf4ef9e1-735d-410a-9dca-ddda935f2e99"},"vehicle_type_id":"4","last_reported":1700547025,"current_range_meters":31200,"station_id":"ce4bh492rcd13ifvqdug","pricing_plan_id":"free"},{"bike_id":"c78a9899-36b8-48f9-8f59-b808cbcbf4e3","system_id":"levelo_inurba_marseille","lat":43.319179,"lon":5.407725,"is_reserved":false,"is_disabled":false,"rental_uris":{"android":"levelo://app?vid=c78a9899-36b8-48f9-8f59-b808cbcbf4e3","ios":"levelo://app?vid=c78a9899-36b8-48f9-8f59-b808cbcbf4e3"},"vehicle_type_id":"4","last_reported":1700547025,"current_range_meters":17600,"station_id":"ce4bhq12rcd13ifvqhig","pricing_plan_id":"free"},{"bike_id":"35b19955-8c3e-4374-b999-0b151664b0e8","system_id":"levelo_inurba_marseille","lat":43.33237,"lon":5.3985,"is_reserved":false,"is_disabled":false,"rental_uris":{"android":"levelo://app?vid=35b19955-8c3e-4374-b999-0b151664b0e8","ios":"levelo://app?vid=35b19955-8c3e-4374-b999-0b151664b0e8"},"vehicle_type_id":"4","last_reported":1700547025,"current_range_meters":0,"station_id":"","pricing_plan_id":"free"},{"bike_id":"b7f8ff4d-b5e5-40f2-b0a3-2a788b3f8cb1","system_id":"levelo_inurba_marseille","lat":43.323366,"lon":5.406196,"is_reserved":false,"is_disabled":false,"rental_uris":{"android":"levelo://app?vid=b7f8ff4d-b5e5-40f2-b0a3-2a788b3f8cb1","ios":"levelo://app?vid=b7f8ff4d-b5e5-40f2-b0a3-2a788b3f8cb1"},"vehicle_type_id":"4","last_reported":1700547025,"current_range_meters":23200,"station_id":"ce4bhq92rcd13ifvqhjg","pricing_plan_id":"free"},{"bike_id":"def62d2e-1bb6-43fc-b0f1-3b142e4d76d8","system_id":"levelo_inurba_marseille","lat":43.284793,"lon":5.384113,"is_reserved":false,"is_disabled":false,"rental_uris":{"android":"levelo://app?vid=def62d2e-1bb6-43fc-b0f1-3b142e4d76d8","ios":"levelo://app?vid=def62d2e-1bb6-43fc-b0f1-3b142e4d76d8"},"vehicle_type_id":"4","last_reported":1700547025,"current_range_meters":29200,"station_id":"ce4bh512rcd13ifvqe3g","pricing_plan_id":"free"},{"bike_id":"a932b527-62c0-4bb2-aa78-530bf9ac16c6","system_id":"levelo_inurba_marseille","lat":43.284793,"lon":5.384113,"is_reserved":false,"is_disabled":false,"rental_uris":{"android":"levelo://app?vid=a932b527-62c0-4bb2-aa78-530bf9ac16c6","ios":"levelo://app?vid=a932b527-62c0-4bb2-aa78-530bf9ac16c6"},"vehicle_type_id":"4","last_reported":1700547025,"current_range_meters":30400,"station_id":"ce4bh512rcd13ifvqe3g","pricing_plan_id":"free"},{"bike_id":"cf5cd9c3-1924-4086-9311-63aff6913e1b","system_id":"levelo_inurba_marseille","lat":43.284793,"lon":5.384113,"is_reserved":false,"is_disabled":false,"rental_uris":{"android":"levelo://app?vid=cf5cd9c3-1924-4086-9311-63aff6913e1b","ios":"levelo://app?vid=cf5cd9c3-1924-4086-9311-63aff6913e1b"},"vehicle_type_id":"4","last_reported":1700547025,"current_range_meters":31600,"station_id":"ce4bh512rcd13ifvqe3g","pricing_plan_id":"free"},{"bike_id":"c53bedb0-88b5-47db-9923-2c3c68355a37","system_id":"levelo_inurba_marseille","lat":43.28479,"lon":5.38426,"is_reserved":false,"is_disabled":false,"rental_uris":{"android":"levelo://app?vid=c53bedb0-88b5-47db-9923-2c3c68355a37","ios":"levelo://app?vid=c53bedb0-88b5-47db-9923-2c3c68355a37"},"vehicle_type_id":"4","last_reported":1700547025,"current_range_meters":31200,"station_id":"ce4bh512rcd13ifvqe3g","pricing_plan_id":"free"},{"bike_id":"d9c8da8c-7be6-4f7c-a53f-43897fad49e8","system_id":"levelo_inurba_marseille","lat":43.284793,"lon":5.384119,"is_reserved":false,"is_disabled":false,"rental_uris":{"android":"levelo://app?vid=d9c8da8c-7be6-4f7c-a53f-43897fad49e8","ios":"levelo://app?vid=d9c8da8c-7be6-4f7c-a53f-43897fad49e8"},"vehicle_type_id":"4","last_reported":1700547025,"current_range_meters":31200,"station_id":"ce4bh512rcd13ifvqe3g","pricing_plan_id":"free"},{"bike_id":"1b3ceb12-83d7-41ae-bcab-6778019d3b2c","system_id":"levelo_inurba_marseille","lat":43.288501,"lon":5.393087,"is_reserved":false,"is_disabled":false,"rental_uris":{"android":"levelo://app?vid=1b3ceb12-83d7-41ae-bcab-6778019d3b2c","ios":"levelo://app?vid=1b3ceb12-83d7-41ae-bcab-6778019d3b2c"},"vehicle_type_id":"4","last_reported":1700547025,"current_range_meters":23600,"station_id":"ce4bh2p2rcd13ifvqdi0","pricing_plan_id":"free"},{"bike_id":"16e37eee-425c-466e-98a9-e88a04ff5fbc","system_id":"levelo_inurba_marseille","lat":43.288501,"lon":5.393087,"is_reserved":false,"is_disabled":false,"rental_uris":{"android":"levelo://app?vid=16e37eee-425c-466e-98a9-e88a04ff5fbc","ios":"levelo://app?vid=16e37eee-425c-466e-98a9-e88a04ff5fbc"},"vehicle_type_id":"4","last_reported":1700547025,"current_range_meters":30400,"station_id":"ce4bh2p2rcd13ifvqdi0","pricing_plan_id":"free"},{"bike_id":"45546699-282b-493e-a7e3-af46d996c4d4","system_id":"levelo_inurba_marseille","lat":43.288501,"lon":5.393087,"is_reserved":false,"is_disabled":false,"rental_uris":{"android":"levelo://app?vid=45546699-282b-493e-a7e3-af46d996c4d4","ios":"levelo://app?vid=45546699-282b-493e-a7e3-af46d996c4d4"},"vehicle_type_id":"4","last_reported":1700547025,"current_range_meters":31600,"station_id":"ce4bh2p2rcd13ifvqdi0","pricing_plan_id":"free"},{"bike_id":"ba264ef8-9f4b-4062-9fc9-cbeb35b00f1c","system_id":"levelo_inurba_marseille","lat":43.283494,"lon":5.380945,"is_reserved":false,"is_disabled":false,"rental_uris":{"android":"levelo://app?vid=ba264ef8-9f4b-4062-9fc9-cbeb35b00f1c","ios":"levelo://app?vid=ba264ef8-9f4b-4062-9fc9-cbeb35b00f1c"},"vehicle_type_id":"4","last_reported":1700547025,"current_range_meters":22400,"station_id":"ce4bh412rcd13ifvqdr0","pricing_plan_id":"free"},{"bike_id":"c0fb5b8e-40b7-4770-8994-8bfe5b9a0bed","system_id":"levelo_inurba_marseille","lat":43.283494,"lon":5.380945,"is_reserved":false,"is_disabled":false,"rental_uris":{"android":"levelo://app?vid=c0fb5b8e-40b7-4770-8994-8bfe5b9a0bed","ios":"levelo://app?vid=c0fb5b8e-40b7-4770-8994-8bfe5b9a0bed"},"vehicle_type_id":"4","last_reported":1700547025,"current_range_meters":26800,"station_id":"ce4bh412rcd13ifvqdr0","pricing_plan_id":"free"},{"bike_id":"0ad361d0-0606-4579-8fde-1ac516c83c25","system_id":"levelo_inurba_marseille","lat":43.32407,"lon":5.40657,"is_reserved":false,"is_disabled":false,"rental_uris":{"android":"levelo://app?vid=0ad361d0-0606-4579-8fde-1ac516c83c25","ios":"levelo://app?vid=0ad361d0-0606-4579-8fde-1ac516c83c25"},"vehicle_type_id":"4","last_reported":1700547025,"current_range_meters":19200,"station_id":"","pricing_plan_id":"free"},{"bike_id":"c7961bb5-d48d-4907-ab39-4b484d85f279","system_id":"levelo_inurba_marseille","lat":43.284219,"lon":5.3497,"is_reserved":false,"is_disabled":false,"rental_uris":{"android":"levelo://app?vid=c7961bb5-d48d-4907-ab39-4b484d85f279","ios":"levelo://app?vid=c7961bb5-d48d-4907-ab39-4b484d85f279"},"vehicle_type_id":"4","last_reported":1700547025,"current_range_meters":30400,"station_id":"ce4bhbh2rcd13ifvqepg","pricing_plan_id":"free"},{"bike_id":"5249c341-5765-412e-aef6-0abd6c5f3465","system_id":"levelo_inurba_marseille","lat":43.284219,"lon":5.3497,"is_reserved":false,"is_disabled":false,"rental_uris":{"android":"levelo://app?vid=5249c341-5765-412e-aef6-0abd6c5f3465","ios":"levelo://app?vid=5249c341-5765-412e-aef6-0abd6c5f3465"},"vehicle_type_id":"4","last_reported":1700547025,"current_range_meters":20400,"station_id":"ce4bhbh2rcd13ifvqepg","pricing_plan_id":"free"},{"bike_id":"c25d56f7-5a5d-41c8-a548-9a855c12b05d","system_id":"levelo_inurba_marseille","lat":43.284219,"lon":5.3497,"is_reserved":false,"is_disabled":false,"rental_uris":{"android":"levelo://app?vid=c25d56f7-5a5d-41c8-a548-9a855c12b05d","ios":"levelo://app?vid=c25d56f7-5a5d-41c8-a548-9a855c12b05d"},"vehicle_type_id":"4","last_reported":1700547025,"current_range_meters":24000,"station_id":"ce4bhbh2rcd13ifvqepg","pricing_plan_id":"free"},{"bike_id":"6951882a-d7ee-4978-a2e8-e59d598bf3a1","system_id":"levelo_inurba_marseille","lat":43.343612,"lon":5.37501,"is_reserved":false,"is_disabled":false,"rental_uris":{"android":"levelo://app?vid=6951882a-d7ee-4978-a2e8-e59d598bf3a1","ios":"levelo://app?vid=6951882a-d7ee-4978-a2e8-e59d598bf3a1"},"vehicle_type_id":"4","last_reported":1700547025,"current_range_meters":0,"station_id":"","pricing_plan_id":"free"},{"bike_id":"1a6e3bb3-3d2f-41f6-aa0c-aaf6a03ad4e4","system_id":"levelo_inurba_marseille","lat":43.289363,"lon":5.396322,"is_reserved":false,"is_disabled":false,"rental_uris":{"android":"levelo://app?vid=1a6e3bb3-3d2f-41f6-aa0c-aaf6a03ad4e4","ios":"levelo://app?vid=1a6e3bb3-3d2f-41f6-aa0c-aaf6a03ad4e4"},"vehicle_type_id":"4","last_reported":1700547025,"current_range_meters":28800,"station_id":"ce4bh3h2rcd13ifvqdn0","pricing_plan_id":"free"},{"bike_id":"3c37392d-cbc7-406d-a8e8-62fec3ddef8f","system_id":"levelo_inurba_marseille","lat":43.289363,"lon":5.396322,"is_reserved":false,"is_disabled":false,"rental_uris":{"android":"levelo://app?vid=3c37392d-cbc7-406d-a8e8-62fec3ddef8f","ios":"levelo://app?vid=3c37392d-cbc7-406d-a8e8-62fec3ddef8f"},"vehicle_type_id":"4","last_reported":1700547025,"current_range_meters":27200,"station_id":"ce4bh3h2rcd13ifvqdn0","pricing_plan_id":"free"},{"bike_id":"b83592ba-d85b-4af1-86a1-90c83e712e8e","system_id":"levelo_inurba_marseille","lat":43.289363,"lon":5.396322,"is_reserved":false,"is_disabled":false,"rental_uris":{"android":"levelo://app?vid=b83592ba-d85b-4af1-86a1-90c83e712e8e","ios":"levelo://app?vid=b83592ba-d85b-4af1-86a1-90c83e712e8e"},"vehicle_type_id":"4","last_reported":1700547025,"current_range_meters":26400,"station_id":"ce4bh3h2rcd13ifvqdn0","pricing_plan_id":"free"},{"bike_id":"47902890-9bf1-4351-a22a-b9df8d1d42fa","system_id":"levelo_inurba_marseille","lat":43.282744,"lon":5.350533,"is_reserved":false,"is_disabled":false,"rental_uris":{"android":"levelo://app?vid=47902890-9bf1-4351-a22a-b9df8d1d42fa","ios":"levelo://app?vid=47902890-9bf1-4351-a22a-b9df8d1d42fa"},"vehicle_type_id":"4","last_reported":1700547025,"current_range_meters":19200,"station_id":"ce4bhbp2rcd13ifvqerg","pricing_plan_id":"free"},{"bike_id":"2d929a33-25b9-4ab8-973e-0323ef9c1864","system_id":"levelo_inurba_marseille","lat":43.282754,"lon":5.350519,"is_reserved":false,"is_disabled":false,"rental_uris":{"android":"levelo://app?vid=2d929a33-25b9-4ab8-973e-0323ef9c1864","ios":"levelo://app?vid=2d929a33-25b9-4ab8-973e-0323ef9c1864"},"vehicle_type_id":"4","last_reported":1700547025,"current_range_meters":30800,"station_id":"ce4bhbp2rcd13ifvqerg","pricing_plan_id":"free"},{"bike_id":"182a9b76-3c55-4aea-8ecf-bcb79f8c0471","system_id":"levelo_inurba_marseille","lat":43.2837,"lon":5.386279,"is_reserved":false,"is_disabled":false,"rental_uris":{"android":"levelo://app?vid=182a9b76-3c55-4aea-8ecf-bcb79f8c0471","ios":"levelo://app?vid=182a9b76-3c55-4aea-8ecf-bcb79f8c0471"},"vehicle_type_id":"4","last_reported":1700547025,"current_range_meters":23600,"station_id":"ce4bh492rcd13ifvqdvg","pricing_plan_id":"free"},{"bike_id":"6b9f0ae6-5261-4dc0-839e-a2e2ca028add","system_id":"levelo_inurba_marseille","lat":43.282744,"lon":5.350533,"is_reserved":false,"is_disabled":false,"rental_uris":{"android":"levelo://app?vid=6b9f0ae6-5261-4dc0-839e-a2e2ca028add","ios":"levelo://app?vid=6b9f0ae6-5261-4dc0-839e-a2e2ca028add"},"vehicle_type_id":"4","last_reported":1700547025,"current_range_meters":31600,"station_id":"ce4bhbp2rcd13ifvqerg","pricing_plan_id":"free"},{"bike_id":"bf2f94ef-3ecb-44ed-83dd-8e48d263afba","system_id":"levelo_inurba_marseille","lat":43.282754,"lon":5.350519,"is_reserved":false,"is_disabled":false,"rental_uris":{"android":"levelo://app?vid=bf2f94ef-3ecb-44ed-83dd-8e48d263afba","ios":"levelo://app?vid=bf2f94ef-3ecb-44ed-83dd-8e48d263afba"},"vehicle_type_id":"4","last_reported":1700547025,"current_range_meters":27200,"station_id":"ce4bhbp2rcd13ifvqerg","pricing_plan_id":"free"},{"bike_id":"25b22812-7186-4f1a-813f-644153d14774","system_id":"levelo_inurba_marseille","lat":43.282744,"lon":5.350533,"is_reserved":false,"is_disabled":false,"rental_uris":{"android":"levelo://app?vid=25b22812-7186-4f1a-813f-644153d14774","ios":"levelo://app?vid=25b22812-7186-4f1a-813f-644153d14774"},"vehicle_type_id":"4","last_reported":1700547025,"current_range_meters":10400,"station_id":"ce4bhbp2rcd13ifvqerg","pricing_plan_id":"free"},{"bike_id":"2e302b31-e41b-4930-a8a7-727e9124e1f3","system_id":"levelo_inurba_marseille","lat":43.282754,"lon":5.350519,"is_reserved":false,"is_disabled":false,"rental_uris":{"android":"levelo://app?vid=2e302b31-e41b-4930-a8a7-727e9124e1f3","ios":"levelo://app?vid=2e302b31-e41b-4930-a8a7-727e9124e1f3"},"vehicle_type_id":"4","last_reported":1700547025,"current_range_meters":30800,"station_id":"ce4bhbp2rcd13ifvqerg","pricing_plan_id":"free"},{"bike_id":"2e2ecf62-1896-427e-9be3-bc4da49e608b","system_id":"levelo_inurba_marseille","lat":43.282744,"lon":5.350533,"is_reserved":false,"is_disabled":false,"rental_uris":{"android":"levelo://app?vid=2e2ecf62-1896-427e-9be3-bc4da49e608b","ios":"levelo://app?vid=2e2ecf62-1896-427e-9be3-bc4da49e608b"},"vehicle_type_id":"4","last_reported":1700547025,"current_range_meters":30000,"station_id":"ce4bhbp2rcd13ifvqerg","pricing_plan_id":"free"},{"bike_id":"7db767f0-4fd4-4996-84e9-9aebe57ff5ef","system_id":"levelo_inurba_marseille","lat":43.283568,"lon":5.386332,"is_reserved":false,"is_disabled":false,"rental_uris":{"android":"levelo://app?vid=7db767f0-4fd4-4996-84e9-9aebe57ff5ef","ios":"levelo://app?vid=7db767f0-4fd4-4996-84e9-9aebe57ff5ef"},"vehicle_type_id":"4","last_reported":1700547025,"current_range_meters":6400,"station_id":"ce4bh492rcd13ifvqdvg","pricing_plan_id":"free"},{"bike_id":"c7cad030-54fa-42c0-bd40-7fe740802999","system_id":"levelo_inurba_marseille","lat":43.280382,"lon":5.369291,"is_reserved":false,"is_disabled":false,"rental_uris":{"android":"levelo://app?vid=c7cad030-54fa-42c0-bd40-7fe740802999","ios":"levelo://app?vid=c7cad030-54fa-42c0-bd40-7fe740802999"},"vehicle_type_id":"4","last_reported":1700547025,"current_range_meters":26000,"station_id":"ce4bha12rcd13ifvqef0","pricing_plan_id":"free"},{"bike_id":"25cde1b0-9bce-4db1-88c7-15e51ad1d681","system_id":"levelo_inurba_marseille","lat":43.28039,"lon":5.369297,"is_reserved":false,"is_disabled":false,"rental_uris":{"android":"levelo://app?vid=25cde1b0-9bce-4db1-88c7-15e51ad1d681","ios":"levelo://app?vid=25cde1b0-9bce-4db1-88c7-15e51ad1d681"},"vehicle_type_id":"4","last_reported":1700547025,"current_range_meters":28800,"station_id":"ce4bha12rcd13ifvqef0","pricing_plan_id":"free"},{"bike_id":"7380e940-dc1c-4e6f-843f-881f8d18b14f","system_id":"levelo_inurba_marseille","lat":43.28039,"lon":5.369297,"is_reserved":false,"is_disabled":false,"rental_uris":{"android":"levelo://app?vid=7380e940-dc1c-4e6f-843f-881f8d18b14f","ios":"levelo://app?vid=7380e940-dc1c-4e6f-843f-881f8d18b14f"},"vehicle_type_id":"4","last_reported":1700547025,"current_range_meters":31200,"station_id":"ce4bha12rcd13ifvqef0","pricing_plan_id":"free"},{"bike_id":"2e0ad2ff-e818-4891-b80c-05a34d19a97c","system_id":"levelo_inurba_marseille","lat":43.280382,"lon":5.369291,"is_reserved":false,"is_disabled":false,"rental_uris":{"android":"levelo://app?vid=2e0ad2ff-e818-4891-b80c-05a34d19a97c","ios":"levelo://app?vid=2e0ad2ff-e818-4891-b80c-05a34d19a97c"},"vehicle_type_id":"4","last_reported":1700547025,"current_range_meters":29200,"station_id":"ce4bha12rcd13ifvqef0","pricing_plan_id":"free"},{"bike_id":"20f738b4-826f-4ca4-b195-f0a95b0b2435","system_id":"levelo_inurba_marseille","lat":43.28356,"lon":5.38645,"is_reserved":false,"is_disabled":false,"rental_uris":{"android":"levelo://app?vid=20f738b4-826f-4ca4-b195-f0a95b0b2435","ios":"levelo://app?vid=20f738b4-826f-4ca4-b195-f0a95b0b2435"},"vehicle_type_id":"4","last_reported":1700547025,"current_range_meters":26000,"station_id":"ce4bh492rcd13ifvqdvg","pricing_plan_id":"free"},{"bike_id":"9f8d16a2-02b6-4578-a232-9e468e78352d","system_id":"levelo_inurba_marseille","lat":43.28039,"lon":5.369297,"is_reserved":false,"is_disabled":false,"rental_uris":{"android":"levelo://app?vid=9f8d16a2-02b6-4578-a232-9e468e78352d","ios":"levelo://app?vid=9f8d16a2-02b6-4578-a232-9e468e78352d"},"vehicle_type_id":"4","last_reported":1700547025,"current_range_meters":20000,"station_id":"ce4bha12rcd13ifvqef0","pricing_plan_id":"free"},{"bike_id":"2ae37c5b-7715-416f-9c0f-26f4d64b1d19","system_id":"levelo_inurba_marseille","lat":43.28031,"lon":5.36946,"is_reserved":false,"is_disabled":false,"rental_uris":{"android":"levelo://app?vid=2ae37c5b-7715-416f-9c0f-26f4d64b1d19","ios":"levelo://app?vid=2ae37c5b-7715-416f-9c0f-26f4d64b1d19"},"vehicle_type_id":"4","last_reported":1700547025,"current_range_meters":29200,"station_id":"ce4bha12rcd13ifvqef0","pricing_plan_id":"free"},{"bike_id":"7bcb60ff-6399-498a-98aa-f387e6d46a6c","system_id":"levelo_inurba_marseille","lat":43.28029,"lon":5.36935,"is_reserved":false,"is_disabled":false,"rental_uris":{"android":"levelo://app?vid=7bcb60ff-6399-498a-98aa-f387e6d46a6c","ios":"levelo://app?vid=7bcb60ff-6399-498a-98aa-f387e6d46a6c"},"vehicle_type_id":"4","last_reported":1700547025,"current_range_meters":27200,"station_id":"ce4bha12rcd13ifvqef0","pricing_plan_id":"free"},{"bike_id":"49697e5f-6081-4c21-8691-6b7faa0f25b6","system_id":"levelo_inurba_marseille","lat":43.304606,"lon":5.379026,"is_reserved":false,"is_disabled":false,"rental_uris":{"android":"levelo://app?vid=49697e5f-6081-4c21-8691-6b7faa0f25b6","ios":"levelo://app?vid=49697e5f-6081-4c21-8691-6b7faa0f25b6"},"vehicle_type_id":"4","last_reported":1700547025,"current_range_meters":31600,"station_id":"ce4bgup2rcd13ifvqcn0","pricing_plan_id":"free"},{"bike_id":"d81e6046-c00c-4f6b-83ca-74a96a19604f","system_id":"levelo_inurba_marseille","lat":43.280939,"lon":5.37842,"is_reserved":false,"is_disabled":false,"rental_uris":{"android":"levelo://app?vid=d81e6046-c00c-4f6b-83ca-74a96a19604f","ios":"levelo://app?vid=d81e6046-c00c-4f6b-83ca-74a96a19604f"},"vehicle_type_id":"4","last_reported":1700547025,"current_range_meters":30800,"station_id":"ce4bha12rcd13ifvqee0","pricing_plan_id":"free"},{"bike_id":"d5289186-996d-405d-b75e-f3b063719718","system_id":"levelo_inurba_marseille","lat":43.28573,"lon":5.394992,"is_reserved":false,"is_disabled":false,"rental_uris":{"android":"levelo://app?vid=d5289186-996d-405d-b75e-f3b063719718","ios":"levelo://app?vid=d5289186-996d-405d-b75e-f3b063719718"},"vehicle_type_id":"4","last_reported":1700547025,"current_range_meters":26400,"station_id":"ce4bh292rcd13ifvqdg0","pricing_plan_id":"free"},{"bike_id":"f78b789f-97cc-40d4-a0c4-3d55bece35c8","system_id":"levelo_inurba_marseille","lat":43.28573,"lon":5.394992,"is_reserved":false,"is_disabled":false,"rental_uris":{"android":"levelo://app?vid=f78b789f-97cc-40d4-a0c4-3d55bece35c8","ios":"levelo://app?vid=f78b789f-97cc-40d4-a0c4-3d55bece35c8"},"vehicle_type_id":"4","last_reported":1700547025,"current_range_meters":26000,"station_id":"ce4bh292rcd13ifvqdg0","pricing_plan_id":"free"},{"bike_id":"42e3c391-a0b9-430d-a9ca-4f16118c6958","system_id":"levelo_inurba_marseille","lat":43.28573,"lon":5.394992,"is_reserved":false,"is_disabled":false,"rental_uris":{"android":"levelo://app?vid=42e3c391-a0b9-430d-a9ca-4f16118c6958","ios":"levelo://app?vid=42e3c391-a0b9-430d-a9ca-4f16118c6958"},"vehicle_type_id":"4","last_reported":1700547025,"current_range_meters":24800,"station_id":"ce4bh292rcd13ifvqdg0","pricing_plan_id":"free"},{"bike_id":"f75b45f4-33a2-467a-be27-c195d12cb451","system_id":"levelo_inurba_marseille","lat":43.28573,"lon":5.394992,"is_reserved":false,"is_disabled":false,"rental_uris":{"android":"levelo://app?vid=f75b45f4-33a2-467a-be27-c195d12cb451","ios":"levelo://app?vid=f75b45f4-33a2-467a-be27-c195d12cb451"},"vehicle_type_id":"4","last_reported":1700547025,"current_range_meters":17600,"station_id":"ce4bh292rcd13ifvqdg0","pricing_plan_id":"free"},{"bike_id":"0b6eacbb-eb42-4562-b7c7-2a2453269689","system_id":"levelo_inurba_marseille","lat":43.28573,"lon":5.394992,"is_reserved":false,"is_disabled":false,"rental_uris":{"android":"levelo://app?vid=0b6eacbb-eb42-4562-b7c7-2a2453269689","ios":"levelo://app?vid=0b6eacbb-eb42-4562-b7c7-2a2453269689"},"vehicle_type_id":"4","last_reported":1700547025,"current_range_meters":28000,"station_id":"ce4bh292rcd13ifvqdg0","pricing_plan_id":"free"},{"bike_id":"e7ec0292-f5e0-4492-ad53-e9aea0932144","system_id":"levelo_inurba_marseille","lat":43.304166,"lon":5.412884,"is_reserved":false,"is_disabled":false,"rental_uris":{"android":"levelo://app?vid=e7ec0292-f5e0-4492-ad53-e9aea0932144","ios":"levelo://app?vid=e7ec0292-f5e0-4492-ad53-e9aea0932144"},"vehicle_type_id":"4","last_reported":1700547025,"current_range_meters":30800,"station_id":"ce4bhop2rcd13ifvqh8g","pricing_plan_id":"free"},{"bike_id":"2e06cf54-8977-4fec-8c9f-211cea5b93e6","system_id":"levelo_inurba_marseille","lat":43.320045,"lon":5.415046,"is_reserved":false,"is_disabled":false,"rental_uris":{"android":"levelo://app?vid=2e06cf54-8977-4fec-8c9f-211cea5b93e6","ios":"levelo://app?vid=2e06cf54-8977-4fec-8c9f-211cea5b93e6"},"vehicle_type_id":"4","last_reported":1700547025,"current_range_meters":30800,"station_id":"ce4bhq92rcd13ifvqhkg","pricing_plan_id":"free"},{"bike_id":"97748afb-010c-4cc9-8628-192e058e9b50","system_id":"levelo_inurba_marseille","lat":43.299579,"lon":5.413255,"is_reserved":false,"is_disabled":false,"rental_uris":{"android":"levelo://app?vid=97748afb-010c-4cc9-8628-192e058e9b50","ios":"levelo://app?vid=97748afb-010c-4cc9-8628-192e058e9b50"},