{"last_updated":1760202448,"ttl":60,"version":"2.2","data":{"bikes":[{"bike_id":"5516e87b-8441-4871-bd1c-dcd0126e113d","system_id":"levelo_inurba_marseille","lat":43.337444,"lon":5.374475,"is_reserved":false,"is_disabled":true,"rental_uris":{"android":"levelo://app?vid=5516e87b-8441-4871-bd1c-dcd0126e113d","ios":"levelo://app?vid=5516e87b-8441-4871-bd1c-dcd0126e113d"},"vehicle_type_id":"4","last_reported":1760202448,"current_range_meters":0,"station_id":"","pricing_plan_id":"cebpf4jnsgd1na2vs0mg"},{"bike_id":"f9ef6a8c-cc82-49e4-96c2-f46e0950a0fc","system_id":"levelo_inurba_marseille","lat":43.33771,"lon":5.37424,"is_reserved":false,"is_disabled":true,"rental_uris":{"android":"levelo://app?vid=f9ef6a8c-cc82-49e4-96c2-f46e0950a0fc","ios":"levelo://app?vid=f9ef6a8c-cc82-49e4-96c2-f46e0950a0fc"},"vehicle_type_id":"4","last_reported":1760202448,"current_range_meters":0,"station_id":"","pricing_plan_id":"cebpf4jnsgd1na2vs0mg"},{"bike_id":"f92995dc-d2e7-4f2e-bcaf-27995c98a1de","system_id":"levelo_inurba_marseille","lat":43.33751,"lon":5.37456,"is_reserved":false,"is_disabled":true,"rental_uris":{"android":"levelo://app?vid=f92995dc-d2e7-4f2e-bcaf-27995c98a1de","ios":"levelo://app?vid=f92995dc-d2e7-4f2e-bcaf-27995c98a1de"},"vehicle_type_id":"4","last_reported":1760202448,"current_range_meters":0,"station_id":"","pricing_plan_id":"cebpf4jnsgd1na2vs0mg"},{"bike_id":"092183e8-1e36-4ece-a29a-68743a5820f6","system_id":"levelo_inurba_marseille","lat":43.33747,"lon":5.37463,"is_reserved":false,"is_disabled":true,"rental_uris":{"android":"levelo://app?vid=092183e8-1e36-4ece-a29a-68743a5820f6","ios":"levelo://app?vid=092183e8-1e36-4ece-a29a-68743a5820f6"},"vehicle_type_id":"1","last_reported":1760202448,"current_range_meters":0,"station_id":"","pricing_plan_id":"cebpf4jnsgd1na2vs0mg"},{"bike_id":"268f0f13-c790-4518-9f6a-1fe45b445342","system_id":"levelo_inurba_marseille","lat":43.33737,"lon":5.37465,"is_reserved":false,"is_disabled":true,"rental_uris":{"android":"levelo://app?vid=268f0f13-c790-4518-9f6a-1fe45b445342","ios":"levelo://app?vid=268f0f13-c790-4518-9f6a-1fe45b445342"},"vehicle_type_id":"4","last_reported":1760202448,"current_range_meters":0,"station_id":"","pricing_plan_id":"cebpf4jnsgd1na2vs0mg"},{"bike_id":"844de8fa-b1ed-4b48-bbb0-8ea30f04e6fa","system_id":"levelo_inurba_marseille","lat":43.33755,"lon":5.37468,"is_reserved":false,"is_disabled":false,"rental_uris":{"android":"levelo://app?vid=844de8fa-b1ed-4b48-bbb0-8ea30f04e6fa","ios":"levelo://app?vid=844de8fa-b1ed-4b48-bbb0-8ea30f04e6fa"},"vehicle_type_id":"4","last_reported":1760202448,"current_range_meters":4400,"station_id":"","pricing_plan_id":"cebpf4jnsgd1na2vs0mg"},{"bike_id":"affea08d-2e61-49ad-9018-2db734fe38fb","system_id":"levelo_inurba_marseille","lat":43.337444,"lon":5.374475,"is_reserved":false,"is_disabled":true,"rental_uris":{"android":"levelo://app?vid=affea08d-2e61-49ad-9018-2db734fe38fb","ios":"levelo://app?vid=affea08d-2e61-49ad-9018-2db734fe38fb"},"vehicle_type_id":"4","last_reported":1760202448,"current_range_meters":0,"station_id":"","pricing_plan_id":"cebpf4jnsgd1na2vs0mg"},{"bike_id":"c80be3e3-26c1-4fd2-ab94-730bb8638bdc","system_id":"levelo_inurba_marseille","lat":43.337444,"lon":5.374475,"is_reserved":false,"is_disabled":true,"rental_uris":{"android":"levelo://app?vid=c80be3e3-26c1-4fd2-ab94-730bb8638bdc","ios":"levelo://app?vid=c80be3e3-26c1-4fd2-ab94-730bb8638bdc"},"vehicle_type_id":"4","last_reported":1760202448,"current_range_meters":0,"station_id":"","pricing_plan_id":"cebpf4jnsgd1na2vs0mg"},{"bike_id":"1d6245e4-562b-49a1-9e17-90a195bca958","system_id":"levelo_inurba_marseille","lat":43.225342,"lon":5.348367,"is_reserved":false,"is_disabled":true,"rental_uris":{"android":"levelo://app?vid=1d6245e4-562b-49a1-9e17-90a195bca958","ios":"levelo://app?vid=1d6245e4-562b-49a1-9e17-90a195bca958"},"vehicle_type_id":"4","last_reported":1760202448,"current_range_meters":0,"station_id":"","pricing_plan_id":"cebpf4jnsgd1na2vs0mg"},{"bike_id":"bd28807f-fe55-4614-87a8-ec585c9f9cca","system_id":"levelo_inurba_marseille","lat":43.29335,"lon":5.40127,"is_reserved":false,"is_disabled":true,"rental_uris":{"android":"levelo://app?vid=bd28807f-fe55-4614-87a8-ec585c9f9cca","ios":"levelo://app?vid=bd28807f-fe55-4614-87a8-ec585c9f9cca"},"vehicle_type_id":"4","last_reported":1760202448,"current_range_meters":0,"station_id":"","pricing_plan_id":"cebpf4jnsgd1na2vs0mg"},{"bike_id":"f8726700-64d6-4ff8-acc0-9adfce94dbe9","system_id":"levelo_inurba_marseille","lat":43.27839,"lon":5.38306,"is_reserved":false,"is_disabled":true,"rental_uris":{"android":"levelo://app?vid=f8726700-64d6-4ff8-acc0-9adfce94dbe9","ios":"levelo://app?vid=f8726700-64d6-4ff8-acc0-9adfce94dbe9"},"vehicle_type_id":"4","last_reported":1760202448,"current_range_meters":0,"station_id":"","pricing_plan_id":"cebpf4jnsgd1na2vs0mg"},{"bike_id":"b4e7ef10-af79-4cf8-a207-60ed0a922607","system_id":"levelo_inurba_marseille","lat":43.337444,"lon":5.374475,"is_reserved":false,"is_disabled":true,"rental_uris":{"android":"levelo://app?vid=b4e7ef10-af79-4cf8-a207-60ed0a922607","ios":"levelo://app?vid=b4e7ef10-af79-4cf8-a207-60ed0a922607"},"vehicle_type_id":"4","last_reported":1760202448,"current_range_meters":0,"station_id":"","pricing_plan_id":"cebpf4jnsgd1na2vs0mg"},{"bike_id":"4ccf7a59-029f-457f-b839-dc6f11286326","system_id":"levelo_inurba_marseille","lat":43.31767,"lon":5.4222,"is_reserved":false,"is_disabled":true,"rental_uris":{"android":"levelo://app?vid=4ccf7a59-029f-457f-b839-dc6f11286326","ios":"levelo://app?vid=4ccf7a59-029f-457f-b839-dc6f11286326"},"vehicle_type_id":"4","last_reported":1760202448,"current_range_meters":0,"station_id":"","pricing_plan_id":"cebpf4jnsgd1na2vs0mg"},{"bike_id":"8f2a7ab2-aca6-46d7-b646-8b76230702af","system_id":"levelo_inurba_marseille","lat":43.292801,"lon":5.368444,"is_reserved":false,"is_disabled":true,"rental_uris":{"android":"levelo://app?vid=8f2a7ab2-aca6-46d7-b646-8b76230702af","ios":"levelo://app?vid=8f2a7ab2-aca6-46d7-b646-8b76230702af"},"vehicle_type_id":"4","last_reported":1760202448,"current_range_meters":0,"station_id":"","pricing_plan_id":"cebpf4jnsgd1na2vs0mg"},{"bike_id":"bf0cd1f5-4a2b-4aae-9f11-cde060414574","system_id":"levelo_inurba_marseille","lat":43.2254,"lon":5.34825,"is_reserved":false,"is_disabled":true,"rental_uris":{"android":"levelo://app?vid=bf0cd1f5-4a2b-4aae-9f11-cde060414574","ios":"levelo://app?vid=bf0cd1f5-4a2b-4aae-9f11-cde060414574"},"vehicle_type_id":"4","last_reported":1760202448,"current_range_meters":0,"station_id":"","pricing_plan_id":"cebpf4jnsgd1na2vs0mg"},{"bike_id":"965a8a08-c75e-46eb-9d5c-889ad06826bd","system_id":"levelo_inurba_marseille","lat":43.290036,"lon":5.35617,"is_reserved":false,"is_disabled":true,"rental_uris":{"android":"levelo://app?vid=965a8a08-c75e-46eb-9d5c-889ad06826bd","ios":"levelo://app?vid=965a8a08-c75e-46eb-9d5c-889ad06826bd"},"vehicle_type_id":"4","last_reported":1760202448,"current_range_meters":0,"station_id":"","pricing_plan_id":"cebpf4jnsgd1na2vs0mg"},{"bike_id":"faf21e59-73fe-43ba-965b-23c7230d33c8","system_id":"levelo_inurba_marseille","lat":43.270557,"lon":5.392632,"is_reserved":false,"is_disabled":true,"rental_uris":{"android":"levelo://app?vid=faf21e59-73fe-43ba-965b-23c7230d33c8","ios":"levelo://app?vid=faf21e59-73fe-43ba-965b-23c7230d33c8"},"vehicle_type_id":"4","last_reported":1760202448,"current_range_meters":0,"station_id":"","pricing_plan_id":"cebpf4jnsgd1na2vs0mg"},{"bike_id":"6789b0b1-4cdb-4364-8db0-2230f3507239","system_id":"levelo_inurba_marseille","lat":43.29457,"lon":5.43357,"is_reserved":false,"is_disabled":true,"rental_uris":{"android":"levelo://app?vid=6789b0b1-4cdb-4364-8db0-2230f3507239","ios":"levelo://app?vid=6789b0b1-4cdb-4364-8db0-2230f3507239"},"vehicle_type_id":"4","last_reported":1760202448,"current_range_meters":0,"station_id":"","pricing_plan_id":"cebpf4jnsgd1na2vs0mg"},{"bike_id":"ec39affe-5e48-4259-a225-7a0d248d923e","system_id":"levelo_inurba_marseille","lat":43.29588,"lon":5.3798,"is_reserved":false,"is_disabled":true,"rental_uris":{"android":"levelo://app?vid=ec39affe-5e48-4259-a225-7a0d248d923e","ios":"levelo://app?vid=ec39affe-5e48-4259-a225-7a0d248d923e"},"vehicle_type_id":"4","last_reported":1760202448,"current_range_meters":0,"station_id":"","pricing_plan_id":"cebpf4jnsgd1na2vs0mg"},{"bike_id":"72f4e57f-6659-4c04-a1cb-68871dfffe72","system_id":"levelo_inurba_marseille","lat":43.27617,"lon":5.36123,"is_reserved":false,"is_disabled":true,"rental_uris":{"android":"levelo://app?vid=72f4e57f-6659-4c04-a1cb-68871dfffe72","ios":"levelo://app?vid=72f4e57f-6659-4c04-a1cb-68871dfffe72"},"vehicle_type_id":"4","last_reported":1760202448,"current_range_meters":0,"station_id":"ce4bgj92rcd13ifvqbe0","pricing_plan_id":"cebpf4jnsgd1na2vs0mg"},{"bike_id":"dc8bfc7c-341e-4bb7-aa42-1b9ebee931bd","system_id":"levelo_inurba_marseille","lat":43.296,"lon":5.3811,"is_reserved":false,"is_disabled":true,"rental_uris":{"android":"levelo://app?vid=dc8bfc7c-341e-4bb7-aa42-1b9ebee931bd","ios":"levelo://app?vid=dc8bfc7c-341e-4bb7-aa42-1b9ebee931bd"},"vehicle_type_id":"4","last_reported":1760202448,"current_range_meters":0,"station_id":"ce4bgl12rcd13ifvqbo0","pricing_plan_id":"cebpf4jnsgd1na2vs0mg"},{"bike_id":"eed5d8fc-5ff5-4cf0-958c-4b09b2674452","system_id":"levelo_inurba_marseille","lat":43.31482,"lon":5.37313,"is_reserved":false,"is_disabled":true,"rental_uris":{"android":"levelo://app?vid=eed5d8fc-5ff5-4cf0-958c-4b09b2674452","ios":"levelo://app?vid=eed5d8fc-5ff5-4cf0-958c-4b09b2674452"},"vehicle_type_id":"4","last_reported":1760202448,"current_range_meters":0,"station_id":"ce4bgt12rcd13ifvqcd0","pricing_plan_id":"cebpf4jnsgd1na2vs0mg"},{"bike_id":"41f9a2fc-8f59-460b-b1c0-e1eb5f57b7c1","system_id":"levelo_inurba_marseille","lat":43.31106,"lon":5.37763,"is_reserved":false,"is_disabled":true,"rental_uris":{"android":"levelo://app?vid=41f9a2fc-8f59-460b-b1c0-e1eb5f57b7c1","ios":"levelo://app?vid=41f9a2fc-8f59-460b-b1c0-e1eb5f57b7c1"},"vehicle_type_id":"4","last_reported":1760202448,"current_range_meters":0,"station_id":"ce4bgt92rcd13ifvqcg0","pricing_plan_id":"cebpf4jnsgd1na2vs0mg"},{"bike_id":"cccf236a-9273-4051-a573-8761e556ca18","system_id":"levelo_inurba_marseille","lat":43.30971,"lon":5.4015,"is_reserved":false,"is_disabled":true,"rental_uris":{"android":"levelo://app?vid=cccf236a-9273-4051-a573-8761e556ca18","ios":"levelo://app?vid=cccf236a-9273-4051-a573-8761e556ca18"},"vehicle_type_id":"4","last_reported":1760202448,"current_range_meters":0,"station_id":"ce4bgvp2rcd13ifvqct0","pricing_plan_id":"cebpf4jnsgd1na2vs0mg"},{"bike_id":"90bee144-32cd-4cdf-922d-2257ff3b894f","system_id":"levelo_inurba_marseille","lat":43.3133,"lon":5.39713,"is_reserved":false,"is_disabled":true,"rental_uris":{"android":"levelo://app?vid=90bee144-32cd-4cdf-922d-2257ff3b894f","ios":"levelo://app?vid=90bee144-32cd-4cdf-922d-2257ff3b894f"},"vehicle_type_id":"4","last_reported":1760202448,"current_range_meters":0,"station_id":"ce4bgvp2rcd13ifvqcu0","pricing_plan_id":"cebpf4jnsgd1na2vs0mg"},{"bike_id":"61e3893d-f5b8-43a6-ab6c-6bffef29729b","system_id":"levelo_inurba_marseille","lat":43.28843,"lon":5.39326,"is_reserved":false,"is_disabled":true,"rental_uris":{"android":"levelo://app?vid=61e3893d-f5b8-43a6-ab6c-6bffef29729b","ios":"levelo://app?vid=61e3893d-f5b8-43a6-ab6c-6bffef29729b"},"vehicle_type_id":"4","last_reported":1760202448,"current_range_meters":0,"station_id":"ce4bh2p2rcd13ifvqdi0","pricing_plan_id":"cebpf4jnsgd1na2vs0mg"},{"bike_id":"6dcacf76-fdc7-44d7-a5a9-290e33dfcf93","system_id":"levelo_inurba_marseille","lat":43.289307,"lon":5.384097,"is_reserved":false,"is_disabled":false,"rental_uris":{"android":"levelo://app?vid=6dcacf76-fdc7-44d7-a5a9-290e33dfcf93","ios":"levelo://app?vid=6dcacf76-fdc7-44d7-a5a9-290e33dfcf93"},"vehicle_type_id":"4","last_reported":1760202448,"current_range_meters":0,"station_id":"ce4bh612rcd13ifvqe6g","pricing_plan_id":"cebpf4jnsgd1na2vs0mg"},{"bike_id":"1e217379-81fc-498c-ab5f-050b06faee8c","system_id":"levelo_inurba_marseille","lat":43.28038,"lon":5.36945,"is_reserved":false,"is_disabled":true,"rental_uris":{"android":"levelo://app?vid=1e217379-81fc-498c-ab5f-050b06faee8c","ios":"levelo://app?vid=1e217379-81fc-498c-ab5f-050b06faee8c"},"vehicle_type_id":"4","last_reported":1760202448,"current_range_meters":0,"station_id":"ce4bha12rcd13ifvqef0","pricing_plan_id":"cebpf4jnsgd1na2vs0mg"},{"bike_id":"61fed68e-1a42-4b25-9f0c-ba4d50384443","system_id":"levelo_inurba_marseille","lat":43.29042,"lon":5.35918,"is_reserved":false,"is_disabled":true,"rental_uris":{"android":"levelo://app?vid=61fed68e-1a42-4b25-9f0c-ba4d50384443","ios":"levelo://app?vid=61fed68e-1a42-4b25-9f0c-ba4d50384443"},"vehicle_type_id":"4","last_reported":1760202448,"current_range_meters":0,"station_id":"ce4bha92rcd13ifvqeg0","pricing_plan_id":"cebpf4jnsgd1na2vs0mg"},{"bike_id":"a915dac7-8db0-4a75-8e4d-9dfd48ce7357","system_id":"levelo_inurba_marseille","lat":43.29012,"lon":5.35604,"is_reserved":false,"is_disabled":true,"rental_uris":{"android":"levelo://app?vid=a915dac7-8db0-4a75-8e4d-9dfd48ce7357","ios":"levelo://app?vid=a915dac7-8db0-4a75-8e4d-9dfd48ce7357"},"vehicle_type_id":"4","last_reported":1760202448,"current_range_meters":0,"station_id":"ce4bhb92rcd13ifvqen0","pricing_plan_id":"cebpf4jnsgd1na2vs0mg"},{"bike_id":"bc54c7c7-7e43-4177-bf99-b0409d098757","system_id":"levelo_inurba_marseille","lat":43.286133,"lon":5.351082,"is_reserved":false,"is_disabled":true,"rental_uris":{"android":"levelo://app?vid=bc54c7c7-7e43-4177-bf99-b0409d098757","ios":"levelo://app?vid=bc54c7c7-7e43-4177-bf99-b0409d098757"},"vehicle_type_id":"4","last_reported":1760202448,"current_range_meters":0,"station_id":"ce4bhch2rcd13ifvqeug","pricing_plan_id":"cebpf4jnsgd1na2vs0mg"},{"bike_id":"d572a783-d01d-4d09-9c9b-ad3264f84866","system_id":"levelo_inurba_marseille","lat":43.27983,"lon":5.38741,"is_reserved":false,"is_disabled":true,"rental_uris":{"android":"levelo://app?vid=d572a783-d01d-4d09-9c9b-ad3264f84866","ios":"levelo://app?vid=d572a783-d01d-4d09-9c9b-ad3264f84866"},"vehicle_type_id":"4","last_reported":1760202448,"current_range_meters":0,"station_id":"ce4bhg12rcd13ifvqf80","pricing_plan_id":"cebpf4jnsgd1na2vs0mg"},{"bike_id":"4132155a-efb5-4864-a6e4-79531e3344e9","system_id":"levelo_inurba_marseille","lat":43.26681,"lon":5.38273,"is_reserved":false,"is_disabled":true,"rental_uris":{"android":"levelo://app?vid=4132155a-efb5-4864-a6e4-79531e3344e9","ios":"levelo://app?vid=4132155a-efb5-4864-a6e4-79531e3344e9"},"vehicle_type_id":"4","last_reported":1760202448,"current_range_meters":0,"station_id":"ce4bhg92rcd13ifvqf90","pricing_plan_id":"cebpf4jnsgd1na2vs0mg"},{"bike_id":"b45cc8a7-810b-4bb7-87ab-409ffa749c2a","system_id":"levelo_inurba_marseille","lat":43.2621,"lon":5.37446,"is_reserved":false,"is_disabled":true,"rental_uris":{"android":"levelo://app?vid=b45cc8a7-810b-4bb7-87ab-409ffa749c2a","ios":"levelo://app?vid=b45cc8a7-810b-4bb7-87ab-409ffa749c2a"},"vehicle_type_id":"4","last_reported":1760202448,"current_range_meters":0,"station_id":"ce4bhgp2rcd13ifvqfc0","pricing_plan_id":"cebpf4jnsgd1na2vs0mg"},{"bike_id":"d40645f7-cd0b-418d-b946-1ab56f8c8d21","system_id":"levelo_inurba_marseille","lat":43.25477,"lon":5.37661,"is_reserved":false,"is_disabled":true,"rental_uris":{"android":"levelo://app?vid=d40645f7-cd0b-418d-b946-1ab56f8c8d21","ios":"levelo://app?vid=d40645f7-cd0b-418d-b946-1ab56f8c8d21"},"vehicle_type_id":"4","last_reported":1760202448,"current_range_meters":0,"station_id":"ce4bhh12rcd13ifvqff0","pricing_plan_id":"cebpf4jnsgd1na2vs0mg"},{"bike_id":"3887862d-f64a-4cba-adb1-178f06a081f8","system_id":"levelo_inurba_marseille","lat":43.23965,"lon":5.36637,"is_reserved":false,"is_disabled":true,"rental_uris":{"android":"levelo://app?vid=3887862d-f64a-4cba-adb1-178f06a081f8","ios":"levelo://app?vid=3887862d-f64a-4cba-adb1-178f06a081f8"},"vehicle_type_id":"4","last_reported":1760202448,"current_range_meters":0,"station_id":"ce4bhi12rcd13ifvqfp0","pricing_plan_id":"cebpf4jnsgd1na2vs0mg"},{"bike_id":"3dae5307-963e-4a82-8023-bba60dcf2f82","system_id":"levelo_inurba_marseille","lat":43.25579,"lon":5.38245,"is_reserved":false,"is_disabled":true,"rental_uris":{"android":"levelo://app?vid=3dae5307-963e-4a82-8023-bba60dcf2f82","ios":"levelo://app?vid=3dae5307-963e-4a82-8023-bba60dcf2f82"},"vehicle_type_id":"4","last_reported":1760202448,"current_range_meters":0,"station_id":"ce4bhih2rcd13ifvqfs0","pricing_plan_id":"cebpf4jnsgd1na2vs0mg"},{"bike_id":"8f26cd17-54eb-4485-8ec1-5a73a5c5f5b2","system_id":"levelo_inurba_marseille","lat":43.24552,"lon":5.39517,"is_reserved":false,"is_disabled":true,"rental_uris":{"android":"levelo://app?vid=8f26cd17-54eb-4485-8ec1-5a73a5c5f5b2","ios":"levelo://app?vid=8f26cd17-54eb-4485-8ec1-5a73a5c5f5b2"},"vehicle_type_id":"4","last_reported":1760202448,"current_range_meters":0,"station_id":"ce4bhlp2rcd13ifvqgjg","pricing_plan_id":"cebpf4jnsgd1na2vs0mg"},{"bike_id":"0a138a69-804e-4a3a-ae0d-3fe3da1fb32d","system_id":"levelo_inurba_marseille","lat":43.23152,"lon":5.43705,"is_reserved":false,"is_disabled":true,"rental_uris":{"android":"levelo://app?vid=0a138a69-804e-4a3a-ae0d-3fe3da1fb32d","ios":"levelo://app?vid=0a138a69-804e-4a3a-ae0d-3fe3da1fb32d"},"vehicle_type_id":"4","last_reported":1760202448,"current_range_meters":0,"station_id":"ce4bhmp2rcd13ifvqgog","pricing_plan_id":"cebpf4jnsgd1na2vs0mg"},{"bike_id":"b8f2f7c7-e08a-4589-bf41-154013c54438","system_id":"levelo_inurba_marseille","lat":43.28231,"lon":5.39037,"is_reserved":false,"is_disabled":true,"rental_uris":{"android":"levelo://app?vid=b8f2f7c7-e08a-4589-bf41-154013c54438","ios":"levelo://app?vid=b8f2f7c7-e08a-4589-bf41-154013c54438"},"vehicle_type_id":"4","last_reported":1760202448,"current_range_meters":0,"station_id":"ce4bhn92rcd13ifvqgsg","pricing_plan_id":"cebpf4jnsgd1na2vs0mg"},{"bike_id":"f2c4935e-c062-41ce-becc-cb12dd866718","system_id":"levelo_inurba_marseille","lat":43.240692,"lon":5.377719,"is_reserved":false,"is_disabled":true,"rental_uris":{"android":"levelo://app?vid=f2c4935e-c062-41ce-becc-cb12dd866718","ios":"levelo://app?vid=f2c4935e-c062-41ce-becc-cb12dd866718"},"vehicle_type_id":"4","last_reported":1760202448,"current_range_meters":0,"station_id":"ce4bhnp2rcd13ifvqgvg","pricing_plan_id":"cebpf4jnsgd1na2vs0mg"},{"bike_id":"2c83d905-0ba8-4d66-bb38-2e7b5d34e5d7","system_id":"levelo_inurba_marseille","lat":43.28073,"lon":5.39665,"is_reserved":false,"is_disabled":true,"rental_uris":{"android":"levelo://app?vid=2c83d905-0ba8-4d66-bb38-2e7b5d34e5d7","ios":"levelo://app?vid=2c83d905-0ba8-4d66-bb38-2e7b5d34e5d7"},"vehicle_type_id":"4","last_reported":1760202448,"current_range_meters":0,"station_id":"ce4bho12rcd13ifvqh2g","pricing_plan_id":"cebpf4jnsgd1na2vs0mg"},{"bike_id":"f9c19ee0-e263-4899-8e1d-67ae5a7da266","system_id":"levelo_inurba_marseille","lat":43.310835,"lon":5.424292,"is_reserved":false,"is_disabled":true,"rental_uris":{"android":"levelo://app?vid=f9c19ee0-e263-4899-8e1d-67ae5a7da266","ios":"levelo://app?vid=f9c19ee0-e263-4899-8e1d-67ae5a7da266"},"vehicle_type_id":"4","last_reported":1760202448,"current_range_meters":0,"station_id":"ce4bhp92rcd13ifvqhag","pricing_plan_id":"cebpf4jnsgd1na2vs0mg"},{"bike_id":"b2e2b38d-36f4-4e15-986e-723132819a60","system_id":"levelo_inurba_marseille","lat":43.30813,"lon":5.43544,"is_reserved":false,"is_disabled":true,"rental_uris":{"android":"levelo://app?vid=b2e2b38d-36f4-4e15-986e-723132819a60","ios":"levelo://app?vid=b2e2b38d-36f4-4e15-986e-723132819a60"},"vehicle_type_id":"4","last_reported":1760202448,"current_range_meters":0,"station_id":"ce4bhph2rcd13ifvqheg","pricing_plan_id":"cebpf4jnsgd1na2vs0mg"},{"bike_id":"3cdc7613-ace4-4007-83db-fd1d9f82df2d","system_id":"levelo_inurba_marseille","lat":43.28611,"lon":5.3707,"is_reserved":false,"is_disabled":true,"rental_uris":{"android":"levelo://app?vid=3cdc7613-ace4-4007-83db-fd1d9f82df2d","ios":"levelo://app?vid=3cdc7613-ace4-4007-83db-fd1d9f82df2d"},"vehicle_type_id":"4","last_reported":1760202448,"current_range_meters":0,"station_id":"ce4bht12rcd13ifvqi60","pricing_plan_id":"cebpf4jnsgd1na2vs0mg"},{"bike_id":"0ff28379-d69e-46fd-a711-ef84b1b06a74","system_id":"levelo_inurba_marseille","lat":43.217484,"lon":5.345973,"is_reserved":false,"is_disabled":true,"rental_uris":{"android":"levelo://app?vid=0ff28379-d69e-46fd-a711-ef84b1b06a74","ios":"levelo://app?vid=0ff28379-d69e-46fd-a711-ef84b1b06a74"},"vehicle_type_id":"4","last_reported":1760202448,"current_range_meters":0,"station_id":"st_cvj6r9ubvosntc0bgbag","pricing_plan_id":"cebpf4jnsgd1na2vs0mg"},{"bike_id":"bc508d92-e055-4123-8e72-1c0771f1f4a0","system_id":"levelo_inurba_marseille","lat":43.21741,"lon":5.34618,"is_reserved":false,"is_disabled":true,"rental_uris":{"android":"levelo://app?vid=bc508d92-e055-4123-8e72-1c0771f1f4a0","ios":"levelo://app?vid=bc508d92-e055-4123-8e72-1c0771f1f4a0"},"vehicle_type_id":"4","last_reported":1760202448,"current_range_meters":0,"station_id":"st_cvj6r9ubvosntc0bgbag","pricing_plan_id":"cebpf4jnsgd1na2vs0mg"},{"bike_id":"86eca012-edfb-4c20-9aef-d37ce3cadbda","system_id":"levelo_inurba_marseille","lat":43.21195,"lon":5.35074,"is_reserved":false,"is_disabled":true,"rental_uris":{"android":"levelo://app?vid=86eca012-edfb-4c20-9aef-d37ce3cadbda","ios":"levelo://app?vid=86eca012-edfb-4c20-9aef-d37ce3cadbda"},"vehicle_type_id":"4","last_reported":1760202448,"current_range_meters":0,"station_id":"st_cvj6sg6p6f1abm77japg","pricing_plan_id":"cebpf4jnsgd1na2vs0mg"},{"bike_id":"5206f34d-5c08-42bd-b24d-21b13734d2e6","system_id":"levelo_inurba_marseille","lat":43.21179,"lon":5.3511,"is_reserved":false,"is_disabled":true,"rental_uris":{"android":"levelo://app?vid=5206f34d-5c08-42bd-b24d-21b13734d2e6","ios":"levelo://app?vid=5206f34d-5c08-42bd-b24d-21b13734d2e6"},"vehicle_type_id":"4","last_reported":1760202448,"current_range_meters":0,"station_id":"st_cvj6sg6p6f1abm77japg","pricing_plan_id":"cebpf4jnsgd1na2vs0mg"},{"bike_id":"5a1f50b1-f1f9-4f02-a3c5-363250f2c45b","system_id":"levelo_inurba_marseille","lat":43.21186,"lon":5.3508,"is_reserved":false,"is_disabled":true,"rental_uris":{"android":"levelo://app?vid=5a1f50b1-f1f9-4f02-a3c5-363250f2c45b","ios":"levelo://app?vid=5a1f50b1-f1f9-4f02-a3c5-363250f2c45b"},"vehicle_type_id":"4","last_reported":1760202448,"current_range_meters":0,"station_id":"st_cvj6sg6p6f1abm77japg","pricing_plan_id":"cebpf4jnsgd1na2vs0mg"},{"bike_id":"c31f5b0e-d798-4f12-be52-283c24a28126","system_id":"levelo_inurba_marseille","lat":43.21188,"lon":5.35082,"is_reserved":false,"is_disabled":true,"rental_uris":{"android":"levelo://app?vid=c31f5b0e-d798-4f12-be52-283c24a28126","ios":"levelo://app?vid=c31f5b0e-d798-4f12-be52-283c24a28126"},"vehicle_type_id":"4","last_reported":1760202448,"current_range_meters":0,"station_id":"st_cvj6sg6p6f1abm77japg","pricing_plan_id":"cebpf4jnsgd1na2vs0mg"},{"bike_id":"48a0041b-83a8-40b4-8366-8550bbaec9ea","system_id":"levelo_inurba_marseille","lat":43.21182,"lon":5.35072,"is_reserved":false,"is_disabled":true,"rental_uris":{"android":"levelo://app?vid=48a0041b-83a8-40b4-8366-8550bbaec9ea","ios":"levelo://app?vid=48a0041b-83a8-40b4-8366-8550bbaec9ea"},"vehicle_type_id":"4","last_reported":1760202448,"current_range_meters":0,"station_id":"st_cvj6sg6p6f1abm77japg","pricing_plan_id":"cebpf4jnsgd1na2vs0mg"},{"bike_id":"318f22a7-5f50-43d5-95c9-0eb28a028a8f","system_id":"levelo_inurba_marseille","lat":43.22568,"lon":5.41625,"is_reserved":false,"is_disabled":true,"rental_uris":{"android":"levelo://app?vid=318f22a7-5f50-43d5-95c9-0eb28a028a8f","ios":"levelo://app?vid=318f22a7-5f50-43d5-95c9-0eb28a028a8f"},"vehicle_type_id":"4","last_reported":1760202448,"current_range_meters":0,"station_id":"st_d2o4gvlbi1j2169b742g","pricing_plan_id":"cebpf4jnsgd1na2vs0mg"},{"bike_id":"db9cfeae-a7b4-4f0d-8fca-7954ad6e7eec","system_id":"levelo_inurba_marseille","lat":43.29854,"lon":5.36267,"is_reserved":false,"is_disabled":true,"rental_uris":{"android":"levelo://app?vid=db9cfeae-a7b4-4f0d-8fca-7954ad6e7eec","ios":"levelo://app?vid=db9cfeae-a7b4-4f0d-8fca-7954ad6e7eec"},"vehicle_type_id":"4","last_reported":1760202448,"current_range_meters":400,"station_id":"ce4bgpp2rcd13ifvqc3g","pricing_plan_id":"cebpf4jnsgd1na2vs0mg"},{"bike_id":"7cd19abb-b195-4ff0-bf6b-d8602777eb31","system_id":"levelo_inurba_marseille","lat":43.28349,"lon":5.38115,"is_reserved":false,"is_disabled":true,"rental_uris":{"android":"levelo://app?vid=7cd19abb-b195-4ff0-bf6b-d8602777eb31","ios":"levelo://app?vid=7cd19abb-b195-4ff0-bf6b-d8602777eb31"},"vehicle_type_id":"4","last_reported":1760202448,"current_range_meters":400,"station_id":"ce4bh412rcd13ifvqdr0","pricing_plan_id":"cebpf4jnsgd1na2vs0mg"},{"bike_id":"4538a4d0-8a63-4a49-8cb0-5af526072cde","system_id":"levelo_inurba_marseille","lat":43.292603,"lon":5.384394,"is_reserved":false,"is_disabled":true,"rental_uris":{"android":"levelo://app?vid=4538a4d0-8a63-4a49-8cb0-5af526072cde","ios":"levelo://app?vid=4538a4d0-8a63-4a49-8cb0-5af526072cde"},"vehicle_type_id":"4","last_reported":1760202448,"current_range_meters":400,"station_id":"ce4bh692rcd13ifvqea0","pricing_plan_id":"cebpf4jnsgd1na2vs0mg"},{"bike_id":"273250ba-f958-4fea-a8bd-da4281ccae15","system_id":"levelo_inurba_marseille","lat":43.28035,"lon":5.36944,"is_reserved":false,"is_disabled":true,"rental_uris":{"android":"levelo://app?vid=273250ba-f958-4fea-a8bd-da4281ccae15","ios":"levelo://app?vid=273250ba-f958-4fea-a8bd-da4281ccae15"},"vehicle_type_id":"4","last_reported":1760202448,"current_range_meters":400,"station_id":"ce4bha12rcd13ifvqef0","pricing_plan_id":"cebpf4jnsgd1na2vs0mg"},{"bike_id":"77c0b14d-fc21-4e4e-9927-4745c07f349b","system_id":"levelo_inurba_marseille","lat":43.27363,"lon":5.36255,"is_reserved":false,"is_disabled":true,"rental_uris":{"android":"levelo://app?vid=77c0b14d-fc21-4e4e-9927-4745c07f349b","ios":"levelo://app?vid=77c0b14d-fc21-4e4e-9927-4745c07f349b"},"vehicle_type_id":"4","last_reported":1760202448,"current_range_meters":400,"station_id":"ce4bhbh2rcd13ifvqeo0","pricing_plan_id":"cebpf4jnsgd1na2vs0mg"},{"bike_id":"8619f16c-5e5e-4f40-85db-bc0031461086","system_id":"levelo_inurba_marseille","lat":43.28945,"lon":5.36403,"is_reserved":false,"is_disabled":true,"rental_uris":{"android":"levelo://app?vid=8619f16c-5e5e-4f40-85db-bc0031461086","ios":"levelo://app?vid=8619f16c-5e5e-4f40-85db-bc0031461086"},"vehicle_type_id":"4","last_reported":1760202448,"current_range_meters":400,"station_id":"ce4bhc92rcd13ifvqetg","pricing_plan_id":"cebpf4jnsgd1na2vs0mg"},{"bike_id":"37f3fc90-12dd-4261-a83e-fdb371f692d0","system_id":"levelo_inurba_marseille","lat":43.286172,"lon":5.351038,"is_reserved":false,"is_disabled":true,"rental_uris":{"android":"levelo://app?vid=37f3fc90-12dd-4261-a83e-fdb371f692d0","ios":"levelo://app?vid=37f3fc90-12dd-4261-a83e-fdb371f692d0"},"vehicle_type_id":"4","last_reported":1760202448,"current_range_meters":400,"station_id":"ce4bhch2rcd13ifvqeug","pricing_plan_id":"cebpf4jnsgd1na2vs0mg"},{"bike_id":"9ab3e120-473d-4869-b676-c761eca0b3d0","system_id":"levelo_inurba_marseille","lat":43.27178,"lon":5.41002,"is_reserved":false,"is_disabled":true,"rental_uris":{"android":"levelo://app?vid=9ab3e120-473d-4869-b676-c761eca0b3d0","ios":"levelo://app?vid=9ab3e120-473d-4869-b676-c761eca0b3d0"},"vehicle_type_id":"4","last_reported":1760202448,"current_range_meters":400,"station_id":"ce4bhl12rcd13ifvqgf0","pricing_plan_id":"cebpf4jnsgd1na2vs0mg"},{"bike_id":"b9f5e521-6260-400f-ac72-5ff0fda90abf","system_id":"levelo_inurba_marseille","lat":43.301453,"lon":5.380864,"is_reserved":false,"is_disabled":true,"rental_uris":{"android":"levelo://app?vid=b9f5e521-6260-400f-ac72-5ff0fda90abf","ios":"levelo://app?vid=b9f5e521-6260-400f-ac72-5ff0fda90abf"},"vehicle_type_id":"4","last_reported":1760202448,"current_range_meters":800,"station_id":"ce4bgjp2rcd13ifvqbh0","pricing_plan_id":"cebpf4jnsgd1na2vs0mg"},{"bike_id":"f9189c34-73f3-400e-a578-d61fdb98e03d","system_id":"levelo_inurba_marseille","lat":43.30535,"lon":5.36591,"is_reserved":false,"is_disabled":true,"rental_uris":{"android":"levelo://app?vid=f9189c34-73f3-400e-a578-d61fdb98e03d","ios":"levelo://app?vid=f9189c34-73f3-400e-a578-d61fdb98e03d"},"vehicle_type_id":"4","last_reported":1760202448,"current_range_meters":800,"station_id":"ce4bgs12rcd13ifvqcag","pricing_plan_id":"cebpf4jnsgd1na2vs0mg"},{"bike_id":"3aff93f4-f83d-4421-addb-9565b86913b6","system_id":"levelo_inurba_marseille","lat":43.31496,"lon":5.3731,"is_reserved":false,"is_disabled":true,"rental_uris":{"android":"levelo://app?vid=3aff93f4-f83d-4421-addb-9565b86913b6","ios":"levelo://app?vid=3aff93f4-f83d-4421-addb-9565b86913b6"},"vehicle_type_id":"4","last_reported":1760202448,"current_range_meters":800,"station_id":"ce4bgt12rcd13ifvqcd0","pricing_plan_id":"cebpf4jnsgd1na2vs0mg"},{"bike_id":"92000d44-524e-499d-b2f2-9180086115d4","system_id":"levelo_inurba_marseille","lat":43.30968,"lon":5.39041,"is_reserved":false,"is_disabled":true,"rental_uris":{"android":"levelo://app?vid=92000d44-524e-499d-b2f2-9180086115d4","ios":"levelo://app?vid=92000d44-524e-499d-b2f2-9180086115d4"},"vehicle_type_id":"4","last_reported":1760202448,"current_range_meters":800,"station_id":"ce4bgup2rcd13ifvqco0","pricing_plan_id":"cebpf4jnsgd1na2vs0mg"},{"bike_id":"25b80964-754a-4d93-9e4f-afd945bd4bdc","system_id":"levelo_inurba_marseille","lat":43.28463,"lon":5.35881,"is_reserved":false,"is_disabled":true,"rental_uris":{"android":"levelo://app?vid=25b80964-754a-4d93-9e4f-afd945bd4bdc","ios":"levelo://app?vid=25b80964-754a-4d93-9e4f-afd945bd4bdc"},"vehicle_type_id":"4","last_reported":1760202448,"current_range_meters":800,"station_id":"ce4bhah2rcd13ifvqei0","pricing_plan_id":"cebpf4jnsgd1na2vs0mg"},{"bike_id":"de39a0e9-3727-4295-bb4c-d29ad3b6a519","system_id":"levelo_inurba_marseille","lat":43.28937,"lon":5.36634,"is_reserved":false,"is_disabled":true,"rental_uris":{"android":"levelo://app?vid=de39a0e9-3727-4295-bb4c-d29ad3b6a519","ios":"levelo://app?vid=de39a0e9-3727-4295-bb4c-d29ad3b6a519"},"vehicle_type_id":"4","last_reported":1760202448,"current_range_meters":800,"station_id":"ce4bhap2rcd13ifvqek0","pricing_plan_id":"cebpf4jnsgd1na2vs0mg"},{"bike_id":"11e7b4b6-ab1d-44ca-b2ea-37e8fe791f58","system_id":"levelo_inurba_marseille","lat":43.26198,"lon":5.37458,"is_reserved":false,"is_disabled":true,"rental_uris":{"android":"levelo://app?vid=11e7b4b6-ab1d-44ca-b2ea-37e8fe791f58","ios":"levelo://app?vid=11e7b4b6-ab1d-44ca-b2ea-37e8fe791f58"},"vehicle_type_id":"4","last_reported":1760202448,"current_range_meters":800,"station_id":"ce4bhgp2rcd13ifvqfc0","pricing_plan_id":"cebpf4jnsgd1na2vs0mg"},{"bike_id":"f9393001-3c65-48bd-ae4e-67982ba4ca22","system_id":"levelo_inurba_marseille","lat":43.21751,"lon":5.34592,"is_reserved":false,"is_disabled":true,"rental_uris":{"android":"levelo://app?vid=f9393001-3c65-48bd-ae4e-67982ba4ca22","ios":"levelo://app?vid=f9393001-3c65-48bd-ae4e-67982ba4ca22"},"vehicle_type_id":"4","last_reported":1760202448,"current_range_meters":800,"station_id":"st_cvj6r9ubvosntc0bgbag","pricing_plan_id":"cebpf4jnsgd1na2vs0mg"},{"bike_id":"cf1f5b36-e546-40a1-9eae-40b1d47bbe02","system_id":"levelo_inurba_marseille","lat":43.21729,"lon":5.34615,"is_reserved":false,"is_disabled":true,"rental_uris":{"android":"levelo://app?vid=cf1f5b36-e546-40a1-9eae-40b1d47bbe02","ios":"levelo://app?vid=cf1f5b36-e546-40a1-9eae-40b1d47bbe02"},"vehicle_type_id":"4","last_reported":1760202448,"current_range_meters":800,"station_id":"st_cvj6r9ubvosntc0bgbag","pricing_plan_id":"cebpf4jnsgd1na2vs0mg"},{"bike_id":"ff184afb-2150-4d18-aa01-5760266b1039","system_id":"levelo_inurba_marseille","lat":43.29266,"lon":5.37626,"is_reserved":false,"is_disabled":true,"rental_uris":{"android":"levelo://app?vid=ff184afb-2150-4d18-aa01-5760266b1039","ios":"levelo://app?vid=ff184afb-2150-4d18-aa01-5760266b1039"},"vehicle_type_id":"4","last_reported":1760202448,"current_range_meters":1200,"station_id":"ce4bgi12rcd13ifvqb80","pricing_plan_id":"cebpf4jnsgd1na2vs0mg"},{"bike_id":"8d246c90-5d6e-485c-ac5a-3335d2749521","system_id":"levelo_inurba_marseille","lat":43.30147,"lon":5.3809,"is_reserved":false,"is_disabled":true,"rental_uris":{"android":"levelo://app?vid=8d246c90-5d6e-485c-ac5a-3335d2749521","ios":"levelo://app?vid=8d246c90-5d6e-485c-ac5a-3335d2749521"},"vehicle_type_id":"4","last_reported":1760202448,"current_range_meters":1200,"station_id":"ce4bgjp2rcd13ifvqbh0","pricing_plan_id":"cebpf4jnsgd1na2vs0mg"},{"bike_id":"4de9bb2c-153d-477b-bb89-ff8edd4891d6","system_id":"levelo_inurba_marseille","lat":43.3137,"lon":5.38492,"is_reserved":false,"is_disabled":true,"rental_uris":{"android":"levelo://app?vid=4de9bb2c-153d-477b-bb89-ff8edd4891d6","ios":"levelo://app?vid=4de9bb2c-153d-477b-bb89-ff8edd4891d6"},"vehicle_type_id":"4","last_reported":1760202448,"current_range_meters":1200,"station_id":"ce4bgt92rcd13ifvqcf0","pricing_plan_id":"cebpf4jnsgd1na2vs0mg"},{"bike_id":"2b5d5b57-0bec-4afb-a2b0-ef392a151d50","system_id":"levelo_inurba_marseille","lat":43.31125,"lon":5.37758,"is_reserved":false,"is_disabled":true,"rental_uris":{"android":"levelo://app?vid=2b5d5b57-0bec-4afb-a2b0-ef392a151d50","ios":"levelo://app?vid=2b5d5b57-0bec-4afb-a2b0-ef392a151d50"},"vehicle_type_id":"4","last_reported":1760202448,"current_range_meters":1200,"station_id":"ce4bgt92rcd13ifvqcg0","pricing_plan_id":"cebpf4jnsgd1na2vs0mg"},{"bike_id":"de920bd0-751c-4670-93f1-c8395affe5fd","system_id":"levelo_inurba_marseille","lat":43.28435,"lon":5.37522,"is_reserved":false,"is_disabled":true,"rental_uris":{"android":"levelo://app?vid=de920bd0-751c-4670-93f1-c8395affe5fd","ios":"levelo://app?vid=de920bd0-751c-4670-93f1-c8395affe5fd"},"vehicle_type_id":"4","last_reported":1760202448,"current_range_meters":1200,"station_id":"ce4bh412rcd13ifvqds0","pricing_plan_id":"cebpf4jnsgd1na2vs0mg"},{"bike_id":"be07c29b-ff82-43de-86a3-f082f59270a2","system_id":"levelo_inurba_marseille","lat":43.289294,"lon":5.384077,"is_reserved":false,"is_disabled":true,"rental_uris":{"android":"levelo://app?vid=be07c29b-ff82-43de-86a3-f082f59270a2","ios":"levelo://app?vid=be07c29b-ff82-43de-86a3-f082f59270a2"},"vehicle_type_id":"4","last_reported":1760202448,"current_range_meters":1200,"station_id":"ce4bh612rcd13ifvqe6g","pricing_plan_id":"cebpf4jnsgd1na2vs0mg"},{"bike_id":"3e195472-3232-4f66-aab9-7062de55179a","system_id":"levelo_inurba_marseille","lat":43.28944,"lon":5.36633,"is_reserved":false,"is_disabled":true,"rental_uris":{"android":"levelo://app?vid=3e195472-3232-4f66-aab9-7062de55179a","ios":"levelo://app?vid=3e195472-3232-4f66-aab9-7062de55179a"},"vehicle_type_id":"4","last_reported":1760202448,"current_range_meters":1200,"station_id":"ce4bhap2rcd13ifvqek0","pricing_plan_id":"cebpf4jnsgd1na2vs0mg"},{"bike_id":"24e31340-e75a-4561-9202-9457bdf1b8b1","system_id":"levelo_inurba_marseille","lat":43.29277,"lon":5.36843,"is_reserved":false,"is_disabled":true,"rental_uris":{"android":"levelo://app?vid=24e31340-e75a-4561-9202-9457bdf1b8b1","ios":"levelo://app?vid=24e31340-e75a-4561-9202-9457bdf1b8b1"},"vehicle_type_id":"4","last_reported":1760202448,"current_range_meters":1200,"station_id":"ce4bhbp2rcd13ifvqesg","pricing_plan_id":"cebpf4jnsgd1na2vs0mg"},{"bike_id":"cba56992-3c63-4f84-98cc-508de17884dd","system_id":"levelo_inurba_marseille","lat":43.29269,"lon":5.36838,"is_reserved":false,"is_disabled":true,"rental_uris":{"android":"levelo://app?vid=cba56992-3c63-4f84-98cc-508de17884dd","ios":"levelo://app?vid=cba56992-3c63-4f84-98cc-508de17884dd"},"vehicle_type_id":"4","last_reported":1760202448,"current_range_meters":1200,"station_id":"ce4bhbp2rcd13ifvqesg","pricing_plan_id":"cebpf4jnsgd1na2vs0mg"},{"bike_id":"1fdae43f-41ba-4516-96f2-e5b9b0f4171a","system_id":"levelo_inurba_marseille","lat":43.2925,"lon":5.36873,"is_reserved":false,"is_disabled":true,"rental_uris":{"android":"levelo://app?vid=1fdae43f-41ba-4516-96f2-e5b9b0f4171a","ios":"levelo://app?vid=1fdae43f-41ba-4516-96f2-e5b9b0f4171a"},"vehicle_type_id":"4","last_reported":1760202448,"current_range_meters":1200,"station_id":"ce4bhbp2rcd13ifvqesg","pricing_plan_id":"cebpf4jnsgd1na2vs0mg"},{"bike_id":"13c02fae-d17b-45e0-85dd-a7954ede836e","system_id":"levelo_inurba_marseille","lat":43.26572,"lon":5.39034,"is_reserved":false,"is_disabled":true,"rental_uris":{"android":"levelo://app?vid=13c02fae-d17b-45e0-85dd-a7954ede836e","ios":"levelo://app?vid=13c02fae-d17b-45e0-85dd-a7954ede836e"},"vehicle_type_id":"4","last_reported":1760202448,"current_range_meters":1200,"station_id":"ce4bhe12rcd13ifvqf30","pricing_plan_id":"cebpf4jnsgd1na2vs0mg"},{"bike_id":"65623f02-4a1c-47b5-ac86-67e92a2d42ee","system_id":"levelo_inurba_marseille","lat":43.27922,"lon":5.39586,"is_reserved":false,"is_disabled":true,"rental_uris":{"android":"levelo://app?vid=65623f02-4a1c-47b5-ac86-67e92a2d42ee","ios":"levelo://app?vid=65623f02-4a1c-47b5-ac86-67e92a2d42ee"},"vehicle_type_id":"4","last_reported":1760202448,"current_range_meters":1200,"station_id":"ce4bhf92rcd13ifvqf40","pricing_plan_id":"cebpf4jnsgd1na2vs0mg"},{"bike_id":"36ac6b9e-bc0f-4448-91d4-95e58f7248d1","system_id":"levelo_inurba_marseille","lat":43.24658,"lon":5.38167,"is_reserved":false,"is_disabled":true,"rental_uris":{"android":"levelo://app?vid=36ac6b9e-bc0f-4448-91d4-95e58f7248d1","ios":"levelo://app?vid=36ac6b9e-bc0f-4448-91d4-95e58f7248d1"},"vehicle_type_id":"4","last_reported":1760202448,"current_range_meters":1200,"station_id":"ce4bhih2rcd13ifvqfr0","pricing_plan_id":"cebpf4jnsgd1na2vs0mg"},{"bike_id":"f21eaaeb-3a6b-4894-a528-4d5c8b91dc32","system_id":"levelo_inurba_marseille","lat":43.29796,"lon":5.39329,"is_reserved":false,"is_disabled":true,"rental_uris":{"android":"levelo://app?vid=f21eaaeb-3a6b-4894-a528-4d5c8b91dc32","ios":"levelo://app?vid=f21eaaeb-3a6b-4894-a528-4d5c8b91dc32"},"vehicle_type_id":"4","last_reported":1760202448,"current_range_meters":1200,"station_id":"chh1huq6cuj3fo74tm60","pricing_plan_id":"cebpf4jnsgd1na2vs0mg"},{"bike_id":"8e87152b-3b06-4e3e-867b-a6f5e928dbbd","system_id":"levelo_inurba_marseille","lat":43.28484,"lon":5.38422,"is_reserved":false,"is_disabled":true,"rental_uris":{"android":"levelo://app?vid=8e87152b-3b06-4e3e-867b-a6f5e928dbbd","ios":"levelo://app?vid=8e87152b-3b06-4e3e-867b-a6f5e928dbbd"},"vehicle_type_id":"4","last_reported":1760202448,"current_range_meters":1600,"station_id":"ce4bh512rcd13ifvqe3g","pricing_plan_id":"cebpf4jnsgd1na2vs0mg"},{"bike_id":"ef435adc-3268-4558-bdad-615fc7a324d8","system_id":"levelo_inurba_marseille","lat":43.27074,"lon":5.4228,"is_reserved":false,"is_disabled":true,"rental_uris":{"android":"levelo://app?vid=ef435adc-3268-4558-bdad-615fc7a324d8","ios":"levelo://app?vid=ef435adc-3268-4558-bdad-615fc7a324d8"},"vehicle_type_id":"4","last_reported":1760202448,"current_range_meters":1600,"station_id":"ce4bhk92rcd13ifvqgb0","pricing_plan_id":"cebpf4jnsgd1na2vs0mg"},{"bike_id":"d1d4026a-1755-468a-a128-32adb62747c2","system_id":"levelo_inurba_marseille","lat":43.322209,"lon":5.406793,"is_reserved":false,"is_disabled":true,"rental_uris":{"android":"levelo://app?vid=d1d4026a-1755-468a-a128-32adb62747c2","ios":"levelo://app?vid=d1d4026a-1755-468a-a128-32adb62747c2"},"vehicle_type_id":"4","last_reported":1760202448,"current_range_meters":2000,"station_id":"","pricing_plan_id":"cebpf4jnsgd1na2vs0mg"},{"bike_id":"2fc7bf08-9794-45c1-bc36-ecc63ef22358","system_id":"levelo_inurba_marseille","lat":43.293074,"lon":5.371812,"is_reserved":false,"is_disabled":true,"rental_uris":{"android":"levelo://app?vid=2fc7bf08-9794-45c1-bc36-ecc63ef22358","ios":"levelo://app?vid=2fc7bf08-9794-45c1-bc36-ecc63ef22358"},"vehicle_type_id":"4","last_reported":1760202448,"current_range_meters":2000,"station_id":"ce4bgh92rcd13ifvqb40","pricing_plan_id":"cebpf4jnsgd1na2vs0mg"},{"bike_id":"ae50cca7-c0ef-46f4-b3b4-6b34e195927e","system_id":"levelo_inurba_marseille","lat":43.29701,"lon":5.36582,"is_reserved":false,"is_disabled":true,"rental_uris":{"android":"levelo://app?vid=ae50cca7-c0ef-46f4-b3b4-6b34e195927e","ios":"levelo://app?vid=ae50cca7-c0ef-46f4-b3b4-6b34e195927e"},"vehicle_type_id":"4","last_reported":1760202448,"current_range_meters":2000,"station_id":"ce4bgn12rcd13ifvqbt0","pricing_plan_id":"cebpf4jnsgd1na2vs0mg"},{"bike_id":"b8792d90-6005-4115-ac1b-b72bb2701ec4","system_id":"levelo_inurba_marseille","lat":43.28692,"lon":5.36359,"is_reserved":false,"is_disabled":true,"rental_uris":{"android":"levelo://app?vid=b8792d90-6005-4115-ac1b-b72bb2701ec4","ios":"levelo://app?vid=b8792d90-6005-4115-ac1b-b72bb2701ec4"},"vehicle_type_id":"4","last_reported":1760202448,"current_range_meters":2000,"station_id":"ce4bhah2rcd13ifvqej0","pricing_plan_id":"cebpf4jnsgd1na2vs0mg"},{"bike_id":"df0c9926-9bf0-4fc2-9cfb-caab08335c60","system_id":"levelo_inurba_marseille","lat":43.273087,"lon":5.390812,"is_reserved":false,"is_disabled":true,"rental_uris":{"android":"levelo://app?vid=df0c9926-9bf0-4fc2-9cfb-caab08335c60","ios":"levelo://app?vid=df0c9926-9bf0-4fc2-9cfb-caab08335c60"},"vehicle_type_id":"4","last_reported":1760202448,"current_range_meters":2000,"station_id":"ce4bhgp2rcd13ifvqfe0","pricing_plan_id":"cebpf4jnsgd1na2vs0mg"},{"bike_id":"bde981de-41ff-4d89-872d-c0b23759db79","system_id":"levelo_inurba_marseille","lat":43.2821,"lon":5.39061,"is_reserved":false,"is_disabled":true,"rental_uris":{"android":"levelo://app?vid=bde981de-41ff-4d89-872d-c0b23759db79","ios":"levelo://app?vid=bde981de-41ff-4d89-872d-c0b23759db79"},"vehicle_type_id":"4","last_reported":1760202448,"current_range_meters":2000,"station_id":"ce4bhn92rcd13ifvqgsg","pricing_plan_id":"cebpf4jnsgd1na2vs0mg"},{"bike_id":"fd54b929-35a9-40a2-8048-ac07b9910b61","system_id":"levelo_inurba_marseille","lat":43.2953,"lon":5.38554,"is_reserved":false,"is_disabled":false,"rental_uris":{"android":"levelo://app?vid=fd54b929-35a9-40a2-8048-ac07b9910b61","ios":"levelo://app?vid=fd54b929-35a9-40a2-8048-ac07b9910b61"},"vehicle_type_id":"4","last_reported":1760202448,"current_range_meters":3200,"station_id":"ce4bgih2rcd13ifvqba0","pricing_plan_id":"cebpf4jnsgd1na2vs0mg"},{"bike_id":"5c64fb59-17a7-48a9-bd05-f719df7a029b","system_id":"levelo_inurba_marseille","lat":43.29842,"lon":5.36271,"is_reserved":false,"is_disabled":false,"rental_uris":{"android":"levelo://app?vid=5c64fb59-17a7-48a9-bd05-f719df7a029b","ios":"levelo://app?vid=5c64fb59-17a7-48a9-bd05-f719df7a029b"},"vehicle_type_id":"4","last_reported":1760202448,"current_range_meters":3200,"station_id":"ce4bgpp2rcd13ifvqc3g","pricing_plan_id":"cebpf4jnsgd1na2vs0mg"},{"bike_id":"337b5c19-396d-4f38-b5c5-58d83662237c","system_id":"levelo_inurba_marseille","lat":43.30881,"lon":5.3965,"is_reserved":false,"is_disabled":false,"rental_uris":{"android":"levelo://app?vid=337b5c19-396d-4f38-b5c5-58d83662237c","ios":"levelo://app?vid=337b5c19-396d-4f38-b5c5-58d83662237c"},"vehicle_type_id":"4","last_reported":1760202448,"current_range_meters":3200,"station_id":"ce4bh012rcd13ifvqcv0","pricing_plan_id":"cebpf4jnsgd1na2vs0mg"},{"bike_id":"a7c36d36-65b0-4459-95b3-ae1a7efbcb5a","system_id":"levelo_inurba_marseille","lat":43.29252,"lon":5.38449,"is_reserved":false,"is_disabled":false,"rental_uris":{"android":"levelo://app?vid=a7c36d36-65b0-4459-95b3-ae1a7efbcb5a","ios":"levelo://app?vid=a7c36d36-65b0-4459-95b3-ae1a7efbcb5a"},"vehicle_type_id":"4","last_reported":1760202448,"current_range_meters":3200,"station_id":"ce4bh692rcd13ifvqea0","pricing_plan_id":"cebpf4jnsgd1na2vs0mg"},{"bike_id":"e4f43e8b-a475-4469-9978-dab8ca15dbca","system_id":"levelo_inurba_marseille","lat":43.25576,"lon":5.3824,"is_reserved":false,"is_disabled":false,"rental_uris":{"android":"levelo://app?vid=e4f43e8b-a475-4469-9978-dab8ca15dbca","ios":"levelo://app?vid=e4f43e8b-a475-4469-9978-dab8ca15dbca"},"vehicle_type_id":"4","last_reported":1760202448,"current_range_meters":3200,"station_id":"ce4bhih2rcd13ifvqfs0","pricing_plan_id":"cebpf4jnsgd1na2vs0mg"},{"bike_id":"1508e37c-ddee-4fca-a836-8777a02263a4","system_id":"levelo_inurba_marseille","lat":43.297229,"lon":5.380115,"is_reserved":false,"is_disabled":false,"rental_uris":{"android":"levelo://app?vid=1508e37c-ddee-4fca-a836-8777a02263a4","ios":"levelo://app?vid=1508e37c-ddee-4fca-a836-8777a02263a4"},"vehicle_type_id":"4","last_reported":1760202448,"current_range_meters":3600,"station_id":"","pricing_plan_id":"cebpf4jnsgd1na2vs0mg"},{"bike_id":"095893fe-f16e-46e0-8bb3-182cf85a0cdd","system_id":"levelo_inurba_marseille","lat":43.29838,"lon":5.36273,"is_reserved":false,"is_disabled":false,"rental_uris":{"android":"levelo://app?vid=095893fe-f16e-46e0-8bb3-182cf85a0cdd","ios":"levelo://app?vid=095893fe-f16e-46e0-8bb3-182cf85a0cdd"},"vehicle_type_id":"4","last_reported":1760202448,"current_range_meters":3600,"station_id":"ce4bgpp2rcd13ifvqc3g","pricing_plan_id":"cebpf4jnsgd1na2vs0mg"},{"bike_id":"12d3bb2b-a907-4ddf-8ee8-b725be4aba80","system_id":"levelo_inurba_marseille","lat":43.292015,"lon":5.393223,"is_reserved":false,"is_disabled":false,"rental_uris":{"android":"levelo://app?vid=12d3bb2b-a907-4ddf-8ee8-b725be4aba80","ios":"levelo://app?vid=12d3bb2b-a907-4ddf-8ee8-b725be4aba80"},"vehicle_type_id":"4","last_reported":1760202448,"current_range_meters":3600,"station_id":"ce4bh192rcd13ifvqdd0","pricing_plan_id":"cebpf4jnsgd1na2vs0mg"},{"bike_id":"91e1c33e-4be6-4f94-846c-108bdab18d08","system_id":"levelo_inurba_marseille","lat":43.26226,"lon":5.37445,"is_reserved":false,"is_disabled":false,"rental_uris":{"android":"levelo://app?vid=91e1c33e-4be6-4f94-846c-108bdab18d08","ios":"levelo://app?vid=91e1c33e-4be6-4f94-846c-108bdab18d08"},"vehicle_type_id":"4","last_reported":1760202448,"current_range_meters":3600,"station_id":"ce4bhgp2rcd13ifvqfc0","pricing_plan_id":"cebpf4jnsgd1na2vs0mg"},{"bike_id":"46c84c98-8cf3-4979-bded-26555e954012","system_id":"levelo_inurba_marseille","lat":43.29044,"lon":5.37574,"is_reserved":false,"is_disabled":false,"rental_uris":{"android":"levelo://app?vid=46c84c98-8cf3-4979-bded-26555e954012","ios":"levelo://app?vid=46c84c98-8cf3-4979-bded-26555e954012"},"vehicle_type_id":"4","last_reported":1760202448,"current_range_meters":4000,"station_id":"ce4bh692rcd13ifvqe90","pricing_plan_id":"cebpf4jnsgd1na2vs0mg"},{"bike_id":"7cec239d-42ee-4348-b00b-40e76e5e365b","system_id":"levelo_inurba_marseille","lat":43.29268,"lon":5.36851,"is_reserved":false,"is_disabled":false,"rental_uris":{"android":"levelo://app?vid=7cec239d-42ee-4348-b00b-40e76e5e365b","ios":"levelo://app?vid=7cec239d-42ee-4348-b00b-40e76e5e365b"},"vehicle_type_id":"4","last_reported":1760202448,"current_range_meters":4000,"station_id":"ce4bhbp2rcd13ifvqesg","pricing_plan_id":"cebpf4jnsgd1na2vs0mg"},{"bike_id":"5a8753f0-3032-4924-baaf-0bee073b3bbd","system_id":"levelo_inurba_marseille","lat":43.24091,"lon":5.37825,"is_reserved":false,"is_disabled":false,"rental_uris":{"android":"levelo://app?vid=5a8753f0-3032-4924-baaf-0bee073b3bbd","ios":"levelo://app?vid=5a8753f0-3032-4924-baaf-0bee073b3bbd"},"vehicle_type_id":"4","last_reported":1760202448,"current_range_meters":4000,"station_id":"ce4bhnp2rcd13ifvqgvg","pricing_plan_id":"cebpf4jnsgd1na2vs0mg"},{"bike_id":"f837f1d3-2641-403e-bf90-2324e47a7390","system_id":"levelo_inurba_marseille","lat":43.29747,"lon":5.42795,"is_reserved":false,"is_disabled":false,"rental_uris":{"android":"levelo://app?vid=f837f1d3-2641-403e-bf90-2324e47a7390","ios":"levelo://app?vid=f837f1d3-2641-403e-bf90-2324e47a7390"},"vehicle_type_id":"4","last_reported":1760202448,"current_range_meters":4400,"station_id":"","pricing_plan_id":"cebpf4jnsgd1na2vs0mg"},{"bike_id":"4fcefeec-1397-47ee-acb6-1b74c59ca164","system_id":"levelo_inurba_marseille","lat":43.28937,"lon":5.38387,"is_reserved":false,"is_disabled":false,"rental_uris":{"android":"levelo://app?vid=4fcefeec-1397-47ee-acb6-1b74c59ca164","ios":"levelo://app?vid=4fcefeec-1397-47ee-acb6-1b74c59ca164"},"vehicle_type_id":"4","last_reported":1760202448,"current_range_meters":4400,"station_id":"ce4bh612rcd13ifvqe6g","pricing_plan_id":"cebpf4jnsgd1na2vs0mg"},{"bike_id":"58c00c10-0b6d-45b3-ac81-21215274e135","system_id":"levelo_inurba_marseille","lat":43.27374,"lon":5.36263,"is_reserved":false,"is_disabled":false,"rental_uris":{"android":"levelo://app?vid=58c00c10-0b6d-45b3-ac81-21215274e135","ios":"levelo://app?vid=58c00c10-0b6d-45b3-ac81-21215274e135"},"vehicle_type_id":"4","last_reported":1760202448,"current_range_meters":4400,"station_id":"ce4bhbh2rcd13ifvqeo0","pricing_plan_id":"cebpf4jnsgd1na2vs0mg"},{"bike_id":"d52fd7c4-fb36-4c2e-bc38-736ed714d3c3","system_id":"levelo_inurba_marseille","lat":43.26943,"lon":5.40267,"is_reserved":false,"is_disabled":false,"rental_uris":{"android":"levelo://app?vid=d52fd7c4-fb36-4c2e-bc38-736ed714d3c3","ios":"levelo://app?vid=d52fd7c4-fb36-4c2e-bc38-736ed714d3c3"},"vehicle_type_id":"4","last_reported":1760202448,"current_range_meters":4400,"station_id":"cjm6bp8fraef2m0cb0m0","pricing_plan_id":"cebpf4jnsgd1na2vs0mg"},{"bike_id":"11561650-c935-4c00-95ae-f20a39672eeb","system_id":"levelo_inurba_marseille","lat":43.24077,"lon":5.37761,"is_reserved":false,"is_disabled":false,"rental_uris":{"android":"levelo://app?vid=11561650-c935-4c00-95ae-f20a39672eeb","ios":"levelo://app?vid=11561650-c935-4c00-95ae-f20a39672eeb"},"vehicle_type_id":"4","last_reported":1760202448,"current_range_meters":4800,"station_id":"ce4bhnp2rcd13ifvqgvg","pricing_plan_id":"cebpf4jnsgd1na2vs0mg"},{"bike_id":"b03e1b69-ada6-4c8c-9ddd-ce62c8ec16a9","system_id":"levelo_inurba_marseille","lat":43.240798,"lon":5.377629,"is_reserved":false,"is_disabled":false,"rental_uris":{"android":"levelo://app?vid=b03e1b69-ada6-4c8c-9ddd-ce62c8ec16a9","ios":"levelo://app?vid=b03e1b69-ada6-4c8c-9ddd-ce62c8ec16a9"},"vehicle_type_id":"4","last_reported":1760202448,"current_range_meters":4800,"station_id":"ce4bhnp2rcd13ifvqgvg","pricing_plan_id":"cebpf4jnsgd1na2vs0mg"},{"bike_id":"fa525c36-d1ac-4b1e-807c-656ea917ef90","system_id":"levelo_inurba_marseille","lat":43.29036,"lon":5.3997,"is_reserved":false,"is_disabled":false,"rental_uris":{"android":"levelo://app?vid=fa525c36-d1ac-4b1e-807c-656ea917ef90","ios":"levelo://app?vid=fa525c36-d1ac-4b1e-807c-656ea917ef90"},"vehicle_type_id":"4","last_reported":1760202448,"current_range_meters":5600,"station_id":"ce4bh392rcd13ifvqdm0","pricing_plan_id":"cebpf4jnsgd1na2vs0mg"},{"bike_id":"54b397a0-8d06-4fc9-aa7a-4d5b3729670d","system_id":"levelo_inurba_marseille","lat":43.28352,"lon":5.381128,"is_reserved":false,"is_disabled":false,"rental_uris":{"android":"levelo://app?vid=54b397a0-8d06-4fc9-aa7a-4d5b3729670d","ios":"levelo://app?vid=54b397a0-8d06-4fc9-aa7a-4d5b3729670d"},"vehicle_type_id":"4","last_reported":1760202448,"current_range_meters":5600,"station_id":"ce4bh412rcd13ifvqdr0","pricing_plan_id":"cebpf4jnsgd1na2vs0mg"},{"bike_id":"388213b2-c7ae-4037-8ea5-c7aeaf838977","system_id":"levelo_inurba_marseille","lat":43.29527,"lon":5.38543,"is_reserved":false,"is_disabled":false,"rental_uris":{"android":"levelo://app?vid=388213b2-c7ae-4037-8ea5-c7aeaf838977","ios":"levelo://app?vid=388213b2-c7ae-4037-8ea5-c7aeaf838977"},"vehicle_type_id":"4","last_reported":1760202448,"current_range_meters":6000,"station_id":"ce4bgih2rcd13ifvqba0","pricing_plan_id":"cebpf4jnsgd1na2vs0mg"},{"bike_id":"0a22fa6b-87e7-4894-9899-7e9dd88e7fdb","system_id":"levelo_inurba_marseille","lat":43.29516,"lon":5.39404,"is_reserved":false,"is_disabled":false,"rental_uris":{"android":"levelo://app?vid=0a22fa6b-87e7-4894-9899-7e9dd88e7fdb","ios":"levelo://app?vid=0a22fa6b-87e7-4894-9899-7e9dd88e7fdb"},"vehicle_type_id":"4","last_reported":1760202448,"current_range_meters":6000,"station_id":"ce4bh292rcd13ifvqdf0","pricing_plan_id":"cebpf4jnsgd1na2vs0mg"},{"bike_id":"1c414048-5fb0-4e13-abf3-d1f36d5e01d1","system_id":"levelo_inurba_marseille","lat":43.28848,"lon":5.35852,"is_reserved":false,"is_disabled":false,"rental_uris":{"android":"levelo://app?vid=1c414048-5fb0-4e13-abf3-d1f36d5e01d1","ios":"levelo://app?vid=1c414048-5fb0-4e13-abf3-d1f36d5e01d1"},"vehicle_type_id":"4","last_reported":1760202448,"current_range_meters":6000,"station_id":"ce4bhb12rcd13ifvqem0","pricing_plan_id":"cebpf4jnsgd1na2vs0mg"},{"bike_id":"4ad33684-6161-43e5-b10c-411c6e687c6c","system_id":"levelo_inurba_marseille","lat":43.29007,"lon":5.35606,"is_reserved":false,"is_disabled":false,"rental_uris":{"android":"levelo://app?vid=4ad33684-6161-43e5-b10c-411c6e687c6c","ios":"levelo://app?vid=4ad33684-6161-43e5-b10c-411c6e687c6c"},"vehicle_type_id":"4","last_reported":1760202448,"current_range_meters":6000,"station_id":"ce4bhb92rcd13ifvqen0","pricing_plan_id":"cebpf4jnsgd1na2vs0mg"},{"bike_id":"65eddce6-3155-4618-818a-333ca4034c6e","system_id":"levelo_inurba_marseille","lat":43.26681,"lon":5.38272,"is_reserved":false,"is_disabled":false,"rental_uris":{"android":"levelo://app?vid=65eddce6-3155-4618-818a-333ca4034c6e","ios":"levelo://app?vid=65eddce6-3155-4618-818a-333ca4034c6e"},"vehicle_type_id":"4","last_reported":1760202448,"current_range_meters":6000,"station_id":"ce4bhg92rcd13ifvqf90","pricing_plan_id":"cebpf4jnsgd1na2vs0mg"},{"bike_id":"7c1a4890-b9ac-4fe5-a571-cd86038dad29","system_id":"levelo_inurba_marseille","lat":43.26733,"lon":5.40184,"is_reserved":false,"is_disabled":false,"rental_uris":{"android":"levelo://app?vid=7c1a4890-b9ac-4fe5-a571-cd86038dad29","ios":"levelo://app?vid=7c1a4890-b9ac-4fe5-a571-cd86038dad29"},"vehicle_type_id":"4","last_reported":1760202448,"current_range_meters":6400,"station_id":"","pricing_plan_id":"cebpf4jnsgd1na2vs0mg"},{"bike_id":"68cae32d-4222-4674-aee0-f6f81c003a3b","system_id":"levelo_inurba_marseille","lat":43.225335,"lon":5.34835,"is_reserved":false,"is_disabled":false,"rental_uris":{"android":"levelo://app?vid=68cae32d-4222-4674-aee0-f6f81c003a3b","ios":"levelo://app?vid=68cae32d-4222-4674-aee0-f6f81c003a3b"},"vehicle_type_id":"4","last_reported":1760202448,"current_range_meters":6400,"station_id":"","pricing_plan_id":"cebpf4jnsgd1na2vs0mg"},{"bike_id":"03ed6263-97de-4cf5-ab05-bf22ada767f4","system_id":"levelo_inurba_marseille","lat":43.29603,"lon":5.36731,"is_reserved":false,"is_disabled":false,"rental_uris":{"android":"levelo://app?vid=03ed6263-97de-4cf5-ab05-bf22ada767f4","ios":"levelo://app?vid=03ed6263-97de-4cf5-ab05-bf22ada767f4"},"vehicle_type_id":"4","last_reported":1760202448,"current_range_meters":6400,"station_id":"ce4bgph2rcd13ifvqc2g","pricing_plan_id":"cebpf4jnsgd1na2vs0mg"},{"bike_id":"1c811140-7d64-42a5-9481-121615614a82","system_id":"levelo_inurba_marseille","lat":43.28043,"lon":5.36942,"is_reserved":false,"is_disabled":false,"rental_uris":{"android":"levelo://app?vid=1c811140-7d64-42a5-9481-121615614a82","ios":"levelo://app?vid=1c811140-7d64-42a5-9481-121615614a82"},"vehicle_type_id":"4","last_reported":1760202448,"current_range_meters":6400,"station_id":"ce4bha12rcd13ifvqef0","pricing_plan_id":"cebpf4jnsgd1na2vs0mg"},{"bike_id":"2bc038b1-519b-42b1-9bd4-7d2b97044996","system_id":"levelo_inurba_marseille","lat":43.29279,"lon":5.41044,"is_reserved":false,"is_disabled":false,"rental_uris":{"android":"levelo://app?vid=2bc038b1-519b-42b1-9bd4-7d2b97044996","ios":"levelo://app?vid=2bc038b1-519b-42b1-9bd4-7d2b97044996"},"vehicle_type_id":"4","last_reported":1760202448,"current_range_meters":6800,"station_id":"","pricing_plan_id":"cebpf4jnsgd1na2vs0mg"},{"bike_id":"e9e42d2d-7e53-4efc-b575-031b106766c7","system_id":"levelo_inurba_marseille","lat":43.297386,"lon":5.36875,"is_reserved":false,"is_disabled":false,"rental_uris":{"android":"levelo://app?vid=e9e42d2d-7e53-4efc-b575-031b106766c7","ios":"levelo://app?vid=e9e42d2d-7e53-4efc-b575-031b106766c7"},"vehicle_type_id":"4","last_reported":1760202448,"current_range_meters":6800,"station_id":"","pricing_plan_id":"cebpf4jnsgd1na2vs0mg"},{"bike_id":"3d3d9f24-69ed-412a-824a-3bb9551f7bc2","system_id":"levelo_inurba_marseille","lat":43.32114,"lon":5.37164,"is_reserved":false,"is_disabled":false,"rental_uris":{"android":"levelo://app?vid=3d3d9f24-69ed-412a-824a-3bb9551f7bc2","ios":"levelo://app?vid=3d3d9f24-69ed-412a-824a-3bb9551f7bc2"},"vehicle_type_id":"4","last_reported":1760202448,"current_range_meters":6800,"station_id":"","pricing_plan_id":"cebpf4jnsgd1na2vs0mg"},{"bike_id":"6f7f6e90-ba94-4f8f-b19e-a6dbe16a9d1b","system_id":"levelo_inurba_marseille","lat":43.290815,"lon":5.371617,"is_reserved":false,"is_disabled":false,"rental_uris":{"android":"levelo://app?vid=6f7f6e90-ba94-4f8f-b19e-a6dbe16a9d1b","ios":"levelo://app?vid=6f7f6e90-ba94-4f8f-b19e-a6dbe16a9d1b"},"vehicle_type_id":"4","last_reported":1760202448,"current_range_meters":6800,"station_id":"ce4bh5p2rcd13ifvqe4g","pricing_plan_id":"cebpf4jnsgd1na2vs0mg"},{"bike_id":"2a9b318c-0a19-4cfd-88fb-f6db13241acb","system_id":"levelo_inurba_marseille","lat":43.291973,"lon":5.358052,"is_reserved":false,"is_disabled":false,"rental_uris":{"android":"levelo://app?vid=2a9b318c-0a19-4cfd-88fb-f6db13241acb","ios":"levelo://app?vid=2a9b318c-0a19-4cfd-88fb-f6db13241acb"},"vehicle_type_id":"4","last_reported":1760202448,"current_range_meters":6800,"station_id":"ce4bhb12rcd13ifvqel0","pricing_plan_id":"cebpf4jnsgd1na2vs0mg"},{"bike_id":"eef1e964-08cf-4ce6-8c1b-782af9f94fb4","system_id":"levelo_inurba_marseille","lat":43.29005,"lon":5.35609,"is_reserved":false,"is_disabled":false,"rental_uris":{"android":"levelo://app?vid=eef1e964-08cf-4ce6-8c1b-782af9f94fb4","ios":"levelo://app?vid=eef1e964-08cf-4ce6-8c1b-782af9f94fb4"},"vehicle_type_id":"4","last_reported":1760202448,"current_range_meters":6800,"station_id":"ce4bhb92rcd13ifvqen0","pricing_plan_id":"cebpf4jnsgd1na2vs0mg"},{"bike_id":"e63c1480-b3ea-48bb-97d3-bd63b0d05aa4","system_id":"levelo_inurba_marseille","lat":43.24164,"lon":5.364,"is_reserved":false,"is_disabled":false,"rental_uris":{"android":"levelo://app?vid=e63c1480-b3ea-48bb-97d3-bd63b0d05aa4","ios":"levelo://app?vid=e63c1480-b3ea-48bb-97d3-bd63b0d05aa4"},"vehicle_type_id":"4","last_reported":1760202448,"current_range_meters":6800,"station_id":"cpo36qri1sfpv3e86is0","pricing_plan_id":"cebpf4jnsgd1na2vs0mg"},{"bike_id":"b7844ae4-20d5-4d81-8f4d-cd146b6f58ee","system_id":"levelo_inurba_marseille","lat":43.31805,"lon":5.37632,"is_reserved":false,"is_disabled":false,"rental_uris":{"android":"levelo://app?vid=b7844ae4-20d5-4d81-8f4d-cd146b6f58ee","ios":"levelo://app?vid=b7844ae4-20d5-4d81-8f4d-cd146b6f58ee"},"vehicle_type_id":"4","last_reported":1760202448,"current_range_meters":7200,"station_id":"","pricing_plan_id":"cebpf4jnsgd1na2vs0mg"},{"bike_id":"87c95fa9-6484-4eea-b3ac-882bc11b4ed1","system_id":"levelo_inurba_marseille","lat":43.32321,"lon":5.3823,"is_reserved":false,"is_disabled":false,"rental_uris":{"android":"levelo://app?vid=87c95fa9-6484-4eea-b3ac-882bc11b4ed1","ios":"levelo://app?vid=87c95fa9-6484-4eea-b3ac-882bc11b4ed1"},"vehicle_type_id":"4","last_reported":1760202448,"current_range_meters":7200,"station_id":"","pricing_plan_id":"cebpf4jnsgd1na2vs0mg"},{"bike_id":"42d91b3f-590c-47c7-a107-82cbb13bc12b","system_id":"levelo_inurba_marseille","lat":43.29976,"lon":5.38489,"is_reserved":false,"is_disabled":false,"rental_uris":{"android":"levelo://app?vid=42d91b3f-590c-47c7-a107-82cbb13bc12b","ios":"levelo://app?vid=42d91b3f-590c-47c7-a107-82cbb13bc12b"},"vehicle_type_id":"4","last_reported":1760202448,"current_range_meters":7200,"station_id":"ce4bgj92rcd13ifvqbd0","pricing_plan_id":"cebpf4jnsgd1na2vs0mg"},{"bike_id":"b8fb6d0a-8f1a-4f06-9594-26fb1da10049","system_id":"levelo_inurba_marseille","lat":43.31484,"lon":5.37312,"is_reserved":false,"is_disabled":false,"rental_uris":{"android":"levelo://app?vid=b8fb6d0a-8f1a-4f06-9594-26fb1da10049","ios":"levelo://app?vid=b8fb6d0a-8f1a-4f06-9594-26fb1da10049"},"vehicle_type_id":"4","last_reported":1760202448,"current_range_meters":7200,"station_id":"ce4bgt12rcd13ifvqcd0","pricing_plan_id":"cebpf4jnsgd1na2vs0mg"},{"bike_id":"2b1318dc-e0fe-4e2c-9757-51f490c676f6","system_id":"levelo_inurba_marseille","lat":43.28857,"lon":5.39304,"is_reserved":false,"is_disabled":false,"rental_uris":{"android":"levelo://app?vid=2b1318dc-e0fe-4e2c-9757-51f490c676f6","ios":"levelo://app?vid=2b1318dc-e0fe-4e2c-9757-51f490c676f6"},"vehicle_type_id":"4","last_reported":1760202448,"current_range_meters":7200,"station_id":"ce4bh2p2rcd13ifvqdi0","pricing_plan_id":"cebpf4jnsgd1na2vs0mg"},{"bike_id":"4d7235c1-8077-4991-94e3-bb107e76b315","system_id":"levelo_inurba_marseille","lat":43.287,"lon":5.37943,"is_reserved":false,"is_disabled":false,"rental_uris":{"android":"levelo://app?vid=4d7235c1-8077-4991-94e3-bb107e76b315","ios":"levelo://app?vid=4d7235c1-8077-4991-94e3-bb107e76b315"},"vehicle_type_id":"4","last_reported":1760202448,"current_range_meters":7200,"station_id":"ce4bh9p2rcd13ifvqec0","pricing_plan_id":"cebpf4jnsgd1na2vs0mg"},{"bike_id":"7ecce9b3-6d8a-4b46-9e3e-06d9c28c905f","system_id":"levelo_inurba_marseille","lat":43.28904,"lon":5.39094,"is_reserved":false,"is_disabled":false,"rental_uris":{"android":"levelo://app?vid=7ecce9b3-6d8a-4b46-9e3e-06d9c28c905f","ios":"levelo://app?vid=7ecce9b3-6d8a-4b46-9e3e-06d9c28c905f"},"vehicle_type_id":"4","last_reported":1760202448,"current_range_meters":8000,"station_id":"","pricing_plan_id":"cebpf4jnsgd1na2vs0mg"},{"bike_id":"a2c5a24e-27d8-4e96-8ec5-e40694325370","system_id":"levelo_inurba_marseille","lat":43.28672,"lon":5.38661,"is_reserved":false,"is_disabled":false,"rental_uris":{"android":"levelo://app?vid=a2c5a24e-27d8-4e96-8ec5-e40694325370","ios":"levelo://app?vid=a2c5a24e-27d8-4e96-8ec5-e40694325370"},"vehicle_type_id":"4","last_reported":1760202448,"current_range_meters":8000,"station_id":"ce4bh492rcd13ifvqdug","pricing_plan_id":"cebpf4jnsgd1na2vs0mg"},{"bike_id":"c71d029b-341e-40ff-898d-35ef20186d4d","system_id":"levelo_inurba_marseille","lat":43.28475,"lon":5.3841,"is_reserved":false,"is_disabled":false,"rental_uris":{"android":"levelo://app?vid=c71d029b-341e-40ff-898d-35ef20186d4d","ios":"levelo://app?vid=c71d029b-341e-40ff-898d-35ef20186d4d"},"vehicle_type_id":"4","last_reported":1760202448,"current_range_meters":8000,"station_id":"ce4bh512rcd13ifvqe3g","pricing_plan_id":"cebpf4jnsgd1na2vs0mg"},{"bike_id":"74485c7d-1f48-4907-abfa-4088ffedebd8","system_id":"levelo_inurba_marseille","lat":43.29258,"lon":5.38444,"is_reserved":false,"is_disabled":false,"rental_uris":{"android":"levelo://app?vid=74485c7d-1f48-4907-abfa-4088ffedebd8","ios":"levelo://app?vid=74485c7d-1f48-4907-abfa-4088ffedebd8"},"vehicle_type_id":"4","last_reported":1760202448,"current_range_meters":8000,"station_id":"ce4bh692rcd13ifvqea0","pricing_plan_id":"cebpf4jnsgd1na2vs0mg"},{"bike_id":"0d6ecf7d-66c7-40a4-9a9e-e04bfef3a539","system_id":"levelo_inurba_marseille","lat":43.2927,"lon":5.38466,"is_reserved":false,"is_disabled":false,"rental_uris":{"android":"levelo://app?vid=0d6ecf7d-66c7-40a4-9a9e-e04bfef3a539","ios":"levelo://app?vid=0d6ecf7d-66c7-40a4-9a9e-e04bfef3a539"},"vehicle_type_id":"4","last_reported":1760202448,"current_range_meters":8000,"station_id":"ce4bh692rcd13ifvqea0","pricing_plan_id":"cebpf4jnsgd1na2vs0mg"},{"bike_id":"8a439783-a3b3-440f-9157-4893d15d1b96","system_id":"levelo_inurba_marseille","lat":43.29032,"lon":5.35917,"is_reserved":false,"is_disabled":false,"rental_uris":{"android":"levelo://app?vid=8a439783-a3b3-440f-9157-4893d15d1b96","ios":"levelo://app?vid=8a439783-a3b3-440f-9157-4893d15d1b96"},"vehicle_type_id":"4","last_reported":1760202448,"current_range_meters":8000,"station_id":"ce4bha92rcd13ifvqeg0","pricing_plan_id":"cebpf4jnsgd1na2vs0mg"},{"bike_id":"1fe63885-791d-499e-a50a-40ac3e875a3b","system_id":"levelo_inurba_marseille","lat":43.31537,"lon":5.38043,"is_reserved":false,"is_disabled":false,"rental_uris":{"android":"levelo://app?vid=1fe63885-791d-499e-a50a-40ac3e875a3b","ios":"levelo://app?vid=1fe63885-791d-499e-a50a-40ac3e875a3b"},"vehicle_type_id":"4","last_reported":1760202448,"current_range_meters":8000,"station_id":"ce4bhsp2rcd13ifvqi50","pricing_plan_id":"cebpf4jnsgd1na2vs0mg"},{"bike_id":"0458f03b-1910-440f-9167-c00670fba699","system_id":"levelo_inurba_marseille","lat":43.337444,"lon":5.374475,"is_reserved":false,"is_disabled":false,"rental_uris":{"android":"levelo://app?vid=0458f03b-1910-440f-9167-c00670fba699","ios":"levelo://app?vid=0458f03b-1910-440f-9167-c00670fba699"},"vehicle_type_id":"4","last_reported":1760202448,"current_range_meters":8400,"station_id":"","pricing_plan_id":"cebpf4jnsgd1na2vs0mg"},{"bike_id":"369d2504-65a5-4ebe-8b7b-5437adc610de","system_id":"levelo_inurba_marseille","lat":43.28256,"lon":5.3917,"is_reserved":false,"is_disabled":false,"rental_uris":{"android":"levelo://app?vid=369d2504-65a5-4ebe-8b7b-5437adc610de","ios":"levelo://app?vid=369d2504-65a5-4ebe-8b7b-5437adc610de"},"vehicle_type_id":"4","last_reported":1760202448,"current_range_meters":8400,"station_id":"","pricing_plan_id":"cebpf4jnsgd1na2vs0mg"},{"bike_id":"840f5367-4a8b-4bf8-aed3-ddf295d75be0","system_id":"levelo_inurba_marseille","lat":43.30428,"lon":5.371896,"is_reserved":false,"is_disabled":false,"rental_uris":{"android":"levelo://app?vid=840f5367-4a8b-4bf8-aed3-ddf295d75be0","ios":"levelo://app?vid=840f5367-4a8b-4bf8-aed3-ddf295d75be0"},"vehicle_type_id":"4","last_reported":1760202448,"current_range_meters":8400,"station_id":"","pricing_plan_id":"cebpf4jnsgd1na2vs0mg"},{"bike_id":"c3a1707d-0ff8-437e-92c7-4e0be5ac5fea","system_id":"levelo_inurba_marseille","lat":43.29226,"lon":5.36163,"is_reserved":false,"is_disabled":false,"rental_uris":{"android":"levelo://app?vid=c3a1707d-0ff8-437e-92c7-4e0be5ac5fea","ios":"levelo://app?vid=c3a1707d-0ff8-437e-92c7-4e0be5ac5fea"},"vehicle_type_id":"4","last_reported":1760202448,"current_range_meters":8400,"station_id":"","pricing_plan_id":"cebpf4jnsgd1na2vs0mg"},{"bike_id":"39308eb8-f98d-4735-b834-9ed871dfd236","system_id":"levelo_inurba_marseille","lat":43.29309,"lon":5.37125,"is_reserved":false,"is_disabled":false,"rental_uris":{"android":"levelo://app?vid=39308eb8-f98d-4735-b834-9ed871dfd236","ios":"levelo://app?vid=39308eb8-f98d-4735-b834-9ed871dfd236"},"vehicle_type_id":"4","last_reported":1760202448,"current_range_meters":8400,"station_id":"ce4bgh92rcd13ifvqb40","pricing_plan_id":"cebpf4jnsgd1na2vs0mg"},{"bike_id":"dbdf07d1-f45b-4c82-9fe7-f3ee09a0a68e","system_id":"levelo_inurba_marseille","lat":43.29904,"lon":5.38141,"is_reserved":false,"is_disabled":false,"rental_uris":{"android":"levelo://app?vid=dbdf07d1-f45b-4c82-9fe7-f3ee09a0a68e","ios":"levelo://app?vid=dbdf07d1-f45b-4c82-9fe7-f3ee09a0a68e"},"vehicle_type_id":"4","last_reported":1760202448,"current_range_meters":8800,"station_id":"ce4bgj12rcd13ifvqbc0","pricing_plan_id":"cebpf4jnsgd1na2vs0mg"},{"bike_id":"e79ae81d-5852-4fea-8a77-e96d279779ce","system_id":"levelo_inurba_marseille","lat":43.26351,"lon":5.42262,"is_reserved":false,"is_disabled":false,"rental_uris":{"android":"levelo://app?vid=e79ae81d-5852-4fea-8a77-e96d279779ce","ios":"levelo://app?vid=e79ae81d-5852-4fea-8a77-e96d279779ce"},"vehicle_type_id":"4","last_reported":1760202448,"current_range_meters":9200,"station_id":"","pricing_plan_id":"cebpf4jnsgd1na2vs0mg"},{"bike_id":"44e6d14f-3554-4d0a-9130-88ecee71de83","system_id":"levelo_inurba_marseille","lat":43.31219,"lon":5.36833,"is_reserved":false,"is_disabled":false,"rental_uris":{"android":"levelo://app?vid=44e6d14f-3554-4d0a-9130-88ecee71de83","ios":"levelo://app?vid=44e6d14f-3554-4d0a-9130-88ecee71de83"},"vehicle_type_id":"4","last_reported":1760202448,"current_range_meters":9200,"station_id":"ce4bgl92rcd13ifvqbq0","pricing_plan_id":"cebpf4jnsgd1na2vs0mg"},{"bike_id":"ec1b5dac-ca17-460c-9a25-c0a0fe2dd764","system_id":"levelo_inurba_marseille","lat":43.297104,"lon":5.366133,"is_reserved":false,"is_disabled":false,"rental_uris":{"android":"levelo://app?vid=ec1b5dac-ca17-460c-9a25-c0a0fe2dd764","ios":"levelo://app?vid=ec1b5dac-ca17-460c-9a25-c0a0fe2dd764"},"vehicle_type_id":"4","last_reported":1760202448,"current_range_meters":9200,"station_id":"ce4bgn12rcd13ifvqbt0","pricing_plan_id":"cebpf4jnsgd1na2vs0mg"},{"bike_id":"962a71d6-8f07-4242-85bd-f82a16b241d6","system_id":"levelo_inurba_marseille","lat":43.30137,"lon":5.39875,"is_reserved":false,"is_disabled":false,"rental_uris":{"android":"levelo://app?vid=962a71d6-8f07-4242-85bd-f82a16b241d6","ios":"levelo://app?vid=962a71d6-8f07-4242-85bd-f82a16b241d6"},"vehicle_type_id":"4","last_reported":1760202448,"current_range_meters":9200,"station_id":"ce4bh0h2rcd13ifvqd40","pricing_plan_id":"cebpf4jnsgd1na2vs0mg"},{"bike_id":"9f9edaa2-34b7-4837-8925-898705819e49","system_id":"levelo_inurba_marseille","lat":43.32351,"lon":5.3676,"is_reserved":false,"is_disabled":false,"rental_uris":{"android":"levelo://app?vid=9f9edaa2-34b7-4837-8925-898705819e49","ios":"levelo://app?vid=9f9edaa2-34b7-4837-8925-898705819e49"},"vehicle_type_id":"4","last_reported":1760202448,"current_range_meters":9200,"station_id":"ce4bhsh2rcd13ifvqi2g","pricing_plan_id":"cebpf4jnsgd1na2vs0mg"},{"bike_id":"a091fa2a-de07-4635-870e-3375376348fb","system_id":"levelo_inurba_marseille","lat":43.30038,"lon":5.38623,"is_reserved":false,"is_disabled":false,"rental_uris":{"android":"levelo://app?vid=a091fa2a-de07-4635-870e-3375376348fb","ios":"levelo://app?vid=a091fa2a-de07-4635-870e-3375376348fb"},"vehicle_type_id":"4","last_reported":1760202448,"current_range_meters":9600,"station_id":"","pricing_plan_id":"cebpf4jnsgd1na2vs0mg"},{"bike_id":"f84db39b-1588-467c-a7d6-3417c55d68b1","system_id":"levelo_inurba_marseille","lat":43.29342,"lon":5.37539,"is_reserved":false,"is_disabled":false,"rental_uris":{"android":"levelo://app?vid=f84db39b-1588-467c-a7d6-3417c55d68b1","ios":"levelo://app?vid=f84db39b-1588-467c-a7d6-3417c55d68b1"},"vehicle_type_id":"4","last_reported":1760202448,"current_range_meters":9600,"station_id":"","pricing_plan_id":"cebpf4jnsgd1na2vs0mg"},{"bike_id":"431c2e70-433d-4af0-acf4-957ec8670f40","system_id":"levelo_inurba_marseille","lat":43.2954,"lon":5.383068,"is_reserved":false,"is_disabled":false,"rental_uris":{"android":"levelo://app?vid=431c2e70-433d-4af0-acf4-957ec8670f40","ios":"levelo://app?vid=431c2e70-433d-4af0-acf4-957ec8670f40"},"vehicle_type_id":"4","last_reported":1760202448,"current_range_meters":9600,"station_id":"","pricing_plan_id":"cebpf4jnsgd1na2vs0mg"},{"bike_id":"2622d5d7-ab51-43c9-acef-544e99dbf250","system_id":"levelo_inurba_marseille","lat":43.29529,"lon":5.38548,"is_reserved":false,"is_disabled":false,"rental_uris":{"android":"levelo://app?vid=2622d5d7-ab51-43c9-acef-544e99dbf250","ios":"levelo://app?vid=2622d5d7-ab51-43c9-acef-544e99dbf250"},"vehicle_type_id":"4","last_reported":1760202448,"current_range_meters":9600,"station_id":"ce4bgih2rcd13ifvqba0","pricing_plan_id":"cebpf4jnsgd1na2vs0mg"},{"bike_id":"bcb75a38-0bb1-4f7c-b02e-f5efa7b88063","system_id":"levelo_inurba_marseille","lat":43.29838,"lon":5.36271,"is_reserved":false,"is_disabled":false,"rental_uris":{"android":"levelo://app?vid=bcb75a38-0bb1-4f7c-b02e-f5efa7b88063","ios":"levelo://app?vid=bcb75a38-0bb1-4f7c-b02e-f5efa7b88063"},"vehicle_type_id":"4","last_reported":1760202448,"current_range_meters":9600,"station_id":"ce4bgpp2rcd13ifvqc3g","pricing_plan_id":"cebpf4jnsgd1na2vs0mg"},{"bike_id":"86b30fb8-b487-4cbb-8c71-54a5a77ecdb9","system_id":"levelo_inurba_marseille","lat":43.29528,"lon":5.39405,"is_reserved":false,"is_disabled":false,"rental_uris":{"android":"levelo://app?vid=86b30fb8-b487-4cbb-8c71-54a5a77ecdb9","ios":"levelo://app?vid=86b30fb8-b487-4cbb-8c71-54a5a77ecdb9"},"vehicle_type_id":"4","last_reported":1760202448,"current_range_meters":9600,"station_id":"ce4bh292rcd13ifvqdf0","pricing_plan_id":"cebpf4jnsgd1na2vs0mg"},{"bike_id":"0151e3b7-9d13-4c55-882d-06e363010425","system_id":"levelo_inurba_marseille","lat":43.27556,"lon":5.38439,"is_reserved":false,"is_disabled":false,"rental_uris":{"android":"levelo://app?vid=0151e3b7-9d13-4c55-882d-06e363010425","ios":"levelo://app?vid=0151e3b7-9d13-4c55-882d-06e363010425"},"vehicle_type_id":"4","last_reported":1760202448,"current_range_meters":9600,"station_id":"ce4bhh92rcd13ifvqfi0","pricing_plan_id":"cebpf4jnsgd1na2vs0mg"},{"bike_id":"5d1cac1f-7cef-4a7c-88c7-3a71d9b4bcc2","system_id":"levelo_inurba_marseille","lat":43.23191,"lon":5.39993,"is_reserved":false,"is_disabled":false,"rental_uris":{"android":"levelo://app?vid=5d1cac1f-7cef-4a7c-88c7-3a71d9b4bcc2","ios":"levelo://app?vid=5d1cac1f-7cef-4a7c-88c7-3a71d9b4bcc2"},"vehicle_type_id":"4","last_reported":1760202448,"current_range_meters":9600,"station_id":"ce4bhn12rcd13ifvqgqg","pricing_plan_id":"cebpf4jnsgd1na2vs0mg"},{"bike_id":"7583cff7-69e0-46f4-b57c-51537e43e578","system_id":"levelo_inurba_marseille","lat":43.29969,"lon":5.38499,"is_reserved":false,"is_disabled":false,"rental_uris":{"android":"levelo://app?vid=7583cff7-69e0-46f4-b57c-51537e43e578","ios":"levelo://app?vid=7583cff7-69e0-46f4-b57c-51537e43e578"},"vehicle_type_id":"4","last_reported":1760202448,"current_range_meters":10000,"station_id":"ce4bgj92rcd13ifvqbd0","pricing_plan_id":"cebpf4jnsgd1na2vs0mg"},{"bike_id":"701318bc-5d02-4cc0-a3c3-f22339c93ad0","system_id":"levelo_inurba_marseille","lat":43.30264,"lon":5.40079,"is_reserved":false,"is_disabled":false,"rental_uris":{"android":"levelo://app?vid=701318bc-5d02-4cc0-a3c3-f22339c93ad0","ios":"levelo://app?vid=701318bc-5d02-4cc0-a3c3-f22339c93ad0"},"vehicle_type_id":"4","last_reported":1760202448,"current_range_meters":10000,"station_id":"ce4bgvh2rcd13ifvqcs0","pricing_plan_id":"cebpf4jnsgd1na2vs0mg"},{"bike_id":"d6e94413-1954-4bff-9f35-e80caa0726ed","system_id":"levelo_inurba_marseille","lat":43.29874,"lon":5.39734,"is_reserved":false,"is_disabled":false,"rental_uris":{"android":"levelo://app?vid=d6e94413-1954-4bff-9f35-e80caa0726ed","ios":"levelo://app?vid=d6e94413-1954-4bff-9f35-e80caa0726ed"},"vehicle_type_id":"4","last_reported":1760202448,"current_range_meters":10000,"station_id":"ce4bh0h2rcd13ifvqd50","pricing_plan_id":"cebpf4jnsgd1na2vs0mg"},{"bike_id":"c39df3bb-01b0-4775-a701-339d4b4fe32d","system_id":"levelo_inurba_marseille","lat":43.23197,"lon":5.35571,"is_reserved":false,"is_disabled":false,"rental_uris":{"android":"levelo://app?vid=c39df3bb-01b0-4775-a701-339d4b4fe32d","ios":"levelo://app?vid=c39df3bb-01b0-4775-a701-339d4b4fe32d"},"vehicle_type_id":"4","last_reported":1760202448,"current_range_meters":10000,"station_id":"ce4bhu92rcd13ifvqi70","pricing_plan_id":"cebpf4jnsgd1na2vs0mg"},{"bike_id":"7b046a5a-33ea-4f88-bdc0-00a3c5f171ef","system_id":"levelo_inurba_marseille","lat":43.28362,"lon":5.38103,"is_reserved":false,"is_disabled":false,"rental_uris":{"android":"levelo://app?vid=7b046a5a-33ea-4f88-bdc0-00a3c5f171ef","ios":"levelo://app?vid=7b046a5a-33ea-4f88-bdc0-00a3c5f171ef"},"vehicle_type_id":"4","last_reported":1760202448,"current_range_meters":10800,"station_id":"ce4bh412rcd13ifvqdr0","pricing_plan_id":"cebpf4jnsgd1na2vs0mg"},{"bike_id":"6440e989-4859-481d-8afd-01d5a43dce9d","system_id":"levelo_inurba_marseille","lat":43.24669,"lon":5.38168,"is_reserved":false,"is_disabled":false,"rental_uris":{"android":"levelo://app?vid=6440e989-4859-481d-8afd-01d5a43dce9d","ios":"levelo://app?vid=6440e989-4859-481d-8afd-01d5a43dce9d"},"vehicle_type_id":"4","last_reported":1760202448,"current_range_meters":10800,"station_id":"ce4bhih2rcd13ifvqfr0","pricing_plan_id":"cebpf4jnsgd1na2vs0mg"},{"bike_id":"a7aeb2ea-c6e8-4c27-a182-6b304c1c2496","system_id":"levelo_inurba_marseille","lat":43.24172,"lon":5.36392,"is_reserved":false,"is_disabled":false,"rental_uris":{"android":"levelo://app?vid=a7aeb2ea-c6e8-4c27-a182-6b304c1c2496","ios":"levelo://app?vid=a7aeb2ea-c6e8-4c27-a182-6b304c1c2496"},"vehicle_type_id":"4","last_reported":1760202448,"current_range_meters":10800,"station_id":"cpo36qri1sfpv3e86is0","pricing_plan_id":"cebpf4jnsgd1na2vs0mg"},{"bike_id":"80b5fdd6-8044-4280-9733-7a4992e6b8f6","system_id":"levelo_inurba_marseille","lat":43.292676,"lon":5.376168,"is_reserved":false,"is_disabled":false,"rental_uris":{"android":"levelo://app?vid=80b5fdd6-8044-4280-9733-7a4992e6b8f6","ios":"levelo://app?vid=80b5fdd6-8044-4280-9733-7a4992e6b8f6"},"vehicle_type_id":"4","last_reported":1760202448,"current_range_meters":11200,"station_id":"","pricing_plan_id":"cebpf4jnsgd1na2vs0mg"},{"bike_id":"3d85733f-d6a3-4030-9f48-e2254d2ffc7a","system_id":"levelo_inurba_marseille","lat":43.31536,"lon":5.3803,"is_reserved":false,"is_disabled":false,"rental_uris":{"android":"levelo://app?vid=3d85733f-d6a3-4030-9f48-e2254d2ffc7a","ios":"levelo://app?vid=3d85733f-d6a3-4030-9f48-e2254d2ffc7a"},"vehicle_type_id":"4","last_reported":1760202448,"current_range_meters":11200,"station_id":"ce4bhsp2rcd13ifvqi50","pricing_plan_id":"cebpf4jnsgd1na2vs0mg"},{"bike_id":"eab20017-cef4-4d4a-af13-9f1a4bbd7bea","system_id":"levelo_inurba_marseille","lat":43.29588,"lon":5.36753,"is_reserved":false,"is_disabled":false,"rental_uris":{"android":"levelo://app?vid=eab20017-cef4-4d4a-af13-9f1a4bbd7bea","ios":"levelo://app?vid=eab20017-cef4-4d4a-af13-9f1a4bbd7bea"},"vehicle_type_id":"4","last_reported":1760202448,"current_range_meters":11600,"station_id":"ce4bgph2rcd13ifvqc2g","pricing_plan_id":"cebpf4jnsgd1na2vs0mg"},{"bike_id":"3400ba71-90ff-45c4-a865-e60f7dfca010","system_id":"levelo_inurba_marseille","lat":43.29189,"lon":5.35807,"is_reserved":false,"is_disabled":false,"rental_uris":{"android":"levelo://app?vid=3400ba71-90ff-45c4-a865-e60f7dfca010","ios":"levelo://app?vid=3400ba71-90ff-45c4-a865-e60f7dfca010"},"vehicle_type_id":"4","last_reported":1760202448,"current_range_meters":11600,"station_id":"ce4bhb12rcd13ifvqel0","pricing_plan_id":"cebpf4jnsgd1na2vs0mg"},{"bike_id":"759f9545-d3fb-4e08-a9ef-0729417222e4","system_id":"levelo_inurba_marseille","lat":43.2481,"lon":5.37461,"is_reserved":false,"is_disabled":false,"rental_uris":{"android":"levelo://app?vid=759f9545-d3fb-4e08-a9ef-0729417222e4","ios":"levelo://app?vid=759f9545-d3fb-4e08-a9ef-0729417222e4"},"vehicle_type_id":"4","last_reported":1760202448,"current_range_meters":11600,"station_id":"ce4bhgh2rcd13ifvqfb0","pricing_plan_id":"cebpf4jnsgd1na2vs0mg"},{"bike_id":"a6fb357e-20f8-42ec-8334-51ac1a6c8865","system_id":"levelo_inurba_marseille","lat":43.289341,"lon":5.366404,"is_reserved":false,"is_disabled":false,"rental_uris":{"android":"levelo://app?vid=a6fb357e-20f8-42ec-8334-51ac1a6c8865","ios":"levelo://app?vid=a6fb357e-20f8-42ec-8334-51ac1a6c8865"},"vehicle_type_id":"4","last_reported":1760202448,"current_range_meters":12000,"station_id":"","pricing_plan_id":"cebpf4jnsgd1na2vs0mg"},{"bike_id":"a07f0108-3dc2-4020-848d-7ffca071f032","system_id":"levelo_inurba_marseille","lat":43.29191,"lon":5.35815,"is_reserved":false,"is_disabled":false,"rental_uris":{"android":"levelo://app?vid=a07f0108-3dc2-4020-848d-7ffca071f032","ios":"levelo://app?vid=a07f0108-3dc2-4020-848d-7ffca071f032"},"vehicle_type_id":"4","last_reported":1760202448,"current_range_meters":12000,"station_id":"ce4bhb12rcd13ifvqel0","pricing_plan_id":"cebpf4jnsgd1na2vs0mg"},{"bike_id":"96189567-9f56-4467-99e1-85c33efa20b5","system_id":"levelo_inurba_marseille","lat":43.2257,"lon":5.41625,"is_reserved":false,"is_disabled":false,"rental_uris":{"android":"levelo://app?vid=96189567-9f56-4467-99e1-85c33efa20b5","ios":"levelo://app?vid=96189567-9f56-4467-99e1-85c33efa20b5"},"vehicle_type_id":"4","last_reported":1760202448,"current_range_meters":12000,"station_id":"st_d2o4gvlbi1j2169b742g","pricing_plan_id":"cebpf4jnsgd1na2vs0mg"},{"bike_id":"df2fdcfd-9b2f-4cf0-8a37-826706a7eda8","system_id":"levelo_inurba_marseille","lat":43.2715,"lon":5.39162,"is_reserved":false,"is_disabled":false,"rental_uris":{"android":"levelo://app?vid=df2fdcfd-9b2f-4cf0-8a37-826706a7eda8","ios":"levelo://app?vid=df2fdcfd-9b2f-4cf0-8a37-826706a7eda8"},"vehicle_type_id":"4","last_reported":1760202448,"current_range_meters":12400,"station_id":"","pricing_plan_id":"cebpf4jnsgd1na2vs0mg"},{"bike_id":"08fcdb32-2bb9-48aa-82a9-a8f703dd0269","system_id":"levelo_inurba_marseille","lat":43.25409,"lon":5.41897,"is_reserved":false,"is_disabled":false,"rental_uris":{"android":"levelo://app?vid=08fcdb32-2bb9-48aa-82a9-a8f703dd0269","ios":"levelo://app?vid=08fcdb32-2bb9-48aa-82a9-a8f703dd0269"},"vehicle_type_id":"4","last_reported":1760202448,"current_range_meters":12800,"station_id":"","pricing_plan_id":"cebpf4jnsgd1na2vs0mg"},{"bike_id":"85a1ee1d-dda2-4de7-81f8-a5546f79bc76","system_id":"levelo_inurba_marseille","lat":43.23968,"lon":5.36632,"is_reserved":false,"is_disabled":false,"rental_uris":{"android":"levelo://app?vid=85a1ee1d-dda2-4de7-81f8-a5546f79bc76","ios":"levelo://app?vid=85a1ee1d-dda2-4de7-81f8-a5546f79bc76"},"vehicle_type_id":"4","last_reported":1760202448,"current_range_meters":12800,"station_id":"ce4bhi12rcd13ifvqfp0","pricing_plan_id":"cebpf4jnsgd1na2vs0mg"},{"bike_id":"272e614d-3e4c-499a-a3ca-adf8a9c56ca6","system_id":"levelo_inurba_marseille","lat":43.278125,"lon":5.407129,"is_reserved":false,"is_disabled":false,"rental_uris":{"android":"levelo://app?vid=272e614d-3e4c-499a-a3ca-adf8a9c56ca6","ios":"levelo://app?vid=272e614d-3e4c-499a-a3ca-adf8a9c56ca6"},"vehicle_type_id":"4","last_reported":1760202448,"current_range_meters":12800,"station_id":"ce4bhnh2rcd13ifvqgtg","pricing_plan_id":"cebpf4jnsgd1na2vs0mg"},{"bike_id":"9eec1a65-67bd-488e-bfd6-3773aa5c5cc6","system_id":"levelo_inurba_marseille","lat":43.24057,"lon":5.37747,"is_reserved":false,"is_disabled":false,"rental_uris":{"android":"levelo://app?vid=9eec1a65-67bd-488e-bfd6-3773aa5c5cc6","ios":"levelo://app?vid=9eec1a65-67bd-488e-bfd6-3773aa5c5cc6"},"vehicle_type_id":"4","last_reported":1760202448,"current_range_meters":12800,"station_id":"ce4bhnp2rcd13ifvqgvg","pricing_plan_id":"cebpf4jnsgd1na2vs0mg"},{"bike_id":"83cfc693-6ef2-4717-8c35-3246fa6eec3c","system_id":"levelo_inurba_marseille","lat":43.29707,"lon":5.36595,"is_reserved":false,"is_disabled":false,"rental_uris":{"android":"levelo://app?vid=83cfc693-6ef2-4717-8c35-3246fa6eec3c","ios":"levelo://app?vid=83cfc693-6ef2-4717-8c35-3246fa6eec3c"},"vehicle_type_id":"4","last_reported":1760202448,"current_range_meters":13600,"station_id":"ce4bgn12rcd13ifvqbt0","pricing_plan_id":"cebpf4jnsgd1na2vs0mg"},{"bike_id":"aa27de20-b870-4fa0-9186-d6f2e6587b8b","system_id":"levelo_inurba_marseille","lat":43.30962,"lon":5.39031,"is_reserved":false,"is_disabled":false,"rental_uris":{"android":"levelo://app?vid=aa27de20-b870-4fa0-9186-d6f2e6587b8b","ios":"levelo://app?vid=aa27de20-b870-4fa0-9186-d6f2e6587b8b"},"vehicle_type_id":"4","last_reported":1760202448,"current_range_meters":13600,"station_id":"ce4bgup2rcd13ifvqco0","pricing_plan_id":"cebpf4jnsgd1na2vs0mg"},{"bike_id":"937e3048-727d-4db6-af63-aa9483cb8a62","system_id":"levelo_inurba_marseille","lat":43.29571,"lon":5.39977,"is_reserved":false,"is_disabled":false,"rental_uris":{"android":"levelo://app?vid=937e3048-727d-4db6-af63-aa9483cb8a62","ios":"levelo://app?vid=937e3048-727d-4db6-af63-aa9483cb8a62"},"vehicle_type_id":"4","last_reported":1760202448,"current_range_meters":13600,"station_id":"ce4bh312rcd13ifvqdj0","pricing_plan_id":"cebpf4jnsgd1na2vs0mg"},{"bike_id":"ed2dff8b-73b9-439d-ad69-7d34534b4cbe","system_id":"levelo_inurba_marseille","lat":43.27792,"lon":5.40728,"is_reserved":false,"is_disabled":false,"rental_uris":{"android":"levelo://app?vid=ed2dff8b-73b9-439d-ad69-7d34534b4cbe","ios":"levelo://app?vid=ed2dff8b-73b9-439d-ad69-7d34534b4cbe"},"vehicle_type_id":"4","last_reported":1760202448,"current_range_meters":13600,"station_id":"ce4bhnh2rcd13ifvqgtg","pricing_plan_id":"cebpf4jnsgd1na2vs0mg"},{"bike_id":"9a3f78ca-b0c6-4f72-8a79-592b18fbedf7","system_id":"levelo_inurba_marseille","lat":43.24071,"lon":5.37782,"is_reserved":false,"is_disabled":false,"rental_uris":{"android":"levelo://app?vid=9a3f78ca-b0c6-4f72-8a79-592b18fbedf7","ios":"levelo://app?vid=9a3f78ca-b0c6-4f72-8a79-592b18fbedf7"},"vehicle_type_id":"4","last_reported":1760202448,"current_range_meters":13600,"station_id":"ce4bhnp2rcd13ifvqgvg","pricing_plan_id":"cebpf4jnsgd1na2vs0mg"},{"bike_id":"36852a13-f383-442f-9a01-f153febeeef2","system_id":"levelo_inurba_marseille","lat":43.30195,"lon":5.36835,"is_reserved":false,"is_disabled":false,"rental_uris":{"android":"levelo://app?vid=36852a13-f383-442f-9a01-f153febeeef2","ios":"levelo://app?vid=36852a13-f383-442f-9a01-f153febeeef2"},"vehicle_type_id":"4","last_reported":1760202448,"current_range_meters":14000,"station_id":"","pricing_plan_id":"cebpf4jnsgd1na2vs0mg"},{"bike_id":"8ee39919-6894-4e49-b1a3-2b4c87e63f90","system_id":"levelo_inurba_marseille","lat":43.30461,"lon":5.37909,"is_reserved":false,"is_disabled":false,"rental_uris":{"android":"levelo://app?vid=8ee39919-6894-4e49-b1a3-2b4c87e63f90","ios":"levelo://app?vid=8ee39919-6894-4e49-b1a3-2b4c87e63f90"},"vehicle_type_id":"4","last_reported":1760202448,"current_range_meters":14000,"station_id":"ce4bgup2rcd13ifvqcn0","pricing_plan_id":"cebpf4jnsgd1na2vs0mg"},{"bike_id":"8792114b-f051-4064-ba16-dbc3e5b7ad1c","system_id":"levelo_inurba_marseille","lat":43.28893,"lon":5.36652,"is_reserved":false,"is_disabled":false,"rental_uris":{"android":"levelo://app?vid=8792114b-f051-4064-ba16-dbc3e5b7ad1c","ios":"levelo://app?vid=8792114b-f051-4064-ba16-dbc3e5b7ad1c"},"vehicle_type_id":"4","last_reported":1760202448,"current_range_meters":14000,"station_id":"ce4bhap2rcd13ifvqek0","pricing_plan_id":"cebpf4jnsgd1na2vs0mg"},{"bike_id":"21409f71-4259-4f74-801c-a1a9639f7ae8","system_id":"levelo_inurba_marseille","lat":43.26908,"lon":5.40337,"is_reserved":false,"is_disabled":false,"rental_uris":{"android":"levelo://app?vid=21409f71-4259-4f74-801c-a1a9639f7ae8","ios":"levelo://app?vid=21409f71-4259-4f74-801c-a1a9639f7ae8"},"vehicle_type_id":"4","last_reported":1760202448,"current_range_meters":14000,"station_id":"ce4bhk92rcd13ifvqgc0","pricing_plan_id":"cebpf4jnsgd1na2vs0mg"},{"bike_id":"1929241a-97f5-4bac-a594-3bf80a6b6e7f","system_id":"levelo_inurba_marseille","lat":43.29789,"lon":5.39343,"is_reserved":false,"is_disabled":false,"rental_uris":{"android":"levelo://app?vid=1929241a-97f5-4bac-a594-3bf80a6b6e7f","ios":"levelo://app?vid=1929241a-97f5-4bac-a594-3bf80a6b6e7f"},"vehicle_type_id":"4","last_reported":1760202448,"current_range_meters":14000,"station_id":"chh1huq6cuj3fo74tm60","pricing_plan_id":"cebpf4jnsgd1na2vs0mg"},{"bike_id":"187cf0d8-0607-43fc-8eaa-6af12fda0dee","system_id":"levelo_inurba_marseille","lat":43.22428,"lon":5.34657,"is_reserved":false,"is_disabled":false,"rental_uris":{"android":"levelo://app?vid=187cf0d8-0607-43fc-8eaa-6af12fda0dee","ios":"levelo://app?vid=187cf0d8-0607-43fc-8eaa-6af12fda0dee"},"vehicle_type_id":"4","last_reported":1760202448,"current_range_meters":14400,"station_id":"","pricing_plan_id":"cebpf4jnsgd1na2vs0mg"},{"bike_id":"a88b7eec-46af-47d7-a0bf-d5854d080a7b","system_id":"levelo_inurba_marseille","lat":43.284642,"lon":5.358866,"is_reserved":false,"is_disabled":false,"rental_uris":{"android":"levelo://app?vid=a88b7eec-46af-47d7-a0bf-d5854d080a7b","ios":"levelo://app?vid=a88b7eec-46af-47d7-a0bf-d5854d080a7b"},"vehicle_type_id":"4","last_reported":1760202448,"current_range_meters":14400,"station_id":"","pricing_plan_id":"cebpf4jnsgd1na2vs0mg"},{"bike_id":"7c49e4be-6512-4af0-8f09-03275c245c90","system_id":"levelo_inurba_marseille","lat":43.29839,"lon":5.36276,"is_reserved":false,"is_disabled":false,"rental_uris":{"android":"levelo://app?vid=7c49e4be-6512-4af0-8f09-03275c245c90","ios":"levelo://app?vid=7c49e4be-6512-4af0-8f09-03275c245c90"},"vehicle_type_id":"4","last_reported":1760202448,"current_range_meters":14400,"station_id":"ce4bgpp2rcd13ifvqc3g","pricing_plan_id":"cebpf4jnsgd1na2vs0mg"},{"bike_id":"15451fa0-fcd8-4d45-8db6-456dca15837d","system_id":"levelo_inurba_marseille","lat":43.28399,"lon":5.34992,"is_reserved":false,"is_disabled":false,"rental_uris":{"android":"levelo://app?vid=15451fa0-fcd8-4d45-8db6-456dca15837d","ios":"levelo://app?vid=15451fa0-fcd8-4d45-8db6-456dca15837d"},"vehicle_type_id":"4","last_reported":1760202448,"current_range_meters":14400,"station_id":"ce4bhbh2rcd13ifvqepg","pricing_plan_id":"cebpf4jnsgd1na2vs0mg"},{"bike_id":"f643732a-737c-4023-9ce1-91073dd626a3","system_id":"levelo_inurba_marseille","lat":43.31598,"lon":5.38135,"is_reserved":false,"is_disabled":false,"rental_uris":{"android":"levelo://app?vid=f643732a-737c-4023-9ce1-91073dd626a3","ios":"levelo://app?vid=f643732a-737c-4023-9ce1-91073dd626a3"},"vehicle_type_id":"4","last_reported":1760202448,"current_range_meters":14800,"station_id":"","pricing_plan_id":"cebpf4jnsgd1na2vs0mg"},{"bike_id":"b97ae111-34c5-40a3-bc58-02103404c0ba","system_id":"levelo_inurba_marseille","lat":43.305516,"lon":5.367039,"is_reserved":false,"is_disabled":false,"rental_uris":{"android":"levelo://app?vid=b97ae111-34c5-40a3-bc58-02103404c0ba","ios":"levelo://app?vid=b97ae111-34c5-40a3-bc58-02103404c0ba"},"vehicle_type_id":"4","last_reported":1760202448,"current_range_meters":14800,"station_id":"ce4bgrp2rcd13ifvqc9g","pricing_plan_id":"cebpf4jnsgd1na2vs0mg"},{"bike_id":"12b2b85d-2c2e-4e0b-a832-98e3cac5323d","system_id":"levelo_inurba_marseille","lat":43.27964,"lon":5.38729,"is_reserved":false,"is_disabled":false,"rental_uris":{"android":"levelo://app?vid=12b2b85d-2c2e-4e0b-a832-98e3cac5323d","ios":"levelo://app?vid=12b2b85d-2c2e-4e0b-a832-98e3cac5323d"},"vehicle_type_id":"4","last_reported":1760202448,"current_range_meters":14800,"station_id":"ce4bhg12rcd13ifvqf80","pricing_plan_id":"cebpf4jnsgd1na2vs0mg"},{"bike_id":"bf3e6031-a4b5-4d11-9089-ea468e967475","system_id":"levelo_inurba_marseille","lat":43.24167,"lon":5.36406,"is_reserved":false,"is_disabled":false,"rental_uris":{"android":"levelo://app?vid=bf3e6031-a4b5-4d11-9089-ea468e967475","ios":"levelo://app?vid=bf3e6031-a4b5-4d11-9089-ea468e967475"},"vehicle_type_id":"4","last_reported":1760202448,"current_range_meters":14800,"station_id":"cpo36qri1sfpv3e86is0","pricing_plan_id":"cebpf4jnsgd1na2vs0mg"},{"bike_id":"6fed0de2-06d2-4c6b-a4fe-04061c2810b9","system_id":"levelo_inurba_marseille","lat":43.29445,"lon":5.38639,"is_reserved":false,"is_disabled":false,"rental_uris":{"android":"levelo://app?vid=6fed0de2-06d2-4c6b-a4fe-04061c2810b9","ios":"levelo://app?vid=6fed0de2-06d2-4c6b-a4fe-04061c2810b9"},"vehicle_type_id":"4","last_reported":1760202448,"current_range_meters":15200,"station_id":"","pricing_plan_id":"cebpf4jnsgd1na2vs0mg"},{"bike_id":"b78fc6de-8c66-40b1-bc7e-1794eacc6804","system_id":"levelo_inurba_marseille","lat":43.28172,"lon":5.34973,"is_reserved":false,"is_disabled":false,"rental_uris":{"android":"levelo://app?vid=b78fc6de-8c66-40b1-bc7e-1794eacc6804","ios":"levelo://app?vid=b78fc6de-8c66-40b1-bc7e-1794eacc6804"},"vehicle_type_id":"4","last_reported":1760202448,"current_range_meters":15200,"station_id":"","pricing_plan_id":"cebpf4jnsgd1na2vs0mg"},{"bike_id":"aed7fe29-45f1-4dd2-bcf1-27d4fd8928f5","system_id":"levelo_inurba_marseille","lat":43.29573,"lon":5.37519,"is_reserved":false,"is_disabled":false,"rental_uris":{"android":"levelo://app?vid=aed7fe29-45f1-4dd2-bcf1-27d4fd8928f5","ios":"levelo://app?vid=aed7fe29-45f1-4dd2-bcf1-27d4fd8928f5"},"vehicle_type_id":"4","last_reported":1760202448,"current_range_meters":15200,"station_id":"ce4bgh92rcd13ifvqb50","pricing_plan_id":"cebpf4jnsgd1na2vs0mg"},{"bike_id":"85748694-2fed-45be-9605-6d2fe8e37101","system_id":"levelo_inurba_marseille","lat":43.29852,"lon":5.36283,"is_reserved":false,"is_disabled":false,"rental_uris":{"android":"levelo://app?vid=85748694-2fed-45be-9605-6d2fe8e37101","ios":"levelo://app?vid=85748694-2fed-45be-9605-6d2fe8e37101"},"vehicle_type_id":"4","last_reported":1760202448,"current_range_meters":15200,"station_id":"ce4bgpp2rcd13ifvqc3g","pricing_plan_id":"cebpf4jnsgd1na2vs0mg"},{"bike_id":"0d125caf-5238-4006-bbc8-77c21e114e38","system_id":"levelo_inurba_marseille","lat":43.2417,"lon":5.36395,"is_reserved":false,"is_disabled":false,"rental_uris":{"android":"levelo://app?vid=0d125caf-5238-4006-bbc8-77c21e114e38","ios":"levelo://app?vid=0d125caf-5238-4006-bbc8-77c21e114e38"},"vehicle_type_id":"4","last_reported":1760202448,"current_range_meters":15200,"station_id":"cpo36qri1sfpv3e86is0","pricing_plan_id":"cebpf4jnsgd1na2vs0mg"},{"bike_id":"83e214c2-0ada-4351-8a27-d8d9e569d46f","system_id":"levelo_inurba_marseille","lat":43.24171,"lon":5.36376,"is_reserved":false,"is_disabled":false,"rental_uris":{"android":"levelo://app?vid=83e214c2-0ada-4351-8a27-d8d9e569d46f","ios":"levelo://app?vid=83e214c2-0ada-4351-8a27-d8d9e569d46f"},"vehicle_type_id":"4","last_reported":1760202448,"current_range_meters":15200,"station_id":"cpo36qri1sfpv3e86is0","pricing_plan_id":"cebpf4jnsgd1na2vs0mg"},{"bike_id":"4834a710-f242-4b0f-9ef7-9d6d9f7a4b7b","system_id":"levelo_inurba_marseille","lat":43.22557,"lon":5.41629,"is_reserved":false,"is_disabled":false,"rental_uris":{"android":"levelo://app?vid=4834a710-f242-4b0f-9ef7-9d6d9f7a4b7b","ios":"levelo://app?vid=4834a710-f242-4b0f-9ef7-9d6d9f7a4b7b"},"vehicle_type_id":"4","last_reported":1760202448,"current_range_meters":15200,"station_id":"st_d2o4gvlbi1j2169b742g","pricing_plan_id":"cebpf4jnsgd1na2vs0mg"},{"bike_id":"1a4a0bab-766d-4b7c-b03e-eb774a158bfa","system_id":"levelo_inurba_marseille","lat":43.31351,"lon":5.36717,"is_reserved":false,"is_disabled":false,"rental_uris":{"android":"levelo://app?vid=1a4a0bab-766d-4b7c-b03e-eb774a158bfa","ios":"levelo://app?vid=1a4a0bab-766d-4b7c-b03e-eb774a158bfa"},"vehicle_type_id":"4","last_reported":1760202448,"current_range_meters":16000,"station_id":"ce4bgr92rcd13ifvqc6g","pricing_plan_id":"cebpf4jnsgd1na2vs0mg"},{"bike_id":"0b33c1c7-ac01-4f61-87e0-36de3c917406","system_id":"levelo_inurba_marseille","lat":43.28944,"lon":5.36408,"is_reserved":false,"is_disabled":false,"rental_uris":{"android":"levelo://app?vid=0b33c1c7-ac01-4f61-87e0-36de3c917406","ios":"levelo://app?vid=0b33c1c7-ac01-4f61-87e0-36de3c917406"},"vehicle_type_id":"4","last_reported":1760202448,"current_range_meters":16000,"station_id":"ce4bhc92rcd13ifvqetg","pricing_plan_id":"cebpf4jnsgd1na2vs0mg"},{"bike_id":"87fc3477-614b-4388-982f-fe508ae6c05a","system_id":"levelo_inurba_marseille","lat":43.24073,"lon":5.37769,"is_reserved":false,"is_disabled":false,"rental_uris":{"android":"levelo://app?vid=87fc3477-614b-4388-982f-fe508ae6c05a","ios":"levelo://app?vid=87fc3477-614b-4388-982f-fe508ae6c05a"},"vehicle_type_id":"4","last_reported":1760202448,"current_range_meters":16000,"station_id":"ce4bhnp2rcd13ifvqgvg","pricing_plan_id":"cebpf4jnsgd1na2vs0mg"},{"bike_id":"1f13df58-059b-40d6-9d46-74e2f0995477","system_id":"levelo_inurba_marseille","lat":43.27991,"lon":5.41655,"is_reserved":false,"is_disabled":false,"rental_uris":{"android":"levelo://app?vid=1f13df58-059b-40d6-9d46-74e2f0995477","ios":"levelo://app?vid=1f13df58-059b-40d6-9d46-74e2f0995477"},"vehicle_type_id":"4","last_reported":1760202448,"current_range_meters":16000,"station_id":"ce4bho12rcd13ifvqh1g","pricing_plan_id":"cebpf4jnsgd1na2vs0mg"},{"bike_id":"90a7399f-67eb-4ed6-8265-2126a88abadc","system_id":"levelo_inurba_marseille","lat":43.22555,"lon":5.4164,"is_reserved":false,"is_disabled":false,"rental_uris":{"android":"levelo://app?vid=90a7399f-67eb-4ed6-8265-2126a88abadc","ios":"levelo://app?vid=90a7399f-67eb-4ed6-8265-2126a88abadc"},"vehicle_type_id":"4","last_reported":1760202448,"current_range_meters":16000,"station_id":"st_d2o4gvlbi1j2169b742g","pricing_plan_id":"cebpf4jnsgd1na2vs0mg"},{"bike_id":"b713d005-9bb2-422c-935c-b7130ac4c360","system_id":"levelo_inurba_marseille","lat":43.297794,"lon":5.363388,"is_reserved":false,"is_disabled":false,"rental_uris":{"android":"levelo://app?vid=b713d005-9bb2-422c-935c-b7130ac4c360","ios":"levelo://app?vid=b713d005-9bb2-422c-935c-b7130ac4c360"},"vehicle_type_id":"4","last_reported":1760202448,"current_range_meters":16400,"station_id":"ce4bgpp2rcd13ifvqc3g","pricing_plan_id":"cebpf4jnsgd1na2vs0mg"},{"bike_id":"dba89556-83e9-4f2d-a05c-00e007ae2830","system_id":"levelo_inurba_marseille","lat":43.29628,"lon":5.40599,"is_reserved":false,"is_disabled":false,"rental_uris":{"android":"levelo://app?vid=dba89556-83e9-4f2d-a05c-00e007ae2830","ios":"levelo://app?vid=dba89556-83e9-4f2d-a05c-00e007ae2830"},"vehicle_type_id":"4","last_reported":1760202448,"current_range_meters":16400,"station_id":"ce4bh0h2rcd13ifvqd60","pricing_plan_id":"cebpf4jnsgd1na2vs0mg"},{"bike_id":"31493857-7610-49f7-b2de-3137d5df7f58","system_id":"levelo_inurba_marseille","lat":43.28699,"lon":5.37411,"is_reserved":false,"is_disabled":false,"rental_uris":{"android":"levelo://app?vid=31493857-7610-49f7-b2de-3137d5df7f58","ios":"levelo://app?vid=31493857-7610-49f7-b2de-3137d5df7f58"},"vehicle_type_id":"4","last_reported":1760202448,"current_range_meters":16400,"station_id":"ce4bh3p2rcd13ifvqdq0","pricing_plan_id":"cebpf4jnsgd1na2vs0mg"},{"bike_id":"40d70a86-fa16-4f1d-84ae-a1a2c7856a2a","system_id":"levelo_inurba_marseille","lat":43.28456,"lon":5.35906,"is_reserved":false,"is_disabled":false,"rental_uris":{"android":"levelo://app?vid=40d70a86-fa16-4f1d-84ae-a1a2c7856a2a","ios":"levelo://app?vid=40d70a86-fa16-4f1d-84ae-a1a2c7856a2a"},"vehicle_type_id":"4","last_reported":1760202448,"current_range_meters":16400,"station_id":"ce4bhah2rcd13ifvqei0","pricing_plan_id":"cebpf4jnsgd1na2vs0mg"},{"bike_id":"a1264a22-ef6f-42af-8ea0-201a0a87b153","system_id":"levelo_inurba_marseille","lat":43.29266,"lon":5.36858,"is_reserved":false,"is_disabled":false,"rental_uris":{"android":"levelo://app?vid=a1264a22-ef6f-42af-8ea0-201a0a87b153","ios":"levelo://app?vid=a1264a22-ef6f-42af-8ea0-201a0a87b153"},"vehicle_type_id":"4","last_reported":1760202448,"current_range_meters":16400,"station_id":"ce4bhbp2rcd13ifvqesg","pricing_plan_id":"cebpf4jnsgd1na2vs0mg"},{"bike_id":"3272e5cb-e544-4bac-866a-624239b9225a","system_id":"levelo_inurba_marseille","lat":43.217492,"lon":5.346061,"is_reserved":false,"is_disabled":false,"rental_uris":{"android":"levelo://app?vid=3272e5cb-e544-4bac-866a-624239b9225a","ios":"levelo://app?vid=3272e5cb-e544-4bac-866a-624239b9225a"},"vehicle_type_id":"4","last_reported":1760202448,"current_range_meters":16800,"station_id":"","pricing_plan_id":"cebpf4jnsgd1na2vs0mg"},{"bike_id":"c968b562-eddd-4651-bbf4-ac759e42bc1d","system_id":"levelo_inurba_marseille","lat":43.29874,"lon":5.38921,"is_reserved":false,"is_disabled":false,"rental_uris":{"android":"levelo://app?vid=c968b562-eddd-4651-bbf4-ac759e42bc1d","ios":"levelo://app?vid=c968b562-eddd-4651-bbf4-ac759e42bc1d"},"vehicle_type_id":"4","last_reported":1760202448,"current_range_meters":16800,"station_id":"ce4bh392rcd13ifvqdl0","pricing_plan_id":"cebpf4jnsgd1na2vs0mg"},{"bike_id":"7591e1b9-39da-4bb9-bfef-91d026a9b9cc","system_id":"levelo_inurba_marseille","lat":43.29034,"lon":5.35934,"is_reserved":false,"is_disabled":false,"rental_uris":{"android":"levelo://app?vid=7591e1b9-39da-4bb9-bfef-91d026a9b9cc","ios":"levelo://app?vid=7591e1b9-39da-4bb9-bfef-91d026a9b9cc"},"vehicle_type_id":"4","last_reported":1760202448,"current_range_meters":16800,"station_id":"ce4bha92rcd13ifvqeg0","pricing_plan_id":"cebpf4jnsgd1na2vs0mg"},{"bike_id":"88a9ef26-40c0-40d0-a3f3-02bb63ba1425","system_id":"levelo_inurba_marseille","lat":43.26224,"lon":5.40467,"is_reserved":false,"is_disabled":false,"rental_uris":{"android":"levelo://app?vid=88a9ef26-40c0-40d0-a3f3-02bb63ba1425","ios":"levelo://app?vid=88a9ef26-40c0-40d0-a3f3-02bb63ba1425"},"vehicle_type_id":"4","last_reported":1760202448,"current_range_meters":16800,"station_id":"ce4bhmh2rcd13ifvqgmg","pricing_plan_id":"cebpf4jnsgd1na2vs0mg"},{"bike_id":"c0eb2028-9108-4db9-a1ff-35b3a66092dc","system_id":"levelo_inurba_marseille","lat":43.31714,"lon":5.43711,"is_reserved":false,"is_disabled":false,"rental_uris":{"android":"levelo://app?vid=c0eb2028-9108-4db9-a1ff-35b3a66092dc","ios":"levelo://app?vid=c0eb2028-9108-4db9-a1ff-35b3a66092dc"},"vehicle_type_id":"4","last_reported":1760202448,"current_range_meters":16800,"station_id":"ce4bhp92rcd13ifvqhcg","pricing_plan_id":"cebpf4jnsgd1na2vs0mg"},{"bike_id":"77c290c3-83a2-4f94-b3be-704d42cbad7a","system_id":"levelo_inurba_marseille","lat":43.32425,"lon":5.38957,"is_reserved":false,"is_disabled":false,"rental_uris":{"android":"levelo://app?vid=77c290c3-83a2-4f94-b3be-704d42cbad7a","ios":"levelo://app?vid=77c290c3-83a2-4f94-b3be-704d42cbad7a"},"vehicle_type_id":"4","last_reported":1760202448,"current_range_meters":17200,"station_id":"","pricing_plan_id":"cebpf4jnsgd1na2vs0mg"},