{"last_updated":1732802947,"ttl":60,"version":"2.2","data":{"bikes":[{"bike_id":"1aed983f-4c3e-4fb0-9461-985c409763c2","system_id":"levelo_inurba_marseille","lat":43.29004,"lon":5.35613,"is_reserved":false,"is_disabled":false,"rental_uris":{"android":"levelo://app?vid=1aed983f-4c3e-4fb0-9461-985c409763c2","ios":"levelo://app?vid=1aed983f-4c3e-4fb0-9461-985c409763c2"},"vehicle_type_id":"4","last_reported":1732802947,"current_range_meters":10800,"station_id":"ce4bhb92rcd13ifvqen0","pricing_plan_id":"cebpf4jnsgd1na2vs0mg"},{"bike_id":"927924fc-8a74-47c2-8b69-b7e14b1090b9","system_id":"levelo_inurba_marseille","lat":43.27811,"lon":5.4072,"is_reserved":false,"is_disabled":false,"rental_uris":{"android":"levelo://app?vid=927924fc-8a74-47c2-8b69-b7e14b1090b9","ios":"levelo://app?vid=927924fc-8a74-47c2-8b69-b7e14b1090b9"},"vehicle_type_id":"4","last_reported":1732802947,"current_range_meters":9600,"station_id":"ce4bhnh2rcd13ifvqgtg","pricing_plan_id":"cebpf4jnsgd1na2vs0mg"},{"bike_id":"b856c8b4-412d-4c25-bdd4-e6b29aed04cb","system_id":"levelo_inurba_marseille","lat":43.22932,"lon":5.35379,"is_reserved":false,"is_disabled":false,"rental_uris":{"android":"levelo://app?vid=b856c8b4-412d-4c25-bdd4-e6b29aed04cb","ios":"levelo://app?vid=b856c8b4-412d-4c25-bdd4-e6b29aed04cb"},"vehicle_type_id":"4","last_reported":1732802947,"current_range_meters":39200,"station_id":"cpo3532slgdg3j2ikp40","pricing_plan_id":"cebpf4jnsgd1na2vs0mg"},{"bike_id":"d0754314-ad13-46f1-89ef-a51badd51de6","system_id":"levelo_inurba_marseille","lat":43.23165,"lon":5.43708,"is_reserved":false,"is_disabled":false,"rental_uris":{"android":"levelo://app?vid=d0754314-ad13-46f1-89ef-a51badd51de6","ios":"levelo://app?vid=d0754314-ad13-46f1-89ef-a51badd51de6"},"vehicle_type_id":"4","last_reported":1732802947,"current_range_meters":37600,"station_id":"ce4bhmp2rcd13ifvqgog","pricing_plan_id":"cebpf4jnsgd1na2vs0mg"},{"bike_id":"5b88791c-5474-4c17-8542-3e41ea5a4e1a","system_id":"levelo_inurba_marseille","lat":43.26061,"lon":5.39396,"is_reserved":false,"is_disabled":false,"rental_uris":{"android":"levelo://app?vid=5b88791c-5474-4c17-8542-3e41ea5a4e1a","ios":"levelo://app?vid=5b88791c-5474-4c17-8542-3e41ea5a4e1a"},"vehicle_type_id":"4","last_reported":1732802947,"current_range_meters":37600,"station_id":"ce4bhh92rcd13ifvqfj0","pricing_plan_id":"cebpf4jnsgd1na2vs0mg"},{"bike_id":"890f737b-cd69-4ea1-b121-1a499e00f5b8","system_id":"levelo_inurba_marseille","lat":43.27053,"lon":5.422674,"is_reserved":false,"is_disabled":false,"rental_uris":{"android":"levelo://app?vid=890f737b-cd69-4ea1-b121-1a499e00f5b8","ios":"levelo://app?vid=890f737b-cd69-4ea1-b121-1a499e00f5b8"},"vehicle_type_id":"4","last_reported":1732802947,"current_range_meters":27600,"station_id":"ce4bhk92rcd13ifvqgb0","pricing_plan_id":"cebpf4jnsgd1na2vs0mg"},{"bike_id":"88740c56-e146-4945-8045-2c9f1daf0885","system_id":"levelo_inurba_marseille","lat":43.26805,"lon":5.40269,"is_reserved":false,"is_disabled":false,"rental_uris":{"android":"levelo://app?vid=88740c56-e146-4945-8045-2c9f1daf0885","ios":"levelo://app?vid=88740c56-e146-4945-8045-2c9f1daf0885"},"vehicle_type_id":"4","last_reported":1732802947,"current_range_meters":35600,"station_id":"ce501612rcd8frsf0b60","pricing_plan_id":"cebpf4jnsgd1na2vs0mg"},{"bike_id":"8b606e12-d2c9-41bb-a2e2-b72a2fcca1e1","system_id":"levelo_inurba_marseille","lat":43.3079,"lon":5.37538,"is_reserved":false,"is_disabled":true,"rental_uris":{"android":"levelo://app?vid=8b606e12-d2c9-41bb-a2e2-b72a2fcca1e1","ios":"levelo://app?vid=8b606e12-d2c9-41bb-a2e2-b72a2fcca1e1"},"vehicle_type_id":"4","last_reported":1732802947,"current_range_meters":800,"station_id":"","pricing_plan_id":"cebpf4jnsgd1na2vs0mg"},{"bike_id":"52c1434e-1525-4ccb-8844-53b694051a18","system_id":"levelo_inurba_marseille","lat":43.30921,"lon":5.36869,"is_reserved":false,"is_disabled":false,"rental_uris":{"android":"levelo://app?vid=52c1434e-1525-4ccb-8844-53b694051a18","ios":"levelo://app?vid=52c1434e-1525-4ccb-8844-53b694051a18"},"vehicle_type_id":"4","last_reported":1732802947,"current_range_meters":11200,"station_id":"ce4bgn92rcd13ifvqbvg","pricing_plan_id":"cebpf4jnsgd1na2vs0mg"},{"bike_id":"2f0867d2-fc57-48ee-ac3f-d5acd3ed3bae","system_id":"levelo_inurba_marseille","lat":43.28,"lon":5.40019,"is_reserved":false,"is_disabled":false,"rental_uris":{"android":"levelo://app?vid=2f0867d2-fc57-48ee-ac3f-d5acd3ed3bae","ios":"levelo://app?vid=2f0867d2-fc57-48ee-ac3f-d5acd3ed3bae"},"vehicle_type_id":"4","last_reported":1732802947,"current_range_meters":5600,"station_id":"ce4bho92rcd13ifvqh4g","pricing_plan_id":"cebpf4jnsgd1na2vs0mg"},{"bike_id":"5197ee97-7cc5-4446-be18-5a7731d1efd1","system_id":"levelo_inurba_marseille","lat":43.28706,"lon":5.39999,"is_reserved":false,"is_disabled":false,"rental_uris":{"android":"levelo://app?vid=5197ee97-7cc5-4446-be18-5a7731d1efd1","ios":"levelo://app?vid=5197ee97-7cc5-4446-be18-5a7731d1efd1"},"vehicle_type_id":"4","last_reported":1732802947,"current_range_meters":28800,"station_id":"ce4bho92rcd13ifvqh3g","pricing_plan_id":"cebpf4jnsgd1na2vs0mg"},{"bike_id":"89963ea5-4c27-47c1-8c32-3449361fc57e","system_id":"levelo_inurba_marseille","lat":43.30528,"lon":5.36554,"is_reserved":false,"is_disabled":false,"rental_uris":{"android":"levelo://app?vid=89963ea5-4c27-47c1-8c32-3449361fc57e","ios":"levelo://app?vid=89963ea5-4c27-47c1-8c32-3449361fc57e"},"vehicle_type_id":"4","last_reported":1732802947,"current_range_meters":30400,"station_id":"ce4bgs12rcd13ifvqcag","pricing_plan_id":"cebpf4jnsgd1na2vs0mg"},{"bike_id":"ce15a521-8a1d-47b7-92c8-091ca367d00e","system_id":"levelo_inurba_marseille","lat":43.33749,"lon":5.37439,"is_reserved":false,"is_disabled":false,"rental_uris":{"android":"levelo://app?vid=ce15a521-8a1d-47b7-92c8-091ca367d00e","ios":"levelo://app?vid=ce15a521-8a1d-47b7-92c8-091ca367d00e"},"vehicle_type_id":"4","last_reported":1732802947,"current_range_meters":37600,"station_id":"","pricing_plan_id":"cebpf4jnsgd1na2vs0mg"},{"bike_id":"11092eb0-c9d7-4577-a466-274da06d6eba","system_id":"levelo_inurba_marseille","lat":43.29277,"lon":5.36843,"is_reserved":false,"is_disabled":true,"rental_uris":{"android":"levelo://app?vid=11092eb0-c9d7-4577-a466-274da06d6eba","ios":"levelo://app?vid=11092eb0-c9d7-4577-a466-274da06d6eba"},"vehicle_type_id":"4","last_reported":1732802947,"current_range_meters":12400,"station_id":"ce4bhbp2rcd13ifvqesg","pricing_plan_id":"cebpf4jnsgd1na2vs0mg"},{"bike_id":"e15f4019-02f8-465b-9ca2-c66455167dbb","system_id":"levelo_inurba_marseille","lat":43.23149,"lon":5.43719,"is_reserved":false,"is_disabled":false,"rental_uris":{"android":"levelo://app?vid=e15f4019-02f8-465b-9ca2-c66455167dbb","ios":"levelo://app?vid=e15f4019-02f8-465b-9ca2-c66455167dbb"},"vehicle_type_id":"4","last_reported":1732802947,"current_range_meters":38800,"station_id":"ce4bhmp2rcd13ifvqgog","pricing_plan_id":"cebpf4jnsgd1na2vs0mg"},{"bike_id":"8384c70a-9318-416d-abef-29841927cefb","system_id":"levelo_inurba_marseille","lat":43.30537,"lon":5.36704,"is_reserved":false,"is_disabled":false,"rental_uris":{"android":"levelo://app?vid=8384c70a-9318-416d-abef-29841927cefb","ios":"levelo://app?vid=8384c70a-9318-416d-abef-29841927cefb"},"vehicle_type_id":"4","last_reported":1732802947,"current_range_meters":8800,"station_id":"ce4bgrp2rcd13ifvqc9g","pricing_plan_id":"cebpf4jnsgd1na2vs0mg"},{"bike_id":"908a91b4-f74f-4175-9a94-be2178948b1b","system_id":"levelo_inurba_marseille","lat":43.25931,"lon":5.40911,"is_reserved":false,"is_disabled":true,"rental_uris":{"android":"levelo://app?vid=908a91b4-f74f-4175-9a94-be2178948b1b","ios":"levelo://app?vid=908a91b4-f74f-4175-9a94-be2178948b1b"},"vehicle_type_id":"4","last_reported":1732802947,"current_range_meters":0,"station_id":"ce4bhm92rcd13ifvqglg","pricing_plan_id":"cebpf4jnsgd1na2vs0mg"},{"bike_id":"1e6c3ebf-5fe6-4a58-a3a5-470ed290fc10","system_id":"levelo_inurba_marseille","lat":43.30546,"lon":5.36551,"is_reserved":false,"is_disabled":false,"rental_uris":{"android":"levelo://app?vid=1e6c3ebf-5fe6-4a58-a3a5-470ed290fc10","ios":"levelo://app?vid=1e6c3ebf-5fe6-4a58-a3a5-470ed290fc10"},"vehicle_type_id":"4","last_reported":1732802947,"current_range_meters":28800,"station_id":"ce4bgs12rcd13ifvqcag","pricing_plan_id":"cebpf4jnsgd1na2vs0mg"},{"bike_id":"5f529c0e-2721-4275-9c98-2afdfee37601","system_id":"levelo_inurba_marseille","lat":43.25932,"lon":5.40914,"is_reserved":false,"is_disabled":false,"rental_uris":{"android":"levelo://app?vid=5f529c0e-2721-4275-9c98-2afdfee37601","ios":"levelo://app?vid=5f529c0e-2721-4275-9c98-2afdfee37601"},"vehicle_type_id":"4","last_reported":1732802947,"current_range_meters":26000,"station_id":"ce4bhm92rcd13ifvqglg","pricing_plan_id":"cebpf4jnsgd1na2vs0mg"},{"bike_id":"ff9a1ec5-be80-43ec-9b6e-d2bb637a4f30","system_id":"levelo_inurba_marseille","lat":43.287135,"lon":5.39995,"is_reserved":false,"is_disabled":true,"rental_uris":{"android":"levelo://app?vid=ff9a1ec5-be80-43ec-9b6e-d2bb637a4f30","ios":"levelo://app?vid=ff9a1ec5-be80-43ec-9b6e-d2bb637a4f30"},"vehicle_type_id":"4","last_reported":1732802947,"current_range_meters":35600,"station_id":"ce4bho92rcd13ifvqh3g","pricing_plan_id":"cebpf4jnsgd1na2vs0mg"},{"bike_id":"f7ff578b-b717-4ffb-afee-43f523803885","system_id":"levelo_inurba_marseille","lat":43.28707,"lon":5.37942,"is_reserved":false,"is_disabled":false,"rental_uris":{"android":"levelo://app?vid=f7ff578b-b717-4ffb-afee-43f523803885","ios":"levelo://app?vid=f7ff578b-b717-4ffb-afee-43f523803885"},"vehicle_type_id":"4","last_reported":1732802947,"current_range_meters":26800,"station_id":"ce4bh9p2rcd13ifvqec0","pricing_plan_id":"cebpf4jnsgd1na2vs0mg"},{"bike_id":"6f7949e1-de87-4a49-8620-fec27e04447f","system_id":"levelo_inurba_marseille","lat":43.33721,"lon":5.39207,"is_reserved":false,"is_disabled":false,"rental_uris":{"android":"levelo://app?vid=6f7949e1-de87-4a49-8620-fec27e04447f","ios":"levelo://app?vid=6f7949e1-de87-4a49-8620-fec27e04447f"},"vehicle_type_id":"4","last_reported":1732802947,"current_range_meters":35200,"station_id":"ce4bhr92rcd13ifvqhsg","pricing_plan_id":"cebpf4jnsgd1na2vs0mg"},{"bike_id":"67260212-7a7a-4c78-858b-ed644dc9f9c1","system_id":"levelo_inurba_marseille","lat":43.2826,"lon":5.35067,"is_reserved":false,"is_disabled":false,"rental_uris":{"android":"levelo://app?vid=67260212-7a7a-4c78-858b-ed644dc9f9c1","ios":"levelo://app?vid=67260212-7a7a-4c78-858b-ed644dc9f9c1"},"vehicle_type_id":"4","last_reported":1732802947,"current_range_meters":12800,"station_id":"ce4bhbp2rcd13ifvqerg","pricing_plan_id":"cebpf4jnsgd1na2vs0mg"},{"bike_id":"19e5e7de-af8c-4e6c-8b5a-c464ab559c96","system_id":"levelo_inurba_marseille","lat":43.2797,"lon":5.38765,"is_reserved":false,"is_disabled":false,"rental_uris":{"android":"levelo://app?vid=19e5e7de-af8c-4e6c-8b5a-c464ab559c96","ios":"levelo://app?vid=19e5e7de-af8c-4e6c-8b5a-c464ab559c96"},"vehicle_type_id":"4","last_reported":1732802947,"current_range_meters":18000,"station_id":"ce4bhg12rcd13ifvqf80","pricing_plan_id":"cebpf4jnsgd1na2vs0mg"},{"bike_id":"20d189c2-44b0-421b-b279-ac991de94ac5","system_id":"levelo_inurba_marseille","lat":43.28852,"lon":5.3586,"is_reserved":false,"is_disabled":false,"rental_uris":{"android":"levelo://app?vid=20d189c2-44b0-421b-b279-ac991de94ac5","ios":"levelo://app?vid=20d189c2-44b0-421b-b279-ac991de94ac5"},"vehicle_type_id":"4","last_reported":1732802947,"current_range_meters":21600,"station_id":"ce4bhb12rcd13ifvqem0","pricing_plan_id":"cebpf4jnsgd1na2vs0mg"},{"bike_id":"2f0cb11d-2f6f-49b3-9f8d-4f2c839a038d","system_id":"levelo_inurba_marseille","lat":43.30139,"lon":5.3742,"is_reserved":false,"is_disabled":false,"rental_uris":{"android":"levelo://app?vid=2f0cb11d-2f6f-49b3-9f8d-4f2c839a038d","ios":"levelo://app?vid=2f0cb11d-2f6f-49b3-9f8d-4f2c839a038d"},"vehicle_type_id":"4","last_reported":1732802947,"current_range_meters":38800,"station_id":"ce4bgs92rcd13ifvqcc0","pricing_plan_id":"cebpf4jnsgd1na2vs0mg"},{"bike_id":"09ca27b9-f586-4eb0-8bf2-86ddb4bb36fb","system_id":"levelo_inurba_marseille","lat":43.2893,"lon":5.36629,"is_reserved":false,"is_disabled":false,"rental_uris":{"android":"levelo://app?vid=09ca27b9-f586-4eb0-8bf2-86ddb4bb36fb","ios":"levelo://app?vid=09ca27b9-f586-4eb0-8bf2-86ddb4bb36fb"},"vehicle_type_id":"4","last_reported":1732802947,"current_range_meters":1600,"station_id":"ce4bhap2rcd13ifvqek0","pricing_plan_id":"cebpf4jnsgd1na2vs0mg"},{"bike_id":"27da9bf1-a2e8-426b-acc7-134169cebef6","system_id":"levelo_inurba_marseille","lat":43.25493,"lon":5.37654,"is_reserved":false,"is_disabled":false,"rental_uris":{"android":"levelo://app?vid=27da9bf1-a2e8-426b-acc7-134169cebef6","ios":"levelo://app?vid=27da9bf1-a2e8-426b-acc7-134169cebef6"},"vehicle_type_id":"4","last_reported":1732802947,"current_range_meters":37600,"station_id":"ce4bhh12rcd13ifvqff0","pricing_plan_id":"cebpf4jnsgd1na2vs0mg"},{"bike_id":"4eb855f4-0c33-4e46-b9c3-fb652c131a25","system_id":"levelo_inurba_marseille","lat":43.26777,"lon":5.3942,"is_reserved":false,"is_disabled":true,"rental_uris":{"android":"levelo://app?vid=4eb855f4-0c33-4e46-b9c3-fb652c131a25","ios":"levelo://app?vid=4eb855f4-0c33-4e46-b9c3-fb652c131a25"},"vehicle_type_id":"4","last_reported":1732802947,"current_range_meters":800,"station_id":"ce4bhh12rcd13ifvqfg0","pricing_plan_id":"cebpf4jnsgd1na2vs0mg"},{"bike_id":"a8144450-52b4-4c74-b2ce-5cd7491907fe","system_id":"levelo_inurba_marseille","lat":43.29634,"lon":5.37717,"is_reserved":false,"is_disabled":false,"rental_uris":{"android":"levelo://app?vid=a8144450-52b4-4c74-b2ce-5cd7491907fe","ios":"levelo://app?vid=a8144450-52b4-4c74-b2ce-5cd7491907fe"},"vehicle_type_id":"4","last_reported":1732802947,"current_range_meters":16400,"station_id":"ce4bgi92rcd13ifvqb90","pricing_plan_id":"cebpf4jnsgd1na2vs0mg"},{"bike_id":"804ce035-2073-4d84-acdd-7c23289981b0","system_id":"levelo_inurba_marseille","lat":43.29532,"lon":5.37509,"is_reserved":false,"is_disabled":false,"rental_uris":{"android":"levelo://app?vid=804ce035-2073-4d84-acdd-7c23289981b0","ios":"levelo://app?vid=804ce035-2073-4d84-acdd-7c23289981b0"},"vehicle_type_id":"4","last_reported":1732802947,"current_range_meters":26000,"station_id":"ce4bgkp2rcd13ifvqbmg","pricing_plan_id":"cebpf4jnsgd1na2vs0mg"},{"bike_id":"51ab8de7-971c-4ec8-bdf4-409a39628c87","system_id":"levelo_inurba_marseille","lat":43.24072,"lon":5.37764,"is_reserved":false,"is_disabled":true,"rental_uris":{"android":"levelo://app?vid=51ab8de7-971c-4ec8-bdf4-409a39628c87","ios":"levelo://app?vid=51ab8de7-971c-4ec8-bdf4-409a39628c87"},"vehicle_type_id":"4","last_reported":1732802947,"current_range_meters":0,"station_id":"ce4bhnp2rcd13ifvqgvg","pricing_plan_id":"cebpf4jnsgd1na2vs0mg"},{"bike_id":"5249c720-4ecf-407f-95ee-f4da1041dcb5","system_id":"levelo_inurba_marseille","lat":43.26685,"lon":5.38276,"is_reserved":false,"is_disabled":false,"rental_uris":{"android":"levelo://app?vid=5249c720-4ecf-407f-95ee-f4da1041dcb5","ios":"levelo://app?vid=5249c720-4ecf-407f-95ee-f4da1041dcb5"},"vehicle_type_id":"4","last_reported":1732802947,"current_range_meters":28800,"station_id":"ce4bhg92rcd13ifvqf90","pricing_plan_id":"cebpf4jnsgd1na2vs0mg"},{"bike_id":"b1422ff8-74e2-4dc1-94ac-a145ceea1d5e","system_id":"levelo_inurba_marseille","lat":43.32369,"lon":5.36743,"is_reserved":false,"is_disabled":false,"rental_uris":{"android":"levelo://app?vid=b1422ff8-74e2-4dc1-94ac-a145ceea1d5e","ios":"levelo://app?vid=b1422ff8-74e2-4dc1-94ac-a145ceea1d5e"},"vehicle_type_id":"4","last_reported":1732802947,"current_range_meters":13600,"station_id":"ce4bhsh2rcd13ifvqi2g","pricing_plan_id":"cebpf4jnsgd1na2vs0mg"},{"bike_id":"2767d88a-7019-4bec-90b1-76b3c34b1d78","system_id":"levelo_inurba_marseille","lat":43.27616,"lon":5.36117,"is_reserved":false,"is_disabled":false,"rental_uris":{"android":"levelo://app?vid=2767d88a-7019-4bec-90b1-76b3c34b1d78","ios":"levelo://app?vid=2767d88a-7019-4bec-90b1-76b3c34b1d78"},"vehicle_type_id":"4","last_reported":1732802947,"current_range_meters":37600,"station_id":"ce4bgj92rcd13ifvqbe0","pricing_plan_id":"cebpf4jnsgd1na2vs0mg"},{"bike_id":"4709c438-f4af-415a-a919-d27302b75dca","system_id":"levelo_inurba_marseille","lat":43.23196,"lon":5.35553,"is_reserved":false,"is_disabled":false,"rental_uris":{"android":"levelo://app?vid=4709c438-f4af-415a-a919-d27302b75dca","ios":"levelo://app?vid=4709c438-f4af-415a-a919-d27302b75dca"},"vehicle_type_id":"4","last_reported":1732802947,"current_range_meters":39200,"station_id":"ce4bhu92rcd13ifvqi70","pricing_plan_id":"cebpf4jnsgd1na2vs0mg"},{"bike_id":"2b921899-1359-49b6-a793-ffb9ef50e656","system_id":"levelo_inurba_marseille","lat":43.29623,"lon":5.37725,"is_reserved":false,"is_disabled":true,"rental_uris":{"android":"levelo://app?vid=2b921899-1359-49b6-a793-ffb9ef50e656","ios":"levelo://app?vid=2b921899-1359-49b6-a793-ffb9ef50e656"},"vehicle_type_id":"4","last_reported":1732802947,"current_range_meters":37600,"station_id":"ce4bgi92rcd13ifvqb90","pricing_plan_id":"cebpf4jnsgd1na2vs0mg"},{"bike_id":"01f82ec5-9c03-4f67-b3b9-3f60f795818b","system_id":"levelo_inurba_marseille","lat":43.29571,"lon":5.39978,"is_reserved":false,"is_disabled":false,"rental_uris":{"android":"levelo://app?vid=01f82ec5-9c03-4f67-b3b9-3f60f795818b","ios":"levelo://app?vid=01f82ec5-9c03-4f67-b3b9-3f60f795818b"},"vehicle_type_id":"4","last_reported":1732802947,"current_range_meters":36400,"station_id":"ce4bh312rcd13ifvqdj0","pricing_plan_id":"cebpf4jnsgd1na2vs0mg"},{"bike_id":"e68b29d6-57c2-4e82-b64e-5c0e5453674f","system_id":"levelo_inurba_marseille","lat":43.23153,"lon":5.43704,"is_reserved":false,"is_disabled":false,"rental_uris":{"android":"levelo://app?vid=e68b29d6-57c2-4e82-b64e-5c0e5453674f","ios":"levelo://app?vid=e68b29d6-57c2-4e82-b64e-5c0e5453674f"},"vehicle_type_id":"4","last_reported":1732802947,"current_range_meters":6800,"station_id":"ce4bhmp2rcd13ifvqgog","pricing_plan_id":"cebpf4jnsgd1na2vs0mg"},{"bike_id":"d1983a1d-30fd-42f6-8497-7eaac9d273ac","system_id":"levelo_inurba_marseille","lat":43.30885,"lon":5.39633,"is_reserved":false,"is_disabled":false,"rental_uris":{"android":"levelo://app?vid=d1983a1d-30fd-42f6-8497-7eaac9d273ac","ios":"levelo://app?vid=d1983a1d-30fd-42f6-8497-7eaac9d273ac"},"vehicle_type_id":"4","last_reported":1732802947,"current_range_meters":37600,"station_id":"ce4bh012rcd13ifvqcv0","pricing_plan_id":"cebpf4jnsgd1na2vs0mg"},{"bike_id":"5a198137-8661-40b4-bff8-b72046c16976","system_id":"levelo_inurba_marseille","lat":43.28853,"lon":5.35842,"is_reserved":false,"is_disabled":false,"rental_uris":{"android":"levelo://app?vid=5a198137-8661-40b4-bff8-b72046c16976","ios":"levelo://app?vid=5a198137-8661-40b4-bff8-b72046c16976"},"vehicle_type_id":"4","last_reported":1732802947,"current_range_meters":35600,"station_id":"ce4bhb12rcd13ifvqem0","pricing_plan_id":"cebpf4jnsgd1na2vs0mg"},{"bike_id":"b8ecfe4d-d550-4b53-bc81-13b4bf1da7be","system_id":"levelo_inurba_marseille","lat":43.29006,"lon":5.35613,"is_reserved":false,"is_disabled":false,"rental_uris":{"android":"levelo://app?vid=b8ecfe4d-d550-4b53-bc81-13b4bf1da7be","ios":"levelo://app?vid=b8ecfe4d-d550-4b53-bc81-13b4bf1da7be"},"vehicle_type_id":"4","last_reported":1732802947,"current_range_meters":38800,"station_id":"ce4bhb92rcd13ifvqen0","pricing_plan_id":"cebpf4jnsgd1na2vs0mg"},{"bike_id":"869146c7-107f-4a8d-a9de-076457eea766","system_id":"levelo_inurba_marseille","lat":43.21678,"lon":5.34648,"is_reserved":false,"is_disabled":false,"rental_uris":{"android":"levelo://app?vid=869146c7-107f-4a8d-a9de-076457eea766","ios":"levelo://app?vid=869146c7-107f-4a8d-a9de-076457eea766"},"vehicle_type_id":"4","last_reported":1732802947,"current_range_meters":10000,"station_id":"","pricing_plan_id":"cebpf4jnsgd1na2vs0mg"},{"bike_id":"5d6aa0bd-e6b6-497a-98c6-6a3a4d1aafc5","system_id":"levelo_inurba_marseille","lat":43.28349,"lon":5.38111,"is_reserved":false,"is_disabled":true,"rental_uris":{"android":"levelo://app?vid=5d6aa0bd-e6b6-497a-98c6-6a3a4d1aafc5","ios":"levelo://app?vid=5d6aa0bd-e6b6-497a-98c6-6a3a4d1aafc5"},"vehicle_type_id":"4","last_reported":1732802947,"current_range_meters":400,"station_id":"ce4bh412rcd13ifvqdr0","pricing_plan_id":"cebpf4jnsgd1na2vs0mg"},{"bike_id":"cd0ce734-4677-4719-a3cb-52637dc16e42","system_id":"levelo_inurba_marseille","lat":43.29027,"lon":5.37563,"is_reserved":false,"is_disabled":true,"rental_uris":{"android":"levelo://app?vid=cd0ce734-4677-4719-a3cb-52637dc16e42","ios":"levelo://app?vid=cd0ce734-4677-4719-a3cb-52637dc16e42"},"vehicle_type_id":"4","last_reported":1732802947,"current_range_meters":800,"station_id":"ce4bh692rcd13ifvqe90","pricing_plan_id":"cebpf4jnsgd1na2vs0mg"},{"bike_id":"013c3408-b53f-4b33-b442-b78dc4660140","system_id":"levelo_inurba_marseille","lat":43.23152,"lon":5.43726,"is_reserved":false,"is_disabled":true,"rental_uris":{"android":"levelo://app?vid=013c3408-b53f-4b33-b442-b78dc4660140","ios":"levelo://app?vid=013c3408-b53f-4b33-b442-b78dc4660140"},"vehicle_type_id":"4","last_reported":1732802947,"current_range_meters":0,"station_id":"ce4bhmp2rcd13ifvqgog","pricing_plan_id":"cebpf4jnsgd1na2vs0mg"},{"bike_id":"bad8df67-3fb4-43fd-9717-71c817718be5","system_id":"levelo_inurba_marseille","lat":43.3254,"lon":5.41435,"is_reserved":false,"is_disabled":false,"rental_uris":{"android":"levelo://app?vid=bad8df67-3fb4-43fd-9717-71c817718be5","ios":"levelo://app?vid=bad8df67-3fb4-43fd-9717-71c817718be5"},"vehicle_type_id":"4","last_reported":1732802947,"current_range_meters":12400,"station_id":"ce4bhq12rcd13ifvqhhg","pricing_plan_id":"cebpf4jnsgd1na2vs0mg"},{"bike_id":"945ff00b-5904-449e-948a-0a34aaf33769","system_id":"levelo_inurba_marseille","lat":43.32657,"lon":5.40998,"is_reserved":false,"is_disabled":false,"rental_uris":{"android":"levelo://app?vid=945ff00b-5904-449e-948a-0a34aaf33769","ios":"levelo://app?vid=945ff00b-5904-449e-948a-0a34aaf33769"},"vehicle_type_id":"4","last_reported":1732802947,"current_range_meters":27600,"station_id":"ce4bhpp2rcd13ifvqhgg","pricing_plan_id":"cebpf4jnsgd1na2vs0mg"},{"bike_id":"8a7026ec-ece9-4425-b203-849730d538b7","system_id":"levelo_inurba_marseille","lat":43.3166,"lon":5.40501,"is_reserved":false,"is_disabled":false,"rental_uris":{"android":"levelo://app?vid=8a7026ec-ece9-4425-b203-849730d538b7","ios":"levelo://app?vid=8a7026ec-ece9-4425-b203-849730d538b7"},"vehicle_type_id":"4","last_reported":1732802947,"current_range_meters":24800,"station_id":"ce4bh012rcd13ifvqd00","pricing_plan_id":"cebpf4jnsgd1na2vs0mg"},{"bike_id":"13748854-c7ec-4486-bb35-86cbf66f8ec7","system_id":"levelo_inurba_marseille","lat":43.23152,"lon":5.43703,"is_reserved":false,"is_disabled":true,"rental_uris":{"android":"levelo://app?vid=13748854-c7ec-4486-bb35-86cbf66f8ec7","ios":"levelo://app?vid=13748854-c7ec-4486-bb35-86cbf66f8ec7"},"vehicle_type_id":"4","last_reported":1732802947,"current_range_meters":0,"station_id":"ce4bhmp2rcd13ifvqgog","pricing_plan_id":"cebpf4jnsgd1na2vs0mg"},{"bike_id":"221f2a60-6510-458a-b20b-6dfdb194f962","system_id":"levelo_inurba_marseille","lat":43.29612,"lon":5.37723,"is_reserved":false,"is_disabled":false,"rental_uris":{"android":"levelo://app?vid=221f2a60-6510-458a-b20b-6dfdb194f962","ios":"levelo://app?vid=221f2a60-6510-458a-b20b-6dfdb194f962"},"vehicle_type_id":"4","last_reported":1732802947,"current_range_meters":14000,"station_id":"ce4bgi92rcd13ifvqb90","pricing_plan_id":"cebpf4jnsgd1na2vs0mg"},{"bike_id":"8e2041ad-6bf5-4186-becc-025de1939b87","system_id":"levelo_inurba_marseille","lat":43.28466,"lon":5.35893,"is_reserved":false,"is_disabled":true,"rental_uris":{"android":"levelo://app?vid=8e2041ad-6bf5-4186-becc-025de1939b87","ios":"levelo://app?vid=8e2041ad-6bf5-4186-becc-025de1939b87"},"vehicle_type_id":"4","last_reported":1732802947,"current_range_meters":15200,"station_id":"ce4bhah2rcd13ifvqei0","pricing_plan_id":"cebpf4jnsgd1na2vs0mg"},{"bike_id":"74c48db0-037f-4a8b-b9c9-6dc3aeacf8c2","system_id":"levelo_inurba_marseille","lat":43.28712,"lon":5.37949,"is_reserved":false,"is_disabled":false,"rental_uris":{"android":"levelo://app?vid=74c48db0-037f-4a8b-b9c9-6dc3aeacf8c2","ios":"levelo://app?vid=74c48db0-037f-4a8b-b9c9-6dc3aeacf8c2"},"vehicle_type_id":"4","last_reported":1732802947,"current_range_meters":3600,"station_id":"ce4bh9p2rcd13ifvqec0","pricing_plan_id":"cebpf4jnsgd1na2vs0mg"},{"bike_id":"4a4e572b-773b-41e3-8337-0a0db6cb8950","system_id":"levelo_inurba_marseille","lat":43.2841,"lon":5.34994,"is_reserved":false,"is_disabled":false,"rental_uris":{"android":"levelo://app?vid=4a4e572b-773b-41e3-8337-0a0db6cb8950","ios":"levelo://app?vid=4a4e572b-773b-41e3-8337-0a0db6cb8950"},"vehicle_type_id":"4","last_reported":1732802947,"current_range_meters":18800,"station_id":"ce4bhbh2rcd13ifvqepg","pricing_plan_id":"cebpf4jnsgd1na2vs0mg"},{"bike_id":"4d4c884f-6933-49c0-8899-f9856d90f44d","system_id":"levelo_inurba_marseille","lat":43.29748,"lon":5.37971,"is_reserved":false,"is_disabled":true,"rental_uris":{"android":"levelo://app?vid=4d4c884f-6933-49c0-8899-f9856d90f44d","ios":"levelo://app?vid=4d4c884f-6933-49c0-8899-f9856d90f44d"},"vehicle_type_id":"4","last_reported":1732802947,"current_range_meters":0,"station_id":"","pricing_plan_id":"cebpf4jnsgd1na2vs0mg"},{"bike_id":"65d2562a-5a68-462e-941e-29c998025e60","system_id":"levelo_inurba_marseille","lat":43.24166,"lon":5.36395,"is_reserved":false,"is_disabled":false,"rental_uris":{"android":"levelo://app?vid=65d2562a-5a68-462e-941e-29c998025e60","ios":"levelo://app?vid=65d2562a-5a68-462e-941e-29c998025e60"},"vehicle_type_id":"4","last_reported":1732802947,"current_range_meters":8800,"station_id":"cpo36qri1sfpv3e86is0","pricing_plan_id":"cebpf4jnsgd1na2vs0mg"},{"bike_id":"4c046710-fde9-4d79-8234-631766a0aaf1","system_id":"levelo_inurba_marseille","lat":43.30543,"lon":5.36534,"is_reserved":false,"is_disabled":false,"rental_uris":{"android":"levelo://app?vid=4c046710-fde9-4d79-8234-631766a0aaf1","ios":"levelo://app?vid=4c046710-fde9-4d79-8234-631766a0aaf1"},"vehicle_type_id":"4","last_reported":1732802947,"current_range_meters":24800,"station_id":"ce4bgs12rcd13ifvqcag","pricing_plan_id":"cebpf4jnsgd1na2vs0mg"},{"bike_id":"4421f67c-42d4-47c9-b28a-45d4504b55d1","system_id":"levelo_inurba_marseille","lat":43.29804,"lon":5.40409,"is_reserved":false,"is_disabled":false,"rental_uris":{"android":"levelo://app?vid=4421f67c-42d4-47c9-b28a-45d4504b55d1","ios":"levelo://app?vid=4421f67c-42d4-47c9-b28a-45d4504b55d1"},"vehicle_type_id":"4","last_reported":1732802947,"current_range_meters":38400,"station_id":"ce4bh112rcd13ifvqd90","pricing_plan_id":"cebpf4jnsgd1na2vs0mg"},{"bike_id":"9009be37-c6b1-406b-b0a8-fbab355f715e","system_id":"levelo_inurba_marseille","lat":43.33762,"lon":5.37493,"is_reserved":false,"is_disabled":false,"rental_uris":{"android":"levelo://app?vid=9009be37-c6b1-406b-b0a8-fbab355f715e","ios":"levelo://app?vid=9009be37-c6b1-406b-b0a8-fbab355f715e"},"vehicle_type_id":"4","last_reported":1732802947,"current_range_meters":36800,"station_id":"","pricing_plan_id":"cebpf4jnsgd1na2vs0mg"},{"bike_id":"d1c7eae6-c2c8-478b-b39d-0bfa6e5e7744","system_id":"levelo_inurba_marseille","lat":43.31488,"lon":5.37309,"is_reserved":false,"is_disabled":false,"rental_uris":{"android":"levelo://app?vid=d1c7eae6-c2c8-478b-b39d-0bfa6e5e7744","ios":"levelo://app?vid=d1c7eae6-c2c8-478b-b39d-0bfa6e5e7744"},"vehicle_type_id":"4","last_reported":1732802947,"current_range_meters":11200,"station_id":"ce4bgt12rcd13ifvqcd0","pricing_plan_id":"cebpf4jnsgd1na2vs0mg"},{"bike_id":"f036ea2e-96a3-4f76-99f7-7f3c5e6948be","system_id":"levelo_inurba_marseille","lat":43.27182,"lon":5.40993,"is_reserved":false,"is_disabled":false,"rental_uris":{"android":"levelo://app?vid=f036ea2e-96a3-4f76-99f7-7f3c5e6948be","ios":"levelo://app?vid=f036ea2e-96a3-4f76-99f7-7f3c5e6948be"},"vehicle_type_id":"4","last_reported":1732802947,"current_range_meters":38800,"station_id":"ce4bhl12rcd13ifvqgf0","pricing_plan_id":"cebpf4jnsgd1na2vs0mg"},{"bike_id":"3bdfe206-3aa4-4e17-afe8-deeba67f6b05","system_id":"levelo_inurba_marseille","lat":43.30662,"lon":5.40098,"is_reserved":false,"is_disabled":false,"rental_uris":{"android":"levelo://app?vid=3bdfe206-3aa4-4e17-afe8-deeba67f6b05","ios":"levelo://app?vid=3bdfe206-3aa4-4e17-afe8-deeba67f6b05"},"vehicle_type_id":"4","last_reported":1732802947,"current_range_meters":24400,"station_id":"ce4bh112rcd13ifvqda0","pricing_plan_id":"cebpf4jnsgd1na2vs0mg"},{"bike_id":"dad09c6f-2611-4c34-9738-7e2a9fb47005","system_id":"levelo_inurba_marseille","lat":43.26056,"lon":5.39395,"is_reserved":false,"is_disabled":false,"rental_uris":{"android":"levelo://app?vid=dad09c6f-2611-4c34-9738-7e2a9fb47005","ios":"levelo://app?vid=dad09c6f-2611-4c34-9738-7e2a9fb47005"},"vehicle_type_id":"4","last_reported":1732802947,"current_range_meters":38000,"station_id":"ce4bhh92rcd13ifvqfj0","pricing_plan_id":"cebpf4jnsgd1na2vs0mg"},{"bike_id":"1350a66a-785f-4b42-9331-e3a51e58300b","system_id":"levelo_inurba_marseille","lat":43.29393,"lon":5.37853,"is_reserved":false,"is_disabled":false,"rental_uris":{"android":"levelo://app?vid=1350a66a-785f-4b42-9331-e3a51e58300b","ios":"levelo://app?vid=1350a66a-785f-4b42-9331-e3a51e58300b"},"vehicle_type_id":"4","last_reported":1732802947,"current_range_meters":24800,"station_id":"ce4bgjh2rcd13ifvqbf0","pricing_plan_id":"cebpf4jnsgd1na2vs0mg"},{"bike_id":"4f4d6e19-4295-4262-996c-2135bc0dd749","system_id":"levelo_inurba_marseille","lat":43.27614,"lon":5.36117,"is_reserved":false,"is_disabled":false,"rental_uris":{"android":"levelo://app?vid=4f4d6e19-4295-4262-996c-2135bc0dd749","ios":"levelo://app?vid=4f4d6e19-4295-4262-996c-2135bc0dd749"},"vehicle_type_id":"4","last_reported":1732802947,"current_range_meters":36800,"station_id":"ce4bgj92rcd13ifvqbe0","pricing_plan_id":"cebpf4jnsgd1na2vs0mg"},{"bike_id":"2d21300d-a391-4188-9f67-8146cad0e14a","system_id":"levelo_inurba_marseille","lat":43.27676,"lon":5.38876,"is_reserved":false,"is_disabled":false,"rental_uris":{"android":"levelo://app?vid=2d21300d-a391-4188-9f67-8146cad0e14a","ios":"levelo://app?vid=2d21300d-a391-4188-9f67-8146cad0e14a"},"vehicle_type_id":"4","last_reported":1732802947,"current_range_meters":24000,"station_id":"ce4bhi12rcd13ifvqfo0","pricing_plan_id":"cebpf4jnsgd1na2vs0mg"},{"bike_id":"028d05c3-3c57-4108-bf9f-d0287b1c8cb2","system_id":"levelo_inurba_marseille","lat":43.27815,"lon":5.39218,"is_reserved":false,"is_disabled":false,"rental_uris":{"android":"levelo://app?vid=028d05c3-3c57-4108-bf9f-d0287b1c8cb2","ios":"levelo://app?vid=028d05c3-3c57-4108-bf9f-d0287b1c8cb2"},"vehicle_type_id":"4","last_reported":1732802947,"current_range_meters":28800,"station_id":"ce4bhjp2rcd13ifvqga0","pricing_plan_id":"cebpf4jnsgd1na2vs0mg"},{"bike_id":"7550d06d-ddc9-4b0c-af25-0e5c3eb1cb82","system_id":"levelo_inurba_marseille","lat":43.30257,"lon":5.40065,"is_reserved":false,"is_disabled":false,"rental_uris":{"android":"levelo://app?vid=7550d06d-ddc9-4b0c-af25-0e5c3eb1cb82","ios":"levelo://app?vid=7550d06d-ddc9-4b0c-af25-0e5c3eb1cb82"},"vehicle_type_id":"4","last_reported":1732802947,"current_range_meters":20400,"station_id":"ce4bgvh2rcd13ifvqcs0","pricing_plan_id":"cebpf4jnsgd1na2vs0mg"},{"bike_id":"76eb0d7f-8f61-45a6-851c-63b8c13f29b2","system_id":"levelo_inurba_marseille","lat":43.30273,"lon":5.37758,"is_reserved":false,"is_disabled":false,"rental_uris":{"android":"levelo://app?vid=76eb0d7f-8f61-45a6-851c-63b8c13f29b2","ios":"levelo://app?vid=76eb0d7f-8f61-45a6-851c-63b8c13f29b2"},"vehicle_type_id":"4","last_reported":1732802947,"current_range_meters":26800,"station_id":"ce4bguh2rcd13ifvqcj0","pricing_plan_id":"cebpf4jnsgd1na2vs0mg"},{"bike_id":"1133126e-d171-4f0f-884e-79d9aa75d560","system_id":"levelo_inurba_marseille","lat":43.27679,"lon":5.38878,"is_reserved":false,"is_disabled":false,"rental_uris":{"android":"levelo://app?vid=1133126e-d171-4f0f-884e-79d9aa75d560","ios":"levelo://app?vid=1133126e-d171-4f0f-884e-79d9aa75d560"},"vehicle_type_id":"4","last_reported":1732802947,"current_range_meters":28000,"station_id":"ce4bhi12rcd13ifvqfo0","pricing_plan_id":"cebpf4jnsgd1na2vs0mg"},{"bike_id":"353e5fd3-d440-4a72-9754-1777d6b03b39","system_id":"levelo_inurba_marseille","lat":43.29028,"lon":5.37549,"is_reserved":false,"is_disabled":true,"rental_uris":{"android":"levelo://app?vid=353e5fd3-d440-4a72-9754-1777d6b03b39","ios":"levelo://app?vid=353e5fd3-d440-4a72-9754-1777d6b03b39"},"vehicle_type_id":"4","last_reported":1732802947,"current_range_meters":30000,"station_id":"ce4bh692rcd13ifvqe90","pricing_plan_id":"cebpf4jnsgd1na2vs0mg"},{"bike_id":"4b813d49-51d0-482b-905d-be1010dfba0a","system_id":"levelo_inurba_marseille","lat":43.27965,"lon":5.38755,"is_reserved":false,"is_disabled":false,"rental_uris":{"android":"levelo://app?vid=4b813d49-51d0-482b-905d-be1010dfba0a","ios":"levelo://app?vid=4b813d49-51d0-482b-905d-be1010dfba0a"},"vehicle_type_id":"4","last_reported":1732802947,"current_range_meters":3200,"station_id":"ce4bhg12rcd13ifvqf80","pricing_plan_id":"cebpf4jnsgd1na2vs0mg"},{"bike_id":"7c1b4caa-ad10-4248-afa4-847c1d45dcbd","system_id":"levelo_inurba_marseille","lat":43.25935,"lon":5.40912,"is_reserved":false,"is_disabled":false,"rental_uris":{"android":"levelo://app?vid=7c1b4caa-ad10-4248-afa4-847c1d45dcbd","ios":"levelo://app?vid=7c1b4caa-ad10-4248-afa4-847c1d45dcbd"},"vehicle_type_id":"4","last_reported":1732802947,"current_range_meters":24800,"station_id":"ce4bhm92rcd13ifvqglg","pricing_plan_id":"cebpf4jnsgd1na2vs0mg"},{"bike_id":"31649728-3fac-474c-be09-ea0cfdde70aa","system_id":"levelo_inurba_marseille","lat":43.30247,"lon":5.40076,"is_reserved":false,"is_disabled":false,"rental_uris":{"android":"levelo://app?vid=31649728-3fac-474c-be09-ea0cfdde70aa","ios":"levelo://app?vid=31649728-3fac-474c-be09-ea0cfdde70aa"},"vehicle_type_id":"4","last_reported":1732802947,"current_range_meters":38000,"station_id":"ce4bgvh2rcd13ifvqcs0","pricing_plan_id":"cebpf4jnsgd1na2vs0mg"},{"bike_id":"e8fa7be1-2407-41a7-b843-e7c70f1917ef","system_id":"levelo_inurba_marseille","lat":43.27612,"lon":5.36113,"is_reserved":false,"is_disabled":true,"rental_uris":{"android":"levelo://app?vid=e8fa7be1-2407-41a7-b843-e7c70f1917ef","ios":"levelo://app?vid=e8fa7be1-2407-41a7-b843-e7c70f1917ef"},"vehicle_type_id":"4","last_reported":1732802947,"current_range_meters":0,"station_id":"ce4bgj92rcd13ifvqbe0","pricing_plan_id":"cebpf4jnsgd1na2vs0mg"},{"bike_id":"95c39abd-631b-4674-8877-bb71fdbca347","system_id":"levelo_inurba_marseille","lat":43.29607,"lon":5.37706,"is_reserved":false,"is_disabled":true,"rental_uris":{"android":"levelo://app?vid=95c39abd-631b-4674-8877-bb71fdbca347","ios":"levelo://app?vid=95c39abd-631b-4674-8877-bb71fdbca347"},"vehicle_type_id":"4","last_reported":1732802947,"current_range_meters":0,"station_id":"ce4bgi92rcd13ifvqb90","pricing_plan_id":"cebpf4jnsgd1na2vs0mg"},{"bike_id":"35637c9f-d6c4-4d75-82b5-13284fd1c1f7","system_id":"levelo_inurba_marseille","lat":43.30481,"lon":5.36596,"is_reserved":false,"is_disabled":false,"rental_uris":{"android":"levelo://app?vid=35637c9f-d6c4-4d75-82b5-13284fd1c1f7","ios":"levelo://app?vid=35637c9f-d6c4-4d75-82b5-13284fd1c1f7"},"vehicle_type_id":"4","last_reported":1732802947,"current_range_meters":29600,"station_id":"","pricing_plan_id":"cebpf4jnsgd1na2vs0mg"},{"bike_id":"df1919fe-5865-46fa-9ab6-059b74a4fb31","system_id":"levelo_inurba_marseille","lat":43.23155,"lon":5.43707,"is_reserved":false,"is_disabled":false,"rental_uris":{"android":"levelo://app?vid=df1919fe-5865-46fa-9ab6-059b74a4fb31","ios":"levelo://app?vid=df1919fe-5865-46fa-9ab6-059b74a4fb31"},"vehicle_type_id":"4","last_reported":1732802947,"current_range_meters":27600,"station_id":"ce4bhmp2rcd13ifvqgog","pricing_plan_id":"cebpf4jnsgd1na2vs0mg"},{"bike_id":"1dee5398-ece1-4217-b5b9-984f22c2ff59","system_id":"levelo_inurba_marseille","lat":43.29248,"lon":5.38427,"is_reserved":false,"is_disabled":true,"rental_uris":{"android":"levelo://app?vid=1dee5398-ece1-4217-b5b9-984f22c2ff59","ios":"levelo://app?vid=1dee5398-ece1-4217-b5b9-984f22c2ff59"},"vehicle_type_id":"4","last_reported":1732802947,"current_range_meters":0,"station_id":"ce4bh692rcd13ifvqea0","pricing_plan_id":"cebpf4jnsgd1na2vs0mg"},{"bike_id":"55cb680e-8f29-4995-8108-e3761534c7b0","system_id":"levelo_inurba_marseille","lat":43.29009,"lon":5.35609,"is_reserved":false,"is_disabled":false,"rental_uris":{"android":"levelo://app?vid=55cb680e-8f29-4995-8108-e3761534c7b0","ios":"levelo://app?vid=55cb680e-8f29-4995-8108-e3761534c7b0"},"vehicle_type_id":"4","last_reported":1732802947,"current_range_meters":16800,"station_id":"ce4bhb92rcd13ifvqen0","pricing_plan_id":"cebpf4jnsgd1na2vs0mg"},{"bike_id":"96097ea3-0ab0-4e03-a3f1-7b1ec9141e48","system_id":"levelo_inurba_marseille","lat":43.280332,"lon":5.369411,"is_reserved":false,"is_disabled":false,"rental_uris":{"android":"levelo://app?vid=96097ea3-0ab0-4e03-a3f1-7b1ec9141e48","ios":"levelo://app?vid=96097ea3-0ab0-4e03-a3f1-7b1ec9141e48"},"vehicle_type_id":"4","last_reported":1732802947,"current_range_meters":10800,"station_id":"ce4bha12rcd13ifvqef0","pricing_plan_id":"cebpf4jnsgd1na2vs0mg"},{"bike_id":"5d182a8f-66ec-404a-94bd-5ad5a5f898f9","system_id":"levelo_inurba_marseille","lat":43.29554,"lon":5.4229,"is_reserved":false,"is_disabled":false,"rental_uris":{"android":"levelo://app?vid=5d182a8f-66ec-404a-94bd-5ad5a5f898f9","ios":"levelo://app?vid=5d182a8f-66ec-404a-94bd-5ad5a5f898f9"},"vehicle_type_id":"4","last_reported":1732802947,"current_range_meters":25200,"station_id":"ce4bhph2rcd13ifvqhdg","pricing_plan_id":"cebpf4jnsgd1na2vs0mg"},{"bike_id":"0d6ad86a-d679-4803-96ca-14041613c9a8","system_id":"levelo_inurba_marseille","lat":43.29842,"lon":5.36262,"is_reserved":false,"is_disabled":false,"rental_uris":{"android":"levelo://app?vid=0d6ad86a-d679-4803-96ca-14041613c9a8","ios":"levelo://app?vid=0d6ad86a-d679-4803-96ca-14041613c9a8"},"vehicle_type_id":"4","last_reported":1732802947,"current_range_meters":28400,"station_id":"ce4bgpp2rcd13ifvqc3g","pricing_plan_id":"cebpf4jnsgd1na2vs0mg"},{"bike_id":"51398210-3c12-4b6a-8447-e8168ecd05b9","system_id":"levelo_inurba_marseille","lat":43.27978,"lon":5.38746,"is_reserved":false,"is_disabled":true,"rental_uris":{"android":"levelo://app?vid=51398210-3c12-4b6a-8447-e8168ecd05b9","ios":"levelo://app?vid=51398210-3c12-4b6a-8447-e8168ecd05b9"},"vehicle_type_id":"4","last_reported":1732802947,"current_range_meters":800,"station_id":"ce4bhg12rcd13ifvqf80","pricing_plan_id":"cebpf4jnsgd1na2vs0mg"},{"bike_id":"7c44795e-e068-4cc7-80a4-e513abf0f273","system_id":"levelo_inurba_marseille","lat":43.259067,"lon":5.408679,"is_reserved":false,"is_disabled":true,"rental_uris":{"android":"levelo://app?vid=7c44795e-e068-4cc7-80a4-e513abf0f273","ios":"levelo://app?vid=7c44795e-e068-4cc7-80a4-e513abf0f273"},"vehicle_type_id":"4","last_reported":1732802947,"current_range_meters":0,"station_id":"ce4bhm92rcd13ifvqglg","pricing_plan_id":"cebpf4jnsgd1na2vs0mg"},{"bike_id":"39b04c21-6a6a-40a7-a489-741c2b67c9bd","system_id":"levelo_inurba_marseille","lat":43.33723,"lon":5.391909,"is_reserved":false,"is_disabled":false,"rental_uris":{"android":"levelo://app?vid=39b04c21-6a6a-40a7-a489-741c2b67c9bd","ios":"levelo://app?vid=39b04c21-6a6a-40a7-a489-741c2b67c9bd"},"vehicle_type_id":"4","last_reported":1732802947,"current_range_meters":38800,"station_id":"ce4bhr92rcd13ifvqhsg","pricing_plan_id":"cebpf4jnsgd1na2vs0mg"},{"bike_id":"25795919-5a1d-48cf-abfa-823cb9a8b4d7","system_id":"levelo_inurba_marseille","lat":43.28484,"lon":5.38411,"is_reserved":false,"is_disabled":false,"rental_uris":{"android":"levelo://app?vid=25795919-5a1d-48cf-abfa-823cb9a8b4d7","ios":"levelo://app?vid=25795919-5a1d-48cf-abfa-823cb9a8b4d7"},"vehicle_type_id":"4","last_reported":1732802947,"current_range_meters":38400,"station_id":"ce4bh512rcd13ifvqe3g","pricing_plan_id":"cebpf4jnsgd1na2vs0mg"},{"bike_id":"a0294619-58a5-4c73-b522-6ad5747668ba","system_id":"levelo_inurba_marseille","lat":43.28032,"lon":5.36956,"is_reserved":false,"is_disabled":false,"rental_uris":{"android":"levelo://app?vid=a0294619-58a5-4c73-b522-6ad5747668ba","ios":"levelo://app?vid=a0294619-58a5-4c73-b522-6ad5747668ba"},"vehicle_type_id":"4","last_reported":1732802947,"current_range_meters":25200,"station_id":"ce4bha12rcd13ifvqef0","pricing_plan_id":"cebpf4jnsgd1na2vs0mg"},{"bike_id":"1e658f10-740b-4e6f-9790-423887afe68d","system_id":"levelo_inurba_marseille","lat":43.31173,"lon":5.38723,"is_reserved":false,"is_disabled":false,"rental_uris":{"android":"levelo://app?vid=1e658f10-740b-4e6f-9790-423887afe68d","ios":"levelo://app?vid=1e658f10-740b-4e6f-9790-423887afe68d"},"vehicle_type_id":"4","last_reported":1732802947,"current_range_meters":26800,"station_id":"ce4bgv12rcd13ifvqcp0","pricing_plan_id":"cebpf4jnsgd1na2vs0mg"},{"bike_id":"53acd5a8-ce0f-41f0-96bc-8786e46cf6d2","system_id":"levelo_inurba_marseille","lat":43.27985,"lon":5.41661,"is_reserved":false,"is_disabled":true,"rental_uris":{"android":"levelo://app?vid=53acd5a8-ce0f-41f0-96bc-8786e46cf6d2","ios":"levelo://app?vid=53acd5a8-ce0f-41f0-96bc-8786e46cf6d2"},"vehicle_type_id":"4","last_reported":1732802947,"current_range_meters":400,"station_id":"ce4bho12rcd13ifvqh1g","pricing_plan_id":"cebpf4jnsgd1na2vs0mg"},{"bike_id":"16259231-83f4-4c0b-b4de-0dcb1d03ab7a","system_id":"levelo_inurba_marseille","lat":43.28033,"lon":5.36946,"is_reserved":false,"is_disabled":false,"rental_uris":{"android":"levelo://app?vid=16259231-83f4-4c0b-b4de-0dcb1d03ab7a","ios":"levelo://app?vid=16259231-83f4-4c0b-b4de-0dcb1d03ab7a"},"vehicle_type_id":"4","last_reported":1732802947,"current_range_meters":28000,"station_id":"ce4bha12rcd13ifvqef0","pricing_plan_id":"cebpf4jnsgd1na2vs0mg"},{"bike_id":"45a67577-ce08-436f-b7b4-96ed39f0a993","system_id":"levelo_inurba_marseille","lat":43.26946,"lon":5.40251,"is_reserved":false,"is_disabled":false,"rental_uris":{"android":"levelo://app?vid=45a67577-ce08-436f-b7b4-96ed39f0a993","ios":"levelo://app?vid=45a67577-ce08-436f-b7b4-96ed39f0a993"},"vehicle_type_id":"4","last_reported":1732802947,"current_range_meters":27200,"station_id":"cjm6bp8fraef2m0cb0m0","pricing_plan_id":"cebpf4jnsgd1na2vs0mg"},{"bike_id":"a8d1562e-6f63-4863-a80b-c6aaf74a6a1a","system_id":"levelo_inurba_marseille","lat":43.30893,"lon":5.37199,"is_reserved":false,"is_disabled":false,"rental_uris":{"android":"levelo://app?vid=a8d1562e-6f63-4863-a80b-c6aaf74a6a1a","ios":"levelo://app?vid=a8d1562e-6f63-4863-a80b-c6aaf74a6a1a"},"vehicle_type_id":"4","last_reported":1732802947,"current_range_meters":24800,"station_id":"ce4bguh2rcd13ifvqckg","pricing_plan_id":"cebpf4jnsgd1na2vs0mg"},{"bike_id":"220ce8bf-6055-439a-932f-70112f24c52b","system_id":"levelo_inurba_marseille","lat":43.32111,"lon":5.36768,"is_reserved":false,"is_disabled":false,"rental_uris":{"android":"levelo://app?vid=220ce8bf-6055-439a-932f-70112f24c52b","ios":"levelo://app?vid=220ce8bf-6055-439a-932f-70112f24c52b"},"vehicle_type_id":"4","last_reported":1732802947,"current_range_meters":10000,"station_id":"ce4bhrh2rcd13ifvqhug","pricing_plan_id":"cebpf4jnsgd1na2vs0mg"},{"bike_id":"7457aee4-d1ff-4eb5-b122-9e4117fd82a6","system_id":"levelo_inurba_marseille","lat":43.25717,"lon":5.41111,"is_reserved":false,"is_disabled":false,"rental_uris":{"android":"levelo://app?vid=7457aee4-d1ff-4eb5-b122-9e4117fd82a6","ios":"levelo://app?vid=7457aee4-d1ff-4eb5-b122-9e4117fd82a6"},"vehicle_type_id":"4","last_reported":1732802947,"current_range_meters":37600,"station_id":"ce4bhkp2rcd13ifvqgd0","pricing_plan_id":"cebpf4jnsgd1na2vs0mg"},{"bike_id":"4c87ffee-c7f9-43b9-adab-66fa75dbd0d1","system_id":"levelo_inurba_marseille","lat":43.32539,"lon":5.41445,"is_reserved":false,"is_disabled":false,"rental_uris":{"android":"levelo://app?vid=4c87ffee-c7f9-43b9-adab-66fa75dbd0d1","ios":"levelo://app?vid=4c87ffee-c7f9-43b9-adab-66fa75dbd0d1"},"vehicle_type_id":"4","last_reported":1732802947,"current_range_meters":8800,"station_id":"ce4bhq12rcd13ifvqhhg","pricing_plan_id":"cebpf4jnsgd1na2vs0mg"},{"bike_id":"9e5b29cf-23df-4fd9-b7e3-e6a867aa2aef","system_id":"levelo_inurba_marseille","lat":43.29963,"lon":5.38491,"is_reserved":false,"is_disabled":false,"rental_uris":{"android":"levelo://app?vid=9e5b29cf-23df-4fd9-b7e3-e6a867aa2aef","ios":"levelo://app?vid=9e5b29cf-23df-4fd9-b7e3-e6a867aa2aef"},"vehicle_type_id":"4","last_reported":1732802947,"current_range_meters":16000,"station_id":"ce4bgj92rcd13ifvqbd0","pricing_plan_id":"cebpf4jnsgd1na2vs0mg"},{"bike_id":"fa3cc2c8-e552-4d78-8b53-b0029dd3141b","system_id":"levelo_inurba_marseille","lat":43.27205,"lon":5.39172,"is_reserved":false,"is_disabled":true,"rental_uris":{"android":"levelo://app?vid=fa3cc2c8-e552-4d78-8b53-b0029dd3141b","ios":"levelo://app?vid=fa3cc2c8-e552-4d78-8b53-b0029dd3141b"},"vehicle_type_id":"4","last_reported":1732802947,"current_range_meters":0,"station_id":"ce4bhhp2rcd13ifvqfm0","pricing_plan_id":"cebpf4jnsgd1na2vs0mg"},{"bike_id":"9ba17297-6532-486f-9ea1-b03ac5b99084","system_id":"levelo_inurba_marseille","lat":43.31821,"lon":5.38923,"is_reserved":false,"is_disabled":false,"rental_uris":{"android":"levelo://app?vid=9ba17297-6532-486f-9ea1-b03ac5b99084","ios":"levelo://app?vid=9ba17297-6532-486f-9ea1-b03ac5b99084"},"vehicle_type_id":"4","last_reported":1732802947,"current_range_meters":39200,"station_id":"","pricing_plan_id":"cebpf4jnsgd1na2vs0mg"},{"bike_id":"d3ecdf8d-9da2-4bd4-bbfd-52c2babb3a8a","system_id":"levelo_inurba_marseille","lat":43.28269,"lon":5.35074,"is_reserved":false,"is_disabled":false,"rental_uris":{"android":"levelo://app?vid=d3ecdf8d-9da2-4bd4-bbfd-52c2babb3a8a","ios":"levelo://app?vid=d3ecdf8d-9da2-4bd4-bbfd-52c2babb3a8a"},"vehicle_type_id":"4","last_reported":1732802947,"current_range_meters":9600,"station_id":"ce4bhbp2rcd13ifvqerg","pricing_plan_id":"cebpf4jnsgd1na2vs0mg"},{"bike_id":"fab79947-e52f-48a0-9e1b-09c103b132db","system_id":"levelo_inurba_marseille","lat":43.25502,"lon":5.37651,"is_reserved":false,"is_disabled":false,"rental_uris":{"android":"levelo://app?vid=fab79947-e52f-48a0-9e1b-09c103b132db","ios":"levelo://app?vid=fab79947-e52f-48a0-9e1b-09c103b132db"},"vehicle_type_id":"4","last_reported":1732802947,"current_range_meters":29600,"station_id":"ce4bhh12rcd13ifvqff0","pricing_plan_id":"cebpf4jnsgd1na2vs0mg"},{"bike_id":"1cd78e3c-eca2-430e-a00b-3450b52eb373","system_id":"levelo_inurba_marseille","lat":43.22931,"lon":5.35377,"is_reserved":false,"is_disabled":false,"rental_uris":{"android":"levelo://app?vid=1cd78e3c-eca2-430e-a00b-3450b52eb373","ios":"levelo://app?vid=1cd78e3c-eca2-430e-a00b-3450b52eb373"},"vehicle_type_id":"4","last_reported":1732802947,"current_range_meters":32800,"station_id":"cpo3532slgdg3j2ikp40","pricing_plan_id":"cebpf4jnsgd1na2vs0mg"},{"bike_id":"97b5cb36-b472-4883-96c2-5ac6765d6623","system_id":"levelo_inurba_marseille","lat":43.28339,"lon":5.38098,"is_reserved":false,"is_disabled":false,"rental_uris":{"android":"levelo://app?vid=97b5cb36-b472-4883-96c2-5ac6765d6623","ios":"levelo://app?vid=97b5cb36-b472-4883-96c2-5ac6765d6623"},"vehicle_type_id":"4","last_reported":1732802947,"current_range_meters":38800,"station_id":"ce4bh412rcd13ifvqdr0","pricing_plan_id":"cebpf4jnsgd1na2vs0mg"},{"bike_id":"8781107a-bca3-4fb5-8e13-c1a0e84595bc","system_id":"levelo_inurba_marseille","lat":43.27071,"lon":5.42277,"is_reserved":false,"is_disabled":false,"rental_uris":{"android":"levelo://app?vid=8781107a-bca3-4fb5-8e13-c1a0e84595bc","ios":"levelo://app?vid=8781107a-bca3-4fb5-8e13-c1a0e84595bc"},"vehicle_type_id":"4","last_reported":1732802947,"current_range_meters":8000,"station_id":"ce4bhk92rcd13ifvqgb0","pricing_plan_id":"cebpf4jnsgd1na2vs0mg"},{"bike_id":"e6060ef1-391a-480c-81fb-1d41a4490686","system_id":"levelo_inurba_marseille","lat":43.3091,"lon":5.3685,"is_reserved":false,"is_disabled":false,"rental_uris":{"android":"levelo://app?vid=e6060ef1-391a-480c-81fb-1d41a4490686","ios":"levelo://app?vid=e6060ef1-391a-480c-81fb-1d41a4490686"},"vehicle_type_id":"4","last_reported":1732802947,"current_range_meters":17600,"station_id":"ce4bgn92rcd13ifvqbvg","pricing_plan_id":"cebpf4jnsgd1na2vs0mg"},{"bike_id":"accb9594-a586-48ae-bd2b-23fe917ed97c","system_id":"levelo_inurba_marseille","lat":43.27491,"lon":5.42451,"is_reserved":false,"is_disabled":false,"rental_uris":{"android":"levelo://app?vid=accb9594-a586-48ae-bd2b-23fe917ed97c","ios":"levelo://app?vid=accb9594-a586-48ae-bd2b-23fe917ed97c"},"vehicle_type_id":"4","last_reported":1732802947,"current_range_meters":24800,"station_id":"ce4bhn92rcd13ifvqgrg","pricing_plan_id":"cebpf4jnsgd1na2vs0mg"},{"bike_id":"62ad8267-2b23-4792-97e1-3d9fbf83ec1c","system_id":"levelo_inurba_marseille","lat":43.268,"lon":5.40265,"is_reserved":false,"is_disabled":false,"rental_uris":{"android":"levelo://app?vid=62ad8267-2b23-4792-97e1-3d9fbf83ec1c","ios":"levelo://app?vid=62ad8267-2b23-4792-97e1-3d9fbf83ec1c"},"vehicle_type_id":"4","last_reported":1732802947,"current_range_meters":32400,"station_id":"ce501612rcd8frsf0b60","pricing_plan_id":"cebpf4jnsgd1na2vs0mg"},{"bike_id":"047ec88b-982d-40d3-9afb-7b3ed288c722","system_id":"levelo_inurba_marseille","lat":43.30438,"lon":5.37926,"is_reserved":false,"is_disabled":false,"rental_uris":{"android":"levelo://app?vid=047ec88b-982d-40d3-9afb-7b3ed288c722","ios":"levelo://app?vid=047ec88b-982d-40d3-9afb-7b3ed288c722"},"vehicle_type_id":"4","last_reported":1732802947,"current_range_meters":38800,"station_id":"ce4bgup2rcd13ifvqcn0","pricing_plan_id":"cebpf4jnsgd1na2vs0mg"},{"bike_id":"3dd27f14-51ec-4d1e-8d64-1ea7632555f3","system_id":"levelo_inurba_marseille","lat":43.321104,"lon":5.367722,"is_reserved":false,"is_disabled":false,"rental_uris":{"android":"levelo://app?vid=3dd27f14-51ec-4d1e-8d64-1ea7632555f3","ios":"levelo://app?vid=3dd27f14-51ec-4d1e-8d64-1ea7632555f3"},"vehicle_type_id":"4","last_reported":1732802947,"current_range_meters":36000,"station_id":"ce4bhrh2rcd13ifvqhug","pricing_plan_id":"cebpf4jnsgd1na2vs0mg"},{"bike_id":"ef7faf07-a670-4e15-b564-bded5c7ce834","system_id":"levelo_inurba_marseille","lat":43.32362,"lon":5.36769,"is_reserved":false,"is_disabled":false,"rental_uris":{"android":"levelo://app?vid=ef7faf07-a670-4e15-b564-bded5c7ce834","ios":"levelo://app?vid=ef7faf07-a670-4e15-b564-bded5c7ce834"},"vehicle_type_id":"4","last_reported":1732802947,"current_range_meters":36800,"station_id":"","pricing_plan_id":"cebpf4jnsgd1na2vs0mg"},{"bike_id":"c0a35a0c-3991-4a01-a6ce-bf5982d21667","system_id":"levelo_inurba_marseille","lat":43.29513,"lon":5.37519,"is_reserved":false,"is_disabled":false,"rental_uris":{"android":"levelo://app?vid=c0a35a0c-3991-4a01-a6ce-bf5982d21667","ios":"levelo://app?vid=c0a35a0c-3991-4a01-a6ce-bf5982d21667"},"vehicle_type_id":"4","last_reported":1732802947,"current_range_meters":30000,"station_id":"ce4bgkp2rcd13ifvqbmg","pricing_plan_id":"cebpf4jnsgd1na2vs0mg"},{"bike_id":"f39d434e-deb5-430e-9f98-ec456f5ec2e0","system_id":"levelo_inurba_marseille","lat":43.30249,"lon":5.40071,"is_reserved":false,"is_disabled":false,"rental_uris":{"android":"levelo://app?vid=f39d434e-deb5-430e-9f98-ec456f5ec2e0","ios":"levelo://app?vid=f39d434e-deb5-430e-9f98-ec456f5ec2e0"},"vehicle_type_id":"4","last_reported":1732802947,"current_range_meters":38400,"station_id":"ce4bgvh2rcd13ifvqcs0","pricing_plan_id":"cebpf4jnsgd1na2vs0mg"},{"bike_id":"7acf64e6-102c-4b24-bfca-4cd2f2ab9f83","system_id":"levelo_inurba_marseille","lat":43.3054,"lon":5.36534,"is_reserved":false,"is_disabled":false,"rental_uris":{"android":"levelo://app?vid=7acf64e6-102c-4b24-bfca-4cd2f2ab9f83","ios":"levelo://app?vid=7acf64e6-102c-4b24-bfca-4cd2f2ab9f83"},"vehicle_type_id":"4","last_reported":1732802947,"current_range_meters":38000,"station_id":"","pricing_plan_id":"cebpf4jnsgd1na2vs0mg"},{"bike_id":"2e95a691-d7d8-426b-8dba-47b6b56c6a41","system_id":"levelo_inurba_marseille","lat":43.28151,"lon":5.42641,"is_reserved":false,"is_disabled":true,"rental_uris":{"android":"levelo://app?vid=2e95a691-d7d8-426b-8dba-47b6b56c6a41","ios":"levelo://app?vid=2e95a691-d7d8-426b-8dba-47b6b56c6a41"},"vehicle_type_id":"4","last_reported":1732802947,"current_range_meters":1600,"station_id":"ce4bhnh2rcd13ifvqgug","pricing_plan_id":"cebpf4jnsgd1na2vs0mg"},{"bike_id":"6d6a57da-2e4f-4084-b73d-4f239edf00fa","system_id":"levelo_inurba_marseille","lat":43.27811,"lon":5.40719,"is_reserved":false,"is_disabled":false,"rental_uris":{"android":"levelo://app?vid=6d6a57da-2e4f-4084-b73d-4f239edf00fa","ios":"levelo://app?vid=6d6a57da-2e4f-4084-b73d-4f239edf00fa"},"vehicle_type_id":"4","last_reported":1732802947,"current_range_meters":11200,"station_id":"ce4bhnh2rcd13ifvqgtg","pricing_plan_id":"cebpf4jnsgd1na2vs0mg"},{"bike_id":"c23f65e8-d280-4fa3-936c-a7f6f6c47beb","system_id":"levelo_inurba_marseille","lat":43.28618,"lon":5.35111,"is_reserved":false,"is_disabled":false,"rental_uris":{"android":"levelo://app?vid=c23f65e8-d280-4fa3-936c-a7f6f6c47beb","ios":"levelo://app?vid=c23f65e8-d280-4fa3-936c-a7f6f6c47beb"},"vehicle_type_id":"4","last_reported":1732802947,"current_range_meters":17200,"station_id":"ce4bhch2rcd13ifvqeug","pricing_plan_id":"cebpf4jnsgd1na2vs0mg"},{"bike_id":"b7ddc513-b2bd-4262-9823-a14567544cc8","system_id":"levelo_inurba_marseille","lat":43.30553,"lon":5.36563,"is_reserved":false,"is_disabled":false,"rental_uris":{"android":"levelo://app?vid=b7ddc513-b2bd-4262-9823-a14567544cc8","ios":"levelo://app?vid=b7ddc513-b2bd-4262-9823-a14567544cc8"},"vehicle_type_id":"4","last_reported":1732802947,"current_range_meters":25200,"station_id":"ce4bgs12rcd13ifvqcag","pricing_plan_id":"cebpf4jnsgd1na2vs0mg"},{"bike_id":"40c779c8-84f3-484a-a232-148bedfde61c","system_id":"levelo_inurba_marseille","lat":43.26951,"lon":5.38635,"is_reserved":false,"is_disabled":false,"rental_uris":{"android":"levelo://app?vid=40c779c8-84f3-484a-a232-148bedfde61c","ios":"levelo://app?vid=40c779c8-84f3-484a-a232-148bedfde61c"},"vehicle_type_id":"4","last_reported":1732802947,"current_range_meters":12400,"station_id":"ce4bhh92rcd13ifvqfh0","pricing_plan_id":"cebpf4jnsgd1na2vs0mg"},{"bike_id":"92b17af1-ca2b-4f94-8c5d-f1ac00f60917","system_id":"levelo_inurba_marseille","lat":43.23152,"lon":5.4372,"is_reserved":false,"is_disabled":false,"rental_uris":{"android":"levelo://app?vid=92b17af1-ca2b-4f94-8c5d-f1ac00f60917","ios":"levelo://app?vid=92b17af1-ca2b-4f94-8c5d-f1ac00f60917"},"vehicle_type_id":"4","last_reported":1732802947,"current_range_meters":11200,"station_id":"ce4bhmp2rcd13ifvqgog","pricing_plan_id":"cebpf4jnsgd1na2vs0mg"},{"bike_id":"e51b2acb-d883-446b-9ce9-347608453ece","system_id":"levelo_inurba_marseille","lat":43.22928,"lon":5.35375,"is_reserved":false,"is_disabled":false,"rental_uris":{"android":"levelo://app?vid=e51b2acb-d883-446b-9ce9-347608453ece","ios":"levelo://app?vid=e51b2acb-d883-446b-9ce9-347608453ece"},"vehicle_type_id":"4","last_reported":1732802947,"current_range_meters":31200,"station_id":"cpo3532slgdg3j2ikp40","pricing_plan_id":"cebpf4jnsgd1na2vs0mg"},{"bike_id":"43736712-c09e-441f-a9ac-5e3ae1f23c05","system_id":"levelo_inurba_marseille","lat":43.30942,"lon":5.36835,"is_reserved":false,"is_disabled":false,"rental_uris":{"android":"levelo://app?vid=43736712-c09e-441f-a9ac-5e3ae1f23c05","ios":"levelo://app?vid=43736712-c09e-441f-a9ac-5e3ae1f23c05"},"vehicle_type_id":"4","last_reported":1732802947,"current_range_meters":39200,"station_id":"ce4bgn92rcd13ifvqbvg","pricing_plan_id":"cebpf4jnsgd1na2vs0mg"},{"bike_id":"e2deb1f3-8e75-4ad7-aac7-55f9a31ae3f8","system_id":"levelo_inurba_marseille","lat":43.30423,"lon":5.41272,"is_reserved":false,"is_disabled":true,"rental_uris":{"android":"levelo://app?vid=e2deb1f3-8e75-4ad7-aac7-55f9a31ae3f8","ios":"levelo://app?vid=e2deb1f3-8e75-4ad7-aac7-55f9a31ae3f8"},"vehicle_type_id":"4","last_reported":1732802947,"current_range_meters":0,"station_id":"ce4bhop2rcd13ifvqh8g","pricing_plan_id":"cebpf4jnsgd1na2vs0mg"},{"bike_id":"36c2e099-818d-4574-9908-042aa295646a","system_id":"levelo_inurba_marseille","lat":43.25941,"lon":5.409,"is_reserved":false,"is_disabled":false,"rental_uris":{"android":"levelo://app?vid=36c2e099-818d-4574-9908-042aa295646a","ios":"levelo://app?vid=36c2e099-818d-4574-9908-042aa295646a"},"vehicle_type_id":"4","last_reported":1732802947,"current_range_meters":38800,"station_id":"ce4bhm92rcd13ifvqglg","pricing_plan_id":"cebpf4jnsgd1na2vs0mg"},{"bike_id":"44692518-f307-4d34-bde3-20456f8e1767","system_id":"levelo_inurba_marseille","lat":43.27419,"lon":5.39006,"is_reserved":false,"is_disabled":false,"rental_uris":{"android":"levelo://app?vid=44692518-f307-4d34-bde3-20456f8e1767","ios":"levelo://app?vid=44692518-f307-4d34-bde3-20456f8e1767"},"vehicle_type_id":"4","last_reported":1732802947,"current_range_meters":28800,"station_id":"","pricing_plan_id":"cebpf4jnsgd1na2vs0mg"},{"bike_id":"a77e1a4d-a3ba-4e04-b327-364509e2acc8","system_id":"levelo_inurba_marseille","lat":43.28416,"lon":5.34971,"is_reserved":false,"is_disabled":false,"rental_uris":{"android":"levelo://app?vid=a77e1a4d-a3ba-4e04-b327-364509e2acc8","ios":"levelo://app?vid=a77e1a4d-a3ba-4e04-b327-364509e2acc8"},"vehicle_type_id":"4","last_reported":1732802947,"current_range_meters":24800,"station_id":"ce4bhbh2rcd13ifvqepg","pricing_plan_id":"cebpf4jnsgd1na2vs0mg"},{"bike_id":"3f5279ab-43c7-4696-8f2e-15c936bb4565","system_id":"levelo_inurba_marseille","lat":43.29554,"lon":5.42283,"is_reserved":false,"is_disabled":false,"rental_uris":{"android":"levelo://app?vid=3f5279ab-43c7-4696-8f2e-15c936bb4565","ios":"levelo://app?vid=3f5279ab-43c7-4696-8f2e-15c936bb4565"},"vehicle_type_id":"4","last_reported":1732802947,"current_range_meters":23200,"station_id":"ce4bhph2rcd13ifvqhdg","pricing_plan_id":"cebpf4jnsgd1na2vs0mg"},{"bike_id":"f0356044-b2ed-4542-bf93-f9dd43db6a35","system_id":"levelo_inurba_marseille","lat":43.29231,"lon":5.36067,"is_reserved":false,"is_disabled":false,"rental_uris":{"android":"levelo://app?vid=f0356044-b2ed-4542-bf93-f9dd43db6a35","ios":"levelo://app?vid=f0356044-b2ed-4542-bf93-f9dd43db6a35"},"vehicle_type_id":"4","last_reported":1732802947,"current_range_meters":29600,"station_id":"ce4bhbh2rcd13ifvqeqg","pricing_plan_id":"cebpf4jnsgd1na2vs0mg"},{"bike_id":"18198d86-10a7-4474-b94a-37766a80d641","system_id":"levelo_inurba_marseille","lat":43.26062,"lon":5.39397,"is_reserved":false,"is_disabled":true,"rental_uris":{"android":"levelo://app?vid=18198d86-10a7-4474-b94a-37766a80d641","ios":"levelo://app?vid=18198d86-10a7-4474-b94a-37766a80d641"},"vehicle_type_id":"4","last_reported":1732802947,"current_range_meters":1200,"station_id":"ce4bhh92rcd13ifvqfj0","pricing_plan_id":"cebpf4jnsgd1na2vs0mg"},{"bike_id":"0e780bcf-e70e-4410-8fac-4acbba7e83be","system_id":"levelo_inurba_marseille","lat":43.27658,"lon":5.38912,"is_reserved":false,"is_disabled":false,"rental_uris":{"android":"levelo://app?vid=0e780bcf-e70e-4410-8fac-4acbba7e83be","ios":"levelo://app?vid=0e780bcf-e70e-4410-8fac-4acbba7e83be"},"vehicle_type_id":"4","last_reported":1732802947,"current_range_meters":38800,"station_id":"ce4bhi12rcd13ifvqfo0","pricing_plan_id":"cebpf4jnsgd1na2vs0mg"},{"bike_id":"c2fa67ab-c54a-4f53-9403-06dbb317af48","system_id":"levelo_inurba_marseille","lat":43.25498,"lon":5.37651,"is_reserved":false,"is_disabled":false,"rental_uris":{"android":"levelo://app?vid=c2fa67ab-c54a-4f53-9403-06dbb317af48","ios":"levelo://app?vid=c2fa67ab-c54a-4f53-9403-06dbb317af48"},"vehicle_type_id":"4","last_reported":1732802947,"current_range_meters":18000,"station_id":"ce4bhh12rcd13ifvqff0","pricing_plan_id":"cebpf4jnsgd1na2vs0mg"},{"bike_id":"1f3fce59-8a74-44f2-b989-7ad8feb15f1a","system_id":"levelo_inurba_marseille","lat":43.25497,"lon":5.37652,"is_reserved":false,"is_disabled":false,"rental_uris":{"android":"levelo://app?vid=1f3fce59-8a74-44f2-b989-7ad8feb15f1a","ios":"levelo://app?vid=1f3fce59-8a74-44f2-b989-7ad8feb15f1a"},"vehicle_type_id":"4","last_reported":1732802947,"current_range_meters":28000,"station_id":"ce4bhh12rcd13ifvqff0","pricing_plan_id":"cebpf4jnsgd1na2vs0mg"},{"bike_id":"464dd3db-600f-45e6-8f7a-d494c55c3e14","system_id":"levelo_inurba_marseille","lat":43.25105,"lon":5.40323,"is_reserved":false,"is_disabled":true,"rental_uris":{"android":"levelo://app?vid=464dd3db-600f-45e6-8f7a-d494c55c3e14","ios":"levelo://app?vid=464dd3db-600f-45e6-8f7a-d494c55c3e14"},"vehicle_type_id":"4","last_reported":1732802947,"current_range_meters":1200,"station_id":"ce4bhlh2rcd13ifvqgig","pricing_plan_id":"cebpf4jnsgd1na2vs0mg"},{"bike_id":"cf6c749e-d62e-4c51-8903-36dfcc916611","system_id":"levelo_inurba_marseille","lat":43.30155,"lon":5.38083,"is_reserved":false,"is_disabled":false,"rental_uris":{"android":"levelo://app?vid=cf6c749e-d62e-4c51-8903-36dfcc916611","ios":"levelo://app?vid=cf6c749e-d62e-4c51-8903-36dfcc916611"},"vehicle_type_id":"4","last_reported":1732802947,"current_range_meters":28000,"station_id":"ce4bgjp2rcd13ifvqbh0","pricing_plan_id":"cebpf4jnsgd1na2vs0mg"},{"bike_id":"a11c87cd-c5ed-4a29-ba8a-78abe7a5d984","system_id":"levelo_inurba_marseille","lat":43.27827,"lon":5.39201,"is_reserved":false,"is_disabled":true,"rental_uris":{"android":"levelo://app?vid=a11c87cd-c5ed-4a29-ba8a-78abe7a5d984","ios":"levelo://app?vid=a11c87cd-c5ed-4a29-ba8a-78abe7a5d984"},"vehicle_type_id":"4","last_reported":1732802947,"current_range_meters":32000,"station_id":"ce4bhjp2rcd13ifvqga0","pricing_plan_id":"cebpf4jnsgd1na2vs0mg"},{"bike_id":"7fdaf613-7626-4f42-8466-217890550c1e","system_id":"levelo_inurba_marseille","lat":43.23202,"lon":5.39955,"is_reserved":false,"is_disabled":false,"rental_uris":{"android":"levelo://app?vid=7fdaf613-7626-4f42-8466-217890550c1e","ios":"levelo://app?vid=7fdaf613-7626-4f42-8466-217890550c1e"},"vehicle_type_id":"4","last_reported":1732802947,"current_range_meters":24800,"station_id":"ce4bhn12rcd13ifvqgqg","pricing_plan_id":"cebpf4jnsgd1na2vs0mg"},{"bike_id":"f54ef5d0-353a-4695-b0e1-09e4d4c59cf6","system_id":"levelo_inurba_marseille","lat":43.28033,"lon":5.36953,"is_reserved":false,"is_disabled":false,"rental_uris":{"android":"levelo://app?vid=f54ef5d0-353a-4695-b0e1-09e4d4c59cf6","ios":"levelo://app?vid=f54ef5d0-353a-4695-b0e1-09e4d4c59cf6"},"vehicle_type_id":"4","last_reported":1732802947,"current_range_meters":28400,"station_id":"ce4bha12rcd13ifvqef0","pricing_plan_id":"cebpf4jnsgd1na2vs0mg"},{"bike_id":"a5909545-3e09-4859-9fda-9ffe4e6e4883","system_id":"levelo_inurba_marseille","lat":43.23067,"lon":5.35489,"is_reserved":false,"is_disabled":false,"rental_uris":{"android":"levelo://app?vid=a5909545-3e09-4859-9fda-9ffe4e6e4883","ios":"levelo://app?vid=a5909545-3e09-4859-9fda-9ffe4e6e4883"},"vehicle_type_id":"4","last_reported":1732802947,"current_range_meters":23200,"station_id":"cpo3342slgdg3j2ifvpg","pricing_plan_id":"cebpf4jnsgd1na2vs0mg"},{"bike_id":"bfd4477f-b43b-4629-8fcd-35581fd08ade","system_id":"levelo_inurba_marseille","lat":43.26683,"lon":5.38272,"is_reserved":false,"is_disabled":false,"rental_uris":{"android":"levelo://app?vid=bfd4477f-b43b-4629-8fcd-35581fd08ade","ios":"levelo://app?vid=bfd4477f-b43b-4629-8fcd-35581fd08ade"},"vehicle_type_id":"4","last_reported":1732802947,"current_range_meters":36400,"station_id":"ce4bhg92rcd13ifvqf90","pricing_plan_id":"cebpf4jnsgd1na2vs0mg"},{"bike_id":"e5371c00-228e-47ed-918f-166ef7c9c27b","system_id":"levelo_inurba_marseille","lat":43.27938,"lon":5.41049,"is_reserved":false,"is_disabled":false,"rental_uris":{"android":"levelo://app?vid=e5371c00-228e-47ed-918f-166ef7c9c27b","ios":"levelo://app?vid=e5371c00-228e-47ed-918f-166ef7c9c27b"},"vehicle_type_id":"4","last_reported":1732802947,"current_range_meters":9600,"station_id":"ce4bhnp2rcd13ifvqh0g","pricing_plan_id":"cebpf4jnsgd1na2vs0mg"},{"bike_id":"953df208-fbb7-433b-b8ec-dec7955d3c0d","system_id":"levelo_inurba_marseille","lat":43.29896,"lon":5.4367,"is_reserved":false,"is_disabled":false,"rental_uris":{"android":"levelo://app?vid=953df208-fbb7-433b-b8ec-dec7955d3c0d","ios":"levelo://app?vid=953df208-fbb7-433b-b8ec-dec7955d3c0d"},"vehicle_type_id":"4","last_reported":1732802947,"current_range_meters":18800,"station_id":"ce4bhpp2rcd13ifvqhfg","pricing_plan_id":"cebpf4jnsgd1na2vs0mg"},{"bike_id":"636c38c7-b57f-44ef-879f-37f296bc8e0a","system_id":"levelo_inurba_marseille","lat":43.32113,"lon":5.36778,"is_reserved":false,"is_disabled":false,"rental_uris":{"android":"levelo://app?vid=636c38c7-b57f-44ef-879f-37f296bc8e0a","ios":"levelo://app?vid=636c38c7-b57f-44ef-879f-37f296bc8e0a"},"vehicle_type_id":"4","last_reported":1732802947,"current_range_meters":18000,"station_id":"ce4bhrh2rcd13ifvqhug","pricing_plan_id":"cebpf4jnsgd1na2vs0mg"},{"bike_id":"42d5909d-7bed-4216-919e-62c68d36b547","system_id":"levelo_inurba_marseille","lat":43.26684,"lon":5.38275,"is_reserved":false,"is_disabled":false,"rental_uris":{"android":"levelo://app?vid=42d5909d-7bed-4216-919e-62c68d36b547","ios":"levelo://app?vid=42d5909d-7bed-4216-919e-62c68d36b547"},"vehicle_type_id":"4","last_reported":1732802947,"current_range_meters":28000,"station_id":"ce4bhg92rcd13ifvqf90","pricing_plan_id":"cebpf4jnsgd1na2vs0mg"},{"bike_id":"311495c0-ed8b-476a-8f8a-614a5385ce39","system_id":"levelo_inurba_marseille","lat":43.30252,"lon":5.40072,"is_reserved":false,"is_disabled":false,"rental_uris":{"android":"levelo://app?vid=311495c0-ed8b-476a-8f8a-614a5385ce39","ios":"levelo://app?vid=311495c0-ed8b-476a-8f8a-614a5385ce39"},"vehicle_type_id":"4","last_reported":1732802947,"current_range_meters":38800,"station_id":"ce4bgvh2rcd13ifvqcs0","pricing_plan_id":"cebpf4jnsgd1na2vs0mg"},{"bike_id":"a2765649-dd2c-4435-b553-9975218014e2","system_id":"levelo_inurba_marseille","lat":43.31353,"lon":5.36715,"is_reserved":false,"is_disabled":false,"rental_uris":{"android":"levelo://app?vid=a2765649-dd2c-4435-b553-9975218014e2","ios":"levelo://app?vid=a2765649-dd2c-4435-b553-9975218014e2"},"vehicle_type_id":"4","last_reported":1732802947,"current_range_meters":38800,"station_id":"ce4bgr92rcd13ifvqc6g","pricing_plan_id":"cebpf4jnsgd1na2vs0mg"},{"bike_id":"e5951ee3-4a5a-4ebb-b469-096c5188dfa3","system_id":"levelo_inurba_marseille","lat":43.23159,"lon":5.35592,"is_reserved":false,"is_disabled":false,"rental_uris":{"android":"levelo://app?vid=e5951ee3-4a5a-4ebb-b469-096c5188dfa3","ios":"levelo://app?vid=e5951ee3-4a5a-4ebb-b469-096c5188dfa3"},"vehicle_type_id":"4","last_reported":1732802947,"current_range_meters":27600,"station_id":"ce4bhu92rcd13ifvqi70","pricing_plan_id":"cebpf4jnsgd1na2vs0mg"},{"bike_id":"a474ae2a-91c8-434b-9a96-c893afb2de73","system_id":"levelo_inurba_marseille","lat":43.28032,"lon":5.36952,"is_reserved":false,"is_disabled":false,"rental_uris":{"android":"levelo://app?vid=a474ae2a-91c8-434b-9a96-c893afb2de73","ios":"levelo://app?vid=a474ae2a-91c8-434b-9a96-c893afb2de73"},"vehicle_type_id":"4","last_reported":1732802947,"current_range_meters":39200,"station_id":"ce4bha12rcd13ifvqef0","pricing_plan_id":"cebpf4jnsgd1na2vs0mg"},{"bike_id":"551079ac-62f6-4029-9579-63ffc464325f","system_id":"levelo_inurba_marseille","lat":43.23225,"lon":5.35543,"is_reserved":false,"is_disabled":false,"rental_uris":{"android":"levelo://app?vid=551079ac-62f6-4029-9579-63ffc464325f","ios":"levelo://app?vid=551079ac-62f6-4029-9579-63ffc464325f"},"vehicle_type_id":"4","last_reported":1732802947,"current_range_meters":38800,"station_id":"ce4bhu92rcd13ifvqi70","pricing_plan_id":"cebpf4jnsgd1na2vs0mg"},{"bike_id":"6c948e9c-d5b3-4fe5-a918-1bd2f7c83b02","system_id":"levelo_inurba_marseille","lat":43.3211,"lon":5.36771,"is_reserved":false,"is_disabled":false,"rental_uris":{"android":"levelo://app?vid=6c948e9c-d5b3-4fe5-a918-1bd2f7c83b02","ios":"levelo://app?vid=6c948e9c-d5b3-4fe5-a918-1bd2f7c83b02"},"vehicle_type_id":"4","last_reported":1732802947,"current_range_meters":8400,"station_id":"ce4bhrh2rcd13ifvqhug","pricing_plan_id":"cebpf4jnsgd1na2vs0mg"},{"bike_id":"81d5315b-ecf8-4a90-acd8-dcf42a7aa5bc","system_id":"levelo_inurba_marseille","lat":43.2749,"lon":5.42456,"is_reserved":false,"is_disabled":true,"rental_uris":{"android":"levelo://app?vid=81d5315b-ecf8-4a90-acd8-dcf42a7aa5bc","ios":"levelo://app?vid=81d5315b-ecf8-4a90-acd8-dcf42a7aa5bc"},"vehicle_type_id":"4","last_reported":1732802947,"current_range_meters":0,"station_id":"ce4bhn92rcd13ifvqgrg","pricing_plan_id":"cebpf4jnsgd1na2vs0mg"},{"bike_id":"7eb02dc0-6685-4c32-8a90-2ac4540deb7f","system_id":"levelo_inurba_marseille","lat":43.27494,"lon":5.4245,"is_reserved":false,"is_disabled":false,"rental_uris":{"android":"levelo://app?vid=7eb02dc0-6685-4c32-8a90-2ac4540deb7f","ios":"levelo://app?vid=7eb02dc0-6685-4c32-8a90-2ac4540deb7f"},"vehicle_type_id":"4","last_reported":1732802947,"current_range_meters":29600,"station_id":"ce4bhn92rcd13ifvqgrg","pricing_plan_id":"cebpf4jnsgd1na2vs0mg"},{"bike_id":"d0a3707f-e4f8-4013-90e9-0c1c7142ab61","system_id":"levelo_inurba_marseille","lat":43.27665,"lon":5.38887,"is_reserved":false,"is_disabled":false,"rental_uris":{"android":"levelo://app?vid=d0a3707f-e4f8-4013-90e9-0c1c7142ab61","ios":"levelo://app?vid=d0a3707f-e4f8-4013-90e9-0c1c7142ab61"},"vehicle_type_id":"4","last_reported":1732802947,"current_range_meters":36400,"station_id":"ce4bhi12rcd13ifvqfo0","pricing_plan_id":"cebpf4jnsgd1na2vs0mg"},{"bike_id":"45ba5f73-ec93-4f07-a828-0cb625a1ae35","system_id":"levelo_inurba_marseille","lat":43.27067,"lon":5.42273,"is_reserved":false,"is_disabled":true,"rental_uris":{"android":"levelo://app?vid=45ba5f73-ec93-4f07-a828-0cb625a1ae35","ios":"levelo://app?vid=45ba5f73-ec93-4f07-a828-0cb625a1ae35"},"vehicle_type_id":"4","last_reported":1732802947,"current_range_meters":2000,"station_id":"ce4bhk92rcd13ifvqgb0","pricing_plan_id":"cebpf4jnsgd1na2vs0mg"},{"bike_id":"cc31ca8c-479a-47f7-ba0e-d1a28b9efb12","system_id":"levelo_inurba_marseille","lat":43.25866,"lon":5.399,"is_reserved":false,"is_disabled":true,"rental_uris":{"android":"levelo://app?vid=cc31ca8c-479a-47f7-ba0e-d1a28b9efb12","ios":"levelo://app?vid=cc31ca8c-479a-47f7-ba0e-d1a28b9efb12"},"vehicle_type_id":"4","last_reported":1732802947,"current_range_meters":2800,"station_id":"ce4bhl92rcd13ifvqghg","pricing_plan_id":"cebpf4jnsgd1na2vs0mg"},{"bike_id":"8a89746d-e8a1-4450-8a75-5cfbddcd4265","system_id":"levelo_inurba_marseille","lat":43.31684,"lon":5.4047,"is_reserved":false,"is_disabled":false,"rental_uris":{"android":"levelo://app?vid=8a89746d-e8a1-4450-8a75-5cfbddcd4265","ios":"levelo://app?vid=8a89746d-e8a1-4450-8a75-5cfbddcd4265"},"vehicle_type_id":"4","last_reported":1732802947,"current_range_meters":33600,"station_id":"ce4bh012rcd13ifvqd00","pricing_plan_id":"cebpf4jnsgd1na2vs0mg"},{"bike_id":"d9a06f58-b7bc-4a0c-b7c4-f0f4b19ab6e6","system_id":"levelo_inurba_marseille","lat":43.2318,"lon":5.39986,"is_reserved":false,"is_disabled":false,"rental_uris":{"android":"levelo://app?vid=d9a06f58-b7bc-4a0c-b7c4-f0f4b19ab6e6","ios":"levelo://app?vid=d9a06f58-b7bc-4a0c-b7c4-f0f4b19ab6e6"},"vehicle_type_id":"4","last_reported":1732802947,"current_range_meters":12000,"station_id":"ce4bhn12rcd13ifvqgqg","pricing_plan_id":"cebpf4jnsgd1na2vs0mg"},{"bike_id":"2e57a5f6-8acf-4500-9431-bc1a26f49dbb","system_id":"levelo_inurba_marseille","lat":43.29025,"lon":5.38649,"is_reserved":false,"is_disabled":false,"rental_uris":{"android":"levelo://app?vid=2e57a5f6-8acf-4500-9431-bc1a26f49dbb","ios":"levelo://app?vid=2e57a5f6-8acf-4500-9431-bc1a26f49dbb"},"vehicle_type_id":"4","last_reported":1732802947,"current_range_meters":36000,"station_id":"ce4bh4p2rcd13ifvqe0g","pricing_plan_id":"cebpf4jnsgd1na2vs0mg"},{"bike_id":"e14587dc-7f13-44f8-abd4-ea0dfa860ab0","system_id":"levelo_inurba_marseille","lat":43.32476,"lon":5.36579,"is_reserved":false,"is_disabled":true,"rental_uris":{"android":"levelo://app?vid=e14587dc-7f13-44f8-abd4-ea0dfa860ab0","ios":"levelo://app?vid=e14587dc-7f13-44f8-abd4-ea0dfa860ab0"},"vehicle_type_id":"4","last_reported":1732802947,"current_range_meters":400,"station_id":"ce4bhs12rcd13ifvqhvg","pricing_plan_id":"cebpf4jnsgd1na2vs0mg"},{"bike_id":"f2d90281-12a7-4814-b59d-767e6b76ef29","system_id":"levelo_inurba_marseille","lat":43.28715,"lon":5.37927,"is_reserved":false,"is_disabled":false,"rental_uris":{"android":"levelo://app?vid=f2d90281-12a7-4814-b59d-767e6b76ef29","ios":"levelo://app?vid=f2d90281-12a7-4814-b59d-767e6b76ef29"},"vehicle_type_id":"4","last_reported":1732802947,"current_range_meters":32400,"station_id":"ce4bh9p2rcd13ifvqec0","pricing_plan_id":"cebpf4jnsgd1na2vs0mg"},{"bike_id":"9b767232-5c2b-49ff-b0f6-3592aae87a3d","system_id":"levelo_inurba_marseille","lat":43.23155,"lon":5.43706,"is_reserved":false,"is_disabled":false,"rental_uris":{"android":"levelo://app?vid=9b767232-5c2b-49ff-b0f6-3592aae87a3d","ios":"levelo://app?vid=9b767232-5c2b-49ff-b0f6-3592aae87a3d"},"vehicle_type_id":"4","last_reported":1732802947,"current_range_meters":9200,"station_id":"ce4bhmp2rcd13ifvqgog","pricing_plan_id":"cebpf4jnsgd1na2vs0mg"},{"bike_id":"dc87c326-700a-4406-b562-6e0a2f16a630","system_id":"levelo_inurba_marseille","lat":43.2984,"lon":5.36264,"is_reserved":false,"is_disabled":false,"rental_uris":{"android":"levelo://app?vid=dc87c326-700a-4406-b562-6e0a2f16a630","ios":"levelo://app?vid=dc87c326-700a-4406-b562-6e0a2f16a630"},"vehicle_type_id":"4","last_reported":1732802947,"current_range_meters":30000,"station_id":"ce4bgpp2rcd13ifvqc3g","pricing_plan_id":"cebpf4jnsgd1na2vs0mg"},{"bike_id":"7ec5e558-4a57-4877-bcb1-a720f0ad284e","system_id":"levelo_inurba_marseille","lat":43.29006,"lon":5.35616,"is_reserved":false,"is_disabled":false,"rental_uris":{"android":"levelo://app?vid=7ec5e558-4a57-4877-bcb1-a720f0ad284e","ios":"levelo://app?vid=7ec5e558-4a57-4877-bcb1-a720f0ad284e"},"vehicle_type_id":"4","last_reported":1732802947,"current_range_meters":28800,"station_id":"ce4bhb92rcd13ifvqen0","pricing_plan_id":"cebpf4jnsgd1na2vs0mg"},{"bike_id":"dd065dbf-3b9b-4b12-99f2-d82e3c364a69","system_id":"levelo_inurba_marseille","lat":43.32663,"lon":5.40994,"is_reserved":false,"is_disabled":false,"rental_uris":{"android":"levelo://app?vid=dd065dbf-3b9b-4b12-99f2-d82e3c364a69","ios":"levelo://app?vid=dd065dbf-3b9b-4b12-99f2-d82e3c364a69"},"vehicle_type_id":"4","last_reported":1732802947,"current_range_meters":36800,"station_id":"ce4bhpp2rcd13ifvqhgg","pricing_plan_id":"cebpf4jnsgd1na2vs0mg"},{"bike_id":"60f23062-e767-482f-8b25-2ef722ca2fc5","system_id":"levelo_inurba_marseille","lat":43.34138,"lon":5.40904,"is_reserved":false,"is_disabled":false,"rental_uris":{"android":"levelo://app?vid=60f23062-e767-482f-8b25-2ef722ca2fc5","ios":"levelo://app?vid=60f23062-e767-482f-8b25-2ef722ca2fc5"},"vehicle_type_id":"4","last_reported":1732802947,"current_range_meters":14400,"station_id":"ce4bhqh2rcd13ifvqhlg","pricing_plan_id":"cebpf4jnsgd1na2vs0mg"},{"bike_id":"43746d86-8a13-4845-9faf-ae69b548d714","system_id":"levelo_inurba_marseille","lat":43.29459,"lon":5.37917,"is_reserved":false,"is_disabled":true,"rental_uris":{"android":"levelo://app?vid=43746d86-8a13-4845-9faf-ae69b548d714","ios":"levelo://app?vid=43746d86-8a13-4845-9faf-ae69b548d714"},"vehicle_type_id":"4","last_reported":1732802947,"current_range_meters":0,"station_id":"","pricing_plan_id":"cebpf4jnsgd1na2vs0mg"},{"bike_id":"cea419d5-9bbc-44b0-87d2-ea55fd4752be","system_id":"levelo_inurba_marseille","lat":43.23149,"lon":5.43704,"is_reserved":false,"is_disabled":true,"rental_uris":{"android":"levelo://app?vid=cea419d5-9bbc-44b0-87d2-ea55fd4752be","ios":"levelo://app?vid=cea419d5-9bbc-44b0-87d2-ea55fd4752be"},"vehicle_type_id":"4","last_reported":1732802947,"current_range_meters":0,"station_id":"ce4bhmp2rcd13ifvqgog","pricing_plan_id":"cebpf4jnsgd1na2vs0mg"},{"bike_id":"d4053b24-d52c-4e3e-b12c-20a5f1ec578e","system_id":"levelo_inurba_marseille","lat":43.29727,"lon":5.37687,"is_reserved":false,"is_disabled":true,"rental_uris":{"android":"levelo://app?vid=d4053b24-d52c-4e3e-b12c-20a5f1ec578e","ios":"levelo://app?vid=d4053b24-d52c-4e3e-b12c-20a5f1ec578e"},"vehicle_type_id":"4","last_reported":1732802947,"current_range_meters":800,"station_id":"ce4bgkh2rcd13ifvqbl0","pricing_plan_id":"cebpf4jnsgd1na2vs0mg"},{"bike_id":"df76b7bf-b879-4e94-9796-439ee296ef0a","system_id":"levelo_inurba_marseille","lat":43.22926,"lon":5.35377,"is_reserved":false,"is_disabled":false,"rental_uris":{"android":"levelo://app?vid=df76b7bf-b879-4e94-9796-439ee296ef0a","ios":"levelo://app?vid=df76b7bf-b879-4e94-9796-439ee296ef0a"},"vehicle_type_id":"4","last_reported":1732802947,"current_range_meters":31200,"station_id":"cpo3532slgdg3j2ikp40","pricing_plan_id":"cebpf4jnsgd1na2vs0mg"},{"bike_id":"bbb33bba-debd-490b-b20e-eae4542d639a","system_id":"levelo_inurba_marseille","lat":43.24082,"lon":5.37751,"is_reserved":false,"is_disabled":false,"rental_uris":{"android":"levelo://app?vid=bbb33bba-debd-490b-b20e-eae4542d639a","ios":"levelo://app?vid=bbb33bba-debd-490b-b20e-eae4542d639a"},"vehicle_type_id":"4","last_reported":1732802947,"current_range_meters":6000,"station_id":"ce4bhnp2rcd13ifvqgvg","pricing_plan_id":"cebpf4jnsgd1na2vs0mg"},{"bike_id":"50f8f033-2114-458e-b3ae-3f1b4c43b321","system_id":"levelo_inurba_marseille","lat":43.30323,"lon":5.40435,"is_reserved":false,"is_disabled":false,"rental_uris":{"android":"levelo://app?vid=50f8f033-2114-458e-b3ae-3f1b4c43b321","ios":"levelo://app?vid=50f8f033-2114-458e-b3ae-3f1b4c43b321"},"vehicle_type_id":"4","last_reported":1732802947,"current_range_meters":28000,"station_id":"ce4bh012rcd13ifvqd10","pricing_plan_id":"cebpf4jnsgd1na2vs0mg"},{"bike_id":"42f4e685-2b6f-45da-b7dd-73e74f8c66d0","system_id":"levelo_inurba_marseille","lat":43.25492,"lon":5.37654,"is_reserved":false,"is_disabled":false,"rental_uris":{"android":"levelo://app?vid=42f4e685-2b6f-45da-b7dd-73e74f8c66d0","ios":"levelo://app?vid=42f4e685-2b6f-45da-b7dd-73e74f8c66d0"},"vehicle_type_id":"4","last_reported":1732802947,"current_range_meters":36800,"station_id":"ce4bhh12rcd13ifvqff0","pricing_plan_id":"cebpf4jnsgd1na2vs0mg"},{"bike_id":"1903435d-438a-48b8-b59a-379592c1581e","system_id":"levelo_inurba_marseille","lat":43.27318,"lon":5.39066,"is_reserved":false,"is_disabled":false,"rental_uris":{"android":"levelo://app?vid=1903435d-438a-48b8-b59a-379592c1581e","ios":"levelo://app?vid=1903435d-438a-48b8-b59a-379592c1581e"},"vehicle_type_id":"4","last_reported":1732802947,"current_range_meters":37600,"station_id":"ce4bhgp2rcd13ifvqfe0","pricing_plan_id":"cebpf4jnsgd1na2vs0mg"},{"bike_id":"3030554a-2d35-4c9f-af4d-9a9d9d2e4fbf","system_id":"levelo_inurba_marseille","lat":43.23181,"lon":5.39988,"is_reserved":false,"is_disabled":false,"rental_uris":{"android":"levelo://app?vid=3030554a-2d35-4c9f-af4d-9a9d9d2e4fbf","ios":"levelo://app?vid=3030554a-2d35-4c9f-af4d-9a9d9d2e4fbf"},"vehicle_type_id":"4","last_reported":1732802947,"current_range_meters":36400,"station_id":"ce4bhn12rcd13ifvqgqg","pricing_plan_id":"cebpf4jnsgd1na2vs0mg"},{"bike_id":"65d5403a-f2c8-4713-83e3-e0bbccd672ba","system_id":"levelo_inurba_marseille","lat":43.25497,"lon":5.3765,"is_reserved":false,"is_disabled":false,"rental_uris":{"android":"levelo://app?vid=65d5403a-f2c8-4713-83e3-e0bbccd672ba","ios":"levelo://app?vid=65d5403a-f2c8-4713-83e3-e0bbccd672ba"},"vehicle_type_id":"4","last_reported":1732802947,"current_range_meters":38800,"station_id":"ce4bhh12rcd13ifvqff0","pricing_plan_id":"cebpf4jnsgd1na2vs0mg"},{"bike_id":"2068bea6-b554-4e30-8255-13770c871bb8","system_id":"levelo_inurba_marseille","lat":43.25577,"lon":5.38242,"is_reserved":false,"is_disabled":false,"rental_uris":{"android":"levelo://app?vid=2068bea6-b554-4e30-8255-13770c871bb8","ios":"levelo://app?vid=2068bea6-b554-4e30-8255-13770c871bb8"},"vehicle_type_id":"4","last_reported":1732802947,"current_range_meters":3200,"station_id":"ce4bhih2rcd13ifvqfs0","pricing_plan_id":"cebpf4jnsgd1na2vs0mg"},{"bike_id":"a15bdbd6-2809-4fc5-b984-b482a740c6e4","system_id":"levelo_inurba_marseille","lat":43.30232,"lon":5.39463,"is_reserved":false,"is_disabled":false,"rental_uris":{"android":"levelo://app?vid=a15bdbd6-2809-4fc5-b984-b482a740c6e4","ios":"levelo://app?vid=a15bdbd6-2809-4fc5-b984-b482a740c6e4"},"vehicle_type_id":"4","last_reported":1732802947,"current_range_meters":7200,"station_id":"ce4bh0p2rcd13ifvqd70","pricing_plan_id":"cebpf4jnsgd1na2vs0mg"},{"bike_id":"5d094a6f-8162-4686-820c-0d99a2b2dff2","system_id":"levelo_inurba_marseille","lat":43.32658,"lon":5.40989,"is_reserved":false,"is_disabled":false,"rental_uris":{"android":"levelo://app?vid=5d094a6f-8162-4686-820c-0d99a2b2dff2","ios":"levelo://app?vid=5d094a6f-8162-4686-820c-0d99a2b2dff2"},"vehicle_type_id":"4","last_reported":1732802947,"current_range_meters":33600,"station_id":"ce4bhpp2rcd13ifvqhgg","pricing_plan_id":"cebpf4jnsgd1na2vs0mg"},{"bike_id":"73237246-d3c1-43bc-bad7-8e44028b6f2d","system_id":"levelo_inurba_marseille","lat":43.23189,"lon":5.39981,"is_reserved":false,"is_disabled":false,"rental_uris":{"android":"levelo://app?vid=73237246-d3c1-43bc-bad7-8e44028b6f2d","ios":"levelo://app?vid=73237246-d3c1-43bc-bad7-8e44028b6f2d"},"vehicle_type_id":"4","last_reported":1732802947,"current_range_meters":31200,"station_id":"ce4bhn12rcd13ifvqgqg","pricing_plan_id":"cebpf4jnsgd1na2vs0mg"},{"bike_id":"b4f0c7bb-6382-4ae2-bc10-252fc6662ce6","system_id":"levelo_inurba_marseille","lat":43.22932,"lon":5.35374,"is_reserved":false,"is_disabled":false,"rental_uris":{"android":"levelo://app?vid=b4f0c7bb-6382-4ae2-bc10-252fc6662ce6","ios":"levelo://app?vid=b4f0c7bb-6382-4ae2-bc10-252fc6662ce6"},"vehicle_type_id":"4","last_reported":1732802947,"current_range_meters":39200,"station_id":"cpo3532slgdg3j2ikp40","pricing_plan_id":"cebpf4jnsgd1na2vs0mg"},{"bike_id":"fc4d15f5-6256-45a3-90d6-77bb4c676955","system_id":"levelo_inurba_marseille","lat":43.296284,"lon":5.377877,"is_reserved":false,"is_disabled":true,"rental_uris":{"android":"levelo://app?vid=fc4d15f5-6256-45a3-90d6-77bb4c676955","ios":"levelo://app?vid=fc4d15f5-6256-45a3-90d6-77bb4c676955"},"vehicle_type_id":"4","last_reported":1732802947,"current_range_meters":33200,"station_id":"","pricing_plan_id":"cebpf4jnsgd1na2vs0mg"},{"bike_id":"8a6d2d87-b63e-4f2d-a6bb-a798f0427308","system_id":"levelo_inurba_marseille","lat":43.2781,"lon":5.4072,"is_reserved":false,"is_disabled":false,"rental_uris":{"android":"levelo://app?vid=8a6d2d87-b63e-4f2d-a6bb-a798f0427308","ios":"levelo://app?vid=8a6d2d87-b63e-4f2d-a6bb-a798f0427308"},"vehicle_type_id":"4","last_reported":1732802947,"current_range_meters":38800,"station_id":"ce4bhnh2rcd13ifvqgtg","pricing_plan_id":"cebpf4jnsgd1na2vs0mg"},{"bike_id":"c88f8730-1176-4717-97e2-17c27b15274f","system_id":"levelo_inurba_marseille","lat":43.23193,"lon":5.35544,"is_reserved":false,"is_disabled":true,"rental_uris":{"android":"levelo://app?vid=c88f8730-1176-4717-97e2-17c27b15274f","ios":"levelo://app?vid=c88f8730-1176-4717-97e2-17c27b15274f"},"vehicle_type_id":"4","last_reported":1732802947,"current_range_meters":0,"station_id":"ce4bhu92rcd13ifvqi70","pricing_plan_id":"cebpf4jnsgd1na2vs0mg"},{"bike_id":"cd566a9d-3df3-44a2-8db0-dbc532070d7a","system_id":"levelo_inurba_marseille","lat":43.30261,"lon":5.40094,"is_reserved":false,"is_disabled":false,"rental_uris":{"android":"levelo://app?vid=cd566a9d-3df3-44a2-8db0-dbc532070d7a","ios":"levelo://app?vid=cd566a9d-3df3-44a2-8db0-dbc532070d7a"},"vehicle_type_id":"4","last_reported":1732802947,"current_range_meters":18800,"station_id":"ce4bgvh2rcd13ifvqcs0","pricing_plan_id":"cebpf4jnsgd1na2vs0mg"},{"bike_id":"4096de7f-f707-4b3a-bfdc-c57ad5bf451a","system_id":"levelo_inurba_marseille","lat":43.27493,"lon":5.42452,"is_reserved":false,"is_disabled":false,"rental_uris":{"android":"levelo://app?vid=4096de7f-f707-4b3a-bfdc-c57ad5bf451a","ios":"levelo://app?vid=4096de7f-f707-4b3a-bfdc-c57ad5bf451a"},"vehicle_type_id":"4","last_reported":1732802947,"current_range_meters":24400,"station_id":"ce4bhn92rcd13ifvqgrg","pricing_plan_id":"cebpf4jnsgd1na2vs0mg"},{"bike_id":"6481b717-ef31-4459-ba77-8751d0ad3a57","system_id":"levelo_inurba_marseille","lat":43.31354,"lon":5.38488,"is_reserved":false,"is_disabled":false,"rental_uris":{"android":"levelo://app?vid=6481b717-ef31-4459-ba77-8751d0ad3a57","ios":"levelo://app?vid=6481b717-ef31-4459-ba77-8751d0ad3a57"},"vehicle_type_id":"4","last_reported":1732802947,"current_range_meters":25600,"station_id":"ce4bgt92rcd13ifvqcf0","pricing_plan_id":"cebpf4jnsgd1na2vs0mg"},{"bike_id":"b6ed1910-de57-401d-8b1d-af35755f9004","system_id":"levelo_inurba_marseille","lat":43.2795,"lon":5.41057,"is_reserved":false,"is_disabled":true,"rental_uris":{"android":"levelo://app?vid=b6ed1910-de57-401d-8b1d-af35755f9004","ios":"levelo://app?vid=b6ed1910-de57-401d-8b1d-af35755f9004"},"vehicle_type_id":"4","last_reported":1732802947,"current_range_meters":29600,"station_id":"ce4bhnp2rcd13ifvqh0g","pricing_plan_id":"cebpf4jnsgd1na2vs0mg"},{"bike_id":"32a151d9-7005-40eb-a8f7-814ea7e149e3","system_id":"levelo_inurba_marseille","lat":43.3054,"lon":5.365189,"is_reserved":false,"is_disabled":false,"rental_uris":{"android":"levelo://app?vid=32a151d9-7005-40eb-a8f7-814ea7e149e3","ios":"levelo://app?vid=32a151d9-7005-40eb-a8f7-814ea7e149e3"},"vehicle_type_id":"4","last_reported":1732802947,"current_range_meters":38000,"station_id":"ce4bgs12rcd13ifvqcag","pricing_plan_id":"cebpf4jnsgd1na2vs0mg"},{"bike_id":"c0c814f8-5da5-485f-b863-3458dcd8a348","system_id":"levelo_inurba_marseille","lat":43.24538,"lon":5.39529,"is_reserved":false,"is_disabled":false,"rental_uris":{"android":"levelo://app?vid=c0c814f8-5da5-485f-b863-3458dcd8a348","ios":"levelo://app?vid=c0c814f8-5da5-485f-b863-3458dcd8a348"},"vehicle_type_id":"4","last_reported":1732802947,"current_range_meters":28800,"station_id":"ce4bhlp2rcd13ifvqgjg","pricing_plan_id":"cebpf4jnsgd1na2vs0mg"},{"bike_id":"5a0f2812-1647-4b20-974e-81053b503efa","system_id":"levelo_inurba_marseille","lat":43.26552,"lon":5.37288,"is_reserved":false,"is_disabled":false,"rental_uris":{"android":"levelo://app?vid=5a0f2812-1647-4b20-974e-81053b503efa","ios":"levelo://app?vid=5a0f2812-1647-4b20-974e-81053b503efa"},"vehicle_type_id":"4","last_reported":1732802947,"current_range_meters":23200,"station_id":"ce4bhg12rcd13ifvqf70","pricing_plan_id":"cebpf4jnsgd1na2vs0mg"},{"bike_id":"e54f0174-c7bd-4711-b39d-83487d0a1cd5","system_id":"levelo_inurba_marseille","lat":43.29558,"lon":5.42268,"is_reserved":false,"is_disabled":false,"rental_uris":{"android":"levelo://app?vid=e54f0174-c7bd-4711-b39d-83487d0a1cd5","ios":"levelo://app?vid=e54f0174-c7bd-4711-b39d-83487d0a1cd5"},"vehicle_type_id":"4","last_reported":1732802947,"current_range_meters":39200,"station_id":"ce4bhph2rcd13ifvqhdg","pricing_plan_id":"cebpf4jnsgd1na2vs0mg"},{"bike_id":"e346be1f-cb6c-4e2a-aa7c-fddf98fe41bc","system_id":"levelo_inurba_marseille","lat":43.27188,"lon":5.40989,"is_reserved":false,"is_disabled":false,"rental_uris":{"android":"levelo://app?vid=e346be1f-cb6c-4e2a-aa7c-fddf98fe41bc","ios":"levelo://app?vid=e346be1f-cb6c-4e2a-aa7c-fddf98fe41bc"},"vehicle_type_id":"4","last_reported":1732802947,"current_range_meters":38800,"station_id":"ce4bhl12rcd13ifvqgf0","pricing_plan_id":"cebpf4jnsgd1na2vs0mg"},{"bike_id":"51fb897f-5af5-4094-b253-7520d1f75033","system_id":"levelo_inurba_marseille","lat":43.28683,"lon":5.37404,"is_reserved":false,"is_disabled":false,"rental_uris":{"android":"levelo://app?vid=51fb897f-5af5-4094-b253-7520d1f75033","ios":"levelo://app?vid=51fb897f-5af5-4094-b253-7520d1f75033"},"vehicle_type_id":"4","last_reported":1732802947,"current_range_meters":1200,"station_id":"ce4bh3p2rcd13ifvqdq0","pricing_plan_id":"cebpf4jnsgd1na2vs0mg"},{"bike_id":"318d9b80-f0a1-4cab-bbac-33311ba06b1b","system_id":"levelo_inurba_marseille","lat":43.28715,"lon":5.37941,"is_reserved":false,"is_disabled":false,"rental_uris":{"android":"levelo://app?vid=318d9b80-f0a1-4cab-bbac-33311ba06b1b","ios":"levelo://app?vid=318d9b80-f0a1-4cab-bbac-33311ba06b1b"},"vehicle_type_id":"4","last_reported":1732802947,"current_range_meters":4000,"station_id":"ce4bh9p2rcd13ifvqec0","pricing_plan_id":"cebpf4jnsgd1na2vs0mg"},{"bike_id":"ca469a7e-8f58-4153-99ad-e36df31eb087","system_id":"levelo_inurba_marseille","lat":43.30138,"lon":5.37423,"is_reserved":false,"is_disabled":false,"rental_uris":{"android":"levelo://app?vid=ca469a7e-8f58-4153-99ad-e36df31eb087","ios":"levelo://app?vid=ca469a7e-8f58-4153-99ad-e36df31eb087"},"vehicle_type_id":"4","last_reported":1732802947,"current_range_meters":11600,"station_id":"ce4bgs92rcd13ifvqcc0","pricing_plan_id":"cebpf4jnsgd1na2vs0mg"},{"bike_id":"0e45148f-1a7e-42d3-9cc8-08bc63689057","system_id":"levelo_inurba_marseille","lat":43.23189,"lon":5.3555,"is_reserved":false,"is_disabled":false,"rental_uris":{"android":"levelo://app?vid=0e45148f-1a7e-42d3-9cc8-08bc63689057","ios":"levelo://app?vid=0e45148f-1a7e-42d3-9cc8-08bc63689057"},"vehicle_type_id":"4","last_reported":1732802947,"current_range_meters":8400,"station_id":"ce4bhu92rcd13ifvqi70","pricing_plan_id":"cebpf4jnsgd1na2vs0mg"},{"bike_id":"5aee8f34-f29b-4446-a958-d36daab9b202","system_id":"levelo_inurba_marseille","lat":43.23144,"lon":5.43721,"is_reserved":false,"is_disabled":true,"rental_uris":{"android":"levelo://app?vid=5aee8f34-f29b-4446-a958-d36daab9b202","ios":"levelo://app?vid=5aee8f34-f29b-4446-a958-d36daab9b202"},"vehicle_type_id":"4","last_reported":1732802947,"current_range_meters":0,"station_id":"ce4bhmp2rcd13ifvqgog","pricing_plan_id":"cebpf4jnsgd1na2vs0mg"},{"bike_id":"e4a3ee64-8c9f-47fa-ba19-5213f5308e81","system_id":"levelo_inurba_marseille","lat":43.27209,"lon":5.39194,"is_reserved":false,"is_disabled":true,"rental_uris":{"android":"levelo://app?vid=e4a3ee64-8c9f-47fa-ba19-5213f5308e81","ios":"levelo://app?vid=e4a3ee64-8c9f-47fa-ba19-5213f5308e81"},"vehicle_type_id":"4","last_reported":1732802947,"current_range_meters":0,"station_id":"ce4bhhp2rcd13ifvqfm0","pricing_plan_id":"cebpf4jnsgd1na2vs0mg"},{"bike_id":"87b938c7-f6f3-401a-bf2a-2ffc8779c060","system_id":"levelo_inurba_marseille","lat":43.23154,"lon":5.43705,"is_reserved":false,"is_disabled":false,"rental_uris":{"android":"levelo://app?vid=87b938c7-f6f3-401a-bf2a-2ffc8779c060","ios":"levelo://app?vid=87b938c7-f6f3-401a-bf2a-2ffc8779c060"},"vehicle_type_id":"4","last_reported":1732802947,"current_range_meters":5600,"station_id":"ce4bhmp2rcd13ifvqgog","pricing_plan_id":"cebpf4jnsgd1na2vs0mg"},{"bike_id":"28e35b8a-63c1-436f-851f-462ff8db4d51","system_id":"levelo_inurba_marseille","lat":43.30327,"lon":5.40432,"is_reserved":false,"is_disabled":true,"rental_uris":{"android":"levelo://app?vid=28e35b8a-63c1-436f-851f-462ff8db4d51","ios":"levelo://app?vid=28e35b8a-63c1-436f-851f-462ff8db4d51"},"vehicle_type_id":"4","last_reported":1732802947,"current_range_meters":0,"station_id":"ce4bh012rcd13ifvqd10","pricing_plan_id":"cebpf4jnsgd1na2vs0mg"},{"bike_id":"a971b12c-91dd-4e3e-a648-1ccbe1b306cb","system_id":"levelo_inurba_marseille","lat":43.23195,"lon":5.35551,"is_reserved":false,"is_disabled":false,"rental_uris":{"android":"levelo://app?vid=a971b12c-91dd-4e3e-a648-1ccbe1b306cb","ios":"levelo://app?vid=a971b12c-91dd-4e3e-a648-1ccbe1b306cb"},"vehicle_type_id":"4","last_reported":1732802947,"current_range_meters":20400,"station_id":"ce4bhu92rcd13ifvqi70","pricing_plan_id":"cebpf4jnsgd1na2vs0mg"},{"bike_id":"6f8f7372-ecd4-442e-95dd-7b099b7e1a39","system_id":"levelo_inurba_marseille","lat":43.29892,"lon":5.43661,"is_reserved":false,"is_disabled":false,"rental_uris":{"android":"levelo://app?vid=6f8f7372-ecd4-442e-95dd-7b099b7e1a39","ios":"levelo://app?vid=6f8f7372-ecd4-442e-95dd-7b099b7e1a39"},"vehicle_type_id":"4","last_reported":1732802947,"current_range_meters":38800,"station_id":"ce4bhpp2rcd13ifvqhfg","pricing_plan_id":"cebpf4jnsgd1na2vs0mg"},{"bike_id":"6f1b1c0c-675d-4520-bd03-0a1aeb27151e","system_id":"levelo_inurba_marseille","lat":43.31833,"lon":5.38933,"is_reserved":false,"is_disabled":false,"rental_uris":{"android":"levelo://app?vid=6f1b1c0c-675d-4520-bd03-0a1aeb27151e","ios":"levelo://app?vid=6f1b1c0c-675d-4520-bd03-0a1aeb27151e"},"vehicle_type_id":"4","last_reported":1732802947,"current_range_meters":38000,"station_id":"","pricing_plan_id":"cebpf4jnsgd1na2vs0mg"},{"bike_id":"03244500-f206-4d49-a5e7-31475c3545c5","system_id":"levelo_inurba_marseille","lat":43.32536,"lon":5.41434,"is_reserved":false,"is_disabled":false,"rental_uris":{"android":"levelo://app?vid=03244500-f206-4d49-a5e7-31475c3545c5","ios":"levelo://app?vid=03244500-f206-4d49-a5e7-31475c3545c5"},"vehicle_type_id":"4","last_reported":1732802947,"current_range_meters":38800,"station_id":"ce4bhq12rcd13ifvqhhg","pricing_plan_id":"cebpf4jnsgd1na2vs0mg"},{"bike_id":"0405be88-d39f-48b5-a6c5-8faf76df9da7","system_id":"levelo_inurba_marseille","lat":43.23153,"lon":5.4371,"is_reserved":false,"is_disabled":false,"rental_uris":{"android":"levelo://app?vid=0405be88-d39f-48b5-a6c5-8faf76df9da7","ios":"levelo://app?vid=0405be88-d39f-48b5-a6c5-8faf76df9da7"},"vehicle_type_id":"4","last_reported":1732802947,"current_range_meters":16800,"station_id":"ce4bhmp2rcd13ifvqgog","pricing_plan_id":"cebpf4jnsgd1na2vs0mg"},{"bike_id":"9e944db9-d48e-4848-b5fa-4af701aee80b","system_id":"levelo_inurba_marseille","lat":48.80797,"lon":2.40127,"is_reserved":false,"is_disabled":true,"rental_uris":{"android":"levelo://app?vid=9e944db9-d48e-4848-b5fa-4af701aee80b","ios":"levelo://app?vid=9e944db9-d48e-4848-b5fa-4af701aee80b"},"vehicle_type_id":"4","last_reported":1732802947,"current_range_meters":23200,"station_id":"","pricing_plan_id":"cebpf4jnsgd1na2vs0mg"},{"bike_id":"4431b3b2-6cd9-4be7-b139-d865461cb8ce","system_id":"levelo_inurba_marseille","lat":43.27311,"lon":5.39077,"is_reserved":false,"is_disabled":false,"rental_uris":{"android":"levelo://app?vid=4431b3b2-6cd9-4be7-b139-d865461cb8ce","ios":"levelo://app?vid=4431b3b2-6cd9-4be7-b139-d865461cb8ce"},"vehicle_type_id":"4","last_reported":1732802947,"current_range_meters":36400,"station_id":"ce4bhgp2rcd13ifvqfe0","pricing_plan_id":"cebpf4jnsgd1na2vs0mg"},{"bike_id":"641c847a-aa14-4a64-8e61-175a53706cef","system_id":"levelo_inurba_marseille","lat":43.28037,"lon":5.36947,"is_reserved":false,"is_disabled":false,"rental_uris":{"android":"levelo://app?vid=641c847a-aa14-4a64-8e61-175a53706cef","ios":"levelo://app?vid=641c847a-aa14-4a64-8e61-175a53706cef"},"vehicle_type_id":"4","last_reported":1732802947,"current_range_meters":35200,"station_id":"ce4bha12rcd13ifvqef0","pricing_plan_id":"cebpf4jnsgd1na2vs0mg"},{"bike_id":"ab6ec33d-7781-44df-bc2b-0d829844acd4","system_id":"levelo_inurba_marseille","lat":43.34152,"lon":5.4091,"is_reserved":false,"is_disabled":false,"rental_uris":{"android":"levelo://app?vid=ab6ec33d-7781-44df-bc2b-0d829844acd4","ios":"levelo://app?vid=ab6ec33d-7781-44df-bc2b-0d829844acd4"},"vehicle_type_id":"4","last_reported":1732802947,"current_range_meters":33600,"station_id":"ce4bhqh2rcd13ifvqhlg","pricing_plan_id":"cebpf4jnsgd1na2vs0mg"},{"bike_id":"648393cc-6fb1-4b88-a179-4370096f5176","system_id":"levelo_inurba_marseille","lat":43.3413,"lon":5.4091,"is_reserved":false,"is_disabled":false,"rental_uris":{"android":"levelo://app?vid=648393cc-6fb1-4b88-a179-4370096f5176","ios":"levelo://app?vid=648393cc-6fb1-4b88-a179-4370096f5176"},"vehicle_type_id":"4","last_reported":1732802947,"current_range_meters":35200,"station_id":"ce4bhqh2rcd13ifvqhlg","pricing_plan_id":"cebpf4jnsgd1na2vs0mg"},{"bike_id":"402b306e-1399-4794-8a03-2660cd5f9eca","system_id":"levelo_inurba_marseille","lat":43.27977,"lon":5.38745,"is_reserved":false,"is_disabled":false,"rental_uris":{"android":"levelo://app?vid=402b306e-1399-4794-8a03-2660cd5f9eca","ios":"levelo://app?vid=402b306e-1399-4794-8a03-2660cd5f9eca"},"vehicle_type_id":"4","last_reported":1732802947,"current_range_meters":19200,"station_id":"ce4bhg12rcd13ifvqf80","pricing_plan_id":"cebpf4jnsgd1na2vs0mg"},{"bike_id":"ba4fd573-6474-49bf-a884-7d987d65270d","system_id":"levelo_inurba_marseille","lat":43.2511,"lon":5.40322,"is_reserved":false,"is_disabled":false,"rental_uris":{"android":"levelo://app?vid=ba4fd573-6474-49bf-a884-7d987d65270d","ios":"levelo://app?vid=ba4fd573-6474-49bf-a884-7d987d65270d"},"vehicle_type_id":"4","last_reported":1732802947,"current_range_meters":20400,"station_id":"ce4bhlh2rcd13ifvqgig","pricing_plan_id":"cebpf4jnsgd1na2vs0mg"},{"bike_id":"49c427a7-6d64-48f8-af87-cca7515744ad","system_id":"levelo_inurba_marseille","lat":43.28342,"lon":5.38109,"is_reserved":false,"is_disabled":false,"rental_uris":{"android":"levelo://app?vid=49c427a7-6d64-48f8-af87-cca7515744ad","ios":"levelo://app?vid=49c427a7-6d64-48f8-af87-cca7515744ad"},"vehicle_type_id":"4","last_reported":1732802947,"current_range_meters":3600,"station_id":"ce4bh412rcd13ifvqdr0","pricing_plan_id":"cebpf4jnsgd1na2vs0mg"},{"bike_id":"9004073c-b02b-44b9-9a94-7da2ffefad52","system_id":"levelo_inurba_marseille","lat":43.28928,"lon":5.3664,"is_reserved":false,"is_disabled":false,"rental_uris":{"android":"levelo://app?vid=9004073c-b02b-44b9-9a94-7da2ffefad52","ios":"levelo://app?vid=9004073c-b02b-44b9-9a94-7da2ffefad52"},"vehicle_type_id":"4","last_reported":1732802947,"current_range_meters":12400,"station_id":"ce4bhap2rcd13ifvqek0","pricing_plan_id":"cebpf4jnsgd1na2vs0mg"},{"bike_id":"3206027e-6a2c-48f5-993d-f04c41e0809f","system_id":"levelo_inurba_marseille","lat":43.30879,"lon":5.39637,"is_reserved":false,"is_disabled":false,"rental_uris":{"android":"levelo://app?vid=3206027e-6a2c-48f5-993d-f04c41e0809f","ios":"levelo://app?vid=3206027e-6a2c-48f5-993d-f04c41e0809f"},"vehicle_type_id":"4","last_reported":1732802947,"current_range_meters":37600,"station_id":"ce4bh012rcd13ifvqcv0","pricing_plan_id":"cebpf4jnsgd1na2vs0mg"},{"bike_id":"d204ff42-6ea2-4115-b1d0-1a8a095ec384","system_id":"levelo_inurba_marseille","lat":43.2656,"lon":5.37302,"is_reserved":false,"is_disabled":false,"rental_uris":{"android":"levelo://app?vid=d204ff42-6ea2-4115-b1d0-1a8a095ec384","ios":"levelo://app?vid=d204ff42-6ea2-4115-b1d0-1a8a095ec384"},"vehicle_type_id":"4","last_reported":1732802947,"current_range_meters":20800,"station_id":"ce4bhg12rcd13ifvqf70","pricing_plan_id":"cebpf4jnsgd1na2vs0mg"},{"bike_id":"1130996c-ba07-491b-a538-69e310f93db2","system_id":"levelo_inurba_marseille","lat":43.27372,"lon":5.36258,"is_reserved":false,"is_disabled":false,"rental_uris":{"android":"levelo://app?vid=1130996c-ba07-491b-a538-69e310f93db2","ios":"levelo://app?vid=1130996c-ba07-491b-a538-69e310f93db2"},"vehicle_type_id":"4","last_reported":1732802947,"current_range_meters":38400,"station_id":"ce4bhbh2rcd13ifvqeo0","pricing_plan_id":"cebpf4jnsgd1na2vs0mg"},{"bike_id":"abf69472-83dc-4ffc-aa63-3ae5750ce5d1","system_id":"levelo_inurba_marseille","lat":43.286072,"lon":5.370704,"is_reserved":false,"is_disabled":false,"rental_uris":{"android":"levelo://app?vid=abf69472-83dc-4ffc-aa63-3ae5750ce5d1","ios":"levelo://app?vid=abf69472-83dc-4ffc-aa63-3ae5750ce5d1"},"vehicle_type_id":"4","last_reported":1732802947,"current_range_meters":22800,"station_id":"ce4bht12rcd13ifvqi60","pricing_plan_id":"cebpf4jnsgd1na2vs0mg"},{"bike_id":"7a3c8073-4799-43ae-8cbb-c96d441ba2c2","system_id":"levelo_inurba_marseille","lat":43.30805,"lon":5.38161,"is_reserved":false,"is_disabled":false,"rental_uris":{"android":"levelo://app?vid=7a3c8073-4799-43ae-8cbb-c96d441ba2c2","ios":"levelo://app?vid=7a3c8073-4799-43ae-8cbb-c96d441ba2c2"},"vehicle_type_id":"4","last_reported":1732802947,"current_range_meters":39200,"station_id":"ce4bgt12rcd13ifvqce0","pricing_plan_id":"cebpf4jnsgd1na2vs0mg"},{"bike_id":"ae3817ed-117b-4ae4-bc47-be03692973ed","system_id":"levelo_inurba_marseille","lat":43.23192,"lon":5.35557,"is_reserved":false,"is_disabled":false,"rental_uris":{"android":"levelo://app?vid=ae3817ed-117b-4ae4-bc47-be03692973ed","ios":"levelo://app?vid=ae3817ed-117b-4ae4-bc47-be03692973ed"},"vehicle_type_id":"4","last_reported":1732802947,"current_range_meters":25600,"station_id":"ce4bhu92rcd13ifvqi70","pricing_plan_id":"cebpf4jnsgd1na2vs0mg"},{"bike_id":"617d0220-e70a-479c-a975-2b4daa5c4166","system_id":"levelo_inurba_marseille","lat":43.23152,"lon":5.43716,"is_reserved":false,"is_disabled":true,"rental_uris":{"android":"levelo://app?vid=617d0220-e70a-479c-a975-2b4daa5c4166","ios":"levelo://app?vid=617d0220-e70a-479c-a975-2b4daa5c4166"},"vehicle_type_id":"4","last_reported":1732802947,"current_range_meters":0,"station_id":"ce4bhmp2rcd13ifvqgog","pricing_plan_id":"cebpf4jnsgd1na2vs0mg"},{"bike_id":"cf49fd94-d96d-4acd-8e86-931973c40e36","system_id":"levelo_inurba_marseille","lat":43.288518,"lon":5.358546,"is_reserved":false,"is_disabled":false,"rental_uris":{"android":"levelo://app?vid=cf49fd94-d96d-4acd-8e86-931973c40e36","ios":"levelo://app?vid=cf49fd94-d96d-4acd-8e86-931973c40e36"},