{"last_updated":1683961505,"ttl":30,"version":"2.2","data":{"bikes":[{"bike_id":"7cc72136-2914-4258-88d1-7b67816020a7","system_id":"levelo_inurba_marseille","lat":43.313391,"lon":5.36706,"is_reserved":false,"is_disabled":false,"rental_uris":{"android":"levelo://app?vid=7cc72136-2914-4258-88d1-7b67816020a7","ios":"levelo://app?vid=7cc72136-2914-4258-88d1-7b67816020a7"},"vehicle_type_id":"4","last_reported":1683961506,"current_range_meters":30000,"station_id":"ce4bgr92rcd13ifvqc6g","pricing_plan_id":"free"},{"bike_id":"587d7e94-da37-4de2-80e1-426004de5738","system_id":"levelo_inurba_marseille","lat":43.313391,"lon":5.36706,"is_reserved":false,"is_disabled":false,"rental_uris":{"android":"levelo://app?vid=587d7e94-da37-4de2-80e1-426004de5738","ios":"levelo://app?vid=587d7e94-da37-4de2-80e1-426004de5738"},"vehicle_type_id":"4","last_reported":1683961506,"current_range_meters":30800,"station_id":"ce4bgr92rcd13ifvqc6g","pricing_plan_id":"free"},{"bike_id":"142f6700-5d51-4b70-b614-ea33d4b62805","system_id":"levelo_inurba_marseille","lat":43.312239,"lon":5.368562,"is_reserved":false,"is_disabled":false,"rental_uris":{"android":"levelo://app?vid=142f6700-5d51-4b70-b614-ea33d4b62805","ios":"levelo://app?vid=142f6700-5d51-4b70-b614-ea33d4b62805"},"vehicle_type_id":"4","last_reported":1683961506,"current_range_meters":25600,"station_id":"ce4bgl92rcd13ifvqbq0","pricing_plan_id":"free"},{"bike_id":"74b03030-f764-44f2-a651-9c6e9c253c21","system_id":"levelo_inurba_marseille","lat":43.312239,"lon":5.368562,"is_reserved":false,"is_disabled":false,"rental_uris":{"android":"levelo://app?vid=74b03030-f764-44f2-a651-9c6e9c253c21","ios":"levelo://app?vid=74b03030-f764-44f2-a651-9c6e9c253c21"},"vehicle_type_id":"4","last_reported":1683961506,"current_range_meters":28400,"station_id":"ce4bgl92rcd13ifvqbq0","pricing_plan_id":"free"},{"bike_id":"7dec533e-2e53-48cf-b763-0250f0d304ba","system_id":"levelo_inurba_marseille","lat":43.312239,"lon":5.368562,"is_reserved":false,"is_disabled":false,"rental_uris":{"android":"levelo://app?vid=7dec533e-2e53-48cf-b763-0250f0d304ba","ios":"levelo://app?vid=7dec533e-2e53-48cf-b763-0250f0d304ba"},"vehicle_type_id":"4","last_reported":1683961506,"current_range_meters":26000,"station_id":"ce4bgl92rcd13ifvqbq0","pricing_plan_id":"free"},{"bike_id":"caf62a47-260f-4ea6-957c-2cd2b8faadb8","system_id":"levelo_inurba_marseille","lat":43.312239,"lon":5.368562,"is_reserved":false,"is_disabled":false,"rental_uris":{"android":"levelo://app?vid=caf62a47-260f-4ea6-957c-2cd2b8faadb8","ios":"levelo://app?vid=caf62a47-260f-4ea6-957c-2cd2b8faadb8"},"vehicle_type_id":"4","last_reported":1683961506,"current_range_meters":31200,"station_id":"ce4bgl92rcd13ifvqbq0","pricing_plan_id":"free"},{"bike_id":"5eee351a-9d6c-405e-a08f-a75d9552dc94","system_id":"levelo_inurba_marseille","lat":43.312239,"lon":5.368562,"is_reserved":false,"is_disabled":false,"rental_uris":{"android":"levelo://app?vid=5eee351a-9d6c-405e-a08f-a75d9552dc94","ios":"levelo://app?vid=5eee351a-9d6c-405e-a08f-a75d9552dc94"},"vehicle_type_id":"4","last_reported":1683961506,"current_range_meters":26400,"station_id":"ce4bgl92rcd13ifvqbq0","pricing_plan_id":"free"},{"bike_id":"6b7c3507-e295-43af-a5ca-a2173ed82b2f","system_id":"levelo_inurba_marseille","lat":43.312239,"lon":5.368562,"is_reserved":false,"is_disabled":false,"rental_uris":{"android":"levelo://app?vid=6b7c3507-e295-43af-a5ca-a2173ed82b2f","ios":"levelo://app?vid=6b7c3507-e295-43af-a5ca-a2173ed82b2f"},"vehicle_type_id":"4","last_reported":1683961506,"current_range_meters":27200,"station_id":"ce4bgl92rcd13ifvqbq0","pricing_plan_id":"free"},{"bike_id":"23a5928b-efc8-4079-96db-b2cf36516d93","system_id":"levelo_inurba_marseille","lat":43.314811,"lon":5.373103,"is_reserved":false,"is_disabled":false,"rental_uris":{"android":"levelo://app?vid=23a5928b-efc8-4079-96db-b2cf36516d93","ios":"levelo://app?vid=23a5928b-efc8-4079-96db-b2cf36516d93"},"vehicle_type_id":"4","last_reported":1683961506,"current_range_meters":31200,"station_id":"ce4bgt12rcd13ifvqcd0","pricing_plan_id":"free"},{"bike_id":"8ca62d06-aaef-4fe4-8a79-f8e1c3e6e068","system_id":"levelo_inurba_marseille","lat":43.314811,"lon":5.373104,"is_reserved":false,"is_disabled":false,"rental_uris":{"android":"levelo://app?vid=8ca62d06-aaef-4fe4-8a79-f8e1c3e6e068","ios":"levelo://app?vid=8ca62d06-aaef-4fe4-8a79-f8e1c3e6e068"},"vehicle_type_id":"4","last_reported":1683961506,"current_range_meters":31200,"station_id":"ce4bgt12rcd13ifvqcd0","pricing_plan_id":"free"},{"bike_id":"bb32fc1d-f279-4cbc-89e7-1481eca91c2c","system_id":"levelo_inurba_marseille","lat":43.314811,"lon":5.373103,"is_reserved":false,"is_disabled":false,"rental_uris":{"android":"levelo://app?vid=bb32fc1d-f279-4cbc-89e7-1481eca91c2c","ios":"levelo://app?vid=bb32fc1d-f279-4cbc-89e7-1481eca91c2c"},"vehicle_type_id":"4","last_reported":1683961506,"current_range_meters":31200,"station_id":"ce4bgt12rcd13ifvqcd0","pricing_plan_id":"free"},{"bike_id":"c62c9ca2-ae81-49ed-80b7-19de36aedda8","system_id":"levelo_inurba_marseille","lat":43.308614,"lon":5.372098,"is_reserved":false,"is_disabled":false,"rental_uris":{"android":"levelo://app?vid=c62c9ca2-ae81-49ed-80b7-19de36aedda8","ios":"levelo://app?vid=c62c9ca2-ae81-49ed-80b7-19de36aedda8"},"vehicle_type_id":"4","last_reported":1683961506,"current_range_meters":800,"station_id":"ce4bguh2rcd13ifvqckg","pricing_plan_id":"free"},{"bike_id":"e719c882-3281-4031-85fe-6e5791a0dc68","system_id":"levelo_inurba_marseille","lat":43.30891,"lon":5.37196,"is_reserved":false,"is_disabled":false,"rental_uris":{"android":"levelo://app?vid=e719c882-3281-4031-85fe-6e5791a0dc68","ios":"levelo://app?vid=e719c882-3281-4031-85fe-6e5791a0dc68"},"vehicle_type_id":"4","last_reported":1683961506,"current_range_meters":0,"station_id":"","pricing_plan_id":"free"},{"bike_id":"8048eea1-a21f-447e-ac45-82c78ea043e7","system_id":"levelo_inurba_marseille","lat":43.308614,"lon":5.372098,"is_reserved":false,"is_disabled":false,"rental_uris":{"android":"levelo://app?vid=8048eea1-a21f-447e-ac45-82c78ea043e7","ios":"levelo://app?vid=8048eea1-a21f-447e-ac45-82c78ea043e7"},"vehicle_type_id":"4","last_reported":1683961506,"current_range_meters":21600,"station_id":"ce4bguh2rcd13ifvqckg","pricing_plan_id":"free"},{"bike_id":"511d2a5e-2a61-4bbc-88f9-c1a7797768bf","system_id":"levelo_inurba_marseille","lat":43.30882,"lon":5.37191,"is_reserved":false,"is_disabled":false,"rental_uris":{"android":"levelo://app?vid=511d2a5e-2a61-4bbc-88f9-c1a7797768bf","ios":"levelo://app?vid=511d2a5e-2a61-4bbc-88f9-c1a7797768bf"},"vehicle_type_id":"4","last_reported":1683961506,"current_range_meters":30800,"station_id":"","pricing_plan_id":"free"},{"bike_id":"712d80da-4d8c-4f0b-845a-1ba448167734","system_id":"levelo_inurba_marseille","lat":43.308614,"lon":5.372098,"is_reserved":false,"is_disabled":false,"rental_uris":{"android":"levelo://app?vid=712d80da-4d8c-4f0b-845a-1ba448167734","ios":"levelo://app?vid=712d80da-4d8c-4f0b-845a-1ba448167734"},"vehicle_type_id":"4","last_reported":1683961506,"current_range_meters":17200,"station_id":"ce4bguh2rcd13ifvqckg","pricing_plan_id":"free"},{"bike_id":"9fba2d74-e12d-467e-bb49-3618cc52e11c","system_id":"levelo_inurba_marseille","lat":43.308614,"lon":5.372098,"is_reserved":false,"is_disabled":false,"rental_uris":{"android":"levelo://app?vid=9fba2d74-e12d-467e-bb49-3618cc52e11c","ios":"levelo://app?vid=9fba2d74-e12d-467e-bb49-3618cc52e11c"},"vehicle_type_id":"4","last_reported":1683961506,"current_range_meters":6400,"station_id":"ce4bguh2rcd13ifvqckg","pricing_plan_id":"free"},{"bike_id":"bf5a8e3b-df88-409d-a143-4ca353fd525b","system_id":"levelo_inurba_marseille","lat":43.305368,"lon":5.367343,"is_reserved":false,"is_disabled":false,"rental_uris":{"android":"levelo://app?vid=bf5a8e3b-df88-409d-a143-4ca353fd525b","ios":"levelo://app?vid=bf5a8e3b-df88-409d-a143-4ca353fd525b"},"vehicle_type_id":"4","last_reported":1683961506,"current_range_meters":29200,"station_id":"ce4bgrp2rcd13ifvqc9g","pricing_plan_id":"free"},{"bike_id":"f0efbac9-c44e-43a0-b949-c5984588d242","system_id":"levelo_inurba_marseille","lat":43.305989,"lon":5.37225,"is_reserved":false,"is_disabled":false,"rental_uris":{"android":"levelo://app?vid=f0efbac9-c44e-43a0-b949-c5984588d242","ios":"levelo://app?vid=f0efbac9-c44e-43a0-b949-c5984588d242"},"vehicle_type_id":"4","last_reported":1683961506,"current_range_meters":25600,"station_id":"ce4bgqh2rcd13ifvqc4g","pricing_plan_id":"free"},{"bike_id":"0caf1618-f7fa-4678-b99b-3e0a5b7b0931","system_id":"levelo_inurba_marseille","lat":43.305989,"lon":5.37225,"is_reserved":false,"is_disabled":false,"rental_uris":{"android":"levelo://app?vid=0caf1618-f7fa-4678-b99b-3e0a5b7b0931","ios":"levelo://app?vid=0caf1618-f7fa-4678-b99b-3e0a5b7b0931"},"vehicle_type_id":"4","last_reported":1683961506,"current_range_meters":30400,"station_id":"ce4bgqh2rcd13ifvqc4g","pricing_plan_id":"free"},{"bike_id":"f8ee7ff3-b0d2-4a78-a900-68376d65fea8","system_id":"levelo_inurba_marseille","lat":43.305989,"lon":5.37225,"is_reserved":false,"is_disabled":false,"rental_uris":{"android":"levelo://app?vid=f8ee7ff3-b0d2-4a78-a900-68376d65fea8","ios":"levelo://app?vid=f8ee7ff3-b0d2-4a78-a900-68376d65fea8"},"vehicle_type_id":"4","last_reported":1683961506,"current_range_meters":31200,"station_id":"ce4bgqh2rcd13ifvqc4g","pricing_plan_id":"free"},{"bike_id":"151d50bc-3aee-48d5-9527-783274464e00","system_id":"levelo_inurba_marseille","lat":43.31188,"lon":5.37754,"is_reserved":false,"is_disabled":false,"rental_uris":{"android":"levelo://app?vid=151d50bc-3aee-48d5-9527-783274464e00","ios":"levelo://app?vid=151d50bc-3aee-48d5-9527-783274464e00"},"vehicle_type_id":"4","last_reported":1683961506,"current_range_meters":14000,"station_id":"","pricing_plan_id":"free"},{"bike_id":"7cd13da4-d463-41fa-9a5c-07bf88f10465","system_id":"levelo_inurba_marseille","lat":43.305989,"lon":5.37225,"is_reserved":false,"is_disabled":false,"rental_uris":{"android":"levelo://app?vid=7cd13da4-d463-41fa-9a5c-07bf88f10465","ios":"levelo://app?vid=7cd13da4-d463-41fa-9a5c-07bf88f10465"},"vehicle_type_id":"4","last_reported":1683961506,"current_range_meters":26400,"station_id":"ce4bgqh2rcd13ifvqc4g","pricing_plan_id":"free"},{"bike_id":"5759ed38-a7c3-4776-ad5b-cfeaa09b7df1","system_id":"levelo_inurba_marseille","lat":43.305989,"lon":5.37225,"is_reserved":false,"is_disabled":false,"rental_uris":{"android":"levelo://app?vid=5759ed38-a7c3-4776-ad5b-cfeaa09b7df1","ios":"levelo://app?vid=5759ed38-a7c3-4776-ad5b-cfeaa09b7df1"},"vehicle_type_id":"4","last_reported":1683961506,"current_range_meters":31200,"station_id":"ce4bgqh2rcd13ifvqc4g","pricing_plan_id":"free"},{"bike_id":"fdd68003-b2b2-4030-b38a-8e9b60c97505","system_id":"levelo_inurba_marseille","lat":43.305989,"lon":5.37225,"is_reserved":false,"is_disabled":false,"rental_uris":{"android":"levelo://app?vid=fdd68003-b2b2-4030-b38a-8e9b60c97505","ios":"levelo://app?vid=fdd68003-b2b2-4030-b38a-8e9b60c97505"},"vehicle_type_id":"4","last_reported":1683961506,"current_range_meters":21200,"station_id":"ce4bgqh2rcd13ifvqc4g","pricing_plan_id":"free"},{"bike_id":"30751950-d1dd-48b7-a194-28aeee355b9e","system_id":"levelo_inurba_marseille","lat":43.31119,"lon":5.37776,"is_reserved":false,"is_disabled":false,"rental_uris":{"android":"levelo://app?vid=30751950-d1dd-48b7-a194-28aeee355b9e","ios":"levelo://app?vid=30751950-d1dd-48b7-a194-28aeee355b9e"},"vehicle_type_id":"4","last_reported":1683961506,"current_range_meters":30800,"station_id":"ce4bgt92rcd13ifvqcg0","pricing_plan_id":"free"},{"bike_id":"483b2f58-eb4c-4e7b-9adb-89840657b388","system_id":"levelo_inurba_marseille","lat":43.317075,"lon":5.377367,"is_reserved":false,"is_disabled":false,"rental_uris":{"android":"levelo://app?vid=483b2f58-eb4c-4e7b-9adb-89840657b388","ios":"levelo://app?vid=483b2f58-eb4c-4e7b-9adb-89840657b388"},"vehicle_type_id":"4","last_reported":1683961506,"current_range_meters":20000,"station_id":"ce4bgth2rcd13ifvqch0","pricing_plan_id":"free"},{"bike_id":"5c118e04-8d69-4616-941e-4639c9fe4944","system_id":"levelo_inurba_marseille","lat":43.317075,"lon":5.377367,"is_reserved":false,"is_disabled":false,"rental_uris":{"android":"levelo://app?vid=5c118e04-8d69-4616-941e-4639c9fe4944","ios":"levelo://app?vid=5c118e04-8d69-4616-941e-4639c9fe4944"},"vehicle_type_id":"4","last_reported":1683961506,"current_range_meters":28800,"station_id":"ce4bgth2rcd13ifvqch0","pricing_plan_id":"free"},{"bike_id":"d1f7da52-f8f0-4ddf-abb3-24dd9a46784d","system_id":"levelo_inurba_marseille","lat":43.315289,"lon":5.380349,"is_reserved":false,"is_disabled":false,"rental_uris":{"android":"levelo://app?vid=d1f7da52-f8f0-4ddf-abb3-24dd9a46784d","ios":"levelo://app?vid=d1f7da52-f8f0-4ddf-abb3-24dd9a46784d"},"vehicle_type_id":"4","last_reported":1683961506,"current_range_meters":30000,"station_id":"ce4bhsp2rcd13ifvqi50","pricing_plan_id":"free"},{"bike_id":"1fe5678a-8233-41af-b4ad-981b9c577067","system_id":"levelo_inurba_marseille","lat":43.315289,"lon":5.380349,"is_reserved":false,"is_disabled":false,"rental_uris":{"android":"levelo://app?vid=1fe5678a-8233-41af-b4ad-981b9c577067","ios":"levelo://app?vid=1fe5678a-8233-41af-b4ad-981b9c577067"},"vehicle_type_id":"4","last_reported":1683961506,"current_range_meters":28800,"station_id":"ce4bhsp2rcd13ifvqi50","pricing_plan_id":"free"},{"bike_id":"3be21e34-8a45-4c8f-90fa-eed469a4b596","system_id":"levelo_inurba_marseille","lat":43.304606,"lon":5.379026,"is_reserved":false,"is_disabled":false,"rental_uris":{"android":"levelo://app?vid=3be21e34-8a45-4c8f-90fa-eed469a4b596","ios":"levelo://app?vid=3be21e34-8a45-4c8f-90fa-eed469a4b596"},"vehicle_type_id":"4","last_reported":1683961506,"current_range_meters":27600,"station_id":"ce4bgup2rcd13ifvqcn0","pricing_plan_id":"free"},{"bike_id":"8b47ea53-5d97-44ee-9714-7e51bb264dac","system_id":"levelo_inurba_marseille","lat":43.304606,"lon":5.379026,"is_reserved":false,"is_disabled":false,"rental_uris":{"android":"levelo://app?vid=8b47ea53-5d97-44ee-9714-7e51bb264dac","ios":"levelo://app?vid=8b47ea53-5d97-44ee-9714-7e51bb264dac"},"vehicle_type_id":"4","last_reported":1683961506,"current_range_meters":31200,"station_id":"ce4bgup2rcd13ifvqcn0","pricing_plan_id":"free"},{"bike_id":"c980a709-f30e-41b2-b392-a60cca74bc8c","system_id":"levelo_inurba_marseille","lat":43.304606,"lon":5.379026,"is_reserved":false,"is_disabled":false,"rental_uris":{"android":"levelo://app?vid=c980a709-f30e-41b2-b392-a60cca74bc8c","ios":"levelo://app?vid=c980a709-f30e-41b2-b392-a60cca74bc8c"},"vehicle_type_id":"4","last_reported":1683961506,"current_range_meters":31200,"station_id":"ce4bgup2rcd13ifvqcn0","pricing_plan_id":"free"},{"bike_id":"855d1619-04b0-40fe-84c8-ba142ccc5162","system_id":"levelo_inurba_marseille","lat":43.304606,"lon":5.379026,"is_reserved":false,"is_disabled":false,"rental_uris":{"android":"levelo://app?vid=855d1619-04b0-40fe-84c8-ba142ccc5162","ios":"levelo://app?vid=855d1619-04b0-40fe-84c8-ba142ccc5162"},"vehicle_type_id":"4","last_reported":1683961506,"current_range_meters":10000,"station_id":"ce4bgup2rcd13ifvqcn0","pricing_plan_id":"free"},{"bike_id":"003d582e-7e5f-4a87-a622-32e3086b14b0","system_id":"levelo_inurba_marseille","lat":43.304606,"lon":5.379026,"is_reserved":false,"is_disabled":false,"rental_uris":{"android":"levelo://app?vid=003d582e-7e5f-4a87-a622-32e3086b14b0","ios":"levelo://app?vid=003d582e-7e5f-4a87-a622-32e3086b14b0"},"vehicle_type_id":"4","last_reported":1683961506,"current_range_meters":30800,"station_id":"ce4bgup2rcd13ifvqcn0","pricing_plan_id":"free"},{"bike_id":"793c250e-af9f-4886-92ae-d9a8ffeaec64","system_id":"levelo_inurba_marseille","lat":43.304606,"lon":5.379026,"is_reserved":false,"is_disabled":false,"rental_uris":{"android":"levelo://app?vid=793c250e-af9f-4886-92ae-d9a8ffeaec64","ios":"levelo://app?vid=793c250e-af9f-4886-92ae-d9a8ffeaec64"},"vehicle_type_id":"4","last_reported":1683961506,"current_range_meters":26800,"station_id":"ce4bgup2rcd13ifvqcn0","pricing_plan_id":"free"},{"bike_id":"ef8a407f-f67d-4908-9c92-73365ec44eab","system_id":"levelo_inurba_marseille","lat":43.304606,"lon":5.379026,"is_reserved":false,"is_disabled":false,"rental_uris":{"android":"levelo://app?vid=ef8a407f-f67d-4908-9c92-73365ec44eab","ios":"levelo://app?vid=ef8a407f-f67d-4908-9c92-73365ec44eab"},"vehicle_type_id":"4","last_reported":1683961506,"current_range_meters":26400,"station_id":"ce4bgup2rcd13ifvqcn0","pricing_plan_id":"free"},{"bike_id":"5f5e7486-2140-4e8d-9afa-f0c197b97c26","system_id":"levelo_inurba_marseille","lat":43.304606,"lon":5.379026,"is_reserved":false,"is_disabled":false,"rental_uris":{"android":"levelo://app?vid=5f5e7486-2140-4e8d-9afa-f0c197b97c26","ios":"levelo://app?vid=5f5e7486-2140-4e8d-9afa-f0c197b97c26"},"vehicle_type_id":"4","last_reported":1683961506,"current_range_meters":17600,"station_id":"ce4bgup2rcd13ifvqcn0","pricing_plan_id":"free"},{"bike_id":"60680915-fb24-4b19-bfde-912f36d2d614","system_id":"levelo_inurba_marseille","lat":43.304606,"lon":5.379026,"is_reserved":false,"is_disabled":false,"rental_uris":{"android":"levelo://app?vid=60680915-fb24-4b19-bfde-912f36d2d614","ios":"levelo://app?vid=60680915-fb24-4b19-bfde-912f36d2d614"},"vehicle_type_id":"4","last_reported":1683961506,"current_range_meters":30400,"station_id":"ce4bgup2rcd13ifvqcn0","pricing_plan_id":"free"},{"bike_id":"0368c736-1ed6-483e-bcad-e801795778b1","system_id":"levelo_inurba_marseille","lat":43.304606,"lon":5.379026,"is_reserved":false,"is_disabled":false,"rental_uris":{"android":"levelo://app?vid=0368c736-1ed6-483e-bcad-e801795778b1","ios":"levelo://app?vid=0368c736-1ed6-483e-bcad-e801795778b1"},"vehicle_type_id":"4","last_reported":1683961506,"current_range_meters":5600,"station_id":"ce4bgup2rcd13ifvqcn0","pricing_plan_id":"free"},{"bike_id":"d84ee9cf-1ad7-45eb-aed2-5b50fce817a4","system_id":"levelo_inurba_marseille","lat":43.304606,"lon":5.379026,"is_reserved":false,"is_disabled":false,"rental_uris":{"android":"levelo://app?vid=d84ee9cf-1ad7-45eb-aed2-5b50fce817a4","ios":"levelo://app?vid=d84ee9cf-1ad7-45eb-aed2-5b50fce817a4"},"vehicle_type_id":"4","last_reported":1683961506,"current_range_meters":26800,"station_id":"ce4bgup2rcd13ifvqcn0","pricing_plan_id":"free"},{"bike_id":"7fd58bde-e9d0-4819-bf16-e0c722621005","system_id":"levelo_inurba_marseille","lat":43.304606,"lon":5.379026,"is_reserved":false,"is_disabled":false,"rental_uris":{"android":"levelo://app?vid=7fd58bde-e9d0-4819-bf16-e0c722621005","ios":"levelo://app?vid=7fd58bde-e9d0-4819-bf16-e0c722621005"},"vehicle_type_id":"4","last_reported":1683961506,"current_range_meters":17200,"station_id":"ce4bgup2rcd13ifvqcn0","pricing_plan_id":"free"},{"bike_id":"0afad3e0-6610-44c3-bd84-886f6bd0b676","system_id":"levelo_inurba_marseille","lat":43.304606,"lon":5.379026,"is_reserved":false,"is_disabled":false,"rental_uris":{"android":"levelo://app?vid=0afad3e0-6610-44c3-bd84-886f6bd0b676","ios":"levelo://app?vid=0afad3e0-6610-44c3-bd84-886f6bd0b676"},"vehicle_type_id":"4","last_reported":1683961506,"current_range_meters":31200,"station_id":"ce4bgup2rcd13ifvqcn0","pricing_plan_id":"free"},{"bike_id":"5ebc2b59-57e9-4041-8cfa-d08e20a497fb","system_id":"levelo_inurba_marseille","lat":43.304606,"lon":5.379026,"is_reserved":false,"is_disabled":false,"rental_uris":{"android":"levelo://app?vid=5ebc2b59-57e9-4041-8cfa-d08e20a497fb","ios":"levelo://app?vid=5ebc2b59-57e9-4041-8cfa-d08e20a497fb"},"vehicle_type_id":"4","last_reported":1683961506,"current_range_meters":24000,"station_id":"ce4bgup2rcd13ifvqcn0","pricing_plan_id":"free"},{"bike_id":"4f89d854-5137-4e7e-9f60-644848ba5316","system_id":"levelo_inurba_marseille","lat":43.304606,"lon":5.379026,"is_reserved":false,"is_disabled":false,"rental_uris":{"android":"levelo://app?vid=4f89d854-5137-4e7e-9f60-644848ba5316","ios":"levelo://app?vid=4f89d854-5137-4e7e-9f60-644848ba5316"},"vehicle_type_id":"4","last_reported":1683961506,"current_range_meters":20800,"station_id":"ce4bgup2rcd13ifvqcn0","pricing_plan_id":"free"},{"bike_id":"7995e2c4-6947-4e35-88a3-bc0b2280ebad","system_id":"levelo_inurba_marseille","lat":43.304606,"lon":5.379026,"is_reserved":false,"is_disabled":false,"rental_uris":{"android":"levelo://app?vid=7995e2c4-6947-4e35-88a3-bc0b2280ebad","ios":"levelo://app?vid=7995e2c4-6947-4e35-88a3-bc0b2280ebad"},"vehicle_type_id":"4","last_reported":1683961506,"current_range_meters":22400,"station_id":"ce4bgup2rcd13ifvqcn0","pricing_plan_id":"free"},{"bike_id":"2dde4dcf-7c45-4c6a-8422-da8ba7b671b6","system_id":"levelo_inurba_marseille","lat":43.304606,"lon":5.379026,"is_reserved":false,"is_disabled":false,"rental_uris":{"android":"levelo://app?vid=2dde4dcf-7c45-4c6a-8422-da8ba7b671b6","ios":"levelo://app?vid=2dde4dcf-7c45-4c6a-8422-da8ba7b671b6"},"vehicle_type_id":"4","last_reported":1683961506,"current_range_meters":28400,"station_id":"ce4bgup2rcd13ifvqcn0","pricing_plan_id":"free"},{"bike_id":"e29c878a-d523-412a-909b-22c51e7e16d2","system_id":"levelo_inurba_marseille","lat":43.304606,"lon":5.379026,"is_reserved":false,"is_disabled":false,"rental_uris":{"android":"levelo://app?vid=e29c878a-d523-412a-909b-22c51e7e16d2","ios":"levelo://app?vid=e29c878a-d523-412a-909b-22c51e7e16d2"},"vehicle_type_id":"4","last_reported":1683961506,"current_range_meters":25200,"station_id":"ce4bgup2rcd13ifvqcn0","pricing_plan_id":"free"},{"bike_id":"06f6366e-3f49-4fb2-a3b1-353ce791950b","system_id":"levelo_inurba_marseille","lat":43.304606,"lon":5.379026,"is_reserved":false,"is_disabled":false,"rental_uris":{"android":"levelo://app?vid=06f6366e-3f49-4fb2-a3b1-353ce791950b","ios":"levelo://app?vid=06f6366e-3f49-4fb2-a3b1-353ce791950b"},"vehicle_type_id":"4","last_reported":1683961506,"current_range_meters":29600,"station_id":"ce4bgup2rcd13ifvqcn0","pricing_plan_id":"free"},{"bike_id":"c49b7f70-ee92-443f-8de7-4d535d6f0ac6","system_id":"levelo_inurba_marseille","lat":43.304606,"lon":5.379026,"is_reserved":false,"is_disabled":false,"rental_uris":{"android":"levelo://app?vid=c49b7f70-ee92-443f-8de7-4d535d6f0ac6","ios":"levelo://app?vid=c49b7f70-ee92-443f-8de7-4d535d6f0ac6"},"vehicle_type_id":"4","last_reported":1683961506,"current_range_meters":5200,"station_id":"ce4bgup2rcd13ifvqcn0","pricing_plan_id":"free"},{"bike_id":"f1d07013-60d0-4f4c-a09b-d83bac791477","system_id":"levelo_inurba_marseille","lat":43.30139,"lon":5.37416,"is_reserved":false,"is_disabled":false,"rental_uris":{"android":"levelo://app?vid=f1d07013-60d0-4f4c-a09b-d83bac791477","ios":"levelo://app?vid=f1d07013-60d0-4f4c-a09b-d83bac791477"},"vehicle_type_id":"4","last_reported":1683961506,"current_range_meters":8400,"station_id":"ce4bgs92rcd13ifvqcc0","pricing_plan_id":"free"},{"bike_id":"09b041e6-6074-4df7-a048-f6981c376cfd","system_id":"levelo_inurba_marseille","lat":43.31378,"lon":5.38514,"is_reserved":false,"is_disabled":false,"rental_uris":{"android":"levelo://app?vid=09b041e6-6074-4df7-a048-f6981c376cfd","ios":"levelo://app?vid=09b041e6-6074-4df7-a048-f6981c376cfd"},"vehicle_type_id":"4","last_reported":1683961506,"current_range_meters":18400,"station_id":"","pricing_plan_id":"free"},{"bike_id":"c9cd8088-976a-4109-a363-0116a283af34","system_id":"levelo_inurba_marseille","lat":43.305364,"lon":5.384119,"is_reserved":false,"is_disabled":false,"rental_uris":{"android":"levelo://app?vid=c9cd8088-976a-4109-a363-0116a283af34","ios":"levelo://app?vid=c9cd8088-976a-4109-a363-0116a283af34"},"vehicle_type_id":"4","last_reported":1683961506,"current_range_meters":30800,"station_id":"ce4bgg92rcd13ifvqb30","pricing_plan_id":"free"},{"bike_id":"ecec7bb5-f8c4-498b-8c3e-4405379a852c","system_id":"levelo_inurba_marseille","lat":43.305364,"lon":5.384119,"is_reserved":false,"is_disabled":false,"rental_uris":{"android":"levelo://app?vid=ecec7bb5-f8c4-498b-8c3e-4405379a852c","ios":"levelo://app?vid=ecec7bb5-f8c4-498b-8c3e-4405379a852c"},"vehicle_type_id":"4","last_reported":1683961506,"current_range_meters":27600,"station_id":"ce4bgg92rcd13ifvqb30","pricing_plan_id":"free"},{"bike_id":"391f8dd7-0f3a-4146-8736-d720741cd62b","system_id":"levelo_inurba_marseille","lat":43.305364,"lon":5.384119,"is_reserved":false,"is_disabled":false,"rental_uris":{"android":"levelo://app?vid=391f8dd7-0f3a-4146-8736-d720741cd62b","ios":"levelo://app?vid=391f8dd7-0f3a-4146-8736-d720741cd62b"},"vehicle_type_id":"4","last_reported":1683961506,"current_range_meters":21200,"station_id":"ce4bgg92rcd13ifvqb30","pricing_plan_id":"free"},{"bike_id":"7321ca39-b466-4173-b743-8e2a180215ba","system_id":"levelo_inurba_marseille","lat":43.298433,"lon":5.362774,"is_reserved":false,"is_disabled":false,"rental_uris":{"android":"levelo://app?vid=7321ca39-b466-4173-b743-8e2a180215ba","ios":"levelo://app?vid=7321ca39-b466-4173-b743-8e2a180215ba"},"vehicle_type_id":"4","last_reported":1683961506,"current_range_meters":14400,"station_id":"ce4bgpp2rcd13ifvqc3g","pricing_plan_id":"free"},{"bike_id":"89023bbe-2daa-49ee-84fa-85cf631fd92e","system_id":"levelo_inurba_marseille","lat":43.298433,"lon":5.362774,"is_reserved":false,"is_disabled":false,"rental_uris":{"android":"levelo://app?vid=89023bbe-2daa-49ee-84fa-85cf631fd92e","ios":"levelo://app?vid=89023bbe-2daa-49ee-84fa-85cf631fd92e"},"vehicle_type_id":"4","last_reported":1683961506,"current_range_meters":31200,"station_id":"ce4bgpp2rcd13ifvqc3g","pricing_plan_id":"free"},{"bike_id":"868c18a7-1b45-4329-b5af-1fb35a84865f","system_id":"levelo_inurba_marseille","lat":43.298433,"lon":5.362774,"is_reserved":false,"is_disabled":false,"rental_uris":{"android":"levelo://app?vid=868c18a7-1b45-4329-b5af-1fb35a84865f","ios":"levelo://app?vid=868c18a7-1b45-4329-b5af-1fb35a84865f"},"vehicle_type_id":"4","last_reported":1683961506,"current_range_meters":10800,"station_id":"ce4bgpp2rcd13ifvqc3g","pricing_plan_id":"free"},{"bike_id":"fc24661c-65e4-4e9d-9317-bc822785f848","system_id":"levelo_inurba_marseille","lat":43.299243,"lon":5.374807,"is_reserved":false,"is_disabled":false,"rental_uris":{"android":"levelo://app?vid=fc24661c-65e4-4e9d-9317-bc822785f848","ios":"levelo://app?vid=fc24661c-65e4-4e9d-9317-bc822785f848"},"vehicle_type_id":"4","last_reported":1683961506,"current_range_meters":25600,"station_id":"ce4bgjh2rcd13ifvqbg0","pricing_plan_id":"free"},{"bike_id":"7cbd64a7-b506-417e-a74d-a882027e7932","system_id":"levelo_inurba_marseille","lat":43.311722,"lon":5.387247,"is_reserved":false,"is_disabled":false,"rental_uris":{"android":"levelo://app?vid=7cbd64a7-b506-417e-a74d-a882027e7932","ios":"levelo://app?vid=7cbd64a7-b506-417e-a74d-a882027e7932"},"vehicle_type_id":"4","last_reported":1683961506,"current_range_meters":30000,"station_id":"ce4bgv12rcd13ifvqcp0","pricing_plan_id":"free"},{"bike_id":"9b868d79-d1a9-4293-9384-f7dcfc79efe6","system_id":"levelo_inurba_marseille","lat":43.311722,"lon":5.387247,"is_reserved":false,"is_disabled":false,"rental_uris":{"android":"levelo://app?vid=9b868d79-d1a9-4293-9384-f7dcfc79efe6","ios":"levelo://app?vid=9b868d79-d1a9-4293-9384-f7dcfc79efe6"},"vehicle_type_id":"4","last_reported":1683961506,"current_range_meters":30400,"station_id":"ce4bgv12rcd13ifvqcp0","pricing_plan_id":"free"},{"bike_id":"13eb6743-118b-4283-8067-760903590188","system_id":"levelo_inurba_marseille","lat":43.311722,"lon":5.387247,"is_reserved":false,"is_disabled":false,"rental_uris":{"android":"levelo://app?vid=13eb6743-118b-4283-8067-760903590188","ios":"levelo://app?vid=13eb6743-118b-4283-8067-760903590188"},"vehicle_type_id":"4","last_reported":1683961506,"current_range_meters":29200,"station_id":"ce4bgv12rcd13ifvqcp0","pricing_plan_id":"free"},{"bike_id":"2f96f4b7-d3f1-4b87-b98f-caf50ba6d13d","system_id":"levelo_inurba_marseille","lat":43.32772,"lon":5.36707,"is_reserved":false,"is_disabled":false,"rental_uris":{"android":"levelo://app?vid=2f96f4b7-d3f1-4b87-b98f-caf50ba6d13d","ios":"levelo://app?vid=2f96f4b7-d3f1-4b87-b98f-caf50ba6d13d"},"vehicle_type_id":"4","last_reported":1683961506,"current_range_meters":13200,"station_id":"","pricing_plan_id":"free"},{"bike_id":"7ed691a6-14f9-40fa-8c8b-aa8a2f0c7ff6","system_id":"levelo_inurba_marseille","lat":43.297774,"lon":5.370875,"is_reserved":false,"is_disabled":false,"rental_uris":{"android":"levelo://app?vid=7ed691a6-14f9-40fa-8c8b-aa8a2f0c7ff6","ios":"levelo://app?vid=7ed691a6-14f9-40fa-8c8b-aa8a2f0c7ff6"},"vehicle_type_id":"4","last_reported":1683961506,"current_range_meters":30400,"station_id":"ce4bgop2rcd13ifvqc1g","pricing_plan_id":"free"},{"bike_id":"7a070e52-967e-4cda-a050-dbf621e582d9","system_id":"levelo_inurba_marseille","lat":43.297774,"lon":5.370875,"is_reserved":false,"is_disabled":false,"rental_uris":{"android":"levelo://app?vid=7a070e52-967e-4cda-a050-dbf621e582d9","ios":"levelo://app?vid=7a070e52-967e-4cda-a050-dbf621e582d9"},"vehicle_type_id":"4","last_reported":1683961506,"current_range_meters":29200,"station_id":"ce4bgop2rcd13ifvqc1g","pricing_plan_id":"free"},{"bike_id":"0474487f-288e-4606-b7d4-e28d2ee99d8c","system_id":"levelo_inurba_marseille","lat":43.297794,"lon":5.370888,"is_reserved":false,"is_disabled":false,"rental_uris":{"android":"levelo://app?vid=0474487f-288e-4606-b7d4-e28d2ee99d8c","ios":"levelo://app?vid=0474487f-288e-4606-b7d4-e28d2ee99d8c"},"vehicle_type_id":"4","last_reported":1683961506,"current_range_meters":24000,"station_id":"ce4bgop2rcd13ifvqc1g","pricing_plan_id":"free"},{"bike_id":"86719306-0ddc-4576-a656-570a4d550f46","system_id":"levelo_inurba_marseille","lat":43.328371,"lon":5.366912,"is_reserved":false,"is_disabled":false,"rental_uris":{"android":"levelo://app?vid=86719306-0ddc-4576-a656-570a4d550f46","ios":"levelo://app?vid=86719306-0ddc-4576-a656-570a4d550f46"},"vehicle_type_id":"4","last_reported":1683961506,"current_range_meters":30400,"station_id":"ce4bhs92rcd13ifvqi0g","pricing_plan_id":"free"},{"bike_id":"2f534b25-3d76-4ad4-bcb9-91101064834c","system_id":"levelo_inurba_marseille","lat":43.328371,"lon":5.366912,"is_reserved":false,"is_disabled":false,"rental_uris":{"android":"levelo://app?vid=2f534b25-3d76-4ad4-bcb9-91101064834c","ios":"levelo://app?vid=2f534b25-3d76-4ad4-bcb9-91101064834c"},"vehicle_type_id":"4","last_reported":1683961506,"current_range_meters":19200,"station_id":"ce4bhs92rcd13ifvqi0g","pricing_plan_id":"free"},{"bike_id":"2ede4aa6-cb68-4708-8adb-810b72dccf8e","system_id":"levelo_inurba_marseille","lat":43.328371,"lon":5.366912,"is_reserved":false,"is_disabled":false,"rental_uris":{"android":"levelo://app?vid=2ede4aa6-cb68-4708-8adb-810b72dccf8e","ios":"levelo://app?vid=2ede4aa6-cb68-4708-8adb-810b72dccf8e"},"vehicle_type_id":"4","last_reported":1683961506,"current_range_meters":6000,"station_id":"ce4bhs92rcd13ifvqi0g","pricing_plan_id":"free"},{"bike_id":"05dd3660-fb8d-4649-b95f-77a48f876534","system_id":"levelo_inurba_marseille","lat":43.32829,"lon":5.3668,"is_reserved":false,"is_disabled":false,"rental_uris":{"android":"levelo://app?vid=05dd3660-fb8d-4649-b95f-77a48f876534","ios":"levelo://app?vid=05dd3660-fb8d-4649-b95f-77a48f876534"},"vehicle_type_id":"4","last_reported":1683961506,"current_range_meters":3600,"station_id":"ce4bhs92rcd13ifvqi0g","pricing_plan_id":"free"},{"bike_id":"0a5c6e50-cd6f-4800-a0e5-993347926bc8","system_id":"levelo_inurba_marseille","lat":43.328371,"lon":5.366912,"is_reserved":false,"is_disabled":false,"rental_uris":{"android":"levelo://app?vid=0a5c6e50-cd6f-4800-a0e5-993347926bc8","ios":"levelo://app?vid=0a5c6e50-cd6f-4800-a0e5-993347926bc8"},"vehicle_type_id":"4","last_reported":1683961506,"current_range_meters":13200,"station_id":"ce4bhs92rcd13ifvqi0g","pricing_plan_id":"free"},{"bike_id":"d2fd4a69-1781-4d10-b230-5796d7806c38","system_id":"levelo_inurba_marseille","lat":43.328371,"lon":5.366912,"is_reserved":false,"is_disabled":false,"rental_uris":{"android":"levelo://app?vid=d2fd4a69-1781-4d10-b230-5796d7806c38","ios":"levelo://app?vid=d2fd4a69-1781-4d10-b230-5796d7806c38"},"vehicle_type_id":"4","last_reported":1683961506,"current_range_meters":3200,"station_id":"ce4bhs92rcd13ifvqi0g","pricing_plan_id":"free"},{"bike_id":"173c35b5-642e-4cd5-9a42-cf3fc117f00c","system_id":"levelo_inurba_marseille","lat":43.328371,"lon":5.366912,"is_reserved":false,"is_disabled":false,"rental_uris":{"android":"levelo://app?vid=173c35b5-642e-4cd5-9a42-cf3fc117f00c","ios":"levelo://app?vid=173c35b5-642e-4cd5-9a42-cf3fc117f00c"},"vehicle_type_id":"4","last_reported":1683961506,"current_range_meters":19200,"station_id":"ce4bhs92rcd13ifvqi0g","pricing_plan_id":"free"},{"bike_id":"35c64b45-67cb-4db8-8dde-84eb3cae14a9","system_id":"levelo_inurba_marseille","lat":43.328371,"lon":5.366912,"is_reserved":false,"is_disabled":false,"rental_uris":{"android":"levelo://app?vid=35c64b45-67cb-4db8-8dde-84eb3cae14a9","ios":"levelo://app?vid=35c64b45-67cb-4db8-8dde-84eb3cae14a9"},"vehicle_type_id":"4","last_reported":1683961506,"current_range_meters":30000,"station_id":"ce4bhs92rcd13ifvqi0g","pricing_plan_id":"free"},{"bike_id":"053fa0fe-d0b8-4b77-9e9a-95a5b916daf2","system_id":"levelo_inurba_marseille","lat":43.328371,"lon":5.366912,"is_reserved":false,"is_disabled":false,"rental_uris":{"android":"levelo://app?vid=053fa0fe-d0b8-4b77-9e9a-95a5b916daf2","ios":"levelo://app?vid=053fa0fe-d0b8-4b77-9e9a-95a5b916daf2"},"vehicle_type_id":"4","last_reported":1683961506,"current_range_meters":1600,"station_id":"ce4bhs92rcd13ifvqi0g","pricing_plan_id":"free"},{"bike_id":"8ea15e6b-0302-4f6b-a369-2130aebae5f9","system_id":"levelo_inurba_marseille","lat":43.328371,"lon":5.366912,"is_reserved":false,"is_disabled":false,"rental_uris":{"android":"levelo://app?vid=8ea15e6b-0302-4f6b-a369-2130aebae5f9","ios":"levelo://app?vid=8ea15e6b-0302-4f6b-a369-2130aebae5f9"},"vehicle_type_id":"4","last_reported":1683961506,"current_range_meters":14000,"station_id":"ce4bhs92rcd13ifvqi0g","pricing_plan_id":"free"},{"bike_id":"4e8d495f-48a2-4a59-a0a4-e2a0bd5ad11a","system_id":"levelo_inurba_marseille","lat":43.328371,"lon":5.366912,"is_reserved":false,"is_disabled":false,"rental_uris":{"android":"levelo://app?vid=4e8d495f-48a2-4a59-a0a4-e2a0bd5ad11a","ios":"levelo://app?vid=4e8d495f-48a2-4a59-a0a4-e2a0bd5ad11a"},"vehicle_type_id":"4","last_reported":1683961506,"current_range_meters":0,"station_id":"ce4bhs92rcd13ifvqi0g","pricing_plan_id":"free"},{"bike_id":"9bdf1b4a-e839-4cdb-9e4b-1f1e923c6575","system_id":"levelo_inurba_marseille","lat":43.29713,"lon":5.36614,"is_reserved":false,"is_disabled":false,"rental_uris":{"android":"levelo://app?vid=9bdf1b4a-e839-4cdb-9e4b-1f1e923c6575","ios":"levelo://app?vid=9bdf1b4a-e839-4cdb-9e4b-1f1e923c6575"},"vehicle_type_id":"4","last_reported":1683961506,"current_range_meters":18000,"station_id":"","pricing_plan_id":"free"},{"bike_id":"6448c133-4cd4-412c-ab72-14f60d954e8f","system_id":"levelo_inurba_marseille","lat":43.31535,"lon":5.38932,"is_reserved":false,"is_disabled":false,"rental_uris":{"android":"levelo://app?vid=6448c133-4cd4-412c-ab72-14f60d954e8f","ios":"levelo://app?vid=6448c133-4cd4-412c-ab72-14f60d954e8f"},"vehicle_type_id":"4","last_reported":1683961506,"current_range_meters":27600,"station_id":"","pricing_plan_id":"free"},{"bike_id":"a061142e-9950-4692-acc5-6e5562925736","system_id":"levelo_inurba_marseille","lat":43.296131,"lon":5.370791,"is_reserved":false,"is_disabled":false,"rental_uris":{"android":"levelo://app?vid=a061142e-9950-4692-acc5-6e5562925736","ios":"levelo://app?vid=a061142e-9950-4692-acc5-6e5562925736"},"vehicle_type_id":"4","last_reported":1683961506,"current_range_meters":2400,"station_id":"ce4bgnh2rcd13ifvqc0g","pricing_plan_id":"free"},{"bike_id":"dfef0405-fcde-45ca-9222-d18987efe171","system_id":"levelo_inurba_marseille","lat":43.296129,"lon":5.370777,"is_reserved":false,"is_disabled":false,"rental_uris":{"android":"levelo://app?vid=dfef0405-fcde-45ca-9222-d18987efe171","ios":"levelo://app?vid=dfef0405-fcde-45ca-9222-d18987efe171"},"vehicle_type_id":"4","last_reported":1683961506,"current_range_meters":28400,"station_id":"ce4bgnh2rcd13ifvqc0g","pricing_plan_id":"free"},{"bike_id":"cc811415-a158-4531-ac3c-07728b22cd7e","system_id":"levelo_inurba_marseille","lat":43.29573,"lon":5.367355,"is_reserved":false,"is_disabled":false,"rental_uris":{"android":"levelo://app?vid=cc811415-a158-4531-ac3c-07728b22cd7e","ios":"levelo://app?vid=cc811415-a158-4531-ac3c-07728b22cd7e"},"vehicle_type_id":"4","last_reported":1683961506,"current_range_meters":22000,"station_id":"ce4bgph2rcd13ifvqc2g","pricing_plan_id":"free"},{"bike_id":"e62a4019-15e5-4aa8-ac87-39c5d1aaa8ba","system_id":"levelo_inurba_marseille","lat":43.29999,"lon":5.3827,"is_reserved":false,"is_disabled":false,"rental_uris":{"android":"levelo://app?vid=e62a4019-15e5-4aa8-ac87-39c5d1aaa8ba","ios":"levelo://app?vid=e62a4019-15e5-4aa8-ac87-39c5d1aaa8ba"},"vehicle_type_id":"4","last_reported":1683961506,"current_range_meters":800,"station_id":"","pricing_plan_id":"free"},{"bike_id":"2f038ed6-2076-41a2-b811-46e8b736da1d","system_id":"levelo_inurba_marseille","lat":43.296935,"lon":5.376544,"is_reserved":false,"is_disabled":false,"rental_uris":{"android":"levelo://app?vid=2f038ed6-2076-41a2-b811-46e8b736da1d","ios":"levelo://app?vid=2f038ed6-2076-41a2-b811-46e8b736da1d"},"vehicle_type_id":"4","last_reported":1683961506,"current_range_meters":23200,"station_id":"ce4bgkh2rcd13ifvqbl0","pricing_plan_id":"free"},{"bike_id":"4575b7ac-e9a8-4cc0-a77a-7d893f503fcb","system_id":"levelo_inurba_marseille","lat":43.29715,"lon":5.377,"is_reserved":false,"is_disabled":false,"rental_uris":{"android":"levelo://app?vid=4575b7ac-e9a8-4cc0-a77a-7d893f503fcb","ios":"levelo://app?vid=4575b7ac-e9a8-4cc0-a77a-7d893f503fcb"},"vehicle_type_id":"4","last_reported":1683961506,"current_range_meters":29200,"station_id":"","pricing_plan_id":"free"},{"bike_id":"0e1db9eb-d9e5-414d-9e29-1b88a5183e0e","system_id":"levelo_inurba_marseille","lat":43.296921,"lon":5.376579,"is_reserved":false,"is_disabled":false,"rental_uris":{"android":"levelo://app?vid=0e1db9eb-d9e5-414d-9e29-1b88a5183e0e","ios":"levelo://app?vid=0e1db9eb-d9e5-414d-9e29-1b88a5183e0e"},"vehicle_type_id":"4","last_reported":1683961506,"current_range_meters":30400,"station_id":"ce4bgkh2rcd13ifvqbl0","pricing_plan_id":"free"},{"bike_id":"79cf5a5e-a640-4bc0-b1ba-8405427bd649","system_id":"levelo_inurba_marseille","lat":43.299028,"lon":5.381509,"is_reserved":false,"is_disabled":false,"rental_uris":{"android":"levelo://app?vid=79cf5a5e-a640-4bc0-b1ba-8405427bd649","ios":"levelo://app?vid=79cf5a5e-a640-4bc0-b1ba-8405427bd649"},"vehicle_type_id":"4","last_reported":1683961506,"current_range_meters":28400,"station_id":"ce4bgj12rcd13ifvqbc0","pricing_plan_id":"free"},{"bike_id":"a6b79984-c1a0-487a-bdee-7bf14c80f4f1","system_id":"levelo_inurba_marseille","lat":43.309589,"lon":5.390258,"is_reserved":false,"is_disabled":false,"rental_uris":{"android":"levelo://app?vid=a6b79984-c1a0-487a-bdee-7bf14c80f4f1","ios":"levelo://app?vid=a6b79984-c1a0-487a-bdee-7bf14c80f4f1"},"vehicle_type_id":"4","last_reported":1683961506,"current_range_meters":31200,"station_id":"ce4bgup2rcd13ifvqco0","pricing_plan_id":"free"},{"bike_id":"821b6064-ec31-499d-96ef-a0889b4b59a9","system_id":"levelo_inurba_marseille","lat":43.309589,"lon":5.390258,"is_reserved":false,"is_disabled":false,"rental_uris":{"android":"levelo://app?vid=821b6064-ec31-499d-96ef-a0889b4b59a9","ios":"levelo://app?vid=821b6064-ec31-499d-96ef-a0889b4b59a9"},"vehicle_type_id":"4","last_reported":1683961506,"current_range_meters":14000,"station_id":"ce4bgup2rcd13ifvqco0","pricing_plan_id":"free"},{"bike_id":"8c1c2a69-274d-4638-a420-b721c1e7b7d0","system_id":"levelo_inurba_marseille","lat":43.299028,"lon":5.381509,"is_reserved":false,"is_disabled":false,"rental_uris":{"android":"levelo://app?vid=8c1c2a69-274d-4638-a420-b721c1e7b7d0","ios":"levelo://app?vid=8c1c2a69-274d-4638-a420-b721c1e7b7d0"},"vehicle_type_id":"4","last_reported":1683961506,"current_range_meters":24400,"station_id":"ce4bgj12rcd13ifvqbc0","pricing_plan_id":"free"},{"bike_id":"9623e20a-9e0f-4223-a4c1-273f19586bd8","system_id":"levelo_inurba_marseille","lat":43.309589,"lon":5.390258,"is_reserved":false,"is_disabled":false,"rental_uris":{"android":"levelo://app?vid=9623e20a-9e0f-4223-a4c1-273f19586bd8","ios":"levelo://app?vid=9623e20a-9e0f-4223-a4c1-273f19586bd8"},"vehicle_type_id":"4","last_reported":1683961506,"current_range_meters":27200,"station_id":"ce4bgup2rcd13ifvqco0","pricing_plan_id":"free"},{"bike_id":"73c2808e-6983-4817-9d81-6d9754cbe3fb","system_id":"levelo_inurba_marseille","lat":43.309589,"lon":5.390258,"is_reserved":false,"is_disabled":false,"rental_uris":{"android":"levelo://app?vid=73c2808e-6983-4817-9d81-6d9754cbe3fb","ios":"levelo://app?vid=73c2808e-6983-4817-9d81-6d9754cbe3fb"},"vehicle_type_id":"4","last_reported":1683961506,"current_range_meters":30000,"station_id":"ce4bgup2rcd13ifvqco0","pricing_plan_id":"free"},{"bike_id":"5b54add0-d1a9-4b05-b36a-7e60acae2afb","system_id":"levelo_inurba_marseille","lat":43.309589,"lon":5.390258,"is_reserved":false,"is_disabled":false,"rental_uris":{"android":"levelo://app?vid=5b54add0-d1a9-4b05-b36a-7e60acae2afb","ios":"levelo://app?vid=5b54add0-d1a9-4b05-b36a-7e60acae2afb"},"vehicle_type_id":"4","last_reported":1683961506,"current_range_meters":30400,"station_id":"ce4bgup2rcd13ifvqco0","pricing_plan_id":"free"},{"bike_id":"e5aac9f4-7bf8-4b66-83fb-360eab9a195a","system_id":"levelo_inurba_marseille","lat":43.309589,"lon":5.390258,"is_reserved":false,"is_disabled":false,"rental_uris":{"android":"levelo://app?vid=e5aac9f4-7bf8-4b66-83fb-360eab9a195a","ios":"levelo://app?vid=e5aac9f4-7bf8-4b66-83fb-360eab9a195a"},"vehicle_type_id":"4","last_reported":1683961506,"current_range_meters":25600,"station_id":"ce4bgup2rcd13ifvqco0","pricing_plan_id":"free"},{"bike_id":"316d6e8b-366e-4c80-b7c0-8f2d0f1dc835","system_id":"levelo_inurba_marseille","lat":43.309589,"lon":5.390258,"is_reserved":false,"is_disabled":false,"rental_uris":{"android":"levelo://app?vid=316d6e8b-366e-4c80-b7c0-8f2d0f1dc835","ios":"levelo://app?vid=316d6e8b-366e-4c80-b7c0-8f2d0f1dc835"},"vehicle_type_id":"4","last_reported":1683961506,"current_range_meters":31200,"station_id":"ce4bgup2rcd13ifvqco0","pricing_plan_id":"free"},{"bike_id":"002d39e0-544e-450b-b6e2-5fab2746121e","system_id":"levelo_inurba_marseille","lat":43.309589,"lon":5.390258,"is_reserved":false,"is_disabled":false,"rental_uris":{"android":"levelo://app?vid=002d39e0-544e-450b-b6e2-5fab2746121e","ios":"levelo://app?vid=002d39e0-544e-450b-b6e2-5fab2746121e"},"vehicle_type_id":"4","last_reported":1683961506,"current_range_meters":28800,"station_id":"ce4bgup2rcd13ifvqco0","pricing_plan_id":"free"},{"bike_id":"7e101d88-7926-4513-a08a-b2a6fdb92c65","system_id":"levelo_inurba_marseille","lat":43.31754,"lon":5.3901,"is_reserved":false,"is_disabled":false,"rental_uris":{"android":"levelo://app?vid=7e101d88-7926-4513-a08a-b2a6fdb92c65","ios":"levelo://app?vid=7e101d88-7926-4513-a08a-b2a6fdb92c65"},"vehicle_type_id":"4","last_reported":1683961506,"current_range_meters":30400,"station_id":"ce4bhqp2rcd13ifvqhng","pricing_plan_id":"free"},{"bike_id":"eb214527-8203-4410-a520-f2f2d1c67bb7","system_id":"levelo_inurba_marseille","lat":43.317557,"lon":5.390173,"is_reserved":false,"is_disabled":false,"rental_uris":{"android":"levelo://app?vid=eb214527-8203-4410-a520-f2f2d1c67bb7","ios":"levelo://app?vid=eb214527-8203-4410-a520-f2f2d1c67bb7"},"vehicle_type_id":"4","last_reported":1683961506,"current_range_meters":13200,"station_id":"ce4bhqp2rcd13ifvqhng","pricing_plan_id":"free"},{"bike_id":"1b8e8455-d974-44bb-9a4e-7e7867c76231","system_id":"levelo_inurba_marseille","lat":43.31758,"lon":5.39014,"is_reserved":false,"is_disabled":false,"rental_uris":{"android":"levelo://app?vid=1b8e8455-d974-44bb-9a4e-7e7867c76231","ios":"levelo://app?vid=1b8e8455-d974-44bb-9a4e-7e7867c76231"},"vehicle_type_id":"4","last_reported":1683961506,"current_range_meters":18800,"station_id":"ce4bhqp2rcd13ifvqhng","pricing_plan_id":"free"},{"bike_id":"8d249c4e-5841-43df-a8c1-1ee71a14ff90","system_id":"levelo_inurba_marseille","lat":43.31756,"lon":5.39016,"is_reserved":false,"is_disabled":false,"rental_uris":{"android":"levelo://app?vid=8d249c4e-5841-43df-a8c1-1ee71a14ff90","ios":"levelo://app?vid=8d249c4e-5841-43df-a8c1-1ee71a14ff90"},"vehicle_type_id":"4","last_reported":1683961506,"current_range_meters":30400,"station_id":"ce4bhqp2rcd13ifvqhng","pricing_plan_id":"free"},{"bike_id":"80b60f6f-28ee-4635-a30c-377c46bb9c86","system_id":"levelo_inurba_marseille","lat":43.317557,"lon":5.390173,"is_reserved":false,"is_disabled":false,"rental_uris":{"android":"levelo://app?vid=80b60f6f-28ee-4635-a30c-377c46bb9c86","ios":"levelo://app?vid=80b60f6f-28ee-4635-a30c-377c46bb9c86"},"vehicle_type_id":"4","last_reported":1683961506,"current_range_meters":18000,"station_id":"ce4bhqp2rcd13ifvqhng","pricing_plan_id":"free"},{"bike_id":"01208a13-824a-4a94-be8d-2a48a5b6b683","system_id":"levelo_inurba_marseille","lat":43.31754,"lon":5.3902,"is_reserved":false,"is_disabled":false,"rental_uris":{"android":"levelo://app?vid=01208a13-824a-4a94-be8d-2a48a5b6b683","ios":"levelo://app?vid=01208a13-824a-4a94-be8d-2a48a5b6b683"},"vehicle_type_id":"4","last_reported":1683961506,"current_range_meters":10000,"station_id":"ce4bhqp2rcd13ifvqhng","pricing_plan_id":"free"},{"bike_id":"ebb64d41-4b06-49bb-a55c-b83574a6111f","system_id":"levelo_inurba_marseille","lat":43.31752,"lon":5.39025,"is_reserved":false,"is_disabled":false,"rental_uris":{"android":"levelo://app?vid=ebb64d41-4b06-49bb-a55c-b83574a6111f","ios":"levelo://app?vid=ebb64d41-4b06-49bb-a55c-b83574a6111f"},"vehicle_type_id":"4","last_reported":1683961506,"current_range_meters":5200,"station_id":"ce4bhqp2rcd13ifvqhng","pricing_plan_id":"free"},{"bike_id":"91ebddb6-932b-4169-a2bb-bfd47fe89bbd","system_id":"levelo_inurba_marseille","lat":43.31755,"lon":5.39027,"is_reserved":false,"is_disabled":false,"rental_uris":{"android":"levelo://app?vid=91ebddb6-932b-4169-a2bb-bfd47fe89bbd","ios":"levelo://app?vid=91ebddb6-932b-4169-a2bb-bfd47fe89bbd"},"vehicle_type_id":"4","last_reported":1683961506,"current_range_meters":22800,"station_id":"ce4bhqp2rcd13ifvqhng","pricing_plan_id":"free"},{"bike_id":"9a8f4c95-ba30-49ff-9ce9-5c6c5f83fb12","system_id":"levelo_inurba_marseille","lat":43.29807,"lon":5.381016,"is_reserved":false,"is_disabled":false,"rental_uris":{"android":"levelo://app?vid=9a8f4c95-ba30-49ff-9ce9-5c6c5f83fb12","ios":"levelo://app?vid=9a8f4c95-ba30-49ff-9ce9-5c6c5f83fb12"},"vehicle_type_id":"4","last_reported":1683961506,"current_range_meters":26400,"station_id":"","pricing_plan_id":"free"},{"bike_id":"365ac165-9ca8-49ef-910d-07364fc9a104","system_id":"levelo_inurba_marseille","lat":43.298037,"lon":5.381066,"is_reserved":false,"is_disabled":false,"rental_uris":{"android":"levelo://app?vid=365ac165-9ca8-49ef-910d-07364fc9a104","ios":"levelo://app?vid=365ac165-9ca8-49ef-910d-07364fc9a104"},"vehicle_type_id":"4","last_reported":1683961506,"current_range_meters":31200,"station_id":"ce4bgip2rcd13ifvqbb0","pricing_plan_id":"free"},{"bike_id":"9a1266e1-7f83-4fd8-bded-ddce5176bb36","system_id":"levelo_inurba_marseille","lat":43.298037,"lon":5.381066,"is_reserved":false,"is_disabled":false,"rental_uris":{"android":"levelo://app?vid=9a1266e1-7f83-4fd8-bded-ddce5176bb36","ios":"levelo://app?vid=9a1266e1-7f83-4fd8-bded-ddce5176bb36"},"vehicle_type_id":"4","last_reported":1683961506,"current_range_meters":28400,"station_id":"ce4bgip2rcd13ifvqbb0","pricing_plan_id":"free"},{"bike_id":"0779af64-00f5-46ad-8401-22dd5c02f6aa","system_id":"levelo_inurba_marseille","lat":43.298037,"lon":5.381066,"is_reserved":false,"is_disabled":false,"rental_uris":{"android":"levelo://app?vid=0779af64-00f5-46ad-8401-22dd5c02f6aa","ios":"levelo://app?vid=0779af64-00f5-46ad-8401-22dd5c02f6aa"},"vehicle_type_id":"4","last_reported":1683961506,"current_range_meters":21600,"station_id":"ce4bgip2rcd13ifvqbb0","pricing_plan_id":"free"},{"bike_id":"cc648482-bfc0-4d88-bc5b-3e771f49f350","system_id":"levelo_inurba_marseille","lat":43.298037,"lon":5.381066,"is_reserved":false,"is_disabled":false,"rental_uris":{"android":"levelo://app?vid=cc648482-bfc0-4d88-bc5b-3e771f49f350","ios":"levelo://app?vid=cc648482-bfc0-4d88-bc5b-3e771f49f350"},"vehicle_type_id":"4","last_reported":1683961506,"current_range_meters":31200,"station_id":"ce4bgip2rcd13ifvqbb0","pricing_plan_id":"free"},{"bike_id":"fada3c0c-3338-4c4f-9e02-137314a02e29","system_id":"levelo_inurba_marseille","lat":43.298037,"lon":5.381066,"is_reserved":false,"is_disabled":false,"rental_uris":{"android":"levelo://app?vid=fada3c0c-3338-4c4f-9e02-137314a02e29","ios":"levelo://app?vid=fada3c0c-3338-4c4f-9e02-137314a02e29"},"vehicle_type_id":"4","last_reported":1683961506,"current_range_meters":26800,"station_id":"ce4bgip2rcd13ifvqbb0","pricing_plan_id":"free"},{"bike_id":"9be31a47-feae-446f-9726-0edbe80b9143","system_id":"levelo_inurba_marseille","lat":43.298037,"lon":5.381066,"is_reserved":false,"is_disabled":false,"rental_uris":{"android":"levelo://app?vid=9be31a47-feae-446f-9726-0edbe80b9143","ios":"levelo://app?vid=9be31a47-feae-446f-9726-0edbe80b9143"},"vehicle_type_id":"4","last_reported":1683961506,"current_range_meters":28400,"station_id":"ce4bgip2rcd13ifvqbb0","pricing_plan_id":"free"},{"bike_id":"2467f5a6-40fb-4e98-b640-742f6f697862","system_id":"levelo_inurba_marseille","lat":43.298037,"lon":5.381066,"is_reserved":false,"is_disabled":false,"rental_uris":{"android":"levelo://app?vid=2467f5a6-40fb-4e98-b640-742f6f697862","ios":"levelo://app?vid=2467f5a6-40fb-4e98-b640-742f6f697862"},"vehicle_type_id":"4","last_reported":1683961506,"current_range_meters":28000,"station_id":"ce4bgip2rcd13ifvqbb0","pricing_plan_id":"free"},{"bike_id":"bdb9da33-352e-43fb-be75-a6e3afc205a8","system_id":"levelo_inurba_marseille","lat":43.295748,"lon":5.37522,"is_reserved":false,"is_disabled":false,"rental_uris":{"android":"levelo://app?vid=bdb9da33-352e-43fb-be75-a6e3afc205a8","ios":"levelo://app?vid=bdb9da33-352e-43fb-be75-a6e3afc205a8"},"vehicle_type_id":"4","last_reported":1683961506,"current_range_meters":24400,"station_id":"ce4bgh92rcd13ifvqb50","pricing_plan_id":"free"},{"bike_id":"a0a02c1b-5016-442b-b951-87f9d87ae102","system_id":"levelo_inurba_marseille","lat":43.304278,"lon":5.388868,"is_reserved":false,"is_disabled":false,"rental_uris":{"android":"levelo://app?vid=a0a02c1b-5016-442b-b951-87f9d87ae102","ios":"levelo://app?vid=a0a02c1b-5016-442b-b951-87f9d87ae102"},"vehicle_type_id":"4","last_reported":1683961506,"current_range_meters":14000,"station_id":"ce4bgk12rcd13ifvqbi0","pricing_plan_id":"free"},{"bike_id":"179661af-1309-41d6-ba28-a31700156093","system_id":"levelo_inurba_marseille","lat":43.298037,"lon":5.381066,"is_reserved":false,"is_disabled":false,"rental_uris":{"android":"levelo://app?vid=179661af-1309-41d6-ba28-a31700156093","ios":"levelo://app?vid=179661af-1309-41d6-ba28-a31700156093"},"vehicle_type_id":"4","last_reported":1683961506,"current_range_meters":28400,"station_id":"ce4bgip2rcd13ifvqbb0","pricing_plan_id":"free"},{"bike_id":"f67e485d-f8b2-44a7-8c8b-4f53a7ffc871","system_id":"levelo_inurba_marseille","lat":43.295279,"lon":5.375048,"is_reserved":false,"is_disabled":false,"rental_uris":{"android":"levelo://app?vid=f67e485d-f8b2-44a7-8c8b-4f53a7ffc871","ios":"levelo://app?vid=f67e485d-f8b2-44a7-8c8b-4f53a7ffc871"},"vehicle_type_id":"4","last_reported":1683961506,"current_range_meters":31200,"station_id":"ce4bgkp2rcd13ifvqbmg","pricing_plan_id":"free"},{"bike_id":"a1928829-9c98-40cb-ad1d-6152932c35da","system_id":"levelo_inurba_marseille","lat":43.298037,"lon":5.381066,"is_reserved":false,"is_disabled":false,"rental_uris":{"android":"levelo://app?vid=a1928829-9c98-40cb-ad1d-6152932c35da","ios":"levelo://app?vid=a1928829-9c98-40cb-ad1d-6152932c35da"},"vehicle_type_id":"4","last_reported":1683961506,"current_range_meters":14400,"station_id":"ce4bgip2rcd13ifvqbb0","pricing_plan_id":"free"},{"bike_id":"eca97663-b98f-46ba-a6c1-fba285384a13","system_id":"levelo_inurba_marseille","lat":43.298037,"lon":5.381066,"is_reserved":false,"is_disabled":false,"rental_uris":{"android":"levelo://app?vid=eca97663-b98f-46ba-a6c1-fba285384a13","ios":"levelo://app?vid=eca97663-b98f-46ba-a6c1-fba285384a13"},"vehicle_type_id":"4","last_reported":1683961506,"current_range_meters":13200,"station_id":"ce4bgip2rcd13ifvqbb0","pricing_plan_id":"free"},{"bike_id":"cc66ada8-5753-4f48-ba83-51ab79cc9c2f","system_id":"levelo_inurba_marseille","lat":43.298037,"lon":5.381066,"is_reserved":false,"is_disabled":false,"rental_uris":{"android":"levelo://app?vid=cc66ada8-5753-4f48-ba83-51ab79cc9c2f","ios":"levelo://app?vid=cc66ada8-5753-4f48-ba83-51ab79cc9c2f"},"vehicle_type_id":"4","last_reported":1683961506,"current_range_meters":17200,"station_id":"ce4bgip2rcd13ifvqbb0","pricing_plan_id":"free"},{"bike_id":"7e0c7a5c-0c07-4d93-bbed-dfc49dd25cc0","system_id":"levelo_inurba_marseille","lat":43.295748,"lon":5.37522,"is_reserved":false,"is_disabled":false,"rental_uris":{"android":"levelo://app?vid=7e0c7a5c-0c07-4d93-bbed-dfc49dd25cc0","ios":"levelo://app?vid=7e0c7a5c-0c07-4d93-bbed-dfc49dd25cc0"},"vehicle_type_id":"4","last_reported":1683961506,"current_range_meters":29600,"station_id":"ce4bgh92rcd13ifvqb50","pricing_plan_id":"free"},{"bike_id":"2a026211-a87e-48cc-926f-30a100689879","system_id":"levelo_inurba_marseille","lat":43.298037,"lon":5.381066,"is_reserved":false,"is_disabled":false,"rental_uris":{"android":"levelo://app?vid=2a026211-a87e-48cc-926f-30a100689879","ios":"levelo://app?vid=2a026211-a87e-48cc-926f-30a100689879"},"vehicle_type_id":"4","last_reported":1683961506,"current_range_meters":29200,"station_id":"ce4bgip2rcd13ifvqbb0","pricing_plan_id":"free"},{"bike_id":"afdbe2ea-a5ab-4b0b-94f7-ca102e4de36b","system_id":"levelo_inurba_marseille","lat":43.30439,"lon":5.38898,"is_reserved":false,"is_disabled":false,"rental_uris":{"android":"levelo://app?vid=afdbe2ea-a5ab-4b0b-94f7-ca102e4de36b","ios":"levelo://app?vid=afdbe2ea-a5ab-4b0b-94f7-ca102e4de36b"},"vehicle_type_id":"4","last_reported":1683961506,"current_range_meters":0,"station_id":"ce4bgk12rcd13ifvqbi0","pricing_plan_id":"free"},{"bike_id":"2abf43cd-cf6e-43a8-a699-92badcea8054","system_id":"levelo_inurba_marseille","lat":43.295748,"lon":5.37522,"is_reserved":false,"is_disabled":false,"rental_uris":{"android":"levelo://app?vid=2abf43cd-cf6e-43a8-a699-92badcea8054","ios":"levelo://app?vid=2abf43cd-cf6e-43a8-a699-92badcea8054"},"vehicle_type_id":"4","last_reported":1683961506,"current_range_meters":26000,"station_id":"ce4bgh92rcd13ifvqb50","pricing_plan_id":"free"},{"bike_id":"38613b6b-ca86-4402-980f-2903a363d66a","system_id":"levelo_inurba_marseille","lat":43.296277,"lon":5.377108,"is_reserved":false,"is_disabled":false,"rental_uris":{"android":"levelo://app?vid=38613b6b-ca86-4402-980f-2903a363d66a","ios":"levelo://app?vid=38613b6b-ca86-4402-980f-2903a363d66a"},"vehicle_type_id":"4","last_reported":1683961506,"current_range_meters":4400,"station_id":"ce4bgi92rcd13ifvqb90","pricing_plan_id":"free"},{"bike_id":"63fa7e13-6858-4b30-a631-e18e8ba062c3","system_id":"levelo_inurba_marseille","lat":43.296277,"lon":5.377108,"is_reserved":false,"is_disabled":false,"rental_uris":{"android":"levelo://app?vid=63fa7e13-6858-4b30-a631-e18e8ba062c3","ios":"levelo://app?vid=63fa7e13-6858-4b30-a631-e18e8ba062c3"},"vehicle_type_id":"4","last_reported":1683961506,"current_range_meters":30000,"station_id":"ce4bgi92rcd13ifvqb90","pricing_plan_id":"free"},{"bike_id":"bf0ce62a-95b1-43f0-86a1-d1f6f901cad2","system_id":"levelo_inurba_marseille","lat":43.295748,"lon":5.37522,"is_reserved":false,"is_disabled":false,"rental_uris":{"android":"levelo://app?vid=bf0ce62a-95b1-43f0-86a1-d1f6f901cad2","ios":"levelo://app?vid=bf0ce62a-95b1-43f0-86a1-d1f6f901cad2"},"vehicle_type_id":"4","last_reported":1683961506,"current_range_meters":23200,"station_id":"ce4bgh92rcd13ifvqb50","pricing_plan_id":"free"},{"bike_id":"070489f9-d84c-4abb-918d-f6265b53dee4","system_id":"levelo_inurba_marseille","lat":43.296277,"lon":5.377108,"is_reserved":false,"is_disabled":false,"rental_uris":{"android":"levelo://app?vid=070489f9-d84c-4abb-918d-f6265b53dee4","ios":"levelo://app?vid=070489f9-d84c-4abb-918d-f6265b53dee4"},"vehicle_type_id":"4","last_reported":1683961506,"current_range_meters":18800,"station_id":"ce4bgi92rcd13ifvqb90","pricing_plan_id":"free"},{"bike_id":"94a0f1f4-3902-4b17-92b0-e2f749325968","system_id":"levelo_inurba_marseille","lat":43.296277,"lon":5.377108,"is_reserved":false,"is_disabled":false,"rental_uris":{"android":"levelo://app?vid=94a0f1f4-3902-4b17-92b0-e2f749325968","ios":"levelo://app?vid=94a0f1f4-3902-4b17-92b0-e2f749325968"},"vehicle_type_id":"4","last_reported":1683961506,"current_range_meters":30400,"station_id":"ce4bgi92rcd13ifvqb90","pricing_plan_id":"free"},{"bike_id":"a0c63549-f8b4-4350-a3ac-d58780044177","system_id":"levelo_inurba_marseille","lat":43.296277,"lon":5.377108,"is_reserved":false,"is_disabled":false,"rental_uris":{"android":"levelo://app?vid=a0c63549-f8b4-4350-a3ac-d58780044177","ios":"levelo://app?vid=a0c63549-f8b4-4350-a3ac-d58780044177"},"vehicle_type_id":"4","last_reported":1683961506,"current_range_meters":31200,"station_id":"ce4bgi92rcd13ifvqb90","pricing_plan_id":"free"},{"bike_id":"a5b1bdd9-dd6e-4158-aea7-5a66d2e4a970","system_id":"levelo_inurba_marseille","lat":43.295748,"lon":5.37522,"is_reserved":false,"is_disabled":false,"rental_uris":{"android":"levelo://app?vid=a5b1bdd9-dd6e-4158-aea7-5a66d2e4a970","ios":"levelo://app?vid=a5b1bdd9-dd6e-4158-aea7-5a66d2e4a970"},"vehicle_type_id":"4","last_reported":1683961506,"current_range_meters":28800,"station_id":"ce4bgh92rcd13ifvqb50","pricing_plan_id":"free"},{"bike_id":"2813d3d3-8a9e-45f7-9f59-25f56b4da41c","system_id":"levelo_inurba_marseille","lat":43.296263,"lon":5.377094,"is_reserved":false,"is_disabled":false,"rental_uris":{"android":"levelo://app?vid=2813d3d3-8a9e-45f7-9f59-25f56b4da41c","ios":"levelo://app?vid=2813d3d3-8a9e-45f7-9f59-25f56b4da41c"},"vehicle_type_id":"4","last_reported":1683961506,"current_range_meters":31200,"station_id":"ce4bgi92rcd13ifvqb90","pricing_plan_id":"free"},{"bike_id":"5c725c06-4210-4afa-81ad-25e34ea59def","system_id":"levelo_inurba_marseille","lat":43.296263,"lon":5.377094,"is_reserved":false,"is_disabled":false,"rental_uris":{"android":"levelo://app?vid=5c725c06-4210-4afa-81ad-25e34ea59def","ios":"levelo://app?vid=5c725c06-4210-4afa-81ad-25e34ea59def"},"vehicle_type_id":"4","last_reported":1683961506,"current_range_meters":31200,"station_id":"ce4bgi92rcd13ifvqb90","pricing_plan_id":"free"},{"bike_id":"b1df7b7d-d06d-4cfe-acb6-c2ce0bfbd32d","system_id":"levelo_inurba_marseille","lat":43.295279,"lon":5.375048,"is_reserved":false,"is_disabled":false,"rental_uris":{"android":"levelo://app?vid=b1df7b7d-d06d-4cfe-acb6-c2ce0bfbd32d","ios":"levelo://app?vid=b1df7b7d-d06d-4cfe-acb6-c2ce0bfbd32d"},"vehicle_type_id":"4","last_reported":1683961506,"current_range_meters":29600,"station_id":"ce4bgkp2rcd13ifvqbmg","pricing_plan_id":"free"},{"bike_id":"269c3e81-9abe-42ae-91be-299ae3974219","system_id":"levelo_inurba_marseille","lat":43.295279,"lon":5.375048,"is_reserved":false,"is_disabled":false,"rental_uris":{"android":"levelo://app?vid=269c3e81-9abe-42ae-91be-299ae3974219","ios":"levelo://app?vid=269c3e81-9abe-42ae-91be-299ae3974219"},"vehicle_type_id":"4","last_reported":1683961506,"current_range_meters":30000,"station_id":"ce4bgkp2rcd13ifvqbmg","pricing_plan_id":"free"},{"bike_id":"98d43089-ff1e-40ee-a123-f18e174ce1c4","system_id":"levelo_inurba_marseille","lat":43.31446,"lon":5.39275,"is_reserved":false,"is_disabled":false,"rental_uris":{"android":"levelo://app?vid=98d43089-ff1e-40ee-a123-f18e174ce1c4","ios":"levelo://app?vid=98d43089-ff1e-40ee-a123-f18e174ce1c4"},"vehicle_type_id":"4","last_reported":1683961506,"current_range_meters":4800,"station_id":"","pricing_plan_id":"free"},{"bike_id":"6f6b02ce-a50b-443a-a31d-aed834771e7b","system_id":"levelo_inurba_marseille","lat":43.31444,"lon":5.39293,"is_reserved":false,"is_disabled":false,"rental_uris":{"android":"levelo://app?vid=6f6b02ce-a50b-443a-a31d-aed834771e7b","ios":"levelo://app?vid=6f6b02ce-a50b-443a-a31d-aed834771e7b"},"vehicle_type_id":"4","last_reported":1683961506,"current_range_meters":7200,"station_id":"","pricing_plan_id":"free"},{"bike_id":"4b04ff1d-fdfe-4473-b5ab-5bdf09a6d118","system_id":"levelo_inurba_marseille","lat":43.29604,"lon":5.38108,"is_reserved":false,"is_disabled":false,"rental_uris":{"android":"levelo://app?vid=4b04ff1d-fdfe-4473-b5ab-5bdf09a6d118","ios":"levelo://app?vid=4b04ff1d-fdfe-4473-b5ab-5bdf09a6d118"},"vehicle_type_id":"4","last_reported":1683961506,"current_range_meters":29600,"station_id":"ce4bgl12rcd13ifvqbo0","pricing_plan_id":"free"},{"bike_id":"cf6ec20c-0b4d-40f7-a582-65ab8376d255","system_id":"levelo_inurba_marseille","lat":43.29601,"lon":5.381084,"is_reserved":false,"is_disabled":false,"rental_uris":{"android":"levelo://app?vid=cf6ec20c-0b4d-40f7-a582-65ab8376d255","ios":"levelo://app?vid=cf6ec20c-0b4d-40f7-a582-65ab8376d255"},"vehicle_type_id":"4","last_reported":1683961506,"current_range_meters":30000,"station_id":"ce4bgl12rcd13ifvqbo0","pricing_plan_id":"free"},{"bike_id":"780360de-0f4f-47d4-bb90-6595e73179d7","system_id":"levelo_inurba_marseille","lat":43.29835,"lon":5.38538,"is_reserved":false,"is_disabled":false,"rental_uris":{"android":"levelo://app?vid=780360de-0f4f-47d4-bb90-6595e73179d7","ios":"levelo://app?vid=780360de-0f4f-47d4-bb90-6595e73179d7"},"vehicle_type_id":"4","last_reported":1683961506,"current_range_meters":0,"station_id":"","pricing_plan_id":"free"},{"bike_id":"df7647b1-99a9-4742-b9f2-9d2bc408c020","system_id":"levelo_inurba_marseille","lat":43.29482,"lon":5.37865,"is_reserved":false,"is_disabled":false,"rental_uris":{"android":"levelo://app?vid=df7647b1-99a9-4742-b9f2-9d2bc408c020","ios":"levelo://app?vid=df7647b1-99a9-4742-b9f2-9d2bc408c020"},"vehicle_type_id":"4","last_reported":1683961506,"current_range_meters":26000,"station_id":"","pricing_plan_id":"free"},{"bike_id":"0131734a-b31f-4386-97ab-ea2b65fd6220","system_id":"levelo_inurba_marseille","lat":43.293249,"lon":5.371578,"is_reserved":false,"is_disabled":false,"rental_uris":{"android":"levelo://app?vid=0131734a-b31f-4386-97ab-ea2b65fd6220","ios":"levelo://app?vid=0131734a-b31f-4386-97ab-ea2b65fd6220"},"vehicle_type_id":"4","last_reported":1683961506,"current_range_meters":22800,"station_id":"ce4bgh92rcd13ifvqb40","pricing_plan_id":"free"},{"bike_id":"d80771c8-fdab-456f-af59-5e17f04ef497","system_id":"levelo_inurba_marseille","lat":43.293249,"lon":5.371578,"is_reserved":false,"is_disabled":false,"rental_uris":{"android":"levelo://app?vid=d80771c8-fdab-456f-af59-5e17f04ef497","ios":"levelo://app?vid=d80771c8-fdab-456f-af59-5e17f04ef497"},"vehicle_type_id":"4","last_reported":1683961506,"current_range_meters":10800,"station_id":"ce4bgh92rcd13ifvqb40","pricing_plan_id":"free"},{"bike_id":"88593624-c250-4a46-8a73-077423d799d6","system_id":"levelo_inurba_marseille","lat":43.29308,"lon":5.37188,"is_reserved":false,"is_disabled":false,"rental_uris":{"android":"levelo://app?vid=88593624-c250-4a46-8a73-077423d799d6","ios":"levelo://app?vid=88593624-c250-4a46-8a73-077423d799d6"},"vehicle_type_id":"4","last_reported":1683961506,"current_range_meters":3600,"station_id":"","pricing_plan_id":"free"},{"bike_id":"ee9df043-635c-474d-b4bd-8e9da09abc4f","system_id":"levelo_inurba_marseille","lat":43.292749,"lon":5.368398,"is_reserved":false,"is_disabled":false,"rental_uris":{"android":"levelo://app?vid=ee9df043-635c-474d-b4bd-8e9da09abc4f","ios":"levelo://app?vid=ee9df043-635c-474d-b4bd-8e9da09abc4f"},"vehicle_type_id":"4","last_reported":1683961506,"current_range_meters":24000,"station_id":"ce4bhbp2rcd13ifvqesg","pricing_plan_id":"free"},{"bike_id":"f6dcfef3-119b-4d0c-84ba-5f9137e59049","system_id":"levelo_inurba_marseille","lat":43.29275,"lon":5.36847,"is_reserved":false,"is_disabled":false,"rental_uris":{"android":"levelo://app?vid=f6dcfef3-119b-4d0c-84ba-5f9137e59049","ios":"levelo://app?vid=f6dcfef3-119b-4d0c-84ba-5f9137e59049"},"vehicle_type_id":"4","last_reported":1683961506,"current_range_meters":16800,"station_id":"ce4bhbp2rcd13ifvqesg","pricing_plan_id":"free"},{"bike_id":"583b1714-363a-4bb3-bfff-efba62c9c48c","system_id":"levelo_inurba_marseille","lat":43.292749,"lon":5.368398,"is_reserved":false,"is_disabled":false,"rental_uris":{"android":"levelo://app?vid=583b1714-363a-4bb3-bfff-efba62c9c48c","ios":"levelo://app?vid=583b1714-363a-4bb3-bfff-efba62c9c48c"},"vehicle_type_id":"4","last_reported":1683961506,"current_range_meters":29600,"station_id":"ce4bhbp2rcd13ifvqesg","pricing_plan_id":"free"},{"bike_id":"4e3f9ff7-9e99-46dd-b38e-b497ffca2158","system_id":"levelo_inurba_marseille","lat":43.292749,"lon":5.368402,"is_reserved":false,"is_disabled":false,"rental_uris":{"android":"levelo://app?vid=4e3f9ff7-9e99-46dd-b38e-b497ffca2158","ios":"levelo://app?vid=4e3f9ff7-9e99-46dd-b38e-b497ffca2158"},"vehicle_type_id":"4","last_reported":1683961506,"current_range_meters":20000,"station_id":"ce4bhbp2rcd13ifvqesg","pricing_plan_id":"free"},{"bike_id":"40b94e92-d005-4660-ac31-3c561cab0951","system_id":"levelo_inurba_marseille","lat":43.293069,"lon":5.37455,"is_reserved":false,"is_disabled":false,"rental_uris":{"android":"levelo://app?vid=40b94e92-d005-4660-ac31-3c561cab0951","ios":"levelo://app?vid=40b94e92-d005-4660-ac31-3c561cab0951"},"vehicle_type_id":"4","last_reported":1683961506,"current_range_meters":30400,"station_id":"","pricing_plan_id":"free"},{"bike_id":"3ce5f5da-1f26-42a4-ba49-432abc30294a","system_id":"levelo_inurba_marseille","lat":43.305994,"lon":5.393687,"is_reserved":false,"is_disabled":false,"rental_uris":{"android":"levelo://app?vid=3ce5f5da-1f26-42a4-ba49-432abc30294a","ios":"levelo://app?vid=3ce5f5da-1f26-42a4-ba49-432abc30294a"},"vehicle_type_id":"4","last_reported":1683961506,"current_range_meters":31200,"station_id":"ce4bh0p2rcd13ifvqd80","pricing_plan_id":"free"},{"bike_id":"5d7e92a5-375b-4472-814c-0f6636476cb0","system_id":"levelo_inurba_marseille","lat":43.293009,"lon":5.374584,"is_reserved":false,"is_disabled":false,"rental_uris":{"android":"levelo://app?vid=5d7e92a5-375b-4472-814c-0f6636476cb0","ios":"levelo://app?vid=5d7e92a5-375b-4472-814c-0f6636476cb0"},"vehicle_type_id":"4","last_reported":1683961506,"current_range_meters":31200,"station_id":"ce4bgi12rcd13ifvqb70","pricing_plan_id":"free"},{"bike_id":"18b46cce-0b8b-4f3b-99cb-7e9a6fc4c685","system_id":"levelo_inurba_marseille","lat":43.293009,"lon":5.374584,"is_reserved":false,"is_disabled":false,"rental_uris":{"android":"levelo://app?vid=18b46cce-0b8b-4f3b-99cb-7e9a6fc4c685","ios":"levelo://app?vid=18b46cce-0b8b-4f3b-99cb-7e9a6fc4c685"},"vehicle_type_id":"4","last_reported":1683961506,"current_range_meters":31200,"station_id":"ce4bgi12rcd13ifvqb70","pricing_plan_id":"free"},{"bike_id":"f97f77a4-64ad-4a70-8beb-631eee1b9490","system_id":"levelo_inurba_marseille","lat":43.293009,"lon":5.374584,"is_reserved":false,"is_disabled":false,"rental_uris":{"android":"levelo://app?vid=f97f77a4-64ad-4a70-8beb-631eee1b9490","ios":"levelo://app?vid=f97f77a4-64ad-4a70-8beb-631eee1b9490"},"vehicle_type_id":"4","last_reported":1683961506,"current_range_meters":31600,"station_id":"ce4bgi12rcd13ifvqb70","pricing_plan_id":"free"},{"bike_id":"f71b2b5c-210c-4c4f-9100-583e98072417","system_id":"levelo_inurba_marseille","lat":43.293009,"lon":5.374584,"is_reserved":false,"is_disabled":false,"rental_uris":{"android":"levelo://app?vid=f71b2b5c-210c-4c4f-9100-583e98072417","ios":"levelo://app?vid=f71b2b5c-210c-4c4f-9100-583e98072417"},"vehicle_type_id":"4","last_reported":1683961506,"current_range_meters":18400,"station_id":"ce4bgi12rcd13ifvqb70","pricing_plan_id":"free"},{"bike_id":"9f97f710-e637-48b2-b367-205e2bab5858","system_id":"levelo_inurba_marseille","lat":43.293009,"lon":5.374584,"is_reserved":false,"is_disabled":false,"rental_uris":{"android":"levelo://app?vid=9f97f710-e637-48b2-b367-205e2bab5858","ios":"levelo://app?vid=9f97f710-e637-48b2-b367-205e2bab5858"},"vehicle_type_id":"4","last_reported":1683961506,"current_range_meters":31200,"station_id":"ce4bgi12rcd13ifvqb70","pricing_plan_id":"free"},{"bike_id":"d1bbf04a-efa8-47f5-839f-05cd1bde2eb2","system_id":"levelo_inurba_marseille","lat":43.293009,"lon":5.374584,"is_reserved":false,"is_disabled":false,"rental_uris":{"android":"levelo://app?vid=d1bbf04a-efa8-47f5-839f-05cd1bde2eb2","ios":"levelo://app?vid=d1bbf04a-efa8-47f5-839f-05cd1bde2eb2"},"vehicle_type_id":"4","last_reported":1683961506,"current_range_meters":31600,"station_id":"ce4bgi12rcd13ifvqb70","pricing_plan_id":"free"},{"bike_id":"58f7e1d7-edbe-4fea-9b9d-83f20dab475c","system_id":"levelo_inurba_marseille","lat":43.305994,"lon":5.393687,"is_reserved":false,"is_disabled":false,"rental_uris":{"android":"levelo://app?vid=58f7e1d7-edbe-4fea-9b9d-83f20dab475c","ios":"levelo://app?vid=58f7e1d7-edbe-4fea-9b9d-83f20dab475c"},"vehicle_type_id":"4","last_reported":1683961506,"current_range_meters":26400,"station_id":"ce4bh0p2rcd13ifvqd80","pricing_plan_id":"free"},{"bike_id":"90c5d5a4-9ce6-4509-a4fd-66949c69405f","system_id":"levelo_inurba_marseille","lat":43.305994,"lon":5.393687,"is_reserved":false,"is_disabled":false,"rental_uris":{"android":"levelo://app?vid=90c5d5a4-9ce6-4509-a4fd-66949c69405f","ios":"levelo://app?vid=90c5d5a4-9ce6-4509-a4fd-66949c69405f"},"vehicle_type_id":"4","last_reported":1683961506,"current_range_meters":31200,"station_id":"ce4bh0p2rcd13ifvqd80","pricing_plan_id":"free"},{"bike_id":"00efbebc-6728-4b4f-a020-240365e72f5a","system_id":"levelo_inurba_marseille","lat":43.293009,"lon":5.374584,"is_reserved":false,"is_disabled":false,"rental_uris":{"android":"levelo://app?vid=00efbebc-6728-4b4f-a020-240365e72f5a","ios":"levelo://app?vid=00efbebc-6728-4b4f-a020-240365e72f5a"},"vehicle_type_id":"4","last_reported":1683961506,"current_range_meters":0,"station_id":"ce4bgi12rcd13ifvqb70","pricing_plan_id":"free"},{"bike_id":"27c42568-b45b-4269-a1ff-96b82a86e9fa","system_id":"levelo_inurba_marseille","lat":43.305994,"lon":5.393687,"is_reserved":false,"is_disabled":false,"rental_uris":{"android":"levelo://app?vid=27c42568-b45b-4269-a1ff-96b82a86e9fa","ios":"levelo://app?vid=27c42568-b45b-4269-a1ff-96b82a86e9fa"},"vehicle_type_id":"4","last_reported":1683961506,"current_range_meters":19200,"station_id":"ce4bh0p2rcd13ifvqd80","pricing_plan_id":"free"},{"bike_id":"e11d7673-9980-4f20-bedd-25c81b6162b3","system_id":"levelo_inurba_marseille","lat":43.300852,"lon":5.390859,"is_reserved":false,"is_disabled":false,"rental_uris":{"android":"levelo://app?vid=e11d7673-9980-4f20-bedd-25c81b6162b3","ios":"levelo://app?vid=e11d7673-9980-4f20-bedd-25c81b6162b3"},"vehicle_type_id":"4","last_reported":1683961506,"current_range_meters":30800,"station_id":"ce4bh192rcd13ifvqdb0","pricing_plan_id":"free"},{"bike_id":"0194dd7b-d08b-4009-a1fe-6c4612f5a171","system_id":"levelo_inurba_marseille","lat":43.300852,"lon":5.390859,"is_reserved":false,"is_disabled":false,"rental_uris":{"android":"levelo://app?vid=0194dd7b-d08b-4009-a1fe-6c4612f5a171","ios":"levelo://app?vid=0194dd7b-d08b-4009-a1fe-6c4612f5a171"},"vehicle_type_id":"4","last_reported":1683961506,"current_range_meters":31200,"station_id":"ce4bh192rcd13ifvqdb0","pricing_plan_id":"free"},{"bike_id":"982bc3e5-6adb-4e5d-934e-a3a570ec4de3","system_id":"levelo_inurba_marseille","lat":43.29263,"lon":5.376287,"is_reserved":false,"is_disabled":false,"rental_uris":{"android":"levelo://app?vid=982bc3e5-6adb-4e5d-934e-a3a570ec4de3","ios":"levelo://app?vid=982bc3e5-6adb-4e5d-934e-a3a570ec4de3"},"vehicle_type_id":"4","last_reported":1683961506,"current_range_meters":0,"station_id":"","pricing_plan_id":"free"},{"bike_id":"31ca119d-4b6e-4b40-bda0-0551b2e008ce","system_id":"levelo_inurba_marseille","lat":43.292663,"lon":5.376389,"is_reserved":false,"is_disabled":false,"rental_uris":{"android":"levelo://app?vid=31ca119d-4b6e-4b40-bda0-0551b2e008ce","ios":"levelo://app?vid=31ca119d-4b6e-4b40-bda0-0551b2e008ce"},"vehicle_type_id":"4","last_reported":1683961506,"current_range_meters":31200,"station_id":"ce4bgi12rcd13ifvqb80","pricing_plan_id":"free"},{"bike_id":"e7504f9d-0843-49eb-b8d5-2c486d42c541","system_id":"levelo_inurba_marseille","lat":43.291675,"lon":5.371583,"is_reserved":false,"is_disabled":false,"rental_uris":{"android":"levelo://app?vid=e7504f9d-0843-49eb-b8d5-2c486d42c541","ios":"levelo://app?vid=e7504f9d-0843-49eb-b8d5-2c486d42c541"},"vehicle_type_id":"4","last_reported":1683961506,"current_range_meters":31200,"station_id":"ce4bha92rcd13ifvqeh0","pricing_plan_id":"free"},{"bike_id":"b3a14f33-6344-4f93-8443-ecca97033d1e","system_id":"levelo_inurba_marseille","lat":43.292663,"lon":5.376394,"is_reserved":false,"is_disabled":false,"rental_uris":{"android":"levelo://app?vid=b3a14f33-6344-4f93-8443-ecca97033d1e","ios":"levelo://app?vid=b3a14f33-6344-4f93-8443-ecca97033d1e"},"vehicle_type_id":"4","last_reported":1683961506,"current_range_meters":31200,"station_id":"ce4bgi12rcd13ifvqb80","pricing_plan_id":"free"},{"bike_id":"6a9e77da-3871-4ea8-8b35-930bd4333a9a","system_id":"levelo_inurba_marseille","lat":43.292663,"lon":5.376389,"is_reserved":false,"is_disabled":false,"rental_uris":{"android":"levelo://app?vid=6a9e77da-3871-4ea8-8b35-930bd4333a9a","ios":"levelo://app?vid=6a9e77da-3871-4ea8-8b35-930bd4333a9a"},"vehicle_type_id":"4","last_reported":1683961506,"current_range_meters":20800,"station_id":"ce4bgi12rcd13ifvqb80","pricing_plan_id":"free"},{"bike_id":"02f7e880-b68f-468e-bd76-71ea3dd6a443","system_id":"levelo_inurba_marseille","lat":43.298764,"lon":5.388973,"is_reserved":false,"is_disabled":false,"rental_uris":{"android":"levelo://app?vid=02f7e880-b68f-468e-bd76-71ea3dd6a443","ios":"levelo://app?vid=02f7e880-b68f-468e-bd76-71ea3dd6a443"},"vehicle_type_id":"4","last_reported":1683961506,"current_range_meters":27600,"station_id":"ce4bh392rcd13ifvqdl0","pricing_plan_id":"free"},{"bike_id":"0be85bc0-c806-4b14-b71d-610632591af6","system_id":"levelo_inurba_marseille","lat":43.298764,"lon":5.388973,"is_reserved":false,"is_disabled":false,"rental_uris":{"android":"levelo://app?vid=0be85bc0-c806-4b14-b71d-610632591af6","ios":"levelo://app?vid=0be85bc0-c806-4b14-b71d-610632591af6"},"vehicle_type_id":"4","last_reported":1683961506,"current_range_meters":31200,"station_id":"ce4bh392rcd13ifvqdl0","pricing_plan_id":"free"},{"bike_id":"eddbf360-b344-4aa6-ae3b-7ce9c881ea10","system_id":"levelo_inurba_marseille","lat":43.309038,"lon":5.396546,"is_reserved":false,"is_disabled":false,"rental_uris":{"android":"levelo://app?vid=eddbf360-b344-4aa6-ae3b-7ce9c881ea10","ios":"levelo://app?vid=eddbf360-b344-4aa6-ae3b-7ce9c881ea10"},"vehicle_type_id":"4","last_reported":1683961506,"current_range_meters":14800,"station_id":"ce4bh012rcd13ifvqcv0","pricing_plan_id":"free"},{"bike_id":"fefc2afc-3b7d-4dff-89c4-b334f585d659","system_id":"levelo_inurba_marseille","lat":43.29197,"lon":5.35806,"is_reserved":false,"is_disabled":false,"rental_uris":{"android":"levelo://app?vid=fefc2afc-3b7d-4dff-89c4-b334f585d659","ios":"levelo://app?vid=fefc2afc-3b7d-4dff-89c4-b334f585d659"},"vehicle_type_id":"4","last_reported":1683961506,"current_range_meters":24000,"station_id":"","pricing_plan_id":"free"},{"bike_id":"9eaf9e9c-c5d9-4bc0-93b0-d9afdb0afe79","system_id":"levelo_inurba_marseille","lat":43.29192,"lon":5.3581,"is_reserved":false,"is_disabled":false,"rental_uris":{"android":"levelo://app?vid=9eaf9e9c-c5d9-4bc0-93b0-d9afdb0afe79","ios":"levelo://app?vid=9eaf9e9c-c5d9-4bc0-93b0-d9afdb0afe79"},"vehicle_type_id":"4","last_reported":1683961506,"current_range_meters":18400,"station_id":"","pricing_plan_id":"free"},{"bike_id":"94cfdd85-7708-4d18-8858-9edd985a492a","system_id":"levelo_inurba_marseille","lat":43.309038,"lon":5.396546,"is_reserved":false,"is_disabled":false,"rental_uris":{"android":"levelo://app?vid=94cfdd85-7708-4d18-8858-9edd985a492a","ios":"levelo://app?vid=94cfdd85-7708-4d18-8858-9edd985a492a"},"vehicle_type_id":"4","last_reported":1683961506,"current_range_meters":30800,"station_id":"ce4bh012rcd13ifvqcv0","pricing_plan_id":"free"},{"bike_id":"0d17488f-4cc0-4c1b-a45d-b7eabcae8585","system_id":"levelo_inurba_marseille","lat":43.2919,"lon":5.35811,"is_reserved":false,"is_disabled":false,"rental_uris":{"android":"levelo://app?vid=0d17488f-4cc0-4c1b-a45d-b7eabcae8585","ios":"levelo://app?vid=0d17488f-4cc0-4c1b-a45d-b7eabcae8585"},"vehicle_type_id":"4","last_reported":1683961506,"current_range_meters":4800,"station_id":"","pricing_plan_id":"free"},{"bike_id":"43ea94fb-f0bc-48af-bd2d-c866d6def370","system_id":"levelo_inurba_marseille","lat":43.29193,"lon":5.35796,"is_reserved":false,"is_disabled":false,"rental_uris":{"android":"levelo://app?vid=43ea94fb-f0bc-48af-bd2d-c866d6def370","ios":"levelo://app?vid=43ea94fb-f0bc-48af-bd2d-c866d6def370"},"vehicle_type_id":"4","last_reported":1683961506,"current_range_meters":21600,"station_id":"ce4bhb12rcd13ifvqel0","pricing_plan_id":"free"},{"bike_id":"e71689db-57e7-4985-91ce-820b6c7ab2ef","system_id":"levelo_inurba_marseille","lat":43.309038,"lon":5.396546,"is_reserved":false,"is_disabled":false,"rental_uris":{"android":"levelo://app?vid=e71689db-57e7-4985-91ce-820b6c7ab2ef","ios":"levelo://app?vid=e71689db-57e7-4985-91ce-820b6c7ab2ef"},"vehicle_type_id":"4","last_reported":1683961506,"current_range_meters":31200,"station_id":"ce4bh012rcd13ifvqcv0","pricing_plan_id":"free"},{"bike_id":"9c17746a-7558-4c9e-9b81-6ea92c9487e3","system_id":"levelo_inurba_marseille","lat":43.313291,"lon":5.396838,"is_reserved":false,"is_disabled":false,"rental_uris":{"android":"levelo://app?vid=9c17746a-7558-4c9e-9b81-6ea92c9487e3","ios":"levelo://app?vid=9c17746a-7558-4c9e-9b81-6ea92c9487e3"},"vehicle_type_id":"4","last_reported":1683961506,"current_range_meters":24400,"station_id":"ce4bgvp2rcd13ifvqcu0","pricing_plan_id":"free"},{"bike_id":"09f9f13c-b260-4bf3-b060-fb742ab550de","system_id":"levelo_inurba_marseille","lat":43.309038,"lon":5.396546,"is_reserved":false,"is_disabled":false,"rental_uris":{"android":"levelo://app?vid=09f9f13c-b260-4bf3-b060-fb742ab550de","ios":"levelo://app?vid=09f9f13c-b260-4bf3-b060-fb742ab550de"},"vehicle_type_id":"4","last_reported":1683961506,"current_range_meters":8800,"station_id":"ce4bh012rcd13ifvqcv0","pricing_plan_id":"free"},{"bike_id":"560ea34e-feb5-4660-9bff-cf551c95db90","system_id":"levelo_inurba_marseille","lat":43.309038,"lon":5.396546,"is_reserved":false,"is_disabled":false,"rental_uris":{"android":"levelo://app?vid=560ea34e-feb5-4660-9bff-cf551c95db90","ios":"levelo://app?vid=560ea34e-feb5-4660-9bff-cf551c95db90"},"vehicle_type_id":"4","last_reported":1683961506,"current_range_meters":16800,"station_id":"ce4bh012rcd13ifvqcv0","pricing_plan_id":"free"},{"bike_id":"1fc2ebab-8602-40c6-ad3d-33e08383f9df","system_id":"levelo_inurba_marseille","lat":43.309038,"lon":5.396546,"is_reserved":false,"is_disabled":false,"rental_uris":{"android":"levelo://app?vid=1fc2ebab-8602-40c6-ad3d-33e08383f9df","ios":"levelo://app?vid=1fc2ebab-8602-40c6-ad3d-33e08383f9df"},"vehicle_type_id":"4","last_reported":1683961506,"current_range_meters":14000,"station_id":"ce4bh012rcd13ifvqcv0","pricing_plan_id":"free"},{"bike_id":"b1dbe5d2-9911-4db5-b317-0332f405d3d1","system_id":"levelo_inurba_marseille","lat":43.29189,"lon":5.35796,"is_reserved":false,"is_disabled":false,"rental_uris":{"android":"levelo://app?vid=b1dbe5d2-9911-4db5-b317-0332f405d3d1","ios":"levelo://app?vid=b1dbe5d2-9911-4db5-b317-0332f405d3d1"},"vehicle_type_id":"4","last_reported":1683961506,"current_range_meters":6800,"station_id":"ce4bhb12rcd13ifvqel0","pricing_plan_id":"free"},{"bike_id":"9e44de62-a7d8-4edf-8023-596538001931","system_id":"levelo_inurba_marseille","lat":43.31331,"lon":5.39696,"is_reserved":false,"is_disabled":false,"rental_uris":{"android":"levelo://app?vid=9e44de62-a7d8-4edf-8023-596538001931","ios":"levelo://app?vid=9e44de62-a7d8-4edf-8023-596538001931"},"vehicle_type_id":"4","last_reported":1683961506,"current_range_meters":1600,"station_id":"ce4bgvp2rcd13ifvqcu0","pricing_plan_id":"free"},{"bike_id":"0bbb37bf-7d4e-4900-9190-22e7fc2aba37","system_id":"levelo_inurba_marseille","lat":43.309038,"lon":5.396546,"is_reserved":false,"is_disabled":false,"rental_uris":{"android":"levelo://app?vid=0bbb37bf-7d4e-4900-9190-22e7fc2aba37","ios":"levelo://app?vid=0bbb37bf-7d4e-4900-9190-22e7fc2aba37"},"vehicle_type_id":"4","last_reported":1683961506,"current_range_meters":31200,"station_id":"ce4bh012rcd13ifvqcv0","pricing_plan_id":"free"},{"bike_id":"960dc9d5-3255-4e54-8386-d7f163f39be6","system_id":"levelo_inurba_marseille","lat":43.309038,"lon":5.396546,"is_reserved":false,"is_disabled":false,"rental_uris":{"android":"levelo://app?vid=960dc9d5-3255-4e54-8386-d7f163f39be6","ios":"levelo://app?vid=960dc9d5-3255-4e54-8386-d7f163f39be6"},"vehicle_type_id":"4","last_reported":1683961506,"current_range_meters":29600,"station_id":"ce4bh012rcd13ifvqcv0","pricing_plan_id":"free"},{"bike_id":"1f08c3cb-ba17-4d1b-9c29-da16e9aaf7c4","system_id":"levelo_inurba_marseille","lat":43.309038,"lon":5.396546,"is_reserved":false,"is_disabled":false,"rental_uris":{"android":"levelo://app?vid=1f08c3cb-ba17-4d1b-9c29-da16e9aaf7c4","ios":"levelo://app?vid=1f08c3cb-ba17-4d1b-9c29-da16e9aaf7c4"},"vehicle_type_id":"4","last_reported":1683961506,"current_range_meters":15200,"station_id":"ce4bh012rcd13ifvqcv0","pricing_plan_id":"free"},{"bike_id":"ebe7a3c3-9add-4be2-9d92-63b05eb0fafe","system_id":"levelo_inurba_marseille","lat":43.309038,"lon":5.396546,"is_reserved":false,"is_disabled":false,"rental_uris":{"android":"levelo://app?vid=ebe7a3c3-9add-4be2-9d92-63b05eb0fafe","ios":"levelo://app?vid=ebe7a3c3-9add-4be2-9d92-63b05eb0fafe"},"vehicle_type_id":"4","last_reported":1683961506,"current_range_meters":31200,"station_id":"ce4bh012rcd13ifvqcv0","pricing_plan_id":"free"},{"bike_id":"53227ca6-0425-4d55-aa20-ae2d700371fc","system_id":"levelo_inurba_marseille","lat":43.309038,"lon":5.396546,"is_reserved":false,"is_disabled":false,"rental_uris":{"android":"levelo://app?vid=53227ca6-0425-4d55-aa20-ae2d700371fc","ios":"levelo://app?vid=53227ca6-0425-4d55-aa20-ae2d700371fc"},"vehicle_type_id":"4","last_reported":1683961506,"current_range_meters":18400,"station_id":"ce4bh012rcd13ifvqcv0","pricing_plan_id":"free"},{"bike_id":"d65b6377-dab5-45e5-a522-b3d11451061f","system_id":"levelo_inurba_marseille","lat":43.29531,"lon":5.38545,"is_reserved":false,"is_disabled":false,"rental_uris":{"android":"levelo://app?vid=d65b6377-dab5-45e5-a522-b3d11451061f","ios":"levelo://app?vid=d65b6377-dab5-45e5-a522-b3d11451061f"},"vehicle_type_id":"4","last_reported":1683961506,"current_range_meters":0,"station_id":"ce4bgih2rcd13ifvqba0","pricing_plan_id":"free"},{"bike_id":"15419341-57dd-4f51-9e98-0967bd425f73","system_id":"levelo_inurba_marseille","lat":43.290624,"lon":5.359245,"is_reserved":false,"is_disabled":false,"rental_uris":{"android":"levelo://app?vid=15419341-57dd-4f51-9e98-0967bd425f73","ios":"levelo://app?vid=15419341-57dd-4f51-9e98-0967bd425f73"},"vehicle_type_id":"4","last_reported":1683961506,"current_range_meters":24800,"station_id":"ce4bha92rcd13ifvqeg0","pricing_plan_id":"free"},{"bike_id":"7ba9c3f0-2644-430c-91d0-454658ce97af","system_id":"levelo_inurba_marseille","lat":43.302008,"lon":5.394694,"is_reserved":false,"is_disabled":false,"rental_uris":{"android":"levelo://app?vid=7ba9c3f0-2644-430c-91d0-454658ce97af","ios":"levelo://app?vid=7ba9c3f0-2644-430c-91d0-454658ce97af"},"vehicle_type_id":"4","last_reported":1683961506,"current_range_meters":30800,"station_id":"ce4bh0p2rcd13ifvqd70","pricing_plan_id":"free"},{"bike_id":"3dab6f38-0bf3-4622-b697-b76b5d47c9e5","system_id":"levelo_inurba_marseille","lat":43.302008,"lon":5.394694,"is_reserved":false,"is_disabled":false,"rental_uris":{"android":"levelo://app?vid=3dab6f38-0bf3-4622-b697-b76b5d47c9e5","ios":"levelo://app?vid=3dab6f38-0bf3-4622-b697-b76b5d47c9e5"},"vehicle_type_id":"4","last_reported":1683961506,"current_range_meters":30800,"station_id":"ce4bh0p2rcd13ifvqd70","pricing_plan_id":"free"},{"bike_id":"4cc07a8e-1da3-4356-8751-f1f628ad9061","system_id":"levelo_inurba_marseille","lat":43.302008,"lon":5.394694,"is_reserved":false,"is_disabled":false,"rental_uris":{"android":"levelo://app?vid=4cc07a8e-1da3-4356-8751-f1f628ad9061","ios":"levelo://app?vid=4cc07a8e-1da3-4356-8751-f1f628ad9061"},"vehicle_type_id":"4","last_reported":1683961506,"current_range_meters":30800,"station_id":"ce4bh0p2rcd13ifvqd70","pricing_plan_id":"free"},{"bike_id":"f21f64c3-defb-4e05-8d33-f0a7b5a70fa9","system_id":"levelo_inurba_marseille","lat":43.302008,"lon":5.394694,"is_reserved":false,"is_disabled":false,"rental_uris":{"android":"levelo://app?vid=f21f64c3-defb-4e05-8d33-f0a7b5a70fa9","ios":"levelo://app?vid=f21f64c3-defb-4e05-8d33-f0a7b5a70fa9"},"vehicle_type_id":"4","last_reported":1683961506,"current_range_meters":31200,"station_id":"ce4bh0p2rcd13ifvqd70","pricing_plan_id":"free"},{"bike_id":"42dbc636-d724-44fa-ba63-065df3e7d7b3","system_id":"levelo_inurba_marseille","lat":43.302008,"lon":5.394694,"is_reserved":false,"is_disabled":false,"rental_uris":{"android":"levelo://app?vid=42dbc636-d724-44fa-ba63-065df3e7d7b3","ios":"levelo://app?vid=42dbc636-d724-44fa-ba63-065df3e7d7b3"},"vehicle_type_id":"4","last_reported":1683961506,"current_range_meters":24400,"station_id":"ce4bh0p2rcd13ifvqd70","pricing_plan_id":"free"},{"bike_id":"9e407051-9c0b-40fc-bdef-6d710c7134dd","system_id":"levelo_inurba_marseille","lat":43.302008,"lon":5.394694,"is_reserved":false,"is_disabled":false,"rental_uris":{"android":"levelo://app?vid=9e407051-9c0b-40fc-bdef-6d710c7134dd","ios":"levelo://app?vid=9e407051-9c0b-40fc-bdef-6d710c7134dd"},"vehicle_type_id":"4","last_reported":1683961506,"current_range_meters":31200,"station_id":"ce4bh0p2rcd13ifvqd70","pricing_plan_id":"free"},{"bike_id":"f6c188ff-05a2-4446-86d5-f5f746dcb954","system_id":"levelo_inurba_marseille","lat":43.28945,"lon":5.36637,"is_reserved":false,"is_disabled":false,"rental_uris":{"android":"levelo://app?vid=f6c188ff-05a2-4446-86d5-f5f746dcb954","ios":"levelo://app?vid=f6c188ff-05a2-4446-86d5-f5f746dcb954"},"vehicle_type_id":"4","last_reported":1683961506,"current_range_meters":25600,"station_id":"","pricing_plan_id":"free"},{"bike_id":"d37ca63c-0372-49e9-98d7-5d49fab03c8e","system_id":"levelo_inurba_marseille","lat":43.294153,"lon":5.386305,"is_reserved":false,"is_disabled":false,"rental_uris":{"android":"levelo://app?vid=d37ca63c-0372-49e9-98d7-5d49fab03c8e","ios":"levelo://app?vid=d37ca63c-0372-49e9-98d7-5d49fab03c8e"},"vehicle_type_id":"4","last_reported":1683961506,"current_range_meters":22000,"station_id":"ce4bh2h2rcd13ifvqdh0","pricing_plan_id":"free"},{"bike_id":"bedee10e-5dfc-450e-8b51-ca83bf1109a6","system_id":"levelo_inurba_marseille","lat":43.30491,"lon":5.39711,"is_reserved":false,"is_disabled":false,"rental_uris":{"android":"levelo://app?vid=bedee10e-5dfc-450e-8b51-ca83bf1109a6","ios":"levelo://app?vid=bedee10e-5dfc-450e-8b51-ca83bf1109a6"},"vehicle_type_id":"4","last_reported":1683961506,"current_range_meters":4400,"station_id":"","pricing_plan_id":"free"},{"bike_id":"3dd0b3bc-f06e-40f4-be2b-e6dfd7420021","system_id":"levelo_inurba_marseille","lat":43.28941,"lon":5.36635,"is_reserved":false,"is_disabled":false,"rental_uris":{"android":"levelo://app?vid=3dd0b3bc-f06e-40f4-be2b-e6dfd7420021","ios":"levelo://app?vid=3dd0b3bc-f06e-40f4-be2b-e6dfd7420021"},"vehicle_type_id":"4","last_reported":1683961506,"current_range_meters":30800,"station_id":"ce4bhap2rcd13ifvqek0","pricing_plan_id":"free"},{"bike_id":"6858d310-6783-449b-be50-fdc5d0a6abc7","system_id":"levelo_inurba_marseille","lat":43.294153,"lon":5.386305,"is_reserved":false,"is_disabled":false,"rental_uris":{"android":"levelo://app?vid=6858d310-6783-449b-be50-fdc5d0a6abc7","ios":"levelo://app?vid=6858d310-6783-449b-be50-fdc5d0a6abc7"},"vehicle_type_id":"4","last_reported":1683961506,"current_range_meters":25600,"station_id":"ce4bh2h2rcd13ifvqdh0","pricing_plan_id":"free"},{"bike_id":"d48a43c8-9ab4-4507-ba8c-44470cb712e8","system_id":"levelo_inurba_marseille","lat":43.294153,"lon":5.386305,"is_reserved":false,"is_disabled":false,"rental_uris":{"android":"levelo://app?vid=d48a43c8-9ab4-4507-ba8c-44470cb712e8","ios":"levelo://app?vid=d48a43c8-9ab4-4507-ba8c-44470cb712e8"},"vehicle_type_id":"4","last_reported":1683961506,"current_range_meters":27200,"station_id":"ce4bh2h2rcd13ifvqdh0","pricing_plan_id":"free"},{"bike_id":"9f129774-36e1-42f1-8229-a7c2be11d89e","system_id":"levelo_inurba_marseille","lat":43.30482,"lon":5.39711,"is_reserved":false,"is_disabled":false,"rental_uris":{"android":"levelo://app?vid=9f129774-36e1-42f1-8229-a7c2be11d89e","ios":"levelo://app?vid=9f129774-36e1-42f1-8229-a7c2be11d89e"},"vehicle_type_id":"4","last_reported":1683961506,"current_range_meters":20800,"station_id":"","pricing_plan_id":"free"},{"bike_id":"3cacd10a-194d-4ff1-b6ed-416a601252e4","system_id":"levelo_inurba_marseille","lat":43.289184,"lon":5.366408,"is_reserved":false,"is_disabled":false,"rental_uris":{"android":"levelo://app?vid=3cacd10a-194d-4ff1-b6ed-416a601252e4","ios":"levelo://app?vid=3cacd10a-194d-4ff1-b6ed-416a601252e4"},"vehicle_type_id":"4","last_reported":1683961506,"current_range_meters":31200,"station_id":"ce4bhap2rcd13ifvqek0","pricing_plan_id":"free"},{"bike_id":"57d985d9-4d22-4f67-a5c7-777a805a3e6b","system_id":"levelo_inurba_marseille","lat":43.289468,"lon":5.363719,"is_reserved":false,"is_disabled":false,"rental_uris":{"android":"levelo://app?vid=57d985d9-4d22-4f67-a5c7-777a805a3e6b","ios":"levelo://app?vid=57d985d9-4d22-4f67-a5c7-777a805a3e6b"},"vehicle_type_id":"4","last_reported":1683961506,"current_range_meters":28400,"station_id":"ce4bhc92rcd13ifvqetg","pricing_plan_id":"free"},{"bike_id":"d1e26f83-36d5-4390-bcad-2ce49be85a32","system_id":"levelo_inurba_marseille","lat":43.289184,"lon":5.366408,"is_reserved":false,"is_disabled":false,"rental_uris":{"android":"levelo://app?vid=d1e26f83-36d5-4390-bcad-2ce49be85a32","ios":"levelo://app?vid=d1e26f83-36d5-4390-bcad-2ce49be85a32"},"vehicle_type_id":"4","last_reported":1683961506,"current_range_meters":28000,"station_id":"ce4bhap2rcd13ifvqek0","pricing_plan_id":"free"},{"bike_id":"bafe5c82-144b-4b74-8d20-0234206a9063","system_id":"levelo_inurba_marseille","lat":43.289468,"lon":5.363719,"is_reserved":false,"is_disabled":false,"rental_uris":{"android":"levelo://app?vid=bafe5c82-144b-4b74-8d20-0234206a9063","ios":"levelo://app?vid=bafe5c82-144b-4b74-8d20-0234206a9063"},"vehicle_type_id":"4","last_reported":1683961506,"current_range_meters":24800,"station_id":"ce4bhc92rcd13ifvqetg","pricing_plan_id":"free"},{"bike_id":"05b7eebc-cb2a-4b19-b944-079b21ca91c1","system_id":"levelo_inurba_marseille","lat":43.289184,"lon":5.366408,"is_reserved":false,"is_disabled":false,"rental_uris":{"android":"levelo://app?vid=05b7eebc-cb2a-4b19-b944-079b21ca91c1","ios":"levelo://app?vid=05b7eebc-cb2a-4b19-b944-079b21ca91c1"},"vehicle_type_id":"4","last_reported":1683961506,"current_range_meters":30800,"station_id":"ce4bhap2rcd13ifvqek0","pricing_plan_id":"free"},{"bike_id":"9d22aa05-9386-4e54-ba29-93ba515876d0","system_id":"levelo_inurba_marseille","lat":43.289184,"lon":5.366408,"is_reserved":false,"is_disabled":false,"rental_uris":{"android":"levelo://app?vid=9d22aa05-9386-4e54-ba29-93ba515876d0","ios":"levelo://app?vid=9d22aa05-9386-4e54-ba29-93ba515876d0"},"vehicle_type_id":"4","last_reported":1683961506,"current_range_meters":0,"station_id":"ce4bhap2rcd13ifvqek0","pricing_plan_id":"free"},{"bike_id":"10a1106d-dcdc-4f65-812f-064798fa3892","system_id":"levelo_inurba_marseille","lat":43.289468,"lon":5.363719,"is_reserved":false,"is_disabled":false,"rental_uris":{"android":"levelo://app?vid=10a1106d-dcdc-4f65-812f-064798fa3892","ios":"levelo://app?vid=10a1106d-dcdc-4f65-812f-064798fa3892"},"vehicle_type_id":"4","last_reported":1683961506,"current_range_meters":31200,"station_id":"ce4bhc92rcd13ifvqetg","pricing_plan_id":"free"},{"bike_id":"e5c418ee-7e6a-4dec-a4e3-3a636d38da60","system_id":"levelo_inurba_marseille","lat":43.304296,"lon":5.397513,"is_reserved":false,"is_disabled":false,"rental_uris":{"android":"levelo://app?vid=e5c418ee-7e6a-4dec-a4e3-3a636d38da60","ios":"levelo://app?vid=e5c418ee-7e6a-4dec-a4e3-3a636d38da60"},"vehicle_type_id":"4","last_reported":1683961506,"current_range_meters":29600,"station_id":"ce4bh092rcd13ifvqd20","pricing_plan_id":"free"},{"bike_id":"7dfb63d7-3cea-4571-aa06-76c88bd9f321","system_id":"levelo_inurba_marseille","lat":43.33039,"lon":5.3892,"is_reserved":false,"is_disabled":false,"rental_uris":{"android":"levelo://app?vid=7dfb63d7-3cea-4571-aa06-76c88bd9f321","ios":"levelo://app?vid=7dfb63d7-3cea-4571-aa06-76c88bd9f321"},"vehicle_type_id":"4","last_reported":1683961506,"current_range_meters":29200,"station_id":"ce4bhr92rcd13ifvqhrg","pricing_plan_id":"free"},{"bike_id":"99d11ff8-cd4f-4243-907c-822c17bc769b","system_id":"levelo_inurba_marseille","lat":43.33043,"lon":5.38917,"is_reserved":false,"is_disabled":false,"rental_uris":{"android":"levelo://app?vid=99d11ff8-cd4f-4243-907c-822c17bc769b","ios":"levelo://app?vid=99d11ff8-cd4f-4243-907c-822c17bc769b"},"vehicle_type_id":"4","last_reported":1683961506,"current_range_meters":21600,"station_id":"ce4bhr92rcd13ifvqhrg","pricing_plan_id":"free"},{"bike_id":"b8d0a2d7-4443-405c-9e1e-71d351b2ac12","system_id":"levelo_inurba_marseille","lat":43.33039,"lon":5.38923,"is_reserved":false,"is_disabled":false,"rental_uris":{"android":"levelo://app?vid=b8d0a2d7-4443-405c-9e1e-71d351b2ac12","ios":"levelo://app?vid=b8d0a2d7-4443-405c-9e1e-71d351b2ac12"},"vehicle_type_id":"4","last_reported":1683961506,"current_range_meters":22800,"station_id":"ce4bhr92rcd13ifvqhrg","pricing_plan_id":"free"},{"bike_id":"754ef565-0150-4f0d-8c0d-a8a5d6927613","system_id":"levelo_inurba_marseille","lat":43.3304,"lon":5.38923,"is_reserved":false,"is_disabled":false,"rental_uris":{"android":"levelo://app?vid=754ef565-0150-4f0d-8c0d-a8a5d6927613","ios":"levelo://app?vid=754ef565-0150-4f0d-8c0d-a8a5d6927613"},"vehicle_type_id":"4","last_reported":1683961506,"current_range_meters":20400,"station_id":"ce4bhr92rcd13ifvqhrg","pricing_plan_id":"free"},{"bike_id":"4bd08121-01c0-44b3-b00a-2ecfcb89cc44","system_id":"levelo_inurba_marseille","lat":43.33043,"lon":5.38919,"is_reserved":false,"is_disabled":false,"rental_uris":{"android":"levelo://app?vid=4bd08121-01c0-44b3-b00a-2ecfcb89cc44","ios":"levelo://app?vid=4bd08121-01c0-44b3-b00a-2ecfcb89cc44"},"vehicle_type_id":"4","last_reported":1683961506,"current_range_meters":31200,"station_id":"ce4bhr92rcd13ifvqhrg","pricing_plan_id":"free"},{"bike_id":"d9c65fb5-b538-43a6-8b06-cce8ee9f5b2a","system_id":"levelo_inurba_marseille","lat":43.3304,"lon":5.38924,"is_reserved":false,"is_disabled":false,"rental_uris":{"android":"levelo://app?vid=d9c65fb5-b538-43a6-8b06-cce8ee9f5b2a","ios":"levelo://app?vid=d9c65fb5-b538-43a6-8b06-cce8ee9f5b2a"},"vehicle_type_id":"4","last_reported":1683961506,"current_range_meters":30000,"station_id":"ce4bhr92rcd13ifvqhrg","pricing_plan_id":"free"},{"bike_id":"b2ba4651-8c86-47df-8363-f1603da9b047","system_id":"levelo_inurba_marseille","lat":43.295169,"lon":5.390426,"is_reserved":false,"is_disabled":false,"rental_uris":{"android":"levelo://app?vid=b2ba4651-8c86-47df-8363-f1603da9b047","ios":"levelo://app?vid=b2ba4651-8c86-47df-8363-f1603da9b047"},"vehicle_type_id":"4","last_reported":1683961506,"current_range_meters":25200,"station_id":"ce4bh3p2rcd13ifvqdp0","pricing_plan_id":"free"},{"bike_id":"85f315ac-992b-456f-bf47-db47c714423b","system_id":"levelo_inurba_marseille","lat":43.2901,"lon":5.381269,"is_reserved":false,"is_disabled":false,"rental_uris":{"android":"levelo://app?vid=85f315ac-992b-456f-bf47-db47c714423b","ios":"levelo://app?vid=85f315ac-992b-456f-bf47-db47c714423b"},"vehicle_type_id":"4","last_reported":1683961506,"current_range_meters":28400,"station_id":"ce4bh4p2rcd13ifvqe1g","pricing_plan_id":"free"},{"bike_id":"50b5244a-06b4-4d47-b990-bc579a5aeee8","system_id":"levelo_inurba_marseille","lat":43.33737,"lon":5.37477,"is_reserved":false,"is_disabled":false,"rental_uris":{"android":"levelo://app?vid=50b5244a-06b4-4d47-b990-bc579a5aeee8","ios":"levelo://app?vid=50b5244a-06b4-4d47-b990-bc579a5aeee8"},"vehicle_type_id":"4","last_reported":1683961506,"current_range_meters":29600,"station_id":"","pricing_plan_id":"free"},{"bike_id":"4b5d1898-ca0d-4e89-9f5a-03d37f156b08","system_id":"levelo_inurba_marseille","lat":43.3374,"lon":5.3747,"is_reserved":false,"is_disabled":false,"rental_uris":{"android":"levelo://app?vid=4b5d1898-ca0d-4e89-9f5a-03d37f156b08","ios":"levelo://app?vid=4b5d1898-ca0d-4e89-9f5a-03d37f156b08"},"vehicle_type_id":"4","last_reported":1683961506,"current_range_meters":30800,"station_id":"","pricing_plan_id":"free"},{"bike_id":"7d45944e-d7ef-4cc4-ab14-f45b4fe8e950","system_id":"levelo_inurba_marseille","lat":43.33747,"lon":5.37477,"is_reserved":false,"is_disabled":false,"rental_uris":{"android":"levelo://app?vid=7d45944e-d7ef-4cc4-ab14-f45b4fe8e950","ios":"levelo://app?vid=7d45944e-d7ef-4cc4-ab14-f45b4fe8e950"},"vehicle_type_id":"4","last_reported":1683961506,"current_range_meters":30400,"station_id":"","pricing_plan_id":"free"},{"bike_id":"7050c15b-a483-4d0c-a11b-097fc7e96ca2","system_id":"levelo_inurba_marseille","lat":43.33753,"lon":5.37449,"is_reserved":false,"is_disabled":false,"rental_uris":{"android":"levelo://app?vid=7050c15b-a483-4d0c-a11b-097fc7e96ca2","ios":"levelo://app?vid=7050c15b-a483-4d0c-a11b-097fc7e96ca2"},"vehicle_type_id":"4","last_reported":1683961506,"current_range_meters":1600,"station_id":"","pricing_plan_id":"free"},{"bike_id":"164d2ae3-c9c6-4eb7-8b99-e2bc4e84f0e6","system_id":"levelo_inurba_marseille","lat":43.33762,"lon":5.374258,"is_reserved":false,"is_disabled":false,"rental_uris":{"android":"levelo://app?vid=164d2ae3-c9c6-4eb7-8b99-e2bc4e84f0e6","ios":"levelo://app?vid=164d2ae3-c9c6-4eb7-8b99-e2bc4e84f0e6"},"vehicle_type_id":"4","last_reported":1683961506,"current_range_meters":26000,"station_id":"ce4rr2p2rcd13i802rgg","pricing_plan_id":"free"},{"bike_id":"58c75385-e42e-4a55-9764-48cdd5e34239","system_id":"levelo_inurba_marseille","lat":43.30642,"lon":5.401031,"is_reserved":false,"is_disabled":false,"rental_uris":{"android":"levelo://app?vid=58c75385-e42e-4a55-9764-48cdd5e34239","ios":"levelo://app?vid=58c75385-e42e-4a55-9764-48cdd5e34239"},"vehicle_type_id":"4","last_reported":1683961506,"current_range_meters":16000,"station_id":"ce4bh112rcd13ifvqda0","pricing_plan_id":"free"},{"bike_id":"64c62719-fb1a-42d2-bc39-a910b9837715","system_id":"levelo_inurba_marseille","lat":43.30642,"lon":5.401031,"is_reserved":false,"is_disabled":false,"rental_uris":{"android":"levelo://app?vid=64c62719-fb1a-42d2-bc39-a910b9837715","ios":"levelo://app?vid=64c62719-fb1a-42d2-bc39-a910b9837715"},"vehicle_type_id":"4","last_reported":1683961506,"current_range_meters":31200,"station_id":"ce4bh112rcd13ifvqda0","pricing_plan_id":"free"},{"bike_id":"dcf0a8c7-0856-4697-b5f4-085b6e499fa5","system_id":"levelo_inurba_marseille","lat":43.30642,"lon":5.401031,"is_reserved":false,"is_disabled":false,"rental_uris":{"android":"levelo://app?vid=dcf0a8c7-0856-4697-b5f4-085b6e499fa5","ios":"levelo://app?vid=dcf0a8c7-0856-4697-b5f4-085b6e499fa5"},"vehicle_type_id":"4","last_reported":1683961506,"current_range_meters":1200,"station_id":"ce4bh112rcd13ifvqda0","pricing_plan_id":"free"},{"bike_id":"61231e31-1dc5-4e62-9c0e-94062e78d852","system_id":"levelo_inurba_marseille","lat":43.30642,"lon":5.401031,"is_reserved":false,"is_disabled":false,"rental_uris":{"android":"levelo://app?vid=61231e31-1dc5-4e62-9c0e-94062e78d852","ios":"levelo://app?vid=61231e31-1dc5-4e62-9c0e-94062e78d852"},"vehicle_type_id":"4","last_reported":1683961506,"current_range_meters":2800,"station_id":"ce4bh112rcd13ifvqda0","pricing_plan_id":"free"},{"bike_id":"c2f47a43-1a25-412e-bad2-1279deeebbba","system_id":"levelo_inurba_marseille","lat":43.30642,"lon":5.401031,"is_reserved":false,"is_disabled":false,"rental_uris":{"android":"levelo://app?vid=c2f47a43-1a25-412e-bad2-1279deeebbba","ios":"levelo://app?vid=c2f47a43-1a25-412e-bad2-1279deeebbba"},"vehicle_type_id":"4","last_reported":1683961506,"current_range_meters":26000,"station_id":"ce4bh112rcd13ifvqda0","pricing_plan_id":"free"},