{"last_updated":1720210158,"ttl":30,"version":"2.2","data":{"bikes":[{"bike_id":"ad1ec2b9-0297-4875-9241-ec9dad419783","system_id":"levelo_inurba_marseille","lat":43.3122,"lon":5.36847,"is_reserved":false,"is_disabled":false,"rental_uris":{"android":"levelo://app?vid=ad1ec2b9-0297-4875-9241-ec9dad419783","ios":"levelo://app?vid=ad1ec2b9-0297-4875-9241-ec9dad419783"},"vehicle_type_id":"4","last_reported":1720210158,"current_range_meters":0,"station_id":"ce4bgl92rcd13ifvqbq0","pricing_plan_id":"cebpf4jnsgd1na2vs0mg"},{"bike_id":"0c45bbfb-44c3-4d88-a51d-843ed9a6e0d6","system_id":"levelo_inurba_marseille","lat":43.312239,"lon":5.368562,"is_reserved":false,"is_disabled":false,"rental_uris":{"android":"levelo://app?vid=0c45bbfb-44c3-4d88-a51d-843ed9a6e0d6","ios":"levelo://app?vid=0c45bbfb-44c3-4d88-a51d-843ed9a6e0d6"},"vehicle_type_id":"4","last_reported":1720210158,"current_range_meters":28800,"station_id":"ce4bgl92rcd13ifvqbq0","pricing_plan_id":"cebpf4jnsgd1na2vs0mg"},{"bike_id":"6b831969-f1b7-4e25-8175-5f384fe73b1d","system_id":"levelo_inurba_marseille","lat":43.312239,"lon":5.368562,"is_reserved":false,"is_disabled":false,"rental_uris":{"android":"levelo://app?vid=6b831969-f1b7-4e25-8175-5f384fe73b1d","ios":"levelo://app?vid=6b831969-f1b7-4e25-8175-5f384fe73b1d"},"vehicle_type_id":"4","last_reported":1720210158,"current_range_meters":27600,"station_id":"ce4bgl92rcd13ifvqbq0","pricing_plan_id":"cebpf4jnsgd1na2vs0mg"},{"bike_id":"86006cfd-5f6b-46de-b5ea-827aa9c595fe","system_id":"levelo_inurba_marseille","lat":43.305989,"lon":5.37225,"is_reserved":false,"is_disabled":false,"rental_uris":{"android":"levelo://app?vid=86006cfd-5f6b-46de-b5ea-827aa9c595fe","ios":"levelo://app?vid=86006cfd-5f6b-46de-b5ea-827aa9c595fe"},"vehicle_type_id":"4","last_reported":1720210158,"current_range_meters":20400,"station_id":"ce4bgqh2rcd13ifvqc4g","pricing_plan_id":"cebpf4jnsgd1na2vs0mg"},{"bike_id":"b7f873ca-bece-4977-8c13-4a054abb5a2e","system_id":"levelo_inurba_marseille","lat":43.309076,"lon":5.368465,"is_reserved":false,"is_disabled":false,"rental_uris":{"android":"levelo://app?vid=b7f873ca-bece-4977-8c13-4a054abb5a2e","ios":"levelo://app?vid=b7f873ca-bece-4977-8c13-4a054abb5a2e"},"vehicle_type_id":"4","last_reported":1720210158,"current_range_meters":28800,"station_id":"ce4bgn92rcd13ifvqbvg","pricing_plan_id":"cebpf4jnsgd1na2vs0mg"},{"bike_id":"3b2c2b1d-7fa5-43b1-a42d-2a493ddd90a4","system_id":"levelo_inurba_marseille","lat":43.309076,"lon":5.368465,"is_reserved":false,"is_disabled":false,"rental_uris":{"android":"levelo://app?vid=3b2c2b1d-7fa5-43b1-a42d-2a493ddd90a4","ios":"levelo://app?vid=3b2c2b1d-7fa5-43b1-a42d-2a493ddd90a4"},"vehicle_type_id":"4","last_reported":1720210158,"current_range_meters":20400,"station_id":"ce4bgn92rcd13ifvqbvg","pricing_plan_id":"cebpf4jnsgd1na2vs0mg"},{"bike_id":"8b4e0c10-98ec-40ce-8788-5f9f523818d7","system_id":"levelo_inurba_marseille","lat":43.309076,"lon":5.368465,"is_reserved":false,"is_disabled":false,"rental_uris":{"android":"levelo://app?vid=8b4e0c10-98ec-40ce-8788-5f9f523818d7","ios":"levelo://app?vid=8b4e0c10-98ec-40ce-8788-5f9f523818d7"},"vehicle_type_id":"4","last_reported":1720210158,"current_range_meters":7200,"station_id":"ce4bgn92rcd13ifvqbvg","pricing_plan_id":"cebpf4jnsgd1na2vs0mg"},{"bike_id":"4d0be132-1fcf-4308-a800-1c2fb02f457e","system_id":"levelo_inurba_marseille","lat":43.30875,"lon":5.371,"is_reserved":false,"is_disabled":false,"rental_uris":{"android":"levelo://app?vid=4d0be132-1fcf-4308-a800-1c2fb02f457e","ios":"levelo://app?vid=4d0be132-1fcf-4308-a800-1c2fb02f457e"},"vehicle_type_id":"4","last_reported":1720210158,"current_range_meters":9200,"station_id":"","pricing_plan_id":"cebpf4jnsgd1na2vs0mg"},{"bike_id":"07d1718e-5c48-4b2c-9e9f-3a89d49bd8b9","system_id":"levelo_inurba_marseille","lat":43.309039,"lon":5.371797,"is_reserved":false,"is_disabled":false,"rental_uris":{"android":"levelo://app?vid=07d1718e-5c48-4b2c-9e9f-3a89d49bd8b9","ios":"levelo://app?vid=07d1718e-5c48-4b2c-9e9f-3a89d49bd8b9"},"vehicle_type_id":"4","last_reported":1720210158,"current_range_meters":6000,"station_id":"ce4bguh2rcd13ifvqckg","pricing_plan_id":"cebpf4jnsgd1na2vs0mg"},{"bike_id":"d358591a-d724-4ea2-9f5a-5d52862be55c","system_id":"levelo_inurba_marseille","lat":43.309039,"lon":5.371797,"is_reserved":false,"is_disabled":false,"rental_uris":{"android":"levelo://app?vid=d358591a-d724-4ea2-9f5a-5d52862be55c","ios":"levelo://app?vid=d358591a-d724-4ea2-9f5a-5d52862be55c"},"vehicle_type_id":"4","last_reported":1720210158,"current_range_meters":26400,"station_id":"ce4bguh2rcd13ifvqckg","pricing_plan_id":"cebpf4jnsgd1na2vs0mg"},{"bike_id":"41cdcdd6-ded1-4424-b142-2da7b544bf9d","system_id":"levelo_inurba_marseille","lat":43.31792,"lon":5.36938,"is_reserved":false,"is_disabled":false,"rental_uris":{"android":"levelo://app?vid=41cdcdd6-ded1-4424-b142-2da7b544bf9d","ios":"levelo://app?vid=41cdcdd6-ded1-4424-b142-2da7b544bf9d"},"vehicle_type_id":"4","last_reported":1720210158,"current_range_meters":9200,"station_id":"","pricing_plan_id":"cebpf4jnsgd1na2vs0mg"},{"bike_id":"dff2c768-9526-4f88-8f4b-063a3e0b0c67","system_id":"levelo_inurba_marseille","lat":43.309039,"lon":5.371797,"is_reserved":false,"is_disabled":false,"rental_uris":{"android":"levelo://app?vid=dff2c768-9526-4f88-8f4b-063a3e0b0c67","ios":"levelo://app?vid=dff2c768-9526-4f88-8f4b-063a3e0b0c67"},"vehicle_type_id":"4","last_reported":1720210158,"current_range_meters":9600,"station_id":"ce4bguh2rcd13ifvqckg","pricing_plan_id":"cebpf4jnsgd1na2vs0mg"},{"bike_id":"c79f8306-56bf-44a2-ba95-de1d7b0db9c7","system_id":"levelo_inurba_marseille","lat":43.312909,"lon":5.375559,"is_reserved":false,"is_disabled":false,"rental_uris":{"android":"levelo://app?vid=c79f8306-56bf-44a2-ba95-de1d7b0db9c7","ios":"levelo://app?vid=c79f8306-56bf-44a2-ba95-de1d7b0db9c7"},"vehicle_type_id":"4","last_reported":1720210158,"current_range_meters":0,"station_id":"","pricing_plan_id":"cebpf4jnsgd1na2vs0mg"},{"bike_id":"e137663d-8691-4bf4-a0cb-fb315a8a92f4","system_id":"levelo_inurba_marseille","lat":43.31826,"lon":5.3725,"is_reserved":false,"is_disabled":false,"rental_uris":{"android":"levelo://app?vid=e137663d-8691-4bf4-a0cb-fb315a8a92f4","ios":"levelo://app?vid=e137663d-8691-4bf4-a0cb-fb315a8a92f4"},"vehicle_type_id":"4","last_reported":1720210158,"current_range_meters":800,"station_id":"","pricing_plan_id":"cebpf4jnsgd1na2vs0mg"},{"bike_id":"581dc25d-7d27-4f55-ab7a-051415842d94","system_id":"levelo_inurba_marseille","lat":43.305989,"lon":5.37225,"is_reserved":false,"is_disabled":false,"rental_uris":{"android":"levelo://app?vid=581dc25d-7d27-4f55-ab7a-051415842d94","ios":"levelo://app?vid=581dc25d-7d27-4f55-ab7a-051415842d94"},"vehicle_type_id":"4","last_reported":1720210158,"current_range_meters":22400,"station_id":"ce4bgqh2rcd13ifvqc4g","pricing_plan_id":"cebpf4jnsgd1na2vs0mg"},{"bike_id":"498723c2-0d41-4936-9f8b-c4085201cd6b","system_id":"levelo_inurba_marseille","lat":43.307945,"lon":5.376487,"is_reserved":false,"is_disabled":false,"rental_uris":{"android":"levelo://app?vid=498723c2-0d41-4936-9f8b-c4085201cd6b","ios":"levelo://app?vid=498723c2-0d41-4936-9f8b-c4085201cd6b"},"vehicle_type_id":"4","last_reported":1720210158,"current_range_meters":15600,"station_id":"ce4bgv92rcd13ifvqcq0","pricing_plan_id":"cebpf4jnsgd1na2vs0mg"},{"bike_id":"b42ba4ea-1156-4d33-b885-d4b2c585400a","system_id":"levelo_inurba_marseille","lat":43.304166,"lon":5.370559,"is_reserved":false,"is_disabled":false,"rental_uris":{"android":"levelo://app?vid=b42ba4ea-1156-4d33-b885-d4b2c585400a","ios":"levelo://app?vid=b42ba4ea-1156-4d33-b885-d4b2c585400a"},"vehicle_type_id":"4","last_reported":1720210158,"current_range_meters":1200,"station_id":"","pricing_plan_id":"cebpf4jnsgd1na2vs0mg"},{"bike_id":"c5316d8b-0499-422b-a52b-900ab34f492f","system_id":"levelo_inurba_marseille","lat":43.305364,"lon":5.384119,"is_reserved":false,"is_disabled":false,"rental_uris":{"android":"levelo://app?vid=c5316d8b-0499-422b-a52b-900ab34f492f","ios":"levelo://app?vid=c5316d8b-0499-422b-a52b-900ab34f492f"},"vehicle_type_id":"4","last_reported":1720210158,"current_range_meters":25600,"station_id":"ce4bgg92rcd13ifvqb30","pricing_plan_id":"cebpf4jnsgd1na2vs0mg"},{"bike_id":"c654f995-4175-490d-bffc-b2aea9a115eb","system_id":"levelo_inurba_marseille","lat":43.3154,"lon":5.38019,"is_reserved":false,"is_disabled":false,"rental_uris":{"android":"levelo://app?vid=c654f995-4175-490d-bffc-b2aea9a115eb","ios":"levelo://app?vid=c654f995-4175-490d-bffc-b2aea9a115eb"},"vehicle_type_id":"4","last_reported":1720210158,"current_range_meters":1200,"station_id":"ce4bhsp2rcd13ifvqi50","pricing_plan_id":"cebpf4jnsgd1na2vs0mg"},{"bike_id":"8e8524ca-047b-4217-984b-fee64bef8f6c","system_id":"levelo_inurba_marseille","lat":43.31535,"lon":5.38022,"is_reserved":false,"is_disabled":false,"rental_uris":{"android":"levelo://app?vid=8e8524ca-047b-4217-984b-fee64bef8f6c","ios":"levelo://app?vid=8e8524ca-047b-4217-984b-fee64bef8f6c"},"vehicle_type_id":"4","last_reported":1720210158,"current_range_meters":6400,"station_id":"ce4bhsp2rcd13ifvqi50","pricing_plan_id":"cebpf4jnsgd1na2vs0mg"},{"bike_id":"dd7c32d4-d7d8-4295-acc4-06522cba0791","system_id":"levelo_inurba_marseille","lat":43.31524,"lon":5.38032,"is_reserved":false,"is_disabled":false,"rental_uris":{"android":"levelo://app?vid=dd7c32d4-d7d8-4295-acc4-06522cba0791","ios":"levelo://app?vid=dd7c32d4-d7d8-4295-acc4-06522cba0791"},"vehicle_type_id":"4","last_reported":1720210158,"current_range_meters":20800,"station_id":"ce4bhsp2rcd13ifvqi50","pricing_plan_id":"cebpf4jnsgd1na2vs0mg"},{"bike_id":"9f705de0-0b4c-45ee-b4ad-30cfb132ea75","system_id":"levelo_inurba_marseille","lat":43.301939,"lon":5.366286,"is_reserved":false,"is_disabled":false,"rental_uris":{"android":"levelo://app?vid=9f705de0-0b4c-45ee-b4ad-30cfb132ea75","ios":"levelo://app?vid=9f705de0-0b4c-45ee-b4ad-30cfb132ea75"},"vehicle_type_id":"4","last_reported":1720210158,"current_range_meters":9600,"station_id":"ce4bgrh2rcd13ifvqc8g","pricing_plan_id":"cebpf4jnsgd1na2vs0mg"},{"bike_id":"de7f94a0-f3a6-4702-b950-2ed30e4e8005","system_id":"levelo_inurba_marseille","lat":43.31592,"lon":5.38216,"is_reserved":false,"is_disabled":false,"rental_uris":{"android":"levelo://app?vid=de7f94a0-f3a6-4702-b950-2ed30e4e8005","ios":"levelo://app?vid=de7f94a0-f3a6-4702-b950-2ed30e4e8005"},"vehicle_type_id":"4","last_reported":1720210158,"current_range_meters":20000,"station_id":"","pricing_plan_id":"cebpf4jnsgd1na2vs0mg"},{"bike_id":"2955a5c1-ff15-415a-b0f4-cb08d3606445","system_id":"levelo_inurba_marseille","lat":43.308012,"lon":5.381511,"is_reserved":false,"is_disabled":false,"rental_uris":{"android":"levelo://app?vid=2955a5c1-ff15-415a-b0f4-cb08d3606445","ios":"levelo://app?vid=2955a5c1-ff15-415a-b0f4-cb08d3606445"},"vehicle_type_id":"4","last_reported":1720210158,"current_range_meters":3200,"station_id":"ce4bgt12rcd13ifvqce0","pricing_plan_id":"cebpf4jnsgd1na2vs0mg"},{"bike_id":"ad8c02c3-b43c-4efb-8ba1-4ac0faed2346","system_id":"levelo_inurba_marseille","lat":43.30102,"lon":5.368536,"is_reserved":false,"is_disabled":false,"rental_uris":{"android":"levelo://app?vid=ad8c02c3-b43c-4efb-8ba1-4ac0faed2346","ios":"levelo://app?vid=ad8c02c3-b43c-4efb-8ba1-4ac0faed2346"},"vehicle_type_id":"4","last_reported":1720210158,"current_range_meters":18000,"station_id":"","pricing_plan_id":"cebpf4jnsgd1na2vs0mg"},{"bike_id":"6bc1bbcb-fccb-4e4d-b7e3-aac6bc252b6d","system_id":"levelo_inurba_marseille","lat":43.304606,"lon":5.379026,"is_reserved":false,"is_disabled":false,"rental_uris":{"android":"levelo://app?vid=6bc1bbcb-fccb-4e4d-b7e3-aac6bc252b6d","ios":"levelo://app?vid=6bc1bbcb-fccb-4e4d-b7e3-aac6bc252b6d"},"vehicle_type_id":"4","last_reported":1720210158,"current_range_meters":6000,"station_id":"ce4bgup2rcd13ifvqcn0","pricing_plan_id":"cebpf4jnsgd1na2vs0mg"},{"bike_id":"a6a4caf5-a268-4722-a61f-9a5ad89ba2a1","system_id":"levelo_inurba_marseille","lat":43.304606,"lon":5.379026,"is_reserved":false,"is_disabled":false,"rental_uris":{"android":"levelo://app?vid=a6a4caf5-a268-4722-a61f-9a5ad89ba2a1","ios":"levelo://app?vid=a6a4caf5-a268-4722-a61f-9a5ad89ba2a1"},"vehicle_type_id":"4","last_reported":1720210158,"current_range_meters":25200,"station_id":"ce4bgup2rcd13ifvqcn0","pricing_plan_id":"cebpf4jnsgd1na2vs0mg"},{"bike_id":"8b6eb0bb-0cc9-4c50-89a3-89e705056fcb","system_id":"levelo_inurba_marseille","lat":43.304606,"lon":5.379026,"is_reserved":false,"is_disabled":false,"rental_uris":{"android":"levelo://app?vid=8b6eb0bb-0cc9-4c50-89a3-89e705056fcb","ios":"levelo://app?vid=8b6eb0bb-0cc9-4c50-89a3-89e705056fcb"},"vehicle_type_id":"4","last_reported":1720210158,"current_range_meters":4000,"station_id":"ce4bgup2rcd13ifvqcn0","pricing_plan_id":"cebpf4jnsgd1na2vs0mg"},{"bike_id":"885647f0-33c0-4336-88b8-cf551916c4b7","system_id":"levelo_inurba_marseille","lat":43.304606,"lon":5.379026,"is_reserved":false,"is_disabled":false,"rental_uris":{"android":"levelo://app?vid=885647f0-33c0-4336-88b8-cf551916c4b7","ios":"levelo://app?vid=885647f0-33c0-4336-88b8-cf551916c4b7"},"vehicle_type_id":"4","last_reported":1720210158,"current_range_meters":0,"station_id":"ce4bgup2rcd13ifvqcn0","pricing_plan_id":"cebpf4jnsgd1na2vs0mg"},{"bike_id":"bc53f12e-5df5-48dc-8122-1b72c3979e5e","system_id":"levelo_inurba_marseille","lat":43.324771,"lon":5.36557,"is_reserved":false,"is_disabled":false,"rental_uris":{"android":"levelo://app?vid=bc53f12e-5df5-48dc-8122-1b72c3979e5e","ios":"levelo://app?vid=bc53f12e-5df5-48dc-8122-1b72c3979e5e"},"vehicle_type_id":"4","last_reported":1720210158,"current_range_meters":24800,"station_id":"ce4bhs12rcd13ifvqhvg","pricing_plan_id":"cebpf4jnsgd1na2vs0mg"},{"bike_id":"77bacb0a-a9dd-452d-ac8c-ecf8482fe566","system_id":"levelo_inurba_marseille","lat":43.324771,"lon":5.36557,"is_reserved":false,"is_disabled":false,"rental_uris":{"android":"levelo://app?vid=77bacb0a-a9dd-452d-ac8c-ecf8482fe566","ios":"levelo://app?vid=77bacb0a-a9dd-452d-ac8c-ecf8482fe566"},"vehicle_type_id":"4","last_reported":1720210158,"current_range_meters":14800,"station_id":"ce4bhs12rcd13ifvqhvg","pricing_plan_id":"cebpf4jnsgd1na2vs0mg"},{"bike_id":"3fa2e9ff-36fb-4df9-9f34-bd2f5e6f4d9e","system_id":"levelo_inurba_marseille","lat":43.32489,"lon":5.3657,"is_reserved":false,"is_disabled":false,"rental_uris":{"android":"levelo://app?vid=3fa2e9ff-36fb-4df9-9f34-bd2f5e6f4d9e","ios":"levelo://app?vid=3fa2e9ff-36fb-4df9-9f34-bd2f5e6f4d9e"},"vehicle_type_id":"4","last_reported":1720210158,"current_range_meters":5600,"station_id":"ce4bhs12rcd13ifvqhvg","pricing_plan_id":"cebpf4jnsgd1na2vs0mg"},{"bike_id":"b0ad408c-ecad-4f89-88ee-170620703c83","system_id":"levelo_inurba_marseille","lat":43.310804,"lon":5.38359,"is_reserved":false,"is_disabled":false,"rental_uris":{"android":"levelo://app?vid=b0ad408c-ecad-4f89-88ee-170620703c83","ios":"levelo://app?vid=b0ad408c-ecad-4f89-88ee-170620703c83"},"vehicle_type_id":"4","last_reported":1720210158,"current_range_meters":4800,"station_id":"ce4bgv92rcd13ifvqcr0","pricing_plan_id":"cebpf4jnsgd1na2vs0mg"},{"bike_id":"6fefb7bb-8553-4f5e-893d-3e2e64c21d97","system_id":"levelo_inurba_marseille","lat":43.302784,"lon":5.377158,"is_reserved":false,"is_disabled":false,"rental_uris":{"android":"levelo://app?vid=6fefb7bb-8553-4f5e-893d-3e2e64c21d97","ios":"levelo://app?vid=6fefb7bb-8553-4f5e-893d-3e2e64c21d97"},"vehicle_type_id":"4","last_reported":1720210158,"current_range_meters":22000,"station_id":"ce4bguh2rcd13ifvqcj0","pricing_plan_id":"cebpf4jnsgd1na2vs0mg"},{"bike_id":"69f5ef33-3299-4456-bfd6-c3a0180b794a","system_id":"levelo_inurba_marseille","lat":43.301429,"lon":5.37413,"is_reserved":false,"is_disabled":false,"rental_uris":{"android":"levelo://app?vid=69f5ef33-3299-4456-bfd6-c3a0180b794a","ios":"levelo://app?vid=69f5ef33-3299-4456-bfd6-c3a0180b794a"},"vehicle_type_id":"4","last_reported":1720210158,"current_range_meters":9600,"station_id":"ce4bgs92rcd13ifvqcc0","pricing_plan_id":"cebpf4jnsgd1na2vs0mg"},{"bike_id":"2b28fb3d-118f-427b-90d8-8c6b1f055dbf","system_id":"levelo_inurba_marseille","lat":43.319935,"lon":5.381699,"is_reserved":false,"is_disabled":false,"rental_uris":{"android":"levelo://app?vid=2b28fb3d-118f-427b-90d8-8c6b1f055dbf","ios":"levelo://app?vid=2b28fb3d-118f-427b-90d8-8c6b1f055dbf"},"vehicle_type_id":"4","last_reported":1720210158,"current_range_meters":21200,"station_id":"ce4bhr12rcd13ifvqhpg","pricing_plan_id":"cebpf4jnsgd1na2vs0mg"},{"bike_id":"e5c8cccd-6797-4c8e-8081-cee48ef56061","system_id":"levelo_inurba_marseille","lat":43.319935,"lon":5.381699,"is_reserved":false,"is_disabled":false,"rental_uris":{"android":"levelo://app?vid=e5c8cccd-6797-4c8e-8081-cee48ef56061","ios":"levelo://app?vid=e5c8cccd-6797-4c8e-8081-cee48ef56061"},"vehicle_type_id":"4","last_reported":1720210158,"current_range_meters":20800,"station_id":"ce4bhr12rcd13ifvqhpg","pricing_plan_id":"cebpf4jnsgd1na2vs0mg"},{"bike_id":"de364655-4d6f-448d-b2e7-587bb7e54019","system_id":"levelo_inurba_marseille","lat":43.31997,"lon":5.38151,"is_reserved":false,"is_disabled":false,"rental_uris":{"android":"levelo://app?vid=de364655-4d6f-448d-b2e7-587bb7e54019","ios":"levelo://app?vid=de364655-4d6f-448d-b2e7-587bb7e54019"},"vehicle_type_id":"4","last_reported":1720210158,"current_range_meters":0,"station_id":"ce4bhr12rcd13ifvqhpg","pricing_plan_id":"cebpf4jnsgd1na2vs0mg"},{"bike_id":"64b034ea-6b56-4a18-9e33-40ef5090da21","system_id":"levelo_inurba_marseille","lat":43.313571,"lon":5.384829,"is_reserved":false,"is_disabled":false,"rental_uris":{"android":"levelo://app?vid=64b034ea-6b56-4a18-9e33-40ef5090da21","ios":"levelo://app?vid=64b034ea-6b56-4a18-9e33-40ef5090da21"},"vehicle_type_id":"4","last_reported":1720210158,"current_range_meters":6400,"station_id":"ce4bgt92rcd13ifvqcf0","pricing_plan_id":"cebpf4jnsgd1na2vs0mg"},{"bike_id":"446a7952-5ede-43d3-9e26-601f23244540","system_id":"levelo_inurba_marseille","lat":43.313571,"lon":5.384829,"is_reserved":false,"is_disabled":false,"rental_uris":{"android":"levelo://app?vid=446a7952-5ede-43d3-9e26-601f23244540","ios":"levelo://app?vid=446a7952-5ede-43d3-9e26-601f23244540"},"vehicle_type_id":"4","last_reported":1720210158,"current_range_meters":6400,"station_id":"ce4bgt92rcd13ifvqcf0","pricing_plan_id":"cebpf4jnsgd1na2vs0mg"},{"bike_id":"37013a3d-7b57-4971-abec-646bfc7a63d8","system_id":"levelo_inurba_marseille","lat":43.313571,"lon":5.384829,"is_reserved":false,"is_disabled":false,"rental_uris":{"android":"levelo://app?vid=37013a3d-7b57-4971-abec-646bfc7a63d8","ios":"levelo://app?vid=37013a3d-7b57-4971-abec-646bfc7a63d8"},"vehicle_type_id":"4","last_reported":1720210158,"current_range_meters":21200,"station_id":"ce4bgt92rcd13ifvqcf0","pricing_plan_id":"cebpf4jnsgd1na2vs0mg"},{"bike_id":"e6a3ebbe-7c90-4b44-83a1-0bf72f8fbdff","system_id":"levelo_inurba_marseille","lat":43.313571,"lon":5.384829,"is_reserved":false,"is_disabled":false,"rental_uris":{"android":"levelo://app?vid=e6a3ebbe-7c90-4b44-83a1-0bf72f8fbdff","ios":"levelo://app?vid=e6a3ebbe-7c90-4b44-83a1-0bf72f8fbdff"},"vehicle_type_id":"4","last_reported":1720210158,"current_range_meters":7200,"station_id":"ce4bgt92rcd13ifvqcf0","pricing_plan_id":"cebpf4jnsgd1na2vs0mg"},{"bike_id":"ac155791-75fe-455f-baab-8381ab48cce3","system_id":"levelo_inurba_marseille","lat":43.313571,"lon":5.384829,"is_reserved":false,"is_disabled":false,"rental_uris":{"android":"levelo://app?vid=ac155791-75fe-455f-baab-8381ab48cce3","ios":"levelo://app?vid=ac155791-75fe-455f-baab-8381ab48cce3"},"vehicle_type_id":"4","last_reported":1720210158,"current_range_meters":7600,"station_id":"ce4bgt92rcd13ifvqcf0","pricing_plan_id":"cebpf4jnsgd1na2vs0mg"},{"bike_id":"fc251e90-c372-4aea-b0aa-517b12d996d6","system_id":"levelo_inurba_marseille","lat":43.29982,"lon":5.37168,"is_reserved":false,"is_disabled":false,"rental_uris":{"android":"levelo://app?vid=fc251e90-c372-4aea-b0aa-517b12d996d6","ios":"levelo://app?vid=fc251e90-c372-4aea-b0aa-517b12d996d6"},"vehicle_type_id":"4","last_reported":1720210158,"current_range_meters":0,"station_id":"ce4bgr92rcd13ifvqc7g","pricing_plan_id":"cebpf4jnsgd1na2vs0mg"},{"bike_id":"93d376af-9d86-48ae-9937-281e081df2c9","system_id":"levelo_inurba_marseille","lat":43.299724,"lon":5.371829,"is_reserved":false,"is_disabled":false,"rental_uris":{"android":"levelo://app?vid=93d376af-9d86-48ae-9937-281e081df2c9","ios":"levelo://app?vid=93d376af-9d86-48ae-9937-281e081df2c9"},"vehicle_type_id":"4","last_reported":1720210158,"current_range_meters":20000,"station_id":"ce4bgr92rcd13ifvqc7g","pricing_plan_id":"cebpf4jnsgd1na2vs0mg"},{"bike_id":"eaf33f43-5f27-4abf-bfff-b6d567248fb7","system_id":"levelo_inurba_marseille","lat":43.2993,"lon":5.36614,"is_reserved":false,"is_disabled":false,"rental_uris":{"android":"levelo://app?vid=eaf33f43-5f27-4abf-bfff-b6d567248fb7","ios":"levelo://app?vid=eaf33f43-5f27-4abf-bfff-b6d567248fb7"},"vehicle_type_id":"4","last_reported":1720210158,"current_range_meters":6800,"station_id":"ce4bgm92rcd13ifvqbr0","pricing_plan_id":"cebpf4jnsgd1na2vs0mg"},{"bike_id":"138270bb-2e86-43f8-84cb-b85379be08e2","system_id":"levelo_inurba_marseille","lat":43.298433,"lon":5.362774,"is_reserved":false,"is_disabled":false,"rental_uris":{"android":"levelo://app?vid=138270bb-2e86-43f8-84cb-b85379be08e2","ios":"levelo://app?vid=138270bb-2e86-43f8-84cb-b85379be08e2"},"vehicle_type_id":"4","last_reported":1720210158,"current_range_meters":5600,"station_id":"ce4bgpp2rcd13ifvqc3g","pricing_plan_id":"cebpf4jnsgd1na2vs0mg"},{"bike_id":"c4cbf48a-4b00-4c83-85ac-d75a08881dac","system_id":"levelo_inurba_marseille","lat":43.298433,"lon":5.362774,"is_reserved":false,"is_disabled":false,"rental_uris":{"android":"levelo://app?vid=c4cbf48a-4b00-4c83-85ac-d75a08881dac","ios":"levelo://app?vid=c4cbf48a-4b00-4c83-85ac-d75a08881dac"},"vehicle_type_id":"4","last_reported":1720210158,"current_range_meters":27200,"station_id":"ce4bgpp2rcd13ifvqc3g","pricing_plan_id":"cebpf4jnsgd1na2vs0mg"},{"bike_id":"02c410da-5c84-4535-9112-0d8bb3cbe6d9","system_id":"levelo_inurba_marseille","lat":43.298433,"lon":5.362774,"is_reserved":false,"is_disabled":false,"rental_uris":{"android":"levelo://app?vid=02c410da-5c84-4535-9112-0d8bb3cbe6d9","ios":"levelo://app?vid=02c410da-5c84-4535-9112-0d8bb3cbe6d9"},"vehicle_type_id":"4","last_reported":1720210158,"current_range_meters":11200,"station_id":"ce4bgpp2rcd13ifvqc3g","pricing_plan_id":"cebpf4jnsgd1na2vs0mg"},{"bike_id":"cc78b576-ed94-45f6-979f-7d0ec0bbbf42","system_id":"levelo_inurba_marseille","lat":43.298433,"lon":5.362774,"is_reserved":false,"is_disabled":false,"rental_uris":{"android":"levelo://app?vid=cc78b576-ed94-45f6-979f-7d0ec0bbbf42","ios":"levelo://app?vid=cc78b576-ed94-45f6-979f-7d0ec0bbbf42"},"vehicle_type_id":"4","last_reported":1720210158,"current_range_meters":9600,"station_id":"ce4bgpp2rcd13ifvqc3g","pricing_plan_id":"cebpf4jnsgd1na2vs0mg"},{"bike_id":"c86b3c6f-a878-4a62-8b83-4508ca7e649e","system_id":"levelo_inurba_marseille","lat":43.29844,"lon":5.36269,"is_reserved":false,"is_disabled":false,"rental_uris":{"android":"levelo://app?vid=c86b3c6f-a878-4a62-8b83-4508ca7e649e","ios":"levelo://app?vid=c86b3c6f-a878-4a62-8b83-4508ca7e649e"},"vehicle_type_id":"4","last_reported":1720210158,"current_range_meters":25600,"station_id":"ce4bgpp2rcd13ifvqc3g","pricing_plan_id":"cebpf4jnsgd1na2vs0mg"},{"bike_id":"d860fb7a-8122-4c28-b30d-85045f53dfb7","system_id":"levelo_inurba_marseille","lat":43.298403,"lon":5.3626,"is_reserved":false,"is_disabled":false,"rental_uris":{"android":"levelo://app?vid=d860fb7a-8122-4c28-b30d-85045f53dfb7","ios":"levelo://app?vid=d860fb7a-8122-4c28-b30d-85045f53dfb7"},"vehicle_type_id":"4","last_reported":1720210158,"current_range_meters":5200,"station_id":"ce4bgpp2rcd13ifvqc3g","pricing_plan_id":"cebpf4jnsgd1na2vs0mg"},{"bike_id":"9c202570-ea1b-4998-b58f-c852699bbc8a","system_id":"levelo_inurba_marseille","lat":43.311722,"lon":5.387247,"is_reserved":false,"is_disabled":false,"rental_uris":{"android":"levelo://app?vid=9c202570-ea1b-4998-b58f-c852699bbc8a","ios":"levelo://app?vid=9c202570-ea1b-4998-b58f-c852699bbc8a"},"vehicle_type_id":"4","last_reported":1720210158,"current_range_meters":10000,"station_id":"ce4bgv12rcd13ifvqcp0","pricing_plan_id":"cebpf4jnsgd1na2vs0mg"},{"bike_id":"180faab5-2823-4102-8f73-2f662f57b638","system_id":"levelo_inurba_marseille","lat":43.29837,"lon":5.36254,"is_reserved":false,"is_disabled":false,"rental_uris":{"android":"levelo://app?vid=180faab5-2823-4102-8f73-2f662f57b638","ios":"levelo://app?vid=180faab5-2823-4102-8f73-2f662f57b638"},"vehicle_type_id":"4","last_reported":1720210158,"current_range_meters":10800,"station_id":"ce4bgpp2rcd13ifvqc3g","pricing_plan_id":"cebpf4jnsgd1na2vs0mg"},{"bike_id":"42545803-c4b8-44ac-be25-435a3cf5ac58","system_id":"levelo_inurba_marseille","lat":43.29917,"lon":5.37477,"is_reserved":false,"is_disabled":false,"rental_uris":{"android":"levelo://app?vid=42545803-c4b8-44ac-be25-435a3cf5ac58","ios":"levelo://app?vid=42545803-c4b8-44ac-be25-435a3cf5ac58"},"vehicle_type_id":"4","last_reported":1720210158,"current_range_meters":0,"station_id":"ce4bgjh2rcd13ifvqbg0","pricing_plan_id":"cebpf4jnsgd1na2vs0mg"},{"bike_id":"b8d463ee-41d9-499c-a243-582b851c3914","system_id":"levelo_inurba_marseille","lat":43.311722,"lon":5.387247,"is_reserved":false,"is_disabled":false,"rental_uris":{"android":"levelo://app?vid=b8d463ee-41d9-499c-a243-582b851c3914","ios":"levelo://app?vid=b8d463ee-41d9-499c-a243-582b851c3914"},"vehicle_type_id":"4","last_reported":1720210158,"current_range_meters":6400,"station_id":"ce4bgv12rcd13ifvqcp0","pricing_plan_id":"cebpf4jnsgd1na2vs0mg"},{"bike_id":"a29a8b65-02c8-4112-bb78-e5a15a234ae9","system_id":"levelo_inurba_marseille","lat":43.311722,"lon":5.387247,"is_reserved":false,"is_disabled":false,"rental_uris":{"android":"levelo://app?vid=a29a8b65-02c8-4112-bb78-e5a15a234ae9","ios":"levelo://app?vid=a29a8b65-02c8-4112-bb78-e5a15a234ae9"},"vehicle_type_id":"4","last_reported":1720210158,"current_range_meters":3600,"station_id":"ce4bgv12rcd13ifvqcp0","pricing_plan_id":"cebpf4jnsgd1na2vs0mg"},{"bike_id":"89416043-aef8-4699-b0b1-6992d1bc99be","system_id":"levelo_inurba_marseille","lat":43.311722,"lon":5.387247,"is_reserved":false,"is_disabled":false,"rental_uris":{"android":"levelo://app?vid=89416043-aef8-4699-b0b1-6992d1bc99be","ios":"levelo://app?vid=89416043-aef8-4699-b0b1-6992d1bc99be"},"vehicle_type_id":"4","last_reported":1720210158,"current_range_meters":13600,"station_id":"ce4bgv12rcd13ifvqcp0","pricing_plan_id":"cebpf4jnsgd1na2vs0mg"},{"bike_id":"fc61b835-51c9-4ea3-a943-cad07f427fb1","system_id":"levelo_inurba_marseille","lat":43.31038,"lon":5.387095,"is_reserved":false,"is_disabled":false,"rental_uris":{"android":"levelo://app?vid=fc61b835-51c9-4ea3-a943-cad07f427fb1","ios":"levelo://app?vid=fc61b835-51c9-4ea3-a943-cad07f427fb1"},"vehicle_type_id":"4","last_reported":1720210158,"current_range_meters":3600,"station_id":"","pricing_plan_id":"cebpf4jnsgd1na2vs0mg"},{"bike_id":"315b23a2-77e2-41be-9284-e544d4d04b01","system_id":"levelo_inurba_marseille","lat":43.29791,"lon":5.37108,"is_reserved":false,"is_disabled":false,"rental_uris":{"android":"levelo://app?vid=315b23a2-77e2-41be-9284-e544d4d04b01","ios":"levelo://app?vid=315b23a2-77e2-41be-9284-e544d4d04b01"},"vehicle_type_id":"4","last_reported":1720210158,"current_range_meters":18800,"station_id":"ce4bgop2rcd13ifvqc1g","pricing_plan_id":"cebpf4jnsgd1na2vs0mg"},{"bike_id":"3ed1a6ee-73a5-448b-aab8-7dd05117cb66","system_id":"levelo_inurba_marseille","lat":43.30172,"lon":5.38127,"is_reserved":false,"is_disabled":false,"rental_uris":{"android":"levelo://app?vid=3ed1a6ee-73a5-448b-aab8-7dd05117cb66","ios":"levelo://app?vid=3ed1a6ee-73a5-448b-aab8-7dd05117cb66"},"vehicle_type_id":"4","last_reported":1720210158,"current_range_meters":0,"station_id":"","pricing_plan_id":"cebpf4jnsgd1na2vs0mg"},{"bike_id":"24b9ff1f-0fd6-49aa-a906-87384c24a8d7","system_id":"levelo_inurba_marseille","lat":43.322872,"lon":5.382756,"is_reserved":false,"is_disabled":false,"rental_uris":{"android":"levelo://app?vid=24b9ff1f-0fd6-49aa-a906-87384c24a8d7","ios":"levelo://app?vid=24b9ff1f-0fd6-49aa-a906-87384c24a8d7"},"vehicle_type_id":"4","last_reported":1720210158,"current_range_meters":27200,"station_id":"ce4bhr12rcd13ifvqhqg","pricing_plan_id":"cebpf4jnsgd1na2vs0mg"},{"bike_id":"69e6722a-9045-49ec-849f-e26a74ad1f24","system_id":"levelo_inurba_marseille","lat":43.29704,"lon":5.36613,"is_reserved":false,"is_disabled":false,"rental_uris":{"android":"levelo://app?vid=69e6722a-9045-49ec-849f-e26a74ad1f24","ios":"levelo://app?vid=69e6722a-9045-49ec-849f-e26a74ad1f24"},"vehicle_type_id":"4","last_reported":1720210158,"current_range_meters":12000,"station_id":"ce4bgn12rcd13ifvqbt0","pricing_plan_id":"cebpf4jnsgd1na2vs0mg"},{"bike_id":"3681fe28-626e-47c3-80e8-e1ec470d1217","system_id":"levelo_inurba_marseille","lat":43.297163,"lon":5.365866,"is_reserved":false,"is_disabled":false,"rental_uris":{"android":"levelo://app?vid=3681fe28-626e-47c3-80e8-e1ec470d1217","ios":"levelo://app?vid=3681fe28-626e-47c3-80e8-e1ec470d1217"},"vehicle_type_id":"4","last_reported":1720210158,"current_range_meters":7600,"station_id":"ce4bgn12rcd13ifvqbt0","pricing_plan_id":"cebpf4jnsgd1na2vs0mg"},{"bike_id":"2d8ec03a-7bb6-4ce6-9491-6a4e3c4b610a","system_id":"levelo_inurba_marseille","lat":43.297163,"lon":5.365866,"is_reserved":false,"is_disabled":false,"rental_uris":{"android":"levelo://app?vid=2d8ec03a-7bb6-4ce6-9491-6a4e3c4b610a","ios":"levelo://app?vid=2d8ec03a-7bb6-4ce6-9491-6a4e3c4b610a"},"vehicle_type_id":"4","last_reported":1720210158,"current_range_meters":0,"station_id":"ce4bgn12rcd13ifvqbt0","pricing_plan_id":"cebpf4jnsgd1na2vs0mg"},{"bike_id":"82f58178-8f89-479f-a33f-971fd10a7a10","system_id":"levelo_inurba_marseille","lat":43.298304,"lon":5.377168,"is_reserved":false,"is_disabled":false,"rental_uris":{"android":"levelo://app?vid=82f58178-8f89-479f-a33f-971fd10a7a10","ios":"levelo://app?vid=82f58178-8f89-479f-a33f-971fd10a7a10"},"vehicle_type_id":"4","last_reported":1720210158,"current_range_meters":5200,"station_id":"","pricing_plan_id":"cebpf4jnsgd1na2vs0mg"},{"bike_id":"b0f43224-b28b-4e0a-989a-863079de3908","system_id":"levelo_inurba_marseille","lat":43.296278,"lon":5.367033,"is_reserved":false,"is_disabled":false,"rental_uris":{"android":"levelo://app?vid=b0f43224-b28b-4e0a-989a-863079de3908","ios":"levelo://app?vid=b0f43224-b28b-4e0a-989a-863079de3908"},"vehicle_type_id":"4","last_reported":1720210158,"current_range_meters":20400,"station_id":"","pricing_plan_id":"cebpf4jnsgd1na2vs0mg"},{"bike_id":"280525b4-850d-4349-9c72-4f70d3424eeb","system_id":"levelo_inurba_marseille","lat":43.327277,"lon":5.378477,"is_reserved":false,"is_disabled":false,"rental_uris":{"android":"levelo://app?vid=280525b4-850d-4349-9c72-4f70d3424eeb","ios":"levelo://app?vid=280525b4-850d-4349-9c72-4f70d3424eeb"},"vehicle_type_id":"4","last_reported":1720210158,"current_range_meters":8400,"station_id":"","pricing_plan_id":"cebpf4jnsgd1na2vs0mg"},{"bike_id":"4cfbe054-232b-4576-aba9-a7febeaf0d1c","system_id":"levelo_inurba_marseille","lat":43.296129,"lon":5.370777,"is_reserved":false,"is_disabled":false,"rental_uris":{"android":"levelo://app?vid=4cfbe054-232b-4576-aba9-a7febeaf0d1c","ios":"levelo://app?vid=4cfbe054-232b-4576-aba9-a7febeaf0d1c"},"vehicle_type_id":"4","last_reported":1720210158,"current_range_meters":10000,"station_id":"ce4bgnh2rcd13ifvqc0g","pricing_plan_id":"cebpf4jnsgd1na2vs0mg"},{"bike_id":"87f9cd11-42ef-426c-9a7c-3b8d0ed4eb40","system_id":"levelo_inurba_marseille","lat":43.29573,"lon":5.367355,"is_reserved":false,"is_disabled":false,"rental_uris":{"android":"levelo://app?vid=87f9cd11-42ef-426c-9a7c-3b8d0ed4eb40","ios":"levelo://app?vid=87f9cd11-42ef-426c-9a7c-3b8d0ed4eb40"},"vehicle_type_id":"4","last_reported":1720210158,"current_range_meters":7600,"station_id":"ce4bgph2rcd13ifvqc2g","pricing_plan_id":"cebpf4jnsgd1na2vs0mg"},{"bike_id":"812410b9-62e5-4b5c-848a-0340dd022be0","system_id":"levelo_inurba_marseille","lat":43.29573,"lon":5.367355,"is_reserved":false,"is_disabled":false,"rental_uris":{"android":"levelo://app?vid=812410b9-62e5-4b5c-848a-0340dd022be0","ios":"levelo://app?vid=812410b9-62e5-4b5c-848a-0340dd022be0"},"vehicle_type_id":"4","last_reported":1720210158,"current_range_meters":26400,"station_id":"ce4bgph2rcd13ifvqc2g","pricing_plan_id":"cebpf4jnsgd1na2vs0mg"},{"bike_id":"f3967bab-8c86-49d0-96ab-cb1177cc10a4","system_id":"levelo_inurba_marseille","lat":43.29573,"lon":5.367355,"is_reserved":false,"is_disabled":false,"rental_uris":{"android":"levelo://app?vid=f3967bab-8c86-49d0-96ab-cb1177cc10a4","ios":"levelo://app?vid=f3967bab-8c86-49d0-96ab-cb1177cc10a4"},"vehicle_type_id":"4","last_reported":1720210158,"current_range_meters":23600,"station_id":"ce4bgph2rcd13ifvqc2g","pricing_plan_id":"cebpf4jnsgd1na2vs0mg"},{"bike_id":"53539032-3bb5-41e9-ae43-5763b1f91db1","system_id":"levelo_inurba_marseille","lat":43.29573,"lon":5.367355,"is_reserved":false,"is_disabled":false,"rental_uris":{"android":"levelo://app?vid=53539032-3bb5-41e9-ae43-5763b1f91db1","ios":"levelo://app?vid=53539032-3bb5-41e9-ae43-5763b1f91db1"},"vehicle_type_id":"4","last_reported":1720210158,"current_range_meters":16000,"station_id":"ce4bgph2rcd13ifvqc2g","pricing_plan_id":"cebpf4jnsgd1na2vs0mg"},{"bike_id":"21a62293-d4f5-4ffa-9d58-816b6075bd83","system_id":"levelo_inurba_marseille","lat":43.29725,"lon":5.37672,"is_reserved":false,"is_disabled":false,"rental_uris":{"android":"levelo://app?vid=21a62293-d4f5-4ffa-9d58-816b6075bd83","ios":"levelo://app?vid=21a62293-d4f5-4ffa-9d58-816b6075bd83"},"vehicle_type_id":"4","last_reported":1720210158,"current_range_meters":1600,"station_id":"ce4bgkh2rcd13ifvqbl0","pricing_plan_id":"cebpf4jnsgd1na2vs0mg"},{"bike_id":"47bec968-3d0f-45a5-99ad-6a52a66c6b37","system_id":"levelo_inurba_marseille","lat":43.299028,"lon":5.381509,"is_reserved":false,"is_disabled":false,"rental_uris":{"android":"levelo://app?vid=47bec968-3d0f-45a5-99ad-6a52a66c6b37","ios":"levelo://app?vid=47bec968-3d0f-45a5-99ad-6a52a66c6b37"},"vehicle_type_id":"4","last_reported":1720210158,"current_range_meters":12000,"station_id":"ce4bgj12rcd13ifvqbc0","pricing_plan_id":"cebpf4jnsgd1na2vs0mg"},{"bike_id":"4a2abd8a-239a-43af-9138-d0a78d6430f6","system_id":"levelo_inurba_marseille","lat":43.29714,"lon":5.37692,"is_reserved":false,"is_disabled":false,"rental_uris":{"android":"levelo://app?vid=4a2abd8a-239a-43af-9138-d0a78d6430f6","ios":"levelo://app?vid=4a2abd8a-239a-43af-9138-d0a78d6430f6"},"vehicle_type_id":"4","last_reported":1720210158,"current_range_meters":5200,"station_id":"ce4bgkh2rcd13ifvqbl0","pricing_plan_id":"cebpf4jnsgd1na2vs0mg"},{"bike_id":"58182298-68ad-4623-af45-e0261c6e5829","system_id":"levelo_inurba_marseille","lat":43.309589,"lon":5.390258,"is_reserved":false,"is_disabled":false,"rental_uris":{"android":"levelo://app?vid=58182298-68ad-4623-af45-e0261c6e5829","ios":"levelo://app?vid=58182298-68ad-4623-af45-e0261c6e5829"},"vehicle_type_id":"4","last_reported":1720210158,"current_range_meters":6400,"station_id":"ce4bgup2rcd13ifvqco0","pricing_plan_id":"cebpf4jnsgd1na2vs0mg"},{"bike_id":"d503aa6f-c565-4604-9188-60a195f1b5be","system_id":"levelo_inurba_marseille","lat":43.309589,"lon":5.390258,"is_reserved":false,"is_disabled":false,"rental_uris":{"android":"levelo://app?vid=d503aa6f-c565-4604-9188-60a195f1b5be","ios":"levelo://app?vid=d503aa6f-c565-4604-9188-60a195f1b5be"},"vehicle_type_id":"4","last_reported":1720210158,"current_range_meters":4400,"station_id":"ce4bgup2rcd13ifvqco0","pricing_plan_id":"cebpf4jnsgd1na2vs0mg"},{"bike_id":"14603e14-37db-40b8-80cd-e44a5f1b8b89","system_id":"levelo_inurba_marseille","lat":43.299028,"lon":5.381509,"is_reserved":false,"is_disabled":false,"rental_uris":{"android":"levelo://app?vid=14603e14-37db-40b8-80cd-e44a5f1b8b89","ios":"levelo://app?vid=14603e14-37db-40b8-80cd-e44a5f1b8b89"},"vehicle_type_id":"4","last_reported":1720210158,"current_range_meters":29600,"station_id":"ce4bgj12rcd13ifvqbc0","pricing_plan_id":"cebpf4jnsgd1na2vs0mg"},{"bike_id":"c6b53a4d-499e-4318-887a-53abfebe370d","system_id":"levelo_inurba_marseille","lat":43.309589,"lon":5.390258,"is_reserved":false,"is_disabled":false,"rental_uris":{"android":"levelo://app?vid=c6b53a4d-499e-4318-887a-53abfebe370d","ios":"levelo://app?vid=c6b53a4d-499e-4318-887a-53abfebe370d"},"vehicle_type_id":"4","last_reported":1720210158,"current_range_meters":13200,"station_id":"ce4bgup2rcd13ifvqco0","pricing_plan_id":"cebpf4jnsgd1na2vs0mg"},{"bike_id":"5395cb40-394b-462e-b415-70c9185ada54","system_id":"levelo_inurba_marseille","lat":43.309589,"lon":5.390258,"is_reserved":false,"is_disabled":false,"rental_uris":{"android":"levelo://app?vid=5395cb40-394b-462e-b415-70c9185ada54","ios":"levelo://app?vid=5395cb40-394b-462e-b415-70c9185ada54"},"vehicle_type_id":"4","last_reported":1720210158,"current_range_meters":30800,"station_id":"ce4bgup2rcd13ifvqco0","pricing_plan_id":"cebpf4jnsgd1na2vs0mg"},{"bike_id":"51eb1f73-aa7c-4ae7-a68e-ca19bbb3b750","system_id":"levelo_inurba_marseille","lat":43.309589,"lon":5.390258,"is_reserved":false,"is_disabled":false,"rental_uris":{"android":"levelo://app?vid=51eb1f73-aa7c-4ae7-a68e-ca19bbb3b750","ios":"levelo://app?vid=51eb1f73-aa7c-4ae7-a68e-ca19bbb3b750"},"vehicle_type_id":"4","last_reported":1720210158,"current_range_meters":28000,"station_id":"ce4bgup2rcd13ifvqco0","pricing_plan_id":"cebpf4jnsgd1na2vs0mg"},{"bike_id":"ed08a59e-d56e-427d-9d0e-495f46cd8b21","system_id":"levelo_inurba_marseille","lat":43.309589,"lon":5.390258,"is_reserved":false,"is_disabled":false,"rental_uris":{"android":"levelo://app?vid=ed08a59e-d56e-427d-9d0e-495f46cd8b21","ios":"levelo://app?vid=ed08a59e-d56e-427d-9d0e-495f46cd8b21"},"vehicle_type_id":"4","last_reported":1720210158,"current_range_meters":2400,"station_id":"ce4bgup2rcd13ifvqco0","pricing_plan_id":"cebpf4jnsgd1na2vs0mg"},{"bike_id":"3f84e0f1-e391-48a9-89b2-40df7128fa36","system_id":"levelo_inurba_marseille","lat":43.309427,"lon":5.390267,"is_reserved":false,"is_disabled":false,"rental_uris":{"android":"levelo://app?vid=3f84e0f1-e391-48a9-89b2-40df7128fa36","ios":"levelo://app?vid=3f84e0f1-e391-48a9-89b2-40df7128fa36"},"vehicle_type_id":"4","last_reported":1720210158,"current_range_meters":12000,"station_id":"ce4bgup2rcd13ifvqco0","pricing_plan_id":"cebpf4jnsgd1na2vs0mg"},{"bike_id":"0a8c64f9-d5d6-4650-929f-f83f9d387cc6","system_id":"levelo_inurba_marseille","lat":43.309589,"lon":5.390258,"is_reserved":false,"is_disabled":false,"rental_uris":{"android":"levelo://app?vid=0a8c64f9-d5d6-4650-929f-f83f9d387cc6","ios":"levelo://app?vid=0a8c64f9-d5d6-4650-929f-f83f9d387cc6"},"vehicle_type_id":"4","last_reported":1720210158,"current_range_meters":26000,"station_id":"ce4bgup2rcd13ifvqco0","pricing_plan_id":"cebpf4jnsgd1na2vs0mg"},{"bike_id":"a2c00da7-1b0b-4c97-a05d-1a2bc0465e75","system_id":"levelo_inurba_marseille","lat":43.30945,"lon":5.39029,"is_reserved":false,"is_disabled":false,"rental_uris":{"android":"levelo://app?vid=a2c00da7-1b0b-4c97-a05d-1a2bc0465e75","ios":"levelo://app?vid=a2c00da7-1b0b-4c97-a05d-1a2bc0465e75"},"vehicle_type_id":"4","last_reported":1720210158,"current_range_meters":15200,"station_id":"ce4bgup2rcd13ifvqco0","pricing_plan_id":"cebpf4jnsgd1na2vs0mg"},{"bike_id":"b067d6cf-a222-4931-9fcd-90873a0c91b0","system_id":"levelo_inurba_marseille","lat":43.309589,"lon":5.390258,"is_reserved":false,"is_disabled":false,"rental_uris":{"android":"levelo://app?vid=b067d6cf-a222-4931-9fcd-90873a0c91b0","ios":"levelo://app?vid=b067d6cf-a222-4931-9fcd-90873a0c91b0"},"vehicle_type_id":"4","last_reported":1720210158,"current_range_meters":14800,"station_id":"ce4bgup2rcd13ifvqco0","pricing_plan_id":"cebpf4jnsgd1na2vs0mg"},{"bike_id":"833db06e-f436-4e10-a369-1f99e5ad1d1f","system_id":"levelo_inurba_marseille","lat":43.309589,"lon":5.390258,"is_reserved":false,"is_disabled":false,"rental_uris":{"android":"levelo://app?vid=833db06e-f436-4e10-a369-1f99e5ad1d1f","ios":"levelo://app?vid=833db06e-f436-4e10-a369-1f99e5ad1d1f"},"vehicle_type_id":"4","last_reported":1720210158,"current_range_meters":22400,"station_id":"ce4bgup2rcd13ifvqco0","pricing_plan_id":"cebpf4jnsgd1na2vs0mg"},{"bike_id":"7db048f2-5cef-4477-ad76-5f51497cdebb","system_id":"levelo_inurba_marseille","lat":43.309589,"lon":5.390258,"is_reserved":false,"is_disabled":false,"rental_uris":{"android":"levelo://app?vid=7db048f2-5cef-4477-ad76-5f51497cdebb","ios":"levelo://app?vid=7db048f2-5cef-4477-ad76-5f51497cdebb"},"vehicle_type_id":"4","last_reported":1720210158,"current_range_meters":16000,"station_id":"ce4bgup2rcd13ifvqco0","pricing_plan_id":"cebpf4jnsgd1na2vs0mg"},{"bike_id":"a8078634-e55c-4e5a-aa4a-012e3b98b5bb","system_id":"levelo_inurba_marseille","lat":43.309589,"lon":5.390258,"is_reserved":false,"is_disabled":false,"rental_uris":{"android":"levelo://app?vid=a8078634-e55c-4e5a-aa4a-012e3b98b5bb","ios":"levelo://app?vid=a8078634-e55c-4e5a-aa4a-012e3b98b5bb"},"vehicle_type_id":"4","last_reported":1720210158,"current_range_meters":20800,"station_id":"ce4bgup2rcd13ifvqco0","pricing_plan_id":"cebpf4jnsgd1na2vs0mg"},{"bike_id":"83581778-c10b-4172-b607-e41966eca62c","system_id":"levelo_inurba_marseille","lat":43.309589,"lon":5.390258,"is_reserved":false,"is_disabled":false,"rental_uris":{"android":"levelo://app?vid=83581778-c10b-4172-b607-e41966eca62c","ios":"levelo://app?vid=83581778-c10b-4172-b607-e41966eca62c"},"vehicle_type_id":"4","last_reported":1720210158,"current_range_meters":10800,"station_id":"ce4bgup2rcd13ifvqco0","pricing_plan_id":"cebpf4jnsgd1na2vs0mg"},{"bike_id":"ead4e5b3-21b1-4c2e-ba4e-b7163375bc1a","system_id":"levelo_inurba_marseille","lat":43.30943,"lon":5.39034,"is_reserved":false,"is_disabled":false,"rental_uris":{"android":"levelo://app?vid=ead4e5b3-21b1-4c2e-ba4e-b7163375bc1a","ios":"levelo://app?vid=ead4e5b3-21b1-4c2e-ba4e-b7163375bc1a"},"vehicle_type_id":"4","last_reported":1720210158,"current_range_meters":17600,"station_id":"ce4bgup2rcd13ifvqco0","pricing_plan_id":"cebpf4jnsgd1na2vs0mg"},{"bike_id":"c9dd90ce-7981-4b03-9f58-6e5bd4f9cfb5","system_id":"levelo_inurba_marseille","lat":43.309589,"lon":5.390258,"is_reserved":false,"is_disabled":false,"rental_uris":{"android":"levelo://app?vid=c9dd90ce-7981-4b03-9f58-6e5bd4f9cfb5","ios":"levelo://app?vid=c9dd90ce-7981-4b03-9f58-6e5bd4f9cfb5"},"vehicle_type_id":"4","last_reported":1720210158,"current_range_meters":22800,"station_id":"ce4bgup2rcd13ifvqco0","pricing_plan_id":"cebpf4jnsgd1na2vs0mg"},{"bike_id":"52d703df-9fb9-470c-b5f1-2bd9a3bca5e9","system_id":"levelo_inurba_marseille","lat":43.309589,"lon":5.390258,"is_reserved":false,"is_disabled":false,"rental_uris":{"android":"levelo://app?vid=52d703df-9fb9-470c-b5f1-2bd9a3bca5e9","ios":"levelo://app?vid=52d703df-9fb9-470c-b5f1-2bd9a3bca5e9"},"vehicle_type_id":"4","last_reported":1720210158,"current_range_meters":7600,"station_id":"ce4bgup2rcd13ifvqco0","pricing_plan_id":"cebpf4jnsgd1na2vs0mg"},{"bike_id":"a90d99e8-c80f-4746-a9f3-06bfd81c37d1","system_id":"levelo_inurba_marseille","lat":43.29617,"lon":5.3742,"is_reserved":false,"is_disabled":false,"rental_uris":{"android":"levelo://app?vid=a90d99e8-c80f-4746-a9f3-06bfd81c37d1","ios":"levelo://app?vid=a90d99e8-c80f-4746-a9f3-06bfd81c37d1"},"vehicle_type_id":"4","last_reported":1720210158,"current_range_meters":4800,"station_id":"","pricing_plan_id":"cebpf4jnsgd1na2vs0mg"},{"bike_id":"79c59e48-37eb-4ef4-add0-83f1f4bc559f","system_id":"levelo_inurba_marseille","lat":43.309589,"lon":5.390258,"is_reserved":false,"is_disabled":false,"rental_uris":{"android":"levelo://app?vid=79c59e48-37eb-4ef4-add0-83f1f4bc559f","ios":"levelo://app?vid=79c59e48-37eb-4ef4-add0-83f1f4bc559f"},"vehicle_type_id":"4","last_reported":1720210158,"current_range_meters":13600,"station_id":"ce4bgup2rcd13ifvqco0","pricing_plan_id":"cebpf4jnsgd1na2vs0mg"},{"bike_id":"e8779edc-2b42-44d9-acc3-dd82ec5efc83","system_id":"levelo_inurba_marseille","lat":43.317557,"lon":5.390173,"is_reserved":false,"is_disabled":false,"rental_uris":{"android":"levelo://app?vid=e8779edc-2b42-44d9-acc3-dd82ec5efc83","ios":"levelo://app?vid=e8779edc-2b42-44d9-acc3-dd82ec5efc83"},"vehicle_type_id":"4","last_reported":1720210158,"current_range_meters":1600,"station_id":"ce4bhqp2rcd13ifvqhng","pricing_plan_id":"cebpf4jnsgd1na2vs0mg"},{"bike_id":"8bf9c7c0-2d35-47d5-8e22-ac0b111a969c","system_id":"levelo_inurba_marseille","lat":43.317557,"lon":5.390173,"is_reserved":false,"is_disabled":false,"rental_uris":{"android":"levelo://app?vid=8bf9c7c0-2d35-47d5-8e22-ac0b111a969c","ios":"levelo://app?vid=8bf9c7c0-2d35-47d5-8e22-ac0b111a969c"},"vehicle_type_id":"4","last_reported":1720210158,"current_range_meters":2400,"station_id":"ce4bhqp2rcd13ifvqhng","pricing_plan_id":"cebpf4jnsgd1na2vs0mg"},{"bike_id":"37f8ced0-9b3c-44b9-81e9-bf7e408faa6a","system_id":"levelo_inurba_marseille","lat":43.304274,"lon":5.388873,"is_reserved":false,"is_disabled":false,"rental_uris":{"android":"levelo://app?vid=37f8ced0-9b3c-44b9-81e9-bf7e408faa6a","ios":"levelo://app?vid=37f8ced0-9b3c-44b9-81e9-bf7e408faa6a"},"vehicle_type_id":"4","last_reported":1720210158,"current_range_meters":10800,"station_id":"ce4bgk12rcd13ifvqbi0","pricing_plan_id":"cebpf4jnsgd1na2vs0mg"},{"bike_id":"927177e4-c587-4aca-a1c1-8a39e6c9887a","system_id":"levelo_inurba_marseille","lat":43.295748,"lon":5.37522,"is_reserved":false,"is_disabled":false,"rental_uris":{"android":"levelo://app?vid=927177e4-c587-4aca-a1c1-8a39e6c9887a","ios":"levelo://app?vid=927177e4-c587-4aca-a1c1-8a39e6c9887a"},"vehicle_type_id":"4","last_reported":1720210158,"current_range_meters":21600,"station_id":"ce4bgh92rcd13ifvqb50","pricing_plan_id":"cebpf4jnsgd1na2vs0mg"},{"bike_id":"4940ad6f-8341-4ab3-ae5f-50810f722247","system_id":"levelo_inurba_marseille","lat":43.298037,"lon":5.381066,"is_reserved":false,"is_disabled":false,"rental_uris":{"android":"levelo://app?vid=4940ad6f-8341-4ab3-ae5f-50810f722247","ios":"levelo://app?vid=4940ad6f-8341-4ab3-ae5f-50810f722247"},"vehicle_type_id":"4","last_reported":1720210158,"current_range_meters":16800,"station_id":"ce4bgip2rcd13ifvqbb0","pricing_plan_id":"cebpf4jnsgd1na2vs0mg"},{"bike_id":"27ec07e5-f51c-4d88-b1f2-100aa756f7bc","system_id":"levelo_inurba_marseille","lat":43.304274,"lon":5.388873,"is_reserved":false,"is_disabled":false,"rental_uris":{"android":"levelo://app?vid=27ec07e5-f51c-4d88-b1f2-100aa756f7bc","ios":"levelo://app?vid=27ec07e5-f51c-4d88-b1f2-100aa756f7bc"},"vehicle_type_id":"4","last_reported":1720210158,"current_range_meters":32000,"station_id":"ce4bgk12rcd13ifvqbi0","pricing_plan_id":"cebpf4jnsgd1na2vs0mg"},{"bike_id":"42e7ddf8-b9da-419a-a7a7-ec7f65d87f16","system_id":"levelo_inurba_marseille","lat":43.298037,"lon":5.381066,"is_reserved":false,"is_disabled":false,"rental_uris":{"android":"levelo://app?vid=42e7ddf8-b9da-419a-a7a7-ec7f65d87f16","ios":"levelo://app?vid=42e7ddf8-b9da-419a-a7a7-ec7f65d87f16"},"vehicle_type_id":"4","last_reported":1720210158,"current_range_meters":9600,"station_id":"ce4bgip2rcd13ifvqbb0","pricing_plan_id":"cebpf4jnsgd1na2vs0mg"},{"bike_id":"7af45409-f0eb-413d-9b5f-345cfef401a6","system_id":"levelo_inurba_marseille","lat":43.304274,"lon":5.388873,"is_reserved":false,"is_disabled":false,"rental_uris":{"android":"levelo://app?vid=7af45409-f0eb-413d-9b5f-345cfef401a6","ios":"levelo://app?vid=7af45409-f0eb-413d-9b5f-345cfef401a6"},"vehicle_type_id":"4","last_reported":1720210158,"current_range_meters":24800,"station_id":"ce4bgk12rcd13ifvqbi0","pricing_plan_id":"cebpf4jnsgd1na2vs0mg"},{"bike_id":"00abd380-96ba-47e9-af47-5b9cfb467579","system_id":"levelo_inurba_marseille","lat":43.304278,"lon":5.388868,"is_reserved":false,"is_disabled":false,"rental_uris":{"android":"levelo://app?vid=00abd380-96ba-47e9-af47-5b9cfb467579","ios":"levelo://app?vid=00abd380-96ba-47e9-af47-5b9cfb467579"},"vehicle_type_id":"4","last_reported":1720210158,"current_range_meters":17600,"station_id":"ce4bgk12rcd13ifvqbi0","pricing_plan_id":"cebpf4jnsgd1na2vs0mg"},{"bike_id":"9207cc34-b668-4114-a425-0b002b44ecf3","system_id":"levelo_inurba_marseille","lat":43.304278,"lon":5.388868,"is_reserved":false,"is_disabled":false,"rental_uris":{"android":"levelo://app?vid=9207cc34-b668-4114-a425-0b002b44ecf3","ios":"levelo://app?vid=9207cc34-b668-4114-a425-0b002b44ecf3"},"vehicle_type_id":"4","last_reported":1720210158,"current_range_meters":23200,"station_id":"ce4bgk12rcd13ifvqbi0","pricing_plan_id":"cebpf4jnsgd1na2vs0mg"},{"bike_id":"7ce4c964-0fa7-460b-9424-e05120e44dd0","system_id":"levelo_inurba_marseille","lat":43.296263,"lon":5.377094,"is_reserved":false,"is_disabled":false,"rental_uris":{"android":"levelo://app?vid=7ce4c964-0fa7-460b-9424-e05120e44dd0","ios":"levelo://app?vid=7ce4c964-0fa7-460b-9424-e05120e44dd0"},"vehicle_type_id":"4","last_reported":1720210158,"current_range_meters":26400,"station_id":"ce4bgi92rcd13ifvqb90","pricing_plan_id":"cebpf4jnsgd1na2vs0mg"},{"bike_id":"e23665ac-c6d2-40f1-8ad5-b70902255795","system_id":"levelo_inurba_marseille","lat":43.296263,"lon":5.377094,"is_reserved":false,"is_disabled":false,"rental_uris":{"android":"levelo://app?vid=e23665ac-c6d2-40f1-8ad5-b70902255795","ios":"levelo://app?vid=e23665ac-c6d2-40f1-8ad5-b70902255795"},"vehicle_type_id":"4","last_reported":1720210158,"current_range_meters":16000,"station_id":"ce4bgi92rcd13ifvqb90","pricing_plan_id":"cebpf4jnsgd1na2vs0mg"},{"bike_id":"21d25fcd-eb8d-450a-a5de-e3da550b04dc","system_id":"levelo_inurba_marseille","lat":43.299707,"lon":5.384859,"is_reserved":false,"is_disabled":false,"rental_uris":{"android":"levelo://app?vid=21d25fcd-eb8d-450a-a5de-e3da550b04dc","ios":"levelo://app?vid=21d25fcd-eb8d-450a-a5de-e3da550b04dc"},"vehicle_type_id":"4","last_reported":1720210158,"current_range_meters":18000,"station_id":"ce4bgj92rcd13ifvqbd0","pricing_plan_id":"cebpf4jnsgd1na2vs0mg"},{"bike_id":"19d57b5a-aeca-41b8-9339-d1af92efd4ab","system_id":"levelo_inurba_marseille","lat":43.299707,"lon":5.384859,"is_reserved":false,"is_disabled":false,"rental_uris":{"android":"levelo://app?vid=19d57b5a-aeca-41b8-9339-d1af92efd4ab","ios":"levelo://app?vid=19d57b5a-aeca-41b8-9339-d1af92efd4ab"},"vehicle_type_id":"4","last_reported":1720210158,"current_range_meters":27600,"station_id":"ce4bgj92rcd13ifvqbd0","pricing_plan_id":"cebpf4jnsgd1na2vs0mg"},{"bike_id":"0ddf0ff5-e376-481c-b659-cc493ffbeeff","system_id":"levelo_inurba_marseille","lat":43.299717,"lon":5.384845,"is_reserved":false,"is_disabled":false,"rental_uris":{"android":"levelo://app?vid=0ddf0ff5-e376-481c-b659-cc493ffbeeff","ios":"levelo://app?vid=0ddf0ff5-e376-481c-b659-cc493ffbeeff"},"vehicle_type_id":"4","last_reported":1720210158,"current_range_meters":23200,"station_id":"ce4bgj92rcd13ifvqbd0","pricing_plan_id":"cebpf4jnsgd1na2vs0mg"},{"bike_id":"f7d9764c-1333-4e7e-800c-22639d8cfdd0","system_id":"levelo_inurba_marseille","lat":43.299717,"lon":5.384845,"is_reserved":false,"is_disabled":false,"rental_uris":{"android":"levelo://app?vid=f7d9764c-1333-4e7e-800c-22639d8cfdd0","ios":"levelo://app?vid=f7d9764c-1333-4e7e-800c-22639d8cfdd0"},"vehicle_type_id":"4","last_reported":1720210158,"current_range_meters":14400,"station_id":"ce4bgj92rcd13ifvqbd0","pricing_plan_id":"cebpf4jnsgd1na2vs0mg"},{"bike_id":"56e1368d-8626-4b56-9198-c504b565250a","system_id":"levelo_inurba_marseille","lat":43.30146,"lon":5.38768,"is_reserved":false,"is_disabled":false,"rental_uris":{"android":"levelo://app?vid=56e1368d-8626-4b56-9198-c504b565250a","ios":"levelo://app?vid=56e1368d-8626-4b56-9198-c504b565250a"},"vehicle_type_id":"4","last_reported":1720210158,"current_range_meters":24000,"station_id":"ce4bghh2rcd13ifvqb60","pricing_plan_id":"cebpf4jnsgd1na2vs0mg"},{"bike_id":"b90f5902-079d-472e-b75a-ec2dc9cdc1e8","system_id":"levelo_inurba_marseille","lat":43.30139,"lon":5.38772,"is_reserved":false,"is_disabled":false,"rental_uris":{"android":"levelo://app?vid=b90f5902-079d-472e-b75a-ec2dc9cdc1e8","ios":"levelo://app?vid=b90f5902-079d-472e-b75a-ec2dc9cdc1e8"},"vehicle_type_id":"4","last_reported":1720210158,"current_range_meters":22800,"station_id":"ce4bghh2rcd13ifvqb60","pricing_plan_id":"cebpf4jnsgd1na2vs0mg"},{"bike_id":"acb04410-8f2d-4cd0-9295-59d04d1fe686","system_id":"levelo_inurba_marseille","lat":43.30137,"lon":5.3877,"is_reserved":false,"is_disabled":false,"rental_uris":{"android":"levelo://app?vid=acb04410-8f2d-4cd0-9295-59d04d1fe686","ios":"levelo://app?vid=acb04410-8f2d-4cd0-9295-59d04d1fe686"},"vehicle_type_id":"4","last_reported":1720210158,"current_range_meters":14800,"station_id":"ce4bghh2rcd13ifvqb60","pricing_plan_id":"cebpf4jnsgd1na2vs0mg"},{"bike_id":"65d77d17-35d6-418b-9ecb-30d392e5fe19","system_id":"levelo_inurba_marseille","lat":43.294962,"lon":5.376244,"is_reserved":false,"is_disabled":false,"rental_uris":{"android":"levelo://app?vid=65d77d17-35d6-418b-9ecb-30d392e5fe19","ios":"levelo://app?vid=65d77d17-35d6-418b-9ecb-30d392e5fe19"},"vehicle_type_id":"4","last_reported":1720210158,"current_range_meters":22400,"station_id":"","pricing_plan_id":"cebpf4jnsgd1na2vs0mg"},{"bike_id":"c9a16b94-4361-4cdd-bb30-3e031007874a","system_id":"levelo_inurba_marseille","lat":43.32367,"lon":5.388836,"is_reserved":false,"is_disabled":false,"rental_uris":{"android":"levelo://app?vid=c9a16b94-4361-4cdd-bb30-3e031007874a","ios":"levelo://app?vid=c9a16b94-4361-4cdd-bb30-3e031007874a"},"vehicle_type_id":"4","last_reported":1720210158,"current_range_meters":0,"station_id":"ce4bhqp2rcd13ifvqhog","pricing_plan_id":"cebpf4jnsgd1na2vs0mg"},{"bike_id":"b905271e-9aa8-4f92-a2d7-8d479e3e50f1","system_id":"levelo_inurba_marseille","lat":43.32367,"lon":5.388836,"is_reserved":false,"is_disabled":false,"rental_uris":{"android":"levelo://app?vid=b905271e-9aa8-4f92-a2d7-8d479e3e50f1","ios":"levelo://app?vid=b905271e-9aa8-4f92-a2d7-8d479e3e50f1"},"vehicle_type_id":"4","last_reported":1720210158,"current_range_meters":15600,"station_id":"ce4bhqp2rcd13ifvqhog","pricing_plan_id":"cebpf4jnsgd1na2vs0mg"},{"bike_id":"703e14ca-d678-45c0-a0bf-cea46d267c56","system_id":"levelo_inurba_marseille","lat":43.32367,"lon":5.388836,"is_reserved":false,"is_disabled":false,"rental_uris":{"android":"levelo://app?vid=703e14ca-d678-45c0-a0bf-cea46d267c56","ios":"levelo://app?vid=703e14ca-d678-45c0-a0bf-cea46d267c56"},"vehicle_type_id":"4","last_reported":1720210158,"current_range_meters":0,"station_id":"ce4bhqp2rcd13ifvqhog","pricing_plan_id":"cebpf4jnsgd1na2vs0mg"},{"bike_id":"a12ac9cd-ca0f-4156-b781-0e927a4dfa3d","system_id":"levelo_inurba_marseille","lat":43.29602,"lon":5.381084,"is_reserved":false,"is_disabled":false,"rental_uris":{"android":"levelo://app?vid=a12ac9cd-ca0f-4156-b781-0e927a4dfa3d","ios":"levelo://app?vid=a12ac9cd-ca0f-4156-b781-0e927a4dfa3d"},"vehicle_type_id":"4","last_reported":1720210158,"current_range_meters":3600,"station_id":"ce4bgl12rcd13ifvqbo0","pricing_plan_id":"cebpf4jnsgd1na2vs0mg"},{"bike_id":"b301d2d5-db6c-4846-8e66-fb7a287f64e4","system_id":"levelo_inurba_marseille","lat":43.29602,"lon":5.381084,"is_reserved":false,"is_disabled":false,"rental_uris":{"android":"levelo://app?vid=b301d2d5-db6c-4846-8e66-fb7a287f64e4","ios":"levelo://app?vid=b301d2d5-db6c-4846-8e66-fb7a287f64e4"},"vehicle_type_id":"4","last_reported":1720210158,"current_range_meters":8000,"station_id":"ce4bgl12rcd13ifvqbo0","pricing_plan_id":"cebpf4jnsgd1na2vs0mg"},{"bike_id":"11b3a03f-6a5e-4b3f-a9a9-8724c9ccb217","system_id":"levelo_inurba_marseille","lat":43.29601,"lon":5.381084,"is_reserved":false,"is_disabled":false,"rental_uris":{"android":"levelo://app?vid=11b3a03f-6a5e-4b3f-a9a9-8724c9ccb217","ios":"levelo://app?vid=11b3a03f-6a5e-4b3f-a9a9-8724c9ccb217"},"vehicle_type_id":"4","last_reported":1720210158,"current_range_meters":16800,"station_id":"ce4bgl12rcd13ifvqbo0","pricing_plan_id":"cebpf4jnsgd1na2vs0mg"},{"bike_id":"82a9404d-0133-45da-8cba-52d9c8f3e879","system_id":"levelo_inurba_marseille","lat":43.29607,"lon":5.38104,"is_reserved":false,"is_disabled":false,"rental_uris":{"android":"levelo://app?vid=82a9404d-0133-45da-8cba-52d9c8f3e879","ios":"levelo://app?vid=82a9404d-0133-45da-8cba-52d9c8f3e879"},"vehicle_type_id":"4","last_reported":1720210158,"current_range_meters":28800,"station_id":"ce4bgl12rcd13ifvqbo0","pricing_plan_id":"cebpf4jnsgd1na2vs0mg"},{"bike_id":"8a0320e2-f618-43ff-ab4a-a72ac59cc016","system_id":"levelo_inurba_marseille","lat":43.29602,"lon":5.381084,"is_reserved":false,"is_disabled":false,"rental_uris":{"android":"levelo://app?vid=8a0320e2-f618-43ff-ab4a-a72ac59cc016","ios":"levelo://app?vid=8a0320e2-f618-43ff-ab4a-a72ac59cc016"},"vehicle_type_id":"4","last_reported":1720210158,"current_range_meters":23600,"station_id":"ce4bgl12rcd13ifvqbo0","pricing_plan_id":"cebpf4jnsgd1na2vs0mg"},{"bike_id":"8a16d3e5-a71c-48e2-92a7-6620d367b9cf","system_id":"levelo_inurba_marseille","lat":43.29602,"lon":5.381084,"is_reserved":false,"is_disabled":false,"rental_uris":{"android":"levelo://app?vid=8a16d3e5-a71c-48e2-92a7-6620d367b9cf","ios":"levelo://app?vid=8a16d3e5-a71c-48e2-92a7-6620d367b9cf"},"vehicle_type_id":"4","last_reported":1720210158,"current_range_meters":13600,"station_id":"ce4bgl12rcd13ifvqbo0","pricing_plan_id":"cebpf4jnsgd1na2vs0mg"},{"bike_id":"bdcf0047-4f17-49da-9164-1f22d5c18ffd","system_id":"levelo_inurba_marseille","lat":43.29602,"lon":5.381084,"is_reserved":false,"is_disabled":false,"rental_uris":{"android":"levelo://app?vid=bdcf0047-4f17-49da-9164-1f22d5c18ffd","ios":"levelo://app?vid=bdcf0047-4f17-49da-9164-1f22d5c18ffd"},"vehicle_type_id":"4","last_reported":1720210158,"current_range_meters":0,"station_id":"ce4bgl12rcd13ifvqbo0","pricing_plan_id":"cebpf4jnsgd1na2vs0mg"},{"bike_id":"90b5dcdb-1c12-4754-8521-a8dfc5e61781","system_id":"levelo_inurba_marseille","lat":43.29602,"lon":5.381084,"is_reserved":false,"is_disabled":false,"rental_uris":{"android":"levelo://app?vid=90b5dcdb-1c12-4754-8521-a8dfc5e61781","ios":"levelo://app?vid=90b5dcdb-1c12-4754-8521-a8dfc5e61781"},"vehicle_type_id":"4","last_reported":1720210158,"current_range_meters":29600,"station_id":"ce4bgl12rcd13ifvqbo0","pricing_plan_id":"cebpf4jnsgd1na2vs0mg"},{"bike_id":"0cc6e2e5-752c-46f6-944f-523824b3fa84","system_id":"levelo_inurba_marseille","lat":43.29601,"lon":5.381084,"is_reserved":false,"is_disabled":false,"rental_uris":{"android":"levelo://app?vid=0cc6e2e5-752c-46f6-944f-523824b3fa84","ios":"levelo://app?vid=0cc6e2e5-752c-46f6-944f-523824b3fa84"},"vehicle_type_id":"4","last_reported":1720210158,"current_range_meters":1200,"station_id":"ce4bgl12rcd13ifvqbo0","pricing_plan_id":"cebpf4jnsgd1na2vs0mg"},{"bike_id":"9e7a157c-2006-43b2-b21a-5add0a407013","system_id":"levelo_inurba_marseille","lat":43.29602,"lon":5.381084,"is_reserved":false,"is_disabled":false,"rental_uris":{"android":"levelo://app?vid=9e7a157c-2006-43b2-b21a-5add0a407013","ios":"levelo://app?vid=9e7a157c-2006-43b2-b21a-5add0a407013"},"vehicle_type_id":"4","last_reported":1720210158,"current_range_meters":400,"station_id":"ce4bgl12rcd13ifvqbo0","pricing_plan_id":"cebpf4jnsgd1na2vs0mg"},{"bike_id":"6ae7b72c-49f9-472f-9fc7-be56d8ac7737","system_id":"levelo_inurba_marseille","lat":43.29601,"lon":5.381084,"is_reserved":false,"is_disabled":false,"rental_uris":{"android":"levelo://app?vid=6ae7b72c-49f9-472f-9fc7-be56d8ac7737","ios":"levelo://app?vid=6ae7b72c-49f9-472f-9fc7-be56d8ac7737"},"vehicle_type_id":"4","last_reported":1720210158,"current_range_meters":31200,"station_id":"ce4bgl12rcd13ifvqbo0","pricing_plan_id":"cebpf4jnsgd1na2vs0mg"},{"bike_id":"32248d26-6795-4c25-a05b-1f85f60aa7a2","system_id":"levelo_inurba_marseille","lat":43.29602,"lon":5.381084,"is_reserved":false,"is_disabled":false,"rental_uris":{"android":"levelo://app?vid=32248d26-6795-4c25-a05b-1f85f60aa7a2","ios":"levelo://app?vid=32248d26-6795-4c25-a05b-1f85f60aa7a2"},"vehicle_type_id":"4","last_reported":1720210158,"current_range_meters":6400,"station_id":"ce4bgl12rcd13ifvqbo0","pricing_plan_id":"cebpf4jnsgd1na2vs0mg"},{"bike_id":"5d0b4b00-9705-4aef-a45d-6b8fb4c3bd70","system_id":"levelo_inurba_marseille","lat":43.29602,"lon":5.381084,"is_reserved":false,"is_disabled":false,"rental_uris":{"android":"levelo://app?vid=5d0b4b00-9705-4aef-a45d-6b8fb4c3bd70","ios":"levelo://app?vid=5d0b4b00-9705-4aef-a45d-6b8fb4c3bd70"},"vehicle_type_id":"4","last_reported":1720210158,"current_range_meters":22800,"station_id":"ce4bgl12rcd13ifvqbo0","pricing_plan_id":"cebpf4jnsgd1na2vs0mg"},{"bike_id":"69fc1f78-cef0-43a2-a4d6-13787e2cff74","system_id":"levelo_inurba_marseille","lat":43.29602,"lon":5.381084,"is_reserved":false,"is_disabled":false,"rental_uris":{"android":"levelo://app?vid=69fc1f78-cef0-43a2-a4d6-13787e2cff74","ios":"levelo://app?vid=69fc1f78-cef0-43a2-a4d6-13787e2cff74"},"vehicle_type_id":"4","last_reported":1720210158,"current_range_meters":25200,"station_id":"ce4bgl12rcd13ifvqbo0","pricing_plan_id":"cebpf4jnsgd1na2vs0mg"},{"bike_id":"9bc1e19f-e8dd-49e4-8175-3a37e423ada7","system_id":"levelo_inurba_marseille","lat":43.29602,"lon":5.381084,"is_reserved":false,"is_disabled":false,"rental_uris":{"android":"levelo://app?vid=9bc1e19f-e8dd-49e4-8175-3a37e423ada7","ios":"levelo://app?vid=9bc1e19f-e8dd-49e4-8175-3a37e423ada7"},"vehicle_type_id":"4","last_reported":1720210158,"current_range_meters":13200,"station_id":"ce4bgl12rcd13ifvqbo0","pricing_plan_id":"cebpf4jnsgd1na2vs0mg"},{"bike_id":"8b3ce522-902d-4bb6-9f8b-6f9c2342ea09","system_id":"levelo_inurba_marseille","lat":43.295943,"lon":5.380947,"is_reserved":false,"is_disabled":false,"rental_uris":{"android":"levelo://app?vid=8b3ce522-902d-4bb6-9f8b-6f9c2342ea09","ios":"levelo://app?vid=8b3ce522-902d-4bb6-9f8b-6f9c2342ea09"},"vehicle_type_id":"4","last_reported":1720210158,"current_range_meters":1200,"station_id":"ce4bgl12rcd13ifvqbo0","pricing_plan_id":"cebpf4jnsgd1na2vs0mg"},{"bike_id":"44202f41-bdf4-40c4-b3f6-213961ce2b3f","system_id":"levelo_inurba_marseille","lat":43.29602,"lon":5.381084,"is_reserved":false,"is_disabled":false,"rental_uris":{"android":"levelo://app?vid=44202f41-bdf4-40c4-b3f6-213961ce2b3f","ios":"levelo://app?vid=44202f41-bdf4-40c4-b3f6-213961ce2b3f"},"vehicle_type_id":"4","last_reported":1720210158,"current_range_meters":8800,"station_id":"ce4bgl12rcd13ifvqbo0","pricing_plan_id":"cebpf4jnsgd1na2vs0mg"},{"bike_id":"09aca2b1-d0b7-46d2-97c4-d88d1a006823","system_id":"levelo_inurba_marseille","lat":43.295916,"lon":5.380962,"is_reserved":false,"is_disabled":false,"rental_uris":{"android":"levelo://app?vid=09aca2b1-d0b7-46d2-97c4-d88d1a006823","ios":"levelo://app?vid=09aca2b1-d0b7-46d2-97c4-d88d1a006823"},"vehicle_type_id":"4","last_reported":1720210158,"current_range_meters":18400,"station_id":"","pricing_plan_id":"cebpf4jnsgd1na2vs0mg"},{"bike_id":"c0be46a5-f93d-4b74-bef2-e434c15b86b1","system_id":"levelo_inurba_marseille","lat":43.293148,"lon":5.371712,"is_reserved":false,"is_disabled":false,"rental_uris":{"android":"levelo://app?vid=c0be46a5-f93d-4b74-bef2-e434c15b86b1","ios":"levelo://app?vid=c0be46a5-f93d-4b74-bef2-e434c15b86b1"},"vehicle_type_id":"4","last_reported":1720210158,"current_range_meters":28000,"station_id":"ce4bgh92rcd13ifvqb40","pricing_plan_id":"cebpf4jnsgd1na2vs0mg"},{"bike_id":"be8db7bd-c556-4ab3-bbb4-5ff39348090b","system_id":"levelo_inurba_marseille","lat":43.29315,"lon":5.37176,"is_reserved":false,"is_disabled":false,"rental_uris":{"android":"levelo://app?vid=be8db7bd-c556-4ab3-bbb4-5ff39348090b","ios":"levelo://app?vid=be8db7bd-c556-4ab3-bbb4-5ff39348090b"},"vehicle_type_id":"4","last_reported":1720210158,"current_range_meters":14800,"station_id":"ce4bgh92rcd13ifvqb40","pricing_plan_id":"cebpf4jnsgd1na2vs0mg"},{"bike_id":"39875ba8-5fe2-4660-8d0a-b24817b0d7cf","system_id":"levelo_inurba_marseille","lat":43.293103,"lon":5.371553,"is_reserved":false,"is_disabled":false,"rental_uris":{"android":"levelo://app?vid=39875ba8-5fe2-4660-8d0a-b24817b0d7cf","ios":"levelo://app?vid=39875ba8-5fe2-4660-8d0a-b24817b0d7cf"},"vehicle_type_id":"4","last_reported":1720210158,"current_range_meters":2800,"station_id":"ce4bgh92rcd13ifvqb40","pricing_plan_id":"cebpf4jnsgd1na2vs0mg"},{"bike_id":"3a499f9d-a7c7-445d-b1d1-7029380a8d71","system_id":"levelo_inurba_marseille","lat":43.29283,"lon":5.368397,"is_reserved":false,"is_disabled":false,"rental_uris":{"android":"levelo://app?vid=3a499f9d-a7c7-445d-b1d1-7029380a8d71","ios":"levelo://app?vid=3a499f9d-a7c7-445d-b1d1-7029380a8d71"},"vehicle_type_id":"4","last_reported":1720210158,"current_range_meters":28400,"station_id":"ce4bhbp2rcd13ifvqesg","pricing_plan_id":"cebpf4jnsgd1na2vs0mg"},{"bike_id":"e8c22482-9319-4a68-9869-c1463180d575","system_id":"levelo_inurba_marseille","lat":43.29311,"lon":5.37181,"is_reserved":false,"is_disabled":false,"rental_uris":{"android":"levelo://app?vid=e8c22482-9319-4a68-9869-c1463180d575","ios":"levelo://app?vid=e8c22482-9319-4a68-9869-c1463180d575"},"vehicle_type_id":"4","last_reported":1720210158,"current_range_meters":19200,"station_id":"ce4bgh92rcd13ifvqb40","pricing_plan_id":"cebpf4jnsgd1na2vs0mg"},{"bike_id":"0c76ea3a-d569-4c37-a783-58ba6b492277","system_id":"levelo_inurba_marseille","lat":43.29282,"lon":5.36851,"is_reserved":false,"is_disabled":false,"rental_uris":{"android":"levelo://app?vid=0c76ea3a-d569-4c37-a783-58ba6b492277","ios":"levelo://app?vid=0c76ea3a-d569-4c37-a783-58ba6b492277"},"vehicle_type_id":"4","last_reported":1720210158,"current_range_meters":4800,"station_id":"ce4bhbp2rcd13ifvqesg","pricing_plan_id":"cebpf4jnsgd1na2vs0mg"},{"bike_id":"081f27ed-0588-4d8b-8b5d-2f4d8bb4b4a9","system_id":"levelo_inurba_marseille","lat":43.29308,"lon":5.37168,"is_reserved":false,"is_disabled":false,"rental_uris":{"android":"levelo://app?vid=081f27ed-0588-4d8b-8b5d-2f4d8bb4b4a9","ios":"levelo://app?vid=081f27ed-0588-4d8b-8b5d-2f4d8bb4b4a9"},"vehicle_type_id":"4","last_reported":1720210158,"current_range_meters":27600,"station_id":"ce4bgh92rcd13ifvqb40","pricing_plan_id":"cebpf4jnsgd1na2vs0mg"},{"bike_id":"cc558533-0728-41a2-8f8f-8d9ab86a5835","system_id":"levelo_inurba_marseille","lat":43.292749,"lon":5.368398,"is_reserved":false,"is_disabled":false,"rental_uris":{"android":"levelo://app?vid=cc558533-0728-41a2-8f8f-8d9ab86a5835","ios":"levelo://app?vid=cc558533-0728-41a2-8f8f-8d9ab86a5835"},"vehicle_type_id":"4","last_reported":1720210158,"current_range_meters":13200,"station_id":"ce4bhbp2rcd13ifvqesg","pricing_plan_id":"cebpf4jnsgd1na2vs0mg"},{"bike_id":"b70c9775-d71a-43ac-a56a-c1d7a6ff019b","system_id":"levelo_inurba_marseille","lat":43.29309,"lon":5.37185,"is_reserved":false,"is_disabled":false,"rental_uris":{"android":"levelo://app?vid=b70c9775-d71a-43ac-a56a-c1d7a6ff019b","ios":"levelo://app?vid=b70c9775-d71a-43ac-a56a-c1d7a6ff019b"},"vehicle_type_id":"4","last_reported":1720210158,"current_range_meters":31200,"station_id":"ce4bgh92rcd13ifvqb40","pricing_plan_id":"cebpf4jnsgd1na2vs0mg"},{"bike_id":"bf84c032-51e1-45b3-87c7-e34def253e14","system_id":"levelo_inurba_marseille","lat":43.293078,"lon":5.371793,"is_reserved":false,"is_disabled":false,"rental_uris":{"android":"levelo://app?vid=bf84c032-51e1-45b3-87c7-e34def253e14","ios":"levelo://app?vid=bf84c032-51e1-45b3-87c7-e34def253e14"},"vehicle_type_id":"4","last_reported":1720210158,"current_range_meters":16400,"station_id":"ce4bgh92rcd13ifvqb40","pricing_plan_id":"cebpf4jnsgd1na2vs0mg"},{"bike_id":"5b1a9533-1ba8-4976-9b4c-f23ca49310bd","system_id":"levelo_inurba_marseille","lat":43.29306,"lon":5.37169,"is_reserved":false,"is_disabled":false,"rental_uris":{"android":"levelo://app?vid=5b1a9533-1ba8-4976-9b4c-f23ca49310bd","ios":"levelo://app?vid=5b1a9533-1ba8-4976-9b4c-f23ca49310bd"},"vehicle_type_id":"4","last_reported":1720210158,"current_range_meters":10800,"station_id":"ce4bgh92rcd13ifvqb40","pricing_plan_id":"cebpf4jnsgd1na2vs0mg"},{"bike_id":"ff887fb7-272c-4e3d-bb57-97520cd0dfe3","system_id":"levelo_inurba_marseille","lat":43.29305,"lon":5.37168,"is_reserved":false,"is_disabled":false,"rental_uris":{"android":"levelo://app?vid=ff887fb7-272c-4e3d-bb57-97520cd0dfe3","ios":"levelo://app?vid=ff887fb7-272c-4e3d-bb57-97520cd0dfe3"},"vehicle_type_id":"4","last_reported":1720210158,"current_range_meters":10000,"station_id":"ce4bgh92rcd13ifvqb40","pricing_plan_id":"cebpf4jnsgd1na2vs0mg"},{"bike_id":"4636ee1d-50f2-4290-865b-ff4ff41bc6ca","system_id":"levelo_inurba_marseille","lat":43.293249,"lon":5.371578,"is_reserved":false,"is_disabled":false,"rental_uris":{"android":"levelo://app?vid=4636ee1d-50f2-4290-865b-ff4ff41bc6ca","ios":"levelo://app?vid=4636ee1d-50f2-4290-865b-ff4ff41bc6ca"},"vehicle_type_id":"4","last_reported":1720210158,"current_range_meters":9200,"station_id":"ce4bgh92rcd13ifvqb40","pricing_plan_id":"cebpf4jnsgd1na2vs0mg"},{"bike_id":"44ed7295-1bfa-4229-897f-cc1f21f0dd6e","system_id":"levelo_inurba_marseille","lat":43.292749,"lon":5.368398,"is_reserved":false,"is_disabled":false,"rental_uris":{"android":"levelo://app?vid=44ed7295-1bfa-4229-897f-cc1f21f0dd6e","ios":"levelo://app?vid=44ed7295-1bfa-4229-897f-cc1f21f0dd6e"},"vehicle_type_id":"4","last_reported":1720210158,"current_range_meters":24000,"station_id":"ce4bhbp2rcd13ifvqesg","pricing_plan_id":"cebpf4jnsgd1na2vs0mg"},{"bike_id":"26f5aae0-2053-4d9a-b590-e9a1a59ef332","system_id":"levelo_inurba_marseille","lat":43.29304,"lon":5.37181,"is_reserved":false,"is_disabled":false,"rental_uris":{"android":"levelo://app?vid=26f5aae0-2053-4d9a-b590-e9a1a59ef332","ios":"levelo://app?vid=26f5aae0-2053-4d9a-b590-e9a1a59ef332"},"vehicle_type_id":"4","last_reported":1720210158,"current_range_meters":28000,"station_id":"ce4bgh92rcd13ifvqb40","pricing_plan_id":"cebpf4jnsgd1na2vs0mg"},{"bike_id":"76c3e319-3cb6-4cce-9600-75d3b8fcfd74","system_id":"levelo_inurba_marseille","lat":43.292749,"lon":5.368398,"is_reserved":false,"is_disabled":false,"rental_uris":{"android":"levelo://app?vid=76c3e319-3cb6-4cce-9600-75d3b8fcfd74","ios":"levelo://app?vid=76c3e319-3cb6-4cce-9600-75d3b8fcfd74"},"vehicle_type_id":"4","last_reported":1720210158,"current_range_meters":0,"station_id":"ce4bhbp2rcd13ifvqesg","pricing_plan_id":"cebpf4jnsgd1na2vs0mg"},{"bike_id":"40f18968-609c-437b-b4a5-d174e9cb7c37","system_id":"levelo_inurba_marseille","lat":43.29274,"lon":5.36839,"is_reserved":false,"is_disabled":false,"rental_uris":{"android":"levelo://app?vid=40f18968-609c-437b-b4a5-d174e9cb7c37","ios":"levelo://app?vid=40f18968-609c-437b-b4a5-d174e9cb7c37"},"vehicle_type_id":"4","last_reported":1720210158,"current_range_meters":31200,"station_id":"ce4bhbp2rcd13ifvqesg","pricing_plan_id":"cebpf4jnsgd1na2vs0mg"},{"bike_id":"fb14aace-b9fe-4ced-81e1-10ba7d6b62d7","system_id":"levelo_inurba_marseille","lat":43.292749,"lon":5.368398,"is_reserved":false,"is_disabled":false,"rental_uris":{"android":"levelo://app?vid=fb14aace-b9fe-4ced-81e1-10ba7d6b62d7","ios":"levelo://app?vid=fb14aace-b9fe-4ced-81e1-10ba7d6b62d7"},"vehicle_type_id":"4","last_reported":1720210158,"current_range_meters":28800,"station_id":"ce4bhbp2rcd13ifvqesg","pricing_plan_id":"cebpf4jnsgd1na2vs0mg"},{"bike_id":"75f27c9f-5b25-4036-b52d-7dd3d65724b0","system_id":"levelo_inurba_marseille","lat":43.29274,"lon":5.36843,"is_reserved":false,"is_disabled":false,"rental_uris":{"android":"levelo://app?vid=75f27c9f-5b25-4036-b52d-7dd3d65724b0","ios":"levelo://app?vid=75f27c9f-5b25-4036-b52d-7dd3d65724b0"},"vehicle_type_id":"4","last_reported":1720210158,"current_range_meters":28400,"station_id":"ce4bhbp2rcd13ifvqesg","pricing_plan_id":"cebpf4jnsgd1na2vs0mg"},{"bike_id":"306a6809-469a-4331-8e1f-7bb2593fdf3c","system_id":"levelo_inurba_marseille","lat":43.29301,"lon":5.37169,"is_reserved":false,"is_disabled":false,"rental_uris":{"android":"levelo://app?vid=306a6809-469a-4331-8e1f-7bb2593fdf3c","ios":"levelo://app?vid=306a6809-469a-4331-8e1f-7bb2593fdf3c"},"vehicle_type_id":"4","last_reported":1720210158,"current_range_meters":2800,"station_id":"ce4bgh92rcd13ifvqb40","pricing_plan_id":"cebpf4jnsgd1na2vs0mg"},{"bike_id":"5df86b64-140e-4ad2-a191-25f3f89ea923","system_id":"levelo_inurba_marseille","lat":43.29273,"lon":5.36841,"is_reserved":false,"is_disabled":false,"rental_uris":{"android":"levelo://app?vid=5df86b64-140e-4ad2-a191-25f3f89ea923","ios":"levelo://app?vid=5df86b64-140e-4ad2-a191-25f3f89ea923"},"vehicle_type_id":"4","last_reported":1720210158,"current_range_meters":29600,"station_id":"ce4bhbp2rcd13ifvqesg","pricing_plan_id":"cebpf4jnsgd1na2vs0mg"},{"bike_id":"bef784c0-5856-4bdd-8dd7-4fb46defa24c","system_id":"levelo_inurba_marseille","lat":43.29298,"lon":5.37172,"is_reserved":false,"is_disabled":false,"rental_uris":{"android":"levelo://app?vid=bef784c0-5856-4bdd-8dd7-4fb46defa24c","ios":"levelo://app?vid=bef784c0-5856-4bdd-8dd7-4fb46defa24c"},"vehicle_type_id":"4","last_reported":1720210158,"current_range_meters":6400,"station_id":"ce4bgh92rcd13ifvqb40","pricing_plan_id":"cebpf4jnsgd1na2vs0mg"},{"bike_id":"e3de3690-8ea7-4bc7-942d-e982aaf59f8c","system_id":"levelo_inurba_marseille","lat":43.29297,"lon":5.3717,"is_reserved":false,"is_disabled":false,"rental_uris":{"android":"levelo://app?vid=e3de3690-8ea7-4bc7-942d-e982aaf59f8c","ios":"levelo://app?vid=e3de3690-8ea7-4bc7-942d-e982aaf59f8c"},"vehicle_type_id":"4","last_reported":1720210158,"current_range_meters":20000,"station_id":"ce4bgh92rcd13ifvqb40","pricing_plan_id":"cebpf4jnsgd1na2vs0mg"},{"bike_id":"78ec628f-e6f6-418b-82b3-fdccaa98ad8a","system_id":"levelo_inurba_marseille","lat":43.29296,"lon":5.37165,"is_reserved":false,"is_disabled":false,"rental_uris":{"android":"levelo://app?vid=78ec628f-e6f6-418b-82b3-fdccaa98ad8a","ios":"levelo://app?vid=78ec628f-e6f6-418b-82b3-fdccaa98ad8a"},"vehicle_type_id":"4","last_reported":1720210158,"current_range_meters":18000,"station_id":"ce4bgh92rcd13ifvqb40","pricing_plan_id":"cebpf4jnsgd1na2vs0mg"},{"bike_id":"d06bcf61-c0d1-4c3b-8c7d-4e9bf627b3e1","system_id":"levelo_inurba_marseille","lat":43.292749,"lon":5.368402,"is_reserved":false,"is_disabled":false,"rental_uris":{"android":"levelo://app?vid=d06bcf61-c0d1-4c3b-8c7d-4e9bf627b3e1","ios":"levelo://app?vid=d06bcf61-c0d1-4c3b-8c7d-4e9bf627b3e1"},"vehicle_type_id":"4","last_reported":1720210158,"current_range_meters":15600,"station_id":"ce4bhbp2rcd13ifvqesg","pricing_plan_id":"cebpf4jnsgd1na2vs0mg"},{"bike_id":"11d58228-2a9f-4083-aa49-f17e2f7a8f02","system_id":"levelo_inurba_marseille","lat":43.292749,"lon":5.368402,"is_reserved":false,"is_disabled":false,"rental_uris":{"android":"levelo://app?vid=11d58228-2a9f-4083-aa49-f17e2f7a8f02","ios":"levelo://app?vid=11d58228-2a9f-4083-aa49-f17e2f7a8f02"},"vehicle_type_id":"4","last_reported":1720210158,"current_range_meters":30800,"station_id":"ce4bhbp2rcd13ifvqesg","pricing_plan_id":"cebpf4jnsgd1na2vs0mg"},{"bike_id":"6481811d-7555-4956-ae98-637aefbb70e6","system_id":"levelo_inurba_marseille","lat":43.29292,"lon":5.37166,"is_reserved":false,"is_disabled":false,"rental_uris":{"android":"levelo://app?vid=6481811d-7555-4956-ae98-637aefbb70e6","ios":"levelo://app?vid=6481811d-7555-4956-ae98-637aefbb70e6"},"vehicle_type_id":"4","last_reported":1720210158,"current_range_meters":5600,"station_id":"ce4bgh92rcd13ifvqb40","pricing_plan_id":"cebpf4jnsgd1na2vs0mg"},{"bike_id":"c36c118b-c301-4a88-b1f3-2109683ec14c","system_id":"levelo_inurba_marseille","lat":43.29291,"lon":5.37186,"is_reserved":false,"is_disabled":false,"rental_uris":{"android":"levelo://app?vid=c36c118b-c301-4a88-b1f3-2109683ec14c","ios":"levelo://app?vid=c36c118b-c301-4a88-b1f3-2109683ec14c"},"vehicle_type_id":"4","last_reported":1720210158,"current_range_meters":13200,"station_id":"ce4bgh92rcd13ifvqb40","pricing_plan_id":"cebpf4jnsgd1na2vs0mg"},{"bike_id":"0ab94482-788c-4ffe-b0da-e23299abdb99","system_id":"levelo_inurba_marseille","lat":43.333,"lon":5.36439,"is_reserved":false,"is_disabled":false,"rental_uris":{"android":"levelo://app?vid=0ab94482-788c-4ffe-b0da-e23299abdb99","ios":"levelo://app?vid=0ab94482-788c-4ffe-b0da-e23299abdb99"},"vehicle_type_id":"4","last_reported":1720210158,"current_range_meters":14400,"station_id":"","pricing_plan_id":"cebpf4jnsgd1na2vs0mg"},{"bike_id":"a8dce01e-3354-4f06-b822-ea7269b57d0d","system_id":"levelo_inurba_marseille","lat":43.293041,"lon":5.374448,"is_reserved":false,"is_disabled":false,"rental_uris":{"android":"levelo://app?vid=a8dce01e-3354-4f06-b822-ea7269b57d0d","ios":"levelo://app?vid=a8dce01e-3354-4f06-b822-ea7269b57d0d"},"vehicle_type_id":"4","last_reported":1720210158,"current_range_meters":25200,"station_id":"ce4bgi12rcd13ifvqb70","pricing_plan_id":"cebpf4jnsgd1na2vs0mg"},{"bike_id":"844ee522-dc77-4315-bd37-dd4253375bdc","system_id":"levelo_inurba_marseille","lat":43.29302,"lon":5.37448,"is_reserved":false,"is_disabled":false,"rental_uris":{"android":"levelo://app?vid=844ee522-dc77-4315-bd37-dd4253375bdc","ios":"levelo://app?vid=844ee522-dc77-4315-bd37-dd4253375bdc"},"vehicle_type_id":"4","last_reported":1720210158,"current_range_meters":31200,"station_id":"ce4bgi12rcd13ifvqb70","pricing_plan_id":"cebpf4jnsgd1na2vs0mg"},{"bike_id":"d5398ed5-b02c-4b31-af15-36be81607a93","system_id":"levelo_inurba_marseille","lat":43.293012,"lon":5.374482,"is_reserved":false,"is_disabled":false,"rental_uris":{"android":"levelo://app?vid=d5398ed5-b02c-4b31-af15-36be81607a93","ios":"levelo://app?vid=d5398ed5-b02c-4b31-af15-36be81607a93"},"vehicle_type_id":"4","last_reported":1720210158,"current_range_meters":17200,"station_id":"ce4bgi12rcd13ifvqb70","pricing_plan_id":"cebpf4jnsgd1na2vs0mg"},{"bike_id":"16e0ff85-3403-49ab-95d0-735a1f82426a","system_id":"levelo_inurba_marseille","lat":43.29302,"lon":5.3746,"is_reserved":false,"is_disabled":false,"rental_uris":{"android":"levelo://app?vid=16e0ff85-3403-49ab-95d0-735a1f82426a","ios":"levelo://app?vid=16e0ff85-3403-49ab-95d0-735a1f82426a"},"vehicle_type_id":"4","last_reported":1720210158,"current_range_meters":20800,"station_id":"ce4bgi12rcd13ifvqb70","pricing_plan_id":"cebpf4jnsgd1na2vs0mg"},{"bike_id":"dc9a1b46-baaf-4f05-9769-202d8ee77793","system_id":"levelo_inurba_marseille","lat":43.305994,"lon":5.393687,"is_reserved":false,"is_disabled":false,"rental_uris":{"android":"levelo://app?vid=dc9a1b46-baaf-4f05-9769-202d8ee77793","ios":"levelo://app?vid=dc9a1b46-baaf-4f05-9769-202d8ee77793"},"vehicle_type_id":"4","last_reported":1720210158,"current_range_meters":17600,"station_id":"ce4bh0p2rcd13ifvqd80","pricing_plan_id":"cebpf4jnsgd1na2vs0mg"},{"bike_id":"23ca9976-29e5-4aa8-85b6-602be7f47265","system_id":"levelo_inurba_marseille","lat":43.29299,"lon":5.37457,"is_reserved":false,"is_disabled":false,"rental_uris":{"android":"levelo://app?vid=23ca9976-29e5-4aa8-85b6-602be7f47265","ios":"levelo://app?vid=23ca9976-29e5-4aa8-85b6-602be7f47265"},"vehicle_type_id":"4","last_reported":1720210158,"current_range_meters":0,"station_id":"ce4bgi12rcd13ifvqb70","pricing_plan_id":"cebpf4jnsgd1na2vs0mg"},{"bike_id":"08327895-0652-4bef-b753-33f84eb2907b","system_id":"levelo_inurba_marseille","lat":43.29298,"lon":5.37454,"is_reserved":false,"is_disabled":false,"rental_uris":{"android":"levelo://app?vid=08327895-0652-4bef-b753-33f84eb2907b","ios":"levelo://app?vid=08327895-0652-4bef-b753-33f84eb2907b"},"vehicle_type_id":"4","last_reported":1720210158,"current_range_meters":0,"station_id":"ce4bgi12rcd13ifvqb70","pricing_plan_id":"cebpf4jnsgd1na2vs0mg"},{"bike_id":"ea4361fd-b97e-4a8d-b22e-e0d2d1cb750d","system_id":"levelo_inurba_marseille","lat":43.293,"lon":5.37465,"is_reserved":false,"is_disabled":false,"rental_uris":{"android":"levelo://app?vid=ea4361fd-b97e-4a8d-b22e-e0d2d1cb750d","ios":"levelo://app?vid=ea4361fd-b97e-4a8d-b22e-e0d2d1cb750d"},"vehicle_type_id":"4","last_reported":1720210158,"current_range_meters":27200,"station_id":"ce4bgi12rcd13ifvqb70","pricing_plan_id":"cebpf4jnsgd1na2vs0mg"},{"bike_id":"c124c35e-fbf2-4775-b03b-3f0ff55aa8bb","system_id":"levelo_inurba_marseille","lat":43.2936,"lon":5.37835,"is_reserved":false,"is_disabled":false,"rental_uris":{"android":"levelo://app?vid=c124c35e-fbf2-4775-b03b-3f0ff55aa8bb","ios":"levelo://app?vid=c124c35e-fbf2-4775-b03b-3f0ff55aa8bb"},"vehicle_type_id":"4","last_reported":1720210158,"current_range_meters":18800,"station_id":"ce4bgjh2rcd13ifvqbf0","pricing_plan_id":"cebpf4jnsgd1na2vs0mg"},{"bike_id":"f7265022-8eec-4a0c-a310-210c976e1c5d","system_id":"levelo_inurba_marseille","lat":43.29295,"lon":5.37455,"is_reserved":false,"is_disabled":false,"rental_uris":{"android":"levelo://app?vid=f7265022-8eec-4a0c-a310-210c976e1c5d","ios":"levelo://app?vid=f7265022-8eec-4a0c-a310-210c976e1c5d"},"vehicle_type_id":"4","last_reported":1720210158,"current_range_meters":10000,"station_id":"ce4bgi12rcd13ifvqb70","pricing_plan_id":"cebpf4jnsgd1na2vs0mg"},{"bike_id":"80e69bae-f6aa-4e9c-bad0-53a5211a4fbb","system_id":"levelo_inurba_marseille","lat":43.305994,"lon":5.393687,"is_reserved":false,"is_disabled":false,"rental_uris":{"android":"levelo://app?vid=80e69bae-f6aa-4e9c-bad0-53a5211a4fbb","ios":"levelo://app?vid=80e69bae-f6aa-4e9c-bad0-53a5211a4fbb"},"vehicle_type_id":"4","last_reported":1720210158,"current_range_meters":14800,"station_id":"ce4bh0p2rcd13ifvqd80","pricing_plan_id":"cebpf4jnsgd1na2vs0mg"},{"bike_id":"e1d08f86-41af-4720-a02c-dae5421f268a","system_id":"levelo_inurba_marseille","lat":43.305994,"lon":5.393687,"is_reserved":false,"is_disabled":false,"rental_uris":{"android":"levelo://app?vid=e1d08f86-41af-4720-a02c-dae5421f268a","ios":"levelo://app?vid=e1d08f86-41af-4720-a02c-dae5421f268a"},"vehicle_type_id":"4","last_reported":1720210158,"current_range_meters":3200,"station_id":"ce4bh0p2rcd13ifvqd80","pricing_plan_id":"cebpf4jnsgd1na2vs0mg"},{"bike_id":"e0c9e86f-afbf-4c6c-aef4-260e1c40fae6","system_id":"levelo_inurba_marseille","lat":43.29291,"lon":5.3746,"is_reserved":false,"is_disabled":false,"rental_uris":{"android":"levelo://app?vid=e0c9e86f-afbf-4c6c-aef4-260e1c40fae6","ios":"levelo://app?vid=e0c9e86f-afbf-4c6c-aef4-260e1c40fae6"},"vehicle_type_id":"4","last_reported":1720210158,"current_range_meters":4000,"station_id":"ce4bgi12rcd13ifvqb70","pricing_plan_id":"cebpf4jnsgd1na2vs0mg"},{"bike_id":"f972f092-9706-42d1-867f-a78be762dacd","system_id":"levelo_inurba_marseille","lat":43.303002,"lon":5.392142,"is_reserved":false,"is_disabled":false,"rental_uris":{"android":"levelo://app?vid=f972f092-9706-42d1-867f-a78be762dacd","ios":"levelo://app?vid=f972f092-9706-42d1-867f-a78be762dacd"},"vehicle_type_id":"4","last_reported":1720210158,"current_range_meters":9200,"station_id":"ce4bgkh2rcd13ifvqbk0","pricing_plan_id":"cebpf4jnsgd1na2vs0mg"},{"bike_id":"1ed2755a-8fe7-4fa1-b0ea-c531734af249","system_id":"levelo_inurba_marseille","lat":43.303002,"lon":5.392142,"is_reserved":false,"is_disabled":false,"rental_uris":{"android":"levelo://app?vid=1ed2755a-8fe7-4fa1-b0ea-c531734af249","ios":"levelo://app?vid=1ed2755a-8fe7-4fa1-b0ea-c531734af249"},"vehicle_type_id":"4","last_reported":1720210158,"current_range_meters":11200,"station_id":"ce4bgkh2rcd13ifvqbk0","pricing_plan_id":"cebpf4jnsgd1na2vs0mg"},{"bike_id":"a27f83f8-dbba-4188-b657-dd88e20b2e05","system_id":"levelo_inurba_marseille","lat":43.30302,"lon":5.39211,"is_reserved":false,"is_disabled":false,"rental_uris":{"android":"levelo://app?vid=a27f83f8-dbba-4188-b657-dd88e20b2e05","ios":"levelo://app?vid=a27f83f8-dbba-4188-b657-dd88e20b2e05"},"vehicle_type_id":"4","last_reported":1720210158,"current_range_meters":6400,"station_id":"ce4bgkh2rcd13ifvqbk0","pricing_plan_id":"cebpf4jnsgd1na2vs0mg"},{"bike_id":"3946524f-1f50-455b-8369-9c481f531cf8","system_id":"levelo_inurba_marseille","lat":43.30297,"lon":5.39209,"is_reserved":false,"is_disabled":false,"rental_uris":{"android":"levelo://app?vid=3946524f-1f50-455b-8369-9c481f531cf8","ios":"levelo://app?vid=3946524f-1f50-455b-8369-9c481f531cf8"},"vehicle_type_id":"4","last_reported":1720210158,"current_range_meters":31200,"station_id":"ce4bgkh2rcd13ifvqbk0","pricing_plan_id":"cebpf4jnsgd1na2vs0mg"},{"bike_id":"025ae121-f03a-40fe-a321-baeb35d3c6a2","system_id":"levelo_inurba_marseille","lat":43.302992,"lon":5.392136,"is_reserved":false,"is_disabled":false,"rental_uris":{"android":"levelo://app?vid=025ae121-f03a-40fe-a321-baeb35d3c6a2","ios":"levelo://app?vid=025ae121-f03a-40fe-a321-baeb35d3c6a2"},"vehicle_type_id":"4","last_reported":1720210158,"current_range_meters":31200,"station_id":"ce4bgkh2rcd13ifvqbk0","pricing_plan_id":"cebpf4jnsgd1na2vs0mg"},{"bike_id":"55e53d37-c3fa-495b-bf93-34b3a2461ce1","system_id":"levelo_inurba_marseille","lat":43.303002,"lon":5.392142,"is_reserved":false,"is_disabled":false,"rental_uris":{"android":"levelo://app?vid=55e53d37-c3fa-495b-bf93-34b3a2461ce1","ios":"levelo://app?vid=55e53d37-c3fa-495b-bf93-34b3a2461ce1"},"vehicle_type_id":"4","last_reported":1720210158,"current_range_meters":31200,"station_id":"ce4bgkh2rcd13ifvqbk0","pricing_plan_id":"cebpf4jnsgd1na2vs0mg"},{"bike_id":"c9813a2a-f387-4eb7-87f4-7a136d403758","system_id":"levelo_inurba_marseille","lat":43.302992,"lon":5.392136,"is_reserved":false,"is_disabled":false,"rental_uris":{"android":"levelo://app?vid=c9813a2a-f387-4eb7-87f4-7a136d403758","ios":"levelo://app?vid=c9813a2a-f387-4eb7-87f4-7a136d403758"},"vehicle_type_id":"4","last_reported":1720210158,"current_range_meters":10800,"station_id":"ce4bgkh2rcd13ifvqbk0","pricing_plan_id":"cebpf4jnsgd1na2vs0mg"},{"bike_id":"eb68c9b2-f686-4853-8171-da813a94a1ad","system_id":"levelo_inurba_marseille","lat":43.303002,"lon":5.392142,"is_reserved":false,"is_disabled":false,"rental_uris":{"android":"levelo://app?vid=eb68c9b2-f686-4853-8171-da813a94a1ad","ios":"levelo://app?vid=eb68c9b2-f686-4853-8171-da813a94a1ad"},"vehicle_type_id":"4","last_reported":1720210158,"current_range_meters":31200,"station_id":"ce4bgkh2rcd13ifvqbk0","pricing_plan_id":"cebpf4jnsgd1na2vs0mg"},{"bike_id":"edb4ba7a-6886-46f6-b085-f4046a9695b5","system_id":"levelo_inurba_marseille","lat":43.30292,"lon":5.39209,"is_reserved":false,"is_disabled":false,"rental_uris":{"android":"levelo://app?vid=edb4ba7a-6886-46f6-b085-f4046a9695b5","ios":"levelo://app?vid=edb4ba7a-6886-46f6-b085-f4046a9695b5"},"vehicle_type_id":"4","last_reported":1720210158,"current_range_meters":27200,"station_id":"ce4bgkh2rcd13ifvqbk0","pricing_plan_id":"cebpf4jnsgd1na2vs0mg"},{"bike_id":"edbb656c-4b56-4c0e-a447-556706c97135","system_id":"levelo_inurba_marseille","lat":43.2936,"lon":5.37835,"is_reserved":false,"is_disabled":false,"rental_uris":{"android":"levelo://app?vid=edbb656c-4b56-4c0e-a447-556706c97135","ios":"levelo://app?vid=edbb656c-4b56-4c0e-a447-556706c97135"},"vehicle_type_id":"4","last_reported":1720210158,"current_range_meters":8000,"station_id":"ce4bgjh2rcd13ifvqbf0","pricing_plan_id":"cebpf4jnsgd1na2vs0mg"},{"bike_id":"24d1a9de-bb33-4540-8bbe-1ef032cb2eeb","system_id":"levelo_inurba_marseille","lat":43.2936,"lon":5.37835,"is_reserved":false,"is_disabled":false,"rental_uris":{"android":"levelo://app?vid=24d1a9de-bb33-4540-8bbe-1ef032cb2eeb","ios":"levelo://app?vid=24d1a9de-bb33-4540-8bbe-1ef032cb2eeb"},"vehicle_type_id":"4","last_reported":1720210158,"current_range_meters":0,"station_id":"ce4bgjh2rcd13ifvqbf0","pricing_plan_id":"cebpf4jnsgd1na2vs0mg"},{"bike_id":"efbe5621-2873-4a4d-ba74-a5e649aae706","system_id":"levelo_inurba_marseille","lat":43.2936,"lon":5.37835,"is_reserved":false,"is_disabled":false,"rental_uris":{"android":"levelo://app?vid=efbe5621-2873-4a4d-ba74-a5e649aae706","ios":"levelo://app?vid=efbe5621-2873-4a4d-ba74-a5e649aae706"},"vehicle_type_id":"4","last_reported":1720210158,"current_range_meters":4800,"station_id":"ce4bgjh2rcd13ifvqbf0","pricing_plan_id":"cebpf4jnsgd1na2vs0mg"},{"bike_id":"7f236916-7ab7-4b5f-8b26-406a6f7fcf1e","system_id":"levelo_inurba_marseille","lat":43.30105,"lon":5.39075,"is_reserved":false,"is_disabled":false,"rental_uris":{"android":"levelo://app?vid=7f236916-7ab7-4b5f-8b26-406a6f7fcf1e","ios":"levelo://app?vid=7f236916-7ab7-4b5f-8b26-406a6f7fcf1e"},"vehicle_type_id":"4","last_reported":1720210158,"current_range_meters":31200,"station_id":"ce4bh192rcd13ifvqdb0","pricing_plan_id":"cebpf4jnsgd1na2vs0mg"},{"bike_id":"bb455b49-ffed-4c80-8b43-526e2d7b3f5a","system_id":"levelo_inurba_marseille","lat":43.30092,"lon":5.39071,"is_reserved":false,"is_disabled":false,"rental_uris":{"android":"levelo://app?vid=bb455b49-ffed-4c80-8b43-526e2d7b3f5a","ios":"levelo://app?vid=bb455b49-ffed-4c80-8b43-526e2d7b3f5a"},"vehicle_type_id":"4","last_reported":1720210158,"current_range_meters":5600,"station_id":"ce4bh192rcd13ifvqdb0","pricing_plan_id":"cebpf4jnsgd1na2vs0mg"},{"bike_id":"d887ddb6-31b0-44d0-9eac-fcbe1fc8a518","system_id":"levelo_inurba_marseille","lat":43.30096,"lon":5.39076,"is_reserved":false,"is_disabled":false,"rental_uris":{"android":"levelo://app?vid=d887ddb6-31b0-44d0-9eac-fcbe1fc8a518","ios":"levelo://app?vid=d887ddb6-31b0-44d0-9eac-fcbe1fc8a518"},"vehicle_type_id":"4","last_reported":1720210158,"current_range_meters":29600,"station_id":"ce4bh192rcd13ifvqdb0","pricing_plan_id":"cebpf4jnsgd1na2vs0mg"},{"bike_id":"81d0b3b8-2f5d-4b0a-9210-06267b5e0fb2","system_id":"levelo_inurba_marseille","lat":43.303002,"lon":5.392142,"is_reserved":false,"is_disabled":false,"rental_uris":{"android":"levelo://app?vid=81d0b3b8-2f5d-4b0a-9210-06267b5e0fb2","ios":"levelo://app?vid=81d0b3b8-2f5d-4b0a-9210-06267b5e0fb2"},"vehicle_type_id":"4","last_reported":1720210158,"current_range_meters":16400,"station_id":"ce4bgkh2rcd13ifvqbk0","pricing_plan_id":"cebpf4jnsgd1na2vs0mg"},{"bike_id":"ef7c4464-8c84-4a7b-a564-bca30a163657","system_id":"levelo_inurba_marseille","lat":43.30085,"lon":5.390856,"is_reserved":false,"is_disabled":false,"rental_uris":{"android":"levelo://app?vid=ef7c4464-8c84-4a7b-a564-bca30a163657","ios":"levelo://app?vid=ef7c4464-8c84-4a7b-a564-bca30a163657"},"vehicle_type_id":"4","last_reported":1720210158,"current_range_meters":31200,"station_id":"ce4bh192rcd13ifvqdb0","pricing_plan_id":"cebpf4jnsgd1na2vs0mg"},{"bike_id":"2d151050-0c16-4755-902a-f5ccb06569fc","system_id":"levelo_inurba_marseille","lat":43.30085,"lon":5.390856,"is_reserved":false,"is_disabled":false,"rental_uris":{"android":"levelo://app?vid=2d151050-0c16-4755-902a-f5ccb06569fc","ios":"levelo://app?vid=2d151050-0c16-4755-902a-f5ccb06569fc"},"vehicle_type_id":"4","last_reported":1720210158,"current_range_meters":18000,"station_id":"ce4bh192rcd13ifvqdb0","pricing_plan_id":"cebpf4jnsgd1na2vs0mg"},{"bike_id":"7cc1baa6-988c-4ece-9cbc-5b870f1601ed","system_id":"levelo_inurba_marseille","lat":43.3009,"lon":5.39076,"is_reserved":false,"is_disabled":false,"rental_uris":{"android":"levelo://app?vid=7cc1baa6-988c-4ece-9cbc-5b870f1601ed","ios":"levelo://app?vid=7cc1baa6-988c-4ece-9cbc-5b870f1601ed"},"vehicle_type_id":"4","last_reported":1720210158,"current_range_meters":31200,"station_id":"ce4bh192rcd13ifvqdb0","pricing_plan_id":"cebpf4jnsgd1na2vs0mg"},{"bike_id":"64160d1d-c4f1-4793-95fb-1b5fbf35ce72","system_id":"levelo_inurba_marseille","lat":43.30085,"lon":5.390856,"is_reserved":false,"is_disabled":false,"rental_uris":{"android":"levelo://app?vid=64160d1d-c4f1-4793-95fb-1b5fbf35ce72","ios":"levelo://app?vid=64160d1d-c4f1-4793-95fb-1b5fbf35ce72"},"vehicle_type_id":"4","last_reported":1720210158,"current_range_meters":31200,"station_id":"ce4bh192rcd13ifvqdb0","pricing_plan_id":"cebpf4jnsgd1na2vs0mg"},{"bike_id":"41cbf6eb-eabf-44a0-bc11-f46478d32604","system_id":"levelo_inurba_marseille","lat":43.30085,"lon":5.390856,"is_reserved":false,"is_disabled":false,"rental_uris":{"android":"levelo://app?vid=41cbf6eb-eabf-44a0-bc11-f46478d32604","ios":"levelo://app?vid=41cbf6eb-eabf-44a0-bc11-f46478d32604"},"vehicle_type_id":"4","last_reported":1720210158,"current_range_meters":31200,"station_id":"ce4bh192rcd13ifvqdb0","pricing_plan_id":"cebpf4jnsgd1na2vs0mg"},{"bike_id":"007453ca-14fa-4721-8c05-42a3b0856351","system_id":"levelo_inurba_marseille","lat":43.29852,"lon":5.38842,"is_reserved":false,"is_disabled":false,"rental_uris":{"android":"levelo://app?vid=007453ca-14fa-4721-8c05-42a3b0856351","ios":"levelo://app?vid=007453ca-14fa-4721-8c05-42a3b0856351"},"vehicle_type_id":"4","last_reported":1720210158,"current_range_meters":27600,"station_id":"","pricing_plan_id":"cebpf4jnsgd1na2vs0mg"},{"bike_id":"fff3735e-8927-47bd-ac1f-b48e47314709","system_id":"levelo_inurba_marseille","lat":43.298764,"lon":5.388973,"is_reserved":false,"is_disabled":false,"rental_uris":{"android":"levelo://app?vid=fff3735e-8927-47bd-ac1f-b48e47314709","ios":"levelo://app?vid=fff3735e-8927-47bd-ac1f-b48e47314709"},"vehicle_type_id":"4","last_reported":1720210158,"current_range_meters":10000,"station_id":"ce4bh392rcd13ifvqdl0","pricing_plan_id":"cebpf4jnsgd1na2vs0mg"},{"bike_id":"596a4d4c-683d-44df-a5dc-3341d09a436b","system_id":"levelo_inurba_marseille","lat":43.313291,"lon":5.396838,"is_reserved":false,"is_disabled":false,"rental_uris":{"android":"levelo://app?vid=596a4d4c-683d-44df-a5dc-3341d09a436b","ios":"levelo://app?vid=596a4d4c-683d-44df-a5dc-3341d09a436b"},"vehicle_type_id":"4","last_reported":1720210158,"current_range_meters":6400,"station_id":"ce4bgvp2rcd13ifvqcu0","pricing_plan_id":"cebpf4jnsgd1na2vs0mg"},{"bike_id":"d9ec8cca-e199-4757-9178-8165266b5546","system_id":"levelo_inurba_marseille","lat":43.291675,"lon":5.371583,"is_reserved":false,"is_disabled":false,"rental_uris":{"android":"levelo://app?vid=d9ec8cca-e199-4757-9178-8165266b5546","ios":"levelo://app?vid=d9ec8cca-e199-4757-9178-8165266b5546"},"vehicle_type_id":"4","last_reported":1720210158,"current_range_meters":0,"station_id":"ce4bha92rcd13ifvqeh0","pricing_plan_id":"cebpf4jnsgd1na2vs0mg"},{"bike_id":"c28deaa1-9241-41c8-aa05-1f5df2608b95","system_id":"levelo_inurba_marseille","lat":43.298764,"lon":5.388973,"is_reserved":false,"is_disabled":false,"rental_uris":{"android":"levelo://app?vid=c28deaa1-9241-41c8-aa05-1f5df2608b95","ios":"levelo://app?vid=c28deaa1-9241-41c8-aa05-1f5df2608b95"},"vehicle_type_id":"4","last_reported":1720210158,"current_range_meters":21200,"station_id":"ce4bh392rcd13ifvqdl0","pricing_plan_id":"cebpf4jnsgd1na2vs0mg"},{"bike_id":"b68a0ebd-e6c1-415b-af71-a692f9e2afac","system_id":"levelo_inurba_marseille","lat":43.291675,"lon":5.371583,"is_reserved":false,"is_disabled":false,"rental_uris":{"android":"levelo://app?vid=b68a0ebd-e6c1-415b-af71-a692f9e2afac","ios":"levelo://app?vid=b68a0ebd-e6c1-415b-af71-a692f9e2afac"},"vehicle_type_id":"4","last_reported":1720210158,"current_range_meters":30400,"station_id":"ce4bha92rcd13ifvqeh0","pricing_plan_id":"cebpf4jnsgd1na2vs0mg"},{"bike_id":"e3cbbfd4-7429-49e6-b4fa-ee1a9b9398b1","system_id":"levelo_inurba_marseille","lat":43.309047,"lon":5.396551,"is_reserved":false,"is_disabled":false,"rental_uris":{"android":"levelo://app?vid=e3cbbfd4-7429-49e6-b4fa-ee1a9b9398b1","ios":"levelo://app?vid=e3cbbfd4-7429-49e6-b4fa-ee1a9b9398b1"},"vehicle_type_id":"4","last_reported":1720210158,"current_range_meters":25600,"station_id":"ce4bh012rcd13ifvqcv0","pricing_plan_id":"cebpf4jnsgd1na2vs0mg"},{"bike_id":"56bfde22-8d27-4344-8637-184d20dc68c2","system_id":"levelo_inurba_marseille","lat":43.313291,"lon":5.396838,"is_reserved":false,"is_disabled":false,"rental_uris":{"android":"levelo://app?vid=56bfde22-8d27-4344-8637-184d20dc68c2","ios":"levelo://app?vid=56bfde22-8d27-4344-8637-184d20dc68c2"},"vehicle_type_id":"4","last_reported":1720210158,"current_range_meters":10000,"station_id":"ce4bgvp2rcd13ifvqcu0","pricing_plan_id":"cebpf4jnsgd1na2vs0mg"},{"bike_id":"52678d74-27b1-4327-a0e5-65a7b847449d","system_id":"levelo_inurba_marseille","lat":43.313291,"lon":5.396838,"is_reserved":false,"is_disabled":false,"rental_uris":{"android":"levelo://app?vid=52678d74-27b1-4327-a0e5-65a7b847449d","ios":"levelo://app?vid=52678d74-27b1-4327-a0e5-65a7b847449d"},"vehicle_type_id":"4","last_reported":1720210158,"current_range_meters":15600,"station_id":"ce4bgvp2rcd13ifvqcu0","pricing_plan_id":"cebpf4jnsgd1na2vs0mg"},{"bike_id":"78ed23d1-dffa-4901-9af7-41fb685458f1","system_id":"levelo_inurba_marseille","lat":43.309038,"lon":5.396546,"is_reserved":false,"is_disabled":false,"rental_uris":{"android":"levelo://app?vid=78ed23d1-dffa-4901-9af7-41fb685458f1","ios":"levelo://app?vid=78ed23d1-dffa-4901-9af7-41fb685458f1"},"vehicle_type_id":"4","last_reported":1720210158,"current_range_meters":19600,"station_id":"ce4bh012rcd13ifvqcv0","pricing_plan_id":"cebpf4jnsgd1na2vs0mg"},{"bike_id":"4dc89812-0e03-4410-942b-8ff11f8a8f31","system_id":"levelo_inurba_marseille","lat":43.313291,"lon":5.396838,"is_reserved":false,"is_disabled":false,"rental_uris":{"android":"levelo://app?vid=4dc89812-0e03-4410-942b-8ff11f8a8f31","ios":"levelo://app?vid=4dc89812-0e03-4410-942b-8ff11f8a8f31"},"vehicle_type_id":"4","last_reported":1720210158,"current_range_meters":17600,"station_id":"ce4bgvp2rcd13ifvqcu0","pricing_plan_id":"cebpf4jnsgd1na2vs0mg"},{"bike_id":"a6bc10ac-e626-4d29-b13f-2e12729ab144","system_id":"levelo_inurba_marseille","lat":43.309038,"lon":5.396546,"is_reserved":false,"is_disabled":false,"rental_uris":{"android":"levelo://app?vid=a6bc10ac-e626-4d29-b13f-2e12729ab144","ios":"levelo://app?vid=a6bc10ac-e626-4d29-b13f-2e12729ab144"},"vehicle_type_id":"4","last_reported":1720210158,"current_range_meters":8000,"station_id":"ce4bh012rcd13ifvqcv0","pricing_plan_id":"cebpf4jnsgd1na2vs0mg"},{"bike_id":"5473e92e-d80b-4c00-ae0e-1deca2a6a247","system_id":"levelo_inurba_marseille","lat":43.29544,"lon":5.3854,"is_reserved":false,"is_disabled":false,"rental_uris":{"android":"levelo://app?vid=5473e92e-d80b-4c00-ae0e-1deca2a6a247","ios":"levelo://app?vid=5473e92e-d80b-4c00-ae0e-1deca2a6a247"},"vehicle_type_id":"4","last_reported":1720210158,"current_range_meters":19600,"station_id":"ce4bgih2rcd13ifvqba0","pricing_plan_id":"cebpf4jnsgd1na2vs0mg"},{"bike_id":"9e1a755e-9ebe-4f75-93ab-82b13464e2e7","system_id":"levelo_inurba_marseille","lat":43.29541,"lon":5.38539,"is_reserved":false,"is_disabled":false,"rental_uris":{"android":"levelo://app?vid=9e1a755e-9ebe-4f75-93ab-82b13464e2e7","ios":"levelo://app?vid=9e1a755e-9ebe-4f75-93ab-82b13464e2e7"},"vehicle_type_id":"4","last_reported":1720210158,"current_range_meters":25200,"station_id":"ce4bgih2rcd13ifvqba0","pricing_plan_id":"cebpf4jnsgd1na2vs0mg"},{"bike_id":"749da511-b1dc-4457-9e34-6ebc826e3567","system_id":"levelo_inurba_marseille","lat":43.29537,"lon":5.38533,"is_reserved":false,"is_disabled":false,"rental_uris":{"android":"levelo://app?vid=749da511-b1dc-4457-9e34-6ebc826e3567","ios":"levelo://app?vid=749da511-b1dc-4457-9e34-6ebc826e3567"},"vehicle_type_id":"4","last_reported":1720210158,"current_range_meters":21600,"station_id":"ce4bgih2rcd13ifvqba0","pricing_plan_id":"cebpf4jnsgd1na2vs0mg"},{"bike_id":"1a95ce8d-56b1-4014-be0c-02ba83489cc6","system_id":"levelo_inurba_marseille","lat":43.2954,"lon":5.38539,"is_reserved":false,"is_disabled":false,"rental_uris":{"android":"levelo://app?vid=1a95ce8d-56b1-4014-be0c-02ba83489cc6","ios":"levelo://app?vid=1a95ce8d-56b1-4014-be0c-02ba83489cc6"},"vehicle_type_id":"4","last_reported":1720210158,"current_range_meters":24000,"station_id":"ce4bgih2rcd13ifvqba0","pricing_plan_id":"cebpf4jnsgd1na2vs0mg"},{"bike_id":"0359699a-a16b-439f-9395-9e1eef64d690","system_id":"levelo_inurba_marseille","lat":43.29538,"lon":5.38539,"is_reserved":false,"is_disabled":false,"rental_uris":{"android":"levelo://app?vid=0359699a-a16b-439f-9395-9e1eef64d690","ios":"levelo://app?vid=0359699a-a16b-439f-9395-9e1eef64d690"},"vehicle_type_id":"4","last_reported":1720210158,"current_range_meters":10400,"station_id":"ce4bgih2rcd13ifvqba0","pricing_plan_id":"cebpf4jnsgd1na2vs0mg"},{"bike_id":"6e70bb37-c8c7-4483-85b6-a124514b4fbe","system_id":"levelo_inurba_marseille","lat":43.29542,"lon":5.38548,"is_reserved":false,"is_disabled":false,"rental_uris":{"android":"levelo://app?vid=6e70bb37-c8c7-4483-85b6-a124514b4fbe","ios":"levelo://app?vid=6e70bb37-c8c7-4483-85b6-a124514b4fbe"},"vehicle_type_id":"4","last_reported":1720210158,"current_range_meters":30800,"station_id":"ce4bgih2rcd13ifvqba0","pricing_plan_id":"cebpf4jnsgd1na2vs0mg"},{"bike_id":"4c4fe3a5-e7df-424d-a71f-10431b430c61","system_id":"levelo_inurba_marseille","lat":43.29536,"lon":5.38538,"is_reserved":false,"is_disabled":false,"rental_uris":{"android":"levelo://app?vid=4c4fe3a5-e7df-424d-a71f-10431b430c61","ios":"levelo://app?vid=4c4fe3a5-e7df-424d-a71f-10431b430c61"},"vehicle_type_id":"4","last_reported":1720210158,"current_range_meters":16000,"station_id":"ce4bgih2rcd13ifvqba0","pricing_plan_id":"cebpf4jnsgd1na2vs0mg"},