{"last_updated":1757804899,"ttl":60,"version":"2.2","data":{"bikes":[{"bike_id":"f8732beb-0911-43fd-bcc1-da6034b7df98","system_id":"levelo_inurba_marseille","lat":43.239036,"lon":5.365515,"is_reserved":false,"is_disabled":false,"rental_uris":{"android":"levelo://app?vid=f8732beb-0911-43fd-bcc1-da6034b7df98","ios":"levelo://app?vid=f8732beb-0911-43fd-bcc1-da6034b7df98"},"vehicle_type_id":"4","last_reported":1757804899,"current_range_meters":2800,"station_id":"ce4bhi12rcd13ifvqfp0","pricing_plan_id":"cebpf4jnsgd1na2vs0mg"},{"bike_id":"5847a8e7-0b9f-4f3a-937e-62401540febc","system_id":"levelo_inurba_marseille","lat":43.30261,"lon":5.40085,"is_reserved":false,"is_disabled":false,"rental_uris":{"android":"levelo://app?vid=5847a8e7-0b9f-4f3a-937e-62401540febc","ios":"levelo://app?vid=5847a8e7-0b9f-4f3a-937e-62401540febc"},"vehicle_type_id":"4","last_reported":1757804899,"current_range_meters":3200,"station_id":"ce4bgvh2rcd13ifvqcs0","pricing_plan_id":"cebpf4jnsgd1na2vs0mg"},{"bike_id":"37da0422-d37f-40ac-b96c-e515ad19e681","system_id":"levelo_inurba_marseille","lat":43.27339,"lon":5.36254,"is_reserved":false,"is_disabled":false,"rental_uris":{"android":"levelo://app?vid=37da0422-d37f-40ac-b96c-e515ad19e681","ios":"levelo://app?vid=37da0422-d37f-40ac-b96c-e515ad19e681"},"vehicle_type_id":"4","last_reported":1757804899,"current_range_meters":3200,"station_id":"ce4bhbh2rcd13ifvqeo0","pricing_plan_id":"cebpf4jnsgd1na2vs0mg"},{"bike_id":"d1de2b7d-3583-4df3-8bfa-43eda5116068","system_id":"levelo_inurba_marseille","lat":43.3374,"lon":5.37468,"is_reserved":false,"is_disabled":false,"rental_uris":{"android":"levelo://app?vid=d1de2b7d-3583-4df3-8bfa-43eda5116068","ios":"levelo://app?vid=d1de2b7d-3583-4df3-8bfa-43eda5116068"},"vehicle_type_id":"4","last_reported":1757804899,"current_range_meters":3200,"station_id":"","pricing_plan_id":"cebpf4jnsgd1na2vs0mg"},{"bike_id":"8e823669-a05c-4f14-a05f-6373bb94f16b","system_id":"levelo_inurba_marseille","lat":43.307288,"lon":5.372792,"is_reserved":false,"is_disabled":false,"rental_uris":{"android":"levelo://app?vid=8e823669-a05c-4f14-a05f-6373bb94f16b","ios":"levelo://app?vid=8e823669-a05c-4f14-a05f-6373bb94f16b"},"vehicle_type_id":"4","last_reported":1757804899,"current_range_meters":3600,"station_id":"","pricing_plan_id":"cebpf4jnsgd1na2vs0mg"},{"bike_id":"efcbc95c-850b-4cc0-9dcc-09f914352431","system_id":"levelo_inurba_marseille","lat":43.22939,"lon":5.35375,"is_reserved":false,"is_disabled":false,"rental_uris":{"android":"levelo://app?vid=efcbc95c-850b-4cc0-9dcc-09f914352431","ios":"levelo://app?vid=efcbc95c-850b-4cc0-9dcc-09f914352431"},"vehicle_type_id":"4","last_reported":1757804899,"current_range_meters":3600,"station_id":"cpo3532slgdg3j2ikp40","pricing_plan_id":"cebpf4jnsgd1na2vs0mg"},{"bike_id":"3258e62d-d54e-423a-82f8-b3e66399dbec","system_id":"levelo_inurba_marseille","lat":43.29812,"lon":5.38095,"is_reserved":false,"is_disabled":true,"rental_uris":{"android":"levelo://app?vid=3258e62d-d54e-423a-82f8-b3e66399dbec","ios":"levelo://app?vid=3258e62d-d54e-423a-82f8-b3e66399dbec"},"vehicle_type_id":"4","last_reported":1757804899,"current_range_meters":3600,"station_id":"ce4bgip2rcd13ifvqbb0","pricing_plan_id":"cebpf4jnsgd1na2vs0mg"},{"bike_id":"fe8d88d6-81c3-42a8-85bb-3d0aa4841db3","system_id":"levelo_inurba_marseille","lat":43.337444,"lon":5.374475,"is_reserved":false,"is_disabled":false,"rental_uris":{"android":"levelo://app?vid=fe8d88d6-81c3-42a8-85bb-3d0aa4841db3","ios":"levelo://app?vid=fe8d88d6-81c3-42a8-85bb-3d0aa4841db3"},"vehicle_type_id":"4","last_reported":1757804899,"current_range_meters":3600,"station_id":"","pricing_plan_id":"cebpf4jnsgd1na2vs0mg"},{"bike_id":"d1208639-5703-4ac3-a303-6e72a5788218","system_id":"levelo_inurba_marseille","lat":43.33753,"lon":5.37475,"is_reserved":false,"is_disabled":false,"rental_uris":{"android":"levelo://app?vid=d1208639-5703-4ac3-a303-6e72a5788218","ios":"levelo://app?vid=d1208639-5703-4ac3-a303-6e72a5788218"},"vehicle_type_id":"4","last_reported":1757804899,"current_range_meters":3600,"station_id":"","pricing_plan_id":"cebpf4jnsgd1na2vs0mg"},{"bike_id":"999df056-799c-417e-807e-52608d0b797e","system_id":"levelo_inurba_marseille","lat":43.297101,"lon":5.377007,"is_reserved":false,"is_disabled":false,"rental_uris":{"android":"levelo://app?vid=999df056-799c-417e-807e-52608d0b797e","ios":"levelo://app?vid=999df056-799c-417e-807e-52608d0b797e"},"vehicle_type_id":"4","last_reported":1757804899,"current_range_meters":4000,"station_id":"","pricing_plan_id":"cebpf4jnsgd1na2vs0mg"},{"bike_id":"db6c295f-3532-411a-93e2-a3bbae022de2","system_id":"levelo_inurba_marseille","lat":43.27378,"lon":5.36223,"is_reserved":false,"is_disabled":false,"rental_uris":{"android":"levelo://app?vid=db6c295f-3532-411a-93e2-a3bbae022de2","ios":"levelo://app?vid=db6c295f-3532-411a-93e2-a3bbae022de2"},"vehicle_type_id":"4","last_reported":1757804899,"current_range_meters":4400,"station_id":"ce4bhbh2rcd13ifvqeo0","pricing_plan_id":"cebpf4jnsgd1na2vs0mg"},{"bike_id":"646961bf-46f3-4b7e-8767-02cd8b541df8","system_id":"levelo_inurba_marseille","lat":43.30442,"lon":5.3792,"is_reserved":false,"is_disabled":false,"rental_uris":{"android":"levelo://app?vid=646961bf-46f3-4b7e-8767-02cd8b541df8","ios":"levelo://app?vid=646961bf-46f3-4b7e-8767-02cd8b541df8"},"vehicle_type_id":"4","last_reported":1757804899,"current_range_meters":4400,"station_id":"","pricing_plan_id":"cebpf4jnsgd1na2vs0mg"},{"bike_id":"8fb02c31-b078-44e9-b72b-5e66b5abfa9c","system_id":"levelo_inurba_marseille","lat":43.30475,"lon":5.37901,"is_reserved":false,"is_disabled":false,"rental_uris":{"android":"levelo://app?vid=8fb02c31-b078-44e9-b72b-5e66b5abfa9c","ios":"levelo://app?vid=8fb02c31-b078-44e9-b72b-5e66b5abfa9c"},"vehicle_type_id":"4","last_reported":1757804899,"current_range_meters":4400,"station_id":"ce4bgup2rcd13ifvqcn0","pricing_plan_id":"cebpf4jnsgd1na2vs0mg"},{"bike_id":"e496ff26-5c4b-4a1c-b8ed-400981a61023","system_id":"levelo_inurba_marseille","lat":43.284123,"lon":5.374943,"is_reserved":false,"is_disabled":false,"rental_uris":{"android":"levelo://app?vid=e496ff26-5c4b-4a1c-b8ed-400981a61023","ios":"levelo://app?vid=e496ff26-5c4b-4a1c-b8ed-400981a61023"},"vehicle_type_id":"4","last_reported":1757804899,"current_range_meters":4400,"station_id":"ce4bh412rcd13ifvqds0","pricing_plan_id":"cebpf4jnsgd1na2vs0mg"},{"bike_id":"141081e1-2c1c-4fb1-9e43-afb07defefc8","system_id":"levelo_inurba_marseille","lat":43.29857,"lon":5.39723,"is_reserved":false,"is_disabled":false,"rental_uris":{"android":"levelo://app?vid=141081e1-2c1c-4fb1-9e43-afb07defefc8","ios":"levelo://app?vid=141081e1-2c1c-4fb1-9e43-afb07defefc8"},"vehicle_type_id":"4","last_reported":1757804899,"current_range_meters":4400,"station_id":"","pricing_plan_id":"cebpf4jnsgd1na2vs0mg"},{"bike_id":"c39fad0d-ac6e-496e-a9c0-d06aafdb664f","system_id":"levelo_inurba_marseille","lat":43.31067,"lon":5.38339,"is_reserved":false,"is_disabled":true,"rental_uris":{"android":"levelo://app?vid=c39fad0d-ac6e-496e-a9c0-d06aafdb664f","ios":"levelo://app?vid=c39fad0d-ac6e-496e-a9c0-d06aafdb664f"},"vehicle_type_id":"4","last_reported":1757804899,"current_range_meters":4400,"station_id":"ce4bgv92rcd13ifvqcr0","pricing_plan_id":"cebpf4jnsgd1na2vs0mg"},{"bike_id":"fce7dd35-c44d-4e02-b965-5ae9a896e094","system_id":"levelo_inurba_marseille","lat":43.307734,"lon":5.376492,"is_reserved":false,"is_disabled":false,"rental_uris":{"android":"levelo://app?vid=fce7dd35-c44d-4e02-b965-5ae9a896e094","ios":"levelo://app?vid=fce7dd35-c44d-4e02-b965-5ae9a896e094"},"vehicle_type_id":"4","last_reported":1757804899,"current_range_meters":4800,"station_id":"ce4bgv92rcd13ifvqcq0","pricing_plan_id":"cebpf4jnsgd1na2vs0mg"},{"bike_id":"5044162e-6817-4aec-9a91-487c2fc824e7","system_id":"levelo_inurba_marseille","lat":43.29883,"lon":5.3973,"is_reserved":false,"is_disabled":false,"rental_uris":{"android":"levelo://app?vid=5044162e-6817-4aec-9a91-487c2fc824e7","ios":"levelo://app?vid=5044162e-6817-4aec-9a91-487c2fc824e7"},"vehicle_type_id":"4","last_reported":1757804899,"current_range_meters":5600,"station_id":"ce4bh0h2rcd13ifvqd50","pricing_plan_id":"cebpf4jnsgd1na2vs0mg"},{"bike_id":"f52d059a-0239-4182-8b59-0edd4b763a98","system_id":"levelo_inurba_marseille","lat":43.24403,"lon":5.37097,"is_reserved":false,"is_disabled":false,"rental_uris":{"android":"levelo://app?vid=f52d059a-0239-4182-8b59-0edd4b763a98","ios":"levelo://app?vid=f52d059a-0239-4182-8b59-0edd4b763a98"},"vehicle_type_id":"4","last_reported":1757804899,"current_range_meters":5600,"station_id":"","pricing_plan_id":"cebpf4jnsgd1na2vs0mg"},{"bike_id":"b2b9f38a-961d-493e-a751-a8f27cf400f6","system_id":"levelo_inurba_marseille","lat":43.26479,"lon":5.39538,"is_reserved":false,"is_disabled":false,"rental_uris":{"android":"levelo://app?vid=b2b9f38a-961d-493e-a751-a8f27cf400f6","ios":"levelo://app?vid=b2b9f38a-961d-493e-a751-a8f27cf400f6"},"vehicle_type_id":"4","last_reported":1757804899,"current_range_meters":5600,"station_id":"ce4bhi12rcd13ifvqfq0","pricing_plan_id":"cebpf4jnsgd1na2vs0mg"},{"bike_id":"ff73e9d8-db93-4849-85d5-c25f6e0bc736","system_id":"levelo_inurba_marseille","lat":43.28723,"lon":5.36082,"is_reserved":false,"is_disabled":false,"rental_uris":{"android":"levelo://app?vid=ff73e9d8-db93-4849-85d5-c25f6e0bc736","ios":"levelo://app?vid=ff73e9d8-db93-4849-85d5-c25f6e0bc736"},"vehicle_type_id":"4","last_reported":1757804899,"current_range_meters":6000,"station_id":"cki0cbj6b192h4jlfktg","pricing_plan_id":"cebpf4jnsgd1na2vs0mg"},{"bike_id":"dbbfb935-0bb0-4588-9598-d952a992d421","system_id":"levelo_inurba_marseille","lat":43.30905,"lon":5.37202,"is_reserved":false,"is_disabled":false,"rental_uris":{"android":"levelo://app?vid=dbbfb935-0bb0-4588-9598-d952a992d421","ios":"levelo://app?vid=dbbfb935-0bb0-4588-9598-d952a992d421"},"vehicle_type_id":"4","last_reported":1757804899,"current_range_meters":6800,"station_id":"ce4bguh2rcd13ifvqckg","pricing_plan_id":"cebpf4jnsgd1na2vs0mg"},{"bike_id":"d1575314-54f2-499d-a0ea-0d87ee336545","system_id":"levelo_inurba_marseille","lat":43.30259,"lon":5.40079,"is_reserved":false,"is_disabled":false,"rental_uris":{"android":"levelo://app?vid=d1575314-54f2-499d-a0ea-0d87ee336545","ios":"levelo://app?vid=d1575314-54f2-499d-a0ea-0d87ee336545"},"vehicle_type_id":"4","last_reported":1757804899,"current_range_meters":6800,"station_id":"ce4bgvh2rcd13ifvqcs0","pricing_plan_id":"cebpf4jnsgd1na2vs0mg"},{"bike_id":"972b4c5f-3a00-4bb2-9116-b81f2cecc9f2","system_id":"levelo_inurba_marseille","lat":43.33764,"lon":5.37483,"is_reserved":false,"is_disabled":false,"rental_uris":{"android":"levelo://app?vid=972b4c5f-3a00-4bb2-9116-b81f2cecc9f2","ios":"levelo://app?vid=972b4c5f-3a00-4bb2-9116-b81f2cecc9f2"},"vehicle_type_id":"4","last_reported":1757804899,"current_range_meters":7200,"station_id":"","pricing_plan_id":"cebpf4jnsgd1na2vs0mg"},{"bike_id":"a3977072-5f91-4a68-b0d6-dc3cb909a337","system_id":"levelo_inurba_marseille","lat":43.3378,"lon":5.37474,"is_reserved":false,"is_disabled":false,"rental_uris":{"android":"levelo://app?vid=a3977072-5f91-4a68-b0d6-dc3cb909a337","ios":"levelo://app?vid=a3977072-5f91-4a68-b0d6-dc3cb909a337"},"vehicle_type_id":"4","last_reported":1757804899,"current_range_meters":8000,"station_id":"","pricing_plan_id":"cebpf4jnsgd1na2vs0mg"},{"bike_id":"a885dbde-d522-49cd-a7dd-c48b0143a213","system_id":"levelo_inurba_marseille","lat":43.31135,"lon":5.37784,"is_reserved":false,"is_disabled":false,"rental_uris":{"android":"levelo://app?vid=a885dbde-d522-49cd-a7dd-c48b0143a213","ios":"levelo://app?vid=a885dbde-d522-49cd-a7dd-c48b0143a213"},"vehicle_type_id":"4","last_reported":1757804899,"current_range_meters":8000,"station_id":"ce4bgt92rcd13ifvqcg0","pricing_plan_id":"cebpf4jnsgd1na2vs0mg"},{"bike_id":"60cb0aae-22ed-41bb-a1ca-a6dff6a1ed20","system_id":"levelo_inurba_marseille","lat":43.29253,"lon":5.37606,"is_reserved":false,"is_disabled":false,"rental_uris":{"android":"levelo://app?vid=60cb0aae-22ed-41bb-a1ca-a6dff6a1ed20","ios":"levelo://app?vid=60cb0aae-22ed-41bb-a1ca-a6dff6a1ed20"},"vehicle_type_id":"4","last_reported":1757804899,"current_range_meters":8000,"station_id":"ce4bgi12rcd13ifvqb80","pricing_plan_id":"cebpf4jnsgd1na2vs0mg"},{"bike_id":"bdc0a626-57f1-4f43-ae10-f2c4a61f7f6c","system_id":"levelo_inurba_marseille","lat":43.24628,"lon":5.4314,"is_reserved":false,"is_disabled":false,"rental_uris":{"android":"levelo://app?vid=bdc0a626-57f1-4f43-ae10-f2c4a61f7f6c","ios":"levelo://app?vid=bdc0a626-57f1-4f43-ae10-f2c4a61f7f6c"},"vehicle_type_id":"4","last_reported":1757804899,"current_range_meters":8000,"station_id":"st_d2m6c4gdas8pm72e190g","pricing_plan_id":"cebpf4jnsgd1na2vs0mg"},{"bike_id":"4997e8e1-b16b-4353-8966-e89881c68b40","system_id":"levelo_inurba_marseille","lat":43.28938,"lon":5.3664,"is_reserved":false,"is_disabled":false,"rental_uris":{"android":"levelo://app?vid=4997e8e1-b16b-4353-8966-e89881c68b40","ios":"levelo://app?vid=4997e8e1-b16b-4353-8966-e89881c68b40"},"vehicle_type_id":"4","last_reported":1757804899,"current_range_meters":8000,"station_id":"ce4bhap2rcd13ifvqek0","pricing_plan_id":"cebpf4jnsgd1na2vs0mg"},{"bike_id":"4ae8bb9e-2743-465f-be6d-fa3ee4c08db8","system_id":"levelo_inurba_marseille","lat":43.287193,"lon":5.379454,"is_reserved":false,"is_disabled":false,"rental_uris":{"android":"levelo://app?vid=4ae8bb9e-2743-465f-be6d-fa3ee4c08db8","ios":"levelo://app?vid=4ae8bb9e-2743-465f-be6d-fa3ee4c08db8"},"vehicle_type_id":"4","last_reported":1757804899,"current_range_meters":8000,"station_id":"ce4bh9p2rcd13ifvqec0","pricing_plan_id":"cebpf4jnsgd1na2vs0mg"},{"bike_id":"07d92103-a1e6-4195-8efb-8d1eb2a02c77","system_id":"levelo_inurba_marseille","lat":43.25108,"lon":5.4032,"is_reserved":false,"is_disabled":false,"rental_uris":{"android":"levelo://app?vid=07d92103-a1e6-4195-8efb-8d1eb2a02c77","ios":"levelo://app?vid=07d92103-a1e6-4195-8efb-8d1eb2a02c77"},"vehicle_type_id":"4","last_reported":1757804899,"current_range_meters":8400,"station_id":"ce4bhlh2rcd13ifvqgig","pricing_plan_id":"cebpf4jnsgd1na2vs0mg"},{"bike_id":"202633c1-4070-4798-8b68-51f4eaee5281","system_id":"levelo_inurba_marseille","lat":43.292493,"lon":5.383294,"is_reserved":false,"is_disabled":false,"rental_uris":{"android":"levelo://app?vid=202633c1-4070-4798-8b68-51f4eaee5281","ios":"levelo://app?vid=202633c1-4070-4798-8b68-51f4eaee5281"},"vehicle_type_id":"4","last_reported":1757804899,"current_range_meters":8400,"station_id":"","pricing_plan_id":"cebpf4jnsgd1na2vs0mg"},{"bike_id":"377a4bd1-2ce3-4353-b1bd-8ae9e2152d36","system_id":"levelo_inurba_marseille","lat":43.28671,"lon":5.3867,"is_reserved":false,"is_disabled":false,"rental_uris":{"android":"levelo://app?vid=377a4bd1-2ce3-4353-b1bd-8ae9e2152d36","ios":"levelo://app?vid=377a4bd1-2ce3-4353-b1bd-8ae9e2152d36"},"vehicle_type_id":"4","last_reported":1757804899,"current_range_meters":8400,"station_id":"ce4bh492rcd13ifvqdug","pricing_plan_id":"cebpf4jnsgd1na2vs0mg"},{"bike_id":"b7031249-fc27-4dcb-bde2-053009c62c02","system_id":"levelo_inurba_marseille","lat":43.24647,"lon":5.38881,"is_reserved":false,"is_disabled":false,"rental_uris":{"android":"levelo://app?vid=b7031249-fc27-4dcb-bde2-053009c62c02","ios":"levelo://app?vid=b7031249-fc27-4dcb-bde2-053009c62c02"},"vehicle_type_id":"4","last_reported":1757804899,"current_range_meters":8400,"station_id":"ce4bhg12rcd13ifvqf60","pricing_plan_id":"cebpf4jnsgd1na2vs0mg"},{"bike_id":"eaa220fb-5349-44c0-849a-e1e199bab0e0","system_id":"levelo_inurba_marseille","lat":43.312032,"lon":5.367326,"is_reserved":false,"is_disabled":true,"rental_uris":{"android":"levelo://app?vid=eaa220fb-5349-44c0-849a-e1e199bab0e0","ios":"levelo://app?vid=eaa220fb-5349-44c0-849a-e1e199bab0e0"},"vehicle_type_id":"4","last_reported":1757804899,"current_range_meters":8800,"station_id":"","pricing_plan_id":"cebpf4jnsgd1na2vs0mg"},{"bike_id":"6310a6ed-b4f0-4b4c-a2ee-64266c7c664b","system_id":"levelo_inurba_marseille","lat":43.25733,"lon":5.41105,"is_reserved":false,"is_disabled":false,"rental_uris":{"android":"levelo://app?vid=6310a6ed-b4f0-4b4c-a2ee-64266c7c664b","ios":"levelo://app?vid=6310a6ed-b4f0-4b4c-a2ee-64266c7c664b"},"vehicle_type_id":"4","last_reported":1757804899,"current_range_meters":8800,"station_id":"ce4bhkp2rcd13ifvqgd0","pricing_plan_id":"cebpf4jnsgd1na2vs0mg"},{"bike_id":"9538627a-cfe6-47ee-9c89-d7c9e2ced93a","system_id":"levelo_inurba_marseille","lat":43.30248,"lon":5.40067,"is_reserved":false,"is_disabled":false,"rental_uris":{"android":"levelo://app?vid=9538627a-cfe6-47ee-9c89-d7c9e2ced93a","ios":"levelo://app?vid=9538627a-cfe6-47ee-9c89-d7c9e2ced93a"},"vehicle_type_id":"4","last_reported":1757804899,"current_range_meters":8800,"station_id":"ce4bgvh2rcd13ifvqcs0","pricing_plan_id":"cebpf4jnsgd1na2vs0mg"},{"bike_id":"775af279-8ac9-4585-9121-809be9b13265","system_id":"levelo_inurba_marseille","lat":43.337775,"lon":5.374412,"is_reserved":false,"is_disabled":false,"rental_uris":{"android":"levelo://app?vid=775af279-8ac9-4585-9121-809be9b13265","ios":"levelo://app?vid=775af279-8ac9-4585-9121-809be9b13265"},"vehicle_type_id":"4","last_reported":1757804899,"current_range_meters":8800,"station_id":"","pricing_plan_id":"cebpf4jnsgd1na2vs0mg"},{"bike_id":"ae2200e0-55fa-4d16-87bf-72ca65d67371","system_id":"levelo_inurba_marseille","lat":43.283696,"lon":5.384581,"is_reserved":false,"is_disabled":true,"rental_uris":{"android":"levelo://app?vid=ae2200e0-55fa-4d16-87bf-72ca65d67371","ios":"levelo://app?vid=ae2200e0-55fa-4d16-87bf-72ca65d67371"},"vehicle_type_id":"4","last_reported":1757804899,"current_range_meters":8800,"station_id":"","pricing_plan_id":"cebpf4jnsgd1na2vs0mg"},{"bike_id":"3bd595b7-af3b-43b1-8697-1bcb2a61af6f","system_id":"levelo_inurba_marseille","lat":43.28005,"lon":5.40008,"is_reserved":false,"is_disabled":true,"rental_uris":{"android":"levelo://app?vid=3bd595b7-af3b-43b1-8697-1bcb2a61af6f","ios":"levelo://app?vid=3bd595b7-af3b-43b1-8697-1bcb2a61af6f"},"vehicle_type_id":"4","last_reported":1757804899,"current_range_meters":8800,"station_id":"ce4bho92rcd13ifvqh4g","pricing_plan_id":"cebpf4jnsgd1na2vs0mg"},{"bike_id":"27f801c5-cce9-477d-942f-8cd33abdf448","system_id":"levelo_inurba_marseille","lat":43.33605,"lon":5.41029,"is_reserved":false,"is_disabled":false,"rental_uris":{"android":"levelo://app?vid=27f801c5-cce9-477d-942f-8cd33abdf448","ios":"levelo://app?vid=27f801c5-cce9-477d-942f-8cd33abdf448"},"vehicle_type_id":"4","last_reported":1757804899,"current_range_meters":8800,"station_id":"ce4bhqh2rcd13ifvqhmg","pricing_plan_id":"cebpf4jnsgd1na2vs0mg"},{"bike_id":"cfb056af-5993-4f1c-8cff-63d991f2db6d","system_id":"levelo_inurba_marseille","lat":43.28433,"lon":5.37513,"is_reserved":false,"is_disabled":false,"rental_uris":{"android":"levelo://app?vid=cfb056af-5993-4f1c-8cff-63d991f2db6d","ios":"levelo://app?vid=cfb056af-5993-4f1c-8cff-63d991f2db6d"},"vehicle_type_id":"4","last_reported":1757804899,"current_range_meters":8800,"station_id":"ce4bh412rcd13ifvqds0","pricing_plan_id":"cebpf4jnsgd1na2vs0mg"},{"bike_id":"fe8ea19a-9452-430b-9391-4bd937dd3622","system_id":"levelo_inurba_marseille","lat":43.281409,"lon":5.390534,"is_reserved":false,"is_disabled":false,"rental_uris":{"android":"levelo://app?vid=fe8ea19a-9452-430b-9391-4bd937dd3622","ios":"levelo://app?vid=fe8ea19a-9452-430b-9391-4bd937dd3622"},"vehicle_type_id":"4","last_reported":1757804899,"current_range_meters":9200,"station_id":"","pricing_plan_id":"cebpf4jnsgd1na2vs0mg"},{"bike_id":"c5d0a267-63b8-45b1-8db4-f64d80554eb4","system_id":"levelo_inurba_marseille","lat":43.28595,"lon":5.37051,"is_reserved":false,"is_disabled":true,"rental_uris":{"android":"levelo://app?vid=c5d0a267-63b8-45b1-8db4-f64d80554eb4","ios":"levelo://app?vid=c5d0a267-63b8-45b1-8db4-f64d80554eb4"},"vehicle_type_id":"4","last_reported":1757804899,"current_range_meters":9200,"station_id":"ce4bht12rcd13ifvqi60","pricing_plan_id":"cebpf4jnsgd1na2vs0mg"},{"bike_id":"89724e0f-d6a6-4e81-9dc8-40ed9db09b04","system_id":"levelo_inurba_marseille","lat":43.28614,"lon":5.37049,"is_reserved":false,"is_disabled":false,"rental_uris":{"android":"levelo://app?vid=89724e0f-d6a6-4e81-9dc8-40ed9db09b04","ios":"levelo://app?vid=89724e0f-d6a6-4e81-9dc8-40ed9db09b04"},"vehicle_type_id":"4","last_reported":1757804899,"current_range_meters":9200,"station_id":"ce4bht12rcd13ifvqi60","pricing_plan_id":"cebpf4jnsgd1na2vs0mg"},{"bike_id":"71f23975-df19-4c8e-a1fd-40358f5edeef","system_id":"levelo_inurba_marseille","lat":43.2481,"lon":5.37454,"is_reserved":false,"is_disabled":false,"rental_uris":{"android":"levelo://app?vid=71f23975-df19-4c8e-a1fd-40358f5edeef","ios":"levelo://app?vid=71f23975-df19-4c8e-a1fd-40358f5edeef"},"vehicle_type_id":"4","last_reported":1757804899,"current_range_meters":9200,"station_id":"ce4bhgh2rcd13ifvqfb0","pricing_plan_id":"cebpf4jnsgd1na2vs0mg"},{"bike_id":"e8f1a34f-d97f-492d-a96a-630755e01276","system_id":"levelo_inurba_marseille","lat":43.27422,"lon":5.39419,"is_reserved":false,"is_disabled":false,"rental_uris":{"android":"levelo://app?vid=e8f1a34f-d97f-492d-a96a-630755e01276","ios":"levelo://app?vid=e8f1a34f-d97f-492d-a96a-630755e01276"},"vehicle_type_id":"4","last_reported":1757804899,"current_range_meters":9600,"station_id":"ce4bhdp2rcd13ifvqf20","pricing_plan_id":"cebpf4jnsgd1na2vs0mg"},{"bike_id":"c7e7fd69-f607-4002-8cfc-51b1eee21570","system_id":"levelo_inurba_marseille","lat":43.30465,"lon":5.37903,"is_reserved":false,"is_disabled":false,"rental_uris":{"android":"levelo://app?vid=c7e7fd69-f607-4002-8cfc-51b1eee21570","ios":"levelo://app?vid=c7e7fd69-f607-4002-8cfc-51b1eee21570"},"vehicle_type_id":"4","last_reported":1757804899,"current_range_meters":9600,"station_id":"ce4bgup2rcd13ifvqcn0","pricing_plan_id":"cebpf4jnsgd1na2vs0mg"},{"bike_id":"2bf800d6-5810-4583-9dbf-1aa58bacdde6","system_id":"levelo_inurba_marseille","lat":43.304585,"lon":5.379058,"is_reserved":false,"is_disabled":false,"rental_uris":{"android":"levelo://app?vid=2bf800d6-5810-4583-9dbf-1aa58bacdde6","ios":"levelo://app?vid=2bf800d6-5810-4583-9dbf-1aa58bacdde6"},"vehicle_type_id":"4","last_reported":1757804899,"current_range_meters":9600,"station_id":"ce4bgup2rcd13ifvqcn0","pricing_plan_id":"cebpf4jnsgd1na2vs0mg"},{"bike_id":"a24c4696-920b-4645-847f-87e0b46915a6","system_id":"levelo_inurba_marseille","lat":43.32433,"lon":5.42435,"is_reserved":false,"is_disabled":false,"rental_uris":{"android":"levelo://app?vid=a24c4696-920b-4645-847f-87e0b46915a6","ios":"levelo://app?vid=a24c4696-920b-4645-847f-87e0b46915a6"},"vehicle_type_id":"4","last_reported":1757804899,"current_range_meters":9600,"station_id":"","pricing_plan_id":"cebpf4jnsgd1na2vs0mg"},{"bike_id":"0eac0c05-dbf1-4c0b-af6d-53c5df91e290","system_id":"levelo_inurba_marseille","lat":43.29681,"lon":5.37136,"is_reserved":false,"is_disabled":false,"rental_uris":{"android":"levelo://app?vid=0eac0c05-dbf1-4c0b-af6d-53c5df91e290","ios":"levelo://app?vid=0eac0c05-dbf1-4c0b-af6d-53c5df91e290"},"vehicle_type_id":"4","last_reported":1757804899,"current_range_meters":9600,"station_id":"","pricing_plan_id":"cebpf4jnsgd1na2vs0mg"},{"bike_id":"b5aebe24-09ac-4fdd-ad50-5a860659fc9b","system_id":"levelo_inurba_marseille","lat":43.28841,"lon":5.39305,"is_reserved":false,"is_disabled":false,"rental_uris":{"android":"levelo://app?vid=b5aebe24-09ac-4fdd-ad50-5a860659fc9b","ios":"levelo://app?vid=b5aebe24-09ac-4fdd-ad50-5a860659fc9b"},"vehicle_type_id":"4","last_reported":1757804899,"current_range_meters":9600,"station_id":"ce4bh2p2rcd13ifvqdi0","pricing_plan_id":"cebpf4jnsgd1na2vs0mg"},{"bike_id":"6f0095e9-394e-4ef3-9dbf-871a3e48223f","system_id":"levelo_inurba_marseille","lat":43.28229,"lon":5.39066,"is_reserved":false,"is_disabled":false,"rental_uris":{"android":"levelo://app?vid=6f0095e9-394e-4ef3-9dbf-871a3e48223f","ios":"levelo://app?vid=6f0095e9-394e-4ef3-9dbf-871a3e48223f"},"vehicle_type_id":"4","last_reported":1757804899,"current_range_meters":9600,"station_id":"ce4bhn92rcd13ifvqgsg","pricing_plan_id":"cebpf4jnsgd1na2vs0mg"},{"bike_id":"01ff4586-29c8-4333-b677-9a78ad9ba062","system_id":"levelo_inurba_marseille","lat":43.248089,"lon":5.374496,"is_reserved":false,"is_disabled":false,"rental_uris":{"android":"levelo://app?vid=01ff4586-29c8-4333-b677-9a78ad9ba062","ios":"levelo://app?vid=01ff4586-29c8-4333-b677-9a78ad9ba062"},"vehicle_type_id":"4","last_reported":1757804899,"current_range_meters":9600,"station_id":"ce4bhgh2rcd13ifvqfb0","pricing_plan_id":"cebpf4jnsgd1na2vs0mg"},{"bike_id":"9ad57701-092b-4987-844d-5371986cdaba","system_id":"levelo_inurba_marseille","lat":43.23158,"lon":5.43711,"is_reserved":false,"is_disabled":false,"rental_uris":{"android":"levelo://app?vid=9ad57701-092b-4987-844d-5371986cdaba","ios":"levelo://app?vid=9ad57701-092b-4987-844d-5371986cdaba"},"vehicle_type_id":"4","last_reported":1757804899,"current_range_meters":9600,"station_id":"ce4bhmp2rcd13ifvqgog","pricing_plan_id":"cebpf4jnsgd1na2vs0mg"},{"bike_id":"84c8fb15-5b5b-46a3-b92a-7de6406f90b3","system_id":"levelo_inurba_marseille","lat":43.26797,"lon":5.39417,"is_reserved":false,"is_disabled":true,"rental_uris":{"android":"levelo://app?vid=84c8fb15-5b5b-46a3-b92a-7de6406f90b3","ios":"levelo://app?vid=84c8fb15-5b5b-46a3-b92a-7de6406f90b3"},"vehicle_type_id":"4","last_reported":1757804899,"current_range_meters":10000,"station_id":"ce4bhh12rcd13ifvqfg0","pricing_plan_id":"cebpf4jnsgd1na2vs0mg"},{"bike_id":"140f33b8-1102-4f7e-b0ef-d83c5cd8bb96","system_id":"levelo_inurba_marseille","lat":43.23218,"lon":5.35573,"is_reserved":false,"is_disabled":false,"rental_uris":{"android":"levelo://app?vid=140f33b8-1102-4f7e-b0ef-d83c5cd8bb96","ios":"levelo://app?vid=140f33b8-1102-4f7e-b0ef-d83c5cd8bb96"},"vehicle_type_id":"4","last_reported":1757804899,"current_range_meters":10000,"station_id":"ce4bhu92rcd13ifvqi70","pricing_plan_id":"cebpf4jnsgd1na2vs0mg"},{"bike_id":"8c2c4ca1-e2d8-4cf6-94d6-963467695610","system_id":"levelo_inurba_marseille","lat":43.31111,"lon":5.38576,"is_reserved":false,"is_disabled":false,"rental_uris":{"android":"levelo://app?vid=8c2c4ca1-e2d8-4cf6-94d6-963467695610","ios":"levelo://app?vid=8c2c4ca1-e2d8-4cf6-94d6-963467695610"},"vehicle_type_id":"4","last_reported":1757804899,"current_range_meters":10000,"station_id":"","pricing_plan_id":"cebpf4jnsgd1na2vs0mg"},{"bike_id":"dd75143e-972a-4c51-a50c-6559b30bec71","system_id":"levelo_inurba_marseille","lat":43.29894,"lon":5.43668,"is_reserved":false,"is_disabled":false,"rental_uris":{"android":"levelo://app?vid=dd75143e-972a-4c51-a50c-6559b30bec71","ios":"levelo://app?vid=dd75143e-972a-4c51-a50c-6559b30bec71"},"vehicle_type_id":"4","last_reported":1757804899,"current_range_meters":10000,"station_id":"ce4bhpp2rcd13ifvqhfg","pricing_plan_id":"cebpf4jnsgd1na2vs0mg"},{"bike_id":"237f9ad3-6cb0-43c7-8016-9aa45c0dfa76","system_id":"levelo_inurba_marseille","lat":43.30129,"lon":5.39853,"is_reserved":false,"is_disabled":false,"rental_uris":{"android":"levelo://app?vid=237f9ad3-6cb0-43c7-8016-9aa45c0dfa76","ios":"levelo://app?vid=237f9ad3-6cb0-43c7-8016-9aa45c0dfa76"},"vehicle_type_id":"4","last_reported":1757804899,"current_range_meters":10000,"station_id":"ce4bh0h2rcd13ifvqd40","pricing_plan_id":"cebpf4jnsgd1na2vs0mg"},{"bike_id":"a06905a9-dd38-43f8-8cde-d3ae9400eac4","system_id":"levelo_inurba_marseille","lat":43.29272,"lon":5.36844,"is_reserved":false,"is_disabled":false,"rental_uris":{"android":"levelo://app?vid=a06905a9-dd38-43f8-8cde-d3ae9400eac4","ios":"levelo://app?vid=a06905a9-dd38-43f8-8cde-d3ae9400eac4"},"vehicle_type_id":"4","last_reported":1757804899,"current_range_meters":10800,"station_id":"ce4bhbp2rcd13ifvqesg","pricing_plan_id":"cebpf4jnsgd1na2vs0mg"},{"bike_id":"9ecdb74a-0452-41fa-ba72-8f604440bc50","system_id":"levelo_inurba_marseille","lat":43.27989,"lon":5.4002,"is_reserved":false,"is_disabled":false,"rental_uris":{"android":"levelo://app?vid=9ecdb74a-0452-41fa-ba72-8f604440bc50","ios":"levelo://app?vid=9ecdb74a-0452-41fa-ba72-8f604440bc50"},"vehicle_type_id":"4","last_reported":1757804899,"current_range_meters":10800,"station_id":"ce4bho92rcd13ifvqh4g","pricing_plan_id":"cebpf4jnsgd1na2vs0mg"},{"bike_id":"ee1926ad-1adb-4879-a233-28766a333e3f","system_id":"levelo_inurba_marseille","lat":43.28268,"lon":5.35056,"is_reserved":false,"is_disabled":false,"rental_uris":{"android":"levelo://app?vid=ee1926ad-1adb-4879-a233-28766a333e3f","ios":"levelo://app?vid=ee1926ad-1adb-4879-a233-28766a333e3f"},"vehicle_type_id":"4","last_reported":1757804899,"current_range_meters":11200,"station_id":"ce4bhbp2rcd13ifvqerg","pricing_plan_id":"cebpf4jnsgd1na2vs0mg"},{"bike_id":"72ecfdf4-24e1-4d21-b6f0-ea4846497a4f","system_id":"levelo_inurba_marseille","lat":43.28702,"lon":5.39981,"is_reserved":false,"is_disabled":false,"rental_uris":{"android":"levelo://app?vid=72ecfdf4-24e1-4d21-b6f0-ea4846497a4f","ios":"levelo://app?vid=72ecfdf4-24e1-4d21-b6f0-ea4846497a4f"},"vehicle_type_id":"4","last_reported":1757804899,"current_range_meters":10800,"station_id":"ce4bho92rcd13ifvqh3g","pricing_plan_id":"cebpf4jnsgd1na2vs0mg"},{"bike_id":"60433104-da84-4865-bf45-7d40a82aea18","system_id":"levelo_inurba_marseille","lat":43.284095,"lon":5.375205,"is_reserved":false,"is_disabled":false,"rental_uris":{"android":"levelo://app?vid=60433104-da84-4865-bf45-7d40a82aea18","ios":"levelo://app?vid=60433104-da84-4865-bf45-7d40a82aea18"},"vehicle_type_id":"4","last_reported":1757804899,"current_range_meters":10800,"station_id":"ce4bh412rcd13ifvqds0","pricing_plan_id":"cebpf4jnsgd1na2vs0mg"},{"bike_id":"463345a6-2d4f-4448-8488-9cab1efda713","system_id":"levelo_inurba_marseille","lat":43.25442,"lon":5.40108,"is_reserved":false,"is_disabled":false,"rental_uris":{"android":"levelo://app?vid=463345a6-2d4f-4448-8488-9cab1efda713","ios":"levelo://app?vid=463345a6-2d4f-4448-8488-9cab1efda713"},"vehicle_type_id":"4","last_reported":1757804899,"current_range_meters":10800,"station_id":"","pricing_plan_id":"cebpf4jnsgd1na2vs0mg"},{"bike_id":"d5c98035-fc72-4062-a3ec-13203f68e8ed","system_id":"levelo_inurba_marseille","lat":43.28855,"lon":5.4251,"is_reserved":false,"is_disabled":false,"rental_uris":{"android":"levelo://app?vid=d5c98035-fc72-4062-a3ec-13203f68e8ed","ios":"levelo://app?vid=d5c98035-fc72-4062-a3ec-13203f68e8ed"},"vehicle_type_id":"4","last_reported":1757804899,"current_range_meters":10800,"station_id":"","pricing_plan_id":"cebpf4jnsgd1na2vs0mg"},{"bike_id":"146cf975-7cdd-469a-8be5-65407f429d48","system_id":"levelo_inurba_marseille","lat":43.31354,"lon":5.38489,"is_reserved":false,"is_disabled":false,"rental_uris":{"android":"levelo://app?vid=146cf975-7cdd-469a-8be5-65407f429d48","ios":"levelo://app?vid=146cf975-7cdd-469a-8be5-65407f429d48"},"vehicle_type_id":"4","last_reported":1757804899,"current_range_meters":10800,"station_id":"ce4bgt92rcd13ifvqcf0","pricing_plan_id":"cebpf4jnsgd1na2vs0mg"},{"bike_id":"4512c2c7-f6ea-48a6-8a48-abb3bc17e447","system_id":"levelo_inurba_marseille","lat":43.25567,"lon":5.38252,"is_reserved":false,"is_disabled":false,"rental_uris":{"android":"levelo://app?vid=4512c2c7-f6ea-48a6-8a48-abb3bc17e447","ios":"levelo://app?vid=4512c2c7-f6ea-48a6-8a48-abb3bc17e447"},"vehicle_type_id":"4","last_reported":1757804899,"current_range_meters":10800,"station_id":"ce4bhih2rcd13ifvqfs0","pricing_plan_id":"cebpf4jnsgd1na2vs0mg"},{"bike_id":"7375a104-a97e-4de4-8b91-4430b0c483ae","system_id":"levelo_inurba_marseille","lat":43.31168,"lon":5.38709,"is_reserved":false,"is_disabled":false,"rental_uris":{"android":"levelo://app?vid=7375a104-a97e-4de4-8b91-4430b0c483ae","ios":"levelo://app?vid=7375a104-a97e-4de4-8b91-4430b0c483ae"},"vehicle_type_id":"4","last_reported":1757804899,"current_range_meters":11200,"station_id":"ce4bgv12rcd13ifvqcp0","pricing_plan_id":"cebpf4jnsgd1na2vs0mg"},{"bike_id":"7551b6ea-c220-4ab0-ae49-87a7d4947d7b","system_id":"levelo_inurba_marseille","lat":43.29225,"lon":5.36043,"is_reserved":false,"is_disabled":false,"rental_uris":{"android":"levelo://app?vid=7551b6ea-c220-4ab0-ae49-87a7d4947d7b","ios":"levelo://app?vid=7551b6ea-c220-4ab0-ae49-87a7d4947d7b"},"vehicle_type_id":"4","last_reported":1757804899,"current_range_meters":11200,"station_id":"ce4bhbh2rcd13ifvqeqg","pricing_plan_id":"cebpf4jnsgd1na2vs0mg"},{"bike_id":"9a24a4f4-41f7-4810-bda5-c96a460f72fc","system_id":"levelo_inurba_marseille","lat":43.275,"lon":5.42453,"is_reserved":false,"is_disabled":false,"rental_uris":{"android":"levelo://app?vid=9a24a4f4-41f7-4810-bda5-c96a460f72fc","ios":"levelo://app?vid=9a24a4f4-41f7-4810-bda5-c96a460f72fc"},"vehicle_type_id":"4","last_reported":1757804899,"current_range_meters":11200,"station_id":"ce4bhn92rcd13ifvqgrg","pricing_plan_id":"cebpf4jnsgd1na2vs0mg"},{"bike_id":"3bef69fe-5b53-4b5c-bb48-170285c21d79","system_id":"levelo_inurba_marseille","lat":43.258283,"lon":5.394249,"is_reserved":false,"is_disabled":false,"rental_uris":{"android":"levelo://app?vid=3bef69fe-5b53-4b5c-bb48-170285c21d79","ios":"levelo://app?vid=3bef69fe-5b53-4b5c-bb48-170285c21d79"},"vehicle_type_id":"4","last_reported":1757804899,"current_range_meters":11600,"station_id":"ce4bhip2rcd13ifvqft0","pricing_plan_id":"cebpf4jnsgd1na2vs0mg"},{"bike_id":"beb6189c-c21e-4836-b631-6b5c31a632d8","system_id":"levelo_inurba_marseille","lat":43.22564,"lon":5.41615,"is_reserved":false,"is_disabled":false,"rental_uris":{"android":"levelo://app?vid=beb6189c-c21e-4836-b631-6b5c31a632d8","ios":"levelo://app?vid=beb6189c-c21e-4836-b631-6b5c31a632d8"},"vehicle_type_id":"4","last_reported":1757804899,"current_range_meters":11600,"station_id":"st_d2o4gvlbi1j2169b742g","pricing_plan_id":"cebpf4jnsgd1na2vs0mg"},{"bike_id":"d5fe8587-d577-4927-9f03-bf5f1fa338f3","system_id":"levelo_inurba_marseille","lat":43.325852,"lon":5.375796,"is_reserved":false,"is_disabled":false,"rental_uris":{"android":"levelo://app?vid=d5fe8587-d577-4927-9f03-bf5f1fa338f3","ios":"levelo://app?vid=d5fe8587-d577-4927-9f03-bf5f1fa338f3"},"vehicle_type_id":"4","last_reported":1757804899,"current_range_meters":11600,"station_id":"","pricing_plan_id":"cebpf4jnsgd1na2vs0mg"},{"bike_id":"84be000e-b186-4e60-8aaa-b7a0f42a7175","system_id":"levelo_inurba_marseille","lat":43.337616,"lon":5.374353,"is_reserved":false,"is_disabled":false,"rental_uris":{"android":"levelo://app?vid=84be000e-b186-4e60-8aaa-b7a0f42a7175","ios":"levelo://app?vid=84be000e-b186-4e60-8aaa-b7a0f42a7175"},"vehicle_type_id":"4","last_reported":1757804899,"current_range_meters":11600,"station_id":"","pricing_plan_id":"cebpf4jnsgd1na2vs0mg"},{"bike_id":"9a716b84-cf6c-4feb-8ca6-e44852bac3bd","system_id":"levelo_inurba_marseille","lat":43.26613,"lon":5.37235,"is_reserved":false,"is_disabled":false,"rental_uris":{"android":"levelo://app?vid=9a716b84-cf6c-4feb-8ca6-e44852bac3bd","ios":"levelo://app?vid=9a716b84-cf6c-4feb-8ca6-e44852bac3bd"},"vehicle_type_id":"4","last_reported":1757804899,"current_range_meters":11600,"station_id":"ce4bhg12rcd13ifvqf70","pricing_plan_id":"cebpf4jnsgd1na2vs0mg"},{"bike_id":"f8ffd399-b74b-428b-b8c5-652d37f4b22c","system_id":"levelo_inurba_marseille","lat":43.24974,"lon":5.40448,"is_reserved":false,"is_disabled":false,"rental_uris":{"android":"levelo://app?vid=f8ffd399-b74b-428b-b8c5-652d37f4b22c","ios":"levelo://app?vid=f8ffd399-b74b-428b-b8c5-652d37f4b22c"},"vehicle_type_id":"4","last_reported":1757804899,"current_range_meters":12000,"station_id":"st_d2ngiaodas8pm72gd1h0","pricing_plan_id":"cebpf4jnsgd1na2vs0mg"},{"bike_id":"236aa7b0-db27-440d-a1b2-d811d42f2ffc","system_id":"levelo_inurba_marseille","lat":43.31681,"lon":5.40477,"is_reserved":false,"is_disabled":false,"rental_uris":{"android":"levelo://app?vid=236aa7b0-db27-440d-a1b2-d811d42f2ffc","ios":"levelo://app?vid=236aa7b0-db27-440d-a1b2-d811d42f2ffc"},"vehicle_type_id":"4","last_reported":1757804899,"current_range_meters":12000,"station_id":"ce4bh012rcd13ifvqd00","pricing_plan_id":"cebpf4jnsgd1na2vs0mg"},{"bike_id":"62f771b2-4873-460c-a103-d249fe08d9a3","system_id":"levelo_inurba_marseille","lat":43.28459,"lon":5.35889,"is_reserved":false,"is_disabled":true,"rental_uris":{"android":"levelo://app?vid=62f771b2-4873-460c-a103-d249fe08d9a3","ios":"levelo://app?vid=62f771b2-4873-460c-a103-d249fe08d9a3"},"vehicle_type_id":"4","last_reported":1757804899,"current_range_meters":12000,"station_id":"ce4bhah2rcd13ifvqei0","pricing_plan_id":"cebpf4jnsgd1na2vs0mg"},{"bike_id":"3510d789-ae1f-4c67-ae2b-5d51a86b5480","system_id":"levelo_inurba_marseille","lat":43.31135,"lon":5.37744,"is_reserved":false,"is_disabled":false,"rental_uris":{"android":"levelo://app?vid=3510d789-ae1f-4c67-ae2b-5d51a86b5480","ios":"levelo://app?vid=3510d789-ae1f-4c67-ae2b-5d51a86b5480"},"vehicle_type_id":"4","last_reported":1757804899,"current_range_meters":12000,"station_id":"ce4bgt92rcd13ifvqcg0","pricing_plan_id":"cebpf4jnsgd1na2vs0mg"},{"bike_id":"bf2ef9c3-06a1-4f05-b6f0-81a768c73f9a","system_id":"levelo_inurba_marseille","lat":43.28159,"lon":5.42641,"is_reserved":false,"is_disabled":false,"rental_uris":{"android":"levelo://app?vid=bf2ef9c3-06a1-4f05-b6f0-81a768c73f9a","ios":"levelo://app?vid=bf2ef9c3-06a1-4f05-b6f0-81a768c73f9a"},"vehicle_type_id":"4","last_reported":1757804899,"current_range_meters":12000,"station_id":"ce4bhnh2rcd13ifvqgug","pricing_plan_id":"cebpf4jnsgd1na2vs0mg"},{"bike_id":"02dbb44c-70e3-4a7a-b86e-6159cc35ba47","system_id":"levelo_inurba_marseille","lat":43.29587,"lon":5.38689,"is_reserved":false,"is_disabled":false,"rental_uris":{"android":"levelo://app?vid=02dbb44c-70e3-4a7a-b86e-6159cc35ba47","ios":"levelo://app?vid=02dbb44c-70e3-4a7a-b86e-6159cc35ba47"},"vehicle_type_id":"4","last_reported":1757804899,"current_range_meters":12000,"station_id":"ce4bgih2rcd13ifvqba0","pricing_plan_id":"cebpf4jnsgd1na2vs0mg"},{"bike_id":"7970a715-5b02-4b3d-8748-3f1c4b7d6148","system_id":"levelo_inurba_marseille","lat":43.30774,"lon":5.37643,"is_reserved":false,"is_disabled":false,"rental_uris":{"android":"levelo://app?vid=7970a715-5b02-4b3d-8748-3f1c4b7d6148","ios":"levelo://app?vid=7970a715-5b02-4b3d-8748-3f1c4b7d6148"},"vehicle_type_id":"4","last_reported":1757804899,"current_range_meters":12000,"station_id":"ce4bgv92rcd13ifvqcq0","pricing_plan_id":"cebpf4jnsgd1na2vs0mg"},{"bike_id":"f22c134c-16f6-40e2-bdc1-f020da33443c","system_id":"levelo_inurba_marseille","lat":43.29281,"lon":5.40115,"is_reserved":false,"is_disabled":false,"rental_uris":{"android":"levelo://app?vid=f22c134c-16f6-40e2-bdc1-f020da33443c","ios":"levelo://app?vid=f22c134c-16f6-40e2-bdc1-f020da33443c"},"vehicle_type_id":"4","last_reported":1757804899,"current_range_meters":12000,"station_id":"ce4bh312rcd13ifvqdk0","pricing_plan_id":"cebpf4jnsgd1na2vs0mg"},{"bike_id":"fd023a40-d69c-4361-9109-4126162693f0","system_id":"levelo_inurba_marseille","lat":43.27764,"lon":5.37795,"is_reserved":false,"is_disabled":false,"rental_uris":{"android":"levelo://app?vid=fd023a40-d69c-4361-9109-4126162693f0","ios":"levelo://app?vid=fd023a40-d69c-4361-9109-4126162693f0"},"vehicle_type_id":"4","last_reported":1757804899,"current_range_meters":12400,"station_id":"","pricing_plan_id":"cebpf4jnsgd1na2vs0mg"},{"bike_id":"6515536f-56de-4109-b7a1-24c742aed225","system_id":"levelo_inurba_marseille","lat":43.31997,"lon":5.37234,"is_reserved":false,"is_disabled":false,"rental_uris":{"android":"levelo://app?vid=6515536f-56de-4109-b7a1-24c742aed225","ios":"levelo://app?vid=6515536f-56de-4109-b7a1-24c742aed225"},"vehicle_type_id":"4","last_reported":1757804899,"current_range_meters":12400,"station_id":"","pricing_plan_id":"cebpf4jnsgd1na2vs0mg"},{"bike_id":"55d59e02-f5a5-4e1a-9360-556e842fa2a4","system_id":"levelo_inurba_marseille","lat":43.33764,"lon":5.37496,"is_reserved":false,"is_disabled":false,"rental_uris":{"android":"levelo://app?vid=55d59e02-f5a5-4e1a-9360-556e842fa2a4","ios":"levelo://app?vid=55d59e02-f5a5-4e1a-9360-556e842fa2a4"},"vehicle_type_id":"4","last_reported":1757804899,"current_range_meters":12400,"station_id":"","pricing_plan_id":"cebpf4jnsgd1na2vs0mg"},{"bike_id":"a2b05c8c-aa72-4eea-a64a-1c45dcc24001","system_id":"levelo_inurba_marseille","lat":43.28453,"lon":5.35873,"is_reserved":false,"is_disabled":false,"rental_uris":{"android":"levelo://app?vid=a2b05c8c-aa72-4eea-a64a-1c45dcc24001","ios":"levelo://app?vid=a2b05c8c-aa72-4eea-a64a-1c45dcc24001"},"vehicle_type_id":"4","last_reported":1757804899,"current_range_meters":12400,"station_id":"ce4bhah2rcd13ifvqei0","pricing_plan_id":"cebpf4jnsgd1na2vs0mg"},{"bike_id":"d9c11a94-d122-4240-b95b-24fdee8810ac","system_id":"levelo_inurba_marseille","lat":43.282682,"lon":5.399128,"is_reserved":false,"is_disabled":false,"rental_uris":{"android":"levelo://app?vid=d9c11a94-d122-4240-b95b-24fdee8810ac","ios":"levelo://app?vid=d9c11a94-d122-4240-b95b-24fdee8810ac"},"vehicle_type_id":"4","last_reported":1757804899,"current_range_meters":12400,"station_id":"","pricing_plan_id":"cebpf4jnsgd1na2vs0mg"},{"bike_id":"2a7bc07a-c148-4a25-b2c5-5233e29560f5","system_id":"levelo_inurba_marseille","lat":43.286046,"lon":5.370641,"is_reserved":false,"is_disabled":false,"rental_uris":{"android":"levelo://app?vid=2a7bc07a-c148-4a25-b2c5-5233e29560f5","ios":"levelo://app?vid=2a7bc07a-c148-4a25-b2c5-5233e29560f5"},"vehicle_type_id":"4","last_reported":1757804899,"current_range_meters":12400,"station_id":"ce4bht12rcd13ifvqi60","pricing_plan_id":"cebpf4jnsgd1na2vs0mg"},{"bike_id":"31f4578e-18c6-48fb-9fec-123fce0578f9","system_id":"levelo_inurba_marseille","lat":43.30506,"lon":5.379055,"is_reserved":false,"is_disabled":false,"rental_uris":{"android":"levelo://app?vid=31f4578e-18c6-48fb-9fec-123fce0578f9","ios":"levelo://app?vid=31f4578e-18c6-48fb-9fec-123fce0578f9"},"vehicle_type_id":"4","last_reported":1757804899,"current_range_meters":12400,"station_id":"","pricing_plan_id":"cebpf4jnsgd1na2vs0mg"},{"bike_id":"54756892-40fc-40da-862a-36f475f86070","system_id":"levelo_inurba_marseille","lat":43.29698,"lon":5.37133,"is_reserved":false,"is_disabled":false,"rental_uris":{"android":"levelo://app?vid=54756892-40fc-40da-862a-36f475f86070","ios":"levelo://app?vid=54756892-40fc-40da-862a-36f475f86070"},"vehicle_type_id":"4","last_reported":1757804899,"current_range_meters":12400,"station_id":"","pricing_plan_id":"cebpf4jnsgd1na2vs0mg"},{"bike_id":"079a2867-08a3-4e0a-a390-45417960dd7b","system_id":"levelo_inurba_marseille","lat":43.23961,"lon":5.36642,"is_reserved":false,"is_disabled":false,"rental_uris":{"android":"levelo://app?vid=079a2867-08a3-4e0a-a390-45417960dd7b","ios":"levelo://app?vid=079a2867-08a3-4e0a-a390-45417960dd7b"},"vehicle_type_id":"4","last_reported":1757804899,"current_range_meters":12800,"station_id":"ce4bhi12rcd13ifvqfp0","pricing_plan_id":"cebpf4jnsgd1na2vs0mg"},{"bike_id":"cd104b68-7370-4e88-ba9c-1edeee0f6c77","system_id":"levelo_inurba_marseille","lat":43.25162,"lon":5.42309,"is_reserved":false,"is_disabled":false,"rental_uris":{"android":"levelo://app?vid=cd104b68-7370-4e88-ba9c-1edeee0f6c77","ios":"levelo://app?vid=cd104b68-7370-4e88-ba9c-1edeee0f6c77"},"vehicle_type_id":"4","last_reported":1757804899,"current_range_meters":12800,"station_id":"","pricing_plan_id":"cebpf4jnsgd1na2vs0mg"},{"bike_id":"ee42c31a-b74b-4b2d-917a-cd50dc10c6ce","system_id":"levelo_inurba_marseille","lat":43.33055,"lon":5.390245,"is_reserved":false,"is_disabled":false,"rental_uris":{"android":"levelo://app?vid=ee42c31a-b74b-4b2d-917a-cd50dc10c6ce","ios":"levelo://app?vid=ee42c31a-b74b-4b2d-917a-cd50dc10c6ce"},"vehicle_type_id":"4","last_reported":1757804899,"current_range_meters":12800,"station_id":"ce4bhr92rcd13ifvqhrg","pricing_plan_id":"cebpf4jnsgd1na2vs0mg"},{"bike_id":"08dd149f-234d-4257-9742-8ea8a2f2658d","system_id":"levelo_inurba_marseille","lat":43.28427,"lon":5.37522,"is_reserved":false,"is_disabled":true,"rental_uris":{"android":"levelo://app?vid=08dd149f-234d-4257-9742-8ea8a2f2658d","ios":"levelo://app?vid=08dd149f-234d-4257-9742-8ea8a2f2658d"},"vehicle_type_id":"4","last_reported":1757804899,"current_range_meters":12800,"station_id":"ce4bh412rcd13ifvqds0","pricing_plan_id":"cebpf4jnsgd1na2vs0mg"},{"bike_id":"f07d1a34-6972-4c1d-8ed8-100dd0fc1e78","system_id":"levelo_inurba_marseille","lat":43.32985,"lon":5.39052,"is_reserved":false,"is_disabled":false,"rental_uris":{"android":"levelo://app?vid=f07d1a34-6972-4c1d-8ed8-100dd0fc1e78","ios":"levelo://app?vid=f07d1a34-6972-4c1d-8ed8-100dd0fc1e78"},"vehicle_type_id":"4","last_reported":1757804899,"current_range_meters":12800,"station_id":"ce4bhr92rcd13ifvqhrg","pricing_plan_id":"cebpf4jnsgd1na2vs0mg"},{"bike_id":"273baa5b-3117-4861-8b2e-bbd965f781b7","system_id":"levelo_inurba_marseille","lat":43.29038,"lon":5.39953,"is_reserved":false,"is_disabled":false,"rental_uris":{"android":"levelo://app?vid=273baa5b-3117-4861-8b2e-bbd965f781b7","ios":"levelo://app?vid=273baa5b-3117-4861-8b2e-bbd965f781b7"},"vehicle_type_id":"4","last_reported":1757804899,"current_range_meters":12800,"station_id":"ce4bh392rcd13ifvqdm0","pricing_plan_id":"cebpf4jnsgd1na2vs0mg"},{"bike_id":"ee510f93-9bad-498c-af93-1bec8c5ad01b","system_id":"levelo_inurba_marseille","lat":43.25336,"lon":5.4213,"is_reserved":false,"is_disabled":false,"rental_uris":{"android":"levelo://app?vid=ee510f93-9bad-498c-af93-1bec8c5ad01b","ios":"levelo://app?vid=ee510f93-9bad-498c-af93-1bec8c5ad01b"},"vehicle_type_id":"4","last_reported":1757804899,"current_range_meters":13600,"station_id":"st_d2m65c5bi1j21697t3ng","pricing_plan_id":"cebpf4jnsgd1na2vs0mg"},{"bike_id":"31195751-bbc1-4ea5-8068-c21d8881b649","system_id":"levelo_inurba_marseille","lat":43.240639,"lon":5.377242,"is_reserved":false,"is_disabled":false,"rental_uris":{"android":"levelo://app?vid=31195751-bbc1-4ea5-8068-c21d8881b649","ios":"levelo://app?vid=31195751-bbc1-4ea5-8068-c21d8881b649"},"vehicle_type_id":"4","last_reported":1757804899,"current_range_meters":13600,"station_id":"ce4bhnp2rcd13ifvqgvg","pricing_plan_id":"cebpf4jnsgd1na2vs0mg"},{"bike_id":"e9ee13b6-cdb7-464a-b41c-3f407be862de","system_id":"levelo_inurba_marseille","lat":43.217495,"lon":5.346069,"is_reserved":false,"is_disabled":false,"rental_uris":{"android":"levelo://app?vid=e9ee13b6-cdb7-464a-b41c-3f407be862de","ios":"levelo://app?vid=e9ee13b6-cdb7-464a-b41c-3f407be862de"},"vehicle_type_id":"4","last_reported":1757804899,"current_range_meters":13600,"station_id":"st_cvj6r9ubvosntc0bgbag","pricing_plan_id":"cebpf4jnsgd1na2vs0mg"},{"bike_id":"faea29e1-5c2e-4f80-843c-260e9849d9e7","system_id":"levelo_inurba_marseille","lat":43.27937,"lon":5.41046,"is_reserved":false,"is_disabled":false,"rental_uris":{"android":"levelo://app?vid=faea29e1-5c2e-4f80-843c-260e9849d9e7","ios":"levelo://app?vid=faea29e1-5c2e-4f80-843c-260e9849d9e7"},"vehicle_type_id":"4","last_reported":1757804899,"current_range_meters":13600,"station_id":"ce4bhnp2rcd13ifvqh0g","pricing_plan_id":"cebpf4jnsgd1na2vs0mg"},{"bike_id":"4ef419cb-94bd-4f61-b6a3-624a25146b40","system_id":"levelo_inurba_marseille","lat":43.31722,"lon":5.42393,"is_reserved":false,"is_disabled":false,"rental_uris":{"android":"levelo://app?vid=4ef419cb-94bd-4f61-b6a3-624a25146b40","ios":"levelo://app?vid=4ef419cb-94bd-4f61-b6a3-624a25146b40"},"vehicle_type_id":"4","last_reported":1757804899,"current_range_meters":13600,"station_id":"ce4bhp92rcd13ifvqhbg","pricing_plan_id":"cebpf4jnsgd1na2vs0mg"},{"bike_id":"1eaf7d24-f23e-4e79-b6f5-17176bccc028","system_id":"levelo_inurba_marseille","lat":43.27954,"lon":5.3868,"is_reserved":false,"is_disabled":false,"rental_uris":{"android":"levelo://app?vid=1eaf7d24-f23e-4e79-b6f5-17176bccc028","ios":"levelo://app?vid=1eaf7d24-f23e-4e79-b6f5-17176bccc028"},"vehicle_type_id":"4","last_reported":1757804899,"current_range_meters":13600,"station_id":"","pricing_plan_id":"cebpf4jnsgd1na2vs0mg"},{"bike_id":"0db12928-1d93-41a8-98cb-801855963904","system_id":"levelo_inurba_marseille","lat":43.30889,"lon":5.396429,"is_reserved":false,"is_disabled":false,"rental_uris":{"android":"levelo://app?vid=0db12928-1d93-41a8-98cb-801855963904","ios":"levelo://app?vid=0db12928-1d93-41a8-98cb-801855963904"},"vehicle_type_id":"4","last_reported":1757804899,"current_range_meters":13600,"station_id":"ce4bh012rcd13ifvqcv0","pricing_plan_id":"cebpf4jnsgd1na2vs0mg"},{"bike_id":"c5cba6d7-e282-4417-a818-5fc0802dcb08","system_id":"levelo_inurba_marseille","lat":43.33761,"lon":5.3745,"is_reserved":false,"is_disabled":false,"rental_uris":{"android":"levelo://app?vid=c5cba6d7-e282-4417-a818-5fc0802dcb08","ios":"levelo://app?vid=c5cba6d7-e282-4417-a818-5fc0802dcb08"},"vehicle_type_id":"4","last_reported":1757804899,"current_range_meters":13600,"station_id":"","pricing_plan_id":"cebpf4jnsgd1na2vs0mg"},{"bike_id":"40207740-3997-48f7-a3a9-b19ccf0a0c3b","system_id":"levelo_inurba_marseille","lat":43.30423,"lon":5.41344,"is_reserved":false,"is_disabled":false,"rental_uris":{"android":"levelo://app?vid=40207740-3997-48f7-a3a9-b19ccf0a0c3b","ios":"levelo://app?vid=40207740-3997-48f7-a3a9-b19ccf0a0c3b"},"vehicle_type_id":"4","last_reported":1757804899,"current_range_meters":13600,"station_id":"ce4bhop2rcd13ifvqh8g","pricing_plan_id":"cebpf4jnsgd1na2vs0mg"},{"bike_id":"b5e6492f-c6f6-4862-a7a2-5eb9440d5281","system_id":"levelo_inurba_marseille","lat":43.28003,"lon":5.39995,"is_reserved":false,"is_disabled":false,"rental_uris":{"android":"levelo://app?vid=b5e6492f-c6f6-4862-a7a2-5eb9440d5281","ios":"levelo://app?vid=b5e6492f-c6f6-4862-a7a2-5eb9440d5281"},"vehicle_type_id":"4","last_reported":1757804899,"current_range_meters":14000,"station_id":"ce4bho92rcd13ifvqh4g","pricing_plan_id":"cebpf4jnsgd1na2vs0mg"},{"bike_id":"12b9c958-ee1d-4a7e-b063-6648532a7910","system_id":"levelo_inurba_marseille","lat":43.30423,"lon":5.41276,"is_reserved":false,"is_disabled":false,"rental_uris":{"android":"levelo://app?vid=12b9c958-ee1d-4a7e-b063-6648532a7910","ios":"levelo://app?vid=12b9c958-ee1d-4a7e-b063-6648532a7910"},"vehicle_type_id":"4","last_reported":1757804899,"current_range_meters":14000,"station_id":"ce4bhop2rcd13ifvqh8g","pricing_plan_id":"cebpf4jnsgd1na2vs0mg"},{"bike_id":"1fd0839a-5871-4f14-8b02-5a5126ced4cd","system_id":"levelo_inurba_marseille","lat":43.23192,"lon":5.39994,"is_reserved":false,"is_disabled":false,"rental_uris":{"android":"levelo://app?vid=1fd0839a-5871-4f14-8b02-5a5126ced4cd","ios":"levelo://app?vid=1fd0839a-5871-4f14-8b02-5a5126ced4cd"},"vehicle_type_id":"4","last_reported":1757804899,"current_range_meters":14000,"station_id":"ce4bhn12rcd13ifvqgqg","pricing_plan_id":"cebpf4jnsgd1na2vs0mg"},{"bike_id":"7108a4a4-23a1-4ea2-a599-54c778559313","system_id":"levelo_inurba_marseille","lat":43.26221,"lon":5.40487,"is_reserved":false,"is_disabled":false,"rental_uris":{"android":"levelo://app?vid=7108a4a4-23a1-4ea2-a599-54c778559313","ios":"levelo://app?vid=7108a4a4-23a1-4ea2-a599-54c778559313"},"vehicle_type_id":"4","last_reported":1757804899,"current_range_meters":14000,"station_id":"ce4bhmh2rcd13ifvqgmg","pricing_plan_id":"cebpf4jnsgd1na2vs0mg"},{"bike_id":"9b511ded-4510-417f-ace2-ce489ad3687e","system_id":"levelo_inurba_marseille","lat":43.27953,"lon":5.4104,"is_reserved":false,"is_disabled":false,"rental_uris":{"android":"levelo://app?vid=9b511ded-4510-417f-ace2-ce489ad3687e","ios":"levelo://app?vid=9b511ded-4510-417f-ace2-ce489ad3687e"},"vehicle_type_id":"4","last_reported":1757804899,"current_range_meters":14000,"station_id":"ce4bhnp2rcd13ifvqh0g","pricing_plan_id":"cebpf4jnsgd1na2vs0mg"},{"bike_id":"c682ef70-00bc-4415-9b10-9a35bd5ddcc1","system_id":"levelo_inurba_marseille","lat":43.27491,"lon":5.42428,"is_reserved":false,"is_disabled":false,"rental_uris":{"android":"levelo://app?vid=c682ef70-00bc-4415-9b10-9a35bd5ddcc1","ios":"levelo://app?vid=c682ef70-00bc-4415-9b10-9a35bd5ddcc1"},"vehicle_type_id":"4","last_reported":1757804899,"current_range_meters":14400,"station_id":"ce4bhn92rcd13ifvqgrg","pricing_plan_id":"cebpf4jnsgd1na2vs0mg"},{"bike_id":"df41bfb5-751e-4d4d-9862-e3f77512c772","system_id":"levelo_inurba_marseille","lat":43.29565,"lon":5.42295,"is_reserved":false,"is_disabled":false,"rental_uris":{"android":"levelo://app?vid=df41bfb5-751e-4d4d-9862-e3f77512c772","ios":"levelo://app?vid=df41bfb5-751e-4d4d-9862-e3f77512c772"},"vehicle_type_id":"4","last_reported":1757804899,"current_range_meters":14400,"station_id":"ce4bhph2rcd13ifvqhdg","pricing_plan_id":"cebpf4jnsgd1na2vs0mg"},{"bike_id":"4d5d3a06-0cad-4430-a2e8-7ebfca2d588e","system_id":"levelo_inurba_marseille","lat":43.32661,"lon":5.40987,"is_reserved":false,"is_disabled":false,"rental_uris":{"android":"levelo://app?vid=4d5d3a06-0cad-4430-a2e8-7ebfca2d588e","ios":"levelo://app?vid=4d5d3a06-0cad-4430-a2e8-7ebfca2d588e"},"vehicle_type_id":"4","last_reported":1757804899,"current_range_meters":14400,"station_id":"ce4bhpp2rcd13ifvqhgg","pricing_plan_id":"cebpf4jnsgd1na2vs0mg"},{"bike_id":"058b5f2a-5447-43d7-ade3-2c4d8ee5cb4c","system_id":"levelo_inurba_marseille","lat":43.30596,"lon":5.3723,"is_reserved":false,"is_disabled":false,"rental_uris":{"android":"levelo://app?vid=058b5f2a-5447-43d7-ade3-2c4d8ee5cb4c","ios":"levelo://app?vid=058b5f2a-5447-43d7-ade3-2c4d8ee5cb4c"},"vehicle_type_id":"4","last_reported":1757804899,"current_range_meters":14400,"station_id":"ce4bgqh2rcd13ifvqc4g","pricing_plan_id":"cebpf4jnsgd1na2vs0mg"},{"bike_id":"0418ed23-d4c6-49db-b310-d4f985bd3bc3","system_id":"levelo_inurba_marseille","lat":43.32105,"lon":5.36763,"is_reserved":false,"is_disabled":false,"rental_uris":{"android":"levelo://app?vid=0418ed23-d4c6-49db-b310-d4f985bd3bc3","ios":"levelo://app?vid=0418ed23-d4c6-49db-b310-d4f985bd3bc3"},"vehicle_type_id":"4","last_reported":1757804899,"current_range_meters":14400,"station_id":"ce4bhrh2rcd13ifvqhug","pricing_plan_id":"cebpf4jnsgd1na2vs0mg"},{"bike_id":"f98e4b6a-35f9-4b35-8628-2a2e0768e728","system_id":"levelo_inurba_marseille","lat":43.23959,"lon":5.3663,"is_reserved":false,"is_disabled":false,"rental_uris":{"android":"levelo://app?vid=f98e4b6a-35f9-4b35-8628-2a2e0768e728","ios":"levelo://app?vid=f98e4b6a-35f9-4b35-8628-2a2e0768e728"},"vehicle_type_id":"4","last_reported":1757804899,"current_range_meters":14400,"station_id":"ce4bhi12rcd13ifvqfp0","pricing_plan_id":"cebpf4jnsgd1na2vs0mg"},{"bike_id":"e7a329bd-ed66-4ac7-aaba-63f2810ddd86","system_id":"levelo_inurba_marseille","lat":43.31917,"lon":5.37203,"is_reserved":false,"is_disabled":false,"rental_uris":{"android":"levelo://app?vid=e7a329bd-ed66-4ac7-aaba-63f2810ddd86","ios":"levelo://app?vid=e7a329bd-ed66-4ac7-aaba-63f2810ddd86"},"vehicle_type_id":"4","last_reported":1757804899,"current_range_meters":14400,"station_id":"","pricing_plan_id":"cebpf4jnsgd1na2vs0mg"},{"bike_id":"acf73a32-2a24-4c4c-ab4d-3a2f20d1ea3a","system_id":"levelo_inurba_marseille","lat":43.27964,"lon":5.41025,"is_reserved":false,"is_disabled":false,"rental_uris":{"android":"levelo://app?vid=acf73a32-2a24-4c4c-ab4d-3a2f20d1ea3a","ios":"levelo://app?vid=acf73a32-2a24-4c4c-ab4d-3a2f20d1ea3a"},"vehicle_type_id":"4","last_reported":1757804899,"current_range_meters":14400,"station_id":"ce4bhnp2rcd13ifvqh0g","pricing_plan_id":"cebpf4jnsgd1na2vs0mg"},{"bike_id":"3edab8b5-08ab-4bd7-a8e3-46e14fec2b69","system_id":"levelo_inurba_marseille","lat":43.225755,"lon":5.416185,"is_reserved":false,"is_disabled":false,"rental_uris":{"android":"levelo://app?vid=3edab8b5-08ab-4bd7-a8e3-46e14fec2b69","ios":"levelo://app?vid=3edab8b5-08ab-4bd7-a8e3-46e14fec2b69"},"vehicle_type_id":"4","last_reported":1757804899,"current_range_meters":14400,"station_id":"st_d2o4gvlbi1j2169b742g","pricing_plan_id":"cebpf4jnsgd1na2vs0mg"},{"bike_id":"9613ee4d-bd84-40ec-a183-9abb4af6a1b6","system_id":"levelo_inurba_marseille","lat":43.32358,"lon":5.36746,"is_reserved":false,"is_disabled":false,"rental_uris":{"android":"levelo://app?vid=9613ee4d-bd84-40ec-a183-9abb4af6a1b6","ios":"levelo://app?vid=9613ee4d-bd84-40ec-a183-9abb4af6a1b6"},"vehicle_type_id":"4","last_reported":1757804899,"current_range_meters":14400,"station_id":"ce4bhsh2rcd13ifvqi2g","pricing_plan_id":"cebpf4jnsgd1na2vs0mg"},{"bike_id":"d16230ff-2955-426b-a6aa-84f8e2e13648","system_id":"levelo_inurba_marseille","lat":43.288663,"lon":5.425235,"is_reserved":false,"is_disabled":false,"rental_uris":{"android":"levelo://app?vid=d16230ff-2955-426b-a6aa-84f8e2e13648","ios":"levelo://app?vid=d16230ff-2955-426b-a6aa-84f8e2e13648"},"vehicle_type_id":"4","last_reported":1757804899,"current_range_meters":14400,"station_id":"","pricing_plan_id":"cebpf4jnsgd1na2vs0mg"},{"bike_id":"9a82a076-639f-4293-9983-5ad5f42712a6","system_id":"levelo_inurba_marseille","lat":43.31487,"lon":5.37302,"is_reserved":false,"is_disabled":false,"rental_uris":{"android":"levelo://app?vid=9a82a076-639f-4293-9983-5ad5f42712a6","ios":"levelo://app?vid=9a82a076-639f-4293-9983-5ad5f42712a6"},"vehicle_type_id":"4","last_reported":1757804899,"current_range_meters":14800,"station_id":"ce4bgt12rcd13ifvqcd0","pricing_plan_id":"cebpf4jnsgd1na2vs0mg"},{"bike_id":"614d1293-ce35-41ef-8610-6d9a83a36b80","system_id":"levelo_inurba_marseille","lat":43.29247,"lon":5.40899,"is_reserved":false,"is_disabled":false,"rental_uris":{"android":"levelo://app?vid=614d1293-ce35-41ef-8610-6d9a83a36b80","ios":"levelo://app?vid=614d1293-ce35-41ef-8610-6d9a83a36b80"},"vehicle_type_id":"4","last_reported":1757804899,"current_range_meters":14800,"station_id":"ce4bh192rcd13ifvqdc0","pricing_plan_id":"cebpf4jnsgd1na2vs0mg"},{"bike_id":"3bc338fd-b3c5-4caa-b6e6-3c70a52689ba","system_id":"levelo_inurba_marseille","lat":43.31584,"lon":5.38822,"is_reserved":false,"is_disabled":false,"rental_uris":{"android":"levelo://app?vid=3bc338fd-b3c5-4caa-b6e6-3c70a52689ba","ios":"levelo://app?vid=3bc338fd-b3c5-4caa-b6e6-3c70a52689ba"},"vehicle_type_id":"4","last_reported":1757804899,"current_range_meters":14800,"station_id":"","pricing_plan_id":"cebpf4jnsgd1na2vs0mg"},{"bike_id":"ae2189f7-33bf-4f2a-a482-c68884d11213","system_id":"levelo_inurba_marseille","lat":43.30936,"lon":5.40147,"is_reserved":false,"is_disabled":false,"rental_uris":{"android":"levelo://app?vid=ae2189f7-33bf-4f2a-a482-c68884d11213","ios":"levelo://app?vid=ae2189f7-33bf-4f2a-a482-c68884d11213"},"vehicle_type_id":"4","last_reported":1757804899,"current_range_meters":15200,"station_id":"ce4bgvp2rcd13ifvqct0","pricing_plan_id":"cebpf4jnsgd1na2vs0mg"},{"bike_id":"76044b47-22ff-4054-b180-0d72b52b8bee","system_id":"levelo_inurba_marseille","lat":43.24646,"lon":5.43143,"is_reserved":false,"is_disabled":false,"rental_uris":{"android":"levelo://app?vid=76044b47-22ff-4054-b180-0d72b52b8bee","ios":"levelo://app?vid=76044b47-22ff-4054-b180-0d72b52b8bee"},"vehicle_type_id":"4","last_reported":1757804899,"current_range_meters":15200,"station_id":"st_d2m6c4gdas8pm72e190g","pricing_plan_id":"cebpf4jnsgd1na2vs0mg"},{"bike_id":"654df5a8-46fd-4bb1-a78c-219e858dd01e","system_id":"levelo_inurba_marseille","lat":43.28873,"lon":5.3666,"is_reserved":false,"is_disabled":false,"rental_uris":{"android":"levelo://app?vid=654df5a8-46fd-4bb1-a78c-219e858dd01e","ios":"levelo://app?vid=654df5a8-46fd-4bb1-a78c-219e858dd01e"},"vehicle_type_id":"4","last_reported":1757804899,"current_range_meters":15200,"station_id":"","pricing_plan_id":"cebpf4jnsgd1na2vs0mg"},{"bike_id":"1fa9cf8a-cbc2-4f66-a5af-49139eedcffa","system_id":"levelo_inurba_marseille","lat":43.31683,"lon":5.40495,"is_reserved":false,"is_disabled":false,"rental_uris":{"android":"levelo://app?vid=1fa9cf8a-cbc2-4f66-a5af-49139eedcffa","ios":"levelo://app?vid=1fa9cf8a-cbc2-4f66-a5af-49139eedcffa"},"vehicle_type_id":"4","last_reported":1757804899,"current_range_meters":16000,"station_id":"ce4bh012rcd13ifvqd00","pricing_plan_id":"cebpf4jnsgd1na2vs0mg"},{"bike_id":"ffab450d-4c81-4d44-8256-678a72cf8297","system_id":"levelo_inurba_marseille","lat":43.31727,"lon":5.40469,"is_reserved":false,"is_disabled":false,"rental_uris":{"android":"levelo://app?vid=ffab450d-4c81-4d44-8256-678a72cf8297","ios":"levelo://app?vid=ffab450d-4c81-4d44-8256-678a72cf8297"},"vehicle_type_id":"4","last_reported":1757804899,"current_range_meters":16000,"station_id":"ce4bh012rcd13ifvqd00","pricing_plan_id":"cebpf4jnsgd1na2vs0mg"},{"bike_id":"308d542e-00c0-47d2-a2ed-f1125312bc35","system_id":"levelo_inurba_marseille","lat":43.30534,"lon":5.38408,"is_reserved":false,"is_disabled":false,"rental_uris":{"android":"levelo://app?vid=308d542e-00c0-47d2-a2ed-f1125312bc35","ios":"levelo://app?vid=308d542e-00c0-47d2-a2ed-f1125312bc35"},"vehicle_type_id":"4","last_reported":1757804899,"current_range_meters":16000,"station_id":"ce4bgg92rcd13ifvqb30","pricing_plan_id":"cebpf4jnsgd1na2vs0mg"},{"bike_id":"6c4e33c6-1a34-45ba-ab6e-f8092c55629e","system_id":"levelo_inurba_marseille","lat":43.2743,"lon":5.39411,"is_reserved":false,"is_disabled":false,"rental_uris":{"android":"levelo://app?vid=6c4e33c6-1a34-45ba-ab6e-f8092c55629e","ios":"levelo://app?vid=6c4e33c6-1a34-45ba-ab6e-f8092c55629e"},"vehicle_type_id":"4","last_reported":1757804899,"current_range_meters":16000,"station_id":"ce4bhdp2rcd13ifvqf20","pricing_plan_id":"cebpf4jnsgd1na2vs0mg"},{"bike_id":"fb27dea0-5d7e-4fce-ad48-2306c0b37a82","system_id":"levelo_inurba_marseille","lat":43.29283,"lon":5.40117,"is_reserved":false,"is_disabled":false,"rental_uris":{"android":"levelo://app?vid=fb27dea0-5d7e-4fce-ad48-2306c0b37a82","ios":"levelo://app?vid=fb27dea0-5d7e-4fce-ad48-2306c0b37a82"},"vehicle_type_id":"4","last_reported":1757804899,"current_range_meters":15200,"station_id":"ce4bh312rcd13ifvqdk0","pricing_plan_id":"cebpf4jnsgd1na2vs0mg"},{"bike_id":"80ceb157-0310-4e0c-8f74-2038636b6e24","system_id":"levelo_inurba_marseille","lat":43.23969,"lon":5.36634,"is_reserved":false,"is_disabled":false,"rental_uris":{"android":"levelo://app?vid=80ceb157-0310-4e0c-8f74-2038636b6e24","ios":"levelo://app?vid=80ceb157-0310-4e0c-8f74-2038636b6e24"},"vehicle_type_id":"4","last_reported":1757804899,"current_range_meters":16000,"station_id":"ce4bhi12rcd13ifvqfp0","pricing_plan_id":"cebpf4jnsgd1na2vs0mg"},{"bike_id":"95460cbd-17ab-4565-982a-640d24ee3c43","system_id":"levelo_inurba_marseille","lat":43.24815,"lon":5.37428,"is_reserved":false,"is_disabled":false,"rental_uris":{"android":"levelo://app?vid=95460cbd-17ab-4565-982a-640d24ee3c43","ios":"levelo://app?vid=95460cbd-17ab-4565-982a-640d24ee3c43"},"vehicle_type_id":"4","last_reported":1757804899,"current_range_meters":16000,"station_id":"ce4bhgh2rcd13ifvqfb0","pricing_plan_id":"cebpf4jnsgd1na2vs0mg"},{"bike_id":"c75bfa20-483b-42f7-8a25-5f10e08a57b0","system_id":"levelo_inurba_marseille","lat":43.32112,"lon":5.36772,"is_reserved":false,"is_disabled":false,"rental_uris":{"android":"levelo://app?vid=c75bfa20-483b-42f7-8a25-5f10e08a57b0","ios":"levelo://app?vid=c75bfa20-483b-42f7-8a25-5f10e08a57b0"},"vehicle_type_id":"4","last_reported":1757804899,"current_range_meters":16000,"station_id":"ce4bhrh2rcd13ifvqhug","pricing_plan_id":"cebpf4jnsgd1na2vs0mg"},{"bike_id":"feaa8473-18e1-4aa4-b9cc-4c8b8fd0a06c","system_id":"levelo_inurba_marseille","lat":43.30804,"lon":5.43518,"is_reserved":false,"is_disabled":false,"rental_uris":{"android":"levelo://app?vid=feaa8473-18e1-4aa4-b9cc-4c8b8fd0a06c","ios":"levelo://app?vid=feaa8473-18e1-4aa4-b9cc-4c8b8fd0a06c"},"vehicle_type_id":"4","last_reported":1757804899,"current_range_meters":16400,"station_id":"ce4bhph2rcd13ifvqheg","pricing_plan_id":"cebpf4jnsgd1na2vs0mg"},{"bike_id":"6fad281f-c944-4c41-8f19-b41d40bd8698","system_id":"levelo_inurba_marseille","lat":43.25822,"lon":5.39434,"is_reserved":false,"is_disabled":false,"rental_uris":{"android":"levelo://app?vid=6fad281f-c944-4c41-8f19-b41d40bd8698","ios":"levelo://app?vid=6fad281f-c944-4c41-8f19-b41d40bd8698"},"vehicle_type_id":"4","last_reported":1757804899,"current_range_meters":16400,"station_id":"ce4bhip2rcd13ifvqft0","pricing_plan_id":"cebpf4jnsgd1na2vs0mg"},{"bike_id":"085d1fc3-832e-4bb8-9dab-596c869e48fd","system_id":"levelo_inurba_marseille","lat":43.2823,"lon":5.39062,"is_reserved":false,"is_disabled":false,"rental_uris":{"android":"levelo://app?vid=085d1fc3-832e-4bb8-9dab-596c869e48fd","ios":"levelo://app?vid=085d1fc3-832e-4bb8-9dab-596c869e48fd"},"vehicle_type_id":"4","last_reported":1757804899,"current_range_meters":16400,"station_id":"ce4bhn92rcd13ifvqgsg","pricing_plan_id":"cebpf4jnsgd1na2vs0mg"},{"bike_id":"5476d906-b0c2-4d37-81e0-6fc56d7abe48","system_id":"levelo_inurba_marseille","lat":43.31724,"lon":5.37683,"is_reserved":false,"is_disabled":false,"rental_uris":{"android":"levelo://app?vid=5476d906-b0c2-4d37-81e0-6fc56d7abe48","ios":"levelo://app?vid=5476d906-b0c2-4d37-81e0-6fc56d7abe48"},"vehicle_type_id":"4","last_reported":1757804899,"current_range_meters":16400,"station_id":"ce4bgth2rcd13ifvqch0","pricing_plan_id":"cebpf4jnsgd1na2vs0mg"},{"bike_id":"2f3eaba9-3f91-4a26-a414-0c3425ac3531","system_id":"levelo_inurba_marseille","lat":43.30146,"lon":5.39877,"is_reserved":false,"is_disabled":false,"rental_uris":{"android":"levelo://app?vid=2f3eaba9-3f91-4a26-a414-0c3425ac3531","ios":"levelo://app?vid=2f3eaba9-3f91-4a26-a414-0c3425ac3531"},"vehicle_type_id":"4","last_reported":1757804899,"current_range_meters":16400,"station_id":"","pricing_plan_id":"cebpf4jnsgd1na2vs0mg"},{"bike_id":"0db1212c-b38c-47f5-8e41-37749d8fc729","system_id":"levelo_inurba_marseille","lat":43.2899,"lon":5.38665,"is_reserved":false,"is_disabled":false,"rental_uris":{"android":"levelo://app?vid=0db1212c-b38c-47f5-8e41-37749d8fc729","ios":"levelo://app?vid=0db1212c-b38c-47f5-8e41-37749d8fc729"},"vehicle_type_id":"4","last_reported":1757804899,"current_range_meters":16400,"station_id":"","pricing_plan_id":"cebpf4jnsgd1na2vs0mg"},{"bike_id":"da541ee4-0606-4ac0-9610-04082fe0389f","system_id":"levelo_inurba_marseille","lat":43.27375,"lon":5.3625,"is_reserved":false,"is_disabled":false,"rental_uris":{"android":"levelo://app?vid=da541ee4-0606-4ac0-9610-04082fe0389f","ios":"levelo://app?vid=da541ee4-0606-4ac0-9610-04082fe0389f"},"vehicle_type_id":"4","last_reported":1757804899,"current_range_meters":16400,"station_id":"ce4bhbh2rcd13ifvqeo0","pricing_plan_id":"cebpf4jnsgd1na2vs0mg"},{"bike_id":"8531afdb-32d4-4c53-8b7d-1730982d0eec","system_id":"levelo_inurba_marseille","lat":43.217534,"lon":5.345988,"is_reserved":false,"is_disabled":false,"rental_uris":{"android":"levelo://app?vid=8531afdb-32d4-4c53-8b7d-1730982d0eec","ios":"levelo://app?vid=8531afdb-32d4-4c53-8b7d-1730982d0eec"},"vehicle_type_id":"4","last_reported":1757804899,"current_range_meters":16800,"station_id":"st_cvj6r9ubvosntc0bgbag","pricing_plan_id":"cebpf4jnsgd1na2vs0mg"},{"bike_id":"2500752c-16d5-4447-b628-690ad7fdd253","system_id":"levelo_inurba_marseille","lat":43.217461,"lon":5.346051,"is_reserved":false,"is_disabled":false,"rental_uris":{"android":"levelo://app?vid=2500752c-16d5-4447-b628-690ad7fdd253","ios":"levelo://app?vid=2500752c-16d5-4447-b628-690ad7fdd253"},"vehicle_type_id":"4","last_reported":1757804899,"current_range_meters":16800,"station_id":"st_cvj6r9ubvosntc0bgbag","pricing_plan_id":"cebpf4jnsgd1na2vs0mg"},{"bike_id":"d1835cb7-e899-4398-9f30-62c2e5129cec","system_id":"levelo_inurba_marseille","lat":43.29871,"lon":5.39735,"is_reserved":false,"is_disabled":false,"rental_uris":{"android":"levelo://app?vid=d1835cb7-e899-4398-9f30-62c2e5129cec","ios":"levelo://app?vid=d1835cb7-e899-4398-9f30-62c2e5129cec"},"vehicle_type_id":"4","last_reported":1757804899,"current_range_meters":16800,"station_id":"","pricing_plan_id":"cebpf4jnsgd1na2vs0mg"},{"bike_id":"8ab60a89-bd14-40d7-b359-020ea126cfef","system_id":"levelo_inurba_marseille","lat":43.323658,"lon":5.367532,"is_reserved":false,"is_disabled":false,"rental_uris":{"android":"levelo://app?vid=8ab60a89-bd14-40d7-b359-020ea126cfef","ios":"levelo://app?vid=8ab60a89-bd14-40d7-b359-020ea126cfef"},"vehicle_type_id":"4","last_reported":1757804899,"current_range_meters":16800,"station_id":"ce4bhsh2rcd13ifvqi2g","pricing_plan_id":"cebpf4jnsgd1na2vs0mg"},{"bike_id":"aa481542-6ec7-432f-9e81-831d23cdac52","system_id":"levelo_inurba_marseille","lat":43.30149,"lon":5.39878,"is_reserved":false,"is_disabled":false,"rental_uris":{"android":"levelo://app?vid=aa481542-6ec7-432f-9e81-831d23cdac52","ios":"levelo://app?vid=aa481542-6ec7-432f-9e81-831d23cdac52"},"vehicle_type_id":"4","last_reported":1757804899,"current_range_meters":16800,"station_id":"ce4bh0h2rcd13ifvqd40","pricing_plan_id":"cebpf4jnsgd1na2vs0mg"},{"bike_id":"8af6a516-2b57-41d8-8e16-782506b9684c","system_id":"levelo_inurba_marseille","lat":43.28935,"lon":5.36637,"is_reserved":false,"is_disabled":false,"rental_uris":{"android":"levelo://app?vid=8af6a516-2b57-41d8-8e16-782506b9684c","ios":"levelo://app?vid=8af6a516-2b57-41d8-8e16-782506b9684c"},"vehicle_type_id":"4","last_reported":1757804899,"current_range_meters":17200,"station_id":"ce4bhap2rcd13ifvqek0","pricing_plan_id":"cebpf4jnsgd1na2vs0mg"},{"bike_id":"d9c4202c-de13-4428-8c40-40d90faf1618","system_id":"levelo_inurba_marseille","lat":43.31356,"lon":5.3707,"is_reserved":false,"is_disabled":false,"rental_uris":{"android":"levelo://app?vid=d9c4202c-de13-4428-8c40-40d90faf1618","ios":"levelo://app?vid=d9c4202c-de13-4428-8c40-40d90faf1618"},"vehicle_type_id":"4","last_reported":1757804899,"current_range_meters":17200,"station_id":"","pricing_plan_id":"cebpf4jnsgd1na2vs0mg"},{"bike_id":"4d6e6605-7f16-44fa-a19a-c138ee7cb360","system_id":"levelo_inurba_marseille","lat":43.33799,"lon":5.37446,"is_reserved":false,"is_disabled":false,"rental_uris":{"android":"levelo://app?vid=4d6e6605-7f16-44fa-a19a-c138ee7cb360","ios":"levelo://app?vid=4d6e6605-7f16-44fa-a19a-c138ee7cb360"},"vehicle_type_id":"4","last_reported":1757804899,"current_range_meters":17200,"station_id":"","pricing_plan_id":"cebpf4jnsgd1na2vs0mg"},{"bike_id":"ef94e107-b5fd-44f7-a023-fb0854a2be56","system_id":"levelo_inurba_marseille","lat":43.28617,"lon":5.35083,"is_reserved":false,"is_disabled":false,"rental_uris":{"android":"levelo://app?vid=ef94e107-b5fd-44f7-a023-fb0854a2be56","ios":"levelo://app?vid=ef94e107-b5fd-44f7-a023-fb0854a2be56"},"vehicle_type_id":"4","last_reported":1757804899,"current_range_meters":17200,"station_id":"ce4bhch2rcd13ifvqeug","pricing_plan_id":"cebpf4jnsgd1na2vs0mg"},{"bike_id":"37dd72d3-ff33-4ebe-8879-e1915b81647f","system_id":"levelo_inurba_marseille","lat":43.290427,"lon":5.37572,"is_reserved":false,"is_disabled":false,"rental_uris":{"android":"levelo://app?vid=37dd72d3-ff33-4ebe-8879-e1915b81647f","ios":"levelo://app?vid=37dd72d3-ff33-4ebe-8879-e1915b81647f"},"vehicle_type_id":"4","last_reported":1757804899,"current_range_meters":17200,"station_id":"ce4bhah2rcd13ifvqej0","pricing_plan_id":"cebpf4jnsgd1na2vs0mg"},{"bike_id":"6e08fe94-e5e7-44e1-8a61-23b030122e1f","system_id":"levelo_inurba_marseille","lat":43.28348,"lon":5.381,"is_reserved":false,"is_disabled":false,"rental_uris":{"android":"levelo://app?vid=6e08fe94-e5e7-44e1-8a61-23b030122e1f","ios":"levelo://app?vid=6e08fe94-e5e7-44e1-8a61-23b030122e1f"},"vehicle_type_id":"4","last_reported":1757804899,"current_range_meters":17600,"station_id":"ce4bh412rcd13ifvqdr0","pricing_plan_id":"cebpf4jnsgd1na2vs0mg"},{"bike_id":"d1731a83-7a7c-4d3c-860c-4905c89713d6","system_id":"levelo_inurba_marseille","lat":43.28845,"lon":5.35857,"is_reserved":false,"is_disabled":false,"rental_uris":{"android":"levelo://app?vid=d1731a83-7a7c-4d3c-860c-4905c89713d6","ios":"levelo://app?vid=d1731a83-7a7c-4d3c-860c-4905c89713d6"},"vehicle_type_id":"4","last_reported":1757804899,"current_range_meters":17600,"station_id":"ce4bhb12rcd13ifvqem0","pricing_plan_id":"cebpf4jnsgd1na2vs0mg"},{"bike_id":"75e7db24-f897-4b35-8b39-9345be8b7845","system_id":"levelo_inurba_marseille","lat":43.24831,"lon":5.37436,"is_reserved":false,"is_disabled":false,"rental_uris":{"android":"levelo://app?vid=75e7db24-f897-4b35-8b39-9345be8b7845","ios":"levelo://app?vid=75e7db24-f897-4b35-8b39-9345be8b7845"},"vehicle_type_id":"4","last_reported":1757804899,"current_range_meters":17600,"station_id":"ce4bhgh2rcd13ifvqfb0","pricing_plan_id":"cebpf4jnsgd1na2vs0mg"},{"bike_id":"5e1e26d2-1d35-4903-bf4b-7a9daaef0a2d","system_id":"levelo_inurba_marseille","lat":43.30785,"lon":5.37634,"is_reserved":false,"is_disabled":false,"rental_uris":{"android":"levelo://app?vid=5e1e26d2-1d35-4903-bf4b-7a9daaef0a2d","ios":"levelo://app?vid=5e1e26d2-1d35-4903-bf4b-7a9daaef0a2d"},"vehicle_type_id":"4","last_reported":1757804899,"current_range_meters":17600,"station_id":"ce4bgv92rcd13ifvqcq0","pricing_plan_id":"cebpf4jnsgd1na2vs0mg"},{"bike_id":"8e3a9e83-812e-4b5d-8c7b-5119699e81be","system_id":"levelo_inurba_marseille","lat":43.31572,"lon":5.40575,"is_reserved":false,"is_disabled":false,"rental_uris":{"android":"levelo://app?vid=8e3a9e83-812e-4b5d-8c7b-5119699e81be","ios":"levelo://app?vid=8e3a9e83-812e-4b5d-8c7b-5119699e81be"},"vehicle_type_id":"4","last_reported":1757804899,"current_range_meters":17600,"station_id":"","pricing_plan_id":"cebpf4jnsgd1na2vs0mg"},{"bike_id":"e06d2e94-3ae2-4b4b-9d7e-05d3f806365a","system_id":"levelo_inurba_marseille","lat":43.25824,"lon":5.39432,"is_reserved":false,"is_disabled":false,"rental_uris":{"android":"levelo://app?vid=e06d2e94-3ae2-4b4b-9d7e-05d3f806365a","ios":"levelo://app?vid=e06d2e94-3ae2-4b4b-9d7e-05d3f806365a"},"vehicle_type_id":"4","last_reported":1757804899,"current_range_meters":17600,"station_id":"ce4bhip2rcd13ifvqft0","pricing_plan_id":"cebpf4jnsgd1na2vs0mg"},{"bike_id":"fcb57a89-2465-4424-8a01-03f702c794d8","system_id":"levelo_inurba_marseille","lat":43.29902,"lon":5.3814,"is_reserved":false,"is_disabled":false,"rental_uris":{"android":"levelo://app?vid=fcb57a89-2465-4424-8a01-03f702c794d8","ios":"levelo://app?vid=fcb57a89-2465-4424-8a01-03f702c794d8"},"vehicle_type_id":"4","last_reported":1757804899,"current_range_meters":17600,"station_id":"ce4bgj12rcd13ifvqbc0","pricing_plan_id":"cebpf4jnsgd1na2vs0mg"},{"bike_id":"86cd42f9-47ac-4f38-a6a9-88c12b1ddd7a","system_id":"levelo_inurba_marseille","lat":43.30543,"lon":5.38436,"is_reserved":false,"is_disabled":false,"rental_uris":{"android":"levelo://app?vid=86cd42f9-47ac-4f38-a6a9-88c12b1ddd7a","ios":"levelo://app?vid=86cd42f9-47ac-4f38-a6a9-88c12b1ddd7a"},"vehicle_type_id":"4","last_reported":1757804899,"current_range_meters":18000,"station_id":"ce4bgg92rcd13ifvqb30","pricing_plan_id":"cebpf4jnsgd1na2vs0mg"},{"bike_id":"d0a1739a-c22f-4203-9f71-a089f4b367e4","system_id":"levelo_inurba_marseille","lat":43.31994,"lon":5.38153,"is_reserved":false,"is_disabled":true,"rental_uris":{"android":"levelo://app?vid=d0a1739a-c22f-4203-9f71-a089f4b367e4","ios":"levelo://app?vid=d0a1739a-c22f-4203-9f71-a089f4b367e4"},"vehicle_type_id":"4","last_reported":1757804899,"current_range_meters":18000,"station_id":"ce4bhr12rcd13ifvqhpg","pricing_plan_id":"cebpf4jnsgd1na2vs0mg"},{"bike_id":"9e9c2550-de34-4934-a721-99d620875b6d","system_id":"levelo_inurba_marseille","lat":43.2845,"lon":5.391937,"is_reserved":false,"is_disabled":false,"rental_uris":{"android":"levelo://app?vid=9e9c2550-de34-4934-a721-99d620875b6d","ios":"levelo://app?vid=9e9c2550-de34-4934-a721-99d620875b6d"},"vehicle_type_id":"4","last_reported":1757804899,"current_range_meters":18000,"station_id":"ce4bhoh2rcd13ifvqh5g","pricing_plan_id":"cebpf4jnsgd1na2vs0mg"},{"bike_id":"2f6dd7aa-fe65-46d5-81e3-e41dc98bdb77","system_id":"levelo_inurba_marseille","lat":43.316956,"lon":5.423951,"is_reserved":false,"is_disabled":false,"rental_uris":{"android":"levelo://app?vid=2f6dd7aa-fe65-46d5-81e3-e41dc98bdb77","ios":"levelo://app?vid=2f6dd7aa-fe65-46d5-81e3-e41dc98bdb77"},"vehicle_type_id":"4","last_reported":1757804899,"current_range_meters":18000,"station_id":"ce4bhp92rcd13ifvqhbg","pricing_plan_id":"cebpf4jnsgd1na2vs0mg"},{"bike_id":"c79f98a5-b132-4d8b-b050-5e48074dc6fe","system_id":"levelo_inurba_marseille","lat":43.31708,"lon":5.40453,"is_reserved":false,"is_disabled":false,"rental_uris":{"android":"levelo://app?vid=c79f98a5-b132-4d8b-b050-5e48074dc6fe","ios":"levelo://app?vid=c79f98a5-b132-4d8b-b050-5e48074dc6fe"},"vehicle_type_id":"4","last_reported":1757804899,"current_range_meters":18000,"station_id":"ce4bh012rcd13ifvqd00","pricing_plan_id":"cebpf4jnsgd1na2vs0mg"},{"bike_id":"126b0232-eb5d-43d3-8b6e-5ee223cf9e43","system_id":"levelo_inurba_marseille","lat":43.24649,"lon":5.38888,"is_reserved":false,"is_disabled":false,"rental_uris":{"android":"levelo://app?vid=126b0232-eb5d-43d3-8b6e-5ee223cf9e43","ios":"levelo://app?vid=126b0232-eb5d-43d3-8b6e-5ee223cf9e43"},"vehicle_type_id":"4","last_reported":1757804899,"current_range_meters":18000,"station_id":"ce4bhg12rcd13ifvqf60","pricing_plan_id":"cebpf4jnsgd1na2vs0mg"},{"bike_id":"16ef31c1-2e5b-4605-8b2a-c02c4f7600b2","system_id":"levelo_inurba_marseille","lat":43.24175,"lon":5.39724,"is_reserved":false,"is_disabled":false,"rental_uris":{"android":"levelo://app?vid=16ef31c1-2e5b-4605-8b2a-c02c4f7600b2","ios":"levelo://app?vid=16ef31c1-2e5b-4605-8b2a-c02c4f7600b2"},"vehicle_type_id":"4","last_reported":1757804899,"current_range_meters":18000,"station_id":"ce4bhn12rcd13ifvqgpg","pricing_plan_id":"cebpf4jnsgd1na2vs0mg"},{"bike_id":"e22c32d9-071a-4804-8f72-3d7d08751ca2","system_id":"levelo_inurba_marseille","lat":43.24053,"lon":5.37695,"is_reserved":false,"is_disabled":false,"rental_uris":{"android":"levelo://app?vid=e22c32d9-071a-4804-8f72-3d7d08751ca2","ios":"levelo://app?vid=e22c32d9-071a-4804-8f72-3d7d08751ca2"},"vehicle_type_id":"4","last_reported":1757804899,"current_range_meters":18800,"station_id":"ce4bhnp2rcd13ifvqgvg","pricing_plan_id":"cebpf4jnsgd1na2vs0mg"},{"bike_id":"fb64495b-594a-489c-80d9-1d605cfa1325","system_id":"levelo_inurba_marseille","lat":43.31354,"lon":5.384896,"is_reserved":false,"is_disabled":false,"rental_uris":{"android":"levelo://app?vid=fb64495b-594a-489c-80d9-1d605cfa1325","ios":"levelo://app?vid=fb64495b-594a-489c-80d9-1d605cfa1325"},"vehicle_type_id":"4","last_reported":1757804899,"current_range_meters":18800,"station_id":"ce4bgt92rcd13ifvqcf0","pricing_plan_id":"cebpf4jnsgd1na2vs0mg"},{"bike_id":"b002a392-08fa-4b2e-b212-3e002cd96c5d","system_id":"levelo_inurba_marseille","lat":43.23947,"lon":5.36638,"is_reserved":false,"is_disabled":false,"rental_uris":{"android":"levelo://app?vid=b002a392-08fa-4b2e-b212-3e002cd96c5d","ios":"levelo://app?vid=b002a392-08fa-4b2e-b212-3e002cd96c5d"},"vehicle_type_id":"4","last_reported":1757804899,"current_range_meters":18800,"station_id":"ce4bhi12rcd13ifvqfp0","pricing_plan_id":"cebpf4jnsgd1na2vs0mg"},{"bike_id":"b6e71227-cf24-477c-a6b4-dcaf891c7903","system_id":"levelo_inurba_marseille","lat":43.25577,"lon":5.38167,"is_reserved":false,"is_disabled":false,"rental_uris":{"android":"levelo://app?vid=b6e71227-cf24-477c-a6b4-dcaf891c7903","ios":"levelo://app?vid=b6e71227-cf24-477c-a6b4-dcaf891c7903"},"vehicle_type_id":"4","last_reported":1757804899,"current_range_meters":18800,"station_id":"","pricing_plan_id":"cebpf4jnsgd1na2vs0mg"},{"bike_id":"14e2496b-54f5-4a71-8a7b-f668d23f2674","system_id":"levelo_inurba_marseille","lat":43.25715,"lon":5.41113,"is_reserved":false,"is_disabled":false,"rental_uris":{"android":"levelo://app?vid=14e2496b-54f5-4a71-8a7b-f668d23f2674","ios":"levelo://app?vid=14e2496b-54f5-4a71-8a7b-f668d23f2674"},"vehicle_type_id":"4","last_reported":1757804899,"current_range_meters":18800,"station_id":"ce4bhkp2rcd13ifvqgd0","pricing_plan_id":"cebpf4jnsgd1na2vs0mg"},{"bike_id":"3a30db7b-d1eb-42d4-9449-c377bfd998a0","system_id":"levelo_inurba_marseille","lat":43.31765,"lon":5.39007,"is_reserved":false,"is_disabled":false,"rental_uris":{"android":"levelo://app?vid=3a30db7b-d1eb-42d4-9449-c377bfd998a0","ios":"levelo://app?vid=3a30db7b-d1eb-42d4-9449-c377bfd998a0"},"vehicle_type_id":"4","last_reported":1757804899,"current_range_meters":18800,"station_id":"ce4bhqp2rcd13ifvqhng","pricing_plan_id":"cebpf4jnsgd1na2vs0mg"},{"bike_id":"4abcfd1f-d5ba-40bf-8216-a47803a52e59","system_id":"levelo_inurba_marseille","lat":43.24638,"lon":5.43148,"is_reserved":false,"is_disabled":false,"rental_uris":{"android":"levelo://app?vid=4abcfd1f-d5ba-40bf-8216-a47803a52e59","ios":"levelo://app?vid=4abcfd1f-d5ba-40bf-8216-a47803a52e59"},"vehicle_type_id":"4","last_reported":1757804899,"current_range_meters":18800,"station_id":"st_d2m6c4gdas8pm72e190g","pricing_plan_id":"cebpf4jnsgd1na2vs0mg"},{"bike_id":"e684fe6c-171b-406d-bf61-1d0718677df1","system_id":"levelo_inurba_marseille","lat":43.30889,"lon":5.39653,"is_reserved":false,"is_disabled":false,"rental_uris":{"android":"levelo://app?vid=e684fe6c-171b-406d-bf61-1d0718677df1","ios":"levelo://app?vid=e684fe6c-171b-406d-bf61-1d0718677df1"},"vehicle_type_id":"4","last_reported":1757804899,"current_range_meters":18800,"station_id":"ce4bh012rcd13ifvqcv0","pricing_plan_id":"cebpf4jnsgd1na2vs0mg"},{"bike_id":"f3b2d661-3fde-4628-9405-72ece0ab17e5","system_id":"levelo_inurba_marseille","lat":43.33615,"lon":5.41031,"is_reserved":false,"is_disabled":false,"rental_uris":{"android":"levelo://app?vid=f3b2d661-3fde-4628-9405-72ece0ab17e5","ios":"levelo://app?vid=f3b2d661-3fde-4628-9405-72ece0ab17e5"},"vehicle_type_id":"4","last_reported":1757804899,"current_range_meters":19200,"station_id":"ce4bhqh2rcd13ifvqhmg","pricing_plan_id":"cebpf4jnsgd1na2vs0mg"},{"bike_id":"950a5f0c-6122-4d8d-a42b-4763023d14f2","system_id":"levelo_inurba_marseille","lat":43.25488,"lon":5.37648,"is_reserved":false,"is_disabled":true,"rental_uris":{"android":"levelo://app?vid=950a5f0c-6122-4d8d-a42b-4763023d14f2","ios":"levelo://app?vid=950a5f0c-6122-4d8d-a42b-4763023d14f2"},"vehicle_type_id":"4","last_reported":1757804899,"current_range_meters":19200,"station_id":"ce4bhh12rcd13ifvqff0","pricing_plan_id":"cebpf4jnsgd1na2vs0mg"},{"bike_id":"15c12f1b-150c-43be-9134-ac05fb9a1bef","system_id":"levelo_inurba_marseille","lat":43.2901,"lon":5.37166,"is_reserved":false,"is_disabled":true,"rental_uris":{"android":"levelo://app?vid=15c12f1b-150c-43be-9134-ac05fb9a1bef","ios":"levelo://app?vid=15c12f1b-150c-43be-9134-ac05fb9a1bef"},"vehicle_type_id":"4","last_reported":1757804899,"current_range_meters":19200,"station_id":"","pricing_plan_id":"cebpf4jnsgd1na2vs0mg"},{"bike_id":"fc59cc99-c778-4d76-aabe-1a633232d6bf","system_id":"levelo_inurba_marseille","lat":43.24077,"lon":5.37733,"is_reserved":false,"is_disabled":false,"rental_uris":{"android":"levelo://app?vid=fc59cc99-c778-4d76-aabe-1a633232d6bf","ios":"levelo://app?vid=fc59cc99-c778-4d76-aabe-1a633232d6bf"},"vehicle_type_id":"4","last_reported":1757804899,"current_range_meters":19200,"station_id":"ce4bhnp2rcd13ifvqgvg","pricing_plan_id":"cebpf4jnsgd1na2vs0mg"},{"bike_id":"7a8906ba-d257-450e-913b-d7b4380843ca","system_id":"levelo_inurba_marseille","lat":43.28612,"lon":5.3511,"is_reserved":false,"is_disabled":false,"rental_uris":{"android":"levelo://app?vid=7a8906ba-d257-450e-913b-d7b4380843ca","ios":"levelo://app?vid=7a8906ba-d257-450e-913b-d7b4380843ca"},"vehicle_type_id":"4","last_reported":1757804899,"current_range_meters":19200,"station_id":"ce4bhch2rcd13ifvqeug","pricing_plan_id":"cebpf4jnsgd1na2vs0mg"},{"bike_id":"c2d3632c-990c-4197-afd0-f548a8ca4536","system_id":"levelo_inurba_marseille","lat":43.317192,"lon":5.436738,"is_reserved":false,"is_disabled":false,"rental_uris":{"android":"levelo://app?vid=c2d3632c-990c-4197-afd0-f548a8ca4536","ios":"levelo://app?vid=c2d3632c-990c-4197-afd0-f548a8ca4536"},"vehicle_type_id":"4","last_reported":1757804899,"current_range_meters":19200,"station_id":"ce4bhp92rcd13ifvqhcg","pricing_plan_id":"cebpf4jnsgd1na2vs0mg"},{"bike_id":"95251c11-6699-4aa0-8909-a444151e2dc9","system_id":"levelo_inurba_marseille","lat":43.24074,"lon":5.37764,"is_reserved":false,"is_disabled":false,"rental_uris":{"android":"levelo://app?vid=95251c11-6699-4aa0-8909-a444151e2dc9","ios":"levelo://app?vid=95251c11-6699-4aa0-8909-a444151e2dc9"},"vehicle_type_id":"4","last_reported":1757804899,"current_range_meters":19200,"station_id":"ce4bhnp2rcd13ifvqgvg","pricing_plan_id":"cebpf4jnsgd1na2vs0mg"},{"bike_id":"d218c5c8-561a-4a42-b2aa-19b6c9da74fb","system_id":"levelo_inurba_marseille","lat":43.31691,"lon":5.404667,"is_reserved":false,"is_disabled":false,"rental_uris":{"android":"levelo://app?vid=d218c5c8-561a-4a42-b2aa-19b6c9da74fb","ios":"levelo://app?vid=d218c5c8-561a-4a42-b2aa-19b6c9da74fb"},"vehicle_type_id":"4","last_reported":1757804899,"current_range_meters":19200,"station_id":"ce4bh012rcd13ifvqd00","pricing_plan_id":"cebpf4jnsgd1na2vs0mg"},{"bike_id":"d4872768-29b4-4a0c-af32-7e886d10eff6","system_id":"levelo_inurba_marseille","lat":43.3233,"lon":5.40621,"is_reserved":false,"is_disabled":false,"rental_uris":{"android":"levelo://app?vid=d4872768-29b4-4a0c-af32-7e886d10eff6","ios":"levelo://app?vid=d4872768-29b4-4a0c-af32-7e886d10eff6"},"vehicle_type_id":"4","last_reported":1757804899,"current_range_meters":19200,"station_id":"ce4bhq92rcd13ifvqhjg","pricing_plan_id":"cebpf4jnsgd1na2vs0mg"},{"bike_id":"a9e60db2-8d32-479f-8f95-3fceaf60eb63","system_id":"levelo_inurba_marseille","lat":43.29247,"lon":5.40914,"is_reserved":false,"is_disabled":false,"rental_uris":{"android":"levelo://app?vid=a9e60db2-8d32-479f-8f95-3fceaf60eb63","ios":"levelo://app?vid=a9e60db2-8d32-479f-8f95-3fceaf60eb63"},"vehicle_type_id":"4","last_reported":1757804899,"current_range_meters":19200,"station_id":"ce4bh192rcd13ifvqdc0","pricing_plan_id":"cebpf4jnsgd1na2vs0mg"},{"bike_id":"e73470b2-f46f-4f87-989f-53f8372e4317","system_id":"levelo_inurba_marseille","lat":43.330448,"lon":5.396903,"is_reserved":false,"is_disabled":false,"rental_uris":{"android":"levelo://app?vid=e73470b2-f46f-4f87-989f-53f8372e4317","ios":"levelo://app?vid=e73470b2-f46f-4f87-989f-53f8372e4317"},"vehicle_type_id":"4","last_reported":1757804899,"current_range_meters":19200,"station_id":"","pricing_plan_id":"cebpf4jnsgd1na2vs0mg"},{"bike_id":"e54a1e7f-72fe-4f72-999a-0b938621ab02","system_id":"levelo_inurba_marseille","lat":43.23163,"lon":5.43699,"is_reserved":false,"is_disabled":false,"rental_uris":{"android":"levelo://app?vid=e54a1e7f-72fe-4f72-999a-0b938621ab02","ios":"levelo://app?vid=e54a1e7f-72fe-4f72-999a-0b938621ab02"},"vehicle_type_id":"4","last_reported":1757804899,"current_range_meters":19200,"station_id":"ce4bhmp2rcd13ifvqgog","pricing_plan_id":"cebpf4jnsgd1na2vs0mg"},{"bike_id":"3970b1ae-b9ce-4046-bb45-e207423d2c07","system_id":"levelo_inurba_marseille","lat":43.24808,"lon":5.37461,"is_reserved":false,"is_disabled":false,"rental_uris":{"android":"levelo://app?vid=3970b1ae-b9ce-4046-bb45-e207423d2c07","ios":"levelo://app?vid=3970b1ae-b9ce-4046-bb45-e207423d2c07"},"vehicle_type_id":"4","last_reported":1757804899,"current_range_meters":19200,"station_id":"ce4bhgh2rcd13ifvqfb0","pricing_plan_id":"cebpf4jnsgd1na2vs0mg"},{"bike_id":"e12d4f92-8df2-4171-88b8-b842344aa16f","system_id":"levelo_inurba_marseille","lat":43.29197,"lon":5.35797,"is_reserved":false,"is_disabled":false,"rental_uris":{"android":"levelo://app?vid=e12d4f92-8df2-4171-88b8-b842344aa16f","ios":"levelo://app?vid=e12d4f92-8df2-4171-88b8-b842344aa16f"},"vehicle_type_id":"4","last_reported":1757804899,"current_range_meters":19200,"station_id":"ce4bhb12rcd13ifvqel0","pricing_plan_id":"cebpf4jnsgd1na2vs0mg"},{"bike_id":"5a99ee1e-45f4-4641-890f-b103493481c0","system_id":"levelo_inurba_marseille","lat":43.31702,"lon":5.40451,"is_reserved":false,"is_disabled":false,"rental_uris":{"android":"levelo://app?vid=5a99ee1e-45f4-4641-890f-b103493481c0","ios":"levelo://app?vid=5a99ee1e-45f4-4641-890f-b103493481c0"},"vehicle_type_id":"4","last_reported":1757804899,"current_range_meters":19600,"station_id":"ce4bh012rcd13ifvqd00","pricing_plan_id":"cebpf4jnsgd1na2vs0mg"},{"bike_id":"175c8e73-b36d-466c-9a0e-cf702b6c036a","system_id":"levelo_inurba_marseille","lat":43.32362,"lon":5.38884,"is_reserved":false,"is_disabled":false,"rental_uris":{"android":"levelo://app?vid=175c8e73-b36d-466c-9a0e-cf702b6c036a","ios":"levelo://app?vid=175c8e73-b36d-466c-9a0e-cf702b6c036a"},"vehicle_type_id":"4","last_reported":1757804899,"current_range_meters":19600,"station_id":"ce4bhqp2rcd13ifvqhog","pricing_plan_id":"cebpf4jnsgd1na2vs0mg"},{"bike_id":"c9f82b86-7ced-43c5-8bc4-fa83f1b9c33c","system_id":"levelo_inurba_marseille","lat":43.24725,"lon":5.38101,"is_reserved":false,"is_disabled":false,"rental_uris":{"android":"levelo://app?vid=c9f82b86-7ced-43c5-8bc4-fa83f1b9c33c","ios":"levelo://app?vid=c9f82b86-7ced-43c5-8bc4-fa83f1b9c33c"},"vehicle_type_id":"4","last_reported":1757804899,"current_range_meters":19600,"station_id":"","pricing_plan_id":"cebpf4jnsgd1na2vs0mg"},{"bike_id":"777ff417-3a86-45a9-9277-be4920b499e5","system_id":"levelo_inurba_marseille","lat":43.24806,"lon":5.37431,"is_reserved":false,"is_disabled":false,"rental_uris":{"android":"levelo://app?vid=777ff417-3a86-45a9-9277-be4920b499e5","ios":"levelo://app?vid=777ff417-3a86-45a9-9277-be4920b499e5"},"vehicle_type_id":"4","last_reported":1757804899,"current_range_meters":19600,"station_id":"ce4bhgh2rcd13ifvqfb0","pricing_plan_id":"cebpf4jnsgd1na2vs0mg"},{"bike_id":"d9a7c4bd-53f2-4cde-a7f4-552208dff846","system_id":"levelo_inurba_marseille","lat":43.25091,"lon":5.39506,"is_reserved":false,"is_disabled":false,"rental_uris":{"android":"levelo://app?vid=d9a7c4bd-53f2-4cde-a7f4-552208dff846","ios":"levelo://app?vid=d9a7c4bd-53f2-4cde-a7f4-552208dff846"},"vehicle_type_id":"4","last_reported":1757804899,"current_range_meters":19600,"station_id":"ce4bhm12rcd13ifvqgkg","pricing_plan_id":"cebpf4jnsgd1na2vs0mg"},{"bike_id":"e6fa7d2b-58b5-484e-9a62-60fa1d286dc8","system_id":"levelo_inurba_marseille","lat":43.301584,"lon":5.38086,"is_reserved":false,"is_disabled":false,"rental_uris":{"android":"levelo://app?vid=e6fa7d2b-58b5-484e-9a62-60fa1d286dc8","ios":"levelo://app?vid=e6fa7d2b-58b5-484e-9a62-60fa1d286dc8"},"vehicle_type_id":"4","last_reported":1757804899,"current_range_meters":19600,"station_id":"ce4bgjp2rcd13ifvqbh0","pricing_plan_id":"cebpf4jnsgd1na2vs0mg"},{"bike_id":"2285a77d-e572-43a6-a219-f35b836d0546","system_id":"levelo_inurba_marseille","lat":43.28608,"lon":5.37063,"is_reserved":false,"is_disabled":false,"rental_uris":{"android":"levelo://app?vid=2285a77d-e572-43a6-a219-f35b836d0546","ios":"levelo://app?vid=2285a77d-e572-43a6-a219-f35b836d0546"},"vehicle_type_id":"4","last_reported":1757804899,"current_range_meters":19600,"station_id":"ce4bht12rcd13ifvqi60","pricing_plan_id":"cebpf4jnsgd1na2vs0mg"},{"bike_id":"33ddbec5-b32a-4010-9268-ff1a4c3bc29f","system_id":"levelo_inurba_marseille","lat":43.26225,"lon":5.40424,"is_reserved":false,"is_disabled":false,"rental_uris":{"android":"levelo://app?vid=33ddbec5-b32a-4010-9268-ff1a4c3bc29f","ios":"levelo://app?vid=33ddbec5-b32a-4010-9268-ff1a4c3bc29f"},"vehicle_type_id":"4","last_reported":1757804899,"current_range_meters":19600,"station_id":"ce4bhmh2rcd13ifvqgmg","pricing_plan_id":"cebpf4jnsgd1na2vs0mg"},{"bike_id":"b0ab0859-f423-4140-863b-75f28e2bd622","system_id":"levelo_inurba_marseille","lat":43.32365,"lon":5.38891,"is_reserved":false,"is_disabled":false,"rental_uris":{"android":"levelo://app?vid=b0ab0859-f423-4140-863b-75f28e2bd622","ios":"levelo://app?vid=b0ab0859-f423-4140-863b-75f28e2bd622"},"vehicle_type_id":"4","last_reported":1757804899,"current_range_meters":20000,"station_id":"ce4bhqp2rcd13ifvqhog","pricing_plan_id":"cebpf4jnsgd1na2vs0mg"},{"bike_id":"ebc28d3f-48e0-4c19-84dd-0c3a04a1ca62","system_id":"levelo_inurba_marseille","lat":43.25869,"lon":5.39918,"is_reserved":false,"is_disabled":true,"rental_uris":{"android":"levelo://app?vid=ebc28d3f-48e0-4c19-84dd-0c3a04a1ca62","ios":"levelo://app?vid=ebc28d3f-48e0-4c19-84dd-0c3a04a1ca62"},"vehicle_type_id":"4","last_reported":1757804899,"current_range_meters":20000,"station_id":"ce4bhl92rcd13ifvqghg","pricing_plan_id":"cebpf4jnsgd1na2vs0mg"},{"bike_id":"322c1f5a-85db-4ef6-bcd4-1b5c417c8ee0","system_id":"levelo_inurba_marseille","lat":43.3377,"lon":5.37488,"is_reserved":false,"is_disabled":false,"rental_uris":{"android":"levelo://app?vid=322c1f5a-85db-4ef6-bcd4-1b5c417c8ee0","ios":"levelo://app?vid=322c1f5a-85db-4ef6-bcd4-1b5c417c8ee0"},"vehicle_type_id":"4","last_reported":1757804899,"current_range_meters":20000,"station_id":"","pricing_plan_id":"cebpf4jnsgd1na2vs0mg"},{"bike_id":"b2b1e143-7a77-486c-9220-52e36fdc2a38","system_id":"levelo_inurba_marseille","lat":43.25821,"lon":5.39439,"is_reserved":false,"is_disabled":false,"rental_uris":{"android":"levelo://app?vid=b2b1e143-7a77-486c-9220-52e36fdc2a38","ios":"levelo://app?vid=b2b1e143-7a77-486c-9220-52e36fdc2a38"},"vehicle_type_id":"4","last_reported":1757804899,"current_range_meters":20000,"station_id":"","pricing_plan_id":"cebpf4jnsgd1na2vs0mg"},{"bike_id":"0bba1876-97de-4136-a6fe-cc9547e6fe55","system_id":"levelo_inurba_marseille","lat":43.29053,"lon":5.39933,"is_reserved":false,"is_disabled":true,"rental_uris":{"android":"levelo://app?vid=0bba1876-97de-4136-a6fe-cc9547e6fe55","ios":"levelo://app?vid=0bba1876-97de-4136-a6fe-cc9547e6fe55"},"vehicle_type_id":"4","last_reported":1757804899,"current_range_meters":20000,"station_id":"ce4bh392rcd13ifvqdm0","pricing_plan_id":"cebpf4jnsgd1na2vs0mg"},{"bike_id":"7fc768e6-e314-4bf9-95ff-d049afd408a8","system_id":"levelo_inurba_marseille","lat":43.31081,"lon":5.38366,"is_reserved":false,"is_disabled":false,"rental_uris":{"android":"levelo://app?vid=7fc768e6-e314-4bf9-95ff-d049afd408a8","ios":"levelo://app?vid=7fc768e6-e314-4bf9-95ff-d049afd408a8"},"vehicle_type_id":"4","last_reported":1757804899,"current_range_meters":20000,"station_id":"ce4bgv92rcd13ifvqcr0","pricing_plan_id":"cebpf4jnsgd1na2vs0mg"},{"bike_id":"3f04ff50-ed3b-4de7-82cb-b7f0bf98a346","system_id":"levelo_inurba_marseille","lat":43.24784,"lon":5.37441,"is_reserved":false,"is_disabled":false,"rental_uris":{"android":"levelo://app?vid=3f04ff50-ed3b-4de7-82cb-b7f0bf98a346","ios":"levelo://app?vid=3f04ff50-ed3b-4de7-82cb-b7f0bf98a346"},"vehicle_type_id":"4","last_reported":1757804899,"current_range_meters":20400,"station_id":"ce4bhgh2rcd13ifvqfb0","pricing_plan_id":"cebpf4jnsgd1na2vs0mg"},{"bike_id":"0a7fc69f-24d6-45a1-9ad1-c2c3f5d979bd","system_id":"levelo_inurba_marseille","lat":43.29535,"lon":5.39391,"is_reserved":false,"is_disabled":false,"rental_uris":{"android":"levelo://app?vid=0a7fc69f-24d6-45a1-9ad1-c2c3f5d979bd","ios":"levelo://app?vid=0a7fc69f-24d6-45a1-9ad1-c2c3f5d979bd"},"vehicle_type_id":"4","last_reported":1757804899,"current_range_meters":18800,"station_id":"ce4bh292rcd13ifvqdf0","pricing_plan_id":"cebpf4jnsgd1na2vs0mg"},{"bike_id":"71f161a8-210e-4cf1-9153-fc96dfd2e575","system_id":"levelo_inurba_marseille","lat":43.28606,"lon":5.37065,"is_reserved":false,"is_disabled":false,"rental_uris":{"android":"levelo://app?vid=71f161a8-210e-4cf1-9153-fc96dfd2e575","ios":"levelo://app?vid=71f161a8-210e-4cf1-9153-fc96dfd2e575"},"vehicle_type_id":"4","last_reported":1757804899,"current_range_meters":20400,"station_id":"ce4bht12rcd13ifvqi60","pricing_plan_id":"cebpf4jnsgd1na2vs0mg"},{"bike_id":"8111d312-f652-436e-963c-4c6d7f148d64","system_id":"levelo_inurba_marseille","lat":43.290344,"lon":5.386254,"is_reserved":false,"is_disabled":true,"rental_uris":{"android":"levelo://app?vid=8111d312-f652-436e-963c-4c6d7f148d64","ios":"levelo://app?vid=8111d312-f652-436e-963c-4c6d7f148d64"},"vehicle_type_id":"4","last_reported":1757804899,"current_range_meters":20400,"station_id":"ce4bh4p2rcd13ifvqe0g","pricing_plan_id":"cebpf4jnsgd1na2vs0mg"},{"bike_id":"19459dd7-5933-479f-8c2b-dbba0639d17e","system_id":"levelo_inurba_marseille","lat":43.30431,"lon":5.38896,"is_reserved":false,"is_disabled":false,"rental_uris":{"android":"levelo://app?vid=19459dd7-5933-479f-8c2b-dbba0639d17e","ios":"levelo://app?vid=19459dd7-5933-479f-8c2b-dbba0639d17e"},"vehicle_type_id":"4","last_reported":1757804899,"current_range_meters":20400,"station_id":"ce4bgk12rcd13ifvqbi0","pricing_plan_id":"cebpf4jnsgd1na2vs0mg"},{"bike_id":"77250e8f-bfc8-49d8-b5bd-2735fcb34d57","system_id":"levelo_inurba_marseille","lat":43.29816,"lon":5.38155,"is_reserved":false,"is_disabled":false,"rental_uris":{"android":"levelo://app?vid=77250e8f-bfc8-49d8-b5bd-2735fcb34d57","ios":"levelo://app?vid=77250e8f-bfc8-49d8-b5bd-2735fcb34d57"},"vehicle_type_id":"4","last_reported":1757804899,"current_range_meters":20400,"station_id":"ce4bgip2rcd13ifvqbb0","pricing_plan_id":"cebpf4jnsgd1na2vs0mg"},{"bike_id":"ab973cd0-f8d9-4f81-9162-1e483e23280b","system_id":"levelo_inurba_marseille","lat":43.24073,"lon":5.3776,"is_reserved":false,"is_disabled":false,"rental_uris":{"android":"levelo://app?vid=ab973cd0-f8d9-4f81-9162-1e483e23280b","ios":"levelo://app?vid=ab973cd0-f8d9-4f81-9162-1e483e23280b"},"vehicle_type_id":"4","last_reported":1757804899,"current_range_meters":20400,"station_id":"ce4bhnp2rcd13ifvqgvg","pricing_plan_id":"cebpf4jnsgd1na2vs0mg"},{"bike_id":"def1e7a7-2c16-4391-a76d-ae56e5b7d6b3","system_id":"levelo_inurba_marseille","lat":43.2407,"lon":5.37759,"is_reserved":false,"is_disabled":false,"rental_uris":{"android":"levelo://app?vid=def1e7a7-2c16-4391-a76d-ae56e5b7d6b3","ios":"levelo://app?vid=def1e7a7-2c16-4391-a76d-ae56e5b7d6b3"},"vehicle_type_id":"4","last_reported":1757804899,"current_range_meters":20800,"station_id":"ce4bhnp2rcd13ifvqgvg","pricing_plan_id":"cebpf4jnsgd1na2vs0mg"},{"bike_id":"0c6fe877-1024-4901-84e8-0fbaefe45584","system_id":"levelo_inurba_marseille","lat":43.3342,"lon":5.40053,"is_reserved":false,"is_disabled":false,"rental_uris":{"android":"levelo://app?vid=0c6fe877-1024-4901-84e8-0fbaefe45584","ios":"levelo://app?vid=0c6fe877-1024-4901-84e8-0fbaefe45584"},"vehicle_type_id":"4","last_reported":1757804899,"current_range_meters":20800,"station_id":"","pricing_plan_id":"cebpf4jnsgd1na2vs0mg"},{"bike_id":"17417908-6f31-4153-becd-a65062c04d72","system_id":"levelo_inurba_marseille","lat":43.31705,"lon":5.40476,"is_reserved":false,"is_disabled":false,"rental_uris":{"android":"levelo://app?vid=17417908-6f31-4153-becd-a65062c04d72","ios":"levelo://app?vid=17417908-6f31-4153-becd-a65062c04d72"},"vehicle_type_id":"4","last_reported":1757804899,"current_range_meters":20800,"station_id":"ce4bh012rcd13ifvqd00","pricing_plan_id":"cebpf4jnsgd1na2vs0mg"},{"bike_id":"0c79ce1d-5314-462d-8cff-b3cbbfa6c379","system_id":"levelo_inurba_marseille","lat":43.27209,"lon":5.39178,"is_reserved":false,"is_disabled":false,"rental_uris":{"android":"levelo://app?vid=0c79ce1d-5314-462d-8cff-b3cbbfa6c379","ios":"levelo://app?vid=0c79ce1d-5314-462d-8cff-b3cbbfa6c379"},"vehicle_type_id":"4","last_reported":1757804899,"current_range_meters":20800,"station_id":"ce4bhhp2rcd13ifvqfm0","pricing_plan_id":"cebpf4jnsgd1na2vs0mg"},{"bike_id":"c69bf1e4-efd2-4b17-a25a-bf3f17ca7dd9","system_id":"levelo_inurba_marseille","lat":43.28715,"lon":5.37935,"is_reserved":false,"is_disabled":false,"rental_uris":{"android":"levelo://app?vid=c69bf1e4-efd2-4b17-a25a-bf3f17ca7dd9","ios":"levelo://app?vid=c69bf1e4-efd2-4b17-a25a-bf3f17ca7dd9"},"vehicle_type_id":"4","last_reported":1757804899,"current_range_meters":20800,"station_id":"ce4bh9p2rcd13ifvqec0","pricing_plan_id":"cebpf4jnsgd1na2vs0mg"},{"bike_id":"10f202fc-007e-4fc7-a90f-7e91bdb9ffe9","system_id":"levelo_inurba_marseille","lat":43.29462,"lon":5.39731,"is_reserved":false,"is_disabled":false,"rental_uris":{"android":"levelo://app?vid=10f202fc-007e-4fc7-a90f-7e91bdb9ffe9","ios":"levelo://app?vid=10f202fc-007e-4fc7-a90f-7e91bdb9ffe9"},"vehicle_type_id":"4","last_reported":1757804899,"current_range_meters":20800,"station_id":"ce4bh3h2rcd13ifvqdo0","pricing_plan_id":"cebpf4jnsgd1na2vs0mg"},{"bike_id":"aa517809-0235-44a3-8d05-75ddfbe7b57b","system_id":"levelo_inurba_marseille","lat":43.28847,"lon":5.39316,"is_reserved":false,"is_disabled":false,"rental_uris":{"android":"levelo://app?vid=aa517809-0235-44a3-8d05-75ddfbe7b57b","ios":"levelo://app?vid=aa517809-0235-44a3-8d05-75ddfbe7b57b"},"vehicle_type_id":"4","last_reported":1757804899,"current_range_meters":20800,"station_id":"ce4bh2p2rcd13ifvqdi0","pricing_plan_id":"cebpf4jnsgd1na2vs0mg"},{"bike_id":"ec8f7bd3-6fed-4e16-999c-93bb203266a2","system_id":"levelo_inurba_marseille","lat":43.29507,"lon":5.42283,"is_reserved":false,"is_disabled":false,"rental_uris":{"android":"levelo://app?vid=ec8f7bd3-6fed-4e16-999c-93bb203266a2","ios":"levelo://app?vid=ec8f7bd3-6fed-4e16-999c-93bb203266a2"},"vehicle_type_id":"4","last_reported":1757804899,"current_range_meters":20800,"station_id":"","pricing_plan_id":"cebpf4jnsgd1na2vs0mg"},{"bike_id":"d27a3574-c668-415b-ad3b-c0a1e10e6cf4","system_id":"levelo_inurba_marseille","lat":43.337444,"lon":5.374475,"is_reserved":false,"is_disabled":false,"rental_uris":{"android":"levelo://app?vid=d27a3574-c668-415b-ad3b-c0a1e10e6cf4","ios":"levelo://app?vid=d27a3574-c668-415b-ad3b-c0a1e10e6cf4"},