{"last_updated":1736593627,"ttl":60,"version":"2.2","data":{"bikes":[{"bike_id":"b0cfe6a2-901d-436f-a381-c7dbb59df959","system_id":"levelo_inurba_marseille","lat":43.30455,"lon":5.37907,"is_reserved":false,"is_disabled":false,"rental_uris":{"android":"levelo://app?vid=b0cfe6a2-901d-436f-a381-c7dbb59df959","ios":"levelo://app?vid=b0cfe6a2-901d-436f-a381-c7dbb59df959"},"vehicle_type_id":"4","last_reported":1736593627,"current_range_meters":28000,"station_id":"ce4bgup2rcd13ifvqcn0","pricing_plan_id":"cebpf4jnsgd1na2vs0mg"},{"bike_id":"e8808539-df5c-4e9e-878f-7bb7a23037ac","system_id":"levelo_inurba_marseille","lat":43.27992,"lon":5.41669,"is_reserved":false,"is_disabled":false,"rental_uris":{"android":"levelo://app?vid=e8808539-df5c-4e9e-878f-7bb7a23037ac","ios":"levelo://app?vid=e8808539-df5c-4e9e-878f-7bb7a23037ac"},"vehicle_type_id":"4","last_reported":1736593627,"current_range_meters":6800,"station_id":"ce4bho12rcd13ifvqh1g","pricing_plan_id":"cebpf4jnsgd1na2vs0mg"},{"bike_id":"36164309-41fb-46a6-ac35-808cd5f9cacb","system_id":"levelo_inurba_marseille","lat":43.29077,"lon":5.37155,"is_reserved":false,"is_disabled":false,"rental_uris":{"android":"levelo://app?vid=36164309-41fb-46a6-ac35-808cd5f9cacb","ios":"levelo://app?vid=36164309-41fb-46a6-ac35-808cd5f9cacb"},"vehicle_type_id":"4","last_reported":1736593627,"current_range_meters":19200,"station_id":"ce4bh5p2rcd13ifvqe4g","pricing_plan_id":"cebpf4jnsgd1na2vs0mg"},{"bike_id":"9a726580-d24a-40bf-bc6a-5c0d23912864","system_id":"levelo_inurba_marseille","lat":43.30594,"lon":5.37234,"is_reserved":false,"is_disabled":false,"rental_uris":{"android":"levelo://app?vid=9a726580-d24a-40bf-bc6a-5c0d23912864","ios":"levelo://app?vid=9a726580-d24a-40bf-bc6a-5c0d23912864"},"vehicle_type_id":"4","last_reported":1736593627,"current_range_meters":6400,"station_id":"ce4bgqh2rcd13ifvqc4g","pricing_plan_id":"cebpf4jnsgd1na2vs0mg"},{"bike_id":"14f3feea-c78a-4059-b0b9-de31c40e61af","system_id":"levelo_inurba_marseille","lat":43.26032,"lon":5.3755,"is_reserved":false,"is_disabled":false,"rental_uris":{"android":"levelo://app?vid=14f3feea-c78a-4059-b0b9-de31c40e61af","ios":"levelo://app?vid=14f3feea-c78a-4059-b0b9-de31c40e61af"},"vehicle_type_id":"4","last_reported":1736593627,"current_range_meters":27600,"station_id":"ce4bhgh2rcd13ifvqfa0","pricing_plan_id":"cebpf4jnsgd1na2vs0mg"},{"bike_id":"02fa8d23-b641-466a-8661-f76f63fb8c6e","system_id":"levelo_inurba_marseille","lat":43.31526,"lon":5.38034,"is_reserved":false,"is_disabled":false,"rental_uris":{"android":"levelo://app?vid=02fa8d23-b641-466a-8661-f76f63fb8c6e","ios":"levelo://app?vid=02fa8d23-b641-466a-8661-f76f63fb8c6e"},"vehicle_type_id":"4","last_reported":1736593627,"current_range_meters":38800,"station_id":"ce4bhsp2rcd13ifvqi50","pricing_plan_id":"cebpf4jnsgd1na2vs0mg"},{"bike_id":"0fe425bb-f9c2-47cb-b4cc-f55ce66357e3","system_id":"levelo_inurba_marseille","lat":43.240694,"lon":5.377677,"is_reserved":false,"is_disabled":false,"rental_uris":{"android":"levelo://app?vid=0fe425bb-f9c2-47cb-b4cc-f55ce66357e3","ios":"levelo://app?vid=0fe425bb-f9c2-47cb-b4cc-f55ce66357e3"},"vehicle_type_id":"4","last_reported":1736593627,"current_range_meters":38800,"station_id":"ce4bhnp2rcd13ifvqgvg","pricing_plan_id":"cebpf4jnsgd1na2vs0mg"},{"bike_id":"93cf30dd-e15c-4c00-8aca-16fa59cb0516","system_id":"levelo_inurba_marseille","lat":43.28934,"lon":5.36644,"is_reserved":false,"is_disabled":false,"rental_uris":{"android":"levelo://app?vid=93cf30dd-e15c-4c00-8aca-16fa59cb0516","ios":"levelo://app?vid=93cf30dd-e15c-4c00-8aca-16fa59cb0516"},"vehicle_type_id":"4","last_reported":1736593627,"current_range_meters":36800,"station_id":"ce4bhap2rcd13ifvqek0","pricing_plan_id":"cebpf4jnsgd1na2vs0mg"},{"bike_id":"230b25ba-08ad-4536-893c-30ebe8d45916","system_id":"levelo_inurba_marseille","lat":43.29635,"lon":5.40602,"is_reserved":false,"is_disabled":false,"rental_uris":{"android":"levelo://app?vid=230b25ba-08ad-4536-893c-30ebe8d45916","ios":"levelo://app?vid=230b25ba-08ad-4536-893c-30ebe8d45916"},"vehicle_type_id":"4","last_reported":1736593627,"current_range_meters":39200,"station_id":"ce4bh0h2rcd13ifvqd60","pricing_plan_id":"cebpf4jnsgd1na2vs0mg"},{"bike_id":"a444a04d-7a75-4bb0-b921-23a4f692b157","system_id":"levelo_inurba_marseille","lat":43.24644,"lon":5.38913,"is_reserved":false,"is_disabled":false,"rental_uris":{"android":"levelo://app?vid=a444a04d-7a75-4bb0-b921-23a4f692b157","ios":"levelo://app?vid=a444a04d-7a75-4bb0-b921-23a4f692b157"},"vehicle_type_id":"4","last_reported":1736593627,"current_range_meters":19200,"station_id":"ce4bhg12rcd13ifvqf60","pricing_plan_id":"cebpf4jnsgd1na2vs0mg"},{"bike_id":"a030469b-b6c7-44f8-a571-2be84259efb2","system_id":"levelo_inurba_marseille","lat":43.3204,"lon":5.4161,"is_reserved":false,"is_disabled":false,"rental_uris":{"android":"levelo://app?vid=a030469b-b6c7-44f8-a571-2be84259efb2","ios":"levelo://app?vid=a030469b-b6c7-44f8-a571-2be84259efb2"},"vehicle_type_id":"4","last_reported":1736593627,"current_range_meters":38400,"station_id":"ce4bhq92rcd13ifvqhkg","pricing_plan_id":"cebpf4jnsgd1na2vs0mg"},{"bike_id":"f33ecca7-46a0-4b66-88b6-904441d66c20","system_id":"levelo_inurba_marseille","lat":43.28428,"lon":5.34996,"is_reserved":false,"is_disabled":false,"rental_uris":{"android":"levelo://app?vid=f33ecca7-46a0-4b66-88b6-904441d66c20","ios":"levelo://app?vid=f33ecca7-46a0-4b66-88b6-904441d66c20"},"vehicle_type_id":"4","last_reported":1736593627,"current_range_meters":11200,"station_id":"ce4bhbh2rcd13ifvqepg","pricing_plan_id":"cebpf4jnsgd1na2vs0mg"},{"bike_id":"f15101c1-c879-4795-84df-c1859d335ba4","system_id":"levelo_inurba_marseille","lat":43.29843,"lon":5.36263,"is_reserved":false,"is_disabled":false,"rental_uris":{"android":"levelo://app?vid=f15101c1-c879-4795-84df-c1859d335ba4","ios":"levelo://app?vid=f15101c1-c879-4795-84df-c1859d335ba4"},"vehicle_type_id":"4","last_reported":1736593627,"current_range_meters":39200,"station_id":"ce4bgpp2rcd13ifvqc3g","pricing_plan_id":"cebpf4jnsgd1na2vs0mg"},{"bike_id":"734f6fc6-efc0-4eb8-8a70-0965ca2ed925","system_id":"levelo_inurba_marseille","lat":43.26671,"lon":5.38269,"is_reserved":false,"is_disabled":false,"rental_uris":{"android":"levelo://app?vid=734f6fc6-efc0-4eb8-8a70-0965ca2ed925","ios":"levelo://app?vid=734f6fc6-efc0-4eb8-8a70-0965ca2ed925"},"vehicle_type_id":"4","last_reported":1736593627,"current_range_meters":38000,"station_id":"ce4bhg92rcd13ifvqf90","pricing_plan_id":"cebpf4jnsgd1na2vs0mg"},{"bike_id":"d57c9852-c742-4dbe-9230-6dfe009ad991","system_id":"levelo_inurba_marseille","lat":43.31162,"lon":5.3872,"is_reserved":false,"is_disabled":false,"rental_uris":{"android":"levelo://app?vid=d57c9852-c742-4dbe-9230-6dfe009ad991","ios":"levelo://app?vid=d57c9852-c742-4dbe-9230-6dfe009ad991"},"vehicle_type_id":"4","last_reported":1736593627,"current_range_meters":30400,"station_id":"ce4bgv12rcd13ifvqcp0","pricing_plan_id":"cebpf4jnsgd1na2vs0mg"},{"bike_id":"f27315e5-5b6e-4c1c-bf3c-bb19556d13a1","system_id":"levelo_inurba_marseille","lat":43.33635,"lon":5.40973,"is_reserved":false,"is_disabled":false,"rental_uris":{"android":"levelo://app?vid=f27315e5-5b6e-4c1c-bf3c-bb19556d13a1","ios":"levelo://app?vid=f27315e5-5b6e-4c1c-bf3c-bb19556d13a1"},"vehicle_type_id":"4","last_reported":1736593627,"current_range_meters":38800,"station_id":"ce4bhqh2rcd13ifvqhmg","pricing_plan_id":"cebpf4jnsgd1na2vs0mg"},{"bike_id":"dcd2f866-f8e1-4768-9798-a4003046bd66","system_id":"levelo_inurba_marseille","lat":43.27825,"lon":5.39207,"is_reserved":false,"is_disabled":false,"rental_uris":{"android":"levelo://app?vid=dcd2f866-f8e1-4768-9798-a4003046bd66","ios":"levelo://app?vid=dcd2f866-f8e1-4768-9798-a4003046bd66"},"vehicle_type_id":"4","last_reported":1736593627,"current_range_meters":18800,"station_id":"ce4bhjp2rcd13ifvqga0","pricing_plan_id":"cebpf4jnsgd1na2vs0mg"},{"bike_id":"853d56cd-3451-4764-beab-a40e85523b05","system_id":"levelo_inurba_marseille","lat":43.24649,"lon":5.38912,"is_reserved":false,"is_disabled":false,"rental_uris":{"android":"levelo://app?vid=853d56cd-3451-4764-beab-a40e85523b05","ios":"levelo://app?vid=853d56cd-3451-4764-beab-a40e85523b05"},"vehicle_type_id":"4","last_reported":1736593627,"current_range_meters":4800,"station_id":"ce4bhg12rcd13ifvqf60","pricing_plan_id":"cebpf4jnsgd1na2vs0mg"},{"bike_id":"e9f99034-2c34-4d9b-bada-c6fd257a3315","system_id":"levelo_inurba_marseille","lat":43.30416,"lon":5.3975,"is_reserved":false,"is_disabled":false,"rental_uris":{"android":"levelo://app?vid=e9f99034-2c34-4d9b-bada-c6fd257a3315","ios":"levelo://app?vid=e9f99034-2c34-4d9b-bada-c6fd257a3315"},"vehicle_type_id":"4","last_reported":1736593627,"current_range_meters":24400,"station_id":"ce4bh092rcd13ifvqd20","pricing_plan_id":"cebpf4jnsgd1na2vs0mg"},{"bike_id":"004c2ac5-7f25-4e48-8a80-9a02537f6ba6","system_id":"levelo_inurba_marseille","lat":43.32068,"lon":5.36826,"is_reserved":false,"is_disabled":false,"rental_uris":{"android":"levelo://app?vid=004c2ac5-7f25-4e48-8a80-9a02537f6ba6","ios":"levelo://app?vid=004c2ac5-7f25-4e48-8a80-9a02537f6ba6"},"vehicle_type_id":"4","last_reported":1736593627,"current_range_meters":30400,"station_id":"ce4bhrh2rcd13ifvqhug","pricing_plan_id":"cebpf4jnsgd1na2vs0mg"},{"bike_id":"6a8dc65c-8c47-4239-8815-8efa2acdc338","system_id":"levelo_inurba_marseille","lat":43.27965,"lon":5.41677,"is_reserved":false,"is_disabled":true,"rental_uris":{"android":"levelo://app?vid=6a8dc65c-8c47-4239-8815-8efa2acdc338","ios":"levelo://app?vid=6a8dc65c-8c47-4239-8815-8efa2acdc338"},"vehicle_type_id":"4","last_reported":1736593627,"current_range_meters":10800,"station_id":"ce4bho12rcd13ifvqh1g","pricing_plan_id":"cebpf4jnsgd1na2vs0mg"},{"bike_id":"2f457c0c-5283-4f66-b319-69a87ce07d89","system_id":"levelo_inurba_marseille","lat":43.25021,"lon":5.38922,"is_reserved":false,"is_disabled":false,"rental_uris":{"android":"levelo://app?vid=2f457c0c-5283-4f66-b319-69a87ce07d89","ios":"levelo://app?vid=2f457c0c-5283-4f66-b319-69a87ce07d89"},"vehicle_type_id":"4","last_reported":1736593627,"current_range_meters":30800,"station_id":"ce4bhgp2rcd13ifvqfd0","pricing_plan_id":"cebpf4jnsgd1na2vs0mg"},{"bike_id":"115ff9ac-8aed-416f-a608-180960b90992","system_id":"levelo_inurba_marseille","lat":43.32652,"lon":5.40996,"is_reserved":false,"is_disabled":false,"rental_uris":{"android":"levelo://app?vid=115ff9ac-8aed-416f-a608-180960b90992","ios":"levelo://app?vid=115ff9ac-8aed-416f-a608-180960b90992"},"vehicle_type_id":"4","last_reported":1736593627,"current_range_meters":20000,"station_id":"ce4bhpp2rcd13ifvqhgg","pricing_plan_id":"cebpf4jnsgd1na2vs0mg"},{"bike_id":"86cd1141-6e96-4c04-94b3-22ca752a46a1","system_id":"levelo_inurba_marseille","lat":43.232,"lon":5.39989,"is_reserved":false,"is_disabled":false,"rental_uris":{"android":"levelo://app?vid=86cd1141-6e96-4c04-94b3-22ca752a46a1","ios":"levelo://app?vid=86cd1141-6e96-4c04-94b3-22ca752a46a1"},"vehicle_type_id":"4","last_reported":1736593627,"current_range_meters":28800,"station_id":"ce4bhn12rcd13ifvqgqg","pricing_plan_id":"cebpf4jnsgd1na2vs0mg"},{"bike_id":"e9ea75d8-64fa-41e8-a175-db0c1de5987d","system_id":"levelo_inurba_marseille","lat":43.30131,"lon":5.38786,"is_reserved":false,"is_disabled":false,"rental_uris":{"android":"levelo://app?vid=e9ea75d8-64fa-41e8-a175-db0c1de5987d","ios":"levelo://app?vid=e9ea75d8-64fa-41e8-a175-db0c1de5987d"},"vehicle_type_id":"4","last_reported":1736593627,"current_range_meters":29600,"station_id":"ce4bhoh2rcd13ifvqh6g","pricing_plan_id":"cebpf4jnsgd1na2vs0mg"},{"bike_id":"b802d5de-604b-4e0d-b105-fe2039150c85","system_id":"levelo_inurba_marseille","lat":43.264048,"lon":5.378415,"is_reserved":false,"is_disabled":false,"rental_uris":{"android":"levelo://app?vid=b802d5de-604b-4e0d-b105-fe2039150c85","ios":"levelo://app?vid=b802d5de-604b-4e0d-b105-fe2039150c85"},"vehicle_type_id":"4","last_reported":1736593627,"current_range_meters":6000,"station_id":"ce4bhgp2rcd13ifvqfe0","pricing_plan_id":"cebpf4jnsgd1na2vs0mg"},{"bike_id":"50bd41a2-4134-4514-bd21-8188f8f923aa","system_id":"levelo_inurba_marseille","lat":43.28691,"lon":5.40018,"is_reserved":false,"is_disabled":false,"rental_uris":{"android":"levelo://app?vid=50bd41a2-4134-4514-bd21-8188f8f923aa","ios":"levelo://app?vid=50bd41a2-4134-4514-bd21-8188f8f923aa"},"vehicle_type_id":"4","last_reported":1736593627,"current_range_meters":39200,"station_id":"ce4bho92rcd13ifvqh3g","pricing_plan_id":"cebpf4jnsgd1na2vs0mg"},{"bike_id":"c1dea8eb-dedb-48c3-82b9-ba4d059a0755","system_id":"levelo_inurba_marseille","lat":43.26562,"lon":5.37288,"is_reserved":false,"is_disabled":true,"rental_uris":{"android":"levelo://app?vid=c1dea8eb-dedb-48c3-82b9-ba4d059a0755","ios":"levelo://app?vid=c1dea8eb-dedb-48c3-82b9-ba4d059a0755"},"vehicle_type_id":"4","last_reported":1736593627,"current_range_meters":9600,"station_id":"ce4bhg12rcd13ifvqf70","pricing_plan_id":"cebpf4jnsgd1na2vs0mg"},{"bike_id":"666c0c92-428a-4f95-8531-2a4d6f4a5bb0","system_id":"levelo_inurba_marseille","lat":43.24675,"lon":5.38176,"is_reserved":false,"is_disabled":false,"rental_uris":{"android":"levelo://app?vid=666c0c92-428a-4f95-8531-2a4d6f4a5bb0","ios":"levelo://app?vid=666c0c92-428a-4f95-8531-2a4d6f4a5bb0"},"vehicle_type_id":"4","last_reported":1736593627,"current_range_meters":8800,"station_id":"ce4bhih2rcd13ifvqfr0","pricing_plan_id":"cebpf4jnsgd1na2vs0mg"},{"bike_id":"3e35ef7b-3237-4c6e-a7b1-693543e13672","system_id":"levelo_inurba_marseille","lat":43.2465,"lon":5.389069,"is_reserved":false,"is_disabled":false,"rental_uris":{"android":"levelo://app?vid=3e35ef7b-3237-4c6e-a7b1-693543e13672","ios":"levelo://app?vid=3e35ef7b-3237-4c6e-a7b1-693543e13672"},"vehicle_type_id":"4","last_reported":1736593627,"current_range_meters":28800,"station_id":"ce4bhg12rcd13ifvqf60","pricing_plan_id":"cebpf4jnsgd1na2vs0mg"},{"bike_id":"dcb2126a-d21d-4ccc-8dd5-f93c643abd4d","system_id":"levelo_inurba_marseille","lat":43.29634,"lon":5.37164,"is_reserved":false,"is_disabled":false,"rental_uris":{"android":"levelo://app?vid=dcb2126a-d21d-4ccc-8dd5-f93c643abd4d","ios":"levelo://app?vid=dcb2126a-d21d-4ccc-8dd5-f93c643abd4d"},"vehicle_type_id":"4","last_reported":1736593627,"current_range_meters":38800,"station_id":"ce4bgnh2rcd13ifvqc0g","pricing_plan_id":"cebpf4jnsgd1na2vs0mg"},{"bike_id":"40aa582d-815a-4ab4-b49f-d3b3d622ee04","system_id":"levelo_inurba_marseille","lat":43.2305,"lon":5.355,"is_reserved":false,"is_disabled":false,"rental_uris":{"android":"levelo://app?vid=40aa582d-815a-4ab4-b49f-d3b3d622ee04","ios":"levelo://app?vid=40aa582d-815a-4ab4-b49f-d3b3d622ee04"},"vehicle_type_id":"4","last_reported":1736593627,"current_range_meters":38400,"station_id":"cpo3342slgdg3j2ifvpg","pricing_plan_id":"cebpf4jnsgd1na2vs0mg"},{"bike_id":"6b750947-fb43-40e2-9931-495446cc2b3f","system_id":"levelo_inurba_marseille","lat":43.2292,"lon":5.35374,"is_reserved":false,"is_disabled":false,"rental_uris":{"android":"levelo://app?vid=6b750947-fb43-40e2-9931-495446cc2b3f","ios":"levelo://app?vid=6b750947-fb43-40e2-9931-495446cc2b3f"},"vehicle_type_id":"4","last_reported":1736593627,"current_range_meters":38000,"station_id":"cpo3532slgdg3j2ikp40","pricing_plan_id":"cebpf4jnsgd1na2vs0mg"},{"bike_id":"c8e997c0-8580-4d0f-8d9f-0766596381e1","system_id":"levelo_inurba_marseille","lat":43.3402,"lon":5.37525,"is_reserved":false,"is_disabled":false,"rental_uris":{"android":"levelo://app?vid=c8e997c0-8580-4d0f-8d9f-0766596381e1","ios":"levelo://app?vid=c8e997c0-8580-4d0f-8d9f-0766596381e1"},"vehicle_type_id":"4","last_reported":1736593627,"current_range_meters":6400,"station_id":"","pricing_plan_id":"cebpf4jnsgd1na2vs0mg"},{"bike_id":"1f5ef9f6-050f-4f79-a9ce-badba66ed461","system_id":"levelo_inurba_marseille","lat":43.2863,"lon":5.40029,"is_reserved":false,"is_disabled":false,"rental_uris":{"android":"levelo://app?vid=1f5ef9f6-050f-4f79-a9ce-badba66ed461","ios":"levelo://app?vid=1f5ef9f6-050f-4f79-a9ce-badba66ed461"},"vehicle_type_id":"4","last_reported":1736593627,"current_range_meters":22800,"station_id":"","pricing_plan_id":"cebpf4jnsgd1na2vs0mg"},{"bike_id":"2dc62668-e201-47ab-9a79-bbc1fdaf76ba","system_id":"levelo_inurba_marseille","lat":43.296217,"lon":5.371719,"is_reserved":false,"is_disabled":false,"rental_uris":{"android":"levelo://app?vid=2dc62668-e201-47ab-9a79-bbc1fdaf76ba","ios":"levelo://app?vid=2dc62668-e201-47ab-9a79-bbc1fdaf76ba"},"vehicle_type_id":"4","last_reported":1736593627,"current_range_meters":14000,"station_id":"ce4bgnh2rcd13ifvqc0g","pricing_plan_id":"cebpf4jnsgd1na2vs0mg"},{"bike_id":"ba5df164-d25c-4a1c-8679-1bd1a1db0642","system_id":"levelo_inurba_marseille","lat":43.33718,"lon":5.39185,"is_reserved":false,"is_disabled":false,"rental_uris":{"android":"levelo://app?vid=ba5df164-d25c-4a1c-8679-1bd1a1db0642","ios":"levelo://app?vid=ba5df164-d25c-4a1c-8679-1bd1a1db0642"},"vehicle_type_id":"4","last_reported":1736593627,"current_range_meters":28800,"station_id":"ce4bhr92rcd13ifvqhsg","pricing_plan_id":"cebpf4jnsgd1na2vs0mg"},{"bike_id":"bf166754-674a-476f-8fe7-2aac8b8cb98b","system_id":"levelo_inurba_marseille","lat":43.25721,"lon":5.41107,"is_reserved":false,"is_disabled":false,"rental_uris":{"android":"levelo://app?vid=bf166754-674a-476f-8fe7-2aac8b8cb98b","ios":"levelo://app?vid=bf166754-674a-476f-8fe7-2aac8b8cb98b"},"vehicle_type_id":"4","last_reported":1736593627,"current_range_meters":23200,"station_id":"ce4bhkp2rcd13ifvqgd0","pricing_plan_id":"cebpf4jnsgd1na2vs0mg"},{"bike_id":"6d907632-b7a4-409f-98d5-031bae93ab87","system_id":"levelo_inurba_marseille","lat":43.23959,"lon":5.36643,"is_reserved":false,"is_disabled":false,"rental_uris":{"android":"levelo://app?vid=6d907632-b7a4-409f-98d5-031bae93ab87","ios":"levelo://app?vid=6d907632-b7a4-409f-98d5-031bae93ab87"},"vehicle_type_id":"4","last_reported":1736593627,"current_range_meters":37600,"station_id":"ce4bhi12rcd13ifvqfp0","pricing_plan_id":"cebpf4jnsgd1na2vs0mg"},{"bike_id":"88616361-1489-4f66-a775-5cbc817323d9","system_id":"levelo_inurba_marseille","lat":43.29182,"lon":5.35803,"is_reserved":false,"is_disabled":false,"rental_uris":{"android":"levelo://app?vid=88616361-1489-4f66-a775-5cbc817323d9","ios":"levelo://app?vid=88616361-1489-4f66-a775-5cbc817323d9"},"vehicle_type_id":"4","last_reported":1736593627,"current_range_meters":14800,"station_id":"ce4bhb12rcd13ifvqel0","pricing_plan_id":"cebpf4jnsgd1na2vs0mg"},{"bike_id":"eb9b2df2-fdc1-4d66-abed-6bda4748c4f1","system_id":"levelo_inurba_marseille","lat":43.26205,"lon":5.37931,"is_reserved":false,"is_disabled":false,"rental_uris":{"android":"levelo://app?vid=eb9b2df2-fdc1-4d66-abed-6bda4748c4f1","ios":"levelo://app?vid=eb9b2df2-fdc1-4d66-abed-6bda4748c4f1"},"vehicle_type_id":"4","last_reported":1736593627,"current_range_meters":27600,"station_id":"ce4bhjp2rcd13ifvqg90","pricing_plan_id":"cebpf4jnsgd1na2vs0mg"},{"bike_id":"756acf7b-5e79-461a-9a9d-14e00e8d684f","system_id":"levelo_inurba_marseille","lat":43.30461,"lon":5.37915,"is_reserved":false,"is_disabled":true,"rental_uris":{"android":"levelo://app?vid=756acf7b-5e79-461a-9a9d-14e00e8d684f","ios":"levelo://app?vid=756acf7b-5e79-461a-9a9d-14e00e8d684f"},"vehicle_type_id":"4","last_reported":1736593627,"current_range_meters":35600,"station_id":"ce4bgup2rcd13ifvqcn0","pricing_plan_id":"cebpf4jnsgd1na2vs0mg"},{"bike_id":"b15b214e-cfa0-4445-bc12-42a04eb31c7c","system_id":"levelo_inurba_marseille","lat":43.289363,"lon":5.39646,"is_reserved":false,"is_disabled":false,"rental_uris":{"android":"levelo://app?vid=b15b214e-cfa0-4445-bc12-42a04eb31c7c","ios":"levelo://app?vid=b15b214e-cfa0-4445-bc12-42a04eb31c7c"},"vehicle_type_id":"4","last_reported":1736593627,"current_range_meters":38800,"station_id":"ce4bh3h2rcd13ifvqdn0","pricing_plan_id":"cebpf4jnsgd1na2vs0mg"},{"bike_id":"6b764e8c-1a43-46a3-97d7-14881c8e848c","system_id":"levelo_inurba_marseille","lat":43.25829,"lon":5.39423,"is_reserved":false,"is_disabled":false,"rental_uris":{"android":"levelo://app?vid=6b764e8c-1a43-46a3-97d7-14881c8e848c","ios":"levelo://app?vid=6b764e8c-1a43-46a3-97d7-14881c8e848c"},"vehicle_type_id":"4","last_reported":1736593627,"current_range_meters":38800,"station_id":"ce4bhip2rcd13ifvqft0","pricing_plan_id":"cebpf4jnsgd1na2vs0mg"},{"bike_id":"d8327471-e10e-4e1d-a46b-c43156fc0620","system_id":"levelo_inurba_marseille","lat":43.267821,"lon":5.394266,"is_reserved":false,"is_disabled":true,"rental_uris":{"android":"levelo://app?vid=d8327471-e10e-4e1d-a46b-c43156fc0620","ios":"levelo://app?vid=d8327471-e10e-4e1d-a46b-c43156fc0620"},"vehicle_type_id":"4","last_reported":1736593627,"current_range_meters":0,"station_id":"ce4bhh12rcd13ifvqfg0","pricing_plan_id":"cebpf4jnsgd1na2vs0mg"},{"bike_id":"f404313a-b453-4ed2-9cf2-f503539db699","system_id":"levelo_inurba_marseille","lat":43.27974,"lon":5.39987,"is_reserved":false,"is_disabled":true,"rental_uris":{"android":"levelo://app?vid=f404313a-b453-4ed2-9cf2-f503539db699","ios":"levelo://app?vid=f404313a-b453-4ed2-9cf2-f503539db699"},"vehicle_type_id":"4","last_reported":1736593627,"current_range_meters":800,"station_id":"ce4bho92rcd13ifvqh4g","pricing_plan_id":"cebpf4jnsgd1na2vs0mg"},{"bike_id":"805a0ba1-33bb-4f85-9f3a-a079c88fc338","system_id":"levelo_inurba_marseille","lat":43.30955,"lon":5.39037,"is_reserved":false,"is_disabled":false,"rental_uris":{"android":"levelo://app?vid=805a0ba1-33bb-4f85-9f3a-a079c88fc338","ios":"levelo://app?vid=805a0ba1-33bb-4f85-9f3a-a079c88fc338"},"vehicle_type_id":"4","last_reported":1736593627,"current_range_meters":39200,"station_id":"ce4bgup2rcd13ifvqco0","pricing_plan_id":"cebpf4jnsgd1na2vs0mg"},{"bike_id":"e0807d9a-e6e0-49fa-b303-f10d1cc851d9","system_id":"levelo_inurba_marseille","lat":43.29231,"lon":5.36012,"is_reserved":false,"is_disabled":false,"rental_uris":{"android":"levelo://app?vid=e0807d9a-e6e0-49fa-b303-f10d1cc851d9","ios":"levelo://app?vid=e0807d9a-e6e0-49fa-b303-f10d1cc851d9"},"vehicle_type_id":"4","last_reported":1736593627,"current_range_meters":38800,"station_id":"ce4bhbh2rcd13ifvqeqg","pricing_plan_id":"cebpf4jnsgd1na2vs0mg"},{"bike_id":"b8a70a4d-0bda-4b8b-9e34-99ec66f6e055","system_id":"levelo_inurba_marseille","lat":43.2794,"lon":5.38732,"is_reserved":false,"is_disabled":true,"rental_uris":{"android":"levelo://app?vid=b8a70a4d-0bda-4b8b-9e34-99ec66f6e055","ios":"levelo://app?vid=b8a70a4d-0bda-4b8b-9e34-99ec66f6e055"},"vehicle_type_id":"4","last_reported":1736593627,"current_range_meters":16800,"station_id":"ce4bhg12rcd13ifvqf80","pricing_plan_id":"cebpf4jnsgd1na2vs0mg"},{"bike_id":"fd75e0f0-43a1-460e-8161-6f4563840366","system_id":"levelo_inurba_marseille","lat":43.30427,"lon":5.39769,"is_reserved":false,"is_disabled":false,"rental_uris":{"android":"levelo://app?vid=fd75e0f0-43a1-460e-8161-6f4563840366","ios":"levelo://app?vid=fd75e0f0-43a1-460e-8161-6f4563840366"},"vehicle_type_id":"4","last_reported":1736593627,"current_range_meters":28800,"station_id":"ce4bh092rcd13ifvqd20","pricing_plan_id":"cebpf4jnsgd1na2vs0mg"},{"bike_id":"426ee80e-06b0-4d0f-86a5-ea8ad64aaa11","system_id":"levelo_inurba_marseille","lat":43.28904,"lon":5.43814,"is_reserved":false,"is_disabled":false,"rental_uris":{"android":"levelo://app?vid=426ee80e-06b0-4d0f-86a5-ea8ad64aaa11","ios":"levelo://app?vid=426ee80e-06b0-4d0f-86a5-ea8ad64aaa11"},"vehicle_type_id":"4","last_reported":1736593627,"current_range_meters":17600,"station_id":"","pricing_plan_id":"cebpf4jnsgd1na2vs0mg"},{"bike_id":"b27cc99f-6b66-4ab0-833d-ef1cae10794f","system_id":"levelo_inurba_marseille","lat":43.25855,"lon":5.39921,"is_reserved":false,"is_disabled":false,"rental_uris":{"android":"levelo://app?vid=b27cc99f-6b66-4ab0-833d-ef1cae10794f","ios":"levelo://app?vid=b27cc99f-6b66-4ab0-833d-ef1cae10794f"},"vehicle_type_id":"4","last_reported":1736593627,"current_range_meters":38800,"station_id":"ce4bhl92rcd13ifvqghg","pricing_plan_id":"cebpf4jnsgd1na2vs0mg"},{"bike_id":"64e22768-79ef-4593-847f-a621c4893945","system_id":"levelo_inurba_marseille","lat":43.31518,"lon":5.38038,"is_reserved":false,"is_disabled":false,"rental_uris":{"android":"levelo://app?vid=64e22768-79ef-4593-847f-a621c4893945","ios":"levelo://app?vid=64e22768-79ef-4593-847f-a621c4893945"},"vehicle_type_id":"4","last_reported":1736593627,"current_range_meters":38400,"station_id":"ce4bhsp2rcd13ifvqi50","pricing_plan_id":"cebpf4jnsgd1na2vs0mg"},{"bike_id":"f4dbc556-58b0-4dfd-be99-18a51c032520","system_id":"levelo_inurba_marseille","lat":43.24185,"lon":5.39709,"is_reserved":false,"is_disabled":true,"rental_uris":{"android":"levelo://app?vid=f4dbc556-58b0-4dfd-be99-18a51c032520","ios":"levelo://app?vid=f4dbc556-58b0-4dfd-be99-18a51c032520"},"vehicle_type_id":"4","last_reported":1736593627,"current_range_meters":38400,"station_id":"ce4bhn12rcd13ifvqgpg","pricing_plan_id":"cebpf4jnsgd1na2vs0mg"},{"bike_id":"9c62e164-6cf9-4292-996f-7c2ed5673e8e","system_id":"levelo_inurba_marseille","lat":43.2396,"lon":5.36628,"is_reserved":false,"is_disabled":false,"rental_uris":{"android":"levelo://app?vid=9c62e164-6cf9-4292-996f-7c2ed5673e8e","ios":"levelo://app?vid=9c62e164-6cf9-4292-996f-7c2ed5673e8e"},"vehicle_type_id":"4","last_reported":1736593627,"current_range_meters":26800,"station_id":"ce4bhi12rcd13ifvqfp0","pricing_plan_id":"cebpf4jnsgd1na2vs0mg"},{"bike_id":"d3ce3fc9-2868-412f-a61c-f67297c891c5","system_id":"levelo_inurba_marseille","lat":43.30459,"lon":5.37905,"is_reserved":false,"is_disabled":false,"rental_uris":{"android":"levelo://app?vid=d3ce3fc9-2868-412f-a61c-f67297c891c5","ios":"levelo://app?vid=d3ce3fc9-2868-412f-a61c-f67297c891c5"},"vehicle_type_id":"4","last_reported":1736593627,"current_range_meters":31200,"station_id":"ce4bgup2rcd13ifvqcn0","pricing_plan_id":"cebpf4jnsgd1na2vs0mg"},{"bike_id":"a33b957c-7199-4899-bc6a-186fc7413efd","system_id":"levelo_inurba_marseille","lat":43.27073,"lon":5.40259,"is_reserved":false,"is_disabled":false,"rental_uris":{"android":"levelo://app?vid=a33b957c-7199-4899-bc6a-186fc7413efd","ios":"levelo://app?vid=a33b957c-7199-4899-bc6a-186fc7413efd"},"vehicle_type_id":"4","last_reported":1736593627,"current_range_meters":26800,"station_id":"ce4bhk92rcd13ifvqgc0","pricing_plan_id":"cebpf4jnsgd1na2vs0mg"},{"bike_id":"73ad80ce-5554-4e07-996a-33a56bd9a9c8","system_id":"levelo_inurba_marseille","lat":43.30196,"lon":5.39477,"is_reserved":false,"is_disabled":false,"rental_uris":{"android":"levelo://app?vid=73ad80ce-5554-4e07-996a-33a56bd9a9c8","ios":"levelo://app?vid=73ad80ce-5554-4e07-996a-33a56bd9a9c8"},"vehicle_type_id":"4","last_reported":1736593627,"current_range_meters":38800,"station_id":"ce4bh0p2rcd13ifvqd70","pricing_plan_id":"cebpf4jnsgd1na2vs0mg"},{"bike_id":"6cb4fa8f-42f8-4f8b-affb-7fa6c322feac","system_id":"levelo_inurba_marseille","lat":43.29682,"lon":5.37301,"is_reserved":false,"is_disabled":false,"rental_uris":{"android":"levelo://app?vid=6cb4fa8f-42f8-4f8b-affb-7fa6c322feac","ios":"levelo://app?vid=6cb4fa8f-42f8-4f8b-affb-7fa6c322feac"},"vehicle_type_id":"4","last_reported":1736593627,"current_range_meters":38000,"station_id":"ce4bgk12rcd13ifvqbj0","pricing_plan_id":"cebpf4jnsgd1na2vs0mg"},{"bike_id":"c288978b-67c0-4f36-9730-1b779f239c88","system_id":"levelo_inurba_marseille","lat":43.313495,"lon":5.367199,"is_reserved":false,"is_disabled":false,"rental_uris":{"android":"levelo://app?vid=c288978b-67c0-4f36-9730-1b779f239c88","ios":"levelo://app?vid=c288978b-67c0-4f36-9730-1b779f239c88"},"vehicle_type_id":"4","last_reported":1736593627,"current_range_meters":39200,"station_id":"ce4bgr92rcd13ifvqc6g","pricing_plan_id":"cebpf4jnsgd1na2vs0mg"},{"bike_id":"80609ff8-7d7d-4ae2-9159-aea837c7c52b","system_id":"levelo_inurba_marseille","lat":43.23953,"lon":5.36643,"is_reserved":false,"is_disabled":false,"rental_uris":{"android":"levelo://app?vid=80609ff8-7d7d-4ae2-9159-aea837c7c52b","ios":"levelo://app?vid=80609ff8-7d7d-4ae2-9159-aea837c7c52b"},"vehicle_type_id":"4","last_reported":1736593627,"current_range_meters":10800,"station_id":"ce4bhi12rcd13ifvqfp0","pricing_plan_id":"cebpf4jnsgd1na2vs0mg"},{"bike_id":"a54e3103-dd05-4edc-b802-d77e205514d2","system_id":"levelo_inurba_marseille","lat":43.25513,"lon":5.3767,"is_reserved":false,"is_disabled":false,"rental_uris":{"android":"levelo://app?vid=a54e3103-dd05-4edc-b802-d77e205514d2","ios":"levelo://app?vid=a54e3103-dd05-4edc-b802-d77e205514d2"},"vehicle_type_id":"4","last_reported":1736593627,"current_range_meters":25600,"station_id":"ce4bhh12rcd13ifvqff0","pricing_plan_id":"cebpf4jnsgd1na2vs0mg"},{"bike_id":"b9c29697-3fdb-4aa8-a91b-22e7a560929f","system_id":"levelo_inurba_marseille","lat":43.31537,"lon":5.3803,"is_reserved":false,"is_disabled":false,"rental_uris":{"android":"levelo://app?vid=b9c29697-3fdb-4aa8-a91b-22e7a560929f","ios":"levelo://app?vid=b9c29697-3fdb-4aa8-a91b-22e7a560929f"},"vehicle_type_id":"4","last_reported":1736593627,"current_range_meters":28000,"station_id":"ce4bhsp2rcd13ifvqi50","pricing_plan_id":"cebpf4jnsgd1na2vs0mg"},{"bike_id":"d8dbeb95-c7c6-43e2-ba5b-816fbdde652c","system_id":"levelo_inurba_marseille","lat":43.28659,"lon":5.36343,"is_reserved":false,"is_disabled":false,"rental_uris":{"android":"levelo://app?vid=d8dbeb95-c7c6-43e2-ba5b-816fbdde652c","ios":"levelo://app?vid=d8dbeb95-c7c6-43e2-ba5b-816fbdde652c"},"vehicle_type_id":"4","last_reported":1736593627,"current_range_meters":32400,"station_id":"ce4bhah2rcd13ifvqej0","pricing_plan_id":"cebpf4jnsgd1na2vs0mg"},{"bike_id":"3bb438c9-9719-48cb-bca5-888cc0d3d4a2","system_id":"levelo_inurba_marseille","lat":43.30422,"lon":5.39754,"is_reserved":false,"is_disabled":false,"rental_uris":{"android":"levelo://app?vid=3bb438c9-9719-48cb-bca5-888cc0d3d4a2","ios":"levelo://app?vid=3bb438c9-9719-48cb-bca5-888cc0d3d4a2"},"vehicle_type_id":"4","last_reported":1736593627,"current_range_meters":38800,"station_id":"ce4bh092rcd13ifvqd20","pricing_plan_id":"cebpf4jnsgd1na2vs0mg"},{"bike_id":"5edb9b21-4917-4f45-9961-6635931db922","system_id":"levelo_inurba_marseille","lat":43.22929,"lon":5.35376,"is_reserved":false,"is_disabled":false,"rental_uris":{"android":"levelo://app?vid=5edb9b21-4917-4f45-9961-6635931db922","ios":"levelo://app?vid=5edb9b21-4917-4f45-9961-6635931db922"},"vehicle_type_id":"4","last_reported":1736593627,"current_range_meters":38800,"station_id":"cpo3532slgdg3j2ikp40","pricing_plan_id":"cebpf4jnsgd1na2vs0mg"},{"bike_id":"baf74963-7d44-43cf-b2a2-efc3c98b4e82","system_id":"levelo_inurba_marseille","lat":43.27416,"lon":5.39445,"is_reserved":false,"is_disabled":false,"rental_uris":{"android":"levelo://app?vid=baf74963-7d44-43cf-b2a2-efc3c98b4e82","ios":"levelo://app?vid=baf74963-7d44-43cf-b2a2-efc3c98b4e82"},"vehicle_type_id":"4","last_reported":1736593627,"current_range_meters":36800,"station_id":"ce4bhdp2rcd13ifvqf20","pricing_plan_id":"cebpf4jnsgd1na2vs0mg"},{"bike_id":"94937a8e-492a-45ac-b9da-ad4d630d3ee4","system_id":"levelo_inurba_marseille","lat":43.29877,"lon":5.39737,"is_reserved":false,"is_disabled":false,"rental_uris":{"android":"levelo://app?vid=94937a8e-492a-45ac-b9da-ad4d630d3ee4","ios":"levelo://app?vid=94937a8e-492a-45ac-b9da-ad4d630d3ee4"},"vehicle_type_id":"4","last_reported":1736593627,"current_range_meters":25600,"station_id":"ce4bh0h2rcd13ifvqd50","pricing_plan_id":"cebpf4jnsgd1na2vs0mg"},{"bike_id":"816f16d8-6ff0-4785-861d-d7f867697579","system_id":"levelo_inurba_marseille","lat":43.31523,"lon":5.38048,"is_reserved":false,"is_disabled":false,"rental_uris":{"android":"levelo://app?vid=816f16d8-6ff0-4785-861d-d7f867697579","ios":"levelo://app?vid=816f16d8-6ff0-4785-861d-d7f867697579"},"vehicle_type_id":"4","last_reported":1736593627,"current_range_meters":38800,"station_id":"ce4bhsp2rcd13ifvqi50","pricing_plan_id":"cebpf4jnsgd1na2vs0mg"},{"bike_id":"3f56f05e-bcf8-4fe7-881c-54bb99f97f91","system_id":"levelo_inurba_marseille","lat":43.27674,"lon":5.38877,"is_reserved":false,"is_disabled":false,"rental_uris":{"android":"levelo://app?vid=3f56f05e-bcf8-4fe7-881c-54bb99f97f91","ios":"levelo://app?vid=3f56f05e-bcf8-4fe7-881c-54bb99f97f91"},"vehicle_type_id":"4","last_reported":1736593627,"current_range_meters":30000,"station_id":"ce4bhi12rcd13ifvqfo0","pricing_plan_id":"cebpf4jnsgd1na2vs0mg"},{"bike_id":"9174c272-cc8a-4a21-b3da-b387c4b1cd08","system_id":"levelo_inurba_marseille","lat":43.245484,"lon":5.39527,"is_reserved":false,"is_disabled":false,"rental_uris":{"android":"levelo://app?vid=9174c272-cc8a-4a21-b3da-b387c4b1cd08","ios":"levelo://app?vid=9174c272-cc8a-4a21-b3da-b387c4b1cd08"},"vehicle_type_id":"4","last_reported":1736593627,"current_range_meters":3200,"station_id":"ce4bhlp2rcd13ifvqgjg","pricing_plan_id":"cebpf4jnsgd1na2vs0mg"},{"bike_id":"9d3a6362-c6e4-45a4-a950-320dddfa8f6d","system_id":"levelo_inurba_marseille","lat":43.30208,"lon":5.39476,"is_reserved":false,"is_disabled":false,"rental_uris":{"android":"levelo://app?vid=9d3a6362-c6e4-45a4-a950-320dddfa8f6d","ios":"levelo://app?vid=9d3a6362-c6e4-45a4-a950-320dddfa8f6d"},"vehicle_type_id":"4","last_reported":1736593627,"current_range_meters":38800,"station_id":"ce4bh0p2rcd13ifvqd70","pricing_plan_id":"cebpf4jnsgd1na2vs0mg"},{"bike_id":"edafb105-b8ec-4518-b03a-a03a86587892","system_id":"levelo_inurba_marseille","lat":43.29634,"lon":5.40591,"is_reserved":false,"is_disabled":false,"rental_uris":{"android":"levelo://app?vid=edafb105-b8ec-4518-b03a-a03a86587892","ios":"levelo://app?vid=edafb105-b8ec-4518-b03a-a03a86587892"},"vehicle_type_id":"4","last_reported":1736593627,"current_range_meters":38400,"station_id":"ce4bh0h2rcd13ifvqd60","pricing_plan_id":"cebpf4jnsgd1na2vs0mg"},{"bike_id":"f879af62-071d-4db6-a6fd-b2aea23763a9","system_id":"levelo_inurba_marseille","lat":43.26685,"lon":5.38272,"is_reserved":false,"is_disabled":false,"rental_uris":{"android":"levelo://app?vid=f879af62-071d-4db6-a6fd-b2aea23763a9","ios":"levelo://app?vid=f879af62-071d-4db6-a6fd-b2aea23763a9"},"vehicle_type_id":"4","last_reported":1736593627,"current_range_meters":29600,"station_id":"ce4bhg92rcd13ifvqf90","pricing_plan_id":"cebpf4jnsgd1na2vs0mg"},{"bike_id":"534c6702-dfa1-401b-970b-2ac69bdd882a","system_id":"levelo_inurba_marseille","lat":43.240672,"lon":5.37762,"is_reserved":false,"is_disabled":false,"rental_uris":{"android":"levelo://app?vid=534c6702-dfa1-401b-970b-2ac69bdd882a","ios":"levelo://app?vid=534c6702-dfa1-401b-970b-2ac69bdd882a"},"vehicle_type_id":"4","last_reported":1736593627,"current_range_meters":28800,"station_id":"ce4bhnp2rcd13ifvqgvg","pricing_plan_id":"cebpf4jnsgd1na2vs0mg"},{"bike_id":"066fc890-cce1-4b7e-a941-320c51e991c9","system_id":"levelo_inurba_marseille","lat":43.23939,"lon":5.36688,"is_reserved":false,"is_disabled":false,"rental_uris":{"android":"levelo://app?vid=066fc890-cce1-4b7e-a941-320c51e991c9","ios":"levelo://app?vid=066fc890-cce1-4b7e-a941-320c51e991c9"},"vehicle_type_id":"4","last_reported":1736593627,"current_range_meters":22800,"station_id":"","pricing_plan_id":"cebpf4jnsgd1na2vs0mg"},{"bike_id":"b09eac95-53af-4e2d-94da-24f3ef27ff1b","system_id":"levelo_inurba_marseille","lat":43.30431,"lon":5.38898,"is_reserved":false,"is_disabled":false,"rental_uris":{"android":"levelo://app?vid=b09eac95-53af-4e2d-94da-24f3ef27ff1b","ios":"levelo://app?vid=b09eac95-53af-4e2d-94da-24f3ef27ff1b"},"vehicle_type_id":"4","last_reported":1736593627,"current_range_meters":37600,"station_id":"ce4bgk12rcd13ifvqbi0","pricing_plan_id":"cebpf4jnsgd1na2vs0mg"},{"bike_id":"5f50eb76-c20c-4230-926b-27928bb7844b","system_id":"levelo_inurba_marseille","lat":43.291948,"lon":5.358176,"is_reserved":false,"is_disabled":false,"rental_uris":{"android":"levelo://app?vid=5f50eb76-c20c-4230-926b-27928bb7844b","ios":"levelo://app?vid=5f50eb76-c20c-4230-926b-27928bb7844b"},"vehicle_type_id":"4","last_reported":1736593627,"current_range_meters":33600,"station_id":"ce4bhb12rcd13ifvqel0","pricing_plan_id":"cebpf4jnsgd1na2vs0mg"},{"bike_id":"b1cd05bd-cc6d-452b-8b8c-f24ee7fb627f","system_id":"levelo_inurba_marseille","lat":43.25835,"lon":5.3941,"is_reserved":false,"is_disabled":false,"rental_uris":{"android":"levelo://app?vid=b1cd05bd-cc6d-452b-8b8c-f24ee7fb627f","ios":"levelo://app?vid=b1cd05bd-cc6d-452b-8b8c-f24ee7fb627f"},"vehicle_type_id":"4","last_reported":1736593627,"current_range_meters":32400,"station_id":"ce4bhip2rcd13ifvqft0","pricing_plan_id":"cebpf4jnsgd1na2vs0mg"},{"bike_id":"452a3888-4841-4df4-96ff-c656394690fc","system_id":"levelo_inurba_marseille","lat":43.291953,"lon":5.357983,"is_reserved":false,"is_disabled":false,"rental_uris":{"android":"levelo://app?vid=452a3888-4841-4df4-96ff-c656394690fc","ios":"levelo://app?vid=452a3888-4841-4df4-96ff-c656394690fc"},"vehicle_type_id":"4","last_reported":1736593627,"current_range_meters":30400,"station_id":"ce4bhb12rcd13ifvqel0","pricing_plan_id":"cebpf4jnsgd1na2vs0mg"},{"bike_id":"43003876-73ff-4d12-b22e-7c36900c0f8c","system_id":"levelo_inurba_marseille","lat":43.24667,"lon":5.38163,"is_reserved":false,"is_disabled":false,"rental_uris":{"android":"levelo://app?vid=43003876-73ff-4d12-b22e-7c36900c0f8c","ios":"levelo://app?vid=43003876-73ff-4d12-b22e-7c36900c0f8c"},"vehicle_type_id":"4","last_reported":1736593627,"current_range_meters":6400,"station_id":"ce4bhih2rcd13ifvqfr0","pricing_plan_id":"cebpf4jnsgd1na2vs0mg"},{"bike_id":"2b772690-1e82-4b69-b95e-d885d9c184e6","system_id":"levelo_inurba_marseille","lat":43.306,"lon":5.37247,"is_reserved":false,"is_disabled":false,"rental_uris":{"android":"levelo://app?vid=2b772690-1e82-4b69-b95e-d885d9c184e6","ios":"levelo://app?vid=2b772690-1e82-4b69-b95e-d885d9c184e6"},"vehicle_type_id":"4","last_reported":1736593627,"current_range_meters":36800,"station_id":"ce4bgqh2rcd13ifvqc4g","pricing_plan_id":"cebpf4jnsgd1na2vs0mg"},{"bike_id":"f7248333-c3ea-4047-84a5-689947d7b51f","system_id":"levelo_inurba_marseille","lat":43.29952,"lon":5.41364,"is_reserved":false,"is_disabled":false,"rental_uris":{"android":"levelo://app?vid=f7248333-c3ea-4047-84a5-689947d7b51f","ios":"levelo://app?vid=f7248333-c3ea-4047-84a5-689947d7b51f"},"vehicle_type_id":"4","last_reported":1736593627,"current_range_meters":38000,"station_id":"ce4bhp12rcd13ifvqh9g","pricing_plan_id":"cebpf4jnsgd1na2vs0mg"},{"bike_id":"6f3b9c07-f700-434b-90f2-5640aa823727","system_id":"levelo_inurba_marseille","lat":43.29305,"lon":5.37456,"is_reserved":false,"is_disabled":false,"rental_uris":{"android":"levelo://app?vid=6f3b9c07-f700-434b-90f2-5640aa823727","ios":"levelo://app?vid=6f3b9c07-f700-434b-90f2-5640aa823727"},"vehicle_type_id":"4","last_reported":1736593627,"current_range_meters":30400,"station_id":"ce4bgi12rcd13ifvqb70","pricing_plan_id":"cebpf4jnsgd1na2vs0mg"},{"bike_id":"2c9dd628-c688-4c37-b6d2-d665ced3ed71","system_id":"levelo_inurba_marseille","lat":43.25002,"lon":5.3892,"is_reserved":false,"is_disabled":false,"rental_uris":{"android":"levelo://app?vid=2c9dd628-c688-4c37-b6d2-d665ced3ed71","ios":"levelo://app?vid=2c9dd628-c688-4c37-b6d2-d665ced3ed71"},"vehicle_type_id":"4","last_reported":1736593627,"current_range_meters":38400,"station_id":"ce4bhgp2rcd13ifvqfd0","pricing_plan_id":"cebpf4jnsgd1na2vs0mg"},{"bike_id":"4d48d6f1-37e8-4952-8a11-9b2f1a0686f1","system_id":"levelo_inurba_marseille","lat":43.27942,"lon":5.38705,"is_reserved":false,"is_disabled":false,"rental_uris":{"android":"levelo://app?vid=4d48d6f1-37e8-4952-8a11-9b2f1a0686f1","ios":"levelo://app?vid=4d48d6f1-37e8-4952-8a11-9b2f1a0686f1"},"vehicle_type_id":"4","last_reported":1736593627,"current_range_meters":38800,"station_id":"ce4bhg12rcd13ifvqf80","pricing_plan_id":"cebpf4jnsgd1na2vs0mg"},{"bike_id":"85077f2d-96d6-4799-acc0-68a7354da011","system_id":"levelo_inurba_marseille","lat":43.255,"lon":5.37646,"is_reserved":false,"is_disabled":false,"rental_uris":{"android":"levelo://app?vid=85077f2d-96d6-4799-acc0-68a7354da011","ios":"levelo://app?vid=85077f2d-96d6-4799-acc0-68a7354da011"},"vehicle_type_id":"4","last_reported":1736593627,"current_range_meters":33200,"station_id":"ce4bhh12rcd13ifvqff0","pricing_plan_id":"cebpf4jnsgd1na2vs0mg"},{"bike_id":"f7f49bc2-5a70-438d-ab6f-26cbacc54252","system_id":"levelo_inurba_marseille","lat":43.29641,"lon":5.37159,"is_reserved":false,"is_disabled":false,"rental_uris":{"android":"levelo://app?vid=f7f49bc2-5a70-438d-ab6f-26cbacc54252","ios":"levelo://app?vid=f7f49bc2-5a70-438d-ab6f-26cbacc54252"},"vehicle_type_id":"4","last_reported":1736593627,"current_range_meters":35200,"station_id":"ce4bgnh2rcd13ifvqc0g","pricing_plan_id":"cebpf4jnsgd1na2vs0mg"},{"bike_id":"6f5d218f-db1a-4b96-bcf2-b235eea71c2f","system_id":"levelo_inurba_marseille","lat":43.25536,"lon":5.37675,"is_reserved":false,"is_disabled":false,"rental_uris":{"android":"levelo://app?vid=6f5d218f-db1a-4b96-bcf2-b235eea71c2f","ios":"levelo://app?vid=6f5d218f-db1a-4b96-bcf2-b235eea71c2f"},"vehicle_type_id":"4","last_reported":1736593627,"current_range_meters":4800,"station_id":"ce4bhh12rcd13ifvqff0","pricing_plan_id":"cebpf4jnsgd1na2vs0mg"},{"bike_id":"3f1a410c-75b3-4fcf-9b9e-0fc219391bbd","system_id":"levelo_inurba_marseille","lat":43.27827,"lon":5.3921,"is_reserved":false,"is_disabled":false,"rental_uris":{"android":"levelo://app?vid=3f1a410c-75b3-4fcf-9b9e-0fc219391bbd","ios":"levelo://app?vid=3f1a410c-75b3-4fcf-9b9e-0fc219391bbd"},"vehicle_type_id":"4","last_reported":1736593627,"current_range_meters":17600,"station_id":"ce4bhjp2rcd13ifvqga0","pricing_plan_id":"cebpf4jnsgd1na2vs0mg"},{"bike_id":"c71cf0d0-c0a2-4a1f-9fb8-82f5043a6871","system_id":"levelo_inurba_marseille","lat":43.29642,"lon":5.37152,"is_reserved":false,"is_disabled":false,"rental_uris":{"android":"levelo://app?vid=c71cf0d0-c0a2-4a1f-9fb8-82f5043a6871","ios":"levelo://app?vid=c71cf0d0-c0a2-4a1f-9fb8-82f5043a6871"},"vehicle_type_id":"4","last_reported":1736593627,"current_range_meters":23200,"station_id":"ce4bgnh2rcd13ifvqc0g","pricing_plan_id":"cebpf4jnsgd1na2vs0mg"},{"bike_id":"10365879-1263-494b-962f-8ad20baa0824","system_id":"levelo_inurba_marseille","lat":43.25021,"lon":5.38927,"is_reserved":false,"is_disabled":false,"rental_uris":{"android":"levelo://app?vid=10365879-1263-494b-962f-8ad20baa0824","ios":"levelo://app?vid=10365879-1263-494b-962f-8ad20baa0824"},"vehicle_type_id":"4","last_reported":1736593627,"current_range_meters":32800,"station_id":"ce4bhgp2rcd13ifvqfd0","pricing_plan_id":"cebpf4jnsgd1na2vs0mg"},{"bike_id":"b9a625c6-f08a-486a-84db-1663d9d856a4","system_id":"levelo_inurba_marseille","lat":43.3015,"lon":5.37412,"is_reserved":false,"is_disabled":false,"rental_uris":{"android":"levelo://app?vid=b9a625c6-f08a-486a-84db-1663d9d856a4","ios":"levelo://app?vid=b9a625c6-f08a-486a-84db-1663d9d856a4"},"vehicle_type_id":"4","last_reported":1736593627,"current_range_meters":23200,"station_id":"ce4bgs92rcd13ifvqcc0","pricing_plan_id":"cebpf4jnsgd1na2vs0mg"},{"bike_id":"cdd589a6-cc5d-48f2-9993-8953777bdc8d","system_id":"levelo_inurba_marseille","lat":43.29238,"lon":5.36082,"is_reserved":false,"is_disabled":false,"rental_uris":{"android":"levelo://app?vid=cdd589a6-cc5d-48f2-9993-8953777bdc8d","ios":"levelo://app?vid=cdd589a6-cc5d-48f2-9993-8953777bdc8d"},"vehicle_type_id":"4","last_reported":1736593627,"current_range_meters":33200,"station_id":"ce4bhbh2rcd13ifvqeqg","pricing_plan_id":"cebpf4jnsgd1na2vs0mg"},{"bike_id":"7e9a745e-c82d-4677-a3f0-c081269f42e9","system_id":"levelo_inurba_marseille","lat":43.28995,"lon":5.35601,"is_reserved":false,"is_disabled":true,"rental_uris":{"android":"levelo://app?vid=7e9a745e-c82d-4677-a3f0-c081269f42e9","ios":"levelo://app?vid=7e9a745e-c82d-4677-a3f0-c081269f42e9"},"vehicle_type_id":"4","last_reported":1736593627,"current_range_meters":27600,"station_id":"ce4bhb92rcd13ifvqen0","pricing_plan_id":"cebpf4jnsgd1na2vs0mg"},{"bike_id":"25a745d2-ebdb-47bf-ac1a-64fe0e7e85bf","system_id":"levelo_inurba_marseille","lat":43.30292,"lon":5.39229,"is_reserved":false,"is_disabled":false,"rental_uris":{"android":"levelo://app?vid=25a745d2-ebdb-47bf-ac1a-64fe0e7e85bf","ios":"levelo://app?vid=25a745d2-ebdb-47bf-ac1a-64fe0e7e85bf"},"vehicle_type_id":"4","last_reported":1736593627,"current_range_meters":36000,"station_id":"ce4bgkh2rcd13ifvqbk0","pricing_plan_id":"cebpf4jnsgd1na2vs0mg"},{"bike_id":"e28483d1-4b50-47d3-8f68-bbbc48a67024","system_id":"levelo_inurba_marseille","lat":43.29071,"lon":5.37153,"is_reserved":false,"is_disabled":false,"rental_uris":{"android":"levelo://app?vid=e28483d1-4b50-47d3-8f68-bbbc48a67024","ios":"levelo://app?vid=e28483d1-4b50-47d3-8f68-bbbc48a67024"},"vehicle_type_id":"4","last_reported":1736593627,"current_range_meters":35200,"station_id":"ce4bh5p2rcd13ifvqe4g","pricing_plan_id":"cebpf4jnsgd1na2vs0mg"},{"bike_id":"9aa874f8-1564-458f-83b2-510799dcd979","system_id":"levelo_inurba_marseille","lat":43.2985,"lon":5.36285,"is_reserved":false,"is_disabled":false,"rental_uris":{"android":"levelo://app?vid=9aa874f8-1564-458f-83b2-510799dcd979","ios":"levelo://app?vid=9aa874f8-1564-458f-83b2-510799dcd979"},"vehicle_type_id":"4","last_reported":1736593627,"current_range_meters":16800,"station_id":"ce4bgpp2rcd13ifvqc3g","pricing_plan_id":"cebpf4jnsgd1na2vs0mg"},{"bike_id":"335f2d25-b113-487c-97c7-761b12d69435","system_id":"levelo_inurba_marseille","lat":43.28849,"lon":5.39298,"is_reserved":false,"is_disabled":false,"rental_uris":{"android":"levelo://app?vid=335f2d25-b113-487c-97c7-761b12d69435","ios":"levelo://app?vid=335f2d25-b113-487c-97c7-761b12d69435"},"vehicle_type_id":"4","last_reported":1736593627,"current_range_meters":18000,"station_id":"ce4bh2p2rcd13ifvqdi0","pricing_plan_id":"cebpf4jnsgd1na2vs0mg"},{"bike_id":"bc2ecfb6-7911-4f67-9761-2fa9eb95f393","system_id":"levelo_inurba_marseille","lat":43.296965,"lon":5.377061,"is_reserved":false,"is_disabled":false,"rental_uris":{"android":"levelo://app?vid=bc2ecfb6-7911-4f67-9761-2fa9eb95f393","ios":"levelo://app?vid=bc2ecfb6-7911-4f67-9761-2fa9eb95f393"},"vehicle_type_id":"4","last_reported":1736593627,"current_range_meters":37600,"station_id":"ce4bgkh2rcd13ifvqbl0","pricing_plan_id":"cebpf4jnsgd1na2vs0mg"},{"bike_id":"0e6c105a-6c00-4e22-84a8-4c0e0da6a411","system_id":"levelo_inurba_marseille","lat":43.26038,"lon":5.37551,"is_reserved":false,"is_disabled":false,"rental_uris":{"android":"levelo://app?vid=0e6c105a-6c00-4e22-84a8-4c0e0da6a411","ios":"levelo://app?vid=0e6c105a-6c00-4e22-84a8-4c0e0da6a411"},"vehicle_type_id":"4","last_reported":1736593627,"current_range_meters":22800,"station_id":"ce4bhgh2rcd13ifvqfa0","pricing_plan_id":"cebpf4jnsgd1na2vs0mg"},{"bike_id":"4a2e933d-8137-45bf-98fe-44a5d22dd120","system_id":"levelo_inurba_marseille","lat":43.29194,"lon":5.35789,"is_reserved":false,"is_disabled":false,"rental_uris":{"android":"levelo://app?vid=4a2e933d-8137-45bf-98fe-44a5d22dd120","ios":"levelo://app?vid=4a2e933d-8137-45bf-98fe-44a5d22dd120"},"vehicle_type_id":"4","last_reported":1736593627,"current_range_meters":12800,"station_id":"ce4bhb12rcd13ifvqel0","pricing_plan_id":"cebpf4jnsgd1na2vs0mg"},{"bike_id":"00ce025b-3337-4565-8d1c-47adff4217d7","system_id":"levelo_inurba_marseille","lat":43.24555,"lon":5.39522,"is_reserved":false,"is_disabled":false,"rental_uris":{"android":"levelo://app?vid=00ce025b-3337-4565-8d1c-47adff4217d7","ios":"levelo://app?vid=00ce025b-3337-4565-8d1c-47adff4217d7"},"vehicle_type_id":"4","last_reported":1736593627,"current_range_meters":38400,"station_id":"ce4bhlp2rcd13ifvqgjg","pricing_plan_id":"cebpf4jnsgd1na2vs0mg"},{"bike_id":"b984475e-70f5-478d-a365-e48ebf91675f","system_id":"levelo_inurba_marseille","lat":43.29535,"lon":5.38572,"is_reserved":false,"is_disabled":true,"rental_uris":{"android":"levelo://app?vid=b984475e-70f5-478d-a365-e48ebf91675f","ios":"levelo://app?vid=b984475e-70f5-478d-a365-e48ebf91675f"},"vehicle_type_id":"4","last_reported":1736593627,"current_range_meters":0,"station_id":"ce4bgih2rcd13ifvqba0","pricing_plan_id":"cebpf4jnsgd1na2vs0mg"},{"bike_id":"e2cf5614-606d-46e0-bba1-511a39a5ccf3","system_id":"levelo_inurba_marseille","lat":43.30916,"lon":5.40155,"is_reserved":false,"is_disabled":false,"rental_uris":{"android":"levelo://app?vid=e2cf5614-606d-46e0-bba1-511a39a5ccf3","ios":"levelo://app?vid=e2cf5614-606d-46e0-bba1-511a39a5ccf3"},"vehicle_type_id":"4","last_reported":1736593627,"current_range_meters":36400,"station_id":"ce4bgvp2rcd13ifvqct0","pricing_plan_id":"cebpf4jnsgd1na2vs0mg"},{"bike_id":"f34fc04b-b351-4ac8-a47c-a2006c27444b","system_id":"levelo_inurba_marseille","lat":43.315289,"lon":5.380349,"is_reserved":false,"is_disabled":true,"rental_uris":{"android":"levelo://app?vid=f34fc04b-b351-4ac8-a47c-a2006c27444b","ios":"levelo://app?vid=f34fc04b-b351-4ac8-a47c-a2006c27444b"},"vehicle_type_id":"4","last_reported":1736593627,"current_range_meters":25600,"station_id":"ce4bhsp2rcd13ifvqi50","pricing_plan_id":"cebpf4jnsgd1na2vs0mg"},{"bike_id":"57470373-fa92-49f6-ab59-dce961733e68","system_id":"levelo_inurba_marseille","lat":43.29722,"lon":5.37699,"is_reserved":false,"is_disabled":false,"rental_uris":{"android":"levelo://app?vid=57470373-fa92-49f6-ab59-dce961733e68","ios":"levelo://app?vid=57470373-fa92-49f6-ab59-dce961733e68"},"vehicle_type_id":"4","last_reported":1736593627,"current_range_meters":39200,"station_id":"ce4bgkh2rcd13ifvqbl0","pricing_plan_id":"cebpf4jnsgd1na2vs0mg"},{"bike_id":"d2ff887b-198f-4a48-b3f7-d6c06a3e71c1","system_id":"levelo_inurba_marseille","lat":43.307922,"lon":5.435271,"is_reserved":false,"is_disabled":false,"rental_uris":{"android":"levelo://app?vid=d2ff887b-198f-4a48-b3f7-d6c06a3e71c1","ios":"levelo://app?vid=d2ff887b-198f-4a48-b3f7-d6c06a3e71c1"},"vehicle_type_id":"4","last_reported":1736593627,"current_range_meters":10000,"station_id":"ce4bhph2rcd13ifvqheg","pricing_plan_id":"cebpf4jnsgd1na2vs0mg"},{"bike_id":"dcf1cd1d-7caf-40e3-96da-ef397fbf823d","system_id":"levelo_inurba_marseille","lat":43.29711,"lon":5.36606,"is_reserved":false,"is_disabled":false,"rental_uris":{"android":"levelo://app?vid=dcf1cd1d-7caf-40e3-96da-ef397fbf823d","ios":"levelo://app?vid=dcf1cd1d-7caf-40e3-96da-ef397fbf823d"},"vehicle_type_id":"4","last_reported":1736593627,"current_range_meters":38000,"station_id":"ce4bgn12rcd13ifvqbt0","pricing_plan_id":"cebpf4jnsgd1na2vs0mg"},{"bike_id":"e05c9803-2a4b-41de-ba2a-ca0bb9ad4be7","system_id":"levelo_inurba_marseille","lat":43.24383,"lon":5.37061,"is_reserved":false,"is_disabled":false,"rental_uris":{"android":"levelo://app?vid=e05c9803-2a4b-41de-ba2a-ca0bb9ad4be7","ios":"levelo://app?vid=e05c9803-2a4b-41de-ba2a-ca0bb9ad4be7"},"vehicle_type_id":"4","last_reported":1736593627,"current_range_meters":17200,"station_id":"ce4bhhh2rcd13ifvqfk0","pricing_plan_id":"cebpf4jnsgd1na2vs0mg"},{"bike_id":"07b8b9a3-a564-434b-90a6-202790eb4cd3","system_id":"levelo_inurba_marseille","lat":43.3053,"lon":5.3653,"is_reserved":false,"is_disabled":false,"rental_uris":{"android":"levelo://app?vid=07b8b9a3-a564-434b-90a6-202790eb4cd3","ios":"levelo://app?vid=07b8b9a3-a564-434b-90a6-202790eb4cd3"},"vehicle_type_id":"4","last_reported":1736593627,"current_range_meters":39200,"station_id":"ce4bgs12rcd13ifvqcag","pricing_plan_id":"cebpf4jnsgd1na2vs0mg"},{"bike_id":"6c51c296-8b62-4d51-8e8e-3f3736648bff","system_id":"levelo_inurba_marseille","lat":43.27807,"lon":5.40714,"is_reserved":false,"is_disabled":false,"rental_uris":{"android":"levelo://app?vid=6c51c296-8b62-4d51-8e8e-3f3736648bff","ios":"levelo://app?vid=6c51c296-8b62-4d51-8e8e-3f3736648bff"},"vehicle_type_id":"4","last_reported":1736593627,"current_range_meters":29600,"station_id":"ce4bhnh2rcd13ifvqgtg","pricing_plan_id":"cebpf4jnsgd1na2vs0mg"},{"bike_id":"9d19643c-d149-49be-bc25-949474e6e069","system_id":"levelo_inurba_marseille","lat":43.29092,"lon":5.38147,"is_reserved":false,"is_disabled":true,"rental_uris":{"android":"levelo://app?vid=9d19643c-d149-49be-bc25-949474e6e069","ios":"levelo://app?vid=9d19643c-d149-49be-bc25-949474e6e069"},"vehicle_type_id":"4","last_reported":1736593627,"current_range_meters":27600,"station_id":"ce4bh4p2rcd13ifvqe1g","pricing_plan_id":"cebpf4jnsgd1na2vs0mg"},{"bike_id":"1ff4d6af-d168-4206-80a1-8f85ab0c0a00","system_id":"levelo_inurba_marseille","lat":43.25842,"lon":5.39928,"is_reserved":false,"is_disabled":true,"rental_uris":{"android":"levelo://app?vid=1ff4d6af-d168-4206-80a1-8f85ab0c0a00","ios":"levelo://app?vid=1ff4d6af-d168-4206-80a1-8f85ab0c0a00"},"vehicle_type_id":"4","last_reported":1736593627,"current_range_meters":18800,"station_id":"ce4bhl92rcd13ifvqghg","pricing_plan_id":"cebpf4jnsgd1na2vs0mg"},{"bike_id":"42279478-0bfd-4d2f-8801-7086d6a02c3e","system_id":"levelo_inurba_marseille","lat":43.30141,"lon":5.3983,"is_reserved":false,"is_disabled":false,"rental_uris":{"android":"levelo://app?vid=42279478-0bfd-4d2f-8801-7086d6a02c3e","ios":"levelo://app?vid=42279478-0bfd-4d2f-8801-7086d6a02c3e"},"vehicle_type_id":"4","last_reported":1736593627,"current_range_meters":19600,"station_id":"ce4bh0h2rcd13ifvqd40","pricing_plan_id":"cebpf4jnsgd1na2vs0mg"},{"bike_id":"20c58da9-9f57-44b7-842a-e002e8b58fea","system_id":"levelo_inurba_marseille","lat":43.30413,"lon":5.3976,"is_reserved":false,"is_disabled":false,"rental_uris":{"android":"levelo://app?vid=20c58da9-9f57-44b7-842a-e002e8b58fea","ios":"levelo://app?vid=20c58da9-9f57-44b7-842a-e002e8b58fea"},"vehicle_type_id":"4","last_reported":1736593627,"current_range_meters":30400,"station_id":"ce4bh092rcd13ifvqd20","pricing_plan_id":"cebpf4jnsgd1na2vs0mg"},{"bike_id":"4568528e-2291-42f6-a522-cc5b2e288658","system_id":"levelo_inurba_marseille","lat":43.2962,"lon":5.3773,"is_reserved":false,"is_disabled":false,"rental_uris":{"android":"levelo://app?vid=4568528e-2291-42f6-a522-cc5b2e288658","ios":"levelo://app?vid=4568528e-2291-42f6-a522-cc5b2e288658"},"vehicle_type_id":"4","last_reported":1736593627,"current_range_meters":34800,"station_id":"ce4bgi92rcd13ifvqb90","pricing_plan_id":"cebpf4jnsgd1na2vs0mg"},{"bike_id":"14ffb581-0182-4827-8afa-54049f1ece34","system_id":"levelo_inurba_marseille","lat":43.27208,"lon":5.3919,"is_reserved":false,"is_disabled":false,"rental_uris":{"android":"levelo://app?vid=14ffb581-0182-4827-8afa-54049f1ece34","ios":"levelo://app?vid=14ffb581-0182-4827-8afa-54049f1ece34"},"vehicle_type_id":"4","last_reported":1736593627,"current_range_meters":30800,"station_id":"ce4bhhp2rcd13ifvqfm0","pricing_plan_id":"cebpf4jnsgd1na2vs0mg"},{"bike_id":"88875052-773f-494c-b327-4e598dde5cf3","system_id":"levelo_inurba_marseille","lat":43.29624,"lon":5.37713,"is_reserved":false,"is_disabled":false,"rental_uris":{"android":"levelo://app?vid=88875052-773f-494c-b327-4e598dde5cf3","ios":"levelo://app?vid=88875052-773f-494c-b327-4e598dde5cf3"},"vehicle_type_id":"4","last_reported":1736593627,"current_range_meters":34800,"station_id":"ce4bgi92rcd13ifvqb90","pricing_plan_id":"cebpf4jnsgd1na2vs0mg"},{"bike_id":"fed5eb1a-abda-4070-aa40-ce49d22d0407","system_id":"levelo_inurba_marseille","lat":43.3054,"lon":5.36552,"is_reserved":false,"is_disabled":false,"rental_uris":{"android":"levelo://app?vid=fed5eb1a-abda-4070-aa40-ce49d22d0407","ios":"levelo://app?vid=fed5eb1a-abda-4070-aa40-ce49d22d0407"},"vehicle_type_id":"4","last_reported":1736593627,"current_range_meters":16800,"station_id":"ce4bgs12rcd13ifvqcag","pricing_plan_id":"cebpf4jnsgd1na2vs0mg"},{"bike_id":"b83a81d3-5f39-4c0c-8b11-a9b102a1e985","system_id":"levelo_inurba_marseille","lat":43.27211,"lon":5.39176,"is_reserved":false,"is_disabled":false,"rental_uris":{"android":"levelo://app?vid=b83a81d3-5f39-4c0c-8b11-a9b102a1e985","ios":"levelo://app?vid=b83a81d3-5f39-4c0c-8b11-a9b102a1e985"},"vehicle_type_id":"4","last_reported":1736593627,"current_range_meters":4400,"station_id":"ce4bhhp2rcd13ifvqfm0","pricing_plan_id":"cebpf4jnsgd1na2vs0mg"},{"bike_id":"10f7d31a-ef8d-4e8a-acbf-8aa9a8c72143","system_id":"levelo_inurba_marseille","lat":43.24363,"lon":5.37104,"is_reserved":false,"is_disabled":false,"rental_uris":{"android":"levelo://app?vid=10f7d31a-ef8d-4e8a-acbf-8aa9a8c72143","ios":"levelo://app?vid=10f7d31a-ef8d-4e8a-acbf-8aa9a8c72143"},"vehicle_type_id":"4","last_reported":1736593627,"current_range_meters":18000,"station_id":"ce4bhhh2rcd13ifvqfk0","pricing_plan_id":"cebpf4jnsgd1na2vs0mg"},{"bike_id":"54f1369c-f53f-418d-b82f-930a1f5a7530","system_id":"levelo_inurba_marseille","lat":43.26195,"lon":5.37452,"is_reserved":false,"is_disabled":false,"rental_uris":{"android":"levelo://app?vid=54f1369c-f53f-418d-b82f-930a1f5a7530","ios":"levelo://app?vid=54f1369c-f53f-418d-b82f-930a1f5a7530"},"vehicle_type_id":"4","last_reported":1736593627,"current_range_meters":24800,"station_id":"ce4bhgp2rcd13ifvqfc0","pricing_plan_id":"cebpf4jnsgd1na2vs0mg"},{"bike_id":"c085e23b-d919-4d11-8101-9bb8536d0a1f","system_id":"levelo_inurba_marseille","lat":43.30132,"lon":5.39837,"is_reserved":false,"is_disabled":false,"rental_uris":{"android":"levelo://app?vid=c085e23b-d919-4d11-8101-9bb8536d0a1f","ios":"levelo://app?vid=c085e23b-d919-4d11-8101-9bb8536d0a1f"},"vehicle_type_id":"4","last_reported":1736593627,"current_range_meters":36000,"station_id":"ce4bh0h2rcd13ifvqd40","pricing_plan_id":"cebpf4jnsgd1na2vs0mg"},{"bike_id":"f0c080b7-cc84-4ae6-b5d3-19e354905365","system_id":"levelo_inurba_marseille","lat":43.29022,"lon":5.38137,"is_reserved":false,"is_disabled":false,"rental_uris":{"android":"levelo://app?vid=f0c080b7-cc84-4ae6-b5d3-19e354905365","ios":"levelo://app?vid=f0c080b7-cc84-4ae6-b5d3-19e354905365"},"vehicle_type_id":"4","last_reported":1736593627,"current_range_meters":36400,"station_id":"ce4bh4p2rcd13ifvqe1g","pricing_plan_id":"cebpf4jnsgd1na2vs0mg"},{"bike_id":"379d4bef-014e-41cb-9639-d72b0f382065","system_id":"levelo_inurba_marseille","lat":43.29631,"lon":5.37171,"is_reserved":false,"is_disabled":false,"rental_uris":{"android":"levelo://app?vid=379d4bef-014e-41cb-9639-d72b0f382065","ios":"levelo://app?vid=379d4bef-014e-41cb-9639-d72b0f382065"},"vehicle_type_id":"4","last_reported":1736593627,"current_range_meters":29600,"station_id":"ce4bgnh2rcd13ifvqc0g","pricing_plan_id":"cebpf4jnsgd1na2vs0mg"},{"bike_id":"ae29e0de-7b5a-45d6-ace3-313c5e88010a","system_id":"levelo_inurba_marseille","lat":43.279909,"lon":5.416597,"is_reserved":false,"is_disabled":true,"rental_uris":{"android":"levelo://app?vid=ae29e0de-7b5a-45d6-ace3-313c5e88010a","ios":"levelo://app?vid=ae29e0de-7b5a-45d6-ace3-313c5e88010a"},"vehicle_type_id":"4","last_reported":1736593627,"current_range_meters":800,"station_id":"ce4bho12rcd13ifvqh1g","pricing_plan_id":"cebpf4jnsgd1na2vs0mg"},{"bike_id":"931d873d-7c0f-44bb-bab3-92c6d2a6e163","system_id":"levelo_inurba_marseille","lat":43.27635,"lon":5.38943,"is_reserved":false,"is_disabled":false,"rental_uris":{"android":"levelo://app?vid=931d873d-7c0f-44bb-bab3-92c6d2a6e163","ios":"levelo://app?vid=931d873d-7c0f-44bb-bab3-92c6d2a6e163"},"vehicle_type_id":"4","last_reported":1736593627,"current_range_meters":36400,"station_id":"ce4bhi12rcd13ifvqfo0","pricing_plan_id":"cebpf4jnsgd1na2vs0mg"},{"bike_id":"572f0254-11cf-4ef2-b3f9-66737ed8298a","system_id":"levelo_inurba_marseille","lat":43.28433,"lon":5.34994,"is_reserved":false,"is_disabled":true,"rental_uris":{"android":"levelo://app?vid=572f0254-11cf-4ef2-b3f9-66737ed8298a","ios":"levelo://app?vid=572f0254-11cf-4ef2-b3f9-66737ed8298a"},"vehicle_type_id":"4","last_reported":1736593627,"current_range_meters":0,"station_id":"ce4bhbh2rcd13ifvqepg","pricing_plan_id":"cebpf4jnsgd1na2vs0mg"},{"bike_id":"d2a3646f-410b-4c71-b1c9-6faf46be44c7","system_id":"levelo_inurba_marseille","lat":43.29552,"lon":5.42293,"is_reserved":false,"is_disabled":false,"rental_uris":{"android":"levelo://app?vid=d2a3646f-410b-4c71-b1c9-6faf46be44c7","ios":"levelo://app?vid=d2a3646f-410b-4c71-b1c9-6faf46be44c7"},"vehicle_type_id":"4","last_reported":1736593627,"current_range_meters":38400,"station_id":"ce4bhph2rcd13ifvqhdg","pricing_plan_id":"cebpf4jnsgd1na2vs0mg"},{"bike_id":"eb257bb1-3fa7-4167-b1f7-63e7c0f4d074","system_id":"levelo_inurba_marseille","lat":43.23197,"lon":5.35557,"is_reserved":false,"is_disabled":false,"rental_uris":{"android":"levelo://app?vid=eb257bb1-3fa7-4167-b1f7-63e7c0f4d074","ios":"levelo://app?vid=eb257bb1-3fa7-4167-b1f7-63e7c0f4d074"},"vehicle_type_id":"4","last_reported":1736593627,"current_range_meters":29600,"station_id":"ce4bhu92rcd13ifvqi70","pricing_plan_id":"cebpf4jnsgd1na2vs0mg"},{"bike_id":"c86df6dc-be10-4b6f-aed3-e8e53e5fc2a4","system_id":"levelo_inurba_marseille","lat":43.27961,"lon":5.38737,"is_reserved":false,"is_disabled":false,"rental_uris":{"android":"levelo://app?vid=c86df6dc-be10-4b6f-aed3-e8e53e5fc2a4","ios":"levelo://app?vid=c86df6dc-be10-4b6f-aed3-e8e53e5fc2a4"},"vehicle_type_id":"4","last_reported":1736593627,"current_range_meters":39200,"station_id":"ce4bhg12rcd13ifvqf80","pricing_plan_id":"cebpf4jnsgd1na2vs0mg"},{"bike_id":"3e0dda11-bd29-4a47-a000-9730555dbb4f","system_id":"levelo_inurba_marseille","lat":43.24072,"lon":5.37763,"is_reserved":false,"is_disabled":false,"rental_uris":{"android":"levelo://app?vid=3e0dda11-bd29-4a47-a000-9730555dbb4f","ios":"levelo://app?vid=3e0dda11-bd29-4a47-a000-9730555dbb4f"},"vehicle_type_id":"4","last_reported":1736593627,"current_range_meters":38000,"station_id":"ce4bhnp2rcd13ifvqgvg","pricing_plan_id":"cebpf4jnsgd1na2vs0mg"},{"bike_id":"038048d3-67d1-430a-8aa7-0f86138d73a8","system_id":"levelo_inurba_marseille","lat":43.29728,"lon":5.37709,"is_reserved":false,"is_disabled":false,"rental_uris":{"android":"levelo://app?vid=038048d3-67d1-430a-8aa7-0f86138d73a8","ios":"levelo://app?vid=038048d3-67d1-430a-8aa7-0f86138d73a8"},"vehicle_type_id":"4","last_reported":1736593627,"current_range_meters":15200,"station_id":"ce4bgkh2rcd13ifvqbl0","pricing_plan_id":"cebpf4jnsgd1na2vs0mg"},{"bike_id":"30653996-9326-4bca-864c-21ac92f61041","system_id":"levelo_inurba_marseille","lat":43.2464,"lon":5.38906,"is_reserved":false,"is_disabled":false,"rental_uris":{"android":"levelo://app?vid=30653996-9326-4bca-864c-21ac92f61041","ios":"levelo://app?vid=30653996-9326-4bca-864c-21ac92f61041"},"vehicle_type_id":"4","last_reported":1736593627,"current_range_meters":33200,"station_id":"ce4bhg12rcd13ifvqf60","pricing_plan_id":"cebpf4jnsgd1na2vs0mg"},{"bike_id":"bed24a32-106d-49f4-8d2d-17f021b9dbe6","system_id":"levelo_inurba_marseille","lat":43.27498,"lon":5.42477,"is_reserved":false,"is_disabled":true,"rental_uris":{"android":"levelo://app?vid=bed24a32-106d-49f4-8d2d-17f021b9dbe6","ios":"levelo://app?vid=bed24a32-106d-49f4-8d2d-17f021b9dbe6"},"vehicle_type_id":"4","last_reported":1736593627,"current_range_meters":400,"station_id":"ce4bhn92rcd13ifvqgrg","pricing_plan_id":"cebpf4jnsgd1na2vs0mg"},{"bike_id":"a4de5071-dd1c-452c-a877-311a543c6eda","system_id":"levelo_inurba_marseille","lat":43.23158,"lon":5.43712,"is_reserved":false,"is_disabled":false,"rental_uris":{"android":"levelo://app?vid=a4de5071-dd1c-452c-a877-311a543c6eda","ios":"levelo://app?vid=a4de5071-dd1c-452c-a877-311a543c6eda"},"vehicle_type_id":"4","last_reported":1736593627,"current_range_meters":39200,"station_id":"ce4bhmp2rcd13ifvqgog","pricing_plan_id":"cebpf4jnsgd1na2vs0mg"},{"bike_id":"6cdd0e91-7044-42e3-8afe-8009bcb43ac1","system_id":"levelo_inurba_marseille","lat":43.28435,"lon":5.39232,"is_reserved":false,"is_disabled":false,"rental_uris":{"android":"levelo://app?vid=6cdd0e91-7044-42e3-8afe-8009bcb43ac1","ios":"levelo://app?vid=6cdd0e91-7044-42e3-8afe-8009bcb43ac1"},"vehicle_type_id":"4","last_reported":1736593627,"current_range_meters":28800,"station_id":"ce4bhoh2rcd13ifvqh5g","pricing_plan_id":"cebpf4jnsgd1na2vs0mg"},{"bike_id":"51098504-36bc-46da-bc89-d62c2a5ea627","system_id":"levelo_inurba_marseille","lat":43.29417,"lon":5.38629,"is_reserved":false,"is_disabled":true,"rental_uris":{"android":"levelo://app?vid=51098504-36bc-46da-bc89-d62c2a5ea627","ios":"levelo://app?vid=51098504-36bc-46da-bc89-d62c2a5ea627"},"vehicle_type_id":"4","last_reported":1736593627,"current_range_meters":400,"station_id":"ce4bh2h2rcd13ifvqdh0","pricing_plan_id":"cebpf4jnsgd1na2vs0mg"},{"bike_id":"4d0fce21-800c-42f9-847f-9baafc74bda7","system_id":"levelo_inurba_marseille","lat":43.27437,"lon":5.39408,"is_reserved":false,"is_disabled":false,"rental_uris":{"android":"levelo://app?vid=4d0fce21-800c-42f9-847f-9baafc74bda7","ios":"levelo://app?vid=4d0fce21-800c-42f9-847f-9baafc74bda7"},"vehicle_type_id":"4","last_reported":1736593627,"current_range_meters":35200,"station_id":"ce4bhdp2rcd13ifvqf20","pricing_plan_id":"cebpf4jnsgd1na2vs0mg"},{"bike_id":"b704bf42-2bc7-4506-b669-8ca7a3330fef","system_id":"levelo_inurba_marseille","lat":43.28148,"lon":5.42617,"is_reserved":false,"is_disabled":true,"rental_uris":{"android":"levelo://app?vid=b704bf42-2bc7-4506-b669-8ca7a3330fef","ios":"levelo://app?vid=b704bf42-2bc7-4506-b669-8ca7a3330fef"},"vehicle_type_id":"4","last_reported":1736593627,"current_range_meters":32800,"station_id":"ce4bhnh2rcd13ifvqgug","pricing_plan_id":"cebpf4jnsgd1na2vs0mg"},{"bike_id":"68f135fc-4bd4-4724-b03e-262958a6d5dd","system_id":"levelo_inurba_marseille","lat":43.3374,"lon":5.37448,"is_reserved":false,"is_disabled":false,"rental_uris":{"android":"levelo://app?vid=68f135fc-4bd4-4724-b03e-262958a6d5dd","ios":"levelo://app?vid=68f135fc-4bd4-4724-b03e-262958a6d5dd"},"vehicle_type_id":"4","last_reported":1736593627,"current_range_meters":38800,"station_id":"","pricing_plan_id":"cebpf4jnsgd1na2vs0mg"},{"bike_id":"31fd7356-e300-459e-bb2e-5d33dbc6161c","system_id":"levelo_inurba_marseille","lat":43.30806,"lon":5.38149,"is_reserved":false,"is_disabled":true,"rental_uris":{"android":"levelo://app?vid=31fd7356-e300-459e-bb2e-5d33dbc6161c","ios":"levelo://app?vid=31fd7356-e300-459e-bb2e-5d33dbc6161c"},"vehicle_type_id":"4","last_reported":1736593627,"current_range_meters":0,"station_id":"ce4bgt12rcd13ifvqce0","pricing_plan_id":"cebpf4jnsgd1na2vs0mg"},{"bike_id":"ede473a8-4ad3-4177-9dfc-dc40ae6098e2","system_id":"levelo_inurba_marseille","lat":43.24669,"lon":5.38149,"is_reserved":false,"is_disabled":false,"rental_uris":{"android":"levelo://app?vid=ede473a8-4ad3-4177-9dfc-dc40ae6098e2","ios":"levelo://app?vid=ede473a8-4ad3-4177-9dfc-dc40ae6098e2"},"vehicle_type_id":"4","last_reported":1736593627,"current_range_meters":8000,"station_id":"ce4bhih2rcd13ifvqfr0","pricing_plan_id":"cebpf4jnsgd1na2vs0mg"},{"bike_id":"f62a7ed4-7c80-4ed8-9568-a4dea62069d1","system_id":"levelo_inurba_marseille","lat":43.28086,"lon":5.39647,"is_reserved":false,"is_disabled":true,"rental_uris":{"android":"levelo://app?vid=f62a7ed4-7c80-4ed8-9568-a4dea62069d1","ios":"levelo://app?vid=f62a7ed4-7c80-4ed8-9568-a4dea62069d1"},"vehicle_type_id":"4","last_reported":1736593627,"current_range_meters":37600,"station_id":"ce4bho12rcd13ifvqh2g","pricing_plan_id":"cebpf4jnsgd1na2vs0mg"},{"bike_id":"e2744ec8-2f1a-4025-9ec0-6a07f5db3fc4","system_id":"levelo_inurba_marseille","lat":43.25507,"lon":5.37658,"is_reserved":false,"is_disabled":false,"rental_uris":{"android":"levelo://app?vid=e2744ec8-2f1a-4025-9ec0-6a07f5db3fc4","ios":"levelo://app?vid=e2744ec8-2f1a-4025-9ec0-6a07f5db3fc4"},"vehicle_type_id":"4","last_reported":1736593627,"current_range_meters":39200,"station_id":"ce4bhh12rcd13ifvqff0","pricing_plan_id":"cebpf4jnsgd1na2vs0mg"},{"bike_id":"cc759f92-165c-46f7-84dc-07726493697c","system_id":"levelo_inurba_marseille","lat":43.280773,"lon":5.39661,"is_reserved":false,"is_disabled":false,"rental_uris":{"android":"levelo://app?vid=cc759f92-165c-46f7-84dc-07726493697c","ios":"levelo://app?vid=cc759f92-165c-46f7-84dc-07726493697c"},"vehicle_type_id":"4","last_reported":1736593627,"current_range_meters":28000,"station_id":"ce4bho12rcd13ifvqh2g","pricing_plan_id":"cebpf4jnsgd1na2vs0mg"},{"bike_id":"9c413fb1-8955-4528-ba15-78d41b7bda61","system_id":"levelo_inurba_marseille","lat":43.28728,"lon":5.36081,"is_reserved":false,"is_disabled":false,"rental_uris":{"android":"levelo://app?vid=9c413fb1-8955-4528-ba15-78d41b7bda61","ios":"levelo://app?vid=9c413fb1-8955-4528-ba15-78d41b7bda61"},"vehicle_type_id":"4","last_reported":1736593627,"current_range_meters":39200,"station_id":"cki0cbj6b192h4jlfktg","pricing_plan_id":"cebpf4jnsgd1na2vs0mg"},{"bike_id":"a8cd9a05-2718-49a4-a64d-be4b79dacd42","system_id":"levelo_inurba_marseille","lat":43.27209,"lon":5.3921,"is_reserved":false,"is_disabled":false,"rental_uris":{"android":"levelo://app?vid=a8cd9a05-2718-49a4-a64d-be4b79dacd42","ios":"levelo://app?vid=a8cd9a05-2718-49a4-a64d-be4b79dacd42"},"vehicle_type_id":"4","last_reported":1736593627,"current_range_meters":39200,"station_id":"ce4bhhp2rcd13ifvqfm0","pricing_plan_id":"cebpf4jnsgd1na2vs0mg"},{"bike_id":"d63db11f-271b-42cf-963f-3051091b42d3","system_id":"levelo_inurba_marseille","lat":43.30452,"lon":5.38894,"is_reserved":false,"is_disabled":false,"rental_uris":{"android":"levelo://app?vid=d63db11f-271b-42cf-963f-3051091b42d3","ios":"levelo://app?vid=d63db11f-271b-42cf-963f-3051091b42d3"},"vehicle_type_id":"4","last_reported":1736593627,"current_range_meters":35600,"station_id":"ce4bgk12rcd13ifvqbi0","pricing_plan_id":"cebpf4jnsgd1na2vs0mg"},{"bike_id":"c60f5105-31fe-4a50-8f42-f74bab4bd149","system_id":"levelo_inurba_marseille","lat":43.29627,"lon":5.37163,"is_reserved":false,"is_disabled":false,"rental_uris":{"android":"levelo://app?vid=c60f5105-31fe-4a50-8f42-f74bab4bd149","ios":"levelo://app?vid=c60f5105-31fe-4a50-8f42-f74bab4bd149"},"vehicle_type_id":"4","last_reported":1736593627,"current_range_meters":36000,"station_id":"ce4bgnh2rcd13ifvqc0g","pricing_plan_id":"cebpf4jnsgd1na2vs0mg"},{"bike_id":"21db1477-10e9-4e4c-ab04-8f00f7b7c1d8","system_id":"levelo_inurba_marseille","lat":43.26554,"lon":5.39029,"is_reserved":false,"is_disabled":false,"rental_uris":{"android":"levelo://app?vid=21db1477-10e9-4e4c-ab04-8f00f7b7c1d8","ios":"levelo://app?vid=21db1477-10e9-4e4c-ab04-8f00f7b7c1d8"},"vehicle_type_id":"4","last_reported":1736593627,"current_range_meters":29600,"station_id":"ce4bhe12rcd13ifvqf30","pricing_plan_id":"cebpf4jnsgd1na2vs0mg"},{"bike_id":"63b04da4-1e13-46fb-b2b6-be64a5410e45","system_id":"levelo_inurba_marseille","lat":43.30797,"lon":5.38155,"is_reserved":false,"is_disabled":false,"rental_uris":{"android":"levelo://app?vid=63b04da4-1e13-46fb-b2b6-be64a5410e45","ios":"levelo://app?vid=63b04da4-1e13-46fb-b2b6-be64a5410e45"},"vehicle_type_id":"4","last_reported":1736593627,"current_range_meters":24400,"station_id":"ce4bgt12rcd13ifvqce0","pricing_plan_id":"cebpf4jnsgd1na2vs0mg"},{"bike_id":"e852a9e7-a797-4614-b49f-5b0fd280197a","system_id":"levelo_inurba_marseille","lat":43.32499,"lon":5.3829,"is_reserved":false,"is_disabled":false,"rental_uris":{"android":"levelo://app?vid=e852a9e7-a797-4614-b49f-5b0fd280197a","ios":"levelo://app?vid=e852a9e7-a797-4614-b49f-5b0fd280197a"},"vehicle_type_id":"4","last_reported":1736593627,"current_range_meters":38000,"station_id":"","pricing_plan_id":"cebpf4jnsgd1na2vs0mg"},{"bike_id":"a5e0dc49-0174-4a8e-b087-e337f53d81df","system_id":"levelo_inurba_marseille","lat":43.231842,"lon":5.399788,"is_reserved":false,"is_disabled":true,"rental_uris":{"android":"levelo://app?vid=a5e0dc49-0174-4a8e-b087-e337f53d81df","ios":"levelo://app?vid=a5e0dc49-0174-4a8e-b087-e337f53d81df"},"vehicle_type_id":"4","last_reported":1736593627,"current_range_meters":800,"station_id":"ce4bhn12rcd13ifvqgqg","pricing_plan_id":"cebpf4jnsgd1na2vs0mg"},{"bike_id":"94378ab3-662a-42af-879e-4385d9be5343","system_id":"levelo_inurba_marseille","lat":43.31111,"lon":5.37785,"is_reserved":false,"is_disabled":false,"rental_uris":{"android":"levelo://app?vid=94378ab3-662a-42af-879e-4385d9be5343","ios":"levelo://app?vid=94378ab3-662a-42af-879e-4385d9be5343"},"vehicle_type_id":"4","last_reported":1736593627,"current_range_meters":38800,"station_id":"ce4bgt92rcd13ifvqcg0","pricing_plan_id":"cebpf4jnsgd1na2vs0mg"},{"bike_id":"1e2223a2-c032-49e7-8dbf-982df86a0520","system_id":"levelo_inurba_marseille","lat":43.22922,"lon":5.35385,"is_reserved":false,"is_disabled":false,"rental_uris":{"android":"levelo://app?vid=1e2223a2-c032-49e7-8dbf-982df86a0520","ios":"levelo://app?vid=1e2223a2-c032-49e7-8dbf-982df86a0520"},"vehicle_type_id":"4","last_reported":1736593627,"current_range_meters":28400,"station_id":"cpo3532slgdg3j2ikp40","pricing_plan_id":"cebpf4jnsgd1na2vs0mg"},{"bike_id":"ce953325-97b5-41b7-8d76-df6f1a233491","system_id":"levelo_inurba_marseille","lat":43.29628,"lon":5.37149,"is_reserved":false,"is_disabled":false,"rental_uris":{"android":"levelo://app?vid=ce953325-97b5-41b7-8d76-df6f1a233491","ios":"levelo://app?vid=ce953325-97b5-41b7-8d76-df6f1a233491"},"vehicle_type_id":"4","last_reported":1736593627,"current_range_meters":39200,"station_id":"ce4bgnh2rcd13ifvqc0g","pricing_plan_id":"cebpf4jnsgd1na2vs0mg"},{"bike_id":"540fad5b-d975-43cc-b386-6dd08caf613c","system_id":"levelo_inurba_marseille","lat":43.24075,"lon":5.37763,"is_reserved":false,"is_disabled":true,"rental_uris":{"android":"levelo://app?vid=540fad5b-d975-43cc-b386-6dd08caf613c","ios":"levelo://app?vid=540fad5b-d975-43cc-b386-6dd08caf613c"},"vehicle_type_id":"4","last_reported":1736593627,"current_range_meters":1600,"station_id":"ce4bhnp2rcd13ifvqgvg","pricing_plan_id":"cebpf4jnsgd1na2vs0mg"},{"bike_id":"5f2cf356-122a-4d24-85ba-e38bc4612223","system_id":"levelo_inurba_marseille","lat":43.25566,"lon":5.3825,"is_reserved":false,"is_disabled":true,"rental_uris":{"android":"levelo://app?vid=5f2cf356-122a-4d24-85ba-e38bc4612223","ios":"levelo://app?vid=5f2cf356-122a-4d24-85ba-e38bc4612223"},"vehicle_type_id":"4","last_reported":1736593627,"current_range_meters":33600,"station_id":"ce4bhih2rcd13ifvqfs0","pricing_plan_id":"cebpf4jnsgd1na2vs0mg"},{"bike_id":"be8a233f-ad85-41b2-af03-bfa1e3033438","system_id":"levelo_inurba_marseille","lat":43.23197,"lon":5.35549,"is_reserved":false,"is_disabled":false,"rental_uris":{"android":"levelo://app?vid=be8a233f-ad85-41b2-af03-bfa1e3033438","ios":"levelo://app?vid=be8a233f-ad85-41b2-af03-bfa1e3033438"},"vehicle_type_id":"4","last_reported":1736593627,"current_range_meters":20000,"station_id":"ce4bhu92rcd13ifvqi70","pricing_plan_id":"cebpf4jnsgd1na2vs0mg"},{"bike_id":"d7284d59-0fa0-4e55-88c3-9102035d8a99","system_id":"levelo_inurba_marseille","lat":43.3023,"lon":5.40078,"is_reserved":false,"is_disabled":true,"rental_uris":{"android":"levelo://app?vid=d7284d59-0fa0-4e55-88c3-9102035d8a99","ios":"levelo://app?vid=d7284d59-0fa0-4e55-88c3-9102035d8a99"},"vehicle_type_id":"4","last_reported":1736593627,"current_range_meters":38800,"station_id":"ce4bgvh2rcd13ifvqcs0","pricing_plan_id":"cebpf4jnsgd1na2vs0mg"},{"bike_id":"2ad67489-c641-4eb2-8119-abbc38a56fd8","system_id":"levelo_inurba_marseille","lat":43.30527,"lon":5.36567,"is_reserved":false,"is_disabled":false,"rental_uris":{"android":"levelo://app?vid=2ad67489-c641-4eb2-8119-abbc38a56fd8","ios":"levelo://app?vid=2ad67489-c641-4eb2-8119-abbc38a56fd8"},"vehicle_type_id":"4","last_reported":1736593627,"current_range_meters":32400,"station_id":"ce4bgs12rcd13ifvqcag","pricing_plan_id":"cebpf4jnsgd1na2vs0mg"},{"bike_id":"049cc9e4-2f8e-4d46-986b-fac77d19d852","system_id":"levelo_inurba_marseille","lat":43.30543,"lon":5.36538,"is_reserved":false,"is_disabled":false,"rental_uris":{"android":"levelo://app?vid=049cc9e4-2f8e-4d46-986b-fac77d19d852","ios":"levelo://app?vid=049cc9e4-2f8e-4d46-986b-fac77d19d852"},"vehicle_type_id":"4","last_reported":1736593627,"current_range_meters":39200,"station_id":"ce4bgs12rcd13ifvqcag","pricing_plan_id":"cebpf4jnsgd1na2vs0mg"},{"bike_id":"57f5a8a9-f2e5-4673-966d-ca04b8d8c8e6","system_id":"levelo_inurba_marseille","lat":43.31121,"lon":5.37754,"is_reserved":false,"is_disabled":true,"rental_uris":{"android":"levelo://app?vid=57f5a8a9-f2e5-4673-966d-ca04b8d8c8e6","ios":"levelo://app?vid=57f5a8a9-f2e5-4673-966d-ca04b8d8c8e6"},"vehicle_type_id":"4","last_reported":1736593627,"current_range_meters":7200,"station_id":"ce4bgt92rcd13ifvqcg0","pricing_plan_id":"cebpf4jnsgd1na2vs0mg"},{"bike_id":"85427a88-99f5-4856-b496-8ef79c1ec2f5","system_id":"levelo_inurba_marseille","lat":43.24683,"lon":5.38154,"is_reserved":false,"is_disabled":false,"rental_uris":{"android":"levelo://app?vid=85427a88-99f5-4856-b496-8ef79c1ec2f5","ios":"levelo://app?vid=85427a88-99f5-4856-b496-8ef79c1ec2f5"},"vehicle_type_id":"4","last_reported":1736593627,"current_range_meters":34000,"station_id":"ce4bhih2rcd13ifvqfr0","pricing_plan_id":"cebpf4jnsgd1na2vs0mg"},{"bike_id":"e503c352-9e2e-420f-8b40-2f3c11592d38","system_id":"levelo_inurba_marseille","lat":43.30134,"lon":5.3879,"is_reserved":false,"is_disabled":false,"rental_uris":{"android":"levelo://app?vid=e503c352-9e2e-420f-8b40-2f3c11592d38","ios":"levelo://app?vid=e503c352-9e2e-420f-8b40-2f3c11592d38"},"vehicle_type_id":"4","last_reported":1736593627,"current_range_meters":9600,"station_id":"ce4bhoh2rcd13ifvqh6g","pricing_plan_id":"cebpf4jnsgd1na2vs0mg"},{"bike_id":"91291e8f-d824-472a-8638-bad6f379f32e","system_id":"levelo_inurba_marseille","lat":43.305183,"lon":5.380743,"is_reserved":false,"is_disabled":false,"rental_uris":{"android":"levelo://app?vid=91291e8f-d824-472a-8638-bad6f379f32e","ios":"levelo://app?vid=91291e8f-d824-472a-8638-bad6f379f32e"},"vehicle_type_id":"4","last_reported":1736593627,"current_range_meters":34800,"station_id":"","pricing_plan_id":"cebpf4jnsgd1na2vs0mg"},{"bike_id":"4f4f1e3e-7c74-4289-99f8-67d870186b87","system_id":"levelo_inurba_marseille","lat":43.27647,"lon":5.38946,"is_reserved":false,"is_disabled":false,"rental_uris":{"android":"levelo://app?vid=4f4f1e3e-7c74-4289-99f8-67d870186b87","ios":"levelo://app?vid=4f4f1e3e-7c74-4289-99f8-67d870186b87"},"vehicle_type_id":"4","last_reported":1736593627,"current_range_meters":39200,"station_id":"ce4bhi12rcd13ifvqfo0","pricing_plan_id":"cebpf4jnsgd1na2vs0mg"},{"bike_id":"ad28bd53-1c8c-44ea-9a1c-1e5a5b2498fe","system_id":"levelo_inurba_marseille","lat":43.24152,"lon":5.36463,"is_reserved":false,"is_disabled":false,"rental_uris":{"android":"levelo://app?vid=ad28bd53-1c8c-44ea-9a1c-1e5a5b2498fe","ios":"levelo://app?vid=ad28bd53-1c8c-44ea-9a1c-1e5a5b2498fe"},"vehicle_type_id":"4","last_reported":1736593627,"current_range_meters":7200,"station_id":"","pricing_plan_id":"cebpf4jnsgd1na2vs0mg"},{"bike_id":"e000c602-e61c-4736-8987-5ffa6e318e7a","system_id":"levelo_inurba_marseille","lat":43.27994,"lon":5.40029,"is_reserved":false,"is_disabled":false,"rental_uris":{"android":"levelo://app?vid=e000c602-e61c-4736-8987-5ffa6e318e7a","ios":"levelo://app?vid=e000c602-e61c-4736-8987-5ffa6e318e7a"},"vehicle_type_id":"4","last_reported":1736593627,"current_range_meters":11600,"station_id":"ce4bho92rcd13ifvqh4g","pricing_plan_id":"cebpf4jnsgd1na2vs0mg"},{"bike_id":"7856db80-3b02-46ff-8916-cb68afa9b1dd","system_id":"levelo_inurba_marseille","lat":43.29515,"lon":5.37508,"is_reserved":false,"is_disabled":false,"rental_uris":{"android":"levelo://app?vid=7856db80-3b02-46ff-8916-cb68afa9b1dd","ios":"levelo://app?vid=7856db80-3b02-46ff-8916-cb68afa9b1dd"},"vehicle_type_id":"4","last_reported":1736593627,"current_range_meters":31200,"station_id":"ce4bgkp2rcd13ifvqbmg","pricing_plan_id":"cebpf4jnsgd1na2vs0mg"},{"bike_id":"ddbb6c22-ce6c-4a2b-9053-6349e4af3c9a","system_id":"levelo_inurba_marseille","lat":43.25854,"lon":5.39907,"is_reserved":false,"is_disabled":false,"rental_uris":{"android":"levelo://app?vid=ddbb6c22-ce6c-4a2b-9053-6349e4af3c9a","ios":"levelo://app?vid=ddbb6c22-ce6c-4a2b-9053-6349e4af3c9a"},"vehicle_type_id":"4","last_reported":1736593627,"current_range_meters":37600,"station_id":"ce4bhl92rcd13ifvqghg","pricing_plan_id":"cebpf4jnsgd1na2vs0mg"},{"bike_id":"8734c63c-de88-47be-82ce-8357004fef31","system_id":"levelo_inurba_marseille","lat":43.29576,"lon":5.37487,"is_reserved":false,"is_disabled":false,"rental_uris":{"android":"levelo://app?vid=8734c63c-de88-47be-82ce-8357004fef31","ios":"levelo://app?vid=8734c63c-de88-47be-82ce-8357004fef31"},"vehicle_type_id":"4","last_reported":1736593627,"current_range_meters":32400,"station_id":"ce4bgh92rcd13ifvqb50","pricing_plan_id":"cebpf4jnsgd1na2vs0mg"},{"bike_id":"edc2e534-d1c4-4d9c-a67c-87dfaa1de669","system_id":"levelo_inurba_marseille","lat":43.286183,"lon":5.350964,"is_reserved":false,"is_disabled":false,"rental_uris":{"android":"levelo://app?vid=edc2e534-d1c4-4d9c-a67c-87dfaa1de669","ios":"levelo://app?vid=edc2e534-d1c4-4d9c-a67c-87dfaa1de669"},"vehicle_type_id":"4","last_reported":1736593627,"current_range_meters":38800,"station_id":"ce4bhch2rcd13ifvqeug","pricing_plan_id":"cebpf4jnsgd1na2vs0mg"},{"bike_id":"6ddbf065-84f9-4599-8a54-7ad0ce96f4e0","system_id":"levelo_inurba_marseille","lat":43.29771,"lon":5.37101,"is_reserved":false,"is_disabled":false,"rental_uris":{"android":"levelo://app?vid=6ddbf065-84f9-4599-8a54-7ad0ce96f4e0","ios":"levelo://app?vid=6ddbf065-84f9-4599-8a54-7ad0ce96f4e0"},"vehicle_type_id":"4","last_reported":1736593627,"current_range_meters":24000,"station_id":"ce4bgop2rcd13ifvqc1g","pricing_plan_id":"cebpf4jnsgd1na2vs0mg"},{"bike_id":"8b88170d-e695-4530-8583-a66b3ec41a93","system_id":"levelo_inurba_marseille","lat":43.33607,"lon":5.41017,"is_reserved":false,"is_disabled":true,"rental_uris":{"android":"levelo://app?vid=8b88170d-e695-4530-8583-a66b3ec41a93","ios":"levelo://app?vid=8b88170d-e695-4530-8583-a66b3ec41a93"},"vehicle_type_id":"4","last_reported":1736593627,"current_range_meters":11600,"station_id":"ce4bhqh2rcd13ifvqhmg","pricing_plan_id":"cebpf4jnsgd1na2vs0mg"},{"bike_id":"3a16c1ee-f720-45eb-bdaf-ae71c9e16faf","system_id":"levelo_inurba_marseille","lat":43.32533,"lon":5.41454,"is_reserved":false,"is_disabled":false,"rental_uris":{"android":"levelo://app?vid=3a16c1ee-f720-45eb-bdaf-ae71c9e16faf","ios":"levelo://app?vid=3a16c1ee-f720-45eb-bdaf-ae71c9e16faf"},"vehicle_type_id":"4","last_reported":1736593627,"current_range_meters":38000,"station_id":"ce4bhq12rcd13ifvqhhg","pricing_plan_id":"cebpf4jnsgd1na2vs0mg"},{"bike_id":"b8acbba0-a715-4ced-a2aa-0517db10ac9d","system_id":"levelo_inurba_marseille","lat":43.22924,"lon":5.35379,"is_reserved":false,"is_disabled":true,"rental_uris":{"android":"levelo://app?vid=b8acbba0-a715-4ced-a2aa-0517db10ac9d","ios":"levelo://app?vid=b8acbba0-a715-4ced-a2aa-0517db10ac9d"},"vehicle_type_id":"4","last_reported":1736593627,"current_range_meters":36400,"station_id":"cpo3532slgdg3j2ikp40","pricing_plan_id":"cebpf4jnsgd1na2vs0mg"},{"bike_id":"f7a5e165-5043-4ba0-b06c-270f257dffbd","system_id":"levelo_inurba_marseille","lat":43.27305,"lon":5.39083,"is_reserved":false,"is_disabled":false,"rental_uris":{"android":"levelo://app?vid=f7a5e165-5043-4ba0-b06c-270f257dffbd","ios":"levelo://app?vid=f7a5e165-5043-4ba0-b06c-270f257dffbd"},"vehicle_type_id":"4","last_reported":1736593627,"current_range_meters":26000,"station_id":"ce4bhgp2rcd13ifvqfe0","pricing_plan_id":"cebpf4jnsgd1na2vs0mg"},{"bike_id":"10805d30-f651-42fc-83dc-af6ada96f984","system_id":"levelo_inurba_marseille","lat":43.23187,"lon":5.3999,"is_reserved":false,"is_disabled":false,"rental_uris":{"android":"levelo://app?vid=10805d30-f651-42fc-83dc-af6ada96f984","ios":"levelo://app?vid=10805d30-f651-42fc-83dc-af6ada96f984"},"vehicle_type_id":"4","last_reported":1736593627,"current_range_meters":25200,"station_id":"ce4bhn12rcd13ifvqgqg","pricing_plan_id":"cebpf4jnsgd1na2vs0mg"},{"bike_id":"100a4f23-ec2b-4825-8f0c-65e84ef19fc7","system_id":"levelo_inurba_marseille","lat":43.33024,"lon":5.39043,"is_reserved":false,"is_disabled":false,"rental_uris":{"android":"levelo://app?vid=100a4f23-ec2b-4825-8f0c-65e84ef19fc7","ios":"levelo://app?vid=100a4f23-ec2b-4825-8f0c-65e84ef19fc7"},"vehicle_type_id":"4","last_reported":1736593627,"current_range_meters":17600,"station_id":"ce4bhr92rcd13ifvqhrg","pricing_plan_id":"cebpf4jnsgd1na2vs0mg"},{"bike_id":"fc9e5b8a-08c3-4601-a10c-d3b520be28da","system_id":"levelo_inurba_marseille","lat":43.29626,"lon":5.37727,"is_reserved":false,"is_disabled":false,"rental_uris":{"android":"levelo://app?vid=fc9e5b8a-08c3-4601-a10c-d3b520be28da","ios":"levelo://app?vid=fc9e5b8a-08c3-4601-a10c-d3b520be28da"},"vehicle_type_id":"4","last_reported":1736593627,"current_range_meters":24400,"station_id":"ce4bgi92rcd13ifvqb90","pricing_plan_id":"cebpf4jnsgd1na2vs0mg"},{"bike_id":"9c203e7e-cdfa-4db1-a09c-30387f53fc8f","system_id":"levelo_inurba_marseille","lat":43.31089,"lon":5.42418,"is_reserved":false,"is_disabled":false,"rental_uris":{"android":"levelo://app?vid=9c203e7e-cdfa-4db1-a09c-30387f53fc8f","ios":"levelo://app?vid=9c203e7e-cdfa-4db1-a09c-30387f53fc8f"},"vehicle_type_id":"4","last_reported":1736593627,"current_range_meters":26800,"station_id":"ce4bhp92rcd13ifvqhag","pricing_plan_id":"cebpf4jnsgd1na2vs0mg"},{"bike_id":"4b8c33e7-74a1-4207-be15-77e7c78cd342","system_id":"levelo_inurba_marseille","lat":43.30123,"lon":5.3984,"is_reserved":false,"is_disabled":false,"rental_uris":{"android":"levelo://app?vid=4b8c33e7-74a1-4207-be15-77e7c78cd342","ios":"levelo://app?vid=4b8c33e7-74a1-4207-be15-77e7c78cd342"},"vehicle_type_id":"4","last_reported":1736593627,"current_range_meters":35600,"station_id":"ce4bh0h2rcd13ifvqd40","pricing_plan_id":"cebpf4jnsgd1na2vs0mg"},{"bike_id":"377730c6-0336-4c78-9c46-cdee41ff19a9","system_id":"levelo_inurba_marseille","lat":43.28054,"lon":5.41123,"is_reserved":false,"is_disabled":true,"rental_uris":{"android":"levelo://app?vid=377730c6-0336-4c78-9c46-cdee41ff19a9","ios":"levelo://app?vid=377730c6-0336-4c78-9c46-cdee41ff19a9"},"vehicle_type_id":"4","last_reported":1736593627,"current_range_meters":1600,"station_id":"","pricing_plan_id":"cebpf4jnsgd1na2vs0mg"},{"bike_id":"054cd636-1c92-4b02-9f52-65bb09761079","system_id":"levelo_inurba_marseille","lat":43.27621,"lon":5.36118,"is_reserved":false,"is_disabled":true,"rental_uris":{"android":"levelo://app?vid=054cd636-1c92-4b02-9f52-65bb09761079","ios":"levelo://app?vid=054cd636-1c92-4b02-9f52-65bb09761079"},"vehicle_type_id":"4","last_reported":1736593627,"current_range_meters":38800,"station_id":"ce4bgj92rcd13ifvqbe0","pricing_plan_id":"cebpf4jnsgd1na2vs0mg"},{"bike_id":"266859f2-18fe-482a-8c9f-5bdad982c716","system_id":"levelo_inurba_marseille","lat":43.28056,"lon":5.41133,"is_reserved":false,"is_disabled":true,"rental_uris":{"android":"levelo://app?vid=266859f2-18fe-482a-8c9f-5bdad982c716","ios":"levelo://app?vid=266859f2-18fe-482a-8c9f-5bdad982c716"},"vehicle_type_id":"4","last_reported":1736593627,"current_range_meters":0,"station_id":"","pricing_plan_id":"cebpf4jnsgd1na2vs0mg"},{"bike_id":"fd01bc8c-af59-4352-a996-47a66c3328f9","system_id":"levelo_inurba_marseille","lat":43.29891,"lon":5.38133,"is_reserved":false,"is_disabled":true,"rental_uris":{"android":"levelo://app?vid=fd01bc8c-af59-4352-a996-47a66c3328f9","ios":"levelo://app?vid=fd01bc8c-af59-4352-a996-47a66c3328f9"},"vehicle_type_id":"4","last_reported":1736593627,"current_range_meters":38800,"station_id":"ce4bgj12rcd13ifvqbc0","pricing_plan_id":"cebpf4jnsgd1na2vs0mg"},{"bike_id":"18ea227b-8502-43cc-abb2-25144f23685e","system_id":"levelo_inurba_marseille","lat":43.2842,"lon":5.34997,"is_reserved":false,"is_disabled":false,"rental_uris":{"android":"levelo://app?vid=18ea227b-8502-43cc-abb2-25144f23685e","ios":"levelo://app?vid=18ea227b-8502-43cc-abb2-25144f23685e"},"vehicle_type_id":"4","last_reported":1736593627,"current_range_meters":28800,"station_id":"ce4bhbh2rcd13ifvqepg","pricing_plan_id":"cebpf4jnsgd1na2vs0mg"},{"bike_id":"a0f7c29a-f6c3-438d-b5b6-2d1ad0512a36","system_id":"levelo_inurba_marseille","lat":43.29277,"lon":5.40123,"is_reserved":false,"is_disabled":false,"rental_uris":{"android":"levelo://app?vid=a0f7c29a-f6c3-438d-b5b6-2d1ad0512a36","ios":"levelo://app?vid=a0f7c29a-f6c3-438d-b5b6-2d1ad0512a36"},"vehicle_type_id":"4","last_reported":1736593627,"current_range_meters":14400,"station_id":"ce4bh312rcd13ifvqdk0","pricing_plan_id":"cebpf4jnsgd1na2vs0mg"},{"bike_id":"017a4be0-f9e7-4dbd-8d5b-f9c069e4153a","system_id":"levelo_inurba_marseille","lat":43.26561,"lon":5.3732,"is_reserved":false,"is_disabled":false,"rental_uris":{"android":"levelo://app?vid=017a4be0-f9e7-4dbd-8d5b-f9c069e4153a","ios":"levelo://app?vid=017a4be0-f9e7-4dbd-8d5b-f9c069e4153a"},"vehicle_type_id":"4","last_reported":1736593627,"current_range_meters":6000,"station_id":"ce4bhg12rcd13ifvqf70","pricing_plan_id":"cebpf4jnsgd1na2vs0mg"},{"bike_id":"316f5753-f3e2-4ae9-b9c5-32f244a89ac6","system_id":"levelo_inurba_marseille","lat":43.2721,"lon":5.39197,"is_reserved":false,"is_disabled":false,"rental_uris":{"android":"levelo://app?vid=316f5753-f3e2-4ae9-b9c5-32f244a89ac6","ios":"levelo://app?vid=316f5753-f3e2-4ae9-b9c5-32f244a89ac6"},"vehicle_type_id":"4","last_reported":1736593627,"current_range_meters":28800,"station_id":"ce4bhhp2rcd13ifvqfm0","pricing_plan_id":"cebpf4jnsgd1na2vs0mg"},{"bike_id":"f3eda479-fbc7-483b-af70-e98c73814492","system_id":"levelo_inurba_marseille","lat":43.28865,"lon":5.35839,"is_reserved":false,"is_disabled":false,"rental_uris":{"android":"levelo://app?vid=f3eda479-fbc7-483b-af70-e98c73814492","ios":"levelo://app?vid=f3eda479-fbc7-483b-af70-e98c73814492"},"vehicle_type_id":"4","last_reported":1736593627,"current_range_meters":36000,"station_id":"ce4bhb12rcd13ifvqem0","pricing_plan_id":"cebpf4jnsgd1na2vs0mg"},{"bike_id":"e53ac43a-53d3-47b2-af6c-16783631ac47","system_id":"levelo_inurba_marseille","lat":43.28007,"lon":5.40034,"is_reserved":false,"is_disabled":false,"rental_uris":{"android":"levelo://app?vid=e53ac43a-53d3-47b2-af6c-16783631ac47","ios":"levelo://app?vid=e53ac43a-53d3-47b2-af6c-16783631ac47"},"vehicle_type_id":"4","last_reported":1736593627,"current_range_meters":39200,"station_id":"ce4bho92rcd13ifvqh4g","pricing_plan_id":"cebpf4jnsgd1na2vs0mg"},{"bike_id":"458a1f53-80d3-4da8-b10b-261d3a24c0a6","system_id":"levelo_inurba_marseille","lat":43.31346,"lon":5.3853,"is_reserved":false,"is_disabled":false,"rental_uris":{"android":"levelo://app?vid=458a1f53-80d3-4da8-b10b-261d3a24c0a6","ios":"levelo://app?vid=458a1f53-80d3-4da8-b10b-261d3a24c0a6"},"vehicle_type_id":"4","last_reported":1736593627,"current_range_meters":36800,"station_id":"ce4bgt92rcd13ifvqcf0","pricing_plan_id":"cebpf4jnsgd1na2vs0mg"},{"bike_id":"fa2ca9db-1b78-4239-b60c-fb8c4e90b039","system_id":"levelo_inurba_marseille","lat":43.25495,"lon":5.37651,"is_reserved":false,"is_disabled":false,"rental_uris":{"android":"levelo://app?vid=fa2ca9db-1b78-4239-b60c-fb8c4e90b039","ios":"levelo://app?vid=fa2ca9db-1b78-4239-b60c-fb8c4e90b039"},"vehicle_type_id":"4","last_reported":1736593627,"current_range_meters":16000,"station_id":"ce4bhh12rcd13ifvqff0","pricing_plan_id":"cebpf4jnsgd1na2vs0mg"},{"bike_id":"3055ff65-090b-43eb-9719-79562008f0c6","system_id":"levelo_inurba_marseille","lat":43.29623,"lon":5.40589,"is_reserved":false,"is_disabled":false,"rental_uris":{"android":"levelo://app?vid=3055ff65-090b-43eb-9719-79562008f0c6","ios":"levelo://app?vid=3055ff65-090b-43eb-9719-79562008f0c6"},"vehicle_type_id":"4","last_reported":1736593627,"current_range_meters":39200,"station_id":"ce4bh0h2rcd13ifvqd60","pricing_plan_id":"cebpf4jnsgd1na2vs0mg"},{"bike_id":"c8aef9ab-ffaf-4274-a001-16a43e134b7d","system_id":"levelo_inurba_marseille","lat":43.30855,"lon":5.37793,"is_reserved":false,"is_disabled":false,"rental_uris":{"android":"levelo://app?vid=c8aef9ab-ffaf-4274-a001-16a43e134b7d","ios":"levelo://app?vid=c8aef9ab-ffaf-4274-a001-16a43e134b7d"},"vehicle_type_id":"4","last_reported":1736593627,"current_range_meters":30800,"station_id":"","pricing_plan_id":"cebpf4jnsgd1na2vs0mg"},{"bike_id":"e1cf2823-1b48-4a2a-a96a-bbc41e753ad0","system_id":"levelo_inurba_marseille","lat":43.25885,"lon":5.39896,"is_reserved":false,"is_disabled":false,"rental_uris":{"android":"levelo://app?vid=e1cf2823-1b48-4a2a-a96a-bbc41e753ad0","ios":"levelo://app?vid=e1cf2823-1b48-4a2a-a96a-bbc41e753ad0"},"vehicle_type_id":"4","last_reported":1736593627,"current_range_meters":32800,"station_id":"ce4bhl92rcd13ifvqghg","pricing_plan_id":"cebpf4jnsgd1na2vs0mg"},{"bike_id":"b1be3830-f7c4-4c44-9fd2-9b15b083505e","system_id":"levelo_inurba_marseille","lat":43.29635,"lon":5.37162,"is_reserved":false,"is_disabled":false,"rental_uris":{"android":"levelo://app?vid=b1be3830-f7c4-4c44-9fd2-9b15b083505e","ios":"levelo://app?vid=b1be3830-f7c4-4c44-9fd2-9b15b083505e"},"vehicle_type_id":"4","last_reported":1736593627,"current_range_meters":36000,"station_id":"ce4bgnh2rcd13ifvqc0g","pricing_plan_id":"cebpf4jnsgd1na2vs0mg"},{"bike_id":"202608ea-7e88-48b8-9f28-f8d455b3f31b","system_id":"levelo_inurba_marseille","lat":43.29029,"lon":5.39955,"is_reserved":false,"is_disabled":false,"rental_uris":{"android":"levelo://app?vid=202608ea-7e88-48b8-9f28-f8d455b3f31b","ios":"levelo://app?vid=202608ea-7e88-48b8-9f28-f8d455b3f31b"},"vehicle_type_id":"4","last_reported":1736593627,"current_range_meters":25200,"station_id":"ce4bh392rcd13ifvqdm0","pricing_plan_id":"cebpf4jnsgd1na2vs0mg"},{"bike_id":"7e1aa8be-c5d8-4762-b051-e4859be99d9c","system_id":"levelo_inurba_marseille","lat":43.24598,"lon":5.38979,"is_reserved":false,"is_disabled":false,"rental_uris":{"android":"levelo://app?vid=7e1aa8be-c5d8-4762-b051-e4859be99d9c","ios":"levelo://app?vid=7e1aa8be-c5d8-4762-b051-e4859be99d9c"},"vehicle_type_id":"4","last_reported":1736593627,"current_range_meters":11600,"station_id":"","pricing_plan_id":"cebpf4jnsgd1na2vs0mg"},{"bike_id":"9980ebe4-545a-4ed5-9741-fc0c2e2489b7","system_id":"levelo_inurba_marseille","lat":43.30886,"lon":5.37193,"is_reserved":false,"is_disabled":false,"rental_uris":{"android":"levelo://app?vid=9980ebe4-545a-4ed5-9741-fc0c2e2489b7","ios":"levelo://app?vid=9980ebe4-545a-4ed5-9741-fc0c2e2489b7"},"vehicle_type_id":"4","last_reported":1736593627,"current_range_meters":38400,"station_id":"ce4bguh2rcd13ifvqckg","pricing_plan_id":"cebpf4jnsgd1na2vs0mg"},{"bike_id":"76deb0ec-8bc2-4fc8-aac7-058f86fff530","system_id":"levelo_inurba_marseille","lat":43.32077,"lon":5.41543,"is_reserved":false,"is_disabled":false,"rental_uris":{"android":"levelo://app?vid=76deb0ec-8bc2-4fc8-aac7-058f86fff530","ios":"levelo://app?vid=76deb0ec-8bc2-4fc8-aac7-058f86fff530"},"vehicle_type_id":"4","last_reported":1736593627,"current_range_meters":39200,"station_id":"ce4bhq92rcd13ifvqhkg","pricing_plan_id":"cebpf4jnsgd1na2vs0mg"},{"bike_id":"e9413583-2340-4518-8913-aac8b0d08b2d","system_id":"levelo_inurba_marseille","lat":43.30146,"lon":5.38064,"is_reserved":false,"is_disabled":false,"rental_uris":{"android":"levelo://app?vid=e9413583-2340-4518-8913-aac8b0d08b2d","ios":"levelo://app?vid=e9413583-2340-4518-8913-aac8b0d08b2d"},"vehicle_type_id":"4","last_reported":1736593627,"current_range_meters":35600,"station_id":"ce4bgjp2rcd13ifvqbh0","pricing_plan_id":"cebpf4jnsgd1na2vs0mg"},{"bike_id":"a3fefaf9-4ba7-4bbe-ad11-cda9aaf6b6a6","system_id":"levelo_inurba_marseille","lat":43.31712,"lon":5.43706,"is_reserved":false,"is_disabled":false,"rental_uris":{"android":"levelo://app?vid=a3fefaf9-4ba7-4bbe-ad11-cda9aaf6b6a6","ios":"levelo://app?vid=a3fefaf9-4ba7-4bbe-ad11-cda9aaf6b6a6"},"vehicle_type_id":"4","last_reported":1736593627,"current_range_meters":38800,"station_id":"ce4bhp92rcd13ifvqhcg","pricing_plan_id":"cebpf4jnsgd1na2vs0mg"},{"bike_id":"cfbaf99c-c14a-433d-9b69-8289fb3cd1c5","system_id":"levelo_inurba_marseille","lat":43.269397,"lon":5.402584,"is_reserved":false,"is_disabled":false,"rental_uris":{"android":"levelo://app?vid=cfbaf99c-c14a-433d-9b69-8289fb3cd1c5","ios":"levelo://app?vid=cfbaf99c-c14a-433d-9b69-8289fb3cd1c5"},"vehicle_type_id":"4","last_reported":1736593627,"current_range_meters":39200,"station_id":"cjm6bp8fraef2m0cb0m0","pricing_plan_id":"cebpf4jnsgd1na2vs0mg"},{"bike_id":"b9619dd7-91f7-432e-b0ef-695b4d3f299d","system_id":"levelo_inurba_marseille","lat":43.31986,"lon":5.38161,"is_reserved":false,"is_disabled":false,"rental_uris":{"android":"levelo://app?vid=b9619dd7-91f7-432e-b0ef-695b4d3f299d","ios":"levelo://app?vid=b9619dd7-91f7-432e-b0ef-695b4d3f299d"},"vehicle_type_id":"4","last_reported":1736593627,"current_range_meters":38800,"station_id":"ce4bhr12rcd13ifvqhpg","pricing_plan_id":"cebpf4jnsgd1na2vs0mg"},{"bike_id":"265042f4-3449-455f-a403-1b27570a754a","system_id":"levelo_inurba_marseille","lat":43.29795,"lon":5.38095,"is_reserved":false,"is_disabled":false,"rental_uris":{"android":"levelo://app?vid=265042f4-3449-455f-a403-1b27570a754a","ios":"levelo://app?vid=265042f4-3449-455f-a403-1b27570a754a"},"vehicle_type_id":"4","last_reported":1736593627,"current_range_meters":38400,"station_id":"ce4bgip2rcd13ifvqbb0","pricing_plan_id":"cebpf4jnsgd1na2vs0mg"},{"bike_id":"5d9eed08-78e2-4a38-a095-72f7217e17dd","system_id":"levelo_inurba_marseille","lat":43.30466,"lon":5.37904,"is_reserved":false,"is_disabled":false,"rental_uris":{"android":"levelo://app?vid=5d9eed08-78e2-4a38-a095-72f7217e17dd","ios":"levelo://app?vid=5d9eed08-78e2-4a38-a095-72f7217e17dd"},"vehicle_type_id":"4","last_reported":1736593627,"current_range_meters":38800,"station_id":"ce4bgup2rcd13ifvqcn0","pricing_plan_id":"cebpf4jnsgd1na2vs0mg"},{"bike_id":"bf0c30dd-5ec2-4ac6-9687-86d9dfededf5","system_id":"levelo_inurba_marseille","lat":43.29634,"lon":5.37718,"is_reserved":false,"is_disabled":false,"rental_uris":{"android":"levelo://app?vid=bf0c30dd-5ec2-4ac6-9687-86d9dfededf5","ios":"levelo://app?vid=bf0c30dd-5ec2-4ac6-9687-86d9dfededf5"},"vehicle_type_id":"4","last_reported":1736593627,"current_range_meters":37600,"station_id":"ce4bgi92rcd13ifvqb90","pricing_plan_id":"cebpf4jnsgd1na2vs0mg"},{"bike_id":"ca2450e7-5c66-4bdc-b528-943118702b91","system_id":"levelo_inurba_marseille","lat":43.33735,"lon":5.39176,"is_reserved":false,"is_disabled":false,"rental_uris":{"android":"levelo://app?vid=ca2450e7-5c66-4bdc-b528-943118702b91","ios":"levelo://app?vid=ca2450e7-5c66-4bdc-b528-943118702b91"},"vehicle_type_id":"4","last_reported":1736593627,"current_range_meters":38800,"station_id":"ce4bhr92rcd13ifvqhsg","pricing_plan_id":"cebpf4jnsgd1na2vs0mg"},{"bike_id":"746e04e5-5178-4467-b1da-f65f7301e67c","system_id":"levelo_inurba_marseille","lat":43.28441,"lon":5.39208,"is_reserved":false,"is_disabled":false,"rental_uris":{"android":"levelo://app?vid=746e04e5-5178-4467-b1da-f65f7301e67c","ios":"levelo://app?vid=746e04e5-5178-4467-b1da-f65f7301e67c"},"vehicle_type_id":"4","last_reported":1736593627,"current_range_meters":16400,"station_id":"ce4bhoh2rcd13ifvqh5g","pricing_plan_id":"cebpf4jnsgd1na2vs0mg"},{"bike_id":"9417f5e2-fd0d-41fb-a081-845b7126b20e","system_id":"levelo_inurba_marseille","lat":43.28827,"lon":5.3588,"is_reserved":false,"is_disabled":false,"rental_uris":{"android":"levelo://app?vid=9417f5e2-fd0d-41fb-a081-845b7126b20e","ios":"levelo://app?vid=9417f5e2-fd0d-41fb-a081-845b7126b20e"},"vehicle_type_id":"4","last_reported":1736593627,"current_range_meters":38400,"station_id":"ce4bhb12rcd13ifvqem0","pricing_plan_id":"cebpf4jnsgd1na2vs0mg"},{"bike_id":"c5c40bd5-a97f-43f4-9a85-295622de6544","system_id":"levelo_inurba_marseille","lat":43.31077,"lon":5.42429,"is_reserved":false,"is_disabled":false,"rental_uris":{"android":"levelo://app?vid=c5c40bd5-a97f-43f4-9a85-295622de6544","ios":"levelo://app?vid=c5c40bd5-a97f-43f4-9a85-295622de6544"},"vehicle_type_id":"4","last_reported":1736593627,"current_range_meters":36800,"station_id":"ce4bhp92rcd13ifvqhag","pricing_plan_id":"cebpf4jnsgd1na2vs0mg"},{"bike_id":"88f21a54-324d-495d-b990-851e511e45ff","system_id":"levelo_inurba_marseille","lat":43.30799,"lon":5.3765,"is_reserved":false,"is_disabled":false,"rental_uris":{"android":"levelo://app?vid=88f21a54-324d-495d-b990-851e511e45ff","ios":"levelo://app?vid=88f21a54-324d-495d-b990-851e511e45ff"},"vehicle_type_id":"4","last_reported":1736593627,"current_range_meters":36800,"station_id":"ce4bgv92rcd13ifvqcq0","pricing_plan_id":"cebpf4jnsgd1na2vs0mg"},{"bike_id":"4b8448c3-96b4-48aa-a7e6-39d25b2f5fbc","system_id":"levelo_inurba_marseille","lat":43.30538,"lon":5.36556,"is_reserved":false,"is_disabled":false,"rental_uris":{"android":"levelo://app?vid=4b8448c3-96b4-48aa-a7e6-39d25b2f5fbc","ios":"levelo://app?vid=4b8448c3-96b4-48aa-a7e6-39d25b2f5fbc"},"vehicle_type_id":"4","last_reported":1736593627,"current_range_meters":16400,"station_id":"ce4bgs12rcd13ifvqcag","pricing_plan_id":"cebpf4jnsgd1na2vs0mg"},{"bike_id":"89ee1823-1724-495d-a752-8f3a9c254a6a","system_id":"levelo_inurba_marseille","lat":43.30949,"lon":5.39047,"is_reserved":false,"is_disabled":false,"rental_uris":{"android":"levelo://app?vid=89ee1823-1724-495d-a752-8f3a9c254a6a","ios":"levelo://app?vid=89ee1823-1724-495d-a752-8f3a9c254a6a"},"vehicle_type_id":"4","last_reported":1736593627,"current_range_meters":6000,"station_id":"ce4bgup2rcd13ifvqco0","pricing_plan_id":"cebpf4jnsgd1na2vs0mg"},