{"last_updated":1752822942,"ttl":60,"version":"2.2","data":{"bikes":[{"bike_id":"53b742a7-31ae-4272-9bba-7740339e2a2f","system_id":"levelo_inurba_marseille","lat":43.33747,"lon":5.37463,"is_reserved":false,"is_disabled":false,"rental_uris":{"android":"levelo://app?vid=53b742a7-31ae-4272-9bba-7740339e2a2f","ios":"levelo://app?vid=53b742a7-31ae-4272-9bba-7740339e2a2f"},"vehicle_type_id":"1","last_reported":1752822942,"current_range_meters":20800,"station_id":"","pricing_plan_id":"cebpf4jnsgd1na2vs0mg"},{"bike_id":"56fdebf4-3d79-4044-b475-6c29cffe3a78","system_id":"levelo_inurba_marseille","lat":43.25724,"lon":5.411,"is_reserved":false,"is_disabled":false,"rental_uris":{"android":"levelo://app?vid=56fdebf4-3d79-4044-b475-6c29cffe3a78","ios":"levelo://app?vid=56fdebf4-3d79-4044-b475-6c29cffe3a78"},"vehicle_type_id":"4","last_reported":1752822942,"current_range_meters":2800,"station_id":"ce4bhkp2rcd13ifvqgd0","pricing_plan_id":"cebpf4jnsgd1na2vs0mg"},{"bike_id":"13432d55-09a9-4455-bb68-b6d1612ed8bf","system_id":"levelo_inurba_marseille","lat":43.30307,"lon":5.36892,"is_reserved":false,"is_disabled":false,"rental_uris":{"android":"levelo://app?vid=13432d55-09a9-4455-bb68-b6d1612ed8bf","ios":"levelo://app?vid=13432d55-09a9-4455-bb68-b6d1612ed8bf"},"vehicle_type_id":"4","last_reported":1752822942,"current_range_meters":2800,"station_id":"ce4bgqh2rcd13ifvqc5g","pricing_plan_id":"cebpf4jnsgd1na2vs0mg"},{"bike_id":"9eb11d44-370d-464b-b78f-5461a3b04cc3","system_id":"levelo_inurba_marseille","lat":43.310775,"lon":5.383335,"is_reserved":false,"is_disabled":true,"rental_uris":{"android":"levelo://app?vid=9eb11d44-370d-464b-b78f-5461a3b04cc3","ios":"levelo://app?vid=9eb11d44-370d-464b-b78f-5461a3b04cc3"},"vehicle_type_id":"4","last_reported":1752822942,"current_range_meters":3200,"station_id":"ce4bgv92rcd13ifvqcr0","pricing_plan_id":"cebpf4jnsgd1na2vs0mg"},{"bike_id":"d7b66a69-6c98-4e2d-b675-1fae3aa944d5","system_id":"levelo_inurba_marseille","lat":43.30131,"lon":5.38076,"is_reserved":false,"is_disabled":false,"rental_uris":{"android":"levelo://app?vid=d7b66a69-6c98-4e2d-b675-1fae3aa944d5","ios":"levelo://app?vid=d7b66a69-6c98-4e2d-b675-1fae3aa944d5"},"vehicle_type_id":"4","last_reported":1752822942,"current_range_meters":3600,"station_id":"ce4bgjp2rcd13ifvqbh0","pricing_plan_id":"cebpf4jnsgd1na2vs0mg"},{"bike_id":"3051449b-679c-47d5-9495-432a16a18d79","system_id":"levelo_inurba_marseille","lat":43.28382,"lon":5.38444,"is_reserved":false,"is_disabled":false,"rental_uris":{"android":"levelo://app?vid=3051449b-679c-47d5-9495-432a16a18d79","ios":"levelo://app?vid=3051449b-679c-47d5-9495-432a16a18d79"},"vehicle_type_id":"4","last_reported":1752822942,"current_range_meters":3600,"station_id":"","pricing_plan_id":"cebpf4jnsgd1na2vs0mg"},{"bike_id":"6e8b879f-49ac-4856-9801-bee1e71540c4","system_id":"levelo_inurba_marseille","lat":43.24994,"lon":5.38932,"is_reserved":false,"is_disabled":false,"rental_uris":{"android":"levelo://app?vid=6e8b879f-49ac-4856-9801-bee1e71540c4","ios":"levelo://app?vid=6e8b879f-49ac-4856-9801-bee1e71540c4"},"vehicle_type_id":"4","last_reported":1752822942,"current_range_meters":3600,"station_id":"ce4bhgp2rcd13ifvqfd0","pricing_plan_id":"cebpf4jnsgd1na2vs0mg"},{"bike_id":"9b983459-406f-4b32-ba08-0c5c5fc9d4ad","system_id":"levelo_inurba_marseille","lat":43.29574,"lon":5.38735,"is_reserved":false,"is_disabled":false,"rental_uris":{"android":"levelo://app?vid=9b983459-406f-4b32-ba08-0c5c5fc9d4ad","ios":"levelo://app?vid=9b983459-406f-4b32-ba08-0c5c5fc9d4ad"},"vehicle_type_id":"4","last_reported":1752822942,"current_range_meters":4000,"station_id":"","pricing_plan_id":"cebpf4jnsgd1na2vs0mg"},{"bike_id":"48976cd6-9de6-4a87-a48e-1ad4d0acc8e5","system_id":"levelo_inurba_marseille","lat":43.27815,"lon":5.40703,"is_reserved":false,"is_disabled":false,"rental_uris":{"android":"levelo://app?vid=48976cd6-9de6-4a87-a48e-1ad4d0acc8e5","ios":"levelo://app?vid=48976cd6-9de6-4a87-a48e-1ad4d0acc8e5"},"vehicle_type_id":"4","last_reported":1752822942,"current_range_meters":3600,"station_id":"ce4bhnh2rcd13ifvqgtg","pricing_plan_id":"cebpf4jnsgd1na2vs0mg"},{"bike_id":"b2e44439-0b96-4c59-aa4c-1e2ede153dd3","system_id":"levelo_inurba_marseille","lat":43.28341,"lon":5.38105,"is_reserved":false,"is_disabled":false,"rental_uris":{"android":"levelo://app?vid=b2e44439-0b96-4c59-aa4c-1e2ede153dd3","ios":"levelo://app?vid=b2e44439-0b96-4c59-aa4c-1e2ede153dd3"},"vehicle_type_id":"4","last_reported":1752822942,"current_range_meters":4000,"station_id":"ce4bh412rcd13ifvqdr0","pricing_plan_id":"cebpf4jnsgd1na2vs0mg"},{"bike_id":"da581d50-8a7a-4fd1-b852-3e78907ad563","system_id":"levelo_inurba_marseille","lat":43.32458,"lon":5.4088,"is_reserved":false,"is_disabled":false,"rental_uris":{"android":"levelo://app?vid=da581d50-8a7a-4fd1-b852-3e78907ad563","ios":"levelo://app?vid=da581d50-8a7a-4fd1-b852-3e78907ad563"},"vehicle_type_id":"4","last_reported":1752822942,"current_range_meters":4800,"station_id":"","pricing_plan_id":"cebpf4jnsgd1na2vs0mg"},{"bike_id":"51de7427-7c78-40b8-b137-52d7c01a1b54","system_id":"levelo_inurba_marseille","lat":43.29888,"lon":5.43657,"is_reserved":false,"is_disabled":false,"rental_uris":{"android":"levelo://app?vid=51de7427-7c78-40b8-b137-52d7c01a1b54","ios":"levelo://app?vid=51de7427-7c78-40b8-b137-52d7c01a1b54"},"vehicle_type_id":"4","last_reported":1752822942,"current_range_meters":4800,"station_id":"ce4bhpp2rcd13ifvqhfg","pricing_plan_id":"cebpf4jnsgd1na2vs0mg"},{"bike_id":"94b69e40-3760-41cd-8465-f1e4ad4bb7be","system_id":"levelo_inurba_marseille","lat":43.31329,"lon":5.36707,"is_reserved":false,"is_disabled":false,"rental_uris":{"android":"levelo://app?vid=94b69e40-3760-41cd-8465-f1e4ad4bb7be","ios":"levelo://app?vid=94b69e40-3760-41cd-8465-f1e4ad4bb7be"},"vehicle_type_id":"4","last_reported":1752822942,"current_range_meters":6400,"station_id":"ce4bgr92rcd13ifvqc6g","pricing_plan_id":"cebpf4jnsgd1na2vs0mg"},{"bike_id":"f6c43935-e197-44e4-be3e-2339266e7c07","system_id":"levelo_inurba_marseille","lat":43.24386,"lon":5.37061,"is_reserved":false,"is_disabled":false,"rental_uris":{"android":"levelo://app?vid=f6c43935-e197-44e4-be3e-2339266e7c07","ios":"levelo://app?vid=f6c43935-e197-44e4-be3e-2339266e7c07"},"vehicle_type_id":"4","last_reported":1752822942,"current_range_meters":6400,"station_id":"ce4bhhh2rcd13ifvqfk0","pricing_plan_id":"cebpf4jnsgd1na2vs0mg"},{"bike_id":"7e15bd0c-124a-4838-9659-201a01f3e407","system_id":"levelo_inurba_marseille","lat":43.28468,"lon":5.35886,"is_reserved":false,"is_disabled":true,"rental_uris":{"android":"levelo://app?vid=7e15bd0c-124a-4838-9659-201a01f3e407","ios":"levelo://app?vid=7e15bd0c-124a-4838-9659-201a01f3e407"},"vehicle_type_id":"4","last_reported":1752822942,"current_range_meters":6400,"station_id":"ce4bhah2rcd13ifvqei0","pricing_plan_id":"cebpf4jnsgd1na2vs0mg"},{"bike_id":"553c9e5c-e966-4f9b-83b4-39b4716b0d31","system_id":"levelo_inurba_marseille","lat":43.26211,"lon":5.37443,"is_reserved":false,"is_disabled":false,"rental_uris":{"android":"levelo://app?vid=553c9e5c-e966-4f9b-83b4-39b4716b0d31","ios":"levelo://app?vid=553c9e5c-e966-4f9b-83b4-39b4716b0d31"},"vehicle_type_id":"4","last_reported":1752822942,"current_range_meters":6400,"station_id":"ce4bhgp2rcd13ifvqfc0","pricing_plan_id":"cebpf4jnsgd1na2vs0mg"},{"bike_id":"a4fd652b-34f8-4c68-a6e6-032a5cc5e418","system_id":"levelo_inurba_marseille","lat":43.31228,"lon":5.36853,"is_reserved":false,"is_disabled":false,"rental_uris":{"android":"levelo://app?vid=a4fd652b-34f8-4c68-a6e6-032a5cc5e418","ios":"levelo://app?vid=a4fd652b-34f8-4c68-a6e6-032a5cc5e418"},"vehicle_type_id":"4","last_reported":1752822942,"current_range_meters":6800,"station_id":"ce4bgl92rcd13ifvqbq0","pricing_plan_id":"cebpf4jnsgd1na2vs0mg"},{"bike_id":"cdd3f872-c163-4a9b-b6e7-dc0ffbad63b6","system_id":"levelo_inurba_marseille","lat":43.32489,"lon":5.3657,"is_reserved":false,"is_disabled":false,"rental_uris":{"android":"levelo://app?vid=cdd3f872-c163-4a9b-b6e7-dc0ffbad63b6","ios":"levelo://app?vid=cdd3f872-c163-4a9b-b6e7-dc0ffbad63b6"},"vehicle_type_id":"4","last_reported":1752822942,"current_range_meters":6800,"station_id":"ce4bhs12rcd13ifvqhvg","pricing_plan_id":"cebpf4jnsgd1na2vs0mg"},{"bike_id":"080b0f22-14dd-4044-a18f-ee7f74366cea","system_id":"levelo_inurba_marseille","lat":43.31982,"lon":5.38148,"is_reserved":false,"is_disabled":false,"rental_uris":{"android":"levelo://app?vid=080b0f22-14dd-4044-a18f-ee7f74366cea","ios":"levelo://app?vid=080b0f22-14dd-4044-a18f-ee7f74366cea"},"vehicle_type_id":"4","last_reported":1752822942,"current_range_meters":6800,"station_id":"ce4bhr12rcd13ifvqhpg","pricing_plan_id":"cebpf4jnsgd1na2vs0mg"},{"bike_id":"12f5fa60-b118-4800-95fc-65645cae8722","system_id":"levelo_inurba_marseille","lat":43.29572,"lon":5.37516,"is_reserved":false,"is_disabled":false,"rental_uris":{"android":"levelo://app?vid=12f5fa60-b118-4800-95fc-65645cae8722","ios":"levelo://app?vid=12f5fa60-b118-4800-95fc-65645cae8722"},"vehicle_type_id":"4","last_reported":1752822942,"current_range_meters":6800,"station_id":"ce4bgh92rcd13ifvqb50","pricing_plan_id":"cebpf4jnsgd1na2vs0mg"},{"bike_id":"f1a7f3b0-3bad-4ded-bc92-3fb1685f68ed","system_id":"levelo_inurba_marseille","lat":43.29684,"lon":5.37614,"is_reserved":false,"is_disabled":true,"rental_uris":{"android":"levelo://app?vid=f1a7f3b0-3bad-4ded-bc92-3fb1685f68ed","ios":"levelo://app?vid=f1a7f3b0-3bad-4ded-bc92-3fb1685f68ed"},"vehicle_type_id":"4","last_reported":1752822942,"current_range_meters":7200,"station_id":"","pricing_plan_id":"cebpf4jnsgd1na2vs0mg"},{"bike_id":"1a5ead61-4759-46a6-9db2-43ae0434cd80","system_id":"levelo_inurba_marseille","lat":43.27912,"lon":5.39573,"is_reserved":false,"is_disabled":false,"rental_uris":{"android":"levelo://app?vid=1a5ead61-4759-46a6-9db2-43ae0434cd80","ios":"levelo://app?vid=1a5ead61-4759-46a6-9db2-43ae0434cd80"},"vehicle_type_id":"4","last_reported":1752822942,"current_range_meters":7200,"station_id":"ce4bhf92rcd13ifvqf40","pricing_plan_id":"cebpf4jnsgd1na2vs0mg"},{"bike_id":"b090fe58-080e-4930-b276-860283a23135","system_id":"levelo_inurba_marseille","lat":43.27431,"lon":5.39419,"is_reserved":false,"is_disabled":false,"rental_uris":{"android":"levelo://app?vid=b090fe58-080e-4930-b276-860283a23135","ios":"levelo://app?vid=b090fe58-080e-4930-b276-860283a23135"},"vehicle_type_id":"4","last_reported":1752822942,"current_range_meters":6800,"station_id":"ce4bhdp2rcd13ifvqf20","pricing_plan_id":"cebpf4jnsgd1na2vs0mg"},{"bike_id":"83b3c9b8-d66e-43ea-82d7-ef2eeaff7945","system_id":"levelo_inurba_marseille","lat":43.267877,"lon":5.394203,"is_reserved":false,"is_disabled":false,"rental_uris":{"android":"levelo://app?vid=83b3c9b8-d66e-43ea-82d7-ef2eeaff7945","ios":"levelo://app?vid=83b3c9b8-d66e-43ea-82d7-ef2eeaff7945"},"vehicle_type_id":"4","last_reported":1752822942,"current_range_meters":7200,"station_id":"ce4bhh12rcd13ifvqfg0","pricing_plan_id":"cebpf4jnsgd1na2vs0mg"},{"bike_id":"ac4cd317-844f-4cbf-9ca2-357167e9820a","system_id":"levelo_inurba_marseille","lat":43.29517,"lon":5.3751,"is_reserved":false,"is_disabled":false,"rental_uris":{"android":"levelo://app?vid=ac4cd317-844f-4cbf-9ca2-357167e9820a","ios":"levelo://app?vid=ac4cd317-844f-4cbf-9ca2-357167e9820a"},"vehicle_type_id":"4","last_reported":1752822942,"current_range_meters":7200,"station_id":"ce4bgkp2rcd13ifvqbmg","pricing_plan_id":"cebpf4jnsgd1na2vs0mg"},{"bike_id":"3520e4b0-8195-4051-9b49-97d1206f7401","system_id":"levelo_inurba_marseille","lat":43.29306,"lon":5.37434,"is_reserved":false,"is_disabled":false,"rental_uris":{"android":"levelo://app?vid=3520e4b0-8195-4051-9b49-97d1206f7401","ios":"levelo://app?vid=3520e4b0-8195-4051-9b49-97d1206f7401"},"vehicle_type_id":"4","last_reported":1752822942,"current_range_meters":8000,"station_id":"ce4bgi12rcd13ifvqb70","pricing_plan_id":"cebpf4jnsgd1na2vs0mg"},{"bike_id":"81f88721-00d0-431c-83bf-446e11578408","system_id":"levelo_inurba_marseille","lat":43.225044,"lon":5.347758,"is_reserved":false,"is_disabled":false,"rental_uris":{"android":"levelo://app?vid=81f88721-00d0-431c-83bf-446e11578408","ios":"levelo://app?vid=81f88721-00d0-431c-83bf-446e11578408"},"vehicle_type_id":"4","last_reported":1752822942,"current_range_meters":8000,"station_id":"st_cvj5dfep6f1abm77gieg","pricing_plan_id":"cebpf4jnsgd1na2vs0mg"},{"bike_id":"8d8e8b07-15b4-4581-8dcb-7c27817b5393","system_id":"levelo_inurba_marseille","lat":43.29308,"lon":5.3717,"is_reserved":false,"is_disabled":false,"rental_uris":{"android":"levelo://app?vid=8d8e8b07-15b4-4581-8dcb-7c27817b5393","ios":"levelo://app?vid=8d8e8b07-15b4-4581-8dcb-7c27817b5393"},"vehicle_type_id":"4","last_reported":1752822942,"current_range_meters":8400,"station_id":"ce4bgh92rcd13ifvqb40","pricing_plan_id":"cebpf4jnsgd1na2vs0mg"},{"bike_id":"80475e24-e1ef-401f-9227-3823a57104e9","system_id":"levelo_inurba_marseille","lat":43.26676,"lon":5.38267,"is_reserved":false,"is_disabled":false,"rental_uris":{"android":"levelo://app?vid=80475e24-e1ef-401f-9227-3823a57104e9","ios":"levelo://app?vid=80475e24-e1ef-401f-9227-3823a57104e9"},"vehicle_type_id":"4","last_reported":1752822942,"current_range_meters":8400,"station_id":"ce4bhg92rcd13ifvqf90","pricing_plan_id":"cebpf4jnsgd1na2vs0mg"},{"bike_id":"86a73bc4-49ea-43f5-bdb6-90fc53026569","system_id":"levelo_inurba_marseille","lat":43.32479,"lon":5.36554,"is_reserved":false,"is_disabled":false,"rental_uris":{"android":"levelo://app?vid=86a73bc4-49ea-43f5-bdb6-90fc53026569","ios":"levelo://app?vid=86a73bc4-49ea-43f5-bdb6-90fc53026569"},"vehicle_type_id":"4","last_reported":1752822942,"current_range_meters":8400,"station_id":"ce4bhs12rcd13ifvqhvg","pricing_plan_id":"cebpf4jnsgd1na2vs0mg"},{"bike_id":"0b4aeec2-26f8-4cc4-b7a9-87e25034d77d","system_id":"levelo_inurba_marseille","lat":43.30382,"lon":5.42491,"is_reserved":false,"is_disabled":true,"rental_uris":{"android":"levelo://app?vid=0b4aeec2-26f8-4cc4-b7a9-87e25034d77d","ios":"levelo://app?vid=0b4aeec2-26f8-4cc4-b7a9-87e25034d77d"},"vehicle_type_id":"4","last_reported":1752822942,"current_range_meters":8400,"station_id":"ce4bhoh2rcd13ifvqh6g","pricing_plan_id":"cebpf4jnsgd1na2vs0mg"},{"bike_id":"73cba1e4-d5a3-46b8-b4f6-881a2e9f3382","system_id":"levelo_inurba_marseille","lat":43.29575,"lon":5.37522,"is_reserved":false,"is_disabled":false,"rental_uris":{"android":"levelo://app?vid=73cba1e4-d5a3-46b8-b4f6-881a2e9f3382","ios":"levelo://app?vid=73cba1e4-d5a3-46b8-b4f6-881a2e9f3382"},"vehicle_type_id":"4","last_reported":1752822942,"current_range_meters":8400,"station_id":"ce4bgh92rcd13ifvqb50","pricing_plan_id":"cebpf4jnsgd1na2vs0mg"},{"bike_id":"4fcbc793-825f-4081-95c8-77b7c6037c8e","system_id":"levelo_inurba_marseille","lat":43.30318,"lon":5.40453,"is_reserved":false,"is_disabled":false,"rental_uris":{"android":"levelo://app?vid=4fcbc793-825f-4081-95c8-77b7c6037c8e","ios":"levelo://app?vid=4fcbc793-825f-4081-95c8-77b7c6037c8e"},"vehicle_type_id":"4","last_reported":1752822942,"current_range_meters":8400,"station_id":"ce4bh012rcd13ifvqd10","pricing_plan_id":"cebpf4jnsgd1na2vs0mg"},{"bike_id":"f8225e6c-77e9-4e00-9364-07cc0c9d62a6","system_id":"levelo_inurba_marseille","lat":43.29104,"lon":5.38147,"is_reserved":false,"is_disabled":true,"rental_uris":{"android":"levelo://app?vid=f8225e6c-77e9-4e00-9364-07cc0c9d62a6","ios":"levelo://app?vid=f8225e6c-77e9-4e00-9364-07cc0c9d62a6"},"vehicle_type_id":"4","last_reported":1752822942,"current_range_meters":8800,"station_id":"ce4bh512rcd13ifvqe2g","pricing_plan_id":"cebpf4jnsgd1na2vs0mg"},{"bike_id":"a03fc55f-e337-4e33-8a6e-8c173e415b91","system_id":"levelo_inurba_marseille","lat":43.307833,"lon":5.376535,"is_reserved":false,"is_disabled":true,"rental_uris":{"android":"levelo://app?vid=a03fc55f-e337-4e33-8a6e-8c173e415b91","ios":"levelo://app?vid=a03fc55f-e337-4e33-8a6e-8c173e415b91"},"vehicle_type_id":"4","last_reported":1752822942,"current_range_meters":8800,"station_id":"","pricing_plan_id":"cebpf4jnsgd1na2vs0mg"},{"bike_id":"4d45f1e9-194f-47b9-b021-5eab9e1c0b12","system_id":"levelo_inurba_marseille","lat":43.31268,"lon":5.3686,"is_reserved":false,"is_disabled":false,"rental_uris":{"android":"levelo://app?vid=4d45f1e9-194f-47b9-b021-5eab9e1c0b12","ios":"levelo://app?vid=4d45f1e9-194f-47b9-b021-5eab9e1c0b12"},"vehicle_type_id":"4","last_reported":1752822942,"current_range_meters":8800,"station_id":"ce4bgl92rcd13ifvqbq0","pricing_plan_id":"cebpf4jnsgd1na2vs0mg"},{"bike_id":"555bc53e-5286-4fb6-9154-af42b3fd9792","system_id":"levelo_inurba_marseille","lat":43.300706,"lon":5.372838,"is_reserved":false,"is_disabled":false,"rental_uris":{"android":"levelo://app?vid=555bc53e-5286-4fb6-9154-af42b3fd9792","ios":"levelo://app?vid=555bc53e-5286-4fb6-9154-af42b3fd9792"},"vehicle_type_id":"4","last_reported":1752822942,"current_range_meters":8800,"station_id":"","pricing_plan_id":"cebpf4jnsgd1na2vs0mg"},{"bike_id":"b2a298e9-19e9-4d30-9a09-a4722cdf6a7b","system_id":"levelo_inurba_marseille","lat":43.211918,"lon":5.350755,"is_reserved":false,"is_disabled":false,"rental_uris":{"android":"levelo://app?vid=b2a298e9-19e9-4d30-9a09-a4722cdf6a7b","ios":"levelo://app?vid=b2a298e9-19e9-4d30-9a09-a4722cdf6a7b"},"vehicle_type_id":"4","last_reported":1752822942,"current_range_meters":9200,"station_id":"st_cvj6sg6p6f1abm77japg","pricing_plan_id":"cebpf4jnsgd1na2vs0mg"},{"bike_id":"04d15a50-cb94-495c-969c-c09473f1fcda","system_id":"levelo_inurba_marseille","lat":43.296223,"lon":5.377025,"is_reserved":false,"is_disabled":false,"rental_uris":{"android":"levelo://app?vid=04d15a50-cb94-495c-969c-c09473f1fcda","ios":"levelo://app?vid=04d15a50-cb94-495c-969c-c09473f1fcda"},"vehicle_type_id":"4","last_reported":1752822942,"current_range_meters":9200,"station_id":"","pricing_plan_id":"cebpf4jnsgd1na2vs0mg"},{"bike_id":"8e6e1ca6-9684-4865-bcc2-4f4c40c74eff","system_id":"levelo_inurba_marseille","lat":43.2966,"lon":5.38751,"is_reserved":false,"is_disabled":false,"rental_uris":{"android":"levelo://app?vid=8e6e1ca6-9684-4865-bcc2-4f4c40c74eff","ios":"levelo://app?vid=8e6e1ca6-9684-4865-bcc2-4f4c40c74eff"},"vehicle_type_id":"4","last_reported":1752822942,"current_range_meters":9200,"station_id":"","pricing_plan_id":"cebpf4jnsgd1na2vs0mg"},{"bike_id":"ab364a6a-8707-4850-998e-f068bde0f46c","system_id":"levelo_inurba_marseille","lat":43.270691,"lon":5.422817,"is_reserved":false,"is_disabled":false,"rental_uris":{"android":"levelo://app?vid=ab364a6a-8707-4850-998e-f068bde0f46c","ios":"levelo://app?vid=ab364a6a-8707-4850-998e-f068bde0f46c"},"vehicle_type_id":"4","last_reported":1752822942,"current_range_meters":9200,"station_id":"ce4bhk92rcd13ifvqgb0","pricing_plan_id":"cebpf4jnsgd1na2vs0mg"},{"bike_id":"28d27c17-e6ca-4cec-aec9-f1f6696b8a12","system_id":"levelo_inurba_marseille","lat":43.29894,"lon":5.43641,"is_reserved":false,"is_disabled":true,"rental_uris":{"android":"levelo://app?vid=28d27c17-e6ca-4cec-aec9-f1f6696b8a12","ios":"levelo://app?vid=28d27c17-e6ca-4cec-aec9-f1f6696b8a12"},"vehicle_type_id":"4","last_reported":1752822942,"current_range_meters":9200,"station_id":"ce4bhpp2rcd13ifvqhfg","pricing_plan_id":"cebpf4jnsgd1na2vs0mg"},{"bike_id":"3444bdc6-514a-4ba6-9650-f9073305e33d","system_id":"levelo_inurba_marseille","lat":43.29682,"lon":5.3698,"is_reserved":false,"is_disabled":false,"rental_uris":{"android":"levelo://app?vid=3444bdc6-514a-4ba6-9650-f9073305e33d","ios":"levelo://app?vid=3444bdc6-514a-4ba6-9650-f9073305e33d"},"vehicle_type_id":"4","last_reported":1752822942,"current_range_meters":9600,"station_id":"","pricing_plan_id":"cebpf4jnsgd1na2vs0mg"},{"bike_id":"1a649bb3-9b1e-41e2-9b5a-cd0fefcfdd96","system_id":"levelo_inurba_marseille","lat":43.24667,"lon":5.38161,"is_reserved":false,"is_disabled":false,"rental_uris":{"android":"levelo://app?vid=1a649bb3-9b1e-41e2-9b5a-cd0fefcfdd96","ios":"levelo://app?vid=1a649bb3-9b1e-41e2-9b5a-cd0fefcfdd96"},"vehicle_type_id":"4","last_reported":1752822942,"current_range_meters":9600,"station_id":"","pricing_plan_id":"cebpf4jnsgd1na2vs0mg"},{"bike_id":"90f54ea4-e306-4792-9966-1cc1bc24176c","system_id":"levelo_inurba_marseille","lat":43.26487,"lon":5.3954,"is_reserved":false,"is_disabled":false,"rental_uris":{"android":"levelo://app?vid=90f54ea4-e306-4792-9966-1cc1bc24176c","ios":"levelo://app?vid=90f54ea4-e306-4792-9966-1cc1bc24176c"},"vehicle_type_id":"4","last_reported":1752822942,"current_range_meters":9600,"station_id":"ce4bhi12rcd13ifvqfq0","pricing_plan_id":"cebpf4jnsgd1na2vs0mg"},{"bike_id":"4aff3131-c2f0-49aa-9f71-6988eb132719","system_id":"levelo_inurba_marseille","lat":43.2941,"lon":5.38645,"is_reserved":false,"is_disabled":true,"rental_uris":{"android":"levelo://app?vid=4aff3131-c2f0-49aa-9f71-6988eb132719","ios":"levelo://app?vid=4aff3131-c2f0-49aa-9f71-6988eb132719"},"vehicle_type_id":"4","last_reported":1752822942,"current_range_meters":10000,"station_id":"ce4bh2h2rcd13ifvqdh0","pricing_plan_id":"cebpf4jnsgd1na2vs0mg"},{"bike_id":"fd82ca6c-71b1-4cdd-804d-14091e652fe0","system_id":"levelo_inurba_marseille","lat":43.31365,"lon":5.36691,"is_reserved":false,"is_disabled":false,"rental_uris":{"android":"levelo://app?vid=fd82ca6c-71b1-4cdd-804d-14091e652fe0","ios":"levelo://app?vid=fd82ca6c-71b1-4cdd-804d-14091e652fe0"},"vehicle_type_id":"4","last_reported":1752822942,"current_range_meters":10000,"station_id":"ce4bgr92rcd13ifvqc6g","pricing_plan_id":"cebpf4jnsgd1na2vs0mg"},{"bike_id":"46ba418d-29e7-40ac-845a-614c86e866b4","system_id":"levelo_inurba_marseille","lat":43.31245,"lon":5.36883,"is_reserved":false,"is_disabled":false,"rental_uris":{"android":"levelo://app?vid=46ba418d-29e7-40ac-845a-614c86e866b4","ios":"levelo://app?vid=46ba418d-29e7-40ac-845a-614c86e866b4"},"vehicle_type_id":"4","last_reported":1752822942,"current_range_meters":10000,"station_id":"ce4bgl92rcd13ifvqbq0","pricing_plan_id":"cebpf4jnsgd1na2vs0mg"},{"bike_id":"be2268b3-c073-46b2-b8a7-8b7e96ccff28","system_id":"levelo_inurba_marseille","lat":43.2621,"lon":5.37442,"is_reserved":false,"is_disabled":false,"rental_uris":{"android":"levelo://app?vid=be2268b3-c073-46b2-b8a7-8b7e96ccff28","ios":"levelo://app?vid=be2268b3-c073-46b2-b8a7-8b7e96ccff28"},"vehicle_type_id":"4","last_reported":1752822942,"current_range_meters":10000,"station_id":"ce4bhgp2rcd13ifvqfc0","pricing_plan_id":"cebpf4jnsgd1na2vs0mg"},{"bike_id":"630e276c-c1f0-4d68-9d66-dc970d8081c8","system_id":"levelo_inurba_marseille","lat":43.28421,"lon":5.34987,"is_reserved":false,"is_disabled":false,"rental_uris":{"android":"levelo://app?vid=630e276c-c1f0-4d68-9d66-dc970d8081c8","ios":"levelo://app?vid=630e276c-c1f0-4d68-9d66-dc970d8081c8"},"vehicle_type_id":"4","last_reported":1752822942,"current_range_meters":10000,"station_id":"ce4bhbh2rcd13ifvqepg","pricing_plan_id":"cebpf4jnsgd1na2vs0mg"},{"bike_id":"cda818c1-13a3-4a98-92e1-e121948e0bb3","system_id":"levelo_inurba_marseille","lat":43.32478,"lon":5.36564,"is_reserved":false,"is_disabled":false,"rental_uris":{"android":"levelo://app?vid=cda818c1-13a3-4a98-92e1-e121948e0bb3","ios":"levelo://app?vid=cda818c1-13a3-4a98-92e1-e121948e0bb3"},"vehicle_type_id":"4","last_reported":1752822942,"current_range_meters":10000,"station_id":"ce4bhs12rcd13ifvqhvg","pricing_plan_id":"cebpf4jnsgd1na2vs0mg"},{"bike_id":"ebc4c4fd-b473-4acc-aba0-c8af20542ce3","system_id":"levelo_inurba_marseille","lat":43.30947,"lon":5.39033,"is_reserved":false,"is_disabled":false,"rental_uris":{"android":"levelo://app?vid=ebc4c4fd-b473-4acc-aba0-c8af20542ce3","ios":"levelo://app?vid=ebc4c4fd-b473-4acc-aba0-c8af20542ce3"},"vehicle_type_id":"4","last_reported":1752822942,"current_range_meters":10800,"station_id":"ce4bgup2rcd13ifvqco0","pricing_plan_id":"cebpf4jnsgd1na2vs0mg"},{"bike_id":"07f5ae19-0925-43ef-aab4-48ec58bc62b9","system_id":"levelo_inurba_marseille","lat":43.31452,"lon":5.37431,"is_reserved":false,"is_disabled":false,"rental_uris":{"android":"levelo://app?vid=07f5ae19-0925-43ef-aab4-48ec58bc62b9","ios":"levelo://app?vid=07f5ae19-0925-43ef-aab4-48ec58bc62b9"},"vehicle_type_id":"4","last_reported":1752822942,"current_range_meters":10000,"station_id":"","pricing_plan_id":"cebpf4jnsgd1na2vs0mg"},{"bike_id":"0384e054-eaa2-456c-91c5-6cd4378b973f","system_id":"levelo_inurba_marseille","lat":43.29036,"lon":5.37553,"is_reserved":false,"is_disabled":false,"rental_uris":{"android":"levelo://app?vid=0384e054-eaa2-456c-91c5-6cd4378b973f","ios":"levelo://app?vid=0384e054-eaa2-456c-91c5-6cd4378b973f"},"vehicle_type_id":"4","last_reported":1752822942,"current_range_meters":10000,"station_id":"ce4bh692rcd13ifvqe90","pricing_plan_id":"cebpf4jnsgd1na2vs0mg"},{"bike_id":"d1e94785-07c9-4567-977b-a1d086ccac8d","system_id":"levelo_inurba_marseille","lat":43.29899,"lon":5.436777,"is_reserved":false,"is_disabled":false,"rental_uris":{"android":"levelo://app?vid=d1e94785-07c9-4567-977b-a1d086ccac8d","ios":"levelo://app?vid=d1e94785-07c9-4567-977b-a1d086ccac8d"},"vehicle_type_id":"4","last_reported":1752822942,"current_range_meters":10800,"station_id":"ce4bhpp2rcd13ifvqhfg","pricing_plan_id":"cebpf4jnsgd1na2vs0mg"},{"bike_id":"5b8a91a5-70d8-41f1-90d0-d0206e64e848","system_id":"levelo_inurba_marseille","lat":43.31756,"lon":5.3901,"is_reserved":false,"is_disabled":false,"rental_uris":{"android":"levelo://app?vid=5b8a91a5-70d8-41f1-90d0-d0206e64e848","ios":"levelo://app?vid=5b8a91a5-70d8-41f1-90d0-d0206e64e848"},"vehicle_type_id":"4","last_reported":1752822942,"current_range_meters":10800,"station_id":"ce4bhqp2rcd13ifvqhng","pricing_plan_id":"cebpf4jnsgd1na2vs0mg"},{"bike_id":"57c10aef-3375-4a77-9864-0c2a1301425c","system_id":"levelo_inurba_marseille","lat":43.26222,"lon":5.404568,"is_reserved":false,"is_disabled":false,"rental_uris":{"android":"levelo://app?vid=57c10aef-3375-4a77-9864-0c2a1301425c","ios":"levelo://app?vid=57c10aef-3375-4a77-9864-0c2a1301425c"},"vehicle_type_id":"4","last_reported":1752822942,"current_range_meters":10800,"station_id":"ce4bhmh2rcd13ifvqgmg","pricing_plan_id":"cebpf4jnsgd1na2vs0mg"},{"bike_id":"9a7d48be-c61e-475a-b0bc-8ba0f8ac5c53","system_id":"levelo_inurba_marseille","lat":43.24999,"lon":5.38934,"is_reserved":false,"is_disabled":false,"rental_uris":{"android":"levelo://app?vid=9a7d48be-c61e-475a-b0bc-8ba0f8ac5c53","ios":"levelo://app?vid=9a7d48be-c61e-475a-b0bc-8ba0f8ac5c53"},"vehicle_type_id":"4","last_reported":1752822942,"current_range_meters":10800,"station_id":"ce4bhgp2rcd13ifvqfd0","pricing_plan_id":"cebpf4jnsgd1na2vs0mg"},{"bike_id":"90e5a05b-d9c5-47b7-a47d-a2ec50e35c80","system_id":"levelo_inurba_marseille","lat":43.2694,"lon":5.402437,"is_reserved":false,"is_disabled":false,"rental_uris":{"android":"levelo://app?vid=90e5a05b-d9c5-47b7-a47d-a2ec50e35c80","ios":"levelo://app?vid=90e5a05b-d9c5-47b7-a47d-a2ec50e35c80"},"vehicle_type_id":"4","last_reported":1752822942,"current_range_meters":10800,"station_id":"cjm6bp8fraef2m0cb0m0","pricing_plan_id":"cebpf4jnsgd1na2vs0mg"},{"bike_id":"78274e74-ab73-4fa7-b1a3-d1a684863996","system_id":"levelo_inurba_marseille","lat":43.22485,"lon":5.34785,"is_reserved":false,"is_disabled":false,"rental_uris":{"android":"levelo://app?vid=78274e74-ab73-4fa7-b1a3-d1a684863996","ios":"levelo://app?vid=78274e74-ab73-4fa7-b1a3-d1a684863996"},"vehicle_type_id":"4","last_reported":1752822942,"current_range_meters":10800,"station_id":"st_cvj5dfep6f1abm77gieg","pricing_plan_id":"cebpf4jnsgd1na2vs0mg"},{"bike_id":"7742d09a-bd43-4568-af0b-a847f26ec7eb","system_id":"levelo_inurba_marseille","lat":43.2315,"lon":5.43711,"is_reserved":false,"is_disabled":false,"rental_uris":{"android":"levelo://app?vid=7742d09a-bd43-4568-af0b-a847f26ec7eb","ios":"levelo://app?vid=7742d09a-bd43-4568-af0b-a847f26ec7eb"},"vehicle_type_id":"4","last_reported":1752822942,"current_range_meters":10800,"station_id":"ce4bhmp2rcd13ifvqgog","pricing_plan_id":"cebpf4jnsgd1na2vs0mg"},{"bike_id":"fffad06e-bed8-4e73-ab4a-c4c2e82208b9","system_id":"levelo_inurba_marseille","lat":43.24183,"lon":5.36393,"is_reserved":false,"is_disabled":false,"rental_uris":{"android":"levelo://app?vid=fffad06e-bed8-4e73-ab4a-c4c2e82208b9","ios":"levelo://app?vid=fffad06e-bed8-4e73-ab4a-c4c2e82208b9"},"vehicle_type_id":"4","last_reported":1752822942,"current_range_meters":10800,"station_id":"cpo36qri1sfpv3e86is0","pricing_plan_id":"cebpf4jnsgd1na2vs0mg"},{"bike_id":"aeae5c3b-9ec5-4a60-8fb4-829e4a3adfb0","system_id":"levelo_inurba_marseille","lat":43.30247,"lon":5.40078,"is_reserved":false,"is_disabled":true,"rental_uris":{"android":"levelo://app?vid=aeae5c3b-9ec5-4a60-8fb4-829e4a3adfb0","ios":"levelo://app?vid=aeae5c3b-9ec5-4a60-8fb4-829e4a3adfb0"},"vehicle_type_id":"4","last_reported":1752822942,"current_range_meters":11200,"station_id":"ce4bgvh2rcd13ifvqcs0","pricing_plan_id":"cebpf4jnsgd1na2vs0mg"},{"bike_id":"b861e845-045e-4bb7-9260-06d3fafca4ef","system_id":"levelo_inurba_marseille","lat":43.29895,"lon":5.43642,"is_reserved":false,"is_disabled":false,"rental_uris":{"android":"levelo://app?vid=b861e845-045e-4bb7-9260-06d3fafca4ef","ios":"levelo://app?vid=b861e845-045e-4bb7-9260-06d3fafca4ef"},"vehicle_type_id":"4","last_reported":1752822942,"current_range_meters":11200,"station_id":"ce4bhpp2rcd13ifvqhfg","pricing_plan_id":"cebpf4jnsgd1na2vs0mg"},{"bike_id":"ba3823fb-c6a3-4066-b41a-411ec979f129","system_id":"levelo_inurba_marseille","lat":43.323366,"lon":5.406206,"is_reserved":false,"is_disabled":false,"rental_uris":{"android":"levelo://app?vid=ba3823fb-c6a3-4066-b41a-411ec979f129","ios":"levelo://app?vid=ba3823fb-c6a3-4066-b41a-411ec979f129"},"vehicle_type_id":"4","last_reported":1752822942,"current_range_meters":11200,"station_id":"ce4bhq92rcd13ifvqhjg","pricing_plan_id":"cebpf4jnsgd1na2vs0mg"},{"bike_id":"2c6e34ec-e4ad-4b55-908f-732bdcecdb2f","system_id":"levelo_inurba_marseille","lat":43.212,"lon":5.35052,"is_reserved":false,"is_disabled":false,"rental_uris":{"android":"levelo://app?vid=2c6e34ec-e4ad-4b55-908f-732bdcecdb2f","ios":"levelo://app?vid=2c6e34ec-e4ad-4b55-908f-732bdcecdb2f"},"vehicle_type_id":"4","last_reported":1752822942,"current_range_meters":11600,"station_id":"st_cvj6sg6p6f1abm77japg","pricing_plan_id":"cebpf4jnsgd1na2vs0mg"},{"bike_id":"c4a884fa-f392-4687-844a-0b862b12dbc5","system_id":"levelo_inurba_marseille","lat":43.246515,"lon":5.38893,"is_reserved":false,"is_disabled":false,"rental_uris":{"android":"levelo://app?vid=c4a884fa-f392-4687-844a-0b862b12dbc5","ios":"levelo://app?vid=c4a884fa-f392-4687-844a-0b862b12dbc5"},"vehicle_type_id":"4","last_reported":1752822942,"current_range_meters":11600,"station_id":"ce4bhg12rcd13ifvqf60","pricing_plan_id":"cebpf4jnsgd1na2vs0mg"},{"bike_id":"2ac93549-5c94-4228-8eea-782a21384d10","system_id":"levelo_inurba_marseille","lat":43.29634,"lon":5.37793,"is_reserved":false,"is_disabled":false,"rental_uris":{"android":"levelo://app?vid=2ac93549-5c94-4228-8eea-782a21384d10","ios":"levelo://app?vid=2ac93549-5c94-4228-8eea-782a21384d10"},"vehicle_type_id":"4","last_reported":1752822942,"current_range_meters":11600,"station_id":"","pricing_plan_id":"cebpf4jnsgd1na2vs0mg"},{"bike_id":"0698bc0a-1356-460f-8b6d-fca0137a6217","system_id":"levelo_inurba_marseille","lat":43.21191,"lon":5.35068,"is_reserved":false,"is_disabled":false,"rental_uris":{"android":"levelo://app?vid=0698bc0a-1356-460f-8b6d-fca0137a6217","ios":"levelo://app?vid=0698bc0a-1356-460f-8b6d-fca0137a6217"},"vehicle_type_id":"4","last_reported":1752822942,"current_range_meters":11600,"station_id":"st_cvj6sg6p6f1abm77japg","pricing_plan_id":"cebpf4jnsgd1na2vs0mg"},{"bike_id":"0eb328fc-7155-45df-a8a3-5fbcd6cf1b49","system_id":"levelo_inurba_marseille","lat":43.26179,"lon":5.40382,"is_reserved":false,"is_disabled":false,"rental_uris":{"android":"levelo://app?vid=0eb328fc-7155-45df-a8a3-5fbcd6cf1b49","ios":"levelo://app?vid=0eb328fc-7155-45df-a8a3-5fbcd6cf1b49"},"vehicle_type_id":"4","last_reported":1752822942,"current_range_meters":11600,"station_id":"ce4bhmh2rcd13ifvqgmg","pricing_plan_id":"cebpf4jnsgd1na2vs0mg"},{"bike_id":"a417f781-1005-406a-ab82-713c48503f91","system_id":"levelo_inurba_marseille","lat":43.28488,"lon":5.38411,"is_reserved":false,"is_disabled":false,"rental_uris":{"android":"levelo://app?vid=a417f781-1005-406a-ab82-713c48503f91","ios":"levelo://app?vid=a417f781-1005-406a-ab82-713c48503f91"},"vehicle_type_id":"4","last_reported":1752822942,"current_range_meters":12000,"station_id":"ce4bh512rcd13ifvqe3g","pricing_plan_id":"cebpf4jnsgd1na2vs0mg"},{"bike_id":"c674aab0-0a86-4343-b6ed-b8d8892c6874","system_id":"levelo_inurba_marseille","lat":43.24198,"lon":5.39711,"is_reserved":false,"is_disabled":false,"rental_uris":{"android":"levelo://app?vid=c674aab0-0a86-4343-b6ed-b8d8892c6874","ios":"levelo://app?vid=c674aab0-0a86-4343-b6ed-b8d8892c6874"},"vehicle_type_id":"4","last_reported":1752822942,"current_range_meters":12000,"station_id":"ce4bhn12rcd13ifvqgpg","pricing_plan_id":"cebpf4jnsgd1na2vs0mg"},{"bike_id":"e555b545-304c-4dce-8496-1643c0f2600e","system_id":"levelo_inurba_marseille","lat":43.337444,"lon":5.374475,"is_reserved":false,"is_disabled":false,"rental_uris":{"android":"levelo://app?vid=e555b545-304c-4dce-8496-1643c0f2600e","ios":"levelo://app?vid=e555b545-304c-4dce-8496-1643c0f2600e"},"vehicle_type_id":"4","last_reported":1752822942,"current_range_meters":12000,"station_id":"","pricing_plan_id":"cebpf4jnsgd1na2vs0mg"},{"bike_id":"693ae293-4aa6-4b6e-bf6c-28338dcd79e6","system_id":"levelo_inurba_marseille","lat":43.28465,"lon":5.38421,"is_reserved":false,"is_disabled":false,"rental_uris":{"android":"levelo://app?vid=693ae293-4aa6-4b6e-bf6c-28338dcd79e6","ios":"levelo://app?vid=693ae293-4aa6-4b6e-bf6c-28338dcd79e6"},"vehicle_type_id":"4","last_reported":1752822942,"current_range_meters":11600,"station_id":"ce4bh512rcd13ifvqe3g","pricing_plan_id":"cebpf4jnsgd1na2vs0mg"},{"bike_id":"9c837b99-081f-4caa-a8a3-7d6dc61e9d18","system_id":"levelo_inurba_marseille","lat":43.23063,"lon":5.35502,"is_reserved":false,"is_disabled":false,"rental_uris":{"android":"levelo://app?vid=9c837b99-081f-4caa-a8a3-7d6dc61e9d18","ios":"levelo://app?vid=9c837b99-081f-4caa-a8a3-7d6dc61e9d18"},"vehicle_type_id":"4","last_reported":1752822942,"current_range_meters":12400,"station_id":"cpo3342slgdg3j2ifvpg","pricing_plan_id":"cebpf4jnsgd1na2vs0mg"},{"bike_id":"b9c220fa-ce21-46e5-9c5b-52d91725030b","system_id":"levelo_inurba_marseille","lat":43.22926,"lon":5.35372,"is_reserved":false,"is_disabled":false,"rental_uris":{"android":"levelo://app?vid=b9c220fa-ce21-46e5-9c5b-52d91725030b","ios":"levelo://app?vid=b9c220fa-ce21-46e5-9c5b-52d91725030b"},"vehicle_type_id":"4","last_reported":1752822942,"current_range_meters":12400,"station_id":"cpo3532slgdg3j2ikp40","pricing_plan_id":"cebpf4jnsgd1na2vs0mg"},{"bike_id":"2af1d365-a257-431f-ac13-bba08e594468","system_id":"levelo_inurba_marseille","lat":43.27805,"lon":5.40709,"is_reserved":false,"is_disabled":false,"rental_uris":{"android":"levelo://app?vid=2af1d365-a257-431f-ac13-bba08e594468","ios":"levelo://app?vid=2af1d365-a257-431f-ac13-bba08e594468"},"vehicle_type_id":"4","last_reported":1752822942,"current_range_meters":12400,"station_id":"ce4bhnh2rcd13ifvqgtg","pricing_plan_id":"cebpf4jnsgd1na2vs0mg"},{"bike_id":"31695fe3-ba1a-451d-a7a2-e6e81aefdddc","system_id":"levelo_inurba_marseille","lat":43.286231,"lon":5.350961,"is_reserved":false,"is_disabled":true,"rental_uris":{"android":"levelo://app?vid=31695fe3-ba1a-451d-a7a2-e6e81aefdddc","ios":"levelo://app?vid=31695fe3-ba1a-451d-a7a2-e6e81aefdddc"},"vehicle_type_id":"4","last_reported":1752822942,"current_range_meters":12400,"station_id":"ce4bhch2rcd13ifvqeug","pricing_plan_id":"cebpf4jnsgd1na2vs0mg"},{"bike_id":"9980ee6c-1e79-4af5-9f93-7034618b081a","system_id":"levelo_inurba_marseille","lat":43.305357,"lon":5.36707,"is_reserved":false,"is_disabled":true,"rental_uris":{"android":"levelo://app?vid=9980ee6c-1e79-4af5-9f93-7034618b081a","ios":"levelo://app?vid=9980ee6c-1e79-4af5-9f93-7034618b081a"},"vehicle_type_id":"4","last_reported":1752822942,"current_range_meters":12400,"station_id":"ce4bgrp2rcd13ifvqc9g","pricing_plan_id":"cebpf4jnsgd1na2vs0mg"},{"bike_id":"da891840-0cec-4ccc-961c-48903736c6fa","system_id":"levelo_inurba_marseille","lat":43.31139,"lon":5.37692,"is_reserved":false,"is_disabled":false,"rental_uris":{"android":"levelo://app?vid=da891840-0cec-4ccc-961c-48903736c6fa","ios":"levelo://app?vid=da891840-0cec-4ccc-961c-48903736c6fa"},"vehicle_type_id":"4","last_reported":1752822942,"current_range_meters":12400,"station_id":"","pricing_plan_id":"cebpf4jnsgd1na2vs0mg"},{"bike_id":"d0573d96-ddb4-4622-bd15-49483cac3810","system_id":"levelo_inurba_marseille","lat":43.2586,"lon":5.39894,"is_reserved":false,"is_disabled":false,"rental_uris":{"android":"levelo://app?vid=d0573d96-ddb4-4622-bd15-49483cac3810","ios":"levelo://app?vid=d0573d96-ddb4-4622-bd15-49483cac3810"},"vehicle_type_id":"4","last_reported":1752822942,"current_range_meters":12400,"station_id":"ce4bhl92rcd13ifvqghg","pricing_plan_id":"cebpf4jnsgd1na2vs0mg"},{"bike_id":"cf433a18-a628-4079-816d-0df3b4b56143","system_id":"levelo_inurba_marseille","lat":43.29305,"lon":5.37181,"is_reserved":false,"is_disabled":false,"rental_uris":{"android":"levelo://app?vid=cf433a18-a628-4079-816d-0df3b4b56143","ios":"levelo://app?vid=cf433a18-a628-4079-816d-0df3b4b56143"},"vehicle_type_id":"4","last_reported":1752822942,"current_range_meters":10800,"station_id":"ce4bgh92rcd13ifvqb40","pricing_plan_id":"cebpf4jnsgd1na2vs0mg"},{"bike_id":"aae6b6c2-435c-44bc-92e8-386ba737ce76","system_id":"levelo_inurba_marseille","lat":43.31125,"lon":5.40389,"is_reserved":false,"is_disabled":false,"rental_uris":{"android":"levelo://app?vid=aae6b6c2-435c-44bc-92e8-386ba737ce76","ios":"levelo://app?vid=aae6b6c2-435c-44bc-92e8-386ba737ce76"},"vehicle_type_id":"4","last_reported":1752822942,"current_range_meters":12400,"station_id":"","pricing_plan_id":"cebpf4jnsgd1na2vs0mg"},{"bike_id":"2819abb2-c895-4686-a4c8-192e5cb6704b","system_id":"levelo_inurba_marseille","lat":43.326593,"lon":5.40989,"is_reserved":false,"is_disabled":false,"rental_uris":{"android":"levelo://app?vid=2819abb2-c895-4686-a4c8-192e5cb6704b","ios":"levelo://app?vid=2819abb2-c895-4686-a4c8-192e5cb6704b"},"vehicle_type_id":"4","last_reported":1752822942,"current_range_meters":12400,"station_id":"ce4bhpp2rcd13ifvqhgg","pricing_plan_id":"cebpf4jnsgd1na2vs0mg"},{"bike_id":"531dca68-8617-41b0-a6cd-abffc94e1d45","system_id":"levelo_inurba_marseille","lat":43.312081,"lon":5.373179,"is_reserved":false,"is_disabled":false,"rental_uris":{"android":"levelo://app?vid=531dca68-8617-41b0-a6cd-abffc94e1d45","ios":"levelo://app?vid=531dca68-8617-41b0-a6cd-abffc94e1d45"},"vehicle_type_id":"4","last_reported":1752822942,"current_range_meters":12400,"station_id":"","pricing_plan_id":"cebpf4jnsgd1na2vs0mg"},{"bike_id":"6be86623-c65c-4a0d-b3a4-c58891bfa931","system_id":"levelo_inurba_marseille","lat":43.22497,"lon":5.34779,"is_reserved":false,"is_disabled":false,"rental_uris":{"android":"levelo://app?vid=6be86623-c65c-4a0d-b3a4-c58891bfa931","ios":"levelo://app?vid=6be86623-c65c-4a0d-b3a4-c58891bfa931"},"vehicle_type_id":"4","last_reported":1752822942,"current_range_meters":12800,"station_id":"st_cvj5dfep6f1abm77gieg","pricing_plan_id":"cebpf4jnsgd1na2vs0mg"},{"bike_id":"765c321c-ca8c-4b50-9541-9e3bfde5ff08","system_id":"levelo_inurba_marseille","lat":43.32484,"lon":5.36559,"is_reserved":false,"is_disabled":false,"rental_uris":{"android":"levelo://app?vid=765c321c-ca8c-4b50-9541-9e3bfde5ff08","ios":"levelo://app?vid=765c321c-ca8c-4b50-9541-9e3bfde5ff08"},"vehicle_type_id":"4","last_reported":1752822942,"current_range_meters":12800,"station_id":"ce4bhs12rcd13ifvqhvg","pricing_plan_id":"cebpf4jnsgd1na2vs0mg"},{"bike_id":"db19595c-a8bf-49f1-81a1-6ae2f4d3b0ff","system_id":"levelo_inurba_marseille","lat":43.26929,"lon":5.38911,"is_reserved":false,"is_disabled":false,"rental_uris":{"android":"levelo://app?vid=db19595c-a8bf-49f1-81a1-6ae2f4d3b0ff","ios":"levelo://app?vid=db19595c-a8bf-49f1-81a1-6ae2f4d3b0ff"},"vehicle_type_id":"4","last_reported":1752822942,"current_range_meters":12400,"station_id":"ce4bhhh2rcd13ifvqfl0","pricing_plan_id":"cebpf4jnsgd1na2vs0mg"},{"bike_id":"e54582ed-ba92-4640-a97f-9e97144ce87f","system_id":"levelo_inurba_marseille","lat":43.32268,"lon":5.40656,"is_reserved":false,"is_disabled":false,"rental_uris":{"android":"levelo://app?vid=e54582ed-ba92-4640-a97f-9e97144ce87f","ios":"levelo://app?vid=e54582ed-ba92-4640-a97f-9e97144ce87f"},"vehicle_type_id":"4","last_reported":1752822942,"current_range_meters":12800,"station_id":"","pricing_plan_id":"cebpf4jnsgd1na2vs0mg"},{"bike_id":"168a7671-aba6-4148-ba70-c792dfe2e642","system_id":"levelo_inurba_marseille","lat":43.21188,"lon":5.3507,"is_reserved":false,"is_disabled":false,"rental_uris":{"android":"levelo://app?vid=168a7671-aba6-4148-ba70-c792dfe2e642","ios":"levelo://app?vid=168a7671-aba6-4148-ba70-c792dfe2e642"},"vehicle_type_id":"4","last_reported":1752822942,"current_range_meters":12800,"station_id":"st_cvj6sg6p6f1abm77japg","pricing_plan_id":"cebpf4jnsgd1na2vs0mg"},{"bike_id":"2272a1cb-30d4-47dd-bed5-39b01483f853","system_id":"levelo_inurba_marseille","lat":43.22935,"lon":5.35367,"is_reserved":false,"is_disabled":false,"rental_uris":{"android":"levelo://app?vid=2272a1cb-30d4-47dd-bed5-39b01483f853","ios":"levelo://app?vid=2272a1cb-30d4-47dd-bed5-39b01483f853"},"vehicle_type_id":"4","last_reported":1752822942,"current_range_meters":12800,"station_id":"cpo3532slgdg3j2ikp40","pricing_plan_id":"cebpf4jnsgd1na2vs0mg"},{"bike_id":"265f6bf2-826a-4b61-8353-6ab63b82253a","system_id":"levelo_inurba_marseille","lat":43.25939,"lon":5.40887,"is_reserved":false,"is_disabled":false,"rental_uris":{"android":"levelo://app?vid=265f6bf2-826a-4b61-8353-6ab63b82253a","ios":"levelo://app?vid=265f6bf2-826a-4b61-8353-6ab63b82253a"},"vehicle_type_id":"4","last_reported":1752822942,"current_range_meters":13600,"station_id":"ce4bhm92rcd13ifvqglg","pricing_plan_id":"cebpf4jnsgd1na2vs0mg"},{"bike_id":"0d87ca24-976c-4967-995f-815e40a697aa","system_id":"levelo_inurba_marseille","lat":43.32124,"lon":5.36764,"is_reserved":false,"is_disabled":false,"rental_uris":{"android":"levelo://app?vid=0d87ca24-976c-4967-995f-815e40a697aa","ios":"levelo://app?vid=0d87ca24-976c-4967-995f-815e40a697aa"},"vehicle_type_id":"4","last_reported":1752822942,"current_range_meters":13600,"station_id":"ce4bhrh2rcd13ifvqhug","pricing_plan_id":"cebpf4jnsgd1na2vs0mg"},{"bike_id":"084eace8-045f-4012-9455-c501cad7ce10","system_id":"levelo_inurba_marseille","lat":43.22504,"lon":5.34781,"is_reserved":false,"is_disabled":false,"rental_uris":{"android":"levelo://app?vid=084eace8-045f-4012-9455-c501cad7ce10","ios":"levelo://app?vid=084eace8-045f-4012-9455-c501cad7ce10"},"vehicle_type_id":"4","last_reported":1752822942,"current_range_meters":13600,"station_id":"st_cvj5dfep6f1abm77gieg","pricing_plan_id":"cebpf4jnsgd1na2vs0mg"},{"bike_id":"4c0ea010-fab1-4680-b798-1d8aad58bcd3","system_id":"levelo_inurba_marseille","lat":43.27188,"lon":5.41012,"is_reserved":false,"is_disabled":false,"rental_uris":{"android":"levelo://app?vid=4c0ea010-fab1-4680-b798-1d8aad58bcd3","ios":"levelo://app?vid=4c0ea010-fab1-4680-b798-1d8aad58bcd3"},"vehicle_type_id":"4","last_reported":1752822942,"current_range_meters":13600,"station_id":"ce4bhl12rcd13ifvqgf0","pricing_plan_id":"cebpf4jnsgd1na2vs0mg"},{"bike_id":"9e4abb97-e380-41ad-a9cd-7b2e7b64f3c5","system_id":"levelo_inurba_marseille","lat":43.29168,"lon":5.39821,"is_reserved":false,"is_disabled":false,"rental_uris":{"android":"levelo://app?vid=9e4abb97-e380-41ad-a9cd-7b2e7b64f3c5","ios":"levelo://app?vid=9e4abb97-e380-41ad-a9cd-7b2e7b64f3c5"},"vehicle_type_id":"4","last_reported":1752822942,"current_range_meters":13600,"station_id":"","pricing_plan_id":"cebpf4jnsgd1na2vs0mg"},{"bike_id":"853387fc-a4bd-4d16-a0ff-f56cacf0d90b","system_id":"levelo_inurba_marseille","lat":43.25935,"lon":5.40904,"is_reserved":false,"is_disabled":false,"rental_uris":{"android":"levelo://app?vid=853387fc-a4bd-4d16-a0ff-f56cacf0d90b","ios":"levelo://app?vid=853387fc-a4bd-4d16-a0ff-f56cacf0d90b"},"vehicle_type_id":"4","last_reported":1752822942,"current_range_meters":14000,"station_id":"ce4bhm92rcd13ifvqglg","pricing_plan_id":"cebpf4jnsgd1na2vs0mg"},{"bike_id":"54d826e6-0cf0-4dc2-9998-67f0ffa2dea7","system_id":"levelo_inurba_marseille","lat":43.274973,"lon":5.424457,"is_reserved":false,"is_disabled":true,"rental_uris":{"android":"levelo://app?vid=54d826e6-0cf0-4dc2-9998-67f0ffa2dea7","ios":"levelo://app?vid=54d826e6-0cf0-4dc2-9998-67f0ffa2dea7"},"vehicle_type_id":"4","last_reported":1752822942,"current_range_meters":14000,"station_id":"ce4bhn92rcd13ifvqgrg","pricing_plan_id":"cebpf4jnsgd1na2vs0mg"},{"bike_id":"978ef16f-2db4-4544-b66f-199c1f3b9d02","system_id":"levelo_inurba_marseille","lat":43.23151,"lon":5.43719,"is_reserved":false,"is_disabled":false,"rental_uris":{"android":"levelo://app?vid=978ef16f-2db4-4544-b66f-199c1f3b9d02","ios":"levelo://app?vid=978ef16f-2db4-4544-b66f-199c1f3b9d02"},"vehicle_type_id":"4","last_reported":1752822942,"current_range_meters":14000,"station_id":"ce4bhmp2rcd13ifvqgog","pricing_plan_id":"cebpf4jnsgd1na2vs0mg"},{"bike_id":"9b7a5c76-646b-47e4-9aaf-9e0ac1e776a5","system_id":"levelo_inurba_marseille","lat":43.26944,"lon":5.40245,"is_reserved":false,"is_disabled":false,"rental_uris":{"android":"levelo://app?vid=9b7a5c76-646b-47e4-9aaf-9e0ac1e776a5","ios":"levelo://app?vid=9b7a5c76-646b-47e4-9aaf-9e0ac1e776a5"},"vehicle_type_id":"4","last_reported":1752822942,"current_range_meters":14000,"station_id":"cjm6bp8fraef2m0cb0m0","pricing_plan_id":"cebpf4jnsgd1na2vs0mg"},{"bike_id":"63b7bf65-6f9f-4fad-af7d-0b3d5cd469e9","system_id":"levelo_inurba_marseille","lat":43.26213,"lon":5.3744,"is_reserved":false,"is_disabled":false,"rental_uris":{"android":"levelo://app?vid=63b7bf65-6f9f-4fad-af7d-0b3d5cd469e9","ios":"levelo://app?vid=63b7bf65-6f9f-4fad-af7d-0b3d5cd469e9"},"vehicle_type_id":"4","last_reported":1752822942,"current_range_meters":14000,"station_id":"ce4bhgp2rcd13ifvqfc0","pricing_plan_id":"cebpf4jnsgd1na2vs0mg"},{"bike_id":"409515f8-3415-426d-b0c7-61f840c7c187","system_id":"levelo_inurba_marseille","lat":43.22503,"lon":5.34782,"is_reserved":false,"is_disabled":false,"rental_uris":{"android":"levelo://app?vid=409515f8-3415-426d-b0c7-61f840c7c187","ios":"levelo://app?vid=409515f8-3415-426d-b0c7-61f840c7c187"},"vehicle_type_id":"4","last_reported":1752822942,"current_range_meters":14000,"station_id":"st_cvj5dfep6f1abm77gieg","pricing_plan_id":"cebpf4jnsgd1na2vs0mg"},{"bike_id":"c8ee6d1d-6381-4b68-a56d-5e36cb805c6c","system_id":"levelo_inurba_marseille","lat":43.2957,"lon":5.375115,"is_reserved":false,"is_disabled":false,"rental_uris":{"android":"levelo://app?vid=c8ee6d1d-6381-4b68-a56d-5e36cb805c6c","ios":"levelo://app?vid=c8ee6d1d-6381-4b68-a56d-5e36cb805c6c"},"vehicle_type_id":"4","last_reported":1752822942,"current_range_meters":14400,"station_id":"ce4bgh92rcd13ifvqb50","pricing_plan_id":"cebpf4jnsgd1na2vs0mg"},{"bike_id":"d01966a7-5e23-40f7-8323-4d6534e79969","system_id":"levelo_inurba_marseille","lat":43.22941,"lon":5.35377,"is_reserved":false,"is_disabled":false,"rental_uris":{"android":"levelo://app?vid=d01966a7-5e23-40f7-8323-4d6534e79969","ios":"levelo://app?vid=d01966a7-5e23-40f7-8323-4d6534e79969"},"vehicle_type_id":"4","last_reported":1752822942,"current_range_meters":14400,"station_id":"cpo3532slgdg3j2ikp40","pricing_plan_id":"cebpf4jnsgd1na2vs0mg"},{"bike_id":"cea9ad83-d8ae-4f10-bbf0-1d19abde040d","system_id":"levelo_inurba_marseille","lat":43.2917,"lon":5.37159,"is_reserved":false,"is_disabled":false,"rental_uris":{"android":"levelo://app?vid=cea9ad83-d8ae-4f10-bbf0-1d19abde040d","ios":"levelo://app?vid=cea9ad83-d8ae-4f10-bbf0-1d19abde040d"},"vehicle_type_id":"4","last_reported":1752822942,"current_range_meters":14000,"station_id":"ce4bha92rcd13ifvqeh0","pricing_plan_id":"cebpf4jnsgd1na2vs0mg"},{"bike_id":"00cb9e03-8028-497f-8c29-77cd4bf2e8d6","system_id":"levelo_inurba_marseille","lat":43.28607,"lon":5.35054,"is_reserved":false,"is_disabled":false,"rental_uris":{"android":"levelo://app?vid=00cb9e03-8028-497f-8c29-77cd4bf2e8d6","ios":"levelo://app?vid=00cb9e03-8028-497f-8c29-77cd4bf2e8d6"},"vehicle_type_id":"4","last_reported":1752822942,"current_range_meters":14400,"station_id":"ce4bhch2rcd13ifvqeug","pricing_plan_id":"cebpf4jnsgd1na2vs0mg"},{"bike_id":"c6db0f6a-96fe-4e1d-8ded-c2ef38c9bab4","system_id":"levelo_inurba_marseille","lat":43.304183,"lon":5.412838,"is_reserved":false,"is_disabled":true,"rental_uris":{"android":"levelo://app?vid=c6db0f6a-96fe-4e1d-8ded-c2ef38c9bab4","ios":"levelo://app?vid=c6db0f6a-96fe-4e1d-8ded-c2ef38c9bab4"},"vehicle_type_id":"4","last_reported":1752822942,"current_range_meters":14800,"station_id":"ce4bhop2rcd13ifvqh8g","pricing_plan_id":"cebpf4jnsgd1na2vs0mg"},{"bike_id":"defbc65a-15d5-4b49-857f-4a84140a51ad","system_id":"levelo_inurba_marseille","lat":43.303696,"lon":5.424917,"is_reserved":false,"is_disabled":false,"rental_uris":{"android":"levelo://app?vid=defbc65a-15d5-4b49-857f-4a84140a51ad","ios":"levelo://app?vid=defbc65a-15d5-4b49-857f-4a84140a51ad"},"vehicle_type_id":"4","last_reported":1752822942,"current_range_meters":14800,"station_id":"ce4bhoh2rcd13ifvqh6g","pricing_plan_id":"cebpf4jnsgd1na2vs0mg"},{"bike_id":"f919631e-15ef-4f04-b180-491ba6eb82a0","system_id":"levelo_inurba_marseille","lat":43.29565,"lon":5.37522,"is_reserved":false,"is_disabled":false,"rental_uris":{"android":"levelo://app?vid=f919631e-15ef-4f04-b180-491ba6eb82a0","ios":"levelo://app?vid=f919631e-15ef-4f04-b180-491ba6eb82a0"},"vehicle_type_id":"4","last_reported":1752822942,"current_range_meters":14800,"station_id":"ce4bgh92rcd13ifvqb50","pricing_plan_id":"cebpf4jnsgd1na2vs0mg"},{"bike_id":"1d94feba-c90e-4d75-9f8d-9ea4bb03490e","system_id":"levelo_inurba_marseille","lat":43.29105,"lon":5.381543,"is_reserved":false,"is_disabled":true,"rental_uris":{"android":"levelo://app?vid=1d94feba-c90e-4d75-9f8d-9ea4bb03490e","ios":"levelo://app?vid=1d94feba-c90e-4d75-9f8d-9ea4bb03490e"},"vehicle_type_id":"4","last_reported":1752822942,"current_range_meters":14800,"station_id":"ce4bh512rcd13ifvqe2g","pricing_plan_id":"cebpf4jnsgd1na2vs0mg"},{"bike_id":"b1411f20-9712-40f9-a9cc-407b4e40f865","system_id":"levelo_inurba_marseille","lat":43.26823,"lon":5.41492,"is_reserved":false,"is_disabled":false,"rental_uris":{"android":"levelo://app?vid=b1411f20-9712-40f9-a9cc-407b4e40f865","ios":"levelo://app?vid=b1411f20-9712-40f9-a9cc-407b4e40f865"},"vehicle_type_id":"4","last_reported":1752822942,"current_range_meters":14800,"station_id":"","pricing_plan_id":"cebpf4jnsgd1na2vs0mg"},{"bike_id":"a092d05c-8017-44f5-ba8a-35792463d6a3","system_id":"levelo_inurba_marseille","lat":43.22502,"lon":5.34807,"is_reserved":false,"is_disabled":false,"rental_uris":{"android":"levelo://app?vid=a092d05c-8017-44f5-ba8a-35792463d6a3","ios":"levelo://app?vid=a092d05c-8017-44f5-ba8a-35792463d6a3"},"vehicle_type_id":"4","last_reported":1752822942,"current_range_meters":14800,"station_id":"st_cvj5dfep6f1abm77gieg","pricing_plan_id":"cebpf4jnsgd1na2vs0mg"},{"bike_id":"3e3ea796-dba7-4b02-b380-ab58b77a4b41","system_id":"levelo_inurba_marseille","lat":43.32364,"lon":5.36758,"is_reserved":false,"is_disabled":false,"rental_uris":{"android":"levelo://app?vid=3e3ea796-dba7-4b02-b380-ab58b77a4b41","ios":"levelo://app?vid=3e3ea796-dba7-4b02-b380-ab58b77a4b41"},"vehicle_type_id":"4","last_reported":1752822942,"current_range_meters":14800,"station_id":"ce4bhsh2rcd13ifvqi2g","pricing_plan_id":"cebpf4jnsgd1na2vs0mg"},{"bike_id":"297914b4-f29d-4efa-a16f-6b7800ec2454","system_id":"levelo_inurba_marseille","lat":43.29044,"lon":5.37165,"is_reserved":false,"is_disabled":false,"rental_uris":{"android":"levelo://app?vid=297914b4-f29d-4efa-a16f-6b7800ec2454","ios":"levelo://app?vid=297914b4-f29d-4efa-a16f-6b7800ec2454"},"vehicle_type_id":"4","last_reported":1752822942,"current_range_meters":14800,"station_id":"ce4bh5p2rcd13ifvqe4g","pricing_plan_id":"cebpf4jnsgd1na2vs0mg"},{"bike_id":"5b4e5f0f-cac3-450a-9463-e6a77e2c277e","system_id":"levelo_inurba_marseille","lat":43.246423,"lon":5.388921,"is_reserved":false,"is_disabled":true,"rental_uris":{"android":"levelo://app?vid=5b4e5f0f-cac3-450a-9463-e6a77e2c277e","ios":"levelo://app?vid=5b4e5f0f-cac3-450a-9463-e6a77e2c277e"},"vehicle_type_id":"4","last_reported":1752822942,"current_range_meters":14800,"station_id":"ce4bhg12rcd13ifvqf60","pricing_plan_id":"cebpf4jnsgd1na2vs0mg"},{"bike_id":"00ecada3-8577-4c51-98e2-f760bc2bb718","system_id":"levelo_inurba_marseille","lat":43.29429,"lon":5.4323,"is_reserved":false,"is_disabled":false,"rental_uris":{"android":"levelo://app?vid=00ecada3-8577-4c51-98e2-f760bc2bb718","ios":"levelo://app?vid=00ecada3-8577-4c51-98e2-f760bc2bb718"},"vehicle_type_id":"4","last_reported":1752822942,"current_range_meters":14800,"station_id":"","pricing_plan_id":"cebpf4jnsgd1na2vs0mg"},{"bike_id":"5dda7472-9949-46fe-b9fa-ab272459a5d6","system_id":"levelo_inurba_marseille","lat":43.32362,"lon":5.36749,"is_reserved":false,"is_disabled":false,"rental_uris":{"android":"levelo://app?vid=5dda7472-9949-46fe-b9fa-ab272459a5d6","ios":"levelo://app?vid=5dda7472-9949-46fe-b9fa-ab272459a5d6"},"vehicle_type_id":"4","last_reported":1752822942,"current_range_meters":14800,"station_id":"ce4bhsh2rcd13ifvqi2g","pricing_plan_id":"cebpf4jnsgd1na2vs0mg"},{"bike_id":"7f87503f-b88d-484c-81a1-95b917578390","system_id":"levelo_inurba_marseille","lat":43.30463,"lon":5.37906,"is_reserved":false,"is_disabled":false,"rental_uris":{"android":"levelo://app?vid=7f87503f-b88d-484c-81a1-95b917578390","ios":"levelo://app?vid=7f87503f-b88d-484c-81a1-95b917578390"},"vehicle_type_id":"4","last_reported":1752822942,"current_range_meters":14800,"station_id":"ce4bgup2rcd13ifvqcn0","pricing_plan_id":"cebpf4jnsgd1na2vs0mg"},{"bike_id":"370a3c50-d1fb-49a6-abd5-2014f1a7b7d5","system_id":"levelo_inurba_marseille","lat":43.2319,"lon":5.35552,"is_reserved":false,"is_disabled":false,"rental_uris":{"android":"levelo://app?vid=370a3c50-d1fb-49a6-abd5-2014f1a7b7d5","ios":"levelo://app?vid=370a3c50-d1fb-49a6-abd5-2014f1a7b7d5"},"vehicle_type_id":"4","last_reported":1752822942,"current_range_meters":15200,"station_id":"ce4bhu92rcd13ifvqi70","pricing_plan_id":"cebpf4jnsgd1na2vs0mg"},{"bike_id":"be60c88c-1453-4626-be80-200258f79626","system_id":"levelo_inurba_marseille","lat":43.231941,"lon":5.355517,"is_reserved":false,"is_disabled":false,"rental_uris":{"android":"levelo://app?vid=be60c88c-1453-4626-be80-200258f79626","ios":"levelo://app?vid=be60c88c-1453-4626-be80-200258f79626"},"vehicle_type_id":"4","last_reported":1752822942,"current_range_meters":15200,"station_id":"ce4bhu92rcd13ifvqi70","pricing_plan_id":"cebpf4jnsgd1na2vs0mg"},{"bike_id":"77de689c-6061-437b-9c2a-31994cf9fb32","system_id":"levelo_inurba_marseille","lat":43.25936,"lon":5.40902,"is_reserved":false,"is_disabled":false,"rental_uris":{"android":"levelo://app?vid=77de689c-6061-437b-9c2a-31994cf9fb32","ios":"levelo://app?vid=77de689c-6061-437b-9c2a-31994cf9fb32"},"vehicle_type_id":"4","last_reported":1752822942,"current_range_meters":14800,"station_id":"","pricing_plan_id":"cebpf4jnsgd1na2vs0mg"},{"bike_id":"723360da-15a7-4261-b0e7-28f8c5e5f799","system_id":"levelo_inurba_marseille","lat":43.33599,"lon":5.41018,"is_reserved":false,"is_disabled":false,"rental_uris":{"android":"levelo://app?vid=723360da-15a7-4261-b0e7-28f8c5e5f799","ios":"levelo://app?vid=723360da-15a7-4261-b0e7-28f8c5e5f799"},"vehicle_type_id":"4","last_reported":1752822942,"current_range_meters":16000,"station_id":"ce4bhqh2rcd13ifvqhmg","pricing_plan_id":"cebpf4jnsgd1na2vs0mg"},{"bike_id":"b77ccfc6-970a-4c6a-8818-872455eb83d8","system_id":"levelo_inurba_marseille","lat":43.3173,"lon":5.40454,"is_reserved":false,"is_disabled":false,"rental_uris":{"android":"levelo://app?vid=b77ccfc6-970a-4c6a-8818-872455eb83d8","ios":"levelo://app?vid=b77ccfc6-970a-4c6a-8818-872455eb83d8"},"vehicle_type_id":"4","last_reported":1752822942,"current_range_meters":16000,"station_id":"","pricing_plan_id":"cebpf4jnsgd1na2vs0mg"},{"bike_id":"aecf40d9-388b-4eec-b4fc-a91eb3814417","system_id":"levelo_inurba_marseille","lat":43.25939,"lon":5.40887,"is_reserved":false,"is_disabled":false,"rental_uris":{"android":"levelo://app?vid=aecf40d9-388b-4eec-b4fc-a91eb3814417","ios":"levelo://app?vid=aecf40d9-388b-4eec-b4fc-a91eb3814417"},"vehicle_type_id":"4","last_reported":1752822942,"current_range_meters":16000,"station_id":"ce4bhm92rcd13ifvqglg","pricing_plan_id":"cebpf4jnsgd1na2vs0mg"},{"bike_id":"2f9be118-cbef-4349-b573-93d2072ef76a","system_id":"levelo_inurba_marseille","lat":43.24385,"lon":5.37059,"is_reserved":false,"is_disabled":false,"rental_uris":{"android":"levelo://app?vid=2f9be118-cbef-4349-b573-93d2072ef76a","ios":"levelo://app?vid=2f9be118-cbef-4349-b573-93d2072ef76a"},"vehicle_type_id":"4","last_reported":1752822942,"current_range_meters":18000,"station_id":"ce4bhhh2rcd13ifvqfk0","pricing_plan_id":"cebpf4jnsgd1na2vs0mg"},{"bike_id":"a6a11743-8df7-4723-b7f7-51d9033c5d4f","system_id":"levelo_inurba_marseille","lat":43.29276,"lon":5.38459,"is_reserved":false,"is_disabled":false,"rental_uris":{"android":"levelo://app?vid=a6a11743-8df7-4723-b7f7-51d9033c5d4f","ios":"levelo://app?vid=a6a11743-8df7-4723-b7f7-51d9033c5d4f"},"vehicle_type_id":"4","last_reported":1752822942,"current_range_meters":16000,"station_id":"ce4bh692rcd13ifvqea0","pricing_plan_id":"cebpf4jnsgd1na2vs0mg"},{"bike_id":"dc3c04ac-4d65-423b-9df0-5af5a3d46ece","system_id":"levelo_inurba_marseille","lat":43.32506,"lon":5.36553,"is_reserved":false,"is_disabled":false,"rental_uris":{"android":"levelo://app?vid=dc3c04ac-4d65-423b-9df0-5af5a3d46ece","ios":"levelo://app?vid=dc3c04ac-4d65-423b-9df0-5af5a3d46ece"},"vehicle_type_id":"4","last_reported":1752822942,"current_range_meters":16000,"station_id":"ce4bhs12rcd13ifvqhvg","pricing_plan_id":"cebpf4jnsgd1na2vs0mg"},{"bike_id":"2ed1350f-0b6e-4182-a8b4-561741333858","system_id":"levelo_inurba_marseille","lat":43.279396,"lon":5.410412,"is_reserved":false,"is_disabled":false,"rental_uris":{"android":"levelo://app?vid=2ed1350f-0b6e-4182-a8b4-561741333858","ios":"levelo://app?vid=2ed1350f-0b6e-4182-a8b4-561741333858"},"vehicle_type_id":"4","last_reported":1752822942,"current_range_meters":16000,"station_id":"ce4bhnp2rcd13ifvqh0g","pricing_plan_id":"cebpf4jnsgd1na2vs0mg"},{"bike_id":"ce40837d-3edf-4cc2-a747-2f8d4ee2c7fb","system_id":"levelo_inurba_marseille","lat":43.22478,"lon":5.34792,"is_reserved":false,"is_disabled":false,"rental_uris":{"android":"levelo://app?vid=ce40837d-3edf-4cc2-a747-2f8d4ee2c7fb","ios":"levelo://app?vid=ce40837d-3edf-4cc2-a747-2f8d4ee2c7fb"},"vehicle_type_id":"4","last_reported":1752822942,"current_range_meters":16000,"station_id":"st_cvj5dfep6f1abm77gieg","pricing_plan_id":"cebpf4jnsgd1na2vs0mg"},{"bike_id":"e622471f-e223-45c0-979c-dbbcfdfe8946","system_id":"levelo_inurba_marseille","lat":43.32029,"lon":5.4147,"is_reserved":false,"is_disabled":false,"rental_uris":{"android":"levelo://app?vid=e622471f-e223-45c0-979c-dbbcfdfe8946","ios":"levelo://app?vid=e622471f-e223-45c0-979c-dbbcfdfe8946"},"vehicle_type_id":"4","last_reported":1752822942,"current_range_meters":16000,"station_id":"","pricing_plan_id":"cebpf4jnsgd1na2vs0mg"},{"bike_id":"9e46aa88-7b19-47c3-b789-71b8902b53cb","system_id":"levelo_inurba_marseille","lat":43.28158,"lon":5.42627,"is_reserved":false,"is_disabled":false,"rental_uris":{"android":"levelo://app?vid=9e46aa88-7b19-47c3-b789-71b8902b53cb","ios":"levelo://app?vid=9e46aa88-7b19-47c3-b789-71b8902b53cb"},"vehicle_type_id":"4","last_reported":1752822942,"current_range_meters":16000,"station_id":"ce4bhnh2rcd13ifvqgug","pricing_plan_id":"cebpf4jnsgd1na2vs0mg"},{"bike_id":"ce7bd25b-5213-4881-a28b-f582e6a1d712","system_id":"levelo_inurba_marseille","lat":43.31358,"lon":5.36739,"is_reserved":false,"is_disabled":true,"rental_uris":{"android":"levelo://app?vid=ce7bd25b-5213-4881-a28b-f582e6a1d712","ios":"levelo://app?vid=ce7bd25b-5213-4881-a28b-f582e6a1d712"},"vehicle_type_id":"4","last_reported":1752822942,"current_range_meters":16000,"station_id":"ce4bgr92rcd13ifvqc6g","pricing_plan_id":"cebpf4jnsgd1na2vs0mg"},{"bike_id":"216281c0-3eaa-47e2-aa13-acc431b595a2","system_id":"levelo_inurba_marseille","lat":43.28973,"lon":5.37838,"is_reserved":false,"is_disabled":false,"rental_uris":{"android":"levelo://app?vid=216281c0-3eaa-47e2-aa13-acc431b595a2","ios":"levelo://app?vid=216281c0-3eaa-47e2-aa13-acc431b595a2"},"vehicle_type_id":"4","last_reported":1752822942,"current_range_meters":16400,"station_id":"ce4bh9p2rcd13ifvqed0","pricing_plan_id":"cebpf4jnsgd1na2vs0mg"},{"bike_id":"8ca35254-0a78-41fe-ba14-d16c8017b384","system_id":"levelo_inurba_marseille","lat":43.28093,"lon":5.39638,"is_reserved":false,"is_disabled":false,"rental_uris":{"android":"levelo://app?vid=8ca35254-0a78-41fe-ba14-d16c8017b384","ios":"levelo://app?vid=8ca35254-0a78-41fe-ba14-d16c8017b384"},"vehicle_type_id":"4","last_reported":1752822942,"current_range_meters":16400,"station_id":"ce4bho12rcd13ifvqh2g","pricing_plan_id":"cebpf4jnsgd1na2vs0mg"},{"bike_id":"2d95b47d-d06f-40a4-bb6e-c13e954e3c8f","system_id":"levelo_inurba_marseille","lat":43.27735,"lon":5.41426,"is_reserved":false,"is_disabled":false,"rental_uris":{"android":"levelo://app?vid=2d95b47d-d06f-40a4-bb6e-c13e954e3c8f","ios":"levelo://app?vid=2d95b47d-d06f-40a4-bb6e-c13e954e3c8f"},"vehicle_type_id":"4","last_reported":1752822942,"current_range_meters":16400,"station_id":"","pricing_plan_id":"cebpf4jnsgd1na2vs0mg"},{"bike_id":"f310b61a-0922-4b58-99ec-3c007edcb4df","system_id":"levelo_inurba_marseille","lat":43.279261,"lon":5.395819,"is_reserved":false,"is_disabled":false,"rental_uris":{"android":"levelo://app?vid=f310b61a-0922-4b58-99ec-3c007edcb4df","ios":"levelo://app?vid=f310b61a-0922-4b58-99ec-3c007edcb4df"},"vehicle_type_id":"4","last_reported":1752822942,"current_range_meters":16400,"station_id":"ce4bhf92rcd13ifvqf40","pricing_plan_id":"cebpf4jnsgd1na2vs0mg"},{"bike_id":"3c9f271b-27fc-4686-bc00-0e91b1308f62","system_id":"levelo_inurba_marseille","lat":43.24176,"lon":5.39731,"is_reserved":false,"is_disabled":false,"rental_uris":{"android":"levelo://app?vid=3c9f271b-27fc-4686-bc00-0e91b1308f62","ios":"levelo://app?vid=3c9f271b-27fc-4686-bc00-0e91b1308f62"},"vehicle_type_id":"4","last_reported":1752822942,"current_range_meters":16400,"station_id":"ce4bhn12rcd13ifvqgpg","pricing_plan_id":"cebpf4jnsgd1na2vs0mg"},{"bike_id":"b01c78e8-7092-4371-a49d-b6d460e53c64","system_id":"levelo_inurba_marseille","lat":43.25818,"lon":5.39433,"is_reserved":false,"is_disabled":false,"rental_uris":{"android":"levelo://app?vid=b01c78e8-7092-4371-a49d-b6d460e53c64","ios":"levelo://app?vid=b01c78e8-7092-4371-a49d-b6d460e53c64"},"vehicle_type_id":"4","last_reported":1752822942,"current_range_meters":16400,"station_id":"ce4bhip2rcd13ifvqft0","pricing_plan_id":"cebpf4jnsgd1na2vs0mg"},{"bike_id":"b5ecd6f5-ffe3-476b-9516-848976918979","system_id":"levelo_inurba_marseille","lat":43.29277,"lon":5.40119,"is_reserved":false,"is_disabled":true,"rental_uris":{"android":"levelo://app?vid=b5ecd6f5-ffe3-476b-9516-848976918979","ios":"levelo://app?vid=b5ecd6f5-ffe3-476b-9516-848976918979"},"vehicle_type_id":"4","last_reported":1752822942,"current_range_meters":16400,"station_id":"ce4bh312rcd13ifvqdk0","pricing_plan_id":"cebpf4jnsgd1na2vs0mg"},{"bike_id":"6cd13d7f-1155-433a-bba2-9bb2be544c72","system_id":"levelo_inurba_marseille","lat":43.27009,"lon":5.42241,"is_reserved":false,"is_disabled":false,"rental_uris":{"android":"levelo://app?vid=6cd13d7f-1155-433a-bba2-9bb2be544c72","ios":"levelo://app?vid=6cd13d7f-1155-433a-bba2-9bb2be544c72"},"vehicle_type_id":"4","last_reported":1752822942,"current_range_meters":16400,"station_id":"","pricing_plan_id":"cebpf4jnsgd1na2vs0mg"},{"bike_id":"57bb565d-2136-465a-803d-648474c4a3a7","system_id":"levelo_inurba_marseille","lat":43.3179,"lon":5.36779,"is_reserved":false,"is_disabled":false,"rental_uris":{"android":"levelo://app?vid=57bb565d-2136-465a-803d-648474c4a3a7","ios":"levelo://app?vid=57bb565d-2136-465a-803d-648474c4a3a7"},"vehicle_type_id":"4","last_reported":1752822942,"current_range_meters":16400,"station_id":"","pricing_plan_id":"cebpf4jnsgd1na2vs0mg"},{"bike_id":"1fa6e47a-247c-43f3-a2d5-2457ee6c5d39","system_id":"levelo_inurba_marseille","lat":43.21193,"lon":5.35066,"is_reserved":false,"is_disabled":false,"rental_uris":{"android":"levelo://app?vid=1fa6e47a-247c-43f3-a2d5-2457ee6c5d39","ios":"levelo://app?vid=1fa6e47a-247c-43f3-a2d5-2457ee6c5d39"},"vehicle_type_id":"4","last_reported":1752822942,"current_range_meters":16400,"station_id":"st_cvj6sg6p6f1abm77japg","pricing_plan_id":"cebpf4jnsgd1na2vs0mg"},{"bike_id":"ab40eab5-f236-4422-a5a5-b90da08304bc","system_id":"levelo_inurba_marseille","lat":43.306986,"lon":5.371751,"is_reserved":false,"is_disabled":false,"rental_uris":{"android":"levelo://app?vid=ab40eab5-f236-4422-a5a5-b90da08304bc","ios":"levelo://app?vid=ab40eab5-f236-4422-a5a5-b90da08304bc"},"vehicle_type_id":"4","last_reported":1752822942,"current_range_meters":16400,"station_id":"","pricing_plan_id":"cebpf4jnsgd1na2vs0mg"},{"bike_id":"be74486e-1ade-4d18-ba18-240eeca6e5ec","system_id":"levelo_inurba_marseille","lat":43.25112,"lon":5.4032,"is_reserved":false,"is_disabled":false,"rental_uris":{"android":"levelo://app?vid=be74486e-1ade-4d18-ba18-240eeca6e5ec","ios":"levelo://app?vid=be74486e-1ade-4d18-ba18-240eeca6e5ec"},"vehicle_type_id":"4","last_reported":1752822942,"current_range_meters":16800,"station_id":"ce4bhlh2rcd13ifvqgig","pricing_plan_id":"cebpf4jnsgd1na2vs0mg"},{"bike_id":"d66ce206-abbe-449c-9ed3-eb49ecaaefe8","system_id":"levelo_inurba_marseille","lat":43.24649,"lon":5.38891,"is_reserved":false,"is_disabled":false,"rental_uris":{"android":"levelo://app?vid=d66ce206-abbe-449c-9ed3-eb49ecaaefe8","ios":"levelo://app?vid=d66ce206-abbe-449c-9ed3-eb49ecaaefe8"},"vehicle_type_id":"4","last_reported":1752822942,"current_range_meters":16800,"station_id":"ce4bhg12rcd13ifvqf60","pricing_plan_id":"cebpf4jnsgd1na2vs0mg"},{"bike_id":"ac0ed4be-466c-4caa-b855-3c6bbe5a11b5","system_id":"levelo_inurba_marseille","lat":43.26759,"lon":5.37187,"is_reserved":false,"is_disabled":false,"rental_uris":{"android":"levelo://app?vid=ac0ed4be-466c-4caa-b855-3c6bbe5a11b5","ios":"levelo://app?vid=ac0ed4be-466c-4caa-b855-3c6bbe5a11b5"},"vehicle_type_id":"4","last_reported":1752822942,"current_range_meters":16800,"station_id":"","pricing_plan_id":"cebpf4jnsgd1na2vs0mg"},{"bike_id":"92409ae6-2f82-4eac-ab73-93e600233f58","system_id":"levelo_inurba_marseille","lat":43.292975,"lon":5.374638,"is_reserved":false,"is_disabled":false,"rental_uris":{"android":"levelo://app?vid=92409ae6-2f82-4eac-ab73-93e600233f58","ios":"levelo://app?vid=92409ae6-2f82-4eac-ab73-93e600233f58"},"vehicle_type_id":"4","last_reported":1752822942,"current_range_meters":16800,"station_id":"ce4bgi12rcd13ifvqb70","pricing_plan_id":"cebpf4jnsgd1na2vs0mg"},{"bike_id":"8ce9b80c-19c6-4985-81c6-50f285c26740","system_id":"levelo_inurba_marseille","lat":43.239575,"lon":5.366292,"is_reserved":false,"is_disabled":false,"rental_uris":{"android":"levelo://app?vid=8ce9b80c-19c6-4985-81c6-50f285c26740","ios":"levelo://app?vid=8ce9b80c-19c6-4985-81c6-50f285c26740"},"vehicle_type_id":"4","last_reported":1752822942,"current_range_meters":16800,"station_id":"ce4bhi12rcd13ifvqfp0","pricing_plan_id":"cebpf4jnsgd1na2vs0mg"},{"bike_id":"db7bad39-17ec-4f0b-95ae-0ccbb39420e1","system_id":"levelo_inurba_marseille","lat":43.225018,"lon":5.347885,"is_reserved":false,"is_disabled":false,"rental_uris":{"android":"levelo://app?vid=db7bad39-17ec-4f0b-95ae-0ccbb39420e1","ios":"levelo://app?vid=db7bad39-17ec-4f0b-95ae-0ccbb39420e1"},"vehicle_type_id":"4","last_reported":1752822942,"current_range_meters":16800,"station_id":"st_cvj5dfep6f1abm77gieg","pricing_plan_id":"cebpf4jnsgd1na2vs0mg"},{"bike_id":"a67156ae-789e-45f5-ab3f-ed7d95b24540","system_id":"levelo_inurba_marseille","lat":43.211932,"lon":5.350761,"is_reserved":false,"is_disabled":false,"rental_uris":{"android":"levelo://app?vid=a67156ae-789e-45f5-ab3f-ed7d95b24540","ios":"levelo://app?vid=a67156ae-789e-45f5-ab3f-ed7d95b24540"},"vehicle_type_id":"4","last_reported":1752822942,"current_range_meters":16800,"station_id":"st_cvj6sg6p6f1abm77japg","pricing_plan_id":"cebpf4jnsgd1na2vs0mg"},{"bike_id":"a9c3ce72-9bc1-42b0-8871-daed587269a5","system_id":"levelo_inurba_marseille","lat":43.29577,"lon":5.37523,"is_reserved":false,"is_disabled":false,"rental_uris":{"android":"levelo://app?vid=a9c3ce72-9bc1-42b0-8871-daed587269a5","ios":"levelo://app?vid=a9c3ce72-9bc1-42b0-8871-daed587269a5"},"vehicle_type_id":"4","last_reported":1752822942,"current_range_meters":16800,"station_id":"ce4bgh92rcd13ifvqb50","pricing_plan_id":"cebpf4jnsgd1na2vs0mg"},{"bike_id":"de6e445d-6a01-4258-9376-5814bf54d78f","system_id":"levelo_inurba_marseille","lat":43.31343,"lon":5.3672,"is_reserved":false,"is_disabled":false,"rental_uris":{"android":"levelo://app?vid=de6e445d-6a01-4258-9376-5814bf54d78f","ios":"levelo://app?vid=de6e445d-6a01-4258-9376-5814bf54d78f"},"vehicle_type_id":"4","last_reported":1752822942,"current_range_meters":16800,"station_id":"ce4bgr92rcd13ifvqc6g","pricing_plan_id":"cebpf4jnsgd1na2vs0mg"},{"bike_id":"68d3533b-4c6f-4fc8-bf0e-8f31e9e437ca","system_id":"levelo_inurba_marseille","lat":43.24385,"lon":5.37051,"is_reserved":false,"is_disabled":false,"rental_uris":{"android":"levelo://app?vid=68d3533b-4c6f-4fc8-bf0e-8f31e9e437ca","ios":"levelo://app?vid=68d3533b-4c6f-4fc8-bf0e-8f31e9e437ca"},"vehicle_type_id":"4","last_reported":1752822942,"current_range_meters":16800,"station_id":"ce4bhhh2rcd13ifvqfk0","pricing_plan_id":"cebpf4jnsgd1na2vs0mg"},{"bike_id":"5ac93e7c-286a-4c1e-b6c0-4e9963e5a9f8","system_id":"levelo_inurba_marseille","lat":43.2119,"lon":5.35072,"is_reserved":false,"is_disabled":false,"rental_uris":{"android":"levelo://app?vid=5ac93e7c-286a-4c1e-b6c0-4e9963e5a9f8","ios":"levelo://app?vid=5ac93e7c-286a-4c1e-b6c0-4e9963e5a9f8"},"vehicle_type_id":"4","last_reported":1752822942,"current_range_meters":16800,"station_id":"st_cvj6sg6p6f1abm77japg","pricing_plan_id":"cebpf4jnsgd1na2vs0mg"},{"bike_id":"c1965bf5-422f-4987-9413-49aa60421874","system_id":"levelo_inurba_marseille","lat":43.28926,"lon":5.38394,"is_reserved":false,"is_disabled":false,"rental_uris":{"android":"levelo://app?vid=c1965bf5-422f-4987-9413-49aa60421874","ios":"levelo://app?vid=c1965bf5-422f-4987-9413-49aa60421874"},"vehicle_type_id":"4","last_reported":1752822942,"current_range_meters":16800,"station_id":"ce4bh492rcd13ifvqdug","pricing_plan_id":"cebpf4jnsgd1na2vs0mg"},{"bike_id":"069e2087-a51d-416a-b9f7-0ef6a30f8082","system_id":"levelo_inurba_marseille","lat":43.2118,"lon":5.35082,"is_reserved":false,"is_disabled":false,"rental_uris":{"android":"levelo://app?vid=069e2087-a51d-416a-b9f7-0ef6a30f8082","ios":"levelo://app?vid=069e2087-a51d-416a-b9f7-0ef6a30f8082"},"vehicle_type_id":"4","last_reported":1752822942,"current_range_meters":17200,"station_id":"st_cvj6sg6p6f1abm77japg","pricing_plan_id":"cebpf4jnsgd1na2vs0mg"},{"bike_id":"f2a4a68d-42bf-4ee7-a0ad-dbbf7f4f023b","system_id":"levelo_inurba_marseille","lat":43.30463,"lon":5.37894,"is_reserved":false,"is_disabled":false,"rental_uris":{"android":"levelo://app?vid=f2a4a68d-42bf-4ee7-a0ad-dbbf7f4f023b","ios":"levelo://app?vid=f2a4a68d-42bf-4ee7-a0ad-dbbf7f4f023b"},"vehicle_type_id":"4","last_reported":1752822942,"current_range_meters":17200,"station_id":"ce4bgup2rcd13ifvqcn0","pricing_plan_id":"cebpf4jnsgd1na2vs0mg"},{"bike_id":"8feb7f75-515d-465d-9403-432df82ace7b","system_id":"levelo_inurba_marseille","lat":43.31339,"lon":5.36709,"is_reserved":false,"is_disabled":false,"rental_uris":{"android":"levelo://app?vid=8feb7f75-515d-465d-9403-432df82ace7b","ios":"levelo://app?vid=8feb7f75-515d-465d-9403-432df82ace7b"},"vehicle_type_id":"4","last_reported":1752822942,"current_range_meters":17200,"station_id":"ce4bgr92rcd13ifvqc6g","pricing_plan_id":"cebpf4jnsgd1na2vs0mg"},{"bike_id":"edd0079d-996b-4ae3-9a31-d781f3a059ec","system_id":"levelo_inurba_marseille","lat":43.33786,"lon":5.37426,"is_reserved":false,"is_disabled":false,"rental_uris":{"android":"levelo://app?vid=edd0079d-996b-4ae3-9a31-d781f3a059ec","ios":"levelo://app?vid=edd0079d-996b-4ae3-9a31-d781f3a059ec"},"vehicle_type_id":"4","last_reported":1752822942,"current_range_meters":17200,"station_id":"","pricing_plan_id":"cebpf4jnsgd1na2vs0mg"},{"bike_id":"b7fe52dd-f025-4212-9e78-19e7f6f09593","system_id":"levelo_inurba_marseille","lat":43.21191,"lon":5.35083,"is_reserved":false,"is_disabled":false,"rental_uris":{"android":"levelo://app?vid=b7fe52dd-f025-4212-9e78-19e7f6f09593","ios":"levelo://app?vid=b7fe52dd-f025-4212-9e78-19e7f6f09593"},"vehicle_type_id":"4","last_reported":1752822942,"current_range_meters":17200,"station_id":"st_cvj6sg6p6f1abm77japg","pricing_plan_id":"cebpf4jnsgd1na2vs0mg"},{"bike_id":"cfb52d04-9134-4c86-8269-771716b20f27","system_id":"levelo_inurba_marseille","lat":43.21171,"lon":5.35085,"is_reserved":false,"is_disabled":false,"rental_uris":{"android":"levelo://app?vid=cfb52d04-9134-4c86-8269-771716b20f27","ios":"levelo://app?vid=cfb52d04-9134-4c86-8269-771716b20f27"},"vehicle_type_id":"4","last_reported":1752822942,"current_range_meters":17200,"station_id":"st_cvj6sg6p6f1abm77japg","pricing_plan_id":"cebpf4jnsgd1na2vs0mg"},{"bike_id":"efad4d56-c499-4f8b-9b57-b58df3e794e2","system_id":"levelo_inurba_marseille","lat":43.23966,"lon":5.36632,"is_reserved":false,"is_disabled":false,"rental_uris":{"android":"levelo://app?vid=efad4d56-c499-4f8b-9b57-b58df3e794e2","ios":"levelo://app?vid=efad4d56-c499-4f8b-9b57-b58df3e794e2"},"vehicle_type_id":"4","last_reported":1752822942,"current_range_meters":17200,"station_id":"ce4bhi12rcd13ifvqfp0","pricing_plan_id":"cebpf4jnsgd1na2vs0mg"},{"bike_id":"ba9f3e38-527b-4abb-aed1-dabb2d5ce59f","system_id":"levelo_inurba_marseille","lat":43.26933,"lon":5.40268,"is_reserved":false,"is_disabled":false,"rental_uris":{"android":"levelo://app?vid=ba9f3e38-527b-4abb-aed1-dabb2d5ce59f","ios":"levelo://app?vid=ba9f3e38-527b-4abb-aed1-dabb2d5ce59f"},"vehicle_type_id":"4","last_reported":1752822942,"current_range_meters":17200,"station_id":"cjm6bp8fraef2m0cb0m0","pricing_plan_id":"cebpf4jnsgd1na2vs0mg"},{"bike_id":"1790c2e8-4aaf-42ef-9a8f-6f7e3518bdda","system_id":"levelo_inurba_marseille","lat":43.32495,"lon":5.36582,"is_reserved":false,"is_disabled":false,"rental_uris":{"android":"levelo://app?vid=1790c2e8-4aaf-42ef-9a8f-6f7e3518bdda","ios":"levelo://app?vid=1790c2e8-4aaf-42ef-9a8f-6f7e3518bdda"},"vehicle_type_id":"4","last_reported":1752822942,"current_range_meters":17200,"station_id":"ce4bhs12rcd13ifvqhvg","pricing_plan_id":"cebpf4jnsgd1na2vs0mg"},{"bike_id":"6cc1a55f-7496-497f-a355-2c833e34b957","system_id":"levelo_inurba_marseille","lat":43.30957,"lon":5.39028,"is_reserved":false,"is_disabled":false,"rental_uris":{"android":"levelo://app?vid=6cc1a55f-7496-497f-a355-2c833e34b957","ios":"levelo://app?vid=6cc1a55f-7496-497f-a355-2c833e34b957"},"vehicle_type_id":"4","last_reported":1752822942,"current_range_meters":17600,"station_id":"ce4bgup2rcd13ifvqco0","pricing_plan_id":"cebpf4jnsgd1na2vs0mg"},{"bike_id":"5368be5e-f7e7-4870-a28a-063028c14a46","system_id":"levelo_inurba_marseille","lat":43.31357,"lon":5.36705,"is_reserved":false,"is_disabled":false,"rental_uris":{"android":"levelo://app?vid=5368be5e-f7e7-4870-a28a-063028c14a46","ios":"levelo://app?vid=5368be5e-f7e7-4870-a28a-063028c14a46"},"vehicle_type_id":"4","last_reported":1752822942,"current_range_meters":17600,"station_id":"ce4bgr92rcd13ifvqc6g","pricing_plan_id":"cebpf4jnsgd1na2vs0mg"},{"bike_id":"f009cb59-4ecc-4217-b0d3-43e82148f0dc","system_id":"levelo_inurba_marseille","lat":43.25939,"lon":5.40895,"is_reserved":false,"is_disabled":false,"rental_uris":{"android":"levelo://app?vid=f009cb59-4ecc-4217-b0d3-43e82148f0dc","ios":"levelo://app?vid=f009cb59-4ecc-4217-b0d3-43e82148f0dc"},"vehicle_type_id":"4","last_reported":1752822942,"current_range_meters":17600,"station_id":"ce4bhm92rcd13ifvqglg","pricing_plan_id":"cebpf4jnsgd1na2vs0mg"},{"bike_id":"5016f77e-53a9-4155-a2d9-8f4505a7613a","system_id":"levelo_inurba_marseille","lat":43.25725,"lon":5.41094,"is_reserved":false,"is_disabled":false,"rental_uris":{"android":"levelo://app?vid=5016f77e-53a9-4155-a2d9-8f4505a7613a","ios":"levelo://app?vid=5016f77e-53a9-4155-a2d9-8f4505a7613a"},"vehicle_type_id":"4","last_reported":1752822942,"current_range_meters":17600,"station_id":"ce4bhkp2rcd13ifvqgd0","pricing_plan_id":"cebpf4jnsgd1na2vs0mg"},{"bike_id":"75aefe1b-75cc-456d-b09d-2968a18bc743","system_id":"levelo_inurba_marseille","lat":43.27211,"lon":5.39191,"is_reserved":false,"is_disabled":true,"rental_uris":{"android":"levelo://app?vid=75aefe1b-75cc-456d-b09d-2968a18bc743","ios":"levelo://app?vid=75aefe1b-75cc-456d-b09d-2968a18bc743"},"vehicle_type_id":"4","last_reported":1752822942,"current_range_meters":18000,"station_id":"ce4bhhp2rcd13ifvqfm0","pricing_plan_id":"cebpf4jnsgd1na2vs0mg"},{"bike_id":"e12e0172-8a8f-433d-8168-acbe61a1a376","system_id":"levelo_inurba_marseille","lat":43.31379,"lon":5.38503,"is_reserved":false,"is_disabled":false,"rental_uris":{"android":"levelo://app?vid=e12e0172-8a8f-433d-8168-acbe61a1a376","ios":"levelo://app?vid=e12e0172-8a8f-433d-8168-acbe61a1a376"},"vehicle_type_id":"4","last_reported":1752822942,"current_range_meters":18000,"station_id":"ce4bgt92rcd13ifvqcf0","pricing_plan_id":"cebpf4jnsgd1na2vs0mg"},{"bike_id":"500542d6-86a5-41ea-ad3b-7ed3dfd2aada","system_id":"levelo_inurba_marseille","lat":43.30374,"lon":5.42492,"is_reserved":false,"is_disabled":false,"rental_uris":{"android":"levelo://app?vid=500542d6-86a5-41ea-ad3b-7ed3dfd2aada","ios":"levelo://app?vid=500542d6-86a5-41ea-ad3b-7ed3dfd2aada"},"vehicle_type_id":"4","last_reported":1752822942,"current_range_meters":18000,"station_id":"ce4bhoh2rcd13ifvqh6g","pricing_plan_id":"cebpf4jnsgd1na2vs0mg"},{"bike_id":"7b1cf85d-1f19-4cce-a140-00408ad6e265","system_id":"levelo_inurba_marseille","lat":43.243895,"lon":5.370668,"is_reserved":false,"is_disabled":false,"rental_uris":{"android":"levelo://app?vid=7b1cf85d-1f19-4cce-a140-00408ad6e265","ios":"levelo://app?vid=7b1cf85d-1f19-4cce-a140-00408ad6e265"},"vehicle_type_id":"4","last_reported":1752822942,"current_range_meters":18000,"station_id":"ce4bhhh2rcd13ifvqfk0","pricing_plan_id":"cebpf4jnsgd1na2vs0mg"},{"bike_id":"ac20c793-19e7-4c17-8166-f040b800ab61","system_id":"levelo_inurba_marseille","lat":43.305436,"lon":5.365486,"is_reserved":false,"is_disabled":false,"rental_uris":{"android":"levelo://app?vid=ac20c793-19e7-4c17-8166-f040b800ab61","ios":"levelo://app?vid=ac20c793-19e7-4c17-8166-f040b800ab61"},"vehicle_type_id":"4","last_reported":1752822942,"current_range_meters":18000,"station_id":"ce4bgs12rcd13ifvqcag","pricing_plan_id":"cebpf4jnsgd1na2vs0mg"},{"bike_id":"298a258f-eb96-4285-afee-2658b0bd9d6e","system_id":"levelo_inurba_marseille","lat":43.28715,"lon":5.37943,"is_reserved":false,"is_disabled":false,"rental_uris":{"android":"levelo://app?vid=298a258f-eb96-4285-afee-2658b0bd9d6e","ios":"levelo://app?vid=298a258f-eb96-4285-afee-2658b0bd9d6e"},"vehicle_type_id":"4","last_reported":1752822942,"current_range_meters":18000,"station_id":"ce4bh9p2rcd13ifvqec0","pricing_plan_id":"cebpf4jnsgd1na2vs0mg"},{"bike_id":"7cabf39a-10fb-447f-a8f2-1a0c2c4b8db5","system_id":"levelo_inurba_marseille","lat":43.28461,"lon":5.35895,"is_reserved":false,"is_disabled":false,"rental_uris":{"android":"levelo://app?vid=7cabf39a-10fb-447f-a8f2-1a0c2c4b8db5","ios":"levelo://app?vid=7cabf39a-10fb-447f-a8f2-1a0c2c4b8db5"},"vehicle_type_id":"4","last_reported":1752822942,"current_range_meters":18000,"station_id":"ce4bhah2rcd13ifvqei0","pricing_plan_id":"cebpf4jnsgd1na2vs0mg"},{"bike_id":"1dabc333-36c5-41e5-9ed3-17b4c3c9fd9a","system_id":"levelo_inurba_marseille","lat":43.28419,"lon":5.34988,"is_reserved":false,"is_disabled":true,"rental_uris":{"android":"levelo://app?vid=1dabc333-36c5-41e5-9ed3-17b4c3c9fd9a","ios":"levelo://app?vid=1dabc333-36c5-41e5-9ed3-17b4c3c9fd9a"},"vehicle_type_id":"4","last_reported":1752822942,"current_range_meters":18800,"station_id":"ce4bhbh2rcd13ifvqepg","pricing_plan_id":"cebpf4jnsgd1na2vs0mg"},{"bike_id":"afc91c81-7042-4270-a28e-07e325ae83c9","system_id":"levelo_inurba_marseille","lat":43.21187,"lon":5.35066,"is_reserved":false,"is_disabled":false,"rental_uris":{"android":"levelo://app?vid=afc91c81-7042-4270-a28e-07e325ae83c9","ios":"levelo://app?vid=afc91c81-7042-4270-a28e-07e325ae83c9"},"vehicle_type_id":"4","last_reported":1752822942,"current_range_meters":18800,"station_id":"st_cvj6sg6p6f1abm77japg","pricing_plan_id":"cebpf4jnsgd1na2vs0mg"},{"bike_id":"ffc86500-1215-4873-9b76-9d1ce6e04ab8","system_id":"levelo_inurba_marseille","lat":43.24973,"lon":5.39622,"is_reserved":false,"is_disabled":false,"rental_uris":{"android":"levelo://app?vid=ffc86500-1215-4873-9b76-9d1ce6e04ab8","ios":"levelo://app?vid=ffc86500-1215-4873-9b76-9d1ce6e04ab8"},"vehicle_type_id":"4","last_reported":1752822942,"current_range_meters":18800,"station_id":"","pricing_plan_id":"cebpf4jnsgd1na2vs0mg"},{"bike_id":"098e2546-b7a0-43f8-9185-7b8e4dd6f279","system_id":"levelo_inurba_marseille","lat":43.26216,"lon":5.3792,"is_reserved":false,"is_disabled":false,"rental_uris":{"android":"levelo://app?vid=098e2546-b7a0-43f8-9185-7b8e4dd6f279","ios":"levelo://app?vid=098e2546-b7a0-43f8-9185-7b8e4dd6f279"},"vehicle_type_id":"4","last_reported":1752822942,"current_range_meters":18800,"station_id":"ce4bhjp2rcd13ifvqg90","pricing_plan_id":"cebpf4jnsgd1na2vs0mg"},{"bike_id":"4f3a0988-0550-491c-bf91-afee47b9458f","system_id":"levelo_inurba_marseille","lat":43.29321,"lon":5.37177,"is_reserved":false,"is_disabled":false,"rental_uris":{"android":"levelo://app?vid=4f3a0988-0550-491c-bf91-afee47b9458f","ios":"levelo://app?vid=4f3a0988-0550-491c-bf91-afee47b9458f"},"vehicle_type_id":"4","last_reported":1752822942,"current_range_meters":18800,"station_id":"ce4bgh92rcd13ifvqb40","pricing_plan_id":"cebpf4jnsgd1na2vs0mg"},{"bike_id":"5feb249d-12cf-453c-8fc9-850283dcb362","system_id":"levelo_inurba_marseille","lat":43.29002,"lon":5.37549,"is_reserved":false,"is_disabled":false,"rental_uris":{"android":"levelo://app?vid=5feb249d-12cf-453c-8fc9-850283dcb362","ios":"levelo://app?vid=5feb249d-12cf-453c-8fc9-850283dcb362"},"vehicle_type_id":"4","last_reported":1752822942,"current_range_meters":18800,"station_id":"ce4bh692rcd13ifvqe90","pricing_plan_id":"cebpf4jnsgd1na2vs0mg"},{"bike_id":"192f039a-dd91-4b4c-ba20-f2207bd447df","system_id":"levelo_inurba_marseille","lat":43.25939,"lon":5.40898,"is_reserved":false,"is_disabled":false,"rental_uris":{"android":"levelo://app?vid=192f039a-dd91-4b4c-ba20-f2207bd447df","ios":"levelo://app?vid=192f039a-dd91-4b4c-ba20-f2207bd447df"},"vehicle_type_id":"4","last_reported":1752822942,"current_range_meters":18800,"station_id":"ce4bhm92rcd13ifvqglg","pricing_plan_id":"cebpf4jnsgd1na2vs0mg"},{"bike_id":"f0f5d048-f8e9-45fa-9ac6-4a0d2afb5381","system_id":"levelo_inurba_marseille","lat":43.269351,"lon":5.402635,"is_reserved":false,"is_disabled":false,"rental_uris":{"android":"levelo://app?vid=f0f5d048-f8e9-45fa-9ac6-4a0d2afb5381","ios":"levelo://app?vid=f0f5d048-f8e9-45fa-9ac6-4a0d2afb5381"},"vehicle_type_id":"4","last_reported":1752822942,"current_range_meters":19200,"station_id":"cjm6bp8fraef2m0cb0m0","pricing_plan_id":"cebpf4jnsgd1na2vs0mg"},{"bike_id":"25789ef0-cc5a-45de-b552-c527c619e168","system_id":"levelo_inurba_marseille","lat":43.266806,"lon":5.38273,"is_reserved":false,"is_disabled":false,"rental_uris":{"android":"levelo://app?vid=25789ef0-cc5a-45de-b552-c527c619e168","ios":"levelo://app?vid=25789ef0-cc5a-45de-b552-c527c619e168"},"vehicle_type_id":"4","last_reported":1752822942,"current_range_meters":18800,"station_id":"ce4bhg92rcd13ifvqf90","pricing_plan_id":"cebpf4jnsgd1na2vs0mg"},{"bike_id":"bd342ea2-41b1-42f8-91b4-e4696431ba1e","system_id":"levelo_inurba_marseille","lat":43.27981,"lon":5.387,"is_reserved":false,"is_disabled":false,"rental_uris":{"android":"levelo://app?vid=bd342ea2-41b1-42f8-91b4-e4696431ba1e","ios":"levelo://app?vid=bd342ea2-41b1-42f8-91b4-e4696431ba1e"},"vehicle_type_id":"4","last_reported":1752822942,"current_range_meters":19200,"station_id":"ce4bhg12rcd13ifvqf80","pricing_plan_id":"cebpf4jnsgd1na2vs0mg"},{"bike_id":"0868ccdd-01ab-453c-ba91-daabf85c37b2","system_id":"levelo_inurba_marseille","lat":43.31225,"lon":5.36863,"is_reserved":false,"is_disabled":false,"rental_uris":{"android":"levelo://app?vid=0868ccdd-01ab-453c-ba91-daabf85c37b2","ios":"levelo://app?vid=0868ccdd-01ab-453c-ba91-daabf85c37b2"},"vehicle_type_id":"4","last_reported":1752822942,"current_range_meters":19200,"station_id":"ce4bgl92rcd13ifvqbq0","pricing_plan_id":"cebpf4jnsgd1na2vs0mg"},{"bike_id":"5ed7e33c-75eb-4f80-9ced-f5eee5190af4","system_id":"levelo_inurba_marseille","lat":43.295576,"lon":5.422887,"is_reserved":false,"is_disabled":false,"rental_uris":{"android":"levelo://app?vid=5ed7e33c-75eb-4f80-9ced-f5eee5190af4","ios":"levelo://app?vid=5ed7e33c-75eb-4f80-9ced-f5eee5190af4"},"vehicle_type_id":"4","last_reported":1752822942,"current_range_meters":19200,"station_id":"ce4bhph2rcd13ifvqhdg","pricing_plan_id":"cebpf4jnsgd1na2vs0mg"},{"bike_id":"8c804176-c79e-41a6-b436-c9c623ad2c5f","system_id":"levelo_inurba_marseille","lat":43.32478,"lon":5.36573,"is_reserved":false,"is_disabled":false,"rental_uris":{"android":"levelo://app?vid=8c804176-c79e-41a6-b436-c9c623ad2c5f","ios":"levelo://app?vid=8c804176-c79e-41a6-b436-c9c623ad2c5f"},"vehicle_type_id":"4","last_reported":1752822942,"current_range_meters":19200,"station_id":"ce4bhs12rcd13ifvqhvg","pricing_plan_id":"cebpf4jnsgd1na2vs0mg"},{"bike_id":"dab88b3f-08ab-44a3-b568-04019f93c2f0","system_id":"levelo_inurba_marseille","lat":43.29623,"lon":5.37732,"is_reserved":false,"is_disabled":false,"rental_uris":{"android":"levelo://app?vid=dab88b3f-08ab-44a3-b568-04019f93c2f0","ios":"levelo://app?vid=dab88b3f-08ab-44a3-b568-04019f93c2f0"},"vehicle_type_id":"4","last_reported":1752822942,"current_range_meters":19200,"station_id":"ce4bgi92rcd13ifvqb90","pricing_plan_id":"cebpf4jnsgd1na2vs0mg"},{"bike_id":"31caffba-3f38-4d02-99a4-6925bbf3f483","system_id":"levelo_inurba_marseille","lat":43.29033,"lon":5.39969,"is_reserved":false,"is_disabled":false,"rental_uris":{"android":"levelo://app?vid=31caffba-3f38-4d02-99a4-6925bbf3f483","ios":"levelo://app?vid=31caffba-3f38-4d02-99a4-6925bbf3f483"},"vehicle_type_id":"4","last_reported":1752822942,"current_range_meters":19200,"station_id":"ce4bh392rcd13ifvqdm0","pricing_plan_id":"cebpf4jnsgd1na2vs0mg"},{"bike_id":"a34fb25e-2594-4c29-8d6c-ae0a0bfe2e9e","system_id":"levelo_inurba_marseille","lat":43.29045,"lon":5.39959,"is_reserved":false,"is_disabled":false,"rental_uris":{"android":"levelo://app?vid=a34fb25e-2594-4c29-8d6c-ae0a0bfe2e9e","ios":"levelo://app?vid=a34fb25e-2594-4c29-8d6c-ae0a0bfe2e9e"},"vehicle_type_id":"4","last_reported":1752822942,"current_range_meters":19200,"station_id":"ce4bh392rcd13ifvqdm0","pricing_plan_id":"cebpf4jnsgd1na2vs0mg"},{"bike_id":"38410d72-b7e8-46c1-bb63-71a02feb77de","system_id":"levelo_inurba_marseille","lat":43.26211,"lon":5.37438,"is_reserved":false,"is_disabled":false,"rental_uris":{"android":"levelo://app?vid=38410d72-b7e8-46c1-bb63-71a02feb77de","ios":"levelo://app?vid=38410d72-b7e8-46c1-bb63-71a02feb77de"},"vehicle_type_id":"4","last_reported":1752822942,"current_range_meters":19200,"station_id":"ce4bhgp2rcd13ifvqfc0","pricing_plan_id":"cebpf4jnsgd1na2vs0mg"},{"bike_id":"09ce2634-f19f-432a-bceb-c0c3e1769c16","system_id":"levelo_inurba_marseille","lat":43.303273,"lon":5.404349,"is_reserved":false,"is_disabled":false,"rental_uris":{"android":"levelo://app?vid=09ce2634-f19f-432a-bceb-c0c3e1769c16","ios":"levelo://app?vid=09ce2634-f19f-432a-bceb-c0c3e1769c16"},"vehicle_type_id":"4","last_reported":1752822942,"current_range_meters":19200,"station_id":"ce4bh012rcd13ifvqd10","pricing_plan_id":"cebpf4jnsgd1na2vs0mg"},{"bike_id":"94c07cb2-0943-4d24-99f2-97bdab47aa3f","system_id":"levelo_inurba_marseille","lat":43.337444,"lon":5.374475,"is_reserved":false,"is_disabled":false,"rental_uris":{"android":"levelo://app?vid=94c07cb2-0943-4d24-99f2-97bdab47aa3f","ios":"levelo://app?vid=94c07cb2-0943-4d24-99f2-97bdab47aa3f"},"vehicle_type_id":"4","last_reported":1752822942,"current_range_meters":19200,"station_id":"","pricing_plan_id":"cebpf4jnsgd1na2vs0mg"},{"bike_id":"f90f1efc-2add-4576-a300-db6e14a5c471","system_id":"levelo_inurba_marseille","lat":43.32126,"lon":5.36737,"is_reserved":false,"is_disabled":false,"rental_uris":{"android":"levelo://app?vid=f90f1efc-2add-4576-a300-db6e14a5c471","ios":"levelo://app?vid=f90f1efc-2add-4576-a300-db6e14a5c471"},"vehicle_type_id":"4","last_reported":1752822942,"current_range_meters":19600,"station_id":"ce4bhrh2rcd13ifvqhug","pricing_plan_id":"cebpf4jnsgd1na2vs0mg"},{"bike_id":"d89dfe77-50a4-4c72-9050-42a52a3b9a57","system_id":"levelo_inurba_marseille","lat":43.29868,"lon":5.39734,"is_reserved":false,"is_disabled":false,"rental_uris":{"android":"levelo://app?vid=d89dfe77-50a4-4c72-9050-42a52a3b9a57","ios":"levelo://app?vid=d89dfe77-50a4-4c72-9050-42a52a3b9a57"},"vehicle_type_id":"4","last_reported":1752822942,"current_range_meters":19600,"station_id":"","pricing_plan_id":"cebpf4jnsgd1na2vs0mg"},{"bike_id":"276d5ecc-70d3-4d30-a67a-d45e6ac8d108","system_id":"levelo_inurba_marseille","lat":43.30532,"lon":5.3669,"is_reserved":false,"is_disabled":false,"rental_uris":{"android":"levelo://app?vid=276d5ecc-70d3-4d30-a67a-d45e6ac8d108","ios":"levelo://app?vid=276d5ecc-70d3-4d30-a67a-d45e6ac8d108"},"vehicle_type_id":"4","last_reported":1752822942,"current_range_meters":19600,"station_id":"ce4bgrp2rcd13ifvqc9g","pricing_plan_id":"cebpf4jnsgd1na2vs0mg"},{"bike_id":"1bea52eb-b99a-43e3-8fce-07ed497a87d3","system_id":"levelo_inurba_marseille","lat":43.32331,"lon":5.4062,"is_reserved":false,"is_disabled":false,"rental_uris":{"android":"levelo://app?vid=1bea52eb-b99a-43e3-8fce-07ed497a87d3","ios":"levelo://app?vid=1bea52eb-b99a-43e3-8fce-07ed497a87d3"},"vehicle_type_id":"4","last_reported":1752822942,"current_range_meters":19600,"station_id":"ce4bhq92rcd13ifvqhjg","pricing_plan_id":"cebpf4jnsgd1na2vs0mg"},{"bike_id":"0bd2a0ea-38c1-41d4-ba48-ea738d1421f1","system_id":"levelo_inurba_marseille","lat":43.30949,"lon":5.39029,"is_reserved":false,"is_disabled":false,"rental_uris":{"android":"levelo://app?vid=0bd2a0ea-38c1-41d4-ba48-ea738d1421f1","ios":"levelo://app?vid=0bd2a0ea-38c1-41d4-ba48-ea738d1421f1"},"vehicle_type_id":"4","last_reported":1752822942,"current_range_meters":19200,"station_id":"ce4bgup2rcd13ifvqco0","pricing_plan_id":"cebpf4jnsgd1na2vs0mg"},{"bike_id":"f70fbddf-33a8-4edc-8afb-059c65a88ec1","system_id":"levelo_inurba_marseille","lat":43.27076,"lon":5.42258,"is_reserved":false,"is_disabled":false,"rental_uris":{"android":"levelo://app?vid=f70fbddf-33a8-4edc-8afb-059c65a88ec1","ios":"levelo://app?vid=f70fbddf-33a8-4edc-8afb-059c65a88ec1"},"vehicle_type_id":"4","last_reported":1752822942,"current_range_meters":19600,"station_id":"ce4bhk92rcd13ifvqgb0","pricing_plan_id":"cebpf4jnsgd1na2vs0mg"},{"bike_id":"35d7c238-1986-45e0-98e6-150f7b00844a","system_id":"levelo_inurba_marseille","lat":43.31731,"lon":5.42388,"is_reserved":false,"is_disabled":false,"rental_uris":{"android":"levelo://app?vid=35d7c238-1986-45e0-98e6-150f7b00844a","ios":"levelo://app?vid=35d7c238-1986-45e0-98e6-150f7b00844a"},"vehicle_type_id":"4","last_reported":1752822942,"current_range_meters":19600,"station_id":"ce4bhp92rcd13ifvqhbg","pricing_plan_id":"cebpf4jnsgd1na2vs0mg"},{"bike_id":"6d1a5811-4117-41c5-a767-6b28cc4c80e0","system_id":"levelo_inurba_marseille","lat":43.27938,"lon":5.41041,"is_reserved":false,"is_disabled":false,"rental_uris":{"android":"levelo://app?vid=6d1a5811-4117-41c5-a767-6b28cc4c80e0","ios":"levelo://app?vid=6d1a5811-4117-41c5-a767-6b28cc4c80e0"},"vehicle_type_id":"4","last_reported":1752822942,"current_range_meters":19600,"station_id":"ce4bhnp2rcd13ifvqh0g","pricing_plan_id":"cebpf4jnsgd1na2vs0mg"},{"bike_id":"9d453d06-da97-46ea-a5e7-ff53be7a18b3","system_id":"levelo_inurba_marseille","lat":43.27737,"lon":5.38919,"is_reserved":false,"is_disabled":false,"rental_uris":{"android":"levelo://app?vid=9d453d06-da97-46ea-a5e7-ff53be7a18b3","ios":"levelo://app?vid=9d453d06-da97-46ea-a5e7-ff53be7a18b3"},"vehicle_type_id":"4","last_reported":1752822942,"current_range_meters":19200,"station_id":"ce4bhjp2rcd13ifvqga0","pricing_plan_id":"cebpf4jnsgd1na2vs0mg"},{"bike_id":"0b70b944-a611-443e-91f4-65a03e9067f5","system_id":"levelo_inurba_marseille","lat":43.30313,"lon":5.36894,"is_reserved":false,"is_disabled":false,"rental_uris":{"android":"levelo://app?vid=0b70b944-a611-443e-91f4-65a03e9067f5","ios":"levelo://app?vid=0b70b944-a611-443e-91f4-65a03e9067f5"},"vehicle_type_id":"4","last_reported":1752822942,"current_range_meters":19600,"station_id":"ce4bgqh2rcd13ifvqc5g","pricing_plan_id":"cebpf4jnsgd1na2vs0mg"},{"bike_id":"96579d04-b9e9-484c-9b9a-af500e5e8552","system_id":"levelo_inurba_marseille","lat":43.32679,"lon":5.36404,"is_reserved":false,"is_disabled":false,"rental_uris":{"android":"levelo://app?vid=96579d04-b9e9-484c-9b9a-af500e5e8552","ios":"levelo://app?vid=96579d04-b9e9-484c-9b9a-af500e5e8552"},"vehicle_type_id":"4","last_reported":1752822942,"current_range_meters":19600,"station_id":"","pricing_plan_id":"cebpf4jnsgd1na2vs0mg"},{"bike_id":"605ed834-819b-43a6-99ff-85dfd5dbb3cb","system_id":"levelo_inurba_marseille","lat":43.30541,"lon":5.36716,"is_reserved":false,"is_disabled":true,"rental_uris":{"android":"levelo://app?vid=605ed834-819b-43a6-99ff-85dfd5dbb3cb","ios":"levelo://app?vid=605ed834-819b-43a6-99ff-85dfd5dbb3cb"},"vehicle_type_id":"4","last_reported":1752822942,"current_range_meters":20000,"station_id":"ce4bgrp2rcd13ifvqc9g","pricing_plan_id":"cebpf4jnsgd1na2vs0mg"},{"bike_id":"cb7b541b-4aa0-476b-ac1b-c83b6acaa65d","system_id":"levelo_inurba_marseille","lat":43.24166,"lon":5.36392,"is_reserved":false,"is_disabled":false,"rental_uris":{"android":"levelo://app?vid=cb7b541b-4aa0-476b-ac1b-c83b6acaa65d","ios":"levelo://app?vid=cb7b541b-4aa0-476b-ac1b-c83b6acaa65d"},"vehicle_type_id":"4","last_reported":1752822942,"current_range_meters":20000,"station_id":"cpo36qri1sfpv3e86is0","pricing_plan_id":"cebpf4jnsgd1na2vs0mg"},{"bike_id":"c45a352e-f8b8-4cf2-b8e9-34a307a57bde","system_id":"levelo_inurba_marseille","lat":43.3088,"lon":5.372,"is_reserved":false,"is_disabled":false,"rental_uris":{"android":"levelo://app?vid=c45a352e-f8b8-4cf2-b8e9-34a307a57bde","ios":"levelo://app?vid=c45a352e-f8b8-4cf2-b8e9-34a307a57bde"},"vehicle_type_id":"4","last_reported":1752822942,"current_range_meters":20000,"station_id":"ce4bguh2rcd13ifvqckg","pricing_plan_id":"cebpf4jnsgd1na2vs0mg"},{"bike_id":"dc72538a-58ac-48f6-9e6d-aedcae0f751b","system_id":"levelo_inurba_marseille","lat":43.28866,"lon":5.39322,"is_reserved":false,"is_disabled":false,"rental_uris":{"android":"levelo://app?vid=dc72538a-58ac-48f6-9e6d-aedcae0f751b","ios":"levelo://app?vid=dc72538a-58ac-48f6-9e6d-aedcae0f751b"},"vehicle_type_id":"4","last_reported":1752822942,"current_range_meters":20000,"station_id":"ce4bh2p2rcd13ifvqdi0","pricing_plan_id":"cebpf4jnsgd1na2vs0mg"},{"bike_id":"fa9dd5cb-1654-4847-89af-33b557637f0c","system_id":"levelo_inurba_marseille","lat":43.30275,"lon":5.37694,"is_reserved":false,"is_disabled":false,"rental_uris":{"android":"levelo://app?vid=fa9dd5cb-1654-4847-89af-33b557637f0c","ios":"levelo://app?vid=fa9dd5cb-1654-4847-89af-33b557637f0c"},"vehicle_type_id":"4","last_reported":1752822942,"current_range_meters":20000,"station_id":"ce4bguh2rcd13ifvqcj0","pricing_plan_id":"cebpf4jnsgd1na2vs0mg"},{"bike_id":"88761124-1b21-4ab5-a7df-57a53f764661","system_id":"levelo_inurba_marseille","lat":43.31267,"lon":5.40171,"is_reserved":false,"is_disabled":false,"rental_uris":{"android":"levelo://app?vid=88761124-1b21-4ab5-a7df-57a53f764661","ios":"levelo://app?vid=88761124-1b21-4ab5-a7df-57a53f764661"},"vehicle_type_id":"4","last_reported":1752822942,"current_range_meters":20400,"station_id":"ce4bh092rcd13ifvqd30","pricing_plan_id":"cebpf4jnsgd1na2vs0mg"},{"bike_id":"c27ef6bb-0318-48e2-a8b6-618129db3d98","system_id":"levelo_inurba_marseille","lat":43.3054,"lon":5.36705,"is_reserved":false,"is_disabled":false,"rental_uris":{"android":"levelo://app?vid=c27ef6bb-0318-48e2-a8b6-618129db3d98","ios":"levelo://app?vid=c27ef6bb-0318-48e2-a8b6-618129db3d98"},"vehicle_type_id":"4","last_reported":1752822942,"current_range_meters":20400,"station_id":"ce4bgrp2rcd13ifvqc9g","pricing_plan_id":"cebpf4jnsgd1na2vs0mg"},{"bike_id":"0746f4be-5ab5-4468-8e55-34e97728ca19","system_id":"levelo_inurba_marseille","lat":43.24384,"lon":5.3706,"is_reserved":false,"is_disabled":false,"rental_uris":{"android":"levelo://app?vid=0746f4be-5ab5-4468-8e55-34e97728ca19","ios":"levelo://app?vid=0746f4be-5ab5-4468-8e55-34e97728ca19"},"vehicle_type_id":"4","last_reported":1752822942,"current_range_meters":20400,"station_id":"ce4bhhh2rcd13ifvqfk0","pricing_plan_id":"cebpf4jnsgd1na2vs0mg"},{"bike_id":"232aa5c2-257b-4205-bf01-a071b37cd6e2","system_id":"levelo_inurba_marseille","lat":43.33727,"lon":5.39187,"is_reserved":false,"is_disabled":false,"rental_uris":{"android":"levelo://app?vid=232aa5c2-257b-4205-bf01-a071b37cd6e2","ios":"levelo://app?vid=232aa5c2-257b-4205-bf01-a071b37cd6e2"},"vehicle_type_id":"4","last_reported":1752822942,"current_range_meters":20400,"station_id":"ce4bhr92rcd13ifvqhsg","pricing_plan_id":"cebpf4jnsgd1na2vs0mg"},{"bike_id":"1572dd02-0a2c-4561-887a-3e5a9f01fef3","system_id":"levelo_inurba_marseille","lat":43.30299,"lon":5.3771,"is_reserved":false,"is_disabled":false,"rental_uris":{"android":"levelo://app?vid=1572dd02-0a2c-4561-887a-3e5a9f01fef3","ios":"levelo://app?vid=1572dd02-0a2c-4561-887a-3e5a9f01fef3"},"vehicle_type_id":"4","last_reported":1752822942,"current_range_meters":20400,"station_id":"ce4bguh2rcd13ifvqcj0","pricing_plan_id":"cebpf4jnsgd1na2vs0mg"},{"bike_id":"7f9ad9d2-b85b-49e4-b338-9cf6d8a89d59","system_id":"levelo_inurba_marseille","lat":43.30459,"lon":5.37898,"is_reserved":false,"is_disabled":false,"rental_uris":{"android":"levelo://app?vid=7f9ad9d2-b85b-49e4-b338-9cf6d8a89d59","ios":"levelo://app?vid=7f9ad9d2-b85b-49e4-b338-9cf6d8a89d59"},"vehicle_type_id":"4","last_reported":1752822942,"current_range_meters":20400,"station_id":"ce4bgup2rcd13ifvqcn0","pricing_plan_id":"cebpf4jnsgd1na2vs0mg"},{"bike_id":"7f5b2dc3-8409-4e90-b67a-ff756424e17d","system_id":"levelo_inurba_marseille","lat":43.24177,"lon":5.39724,"is_reserved":false,"is_disabled":false,"rental_uris":{"android":"levelo://app?vid=7f5b2dc3-8409-4e90-b67a-ff756424e17d","ios":"levelo://app?vid=7f5b2dc3-8409-4e90-b67a-ff756424e17d"},"vehicle_type_id":"4","last_reported":1752822942,"current_range_meters":20400,"station_id":"ce4bhn12rcd13ifvqgpg","pricing_plan_id":"cebpf4jnsgd1na2vs0mg"},{"bike_id":"75c386ec-2b11-4ceb-a42e-98a6dc1d6c01","system_id":"levelo_inurba_marseille","lat":43.211927,"lon":5.350666,"is_reserved":false,"is_disabled":false,"rental_uris":{"android":"levelo://app?vid=75c386ec-2b11-4ceb-a42e-98a6dc1d6c01","ios":"levelo://app?vid=75c386ec-2b11-4ceb-a42e-98a6dc1d6c01"},"vehicle_type_id":"4","last_reported":1752822942,"current_range_meters":20400,"station_id":"st_cvj6sg6p6f1abm77japg","pricing_plan_id":"cebpf4jnsgd1na2vs0mg"},{"bike_id":"a7b92e07-0d22-4b45-8ef1-b763127c437f","system_id":"levelo_inurba_marseille","lat":43.32516,"lon":5.37556,"is_reserved":false,"is_disabled":false,"rental_uris":{"android":"levelo://app?vid=a7b92e07-0d22-4b45-8ef1-b763127c437f","ios":"levelo://app?vid=a7b92e07-0d22-4b45-8ef1-b763127c437f"},"vehicle_type_id":"4","last_reported":1752822942,"current_range_meters":20400,"station_id":"","pricing_plan_id":"cebpf4jnsgd1na2vs0mg"},{"bike_id":"10d391b5-c179-4f9b-944d-e8c56b01a775","system_id":"levelo_inurba_marseille","lat":43.2251,"lon":5.34776,"is_reserved":false,"is_disabled":false,"rental_uris":{"android":"levelo://app?vid=10d391b5-c179-4f9b-944d-e8c56b01a775","ios":"levelo://app?vid=10d391b5-c179-4f9b-944d-e8c56b01a775"},"vehicle_type_id":"4","last_reported":1752822942,"current_range_meters":20400,"station_id":"st_cvj5dfep6f1abm77gieg","pricing_plan_id":"cebpf4jnsgd1na2vs0mg"},