{"last_updated":1737015119,"ttl":60,"version":"2.2","data":{"bikes":[{"bike_id":"599eddc6-da18-4c74-8bc2-b0e254d6a78f","system_id":"levelo_inurba_marseille","lat":43.29168,"lon":5.37159,"is_reserved":false,"is_disabled":false,"rental_uris":{"android":"levelo://app?vid=599eddc6-da18-4c74-8bc2-b0e254d6a78f","ios":"levelo://app?vid=599eddc6-da18-4c74-8bc2-b0e254d6a78f"},"vehicle_type_id":"4","last_reported":1737015119,"current_range_meters":33200,"station_id":"ce4bha92rcd13ifvqeh0","pricing_plan_id":"cebpf4jnsgd1na2vs0mg"},{"bike_id":"58a8c4d9-74a7-468e-9b34-fd44adda8fa2","system_id":"levelo_inurba_marseille","lat":43.28486,"lon":5.38412,"is_reserved":false,"is_disabled":false,"rental_uris":{"android":"levelo://app?vid=58a8c4d9-74a7-468e-9b34-fd44adda8fa2","ios":"levelo://app?vid=58a8c4d9-74a7-468e-9b34-fd44adda8fa2"},"vehicle_type_id":"4","last_reported":1737015119,"current_range_meters":9600,"station_id":"ce4bh512rcd13ifvqe3g","pricing_plan_id":"cebpf4jnsgd1na2vs0mg"},{"bike_id":"70a87767-5fd0-433c-aac6-675eb4693413","system_id":"levelo_inurba_marseille","lat":43.3254,"lon":5.41488,"is_reserved":false,"is_disabled":false,"rental_uris":{"android":"levelo://app?vid=70a87767-5fd0-433c-aac6-675eb4693413","ios":"levelo://app?vid=70a87767-5fd0-433c-aac6-675eb4693413"},"vehicle_type_id":"4","last_reported":1737015119,"current_range_meters":24400,"station_id":"ce4bhq12rcd13ifvqhhg","pricing_plan_id":"cebpf4jnsgd1na2vs0mg"},{"bike_id":"ca1ed96c-2e01-4b7a-9a66-0ef019564289","system_id":"levelo_inurba_marseille","lat":43.28363,"lon":5.38631,"is_reserved":false,"is_disabled":false,"rental_uris":{"android":"levelo://app?vid=ca1ed96c-2e01-4b7a-9a66-0ef019564289","ios":"levelo://app?vid=ca1ed96c-2e01-4b7a-9a66-0ef019564289"},"vehicle_type_id":"4","last_reported":1737015119,"current_range_meters":38800,"station_id":"ce4bh492rcd13ifvqdvg","pricing_plan_id":"cebpf4jnsgd1na2vs0mg"},{"bike_id":"87c9661e-6c89-48a2-bd8f-a45fb05e5f00","system_id":"levelo_inurba_marseille","lat":43.30579,"lon":5.39368,"is_reserved":false,"is_disabled":false,"rental_uris":{"android":"levelo://app?vid=87c9661e-6c89-48a2-bd8f-a45fb05e5f00","ios":"levelo://app?vid=87c9661e-6c89-48a2-bd8f-a45fb05e5f00"},"vehicle_type_id":"4","last_reported":1737015119,"current_range_meters":39200,"station_id":"ce4bh0p2rcd13ifvqd80","pricing_plan_id":"cebpf4jnsgd1na2vs0mg"},{"bike_id":"481bda0e-fe18-4926-a202-e5913cf32d5b","system_id":"levelo_inurba_marseille","lat":43.24646,"lon":5.38907,"is_reserved":false,"is_disabled":true,"rental_uris":{"android":"levelo://app?vid=481bda0e-fe18-4926-a202-e5913cf32d5b","ios":"levelo://app?vid=481bda0e-fe18-4926-a202-e5913cf32d5b"},"vehicle_type_id":"4","last_reported":1737015119,"current_range_meters":30000,"station_id":"ce4bhg12rcd13ifvqf60","pricing_plan_id":"cebpf4jnsgd1na2vs0mg"},{"bike_id":"231531ce-159c-430d-a73a-34d518b1b8d8","system_id":"levelo_inurba_marseille","lat":43.25917,"lon":5.40908,"is_reserved":false,"is_disabled":false,"rental_uris":{"android":"levelo://app?vid=231531ce-159c-430d-a73a-34d518b1b8d8","ios":"levelo://app?vid=231531ce-159c-430d-a73a-34d518b1b8d8"},"vehicle_type_id":"4","last_reported":1737015119,"current_range_meters":37600,"station_id":"ce4bhm92rcd13ifvqglg","pricing_plan_id":"cebpf4jnsgd1na2vs0mg"},{"bike_id":"7e630d10-5abb-4c05-b4a6-74f3b559e769","system_id":"levelo_inurba_marseille","lat":43.30532,"lon":5.36695,"is_reserved":false,"is_disabled":false,"rental_uris":{"android":"levelo://app?vid=7e630d10-5abb-4c05-b4a6-74f3b559e769","ios":"levelo://app?vid=7e630d10-5abb-4c05-b4a6-74f3b559e769"},"vehicle_type_id":"4","last_reported":1737015119,"current_range_meters":34800,"station_id":"ce4bgrp2rcd13ifvqc9g","pricing_plan_id":"cebpf4jnsgd1na2vs0mg"},{"bike_id":"6d540c0f-98a4-4311-9d97-d8f4a0c4b88a","system_id":"levelo_inurba_marseille","lat":43.2319,"lon":5.40012,"is_reserved":false,"is_disabled":false,"rental_uris":{"android":"levelo://app?vid=6d540c0f-98a4-4311-9d97-d8f4a0c4b88a","ios":"levelo://app?vid=6d540c0f-98a4-4311-9d97-d8f4a0c4b88a"},"vehicle_type_id":"4","last_reported":1737015119,"current_range_meters":19200,"station_id":"ce4bhn12rcd13ifvqgqg","pricing_plan_id":"cebpf4jnsgd1na2vs0mg"},{"bike_id":"b3ef15f1-099e-4a86-bd0d-a1f237029825","system_id":"levelo_inurba_marseille","lat":43.29031,"lon":5.39957,"is_reserved":false,"is_disabled":false,"rental_uris":{"android":"levelo://app?vid=b3ef15f1-099e-4a86-bd0d-a1f237029825","ios":"levelo://app?vid=b3ef15f1-099e-4a86-bd0d-a1f237029825"},"vehicle_type_id":"4","last_reported":1737015119,"current_range_meters":25600,"station_id":"ce4bh392rcd13ifvqdm0","pricing_plan_id":"cebpf4jnsgd1na2vs0mg"},{"bike_id":"65c011f6-fd59-462b-83ba-613d503816fa","system_id":"levelo_inurba_marseille","lat":43.28489,"lon":5.38421,"is_reserved":false,"is_disabled":false,"rental_uris":{"android":"levelo://app?vid=65c011f6-fd59-462b-83ba-613d503816fa","ios":"levelo://app?vid=65c011f6-fd59-462b-83ba-613d503816fa"},"vehicle_type_id":"4","last_reported":1737015119,"current_range_meters":30400,"station_id":"ce4bh512rcd13ifvqe3g","pricing_plan_id":"cebpf4jnsgd1na2vs0mg"},{"bike_id":"59590efe-7589-4f56-8017-b47e9dc1601a","system_id":"levelo_inurba_marseille","lat":43.27492,"lon":5.42459,"is_reserved":false,"is_disabled":false,"rental_uris":{"android":"levelo://app?vid=59590efe-7589-4f56-8017-b47e9dc1601a","ios":"levelo://app?vid=59590efe-7589-4f56-8017-b47e9dc1601a"},"vehicle_type_id":"4","last_reported":1737015119,"current_range_meters":36000,"station_id":"ce4bhn92rcd13ifvqgrg","pricing_plan_id":"cebpf4jnsgd1na2vs0mg"},{"bike_id":"4fa358ca-b741-467a-a03f-b8033021b471","system_id":"levelo_inurba_marseille","lat":43.337571,"lon":5.374567,"is_reserved":false,"is_disabled":false,"rental_uris":{"android":"levelo://app?vid=4fa358ca-b741-467a-a03f-b8033021b471","ios":"levelo://app?vid=4fa358ca-b741-467a-a03f-b8033021b471"},"vehicle_type_id":"4","last_reported":1737015119,"current_range_meters":33200,"station_id":"","pricing_plan_id":"cebpf4jnsgd1na2vs0mg"},{"bike_id":"3eed1e72-6bde-493b-a16e-11b3c61adb92","system_id":"levelo_inurba_marseille","lat":43.28447,"lon":5.39198,"is_reserved":false,"is_disabled":true,"rental_uris":{"android":"levelo://app?vid=3eed1e72-6bde-493b-a16e-11b3c61adb92","ios":"levelo://app?vid=3eed1e72-6bde-493b-a16e-11b3c61adb92"},"vehicle_type_id":"4","last_reported":1737015119,"current_range_meters":38800,"station_id":"ce4bhoh2rcd13ifvqh5g","pricing_plan_id":"cebpf4jnsgd1na2vs0mg"},{"bike_id":"2b2cb29b-656b-412b-b107-6e49fdf15518","system_id":"levelo_inurba_marseille","lat":43.27472,"lon":5.42477,"is_reserved":false,"is_disabled":true,"rental_uris":{"android":"levelo://app?vid=2b2cb29b-656b-412b-b107-6e49fdf15518","ios":"levelo://app?vid=2b2cb29b-656b-412b-b107-6e49fdf15518"},"vehicle_type_id":"4","last_reported":1737015119,"current_range_meters":0,"station_id":"ce4bhn92rcd13ifvqgrg","pricing_plan_id":"cebpf4jnsgd1na2vs0mg"},{"bike_id":"c8cfc202-d733-4989-9330-14558b81f152","system_id":"levelo_inurba_marseille","lat":43.3095,"lon":5.39029,"is_reserved":false,"is_disabled":false,"rental_uris":{"android":"levelo://app?vid=c8cfc202-d733-4989-9330-14558b81f152","ios":"levelo://app?vid=c8cfc202-d733-4989-9330-14558b81f152"},"vehicle_type_id":"4","last_reported":1737015119,"current_range_meters":22800,"station_id":"ce4bgup2rcd13ifvqco0","pricing_plan_id":"cebpf4jnsgd1na2vs0mg"},{"bike_id":"b9d506f3-d5fd-4d37-904a-7c52215a265a","system_id":"levelo_inurba_marseille","lat":43.24177,"lon":5.39726,"is_reserved":false,"is_disabled":false,"rental_uris":{"android":"levelo://app?vid=b9d506f3-d5fd-4d37-904a-7c52215a265a","ios":"levelo://app?vid=b9d506f3-d5fd-4d37-904a-7c52215a265a"},"vehicle_type_id":"4","last_reported":1737015119,"current_range_meters":28400,"station_id":"ce4bhn12rcd13ifvqgpg","pricing_plan_id":"cebpf4jnsgd1na2vs0mg"},{"bike_id":"e36edd0e-87b1-44c2-adc6-29c5e51a215d","system_id":"levelo_inurba_marseille","lat":43.30563,"lon":5.36724,"is_reserved":false,"is_disabled":false,"rental_uris":{"android":"levelo://app?vid=e36edd0e-87b1-44c2-adc6-29c5e51a215d","ios":"levelo://app?vid=e36edd0e-87b1-44c2-adc6-29c5e51a215d"},"vehicle_type_id":"4","last_reported":1737015119,"current_range_meters":20000,"station_id":"ce4bgrp2rcd13ifvqc9g","pricing_plan_id":"cebpf4jnsgd1na2vs0mg"},{"bike_id":"b5e08de0-8cf7-47e4-a15b-685b67b6200e","system_id":"levelo_inurba_marseille","lat":43.29537,"lon":5.37509,"is_reserved":false,"is_disabled":true,"rental_uris":{"android":"levelo://app?vid=b5e08de0-8cf7-47e4-a15b-685b67b6200e","ios":"levelo://app?vid=b5e08de0-8cf7-47e4-a15b-685b67b6200e"},"vehicle_type_id":"4","last_reported":1737015119,"current_range_meters":36800,"station_id":"ce4bgkp2rcd13ifvqbmg","pricing_plan_id":"cebpf4jnsgd1na2vs0mg"},{"bike_id":"3dd0ce35-84cf-4b64-aab3-9d39b950bf85","system_id":"levelo_inurba_marseille","lat":43.29783,"lon":5.37105,"is_reserved":false,"is_disabled":false,"rental_uris":{"android":"levelo://app?vid=3dd0ce35-84cf-4b64-aab3-9d39b950bf85","ios":"levelo://app?vid=3dd0ce35-84cf-4b64-aab3-9d39b950bf85"},"vehicle_type_id":"4","last_reported":1737015119,"current_range_meters":38800,"station_id":"ce4bgop2rcd13ifvqc1g","pricing_plan_id":"cebpf4jnsgd1na2vs0mg"},{"bike_id":"1196e9f5-0570-4505-b30c-37b2b9c61113","system_id":"levelo_inurba_marseille","lat":43.25491,"lon":5.37665,"is_reserved":false,"is_disabled":false,"rental_uris":{"android":"levelo://app?vid=1196e9f5-0570-4505-b30c-37b2b9c61113","ios":"levelo://app?vid=1196e9f5-0570-4505-b30c-37b2b9c61113"},"vehicle_type_id":"4","last_reported":1737015119,"current_range_meters":38000,"station_id":"ce4bhh12rcd13ifvqff0","pricing_plan_id":"cebpf4jnsgd1na2vs0mg"},{"bike_id":"05dcce0a-1f30-4267-9930-c165e5e4ea9d","system_id":"levelo_inurba_marseille","lat":43.2408,"lon":5.37746,"is_reserved":false,"is_disabled":false,"rental_uris":{"android":"levelo://app?vid=05dcce0a-1f30-4267-9930-c165e5e4ea9d","ios":"levelo://app?vid=05dcce0a-1f30-4267-9930-c165e5e4ea9d"},"vehicle_type_id":"4","last_reported":1737015119,"current_range_meters":38800,"station_id":"ce4bhnp2rcd13ifvqgvg","pricing_plan_id":"cebpf4jnsgd1na2vs0mg"},{"bike_id":"4185b377-915c-4948-afc7-1540634fd56a","system_id":"levelo_inurba_marseille","lat":43.30617,"lon":5.39331,"is_reserved":false,"is_disabled":false,"rental_uris":{"android":"levelo://app?vid=4185b377-915c-4948-afc7-1540634fd56a","ios":"levelo://app?vid=4185b377-915c-4948-afc7-1540634fd56a"},"vehicle_type_id":"4","last_reported":1737015119,"current_range_meters":37600,"station_id":"ce4bh0p2rcd13ifvqd80","pricing_plan_id":"cebpf4jnsgd1na2vs0mg"},{"bike_id":"0e842b39-329d-48e2-b781-7e3babc96cf4","system_id":"levelo_inurba_marseille","lat":43.22951,"lon":5.35381,"is_reserved":false,"is_disabled":false,"rental_uris":{"android":"levelo://app?vid=0e842b39-329d-48e2-b781-7e3babc96cf4","ios":"levelo://app?vid=0e842b39-329d-48e2-b781-7e3babc96cf4"},"vehicle_type_id":"4","last_reported":1737015119,"current_range_meters":16800,"station_id":"cpo3532slgdg3j2ikp40","pricing_plan_id":"cebpf4jnsgd1na2vs0mg"},{"bike_id":"66d86647-f3d9-43c2-8067-2511dcc8853d","system_id":"levelo_inurba_marseille","lat":43.26946,"lon":5.40269,"is_reserved":false,"is_disabled":true,"rental_uris":{"android":"levelo://app?vid=66d86647-f3d9-43c2-8067-2511dcc8853d","ios":"levelo://app?vid=66d86647-f3d9-43c2-8067-2511dcc8853d"},"vehicle_type_id":"4","last_reported":1737015119,"current_range_meters":0,"station_id":"cjm6bp8fraef2m0cb0m0","pricing_plan_id":"cebpf4jnsgd1na2vs0mg"},{"bike_id":"d083a596-468f-49e0-b75d-d8e094f72423","system_id":"levelo_inurba_marseille","lat":43.31354,"lon":5.36715,"is_reserved":false,"is_disabled":false,"rental_uris":{"android":"levelo://app?vid=d083a596-468f-49e0-b75d-d8e094f72423","ios":"levelo://app?vid=d083a596-468f-49e0-b75d-d8e094f72423"},"vehicle_type_id":"4","last_reported":1737015119,"current_range_meters":25200,"station_id":"ce4bgr92rcd13ifvqc6g","pricing_plan_id":"cebpf4jnsgd1na2vs0mg"},{"bike_id":"0e7c3373-583a-438f-8dea-9a5760a26114","system_id":"levelo_inurba_marseille","lat":43.30883,"lon":5.37179,"is_reserved":false,"is_disabled":false,"rental_uris":{"android":"levelo://app?vid=0e7c3373-583a-438f-8dea-9a5760a26114","ios":"levelo://app?vid=0e7c3373-583a-438f-8dea-9a5760a26114"},"vehicle_type_id":"4","last_reported":1737015119,"current_range_meters":22000,"station_id":"ce4bguh2rcd13ifvqckg","pricing_plan_id":"cebpf4jnsgd1na2vs0mg"},{"bike_id":"8b6182c3-3c5e-4a05-80f5-f25cf3a13217","system_id":"levelo_inurba_marseille","lat":43.24536,"lon":5.3953,"is_reserved":false,"is_disabled":false,"rental_uris":{"android":"levelo://app?vid=8b6182c3-3c5e-4a05-80f5-f25cf3a13217","ios":"levelo://app?vid=8b6182c3-3c5e-4a05-80f5-f25cf3a13217"},"vehicle_type_id":"4","last_reported":1737015119,"current_range_meters":24800,"station_id":"ce4bhlp2rcd13ifvqgjg","pricing_plan_id":"cebpf4jnsgd1na2vs0mg"},{"bike_id":"b3888c95-de46-4170-b14f-9aa1dba6db78","system_id":"levelo_inurba_marseille","lat":43.25903,"lon":5.40913,"is_reserved":false,"is_disabled":false,"rental_uris":{"android":"levelo://app?vid=b3888c95-de46-4170-b14f-9aa1dba6db78","ios":"levelo://app?vid=b3888c95-de46-4170-b14f-9aa1dba6db78"},"vehicle_type_id":"4","last_reported":1737015119,"current_range_meters":30000,"station_id":"ce4bhm92rcd13ifvqglg","pricing_plan_id":"cebpf4jnsgd1na2vs0mg"},{"bike_id":"a56a5d73-b81b-4d86-9035-5b5f2dcab68b","system_id":"levelo_inurba_marseille","lat":43.32522,"lon":5.41464,"is_reserved":false,"is_disabled":false,"rental_uris":{"android":"levelo://app?vid=a56a5d73-b81b-4d86-9035-5b5f2dcab68b","ios":"levelo://app?vid=a56a5d73-b81b-4d86-9035-5b5f2dcab68b"},"vehicle_type_id":"4","last_reported":1737015119,"current_range_meters":24000,"station_id":"ce4bhq12rcd13ifvqhhg","pricing_plan_id":"cebpf4jnsgd1na2vs0mg"},{"bike_id":"62b62dd0-c110-403e-8ffe-32b7132fcedd","system_id":"levelo_inurba_marseille","lat":43.29374,"lon":5.37844,"is_reserved":false,"is_disabled":false,"rental_uris":{"android":"levelo://app?vid=62b62dd0-c110-403e-8ffe-32b7132fcedd","ios":"levelo://app?vid=62b62dd0-c110-403e-8ffe-32b7132fcedd"},"vehicle_type_id":"4","last_reported":1737015119,"current_range_meters":26800,"station_id":"ce4bgrp2rcd13ifvqc9g","pricing_plan_id":"cebpf4jnsgd1na2vs0mg"},{"bike_id":"21991245-c0ed-460a-96c0-efd1586188d9","system_id":"levelo_inurba_marseille","lat":43.260272,"lon":5.375534,"is_reserved":false,"is_disabled":false,"rental_uris":{"android":"levelo://app?vid=21991245-c0ed-460a-96c0-efd1586188d9","ios":"levelo://app?vid=21991245-c0ed-460a-96c0-efd1586188d9"},"vehicle_type_id":"4","last_reported":1737015119,"current_range_meters":36000,"station_id":"ce4bhgh2rcd13ifvqfa0","pricing_plan_id":"cebpf4jnsgd1na2vs0mg"},{"bike_id":"e3d573e9-e8fe-433e-b9bd-547eedd0721a","system_id":"levelo_inurba_marseille","lat":43.29802,"lon":5.38095,"is_reserved":false,"is_disabled":false,"rental_uris":{"android":"levelo://app?vid=e3d573e9-e8fe-433e-b9bd-547eedd0721a","ios":"levelo://app?vid=e3d573e9-e8fe-433e-b9bd-547eedd0721a"},"vehicle_type_id":"4","last_reported":1737015119,"current_range_meters":4800,"station_id":"ce4bgip2rcd13ifvqbb0","pricing_plan_id":"cebpf4jnsgd1na2vs0mg"},{"bike_id":"b96abaf4-0fa5-4720-8999-93f7ce59d4e6","system_id":"levelo_inurba_marseille","lat":43.27043,"lon":5.4229,"is_reserved":false,"is_disabled":false,"rental_uris":{"android":"levelo://app?vid=b96abaf4-0fa5-4720-8999-93f7ce59d4e6","ios":"levelo://app?vid=b96abaf4-0fa5-4720-8999-93f7ce59d4e6"},"vehicle_type_id":"4","last_reported":1737015119,"current_range_meters":35600,"station_id":"ce4bhk92rcd13ifvqgb0","pricing_plan_id":"cebpf4jnsgd1na2vs0mg"},{"bike_id":"bf640603-83b1-45ec-97b9-6f63203dda4b","system_id":"levelo_inurba_marseille","lat":43.28151,"lon":5.4263,"is_reserved":false,"is_disabled":false,"rental_uris":{"android":"levelo://app?vid=bf640603-83b1-45ec-97b9-6f63203dda4b","ios":"levelo://app?vid=bf640603-83b1-45ec-97b9-6f63203dda4b"},"vehicle_type_id":"4","last_reported":1737015119,"current_range_meters":22800,"station_id":"ce4bhnh2rcd13ifvqgug","pricing_plan_id":"cebpf4jnsgd1na2vs0mg"},{"bike_id":"43fd6972-8b77-49c4-9232-69d397e2e1ec","system_id":"levelo_inurba_marseille","lat":43.24069,"lon":5.37762,"is_reserved":false,"is_disabled":false,"rental_uris":{"android":"levelo://app?vid=43fd6972-8b77-49c4-9232-69d397e2e1ec","ios":"levelo://app?vid=43fd6972-8b77-49c4-9232-69d397e2e1ec"},"vehicle_type_id":"4","last_reported":1737015119,"current_range_meters":8800,"station_id":"ce4bhnp2rcd13ifvqgvg","pricing_plan_id":"cebpf4jnsgd1na2vs0mg"},{"bike_id":"ac05289a-b86a-4a38-a6f4-0ae03974beb5","system_id":"levelo_inurba_marseille","lat":43.27952,"lon":5.38721,"is_reserved":false,"is_disabled":true,"rental_uris":{"android":"levelo://app?vid=ac05289a-b86a-4a38-a6f4-0ae03974beb5","ios":"levelo://app?vid=ac05289a-b86a-4a38-a6f4-0ae03974beb5"},"vehicle_type_id":"4","last_reported":1737015119,"current_range_meters":0,"station_id":"ce4bhg12rcd13ifvqf80","pricing_plan_id":"cebpf4jnsgd1na2vs0mg"},{"bike_id":"b3988ad8-8463-4e4d-83c8-2aa002e2eda5","system_id":"levelo_inurba_marseille","lat":43.30213,"lon":5.39468,"is_reserved":false,"is_disabled":false,"rental_uris":{"android":"levelo://app?vid=b3988ad8-8463-4e4d-83c8-2aa002e2eda5","ios":"levelo://app?vid=b3988ad8-8463-4e4d-83c8-2aa002e2eda5"},"vehicle_type_id":"4","last_reported":1737015119,"current_range_meters":33200,"station_id":"ce4bh0p2rcd13ifvqd70","pricing_plan_id":"cebpf4jnsgd1na2vs0mg"},{"bike_id":"2cfc22a4-e5c0-4451-bb47-6db034e1f29d","system_id":"levelo_inurba_marseille","lat":43.31082,"lon":5.42429,"is_reserved":false,"is_disabled":false,"rental_uris":{"android":"levelo://app?vid=2cfc22a4-e5c0-4451-bb47-6db034e1f29d","ios":"levelo://app?vid=2cfc22a4-e5c0-4451-bb47-6db034e1f29d"},"vehicle_type_id":"4","last_reported":1737015119,"current_range_meters":16000,"station_id":"ce4bhp92rcd13ifvqhag","pricing_plan_id":"cebpf4jnsgd1na2vs0mg"},{"bike_id":"78a6905b-a0bc-410a-86bd-574d88fa653d","system_id":"levelo_inurba_marseille","lat":43.28538,"lon":5.3601,"is_reserved":false,"is_disabled":false,"rental_uris":{"android":"levelo://app?vid=78a6905b-a0bc-410a-86bd-574d88fa653d","ios":"levelo://app?vid=78a6905b-a0bc-410a-86bd-574d88fa653d"},"vehicle_type_id":"4","last_reported":1737015119,"current_range_meters":18000,"station_id":"ce4bgh92rcd13ifvqb50","pricing_plan_id":"cebpf4jnsgd1na2vs0mg"},{"bike_id":"c8e997c0-8580-4d0f-8d9f-0766596381e1","system_id":"levelo_inurba_marseille","lat":43.33918,"lon":5.37562,"is_reserved":false,"is_disabled":true,"rental_uris":{"android":"levelo://app?vid=c8e997c0-8580-4d0f-8d9f-0766596381e1","ios":"levelo://app?vid=c8e997c0-8580-4d0f-8d9f-0766596381e1"},"vehicle_type_id":"4","last_reported":1737015119,"current_range_meters":0,"station_id":"","pricing_plan_id":"cebpf4jnsgd1na2vs0mg"},{"bike_id":"e340e917-c270-4e31-8f27-90652c6718cd","system_id":"levelo_inurba_marseille","lat":43.313537,"lon":5.367198,"is_reserved":false,"is_disabled":false,"rental_uris":{"android":"levelo://app?vid=e340e917-c270-4e31-8f27-90652c6718cd","ios":"levelo://app?vid=e340e917-c270-4e31-8f27-90652c6718cd"},"vehicle_type_id":"4","last_reported":1737015119,"current_range_meters":29600,"station_id":"ce4bgr92rcd13ifvqc6g","pricing_plan_id":"cebpf4jnsgd1na2vs0mg"},{"bike_id":"20a1526a-6b93-4b78-8a18-19c12791dc6f","system_id":"levelo_inurba_marseille","lat":43.30286,"lon":5.37693,"is_reserved":false,"is_disabled":false,"rental_uris":{"android":"levelo://app?vid=20a1526a-6b93-4b78-8a18-19c12791dc6f","ios":"levelo://app?vid=20a1526a-6b93-4b78-8a18-19c12791dc6f"},"vehicle_type_id":"4","last_reported":1737015119,"current_range_meters":26000,"station_id":"ce4bguh2rcd13ifvqcj0","pricing_plan_id":"cebpf4jnsgd1na2vs0mg"},{"bike_id":"4b95be27-948e-4346-b198-5e539e23e270","system_id":"levelo_inurba_marseille","lat":43.29792,"lon":5.38089,"is_reserved":false,"is_disabled":false,"rental_uris":{"android":"levelo://app?vid=4b95be27-948e-4346-b198-5e539e23e270","ios":"levelo://app?vid=4b95be27-948e-4346-b198-5e539e23e270"},"vehicle_type_id":"4","last_reported":1737015119,"current_range_meters":17600,"station_id":"ce4bgip2rcd13ifvqbb0","pricing_plan_id":"cebpf4jnsgd1na2vs0mg"},{"bike_id":"c9a5f74e-5b70-4dd5-ad73-44b56cac3632","system_id":"levelo_inurba_marseille","lat":43.32485,"lon":5.36562,"is_reserved":false,"is_disabled":false,"rental_uris":{"android":"levelo://app?vid=c9a5f74e-5b70-4dd5-ad73-44b56cac3632","ios":"levelo://app?vid=c9a5f74e-5b70-4dd5-ad73-44b56cac3632"},"vehicle_type_id":"4","last_reported":1737015119,"current_range_meters":7200,"station_id":"ce4bhs12rcd13ifvqhvg","pricing_plan_id":"cebpf4jnsgd1na2vs0mg"},{"bike_id":"bef5c741-75bd-4f8f-a849-078d09ab7470","system_id":"levelo_inurba_marseille","lat":43.29861,"lon":5.43689,"is_reserved":false,"is_disabled":false,"rental_uris":{"android":"levelo://app?vid=bef5c741-75bd-4f8f-a849-078d09ab7470","ios":"levelo://app?vid=bef5c741-75bd-4f8f-a849-078d09ab7470"},"vehicle_type_id":"4","last_reported":1737015119,"current_range_meters":38800,"station_id":"ce4bhpp2rcd13ifvqhfg","pricing_plan_id":"cebpf4jnsgd1na2vs0mg"},{"bike_id":"b84dde7c-8657-4557-9077-ab9cf68c1f77","system_id":"levelo_inurba_marseille","lat":43.25932,"lon":5.40909,"is_reserved":false,"is_disabled":false,"rental_uris":{"android":"levelo://app?vid=b84dde7c-8657-4557-9077-ab9cf68c1f77","ios":"levelo://app?vid=b84dde7c-8657-4557-9077-ab9cf68c1f77"},"vehicle_type_id":"4","last_reported":1737015119,"current_range_meters":5600,"station_id":"ce4bhm92rcd13ifvqglg","pricing_plan_id":"cebpf4jnsgd1na2vs0mg"},{"bike_id":"426b760b-5b29-4f7d-aca9-7a9b7c2cd94a","system_id":"levelo_inurba_marseille","lat":43.24079,"lon":5.37743,"is_reserved":false,"is_disabled":false,"rental_uris":{"android":"levelo://app?vid=426b760b-5b29-4f7d-aca9-7a9b7c2cd94a","ios":"levelo://app?vid=426b760b-5b29-4f7d-aca9-7a9b7c2cd94a"},"vehicle_type_id":"4","last_reported":1737015119,"current_range_meters":27600,"station_id":"ce4bhnp2rcd13ifvqgvg","pricing_plan_id":"cebpf4jnsgd1na2vs0mg"},{"bike_id":"47f0faf5-7021-46f2-868a-2604e74f7115","system_id":"levelo_inurba_marseille","lat":43.34108,"lon":5.40893,"is_reserved":false,"is_disabled":false,"rental_uris":{"android":"levelo://app?vid=47f0faf5-7021-46f2-868a-2604e74f7115","ios":"levelo://app?vid=47f0faf5-7021-46f2-868a-2604e74f7115"},"vehicle_type_id":"4","last_reported":1737015119,"current_range_meters":38800,"station_id":"ce4bhqh2rcd13ifvqhlg","pricing_plan_id":"cebpf4jnsgd1na2vs0mg"},{"bike_id":"ee28e867-21e8-4831-b259-c94c83f948c2","system_id":"levelo_inurba_marseille","lat":43.29605,"lon":5.36746,"is_reserved":false,"is_disabled":false,"rental_uris":{"android":"levelo://app?vid=ee28e867-21e8-4831-b259-c94c83f948c2","ios":"levelo://app?vid=ee28e867-21e8-4831-b259-c94c83f948c2"},"vehicle_type_id":"4","last_reported":1737015119,"current_range_meters":28800,"station_id":"ce4bgph2rcd13ifvqc2g","pricing_plan_id":"cebpf4jnsgd1na2vs0mg"},{"bike_id":"47ae10c4-1543-4d0c-bb81-d1f7a87b175c","system_id":"levelo_inurba_marseille","lat":43.2957,"lon":5.37516,"is_reserved":false,"is_disabled":false,"rental_uris":{"android":"levelo://app?vid=47ae10c4-1543-4d0c-bb81-d1f7a87b175c","ios":"levelo://app?vid=47ae10c4-1543-4d0c-bb81-d1f7a87b175c"},"vehicle_type_id":"4","last_reported":1737015119,"current_range_meters":38400,"station_id":"ce4bgh92rcd13ifvqb50","pricing_plan_id":"cebpf4jnsgd1na2vs0mg"},{"bike_id":"fa53afd0-c3c0-46c2-be7e-d056eb14f6b8","system_id":"levelo_inurba_marseille","lat":43.24065,"lon":5.37764,"is_reserved":false,"is_disabled":false,"rental_uris":{"android":"levelo://app?vid=fa53afd0-c3c0-46c2-be7e-d056eb14f6b8","ios":"levelo://app?vid=fa53afd0-c3c0-46c2-be7e-d056eb14f6b8"},"vehicle_type_id":"4","last_reported":1737015119,"current_range_meters":38800,"station_id":"ce4bhnp2rcd13ifvqgvg","pricing_plan_id":"cebpf4jnsgd1na2vs0mg"},{"bike_id":"2fb6d3ea-bbe7-46b6-bd6c-8defdff1cb3a","system_id":"levelo_inurba_marseille","lat":43.313,"lon":5.36765,"is_reserved":false,"is_disabled":false,"rental_uris":{"android":"levelo://app?vid=2fb6d3ea-bbe7-46b6-bd6c-8defdff1cb3a","ios":"levelo://app?vid=2fb6d3ea-bbe7-46b6-bd6c-8defdff1cb3a"},"vehicle_type_id":"4","last_reported":1737015119,"current_range_meters":38800,"station_id":"ce4bgr92rcd13ifvqc6g","pricing_plan_id":"cebpf4jnsgd1na2vs0mg"},{"bike_id":"d0667ff6-79fe-403d-86e3-e40bf5a92767","system_id":"levelo_inurba_marseille","lat":43.28697,"lon":5.37392,"is_reserved":false,"is_disabled":true,"rental_uris":{"android":"levelo://app?vid=d0667ff6-79fe-403d-86e3-e40bf5a92767","ios":"levelo://app?vid=d0667ff6-79fe-403d-86e3-e40bf5a92767"},"vehicle_type_id":"4","last_reported":1737015119,"current_range_meters":33600,"station_id":"ce4bh3p2rcd13ifvqdq0","pricing_plan_id":"cebpf4jnsgd1na2vs0mg"},{"bike_id":"399333d8-7e44-4f49-af72-61d223799ab2","system_id":"levelo_inurba_marseille","lat":43.30947,"lon":5.39028,"is_reserved":false,"is_disabled":false,"rental_uris":{"android":"levelo://app?vid=399333d8-7e44-4f49-af72-61d223799ab2","ios":"levelo://app?vid=399333d8-7e44-4f49-af72-61d223799ab2"},"vehicle_type_id":"4","last_reported":1737015119,"current_range_meters":31200,"station_id":"ce4bgup2rcd13ifvqco0","pricing_plan_id":"cebpf4jnsgd1na2vs0mg"},{"bike_id":"155dbf4b-d6fe-46aa-9097-9994452a5158","system_id":"levelo_inurba_marseille","lat":43.23051,"lon":5.35502,"is_reserved":false,"is_disabled":false,"rental_uris":{"android":"levelo://app?vid=155dbf4b-d6fe-46aa-9097-9994452a5158","ios":"levelo://app?vid=155dbf4b-d6fe-46aa-9097-9994452a5158"},"vehicle_type_id":"4","last_reported":1737015119,"current_range_meters":9600,"station_id":"cpo3342slgdg3j2ifvpg","pricing_plan_id":"cebpf4jnsgd1na2vs0mg"},{"bike_id":"c1123218-c0ac-44cb-8bfc-d351322f52d0","system_id":"levelo_inurba_marseille","lat":43.27059,"lon":5.4228,"is_reserved":false,"is_disabled":false,"rental_uris":{"android":"levelo://app?vid=c1123218-c0ac-44cb-8bfc-d351322f52d0","ios":"levelo://app?vid=c1123218-c0ac-44cb-8bfc-d351322f52d0"},"vehicle_type_id":"4","last_reported":1737015119,"current_range_meters":14800,"station_id":"ce4bhk92rcd13ifvqgb0","pricing_plan_id":"cebpf4jnsgd1na2vs0mg"},{"bike_id":"fedfa1a7-997d-435d-b7b7-1cdfb17634c4","system_id":"levelo_inurba_marseille","lat":43.31224,"lon":5.36851,"is_reserved":false,"is_disabled":false,"rental_uris":{"android":"levelo://app?vid=fedfa1a7-997d-435d-b7b7-1cdfb17634c4","ios":"levelo://app?vid=fedfa1a7-997d-435d-b7b7-1cdfb17634c4"},"vehicle_type_id":"4","last_reported":1737015119,"current_range_meters":27200,"station_id":"ce4bgl92rcd13ifvqbq0","pricing_plan_id":"cebpf4jnsgd1na2vs0mg"},{"bike_id":"98342f93-7bf2-4304-817a-494cc685e2f4","system_id":"levelo_inurba_marseille","lat":43.33722,"lon":5.39187,"is_reserved":false,"is_disabled":false,"rental_uris":{"android":"levelo://app?vid=98342f93-7bf2-4304-817a-494cc685e2f4","ios":"levelo://app?vid=98342f93-7bf2-4304-817a-494cc685e2f4"},"vehicle_type_id":"4","last_reported":1737015119,"current_range_meters":32800,"station_id":"ce4bhr92rcd13ifvqhsg","pricing_plan_id":"cebpf4jnsgd1na2vs0mg"},{"bike_id":"23afad0c-16f6-49d8-8b43-d30f324c737a","system_id":"levelo_inurba_marseille","lat":43.30959,"lon":5.36842,"is_reserved":false,"is_disabled":false,"rental_uris":{"android":"levelo://app?vid=23afad0c-16f6-49d8-8b43-d30f324c737a","ios":"levelo://app?vid=23afad0c-16f6-49d8-8b43-d30f324c737a"},"vehicle_type_id":"4","last_reported":1737015119,"current_range_meters":38800,"station_id":"ce4bgn92rcd13ifvqbvg","pricing_plan_id":"cebpf4jnsgd1na2vs0mg"},{"bike_id":"0e148415-5fb7-4b85-bd8d-2efc964f268e","system_id":"levelo_inurba_marseille","lat":43.33732,"lon":5.39179,"is_reserved":false,"is_disabled":false,"rental_uris":{"android":"levelo://app?vid=0e148415-5fb7-4b85-bd8d-2efc964f268e","ios":"levelo://app?vid=0e148415-5fb7-4b85-bd8d-2efc964f268e"},"vehicle_type_id":"4","last_reported":1737015119,"current_range_meters":23200,"station_id":"ce4bhr92rcd13ifvqhsg","pricing_plan_id":"cebpf4jnsgd1na2vs0mg"},{"bike_id":"c7437ba1-2911-4673-a9b2-52800ffe0f0b","system_id":"levelo_inurba_marseille","lat":43.30955,"lon":5.39035,"is_reserved":false,"is_disabled":false,"rental_uris":{"android":"levelo://app?vid=c7437ba1-2911-4673-a9b2-52800ffe0f0b","ios":"levelo://app?vid=c7437ba1-2911-4673-a9b2-52800ffe0f0b"},"vehicle_type_id":"4","last_reported":1737015119,"current_range_meters":28400,"station_id":"ce4bgup2rcd13ifvqco0","pricing_plan_id":"cebpf4jnsgd1na2vs0mg"},{"bike_id":"0de1c0c3-224c-470c-9c40-92abbb1e542e","system_id":"levelo_inurba_marseille","lat":43.27411,"lon":5.39409,"is_reserved":false,"is_disabled":true,"rental_uris":{"android":"levelo://app?vid=0de1c0c3-224c-470c-9c40-92abbb1e542e","ios":"levelo://app?vid=0de1c0c3-224c-470c-9c40-92abbb1e542e"},"vehicle_type_id":"4","last_reported":1737015119,"current_range_meters":25200,"station_id":"ce4bhdp2rcd13ifvqf20","pricing_plan_id":"cebpf4jnsgd1na2vs0mg"},{"bike_id":"7addf677-c83c-41c7-9844-7355d6b28bb7","system_id":"levelo_inurba_marseille","lat":43.29017,"lon":5.35608,"is_reserved":false,"is_disabled":false,"rental_uris":{"android":"levelo://app?vid=7addf677-c83c-41c7-9844-7355d6b28bb7","ios":"levelo://app?vid=7addf677-c83c-41c7-9844-7355d6b28bb7"},"vehicle_type_id":"4","last_reported":1737015119,"current_range_meters":37600,"station_id":"ce4bhb92rcd13ifvqen0","pricing_plan_id":"cebpf4jnsgd1na2vs0mg"},{"bike_id":"0dd249c5-71e0-40d2-b6b7-dd49d81a304c","system_id":"levelo_inurba_marseille","lat":43.28504,"lon":5.38585,"is_reserved":false,"is_disabled":true,"rental_uris":{"android":"levelo://app?vid=0dd249c5-71e0-40d2-b6b7-dd49d81a304c","ios":"levelo://app?vid=0dd249c5-71e0-40d2-b6b7-dd49d81a304c"},"vehicle_type_id":"4","last_reported":1737015119,"current_range_meters":38800,"station_id":"ce4bh8p2rcd13ifvqeb0","pricing_plan_id":"cebpf4jnsgd1na2vs0mg"},{"bike_id":"1f149e26-9d4e-4970-96ec-1b76430b914b","system_id":"levelo_inurba_marseille","lat":43.24397,"lon":5.37051,"is_reserved":false,"is_disabled":false,"rental_uris":{"android":"levelo://app?vid=1f149e26-9d4e-4970-96ec-1b76430b914b","ios":"levelo://app?vid=1f149e26-9d4e-4970-96ec-1b76430b914b"},"vehicle_type_id":"4","last_reported":1737015119,"current_range_meters":36400,"station_id":"ce4bhhh2rcd13ifvqfk0","pricing_plan_id":"cebpf4jnsgd1na2vs0mg"},{"bike_id":"da3afe3c-5cdd-453f-9551-77e8476e7381","system_id":"levelo_inurba_marseille","lat":43.29531,"lon":5.38537,"is_reserved":false,"is_disabled":false,"rental_uris":{"android":"levelo://app?vid=da3afe3c-5cdd-453f-9551-77e8476e7381","ios":"levelo://app?vid=da3afe3c-5cdd-453f-9551-77e8476e7381"},"vehicle_type_id":"4","last_reported":1737015119,"current_range_meters":37600,"station_id":"ce4bgih2rcd13ifvqba0","pricing_plan_id":"cebpf4jnsgd1na2vs0mg"},{"bike_id":"744c23c8-8276-47c8-8fe8-773da9c08368","system_id":"levelo_inurba_marseille","lat":43.34142,"lon":5.40903,"is_reserved":false,"is_disabled":false,"rental_uris":{"android":"levelo://app?vid=744c23c8-8276-47c8-8fe8-773da9c08368","ios":"levelo://app?vid=744c23c8-8276-47c8-8fe8-773da9c08368"},"vehicle_type_id":"4","last_reported":1737015119,"current_range_meters":38800,"station_id":"ce4bhqh2rcd13ifvqhlg","pricing_plan_id":"cebpf4jnsgd1na2vs0mg"},{"bike_id":"e052f47d-c314-4142-a490-846c18d74eff","system_id":"levelo_inurba_marseille","lat":43.28713,"lon":5.37926,"is_reserved":false,"is_disabled":true,"rental_uris":{"android":"levelo://app?vid=e052f47d-c314-4142-a490-846c18d74eff","ios":"levelo://app?vid=e052f47d-c314-4142-a490-846c18d74eff"},"vehicle_type_id":"4","last_reported":1737015119,"current_range_meters":27600,"station_id":"ce4bh9p2rcd13ifvqec0","pricing_plan_id":"cebpf4jnsgd1na2vs0mg"},{"bike_id":"42387eda-6a96-44c7-931c-125d67339d07","system_id":"levelo_inurba_marseille","lat":43.309067,"lon":5.368496,"is_reserved":false,"is_disabled":false,"rental_uris":{"android":"levelo://app?vid=42387eda-6a96-44c7-931c-125d67339d07","ios":"levelo://app?vid=42387eda-6a96-44c7-931c-125d67339d07"},"vehicle_type_id":"4","last_reported":1737015119,"current_range_meters":38800,"station_id":"ce4bgn92rcd13ifvqbvg","pricing_plan_id":"cebpf4jnsgd1na2vs0mg"},{"bike_id":"51a867de-4072-4eed-982d-a9c5581da22e","system_id":"levelo_inurba_marseille","lat":43.28018,"lon":5.36959,"is_reserved":false,"is_disabled":false,"rental_uris":{"android":"levelo://app?vid=51a867de-4072-4eed-982d-a9c5581da22e","ios":"levelo://app?vid=51a867de-4072-4eed-982d-a9c5581da22e"},"vehicle_type_id":"4","last_reported":1737015119,"current_range_meters":14800,"station_id":"ce4bha12rcd13ifvqef0","pricing_plan_id":"cebpf4jnsgd1na2vs0mg"},{"bike_id":"a3be0020-a5b1-43f7-b7fb-1b88f0d142ef","system_id":"levelo_inurba_marseille","lat":43.29879,"lon":5.39748,"is_reserved":false,"is_disabled":true,"rental_uris":{"android":"levelo://app?vid=a3be0020-a5b1-43f7-b7fb-1b88f0d142ef","ios":"levelo://app?vid=a3be0020-a5b1-43f7-b7fb-1b88f0d142ef"},"vehicle_type_id":"4","last_reported":1737015119,"current_range_meters":14400,"station_id":"ce4bh0h2rcd13ifvqd50","pricing_plan_id":"cebpf4jnsgd1na2vs0mg"},{"bike_id":"2de2eb04-8b58-4120-afdb-74ffab188c24","system_id":"levelo_inurba_marseille","lat":43.31364,"lon":5.36712,"is_reserved":false,"is_disabled":false,"rental_uris":{"android":"levelo://app?vid=2de2eb04-8b58-4120-afdb-74ffab188c24","ios":"levelo://app?vid=2de2eb04-8b58-4120-afdb-74ffab188c24"},"vehicle_type_id":"4","last_reported":1737015119,"current_range_meters":27200,"station_id":"ce4bgr92rcd13ifvqc6g","pricing_plan_id":"cebpf4jnsgd1na2vs0mg"},{"bike_id":"2c839bfc-228b-4afd-9c45-0e54b8f36672","system_id":"levelo_inurba_marseille","lat":43.24652,"lon":5.38892,"is_reserved":false,"is_disabled":false,"rental_uris":{"android":"levelo://app?vid=2c839bfc-228b-4afd-9c45-0e54b8f36672","ios":"levelo://app?vid=2c839bfc-228b-4afd-9c45-0e54b8f36672"},"vehicle_type_id":"4","last_reported":1737015119,"current_range_meters":38800,"station_id":"ce4bhg12rcd13ifvqf60","pricing_plan_id":"cebpf4jnsgd1na2vs0mg"},{"bike_id":"123f889a-b778-43d3-8ba3-9f14dad0bc92","system_id":"levelo_inurba_marseille","lat":43.32479,"lon":5.36588,"is_reserved":false,"is_disabled":true,"rental_uris":{"android":"levelo://app?vid=123f889a-b778-43d3-8ba3-9f14dad0bc92","ios":"levelo://app?vid=123f889a-b778-43d3-8ba3-9f14dad0bc92"},"vehicle_type_id":"4","last_reported":1737015119,"current_range_meters":36000,"station_id":"ce4bhs12rcd13ifvqhvg","pricing_plan_id":"cebpf4jnsgd1na2vs0mg"},{"bike_id":"fc1893eb-8966-4fd8-95bb-a878d4a8cff3","system_id":"levelo_inurba_marseille","lat":43.29565,"lon":5.37504,"is_reserved":false,"is_disabled":false,"rental_uris":{"android":"levelo://app?vid=fc1893eb-8966-4fd8-95bb-a878d4a8cff3","ios":"levelo://app?vid=fc1893eb-8966-4fd8-95bb-a878d4a8cff3"},"vehicle_type_id":"4","last_reported":1737015119,"current_range_meters":22800,"station_id":"ce4bgh92rcd13ifvqb50","pricing_plan_id":"cebpf4jnsgd1na2vs0mg"},{"bike_id":"a4b2b8d5-aa63-4d8a-ba43-c3d14ae40e23","system_id":"levelo_inurba_marseille","lat":43.29371,"lon":5.3784,"is_reserved":false,"is_disabled":false,"rental_uris":{"android":"levelo://app?vid=a4b2b8d5-aa63-4d8a-ba43-c3d14ae40e23","ios":"levelo://app?vid=a4b2b8d5-aa63-4d8a-ba43-c3d14ae40e23"},"vehicle_type_id":"4","last_reported":1737015119,"current_range_meters":23200,"station_id":"ce4bgjh2rcd13ifvqbf0","pricing_plan_id":"cebpf4jnsgd1na2vs0mg"},{"bike_id":"2766686f-7696-4a1d-bceb-e3abea7dd924","system_id":"levelo_inurba_marseille","lat":43.31224,"lon":5.36855,"is_reserved":false,"is_disabled":false,"rental_uris":{"android":"levelo://app?vid=2766686f-7696-4a1d-bceb-e3abea7dd924","ios":"levelo://app?vid=2766686f-7696-4a1d-bceb-e3abea7dd924"},"vehicle_type_id":"4","last_reported":1737015119,"current_range_meters":33600,"station_id":"ce4bgl92rcd13ifvqbq0","pricing_plan_id":"cebpf4jnsgd1na2vs0mg"},{"bike_id":"b87489c6-3402-4768-a2bb-581eef60194a","system_id":"levelo_inurba_marseille","lat":43.30893,"lon":5.36871,"is_reserved":false,"is_disabled":false,"rental_uris":{"android":"levelo://app?vid=b87489c6-3402-4768-a2bb-581eef60194a","ios":"levelo://app?vid=b87489c6-3402-4768-a2bb-581eef60194a"},"vehicle_type_id":"4","last_reported":1737015119,"current_range_meters":37600,"station_id":"ce4bgn92rcd13ifvqbvg","pricing_plan_id":"cebpf4jnsgd1na2vs0mg"},{"bike_id":"dd566868-336c-4a31-b7a0-e260cf6d28b9","system_id":"levelo_inurba_marseille","lat":43.318807,"lon":5.407401,"is_reserved":false,"is_disabled":false,"rental_uris":{"android":"levelo://app?vid=dd566868-336c-4a31-b7a0-e260cf6d28b9","ios":"levelo://app?vid=dd566868-336c-4a31-b7a0-e260cf6d28b9"},"vehicle_type_id":"4","last_reported":1737015119,"current_range_meters":4400,"station_id":"ce4bhq12rcd13ifvqhig","pricing_plan_id":"cebpf4jnsgd1na2vs0mg"},{"bike_id":"a15980ac-c225-4e68-8982-6cc8c4cbfd79","system_id":"levelo_inurba_marseille","lat":43.23197,"lon":5.355623,"is_reserved":false,"is_disabled":false,"rental_uris":{"android":"levelo://app?vid=a15980ac-c225-4e68-8982-6cc8c4cbfd79","ios":"levelo://app?vid=a15980ac-c225-4e68-8982-6cc8c4cbfd79"},"vehicle_type_id":"4","last_reported":1737015119,"current_range_meters":38800,"station_id":"ce4bhu92rcd13ifvqi70","pricing_plan_id":"cebpf4jnsgd1na2vs0mg"},{"bike_id":"11f60f36-9e59-4934-b741-a49d23b7f137","system_id":"levelo_inurba_marseille","lat":43.27495,"lon":5.4246,"is_reserved":false,"is_disabled":false,"rental_uris":{"android":"levelo://app?vid=11f60f36-9e59-4934-b741-a49d23b7f137","ios":"levelo://app?vid=11f60f36-9e59-4934-b741-a49d23b7f137"},"vehicle_type_id":"4","last_reported":1737015119,"current_range_meters":33200,"station_id":"ce4bhn92rcd13ifvqgrg","pricing_plan_id":"cebpf4jnsgd1na2vs0mg"},{"bike_id":"d4ffcdfc-ef5e-441a-a050-e62a106e3f65","system_id":"levelo_inurba_marseille","lat":43.27493,"lon":5.42449,"is_reserved":false,"is_disabled":false,"rental_uris":{"android":"levelo://app?vid=d4ffcdfc-ef5e-441a-a050-e62a106e3f65","ios":"levelo://app?vid=d4ffcdfc-ef5e-441a-a050-e62a106e3f65"},"vehicle_type_id":"4","last_reported":1737015119,"current_range_meters":26000,"station_id":"ce4bhn92rcd13ifvqgrg","pricing_plan_id":"cebpf4jnsgd1na2vs0mg"},{"bike_id":"7f8df54c-82f8-4382-9b0b-6f9a4457ad6f","system_id":"levelo_inurba_marseille","lat":43.29578,"lon":5.3751,"is_reserved":false,"is_disabled":false,"rental_uris":{"android":"levelo://app?vid=7f8df54c-82f8-4382-9b0b-6f9a4457ad6f","ios":"levelo://app?vid=7f8df54c-82f8-4382-9b0b-6f9a4457ad6f"},"vehicle_type_id":"4","last_reported":1737015119,"current_range_meters":22000,"station_id":"ce4bgh92rcd13ifvqb50","pricing_plan_id":"cebpf4jnsgd1na2vs0mg"},{"bike_id":"770e1908-ef37-49c9-a1dc-cb73d389845e","system_id":"levelo_inurba_marseille","lat":43.32534,"lon":5.41432,"is_reserved":false,"is_disabled":false,"rental_uris":{"android":"levelo://app?vid=770e1908-ef37-49c9-a1dc-cb73d389845e","ios":"levelo://app?vid=770e1908-ef37-49c9-a1dc-cb73d389845e"},"vehicle_type_id":"4","last_reported":1737015119,"current_range_meters":27600,"station_id":"ce4bhq12rcd13ifvqhhg","pricing_plan_id":"cebpf4jnsgd1na2vs0mg"},{"bike_id":"74033fc6-8e66-4d5b-ada4-e41e70dd4583","system_id":"levelo_inurba_marseille","lat":43.28719,"lon":5.379325,"is_reserved":false,"is_disabled":false,"rental_uris":{"android":"levelo://app?vid=74033fc6-8e66-4d5b-ada4-e41e70dd4583","ios":"levelo://app?vid=74033fc6-8e66-4d5b-ada4-e41e70dd4583"},"vehicle_type_id":"4","last_reported":1737015119,"current_range_meters":28400,"station_id":"ce4bh9p2rcd13ifvqec0","pricing_plan_id":"cebpf4jnsgd1na2vs0mg"},{"bike_id":"278f9cc6-384b-44cd-9b1b-d3b069dc5250","system_id":"levelo_inurba_marseille","lat":43.30466,"lon":5.3791,"is_reserved":false,"is_disabled":false,"rental_uris":{"android":"levelo://app?vid=278f9cc6-384b-44cd-9b1b-d3b069dc5250","ios":"levelo://app?vid=278f9cc6-384b-44cd-9b1b-d3b069dc5250"},"vehicle_type_id":"4","last_reported":1737015119,"current_range_meters":18000,"station_id":"ce4bgup2rcd13ifvqcn0","pricing_plan_id":"cebpf4jnsgd1na2vs0mg"},{"bike_id":"d7ab7de0-4a8c-457a-a21a-73391af488df","system_id":"levelo_inurba_marseille","lat":43.32089,"lon":5.36795,"is_reserved":false,"is_disabled":false,"rental_uris":{"android":"levelo://app?vid=d7ab7de0-4a8c-457a-a21a-73391af488df","ios":"levelo://app?vid=d7ab7de0-4a8c-457a-a21a-73391af488df"},"vehicle_type_id":"4","last_reported":1737015119,"current_range_meters":38400,"station_id":"ce4bhrh2rcd13ifvqhug","pricing_plan_id":"cebpf4jnsgd1na2vs0mg"},{"bike_id":"51bb6953-dea8-4e82-96bf-52696267905f","system_id":"levelo_inurba_marseille","lat":43.23079,"lon":5.35466,"is_reserved":false,"is_disabled":false,"rental_uris":{"android":"levelo://app?vid=51bb6953-dea8-4e82-96bf-52696267905f","ios":"levelo://app?vid=51bb6953-dea8-4e82-96bf-52696267905f"},"vehicle_type_id":"4","last_reported":1737015119,"current_range_meters":38000,"station_id":"cpo3342slgdg3j2ifvpg","pricing_plan_id":"cebpf4jnsgd1na2vs0mg"},{"bike_id":"cdfd57cf-5e09-408c-85a1-5ced938a7819","system_id":"levelo_inurba_marseille","lat":43.33608,"lon":5.41021,"is_reserved":false,"is_disabled":false,"rental_uris":{"android":"levelo://app?vid=cdfd57cf-5e09-408c-85a1-5ced938a7819","ios":"levelo://app?vid=cdfd57cf-5e09-408c-85a1-5ced938a7819"},"vehicle_type_id":"4","last_reported":1737015119,"current_range_meters":38800,"station_id":"ce4bhqh2rcd13ifvqhmg","pricing_plan_id":"cebpf4jnsgd1na2vs0mg"},{"bike_id":"bcaf1888-0e72-497a-935f-c6ecf67bfe31","system_id":"levelo_inurba_marseille","lat":43.30713,"lon":5.39565,"is_reserved":false,"is_disabled":false,"rental_uris":{"android":"levelo://app?vid=bcaf1888-0e72-497a-935f-c6ecf67bfe31","ios":"levelo://app?vid=bcaf1888-0e72-497a-935f-c6ecf67bfe31"},"vehicle_type_id":"4","last_reported":1737015119,"current_range_meters":28000,"station_id":"","pricing_plan_id":"cebpf4jnsgd1na2vs0mg"},{"bike_id":"f592dfb4-775e-4e71-85c5-87c8e4a9408d","system_id":"levelo_inurba_marseille","lat":43.24064,"lon":5.37752,"is_reserved":false,"is_disabled":false,"rental_uris":{"android":"levelo://app?vid=f592dfb4-775e-4e71-85c5-87c8e4a9408d","ios":"levelo://app?vid=f592dfb4-775e-4e71-85c5-87c8e4a9408d"},"vehicle_type_id":"4","last_reported":1737015119,"current_range_meters":36800,"station_id":"ce4bhnp2rcd13ifvqgvg","pricing_plan_id":"cebpf4jnsgd1na2vs0mg"},{"bike_id":"f1c04f9d-9228-4985-8935-9541b807fb5a","system_id":"levelo_inurba_marseille","lat":43.24067,"lon":5.37749,"is_reserved":false,"is_disabled":false,"rental_uris":{"android":"levelo://app?vid=f1c04f9d-9228-4985-8935-9541b807fb5a","ios":"levelo://app?vid=f1c04f9d-9228-4985-8935-9541b807fb5a"},"vehicle_type_id":"4","last_reported":1737015119,"current_range_meters":26000,"station_id":"ce4bhnp2rcd13ifvqgvg","pricing_plan_id":"cebpf4jnsgd1na2vs0mg"},{"bike_id":"9ba2974b-252f-405a-82ea-0cc04cb2cc50","system_id":"levelo_inurba_marseille","lat":43.24081,"lon":5.37742,"is_reserved":false,"is_disabled":false,"rental_uris":{"android":"levelo://app?vid=9ba2974b-252f-405a-82ea-0cc04cb2cc50","ios":"levelo://app?vid=9ba2974b-252f-405a-82ea-0cc04cb2cc50"},"vehicle_type_id":"4","last_reported":1737015119,"current_range_meters":38800,"station_id":"ce4bhnp2rcd13ifvqgvg","pricing_plan_id":"cebpf4jnsgd1na2vs0mg"},{"bike_id":"3bea599d-9d1d-4ce1-a78c-b94821d3e8a3","system_id":"levelo_inurba_marseille","lat":43.25001,"lon":5.38931,"is_reserved":false,"is_disabled":false,"rental_uris":{"android":"levelo://app?vid=3bea599d-9d1d-4ce1-a78c-b94821d3e8a3","ios":"levelo://app?vid=3bea599d-9d1d-4ce1-a78c-b94821d3e8a3"},"vehicle_type_id":"4","last_reported":1737015119,"current_range_meters":38000,"station_id":"ce4bhgp2rcd13ifvqfd0","pricing_plan_id":"cebpf4jnsgd1na2vs0mg"},{"bike_id":"434e2c9e-fc85-454d-a96d-4707fa997f6b","system_id":"levelo_inurba_marseille","lat":43.2906,"lon":5.39909,"is_reserved":false,"is_disabled":false,"rental_uris":{"android":"levelo://app?vid=434e2c9e-fc85-454d-a96d-4707fa997f6b","ios":"levelo://app?vid=434e2c9e-fc85-454d-a96d-4707fa997f6b"},"vehicle_type_id":"4","last_reported":1737015119,"current_range_meters":27200,"station_id":"ce4bh392rcd13ifvqdm0","pricing_plan_id":"cebpf4jnsgd1na2vs0mg"},{"bike_id":"c19544c5-a3ac-419a-a485-236d53075008","system_id":"levelo_inurba_marseille","lat":43.30676,"lon":5.39497,"is_reserved":false,"is_disabled":false,"rental_uris":{"android":"levelo://app?vid=c19544c5-a3ac-419a-a485-236d53075008","ios":"levelo://app?vid=c19544c5-a3ac-419a-a485-236d53075008"},"vehicle_type_id":"4","last_reported":1737015119,"current_range_meters":35200,"station_id":"ce4bh0p2rcd13ifvqd80","pricing_plan_id":"cebpf4jnsgd1na2vs0mg"},{"bike_id":"566947fd-453f-47a9-b4f2-3a84ed34408a","system_id":"levelo_inurba_marseille","lat":43.28352,"lon":5.38624,"is_reserved":false,"is_disabled":false,"rental_uris":{"android":"levelo://app?vid=566947fd-453f-47a9-b4f2-3a84ed34408a","ios":"levelo://app?vid=566947fd-453f-47a9-b4f2-3a84ed34408a"},"vehicle_type_id":"4","last_reported":1737015119,"current_range_meters":17600,"station_id":"ce4bh492rcd13ifvqdvg","pricing_plan_id":"cebpf4jnsgd1na2vs0mg"},{"bike_id":"f6b5a21b-caca-4bab-9767-62a516c88435","system_id":"levelo_inurba_marseille","lat":43.24647,"lon":5.38893,"is_reserved":false,"is_disabled":false,"rental_uris":{"android":"levelo://app?vid=f6b5a21b-caca-4bab-9767-62a516c88435","ios":"levelo://app?vid=f6b5a21b-caca-4bab-9767-62a516c88435"},"vehicle_type_id":"4","last_reported":1737015119,"current_range_meters":39200,"station_id":"ce4bhg12rcd13ifvqf60","pricing_plan_id":"cebpf4jnsgd1na2vs0mg"},{"bike_id":"b2a042cb-5202-4925-b3f3-89194c9c393d","system_id":"levelo_inurba_marseille","lat":43.30583,"lon":5.39352,"is_reserved":false,"is_disabled":false,"rental_uris":{"android":"levelo://app?vid=b2a042cb-5202-4925-b3f3-89194c9c393d","ios":"levelo://app?vid=b2a042cb-5202-4925-b3f3-89194c9c393d"},"vehicle_type_id":"4","last_reported":1737015119,"current_range_meters":30000,"station_id":"ce4bh0p2rcd13ifvqd80","pricing_plan_id":"cebpf4jnsgd1na2vs0mg"},{"bike_id":"26bf88bc-9ab6-4d8a-bd3b-8823091c5a70","system_id":"levelo_inurba_marseille","lat":43.28158,"lon":5.42632,"is_reserved":false,"is_disabled":true,"rental_uris":{"android":"levelo://app?vid=26bf88bc-9ab6-4d8a-bd3b-8823091c5a70","ios":"levelo://app?vid=26bf88bc-9ab6-4d8a-bd3b-8823091c5a70"},"vehicle_type_id":"4","last_reported":1737015119,"current_range_meters":19200,"station_id":"ce4bhnh2rcd13ifvqgug","pricing_plan_id":"cebpf4jnsgd1na2vs0mg"},{"bike_id":"00650814-c228-44bd-9f52-9d4f86ad033e","system_id":"levelo_inurba_marseille","lat":43.30906,"lon":5.36832,"is_reserved":false,"is_disabled":false,"rental_uris":{"android":"levelo://app?vid=00650814-c228-44bd-9f52-9d4f86ad033e","ios":"levelo://app?vid=00650814-c228-44bd-9f52-9d4f86ad033e"},"vehicle_type_id":"4","last_reported":1737015119,"current_range_meters":28000,"station_id":"ce4bgn92rcd13ifvqbvg","pricing_plan_id":"cebpf4jnsgd1na2vs0mg"},{"bike_id":"cf3a1bbf-8ad7-4510-a0f4-df45d4403fdc","system_id":"levelo_inurba_marseille","lat":43.24772,"lon":5.400307,"is_reserved":false,"is_disabled":true,"rental_uris":{"android":"levelo://app?vid=cf3a1bbf-8ad7-4510-a0f4-df45d4403fdc","ios":"levelo://app?vid=cf3a1bbf-8ad7-4510-a0f4-df45d4403fdc"},"vehicle_type_id":"4","last_reported":1737015119,"current_range_meters":38400,"station_id":"","pricing_plan_id":"cebpf4jnsgd1na2vs0mg"},{"bike_id":"fed0e57e-1d07-4c94-b8ec-712ffa544c47","system_id":"levelo_inurba_marseille","lat":43.24206,"lon":5.36742,"is_reserved":false,"is_disabled":false,"rental_uris":{"android":"levelo://app?vid=fed0e57e-1d07-4c94-b8ec-712ffa544c47","ios":"levelo://app?vid=fed0e57e-1d07-4c94-b8ec-712ffa544c47"},"vehicle_type_id":"4","last_reported":1737015119,"current_range_meters":15200,"station_id":"","pricing_plan_id":"cebpf4jnsgd1na2vs0mg"},{"bike_id":"cb57f13e-0f96-498a-b9ca-57c0b42e7a64","system_id":"levelo_inurba_marseille","lat":43.23959,"lon":5.366338,"is_reserved":false,"is_disabled":false,"rental_uris":{"android":"levelo://app?vid=cb57f13e-0f96-498a-b9ca-57c0b42e7a64","ios":"levelo://app?vid=cb57f13e-0f96-498a-b9ca-57c0b42e7a64"},"vehicle_type_id":"4","last_reported":1737015119,"current_range_meters":20000,"station_id":"ce4bhi12rcd13ifvqfp0","pricing_plan_id":"cebpf4jnsgd1na2vs0mg"},{"bike_id":"a56bdef2-14b8-4e02-b3bc-538917283971","system_id":"levelo_inurba_marseille","lat":43.25077,"lon":5.39553,"is_reserved":false,"is_disabled":false,"rental_uris":{"android":"levelo://app?vid=a56bdef2-14b8-4e02-b3bc-538917283971","ios":"levelo://app?vid=a56bdef2-14b8-4e02-b3bc-538917283971"},"vehicle_type_id":"4","last_reported":1737015119,"current_range_meters":24800,"station_id":"ce4bhm12rcd13ifvqgkg","pricing_plan_id":"cebpf4jnsgd1na2vs0mg"},{"bike_id":"1e040693-baaf-4374-8c35-8fd64d6321d0","system_id":"levelo_inurba_marseille","lat":43.28478,"lon":5.38952,"is_reserved":false,"is_disabled":false,"rental_uris":{"android":"levelo://app?vid=1e040693-baaf-4374-8c35-8fd64d6321d0","ios":"levelo://app?vid=1e040693-baaf-4374-8c35-8fd64d6321d0"},"vehicle_type_id":"4","last_reported":1737015119,"current_range_meters":30800,"station_id":"","pricing_plan_id":"cebpf4jnsgd1na2vs0mg"},{"bike_id":"24dbccc1-0217-40d1-a05c-a7afc1fbbb6c","system_id":"levelo_inurba_marseille","lat":43.28936,"lon":5.36388,"is_reserved":false,"is_disabled":false,"rental_uris":{"android":"levelo://app?vid=24dbccc1-0217-40d1-a05c-a7afc1fbbb6c","ios":"levelo://app?vid=24dbccc1-0217-40d1-a05c-a7afc1fbbb6c"},"vehicle_type_id":"4","last_reported":1737015119,"current_range_meters":6800,"station_id":"ce4bhc92rcd13ifvqetg","pricing_plan_id":"cebpf4jnsgd1na2vs0mg"},{"bike_id":"e5b9252e-eebf-4c90-b028-b53cc4934330","system_id":"levelo_inurba_marseille","lat":43.30344,"lon":5.4188,"is_reserved":false,"is_disabled":true,"rental_uris":{"android":"levelo://app?vid=e5b9252e-eebf-4c90-b028-b53cc4934330","ios":"levelo://app?vid=e5b9252e-eebf-4c90-b028-b53cc4934330"},"vehicle_type_id":"4","last_reported":1737015119,"current_range_meters":14400,"station_id":"ce4bhop2rcd13ifvqh7g","pricing_plan_id":"cebpf4jnsgd1na2vs0mg"},{"bike_id":"b0d9cfb0-5a2b-4f25-8ec3-d507abc35283","system_id":"levelo_inurba_marseille","lat":43.25937,"lon":5.40898,"is_reserved":false,"is_disabled":false,"rental_uris":{"android":"levelo://app?vid=b0d9cfb0-5a2b-4f25-8ec3-d507abc35283","ios":"levelo://app?vid=b0d9cfb0-5a2b-4f25-8ec3-d507abc35283"},"vehicle_type_id":"4","last_reported":1737015119,"current_range_meters":28800,"station_id":"ce4bhm92rcd13ifvqglg","pricing_plan_id":"cebpf4jnsgd1na2vs0mg"},{"bike_id":"4bd88fd0-87a8-497a-be11-41c0f13234dc","system_id":"levelo_inurba_marseille","lat":43.24996,"lon":5.38929,"is_reserved":false,"is_disabled":false,"rental_uris":{"android":"levelo://app?vid=4bd88fd0-87a8-497a-be11-41c0f13234dc","ios":"levelo://app?vid=4bd88fd0-87a8-497a-be11-41c0f13234dc"},"vehicle_type_id":"4","last_reported":1737015119,"current_range_meters":3200,"station_id":"ce4bhgp2rcd13ifvqfd0","pricing_plan_id":"cebpf4jnsgd1na2vs0mg"},{"bike_id":"93af35ad-738e-40e4-afcb-6d3589d7e732","system_id":"levelo_inurba_marseille","lat":43.231551,"lon":5.436966,"is_reserved":false,"is_disabled":false,"rental_uris":{"android":"levelo://app?vid=93af35ad-738e-40e4-afcb-6d3589d7e732","ios":"levelo://app?vid=93af35ad-738e-40e4-afcb-6d3589d7e732"},"vehicle_type_id":"4","last_reported":1737015119,"current_range_meters":24000,"station_id":"ce4bhmp2rcd13ifvqgog","pricing_plan_id":"cebpf4jnsgd1na2vs0mg"},{"bike_id":"653d7eb5-e932-4d0f-8eba-b2bccd81fbe5","system_id":"levelo_inurba_marseille","lat":43.31356,"lon":5.3671,"is_reserved":false,"is_disabled":true,"rental_uris":{"android":"levelo://app?vid=653d7eb5-e932-4d0f-8eba-b2bccd81fbe5","ios":"levelo://app?vid=653d7eb5-e932-4d0f-8eba-b2bccd81fbe5"},"vehicle_type_id":"4","last_reported":1737015119,"current_range_meters":0,"station_id":"","pricing_plan_id":"cebpf4jnsgd1na2vs0mg"},{"bike_id":"7933f2f0-2e0f-422d-873c-ec932075e5a3","system_id":"levelo_inurba_marseille","lat":43.26192,"lon":5.37447,"is_reserved":false,"is_disabled":false,"rental_uris":{"android":"levelo://app?vid=7933f2f0-2e0f-422d-873c-ec932075e5a3","ios":"levelo://app?vid=7933f2f0-2e0f-422d-873c-ec932075e5a3"},"vehicle_type_id":"4","last_reported":1737015119,"current_range_meters":6000,"station_id":"ce4bhgp2rcd13ifvqfc0","pricing_plan_id":"cebpf4jnsgd1na2vs0mg"},{"bike_id":"d1b53a96-266e-4b04-a3ed-285008bed597","system_id":"levelo_inurba_marseille","lat":43.25937,"lon":5.40904,"is_reserved":false,"is_disabled":false,"rental_uris":{"android":"levelo://app?vid=d1b53a96-266e-4b04-a3ed-285008bed597","ios":"levelo://app?vid=d1b53a96-266e-4b04-a3ed-285008bed597"},"vehicle_type_id":"4","last_reported":1737015119,"current_range_meters":32000,"station_id":"ce4bhm92rcd13ifvqglg","pricing_plan_id":"cebpf4jnsgd1na2vs0mg"},{"bike_id":"694c8607-ec28-4cae-ab91-6356b18201b5","system_id":"levelo_inurba_marseille","lat":43.325,"lon":5.41438,"is_reserved":false,"is_disabled":false,"rental_uris":{"android":"levelo://app?vid=694c8607-ec28-4cae-ab91-6356b18201b5","ios":"levelo://app?vid=694c8607-ec28-4cae-ab91-6356b18201b5"},"vehicle_type_id":"4","last_reported":1737015119,"current_range_meters":38800,"station_id":"ce4bhq12rcd13ifvqhhg","pricing_plan_id":"cebpf4jnsgd1na2vs0mg"},{"bike_id":"003a4c06-ebcc-49a0-b035-9252517a7aaa","system_id":"levelo_inurba_marseille","lat":43.25932,"lon":5.40908,"is_reserved":false,"is_disabled":false,"rental_uris":{"android":"levelo://app?vid=003a4c06-ebcc-49a0-b035-9252517a7aaa","ios":"levelo://app?vid=003a4c06-ebcc-49a0-b035-9252517a7aaa"},"vehicle_type_id":"4","last_reported":1737015119,"current_range_meters":28800,"station_id":"ce4bhm92rcd13ifvqglg","pricing_plan_id":"cebpf4jnsgd1na2vs0mg"},{"bike_id":"cd61c03b-d4f0-48f7-b777-75cd85668d7f","system_id":"levelo_inurba_marseille","lat":43.31351,"lon":5.3672,"is_reserved":false,"is_disabled":false,"rental_uris":{"android":"levelo://app?vid=cd61c03b-d4f0-48f7-b777-75cd85668d7f","ios":"levelo://app?vid=cd61c03b-d4f0-48f7-b777-75cd85668d7f"},"vehicle_type_id":"4","last_reported":1737015119,"current_range_meters":16000,"station_id":"ce4bgr92rcd13ifvqc6g","pricing_plan_id":"cebpf4jnsgd1na2vs0mg"},{"bike_id":"0adbfa65-465c-487a-8c44-6247250163c9","system_id":"levelo_inurba_marseille","lat":43.31221,"lon":5.36895,"is_reserved":false,"is_disabled":true,"rental_uris":{"android":"levelo://app?vid=0adbfa65-465c-487a-8c44-6247250163c9","ios":"levelo://app?vid=0adbfa65-465c-487a-8c44-6247250163c9"},"vehicle_type_id":"4","last_reported":1737015119,"current_range_meters":800,"station_id":"ce4bgl92rcd13ifvqbq0","pricing_plan_id":"cebpf4jnsgd1na2vs0mg"},{"bike_id":"87ff5029-3904-4288-850b-26b3822f935b","system_id":"levelo_inurba_marseille","lat":43.25936,"lon":5.40908,"is_reserved":false,"is_disabled":false,"rental_uris":{"android":"levelo://app?vid=87ff5029-3904-4288-850b-26b3822f935b","ios":"levelo://app?vid=87ff5029-3904-4288-850b-26b3822f935b"},"vehicle_type_id":"4","last_reported":1737015119,"current_range_meters":29600,"station_id":"ce4bhm92rcd13ifvqglg","pricing_plan_id":"cebpf4jnsgd1na2vs0mg"},{"bike_id":"d8e3941b-0cae-4b8e-ae3c-c34a4b3b2c65","system_id":"levelo_inurba_marseille","lat":43.31998,"lon":5.38145,"is_reserved":false,"is_disabled":false,"rental_uris":{"android":"levelo://app?vid=d8e3941b-0cae-4b8e-ae3c-c34a4b3b2c65","ios":"levelo://app?vid=d8e3941b-0cae-4b8e-ae3c-c34a4b3b2c65"},"vehicle_type_id":"4","last_reported":1737015119,"current_range_meters":38000,"station_id":"ce4bhr12rcd13ifvqhpg","pricing_plan_id":"cebpf4jnsgd1na2vs0mg"},{"bike_id":"677a97a2-66c9-4a76-8afb-120370db4982","system_id":"levelo_inurba_marseille","lat":43.30452,"lon":5.37911,"is_reserved":false,"is_disabled":false,"rental_uris":{"android":"levelo://app?vid=677a97a2-66c9-4a76-8afb-120370db4982","ios":"levelo://app?vid=677a97a2-66c9-4a76-8afb-120370db4982"},"vehicle_type_id":"4","last_reported":1737015119,"current_range_meters":39200,"station_id":"ce4bgup2rcd13ifvqcn0","pricing_plan_id":"cebpf4jnsgd1na2vs0mg"},{"bike_id":"ef7adbc7-f956-407a-a3eb-ebdd3e60d992","system_id":"levelo_inurba_marseille","lat":43.30533,"lon":5.36537,"is_reserved":false,"is_disabled":true,"rental_uris":{"android":"levelo://app?vid=ef7adbc7-f956-407a-a3eb-ebdd3e60d992","ios":"levelo://app?vid=ef7adbc7-f956-407a-a3eb-ebdd3e60d992"},"vehicle_type_id":"4","last_reported":1737015119,"current_range_meters":4000,"station_id":"ce4bgs12rcd13ifvqcag","pricing_plan_id":"cebpf4jnsgd1na2vs0mg"},{"bike_id":"4aa3f937-cdd8-4b4c-a839-f6f2b47e8b14","system_id":"levelo_inurba_marseille","lat":43.30538,"lon":5.3669,"is_reserved":false,"is_disabled":false,"rental_uris":{"android":"levelo://app?vid=4aa3f937-cdd8-4b4c-a839-f6f2b47e8b14","ios":"levelo://app?vid=4aa3f937-cdd8-4b4c-a839-f6f2b47e8b14"},"vehicle_type_id":"4","last_reported":1737015119,"current_range_meters":20400,"station_id":"ce4bgrp2rcd13ifvqc9g","pricing_plan_id":"cebpf4jnsgd1na2vs0mg"},{"bike_id":"8a5a41c6-c6c6-427e-a7d8-5be0f418b8ed","system_id":"levelo_inurba_marseille","lat":43.26792,"lon":5.40257,"is_reserved":false,"is_disabled":false,"rental_uris":{"android":"levelo://app?vid=8a5a41c6-c6c6-427e-a7d8-5be0f418b8ed","ios":"levelo://app?vid=8a5a41c6-c6c6-427e-a7d8-5be0f418b8ed"},"vehicle_type_id":"4","last_reported":1737015119,"current_range_meters":38800,"station_id":"ce501612rcd8frsf0b60","pricing_plan_id":"cebpf4jnsgd1na2vs0mg"},{"bike_id":"3ae3fff5-cd50-4c9a-a90e-9c1dc8f43fa0","system_id":"levelo_inurba_marseille","lat":43.30141,"lon":5.37425,"is_reserved":false,"is_disabled":false,"rental_uris":{"android":"levelo://app?vid=3ae3fff5-cd50-4c9a-a90e-9c1dc8f43fa0","ios":"levelo://app?vid=3ae3fff5-cd50-4c9a-a90e-9c1dc8f43fa0"},"vehicle_type_id":"4","last_reported":1737015119,"current_range_meters":8800,"station_id":"ce4bgs92rcd13ifvqcc0","pricing_plan_id":"cebpf4jnsgd1na2vs0mg"},{"bike_id":"7d215ba7-864e-4089-ba37-b97ef6c30f0d","system_id":"levelo_inurba_marseille","lat":43.2926,"lon":5.40904,"is_reserved":false,"is_disabled":false,"rental_uris":{"android":"levelo://app?vid=7d215ba7-864e-4089-ba37-b97ef6c30f0d","ios":"levelo://app?vid=7d215ba7-864e-4089-ba37-b97ef6c30f0d"},"vehicle_type_id":"4","last_reported":1737015119,"current_range_meters":28000,"station_id":"ce4bh192rcd13ifvqdc0","pricing_plan_id":"cebpf4jnsgd1na2vs0mg"},{"bike_id":"f93041c6-1736-4b0d-b922-6dcbe2f6ad5e","system_id":"levelo_inurba_marseille","lat":43.29287,"lon":5.37433,"is_reserved":false,"is_disabled":false,"rental_uris":{"android":"levelo://app?vid=f93041c6-1736-4b0d-b922-6dcbe2f6ad5e","ios":"levelo://app?vid=f93041c6-1736-4b0d-b922-6dcbe2f6ad5e"},"vehicle_type_id":"4","last_reported":1737015119,"current_range_meters":33200,"station_id":"ce4bgi12rcd13ifvqb70","pricing_plan_id":"cebpf4jnsgd1na2vs0mg"},{"bike_id":"fc66fafd-132c-46ba-8265-1e4c4742ab35","system_id":"levelo_inurba_marseille","lat":43.3088,"lon":5.37197,"is_reserved":false,"is_disabled":false,"rental_uris":{"android":"levelo://app?vid=fc66fafd-132c-46ba-8265-1e4c4742ab35","ios":"levelo://app?vid=fc66fafd-132c-46ba-8265-1e4c4742ab35"},"vehicle_type_id":"4","last_reported":1737015119,"current_range_meters":25600,"station_id":"ce4bguh2rcd13ifvqckg","pricing_plan_id":"cebpf4jnsgd1na2vs0mg"},{"bike_id":"ddca8212-56d2-430b-a81b-4ec8c51b95c4","system_id":"levelo_inurba_marseille","lat":43.30463,"lon":5.37905,"is_reserved":false,"is_disabled":false,"rental_uris":{"android":"levelo://app?vid=ddca8212-56d2-430b-a81b-4ec8c51b95c4","ios":"levelo://app?vid=ddca8212-56d2-430b-a81b-4ec8c51b95c4"},"vehicle_type_id":"4","last_reported":1737015119,"current_range_meters":26000,"station_id":"ce4bgup2rcd13ifvqcn0","pricing_plan_id":"cebpf4jnsgd1na2vs0mg"},{"bike_id":"8fb6bba3-1ae1-40d2-92b4-88a1043782ad","system_id":"levelo_inurba_marseille","lat":43.28939,"lon":5.39627,"is_reserved":false,"is_disabled":false,"rental_uris":{"android":"levelo://app?vid=8fb6bba3-1ae1-40d2-92b4-88a1043782ad","ios":"levelo://app?vid=8fb6bba3-1ae1-40d2-92b4-88a1043782ad"},"vehicle_type_id":"4","last_reported":1737015119,"current_range_meters":11600,"station_id":"ce4bh3h2rcd13ifvqdn0","pricing_plan_id":"cebpf4jnsgd1na2vs0mg"},{"bike_id":"fd0d9d82-5a77-42e5-8a99-f06fd260838b","system_id":"levelo_inurba_marseille","lat":43.30608,"lon":5.3936,"is_reserved":false,"is_disabled":false,"rental_uris":{"android":"levelo://app?vid=fd0d9d82-5a77-42e5-8a99-f06fd260838b","ios":"levelo://app?vid=fd0d9d82-5a77-42e5-8a99-f06fd260838b"},"vehicle_type_id":"4","last_reported":1737015119,"current_range_meters":38000,"station_id":"ce4bh0p2rcd13ifvqd80","pricing_plan_id":"cebpf4jnsgd1na2vs0mg"},{"bike_id":"898e376f-89d1-4072-a4b7-faa789f01878","system_id":"levelo_inurba_marseille","lat":43.31368,"lon":5.38489,"is_reserved":false,"is_disabled":true,"rental_uris":{"android":"levelo://app?vid=898e376f-89d1-4072-a4b7-faa789f01878","ios":"levelo://app?vid=898e376f-89d1-4072-a4b7-faa789f01878"},"vehicle_type_id":"4","last_reported":1737015119,"current_range_meters":38800,"station_id":"ce4bgt92rcd13ifvqcf0","pricing_plan_id":"cebpf4jnsgd1na2vs0mg"},{"bike_id":"1a17a578-cbbc-4dd9-8ec3-8d2b87bc098c","system_id":"levelo_inurba_marseille","lat":43.29048,"lon":5.39945,"is_reserved":false,"is_disabled":true,"rental_uris":{"android":"levelo://app?vid=1a17a578-cbbc-4dd9-8ec3-8d2b87bc098c","ios":"levelo://app?vid=1a17a578-cbbc-4dd9-8ec3-8d2b87bc098c"},"vehicle_type_id":"4","last_reported":1737015119,"current_range_meters":1200,"station_id":"ce4bh392rcd13ifvqdm0","pricing_plan_id":"cebpf4jnsgd1na2vs0mg"},{"bike_id":"5c0536eb-387d-4225-838c-63b2e1da4fd5","system_id":"levelo_inurba_marseille","lat":43.24077,"lon":5.37754,"is_reserved":false,"is_disabled":false,"rental_uris":{"android":"levelo://app?vid=5c0536eb-387d-4225-838c-63b2e1da4fd5","ios":"levelo://app?vid=5c0536eb-387d-4225-838c-63b2e1da4fd5"},"vehicle_type_id":"4","last_reported":1737015119,"current_range_meters":28000,"station_id":"ce4bhnp2rcd13ifvqgvg","pricing_plan_id":"cebpf4jnsgd1na2vs0mg"},{"bike_id":"7a26b63c-652f-4d2d-8353-1a9dfb4e945a","system_id":"levelo_inurba_marseille","lat":43.33721,"lon":5.3918,"is_reserved":false,"is_disabled":false,"rental_uris":{"android":"levelo://app?vid=7a26b63c-652f-4d2d-8353-1a9dfb4e945a","ios":"levelo://app?vid=7a26b63c-652f-4d2d-8353-1a9dfb4e945a"},"vehicle_type_id":"4","last_reported":1737015119,"current_range_meters":39200,"station_id":"ce4bhr92rcd13ifvqhsg","pricing_plan_id":"cebpf4jnsgd1na2vs0mg"},{"bike_id":"3a156bce-9e0b-49f4-9139-12a40ea373ae","system_id":"levelo_inurba_marseille","lat":43.30884,"lon":5.39639,"is_reserved":false,"is_disabled":false,"rental_uris":{"android":"levelo://app?vid=3a156bce-9e0b-49f4-9139-12a40ea373ae","ios":"levelo://app?vid=3a156bce-9e0b-49f4-9139-12a40ea373ae"},"vehicle_type_id":"4","last_reported":1737015119,"current_range_meters":38800,"station_id":"ce4bh012rcd13ifvqcv0","pricing_plan_id":"cebpf4jnsgd1na2vs0mg"},{"bike_id":"f4764a42-86eb-4d76-b558-df598e488f6c","system_id":"levelo_inurba_marseille","lat":43.239307,"lon":5.375997,"is_reserved":false,"is_disabled":true,"rental_uris":{"android":"levelo://app?vid=f4764a42-86eb-4d76-b558-df598e488f6c","ios":"levelo://app?vid=f4764a42-86eb-4d76-b558-df598e488f6c"},"vehicle_type_id":"4","last_reported":1737015119,"current_range_meters":800,"station_id":"","pricing_plan_id":"cebpf4jnsgd1na2vs0mg"},{"bike_id":"5e5fc1d6-193c-4267-9b79-66f1a3263221","system_id":"levelo_inurba_marseille","lat":43.24071,"lon":5.3775,"is_reserved":false,"is_disabled":false,"rental_uris":{"android":"levelo://app?vid=5e5fc1d6-193c-4267-9b79-66f1a3263221","ios":"levelo://app?vid=5e5fc1d6-193c-4267-9b79-66f1a3263221"},"vehicle_type_id":"4","last_reported":1737015119,"current_range_meters":36000,"station_id":"ce4bhnp2rcd13ifvqgvg","pricing_plan_id":"cebpf4jnsgd1na2vs0mg"},{"bike_id":"56b8e9bc-f750-4815-bc98-9098414d16db","system_id":"levelo_inurba_marseille","lat":43.23201,"lon":5.35573,"is_reserved":false,"is_disabled":true,"rental_uris":{"android":"levelo://app?vid=56b8e9bc-f750-4815-bc98-9098414d16db","ios":"levelo://app?vid=56b8e9bc-f750-4815-bc98-9098414d16db"},"vehicle_type_id":"4","last_reported":1737015119,"current_range_meters":0,"station_id":"ce4bhu92rcd13ifvqi70","pricing_plan_id":"cebpf4jnsgd1na2vs0mg"},{"bike_id":"f2ac1cd4-34fc-43b6-85b9-ad77cbc9ae3c","system_id":"levelo_inurba_marseille","lat":43.30141,"lon":5.37426,"is_reserved":false,"is_disabled":false,"rental_uris":{"android":"levelo://app?vid=f2ac1cd4-34fc-43b6-85b9-ad77cbc9ae3c","ios":"levelo://app?vid=f2ac1cd4-34fc-43b6-85b9-ad77cbc9ae3c"},"vehicle_type_id":"4","last_reported":1737015119,"current_range_meters":38800,"station_id":"ce4bgs92rcd13ifvqcc0","pricing_plan_id":"cebpf4jnsgd1na2vs0mg"},{"bike_id":"886c2bbb-1b99-4795-80cb-99bf8240c559","system_id":"levelo_inurba_marseille","lat":43.246509,"lon":5.388986,"is_reserved":false,"is_disabled":false,"rental_uris":{"android":"levelo://app?vid=886c2bbb-1b99-4795-80cb-99bf8240c559","ios":"levelo://app?vid=886c2bbb-1b99-4795-80cb-99bf8240c559"},"vehicle_type_id":"4","last_reported":1737015119,"current_range_meters":24000,"station_id":"ce4bhg12rcd13ifvqf60","pricing_plan_id":"cebpf4jnsgd1na2vs0mg"},{"bike_id":"45453239-aad8-4341-a74c-92d4aabce3f9","system_id":"levelo_inurba_marseille","lat":43.30613,"lon":5.3722,"is_reserved":false,"is_disabled":false,"rental_uris":{"android":"levelo://app?vid=45453239-aad8-4341-a74c-92d4aabce3f9","ios":"levelo://app?vid=45453239-aad8-4341-a74c-92d4aabce3f9"},"vehicle_type_id":"4","last_reported":1737015119,"current_range_meters":18800,"station_id":"ce4bgqh2rcd13ifvqc4g","pricing_plan_id":"cebpf4jnsgd1na2vs0mg"},{"bike_id":"a8e08195-1ddf-43fc-8bb9-bba25eadbe4a","system_id":"levelo_inurba_marseille","lat":43.26201,"lon":5.37935,"is_reserved":false,"is_disabled":false,"rental_uris":{"android":"levelo://app?vid=a8e08195-1ddf-43fc-8bb9-bba25eadbe4a","ios":"levelo://app?vid=a8e08195-1ddf-43fc-8bb9-bba25eadbe4a"},"vehicle_type_id":"4","last_reported":1737015119,"current_range_meters":26800,"station_id":"ce4bhjp2rcd13ifvqg90","pricing_plan_id":"cebpf4jnsgd1na2vs0mg"},{"bike_id":"a7fb8d1c-b4a6-4f5b-930d-036db15aa6ea","system_id":"levelo_inurba_marseille","lat":43.29055,"lon":5.37162,"is_reserved":false,"is_disabled":false,"rental_uris":{"android":"levelo://app?vid=a7fb8d1c-b4a6-4f5b-930d-036db15aa6ea","ios":"levelo://app?vid=a7fb8d1c-b4a6-4f5b-930d-036db15aa6ea"},"vehicle_type_id":"4","last_reported":1737015119,"current_range_meters":20800,"station_id":"ce4bh5p2rcd13ifvqe4g","pricing_plan_id":"cebpf4jnsgd1na2vs0mg"},{"bike_id":"c939e93f-aef9-4038-bd76-1fc1012f8107","system_id":"levelo_inurba_marseille","lat":43.27176,"lon":5.40996,"is_reserved":false,"is_disabled":false,"rental_uris":{"android":"levelo://app?vid=c939e93f-aef9-4038-bd76-1fc1012f8107","ios":"levelo://app?vid=c939e93f-aef9-4038-bd76-1fc1012f8107"},"vehicle_type_id":"4","last_reported":1737015119,"current_range_meters":29600,"station_id":"ce4bhl12rcd13ifvqgf0","pricing_plan_id":"cebpf4jnsgd1na2vs0mg"},{"bike_id":"26425482-ac11-4df9-94c9-77bac75c56a7","system_id":"levelo_inurba_marseille","lat":43.29035,"lon":5.39959,"is_reserved":false,"is_disabled":false,"rental_uris":{"android":"levelo://app?vid=26425482-ac11-4df9-94c9-77bac75c56a7","ios":"levelo://app?vid=26425482-ac11-4df9-94c9-77bac75c56a7"},"vehicle_type_id":"4","last_reported":1737015119,"current_range_meters":36400,"station_id":"ce4bh392rcd13ifvqdm0","pricing_plan_id":"cebpf4jnsgd1na2vs0mg"},{"bike_id":"995c884a-0499-46b1-9a44-bb0a781664c5","system_id":"levelo_inurba_marseille","lat":43.25929,"lon":5.40895,"is_reserved":false,"is_disabled":false,"rental_uris":{"android":"levelo://app?vid=995c884a-0499-46b1-9a44-bb0a781664c5","ios":"levelo://app?vid=995c884a-0499-46b1-9a44-bb0a781664c5"},"vehicle_type_id":"4","last_reported":1737015119,"current_range_meters":38800,"station_id":"ce4bhm92rcd13ifvqglg","pricing_plan_id":"cebpf4jnsgd1na2vs0mg"},{"bike_id":"c4ff7eb1-df47-4ca5-8005-2f08723b0cec","system_id":"levelo_inurba_marseille","lat":43.30305,"lon":5.3691,"is_reserved":false,"is_disabled":true,"rental_uris":{"android":"levelo://app?vid=c4ff7eb1-df47-4ca5-8005-2f08723b0cec","ios":"levelo://app?vid=c4ff7eb1-df47-4ca5-8005-2f08723b0cec"},"vehicle_type_id":"4","last_reported":1737015119,"current_range_meters":25600,"station_id":"ce4bgqh2rcd13ifvqc5g","pricing_plan_id":"cebpf4jnsgd1na2vs0mg"},{"bike_id":"7d998533-6454-4aaf-905d-f66ff8f665d6","system_id":"levelo_inurba_marseille","lat":43.24032,"lon":5.37757,"is_reserved":false,"is_disabled":true,"rental_uris":{"android":"levelo://app?vid=7d998533-6454-4aaf-905d-f66ff8f665d6","ios":"levelo://app?vid=7d998533-6454-4aaf-905d-f66ff8f665d6"},"vehicle_type_id":"4","last_reported":1737015119,"current_range_meters":36800,"station_id":"ce4bhnp2rcd13ifvqgvg","pricing_plan_id":"cebpf4jnsgd1na2vs0mg"},{"bike_id":"60c48e84-151f-4edd-83cd-789ff87c7f63","system_id":"levelo_inurba_marseille","lat":43.28698,"lon":5.37405,"is_reserved":false,"is_disabled":true,"rental_uris":{"android":"levelo://app?vid=60c48e84-151f-4edd-83cd-789ff87c7f63","ios":"levelo://app?vid=60c48e84-151f-4edd-83cd-789ff87c7f63"},"vehicle_type_id":"4","last_reported":1737015119,"current_range_meters":25600,"station_id":"ce4bh3p2rcd13ifvqdq0","pricing_plan_id":"cebpf4jnsgd1na2vs0mg"},{"bike_id":"1ea05333-113b-43e7-929a-470579ef95c0","system_id":"levelo_inurba_marseille","lat":43.29508,"lon":5.39413,"is_reserved":false,"is_disabled":true,"rental_uris":{"android":"levelo://app?vid=1ea05333-113b-43e7-929a-470579ef95c0","ios":"levelo://app?vid=1ea05333-113b-43e7-929a-470579ef95c0"},"vehicle_type_id":"4","last_reported":1737015119,"current_range_meters":12400,"station_id":"ce4bh292rcd13ifvqdf0","pricing_plan_id":"cebpf4jnsgd1na2vs0mg"},{"bike_id":"7eb33b08-969b-4d1e-b1a6-89a0f841df57","system_id":"levelo_inurba_marseille","lat":43.29092,"lon":5.3816,"is_reserved":false,"is_disabled":true,"rental_uris":{"android":"levelo://app?vid=7eb33b08-969b-4d1e-b1a6-89a0f841df57","ios":"levelo://app?vid=7eb33b08-969b-4d1e-b1a6-89a0f841df57"},"vehicle_type_id":"4","last_reported":1737015119,"current_range_meters":28800,"station_id":"ce4bh512rcd13ifvqe2g","pricing_plan_id":"cebpf4jnsgd1na2vs0mg"},{"bike_id":"6a347207-180d-4e7c-93f5-4bea3bb7b491","system_id":"levelo_inurba_marseille","lat":43.32366,"lon":5.38892,"is_reserved":false,"is_disabled":false,"rental_uris":{"android":"levelo://app?vid=6a347207-180d-4e7c-93f5-4bea3bb7b491","ios":"levelo://app?vid=6a347207-180d-4e7c-93f5-4bea3bb7b491"},"vehicle_type_id":"4","last_reported":1737015119,"current_range_meters":34000,"station_id":"ce4bhqp2rcd13ifvqhog","pricing_plan_id":"cebpf4jnsgd1na2vs0mg"},{"bike_id":"8877e7a6-4aa2-4c5a-ac5a-26bcf6368000","system_id":"levelo_inurba_marseille","lat":43.28027,"lon":5.36946,"is_reserved":false,"is_disabled":false,"rental_uris":{"android":"levelo://app?vid=8877e7a6-4aa2-4c5a-ac5a-26bcf6368000","ios":"levelo://app?vid=8877e7a6-4aa2-4c5a-ac5a-26bcf6368000"},"vehicle_type_id":"4","last_reported":1737015119,"current_range_meters":33200,"station_id":"ce4bha12rcd13ifvqef0","pricing_plan_id":"cebpf4jnsgd1na2vs0mg"},{"bike_id":"fcfce73d-b0e8-4230-aaf3-4a4e591057d7","system_id":"levelo_inurba_marseille","lat":43.32539,"lon":5.41436,"is_reserved":false,"is_disabled":false,"rental_uris":{"android":"levelo://app?vid=fcfce73d-b0e8-4230-aaf3-4a4e591057d7","ios":"levelo://app?vid=fcfce73d-b0e8-4230-aaf3-4a4e591057d7"},"vehicle_type_id":"4","last_reported":1737015119,"current_range_meters":10800,"station_id":"ce4bhq12rcd13ifvqhhg","pricing_plan_id":"cebpf4jnsgd1na2vs0mg"},{"bike_id":"8949aca5-2f6e-45b7-8bc9-20e9801a8a4e","system_id":"levelo_inurba_marseille","lat":43.27969,"lon":5.3874,"is_reserved":false,"is_disabled":true,"rental_uris":{"android":"levelo://app?vid=8949aca5-2f6e-45b7-8bc9-20e9801a8a4e","ios":"levelo://app?vid=8949aca5-2f6e-45b7-8bc9-20e9801a8a4e"},"vehicle_type_id":"4","last_reported":1737015119,"current_range_meters":400,"station_id":"ce4bhg12rcd13ifvqf80","pricing_plan_id":"cebpf4jnsgd1na2vs0mg"},{"bike_id":"0c74b65d-6a6b-4f50-a23b-6454b7a923c5","system_id":"levelo_inurba_marseille","lat":43.30535,"lon":5.36705,"is_reserved":false,"is_disabled":false,"rental_uris":{"android":"levelo://app?vid=0c74b65d-6a6b-4f50-a23b-6454b7a923c5","ios":"levelo://app?vid=0c74b65d-6a6b-4f50-a23b-6454b7a923c5"},"vehicle_type_id":"4","last_reported":1737015119,"current_range_meters":28000,"station_id":"ce4bgrp2rcd13ifvqc9g","pricing_plan_id":"cebpf4jnsgd1na2vs0mg"},{"bike_id":"10fb2b2a-7eb6-4dfc-8833-9b37ae43939e","system_id":"levelo_inurba_marseille","lat":43.32531,"lon":5.41467,"is_reserved":false,"is_disabled":false,"rental_uris":{"android":"levelo://app?vid=10fb2b2a-7eb6-4dfc-8833-9b37ae43939e","ios":"levelo://app?vid=10fb2b2a-7eb6-4dfc-8833-9b37ae43939e"},"vehicle_type_id":"4","last_reported":1737015119,"current_range_meters":39200,"station_id":"ce4bhq12rcd13ifvqhhg","pricing_plan_id":"cebpf4jnsgd1na2vs0mg"},{"bike_id":"c3b735e1-456b-4e21-bcac-f6e7217bdc15","system_id":"levelo_inurba_marseille","lat":43.29706,"lon":5.37702,"is_reserved":false,"is_disabled":false,"rental_uris":{"android":"levelo://app?vid=c3b735e1-456b-4e21-bcac-f6e7217bdc15","ios":"levelo://app?vid=c3b735e1-456b-4e21-bcac-f6e7217bdc15"},"vehicle_type_id":"4","last_reported":1737015119,"current_range_meters":20800,"station_id":"ce4bgkh2rcd13ifvqbl0","pricing_plan_id":"cebpf4jnsgd1na2vs0mg"},{"bike_id":"8b270a27-56d2-4c12-911a-d18adeedec80","system_id":"levelo_inurba_marseille","lat":43.24651,"lon":5.3889,"is_reserved":false,"is_disabled":false,"rental_uris":{"android":"levelo://app?vid=8b270a27-56d2-4c12-911a-d18adeedec80","ios":"levelo://app?vid=8b270a27-56d2-4c12-911a-d18adeedec80"},"vehicle_type_id":"4","last_reported":1737015119,"current_range_meters":24000,"station_id":"ce4bhg12rcd13ifvqf60","pricing_plan_id":"cebpf4jnsgd1na2vs0mg"},{"bike_id":"917148ce-4c9d-450a-97ee-d2deee4d50c3","system_id":"levelo_inurba_marseille","lat":43.324791,"lon":5.365676,"is_reserved":false,"is_disabled":false,"rental_uris":{"android":"levelo://app?vid=917148ce-4c9d-450a-97ee-d2deee4d50c3","ios":"levelo://app?vid=917148ce-4c9d-450a-97ee-d2deee4d50c3"},"vehicle_type_id":"4","last_reported":1737015119,"current_range_meters":11600,"station_id":"ce4bhs12rcd13ifvqhvg","pricing_plan_id":"cebpf4jnsgd1na2vs0mg"},{"bike_id":"fd9326db-6a78-4859-aa5f-1acc23ec3d73","system_id":"levelo_inurba_marseille","lat":43.29577,"lon":5.37521,"is_reserved":false,"is_disabled":false,"rental_uris":{"android":"levelo://app?vid=fd9326db-6a78-4859-aa5f-1acc23ec3d73","ios":"levelo://app?vid=fd9326db-6a78-4859-aa5f-1acc23ec3d73"},"vehicle_type_id":"4","last_reported":1737015119,"current_range_meters":4000,"station_id":"ce4bgh92rcd13ifvqb50","pricing_plan_id":"cebpf4jnsgd1na2vs0mg"},{"bike_id":"5f73b1c5-bb2a-4fac-9eb7-14c830fab3ce","system_id":"levelo_inurba_marseille","lat":43.29842,"lon":5.36268,"is_reserved":false,"is_disabled":false,"rental_uris":{"android":"levelo://app?vid=5f73b1c5-bb2a-4fac-9eb7-14c830fab3ce","ios":"levelo://app?vid=5f73b1c5-bb2a-4fac-9eb7-14c830fab3ce"},"vehicle_type_id":"4","last_reported":1737015119,"current_range_meters":11600,"station_id":"ce4bgpp2rcd13ifvqc3g","pricing_plan_id":"cebpf4jnsgd1na2vs0mg"},{"bike_id":"6a659847-122d-47d9-885f-953b98bda704","system_id":"levelo_inurba_marseille","lat":43.24069,"lon":5.37766,"is_reserved":false,"is_disabled":false,"rental_uris":{"android":"levelo://app?vid=6a659847-122d-47d9-885f-953b98bda704","ios":"levelo://app?vid=6a659847-122d-47d9-885f-953b98bda704"},"vehicle_type_id":"4","last_reported":1737015119,"current_range_meters":33600,"station_id":"ce4bhnp2rcd13ifvqgvg","pricing_plan_id":"cebpf4jnsgd1na2vs0mg"},{"bike_id":"2635dd77-daaa-46f8-b481-18d8bd38ecb3","system_id":"levelo_inurba_marseille","lat":43.28426,"lon":5.35001,"is_reserved":false,"is_disabled":false,"rental_uris":{"android":"levelo://app?vid=2635dd77-daaa-46f8-b481-18d8bd38ecb3","ios":"levelo://app?vid=2635dd77-daaa-46f8-b481-18d8bd38ecb3"},"vehicle_type_id":"4","last_reported":1737015119,"current_range_meters":14400,"station_id":"ce4bhbh2rcd13ifvqepg","pricing_plan_id":"cebpf4jnsgd1na2vs0mg"},{"bike_id":"cb2d5adb-0b4d-4755-9c6a-4d718fdae030","system_id":"levelo_inurba_marseille","lat":43.30463,"lon":5.37906,"is_reserved":false,"is_disabled":false,"rental_uris":{"android":"levelo://app?vid=cb2d5adb-0b4d-4755-9c6a-4d718fdae030","ios":"levelo://app?vid=cb2d5adb-0b4d-4755-9c6a-4d718fdae030"},"vehicle_type_id":"4","last_reported":1737015119,"current_range_meters":25600,"station_id":"ce4bgup2rcd13ifvqcn0","pricing_plan_id":"cebpf4jnsgd1na2vs0mg"},{"bike_id":"ed7d5216-af5a-4822-a04b-4e1aa695defb","system_id":"levelo_inurba_marseille","lat":43.28926,"lon":5.36387,"is_reserved":false,"is_disabled":false,"rental_uris":{"android":"levelo://app?vid=ed7d5216-af5a-4822-a04b-4e1aa695defb","ios":"levelo://app?vid=ed7d5216-af5a-4822-a04b-4e1aa695defb"},"vehicle_type_id":"4","last_reported":1737015119,"current_range_meters":26000,"station_id":"ce4bhc92rcd13ifvqetg","pricing_plan_id":"cebpf4jnsgd1na2vs0mg"},{"bike_id":"2d7f3353-743b-41e1-85f2-e32181d4ae48","system_id":"levelo_inurba_marseille","lat":43.31991,"lon":5.38158,"is_reserved":false,"is_disabled":false,"rental_uris":{"android":"levelo://app?vid=2d7f3353-743b-41e1-85f2-e32181d4ae48","ios":"levelo://app?vid=2d7f3353-743b-41e1-85f2-e32181d4ae48"},"vehicle_type_id":"4","last_reported":1737015119,"current_range_meters":34000,"station_id":"ce4bhr12rcd13ifvqhpg","pricing_plan_id":"cebpf4jnsgd1na2vs0mg"},{"bike_id":"7e3ee2e7-7482-4133-a472-006dba3905fa","system_id":"levelo_inurba_marseille","lat":43.25502,"lon":5.37696,"is_reserved":false,"is_disabled":false,"rental_uris":{"android":"levelo://app?vid=7e3ee2e7-7482-4133-a472-006dba3905fa","ios":"levelo://app?vid=7e3ee2e7-7482-4133-a472-006dba3905fa"},"vehicle_type_id":"4","last_reported":1737015119,"current_range_meters":28400,"station_id":"ce4bhh12rcd13ifvqff0","pricing_plan_id":"cebpf4jnsgd1na2vs0mg"},{"bike_id":"d6248787-bad6-4726-aab8-dd8572187026","system_id":"levelo_inurba_marseille","lat":43.30287,"lon":5.377,"is_reserved":false,"is_disabled":false,"rental_uris":{"android":"levelo://app?vid=d6248787-bad6-4726-aab8-dd8572187026","ios":"levelo://app?vid=d6248787-bad6-4726-aab8-dd8572187026"},"vehicle_type_id":"4","last_reported":1737015119,"current_range_meters":35200,"station_id":"ce4bguh2rcd13ifvqcj0","pricing_plan_id":"cebpf4jnsgd1na2vs0mg"},{"bike_id":"51fa486b-5e31-483c-be2f-a8ad4efb10e7","system_id":"levelo_inurba_marseille","lat":43.25916,"lon":5.40974,"is_reserved":false,"is_disabled":false,"rental_uris":{"android":"levelo://app?vid=51fa486b-5e31-483c-be2f-a8ad4efb10e7","ios":"levelo://app?vid=51fa486b-5e31-483c-be2f-a8ad4efb10e7"},"vehicle_type_id":"4","last_reported":1737015119,"current_range_meters":35600,"station_id":"","pricing_plan_id":"cebpf4jnsgd1na2vs0mg"},{"bike_id":"de795040-4c8f-495b-8413-3288bf1b0da9","system_id":"levelo_inurba_marseille","lat":43.29081,"lon":5.37166,"is_reserved":false,"is_disabled":false,"rental_uris":{"android":"levelo://app?vid=de795040-4c8f-495b-8413-3288bf1b0da9","ios":"levelo://app?vid=de795040-4c8f-495b-8413-3288bf1b0da9"},"vehicle_type_id":"4","last_reported":1737015119,"current_range_meters":30800,"station_id":"ce4bh5p2rcd13ifvqe4g","pricing_plan_id":"cebpf4jnsgd1na2vs0mg"},{"bike_id":"90c5f7db-70dc-4cc8-9ebe-8eb9ee8f55b2","system_id":"levelo_inurba_marseille","lat":43.30314,"lon":5.36905,"is_reserved":false,"is_disabled":false,"rental_uris":{"android":"levelo://app?vid=90c5f7db-70dc-4cc8-9ebe-8eb9ee8f55b2","ios":"levelo://app?vid=90c5f7db-70dc-4cc8-9ebe-8eb9ee8f55b2"},"vehicle_type_id":"4","last_reported":1737015119,"current_range_meters":32400,"station_id":"ce4bgqh2rcd13ifvqc5g","pricing_plan_id":"cebpf4jnsgd1na2vs0mg"},{"bike_id":"b583689d-4b3b-4fec-a4c3-0358dd755494","system_id":"levelo_inurba_marseille","lat":43.26688,"lon":5.38268,"is_reserved":false,"is_disabled":false,"rental_uris":{"android":"levelo://app?vid=b583689d-4b3b-4fec-a4c3-0358dd755494","ios":"levelo://app?vid=b583689d-4b3b-4fec-a4c3-0358dd755494"},"vehicle_type_id":"4","last_reported":1737015119,"current_range_meters":24800,"station_id":"ce4bhg92rcd13ifvqf90","pricing_plan_id":"cebpf4jnsgd1na2vs0mg"},{"bike_id":"81163ec0-59fd-4b0c-9214-950c666a12b0","system_id":"levelo_inurba_marseille","lat":43.30539,"lon":5.36709,"is_reserved":false,"is_disabled":false,"rental_uris":{"android":"levelo://app?vid=81163ec0-59fd-4b0c-9214-950c666a12b0","ios":"levelo://app?vid=81163ec0-59fd-4b0c-9214-950c666a12b0"},"vehicle_type_id":"4","last_reported":1737015119,"current_range_meters":24000,"station_id":"ce4bgrp2rcd13ifvqc9g","pricing_plan_id":"cebpf4jnsgd1na2vs0mg"},{"bike_id":"ef8de47d-f7f1-47b7-98c3-b86e4c7c1ce0","system_id":"levelo_inurba_marseille","lat":43.31085,"lon":5.42428,"is_reserved":false,"is_disabled":false,"rental_uris":{"android":"levelo://app?vid=ef8de47d-f7f1-47b7-98c3-b86e4c7c1ce0","ios":"levelo://app?vid=ef8de47d-f7f1-47b7-98c3-b86e4c7c1ce0"},"vehicle_type_id":"4","last_reported":1737015119,"current_range_meters":20000,"station_id":"ce4bhp92rcd13ifvqhag","pricing_plan_id":"cebpf4jnsgd1na2vs0mg"},{"bike_id":"8534aaf4-535f-4db5-8998-0f97ef68ef36","system_id":"levelo_inurba_marseille","lat":43.24379,"lon":5.37075,"is_reserved":false,"is_disabled":false,"rental_uris":{"android":"levelo://app?vid=8534aaf4-535f-4db5-8998-0f97ef68ef36","ios":"levelo://app?vid=8534aaf4-535f-4db5-8998-0f97ef68ef36"},"vehicle_type_id":"4","last_reported":1737015119,"current_range_meters":11200,"station_id":"ce4bhhh2rcd13ifvqfk0","pricing_plan_id":"cebpf4jnsgd1na2vs0mg"},{"bike_id":"5d42a98e-bef8-43af-946e-751274f82d4c","system_id":"levelo_inurba_marseille","lat":43.23653,"lon":5.43602,"is_reserved":false,"is_disabled":true,"rental_uris":{"android":"levelo://app?vid=5d42a98e-bef8-43af-946e-751274f82d4c","ios":"levelo://app?vid=5d42a98e-bef8-43af-946e-751274f82d4c"},"vehicle_type_id":"4","last_reported":1737015119,"current_range_meters":32400,"station_id":"","pricing_plan_id":"cebpf4jnsgd1na2vs0mg"},{"bike_id":"91fa865e-9ba1-45b1-97cf-c5e473e8a557","system_id":"levelo_inurba_marseille","lat":43.2962,"lon":5.37728,"is_reserved":false,"is_disabled":false,"rental_uris":{"android":"levelo://app?vid=91fa865e-9ba1-45b1-97cf-c5e473e8a557","ios":"levelo://app?vid=91fa865e-9ba1-45b1-97cf-c5e473e8a557"},"vehicle_type_id":"4","last_reported":1737015119,"current_range_meters":38000,"station_id":"ce4bgi92rcd13ifvqb90","pricing_plan_id":"cebpf4jnsgd1na2vs0mg"},{"bike_id":"a2908b4f-e283-49c6-a08d-76ce2a17372d","system_id":"levelo_inurba_marseille","lat":43.299713,"lon":5.385011,"is_reserved":false,"is_disabled":true,"rental_uris":{"android":"levelo://app?vid=a2908b4f-e283-49c6-a08d-76ce2a17372d","ios":"levelo://app?vid=a2908b4f-e283-49c6-a08d-76ce2a17372d"},"vehicle_type_id":"4","last_reported":1737015119,"current_range_meters":37600,"station_id":"ce4bgj92rcd13ifvqbd0","pricing_plan_id":"cebpf4jnsgd1na2vs0mg"},{"bike_id":"6bb0c2df-6198-4645-b80a-340391eb447c","system_id":"levelo_inurba_marseille","lat":43.28154,"lon":5.42634,"is_reserved":false,"is_disabled":false,"rental_uris":{"android":"levelo://app?vid=6bb0c2df-6198-4645-b80a-340391eb447c","ios":"levelo://app?vid=6bb0c2df-6198-4645-b80a-340391eb447c"},"vehicle_type_id":"4","last_reported":1737015119,"current_range_meters":30800,"station_id":"ce4bhnh2rcd13ifvqgug","pricing_plan_id":"cebpf4jnsgd1na2vs0mg"},{"bike_id":"5846ec15-c27a-410f-b771-62ddc0b3904f","system_id":"levelo_inurba_marseille","lat":43.30467,"lon":5.37902,"is_reserved":false,"is_disabled":true,"rental_uris":{"android":"levelo://app?vid=5846ec15-c27a-410f-b771-62ddc0b3904f","ios":"levelo://app?vid=5846ec15-c27a-410f-b771-62ddc0b3904f"},"vehicle_type_id":"4","last_reported":1737015119,"current_range_meters":38800,"station_id":"ce4bgup2rcd13ifvqcn0","pricing_plan_id":"cebpf4jnsgd1na2vs0mg"},{"bike_id":"6c02ae22-4e33-4b73-a0d5-7fa499611cc2","system_id":"levelo_inurba_marseille","lat":43.23157,"lon":5.43639,"is_reserved":false,"is_disabled":false,"rental_uris":{"android":"levelo://app?vid=6c02ae22-4e33-4b73-a0d5-7fa499611cc2","ios":"levelo://app?vid=6c02ae22-4e33-4b73-a0d5-7fa499611cc2"},"vehicle_type_id":"4","last_reported":1737015119,"current_range_meters":35600,"station_id":"ce4bhmp2rcd13ifvqgog","pricing_plan_id":"cebpf4jnsgd1na2vs0mg"},{"bike_id":"018806c5-5146-4c55-bdeb-41e51d9e2f02","system_id":"levelo_inurba_marseille","lat":43.25868,"lon":5.39896,"is_reserved":false,"is_disabled":false,"rental_uris":{"android":"levelo://app?vid=018806c5-5146-4c55-bdeb-41e51d9e2f02","ios":"levelo://app?vid=018806c5-5146-4c55-bdeb-41e51d9e2f02"},"vehicle_type_id":"4","last_reported":1737015119,"current_range_meters":39200,"station_id":"ce4bhl92rcd13ifvqghg","pricing_plan_id":"cebpf4jnsgd1na2vs0mg"},{"bike_id":"f3000f12-d78d-46d5-99ca-8a4e13f94f9e","system_id":"levelo_inurba_marseille","lat":43.25487,"lon":5.37661,"is_reserved":false,"is_disabled":false,"rental_uris":{"android":"levelo://app?vid=f3000f12-d78d-46d5-99ca-8a4e13f94f9e","ios":"levelo://app?vid=f3000f12-d78d-46d5-99ca-8a4e13f94f9e"},"vehicle_type_id":"4","last_reported":1737015119,"current_range_meters":38800,"station_id":"ce4bhh12rcd13ifvqff0","pricing_plan_id":"cebpf4jnsgd1na2vs0mg"},{"bike_id":"daed1ccd-abf9-45c7-831e-19fefaff00a6","system_id":"levelo_inurba_marseille","lat":43.28152,"lon":5.42649,"is_reserved":false,"is_disabled":false,"rental_uris":{"android":"levelo://app?vid=daed1ccd-abf9-45c7-831e-19fefaff00a6","ios":"levelo://app?vid=daed1ccd-abf9-45c7-831e-19fefaff00a6"},"vehicle_type_id":"4","last_reported":1737015119,"current_range_meters":24800,"station_id":"ce4bhnh2rcd13ifvqgug","pricing_plan_id":"cebpf4jnsgd1na2vs0mg"},{"bike_id":"6003524c-18e4-4d25-8fc7-903f93c12173","system_id":"levelo_inurba_marseille","lat":43.30147,"lon":5.38767,"is_reserved":false,"is_disabled":true,"rental_uris":{"android":"levelo://app?vid=6003524c-18e4-4d25-8fc7-903f93c12173","ios":"levelo://app?vid=6003524c-18e4-4d25-8fc7-903f93c12173"},"vehicle_type_id":"4","last_reported":1737015119,"current_range_meters":38800,"station_id":"ce4bhoh2rcd13ifvqh6g","pricing_plan_id":"cebpf4jnsgd1na2vs0mg"},{"bike_id":"2bd8a3dd-88af-474b-8cba-def3e4aa27da","system_id":"levelo_inurba_marseille","lat":43.29907,"lon":5.38155,"is_reserved":false,"is_disabled":false,"rental_uris":{"android":"levelo://app?vid=2bd8a3dd-88af-474b-8cba-def3e4aa27da","ios":"levelo://app?vid=2bd8a3dd-88af-474b-8cba-def3e4aa27da"},"vehicle_type_id":"4","last_reported":1737015119,"current_range_meters":17200,"station_id":"ce4bgj12rcd13ifvqbc0","pricing_plan_id":"cebpf4jnsgd1na2vs0mg"},{"bike_id":"e21a33db-4ff7-44b2-a73f-b5c05a38c476","system_id":"levelo_inurba_marseille","lat":43.25491,"lon":5.37648,"is_reserved":false,"is_disabled":false,"rental_uris":{"android":"levelo://app?vid=e21a33db-4ff7-44b2-a73f-b5c05a38c476","ios":"levelo://app?vid=e21a33db-4ff7-44b2-a73f-b5c05a38c476"},"vehicle_type_id":"4","last_reported":1737015119,"current_range_meters":38000,"station_id":"ce4bhh12rcd13ifvqff0","pricing_plan_id":"cebpf4jnsgd1na2vs0mg"},{"bike_id":"b6cc3290-8d97-4a09-b52c-61d9cb4c3b4e","system_id":"levelo_inurba_marseille","lat":43.301613,"lon":5.369772,"is_reserved":false,"is_disabled":false,"rental_uris":{"android":"levelo://app?vid=b6cc3290-8d97-4a09-b52c-61d9cb4c3b4e","ios":"levelo://app?vid=b6cc3290-8d97-4a09-b52c-61d9cb4c3b4e"},"vehicle_type_id":"4","last_reported":1737015119,"current_range_meters":33200,"station_id":"ce4bgrp2rcd13ifvqc9g","pricing_plan_id":"cebpf4jnsgd1na2vs0mg"},{"bike_id":"30279267-2c15-4b66-8941-f3b2637bc5b8","system_id":"levelo_inurba_marseille","lat":43.24174,"lon":5.3973,"is_reserved":false,"is_disabled":false,"rental_uris":{"android":"levelo://app?vid=30279267-2c15-4b66-8941-f3b2637bc5b8","ios":"levelo://app?vid=30279267-2c15-4b66-8941-f3b2637bc5b8"},"vehicle_type_id":"4","last_reported":1737015119,"current_range_meters":27600,"station_id":"ce4bhn12rcd13ifvqgpg","pricing_plan_id":"cebpf4jnsgd1na2vs0mg"},{"bike_id":"436208d9-22ee-4b59-8ade-7d37f5f818f8","system_id":"levelo_inurba_marseille","lat":43.30349,"lon":5.39091,"is_reserved":false,"is_disabled":true,"rental_uris":{"android":"levelo://app?vid=436208d9-22ee-4b59-8ade-7d37f5f818f8","ios":"levelo://app?vid=436208d9-22ee-4b59-8ade-7d37f5f818f8"},"vehicle_type_id":"4","last_reported":1737015119,"current_range_meters":4000,"station_id":"ce4bgkh2rcd13ifvqbk0","pricing_plan_id":"cebpf4jnsgd1na2vs0mg"},{"bike_id":"ba1008a8-8bd4-4cbd-ad17-281945b98710","system_id":"levelo_inurba_marseille","lat":43.26511,"lon":5.39066,"is_reserved":false,"is_disabled":true,"rental_uris":{"android":"levelo://app?vid=ba1008a8-8bd4-4cbd-ad17-281945b98710","ios":"levelo://app?vid=ba1008a8-8bd4-4cbd-ad17-281945b98710"},"vehicle_type_id":"4","last_reported":1737015119,"current_range_meters":38000,"station_id":"","pricing_plan_id":"cebpf4jnsgd1na2vs0mg"},{"bike_id":"96bc5ab3-f858-464a-b4af-68940b7ae460","system_id":"levelo_inurba_marseille","lat":43.30534,"lon":5.36698,"is_reserved":false,"is_disabled":false,"rental_uris":{"android":"levelo://app?vid=96bc5ab3-f858-464a-b4af-68940b7ae460","ios":"levelo://app?vid=96bc5ab3-f858-464a-b4af-68940b7ae460"},"vehicle_type_id":"4","last_reported":1737015119,"current_range_meters":38800,"station_id":"ce4bgrp2rcd13ifvqc9g","pricing_plan_id":"cebpf4jnsgd1na2vs0mg"},{"bike_id":"b66c8a7c-98ac-480c-a383-f54813a2d5aa","system_id":"levelo_inurba_marseille","lat":43.25827,"lon":5.39426,"is_reserved":false,"is_disabled":false,"rental_uris":{"android":"levelo://app?vid=b66c8a7c-98ac-480c-a383-f54813a2d5aa","ios":"levelo://app?vid=b66c8a7c-98ac-480c-a383-f54813a2d5aa"},"vehicle_type_id":"4","last_reported":1737015119,"current_range_meters":39200,"station_id":"ce4bhip2rcd13ifvqft0","pricing_plan_id":"cebpf4jnsgd1na2vs0mg"},{"bike_id":"20b60ba3-4dff-4dbe-9bdc-2d5a600f8df0","system_id":"levelo_inurba_marseille","lat":43.25001,"lon":5.38926,"is_reserved":false,"is_disabled":false,"rental_uris":{"android":"levelo://app?vid=20b60ba3-4dff-4dbe-9bdc-2d5a600f8df0","ios":"levelo://app?vid=20b60ba3-4dff-4dbe-9bdc-2d5a600f8df0"},"vehicle_type_id":"4","last_reported":1737015119,"current_range_meters":30000,"station_id":"ce4bhgp2rcd13ifvqfd0","pricing_plan_id":"cebpf4jnsgd1na2vs0mg"},{"bike_id":"ccfe53f0-8dfd-4f5f-b4c7-b77b106d12b3","system_id":"levelo_inurba_marseille","lat":43.24065,"lon":5.37751,"is_reserved":false,"is_disabled":false,"rental_uris":{"android":"levelo://app?vid=ccfe53f0-8dfd-4f5f-b4c7-b77b106d12b3","ios":"levelo://app?vid=ccfe53f0-8dfd-4f5f-b4c7-b77b106d12b3"},"vehicle_type_id":"4","last_reported":1737015119,"current_range_meters":8400,"station_id":"ce4bhnp2rcd13ifvqgvg","pricing_plan_id":"cebpf4jnsgd1na2vs0mg"},{"bike_id":"e3848547-df47-4a51-92ba-9382fd18f259","system_id":"levelo_inurba_marseille","lat":43.26943,"lon":5.40233,"is_reserved":false,"is_disabled":false,"rental_uris":{"android":"levelo://app?vid=e3848547-df47-4a51-92ba-9382fd18f259","ios":"levelo://app?vid=e3848547-df47-4a51-92ba-9382fd18f259"},"vehicle_type_id":"4","last_reported":1737015119,"current_range_meters":38800,"station_id":"cjm6bp8fraef2m0cb0m0","pricing_plan_id":"cebpf4jnsgd1na2vs0mg"},{"bike_id":"6f082074-42dc-46be-8245-5bf3499ce8de","system_id":"levelo_inurba_marseille","lat":43.30954,"lon":5.39023,"is_reserved":false,"is_disabled":false,"rental_uris":{"android":"levelo://app?vid=6f082074-42dc-46be-8245-5bf3499ce8de","ios":"levelo://app?vid=6f082074-42dc-46be-8245-5bf3499ce8de"},"vehicle_type_id":"4","last_reported":1737015119,"current_range_meters":33600,"station_id":"ce4bgup2rcd13ifvqco0","pricing_plan_id":"cebpf4jnsgd1na2vs0mg"},{"bike_id":"d8816fd9-61eb-4316-8ee5-3781fc5785a2","system_id":"levelo_inurba_marseille","lat":43.24066,"lon":5.37766,"is_reserved":false,"is_disabled":false,"rental_uris":{"android":"levelo://app?vid=d8816fd9-61eb-4316-8ee5-3781fc5785a2","ios":"levelo://app?vid=d8816fd9-61eb-4316-8ee5-3781fc5785a2"},"vehicle_type_id":"4","last_reported":1737015119,"current_range_meters":28800,"station_id":"ce4bhnp2rcd13ifvqgvg","pricing_plan_id":"cebpf4jnsgd1na2vs0mg"},{"bike_id":"3db749df-9f2a-4e9d-8f74-e4ba80be6ff9","system_id":"levelo_inurba_marseille","lat":43.2319,"lon":5.39985,"is_reserved":false,"is_disabled":false,"rental_uris":{"android":"levelo://app?vid=3db749df-9f2a-4e9d-8f74-e4ba80be6ff9","ios":"levelo://app?vid=3db749df-9f2a-4e9d-8f74-e4ba80be6ff9"},"vehicle_type_id":"4","last_reported":1737015119,"current_range_meters":27200,"station_id":"ce4bhn12rcd13ifvqgqg","pricing_plan_id":"cebpf4jnsgd1na2vs0mg"},{"bike_id":"0b63f676-b98b-409b-ab55-aa70c557f731","system_id":"levelo_inurba_marseille","lat":43.28983,"lon":5.37834,"is_reserved":false,"is_disabled":false,"rental_uris":{"android":"levelo://app?vid=0b63f676-b98b-409b-ab55-aa70c557f731","ios":"levelo://app?vid=0b63f676-b98b-409b-ab55-aa70c557f731"},"vehicle_type_id":"4","last_reported":1737015119,"current_range_meters":34000,"station_id":"ce4bh9p2rcd13ifvqed0","pricing_plan_id":"cebpf4jnsgd1na2vs0mg"},{"bike_id":"c101e9d6-6586-4057-bcf2-225072af234f","system_id":"levelo_inurba_marseille","lat":43.30894,"lon":5.37187,"is_reserved":false,"is_disabled":false,"rental_uris":{"android":"levelo://app?vid=c101e9d6-6586-4057-bcf2-225072af234f","ios":"levelo://app?vid=c101e9d6-6586-4057-bcf2-225072af234f"},"vehicle_type_id":"4","last_reported":1737015119,"current_range_meters":28800,"station_id":"ce4bguh2rcd13ifvqckg","pricing_plan_id":"cebpf4jnsgd1na2vs0mg"},{"bike_id":"c3add43b-bf52-4193-b880-0d78478473f5","system_id":"levelo_inurba_marseille","lat":43.23191,"lon":5.35556,"is_reserved":false,"is_disabled":true,"rental_uris":{"android":"levelo://app?vid=c3add43b-bf52-4193-b880-0d78478473f5","ios":"levelo://app?vid=c3add43b-bf52-4193-b880-0d78478473f5"},"vehicle_type_id":"4","last_reported":1737015119,"current_range_meters":35600,"station_id":"ce4bhu92rcd13ifvqi70","pricing_plan_id":"cebpf4jnsgd1na2vs0mg"},{"bike_id":"24170ccc-3bf5-420f-8934-aaa38745f2ac","system_id":"levelo_inurba_marseille","lat":43.27496,"lon":5.42451,"is_reserved":false,"is_disabled":true,"rental_uris":{"android":"levelo://app?vid=24170ccc-3bf5-420f-8934-aaa38745f2ac","ios":"levelo://app?vid=24170ccc-3bf5-420f-8934-aaa38745f2ac"},"vehicle_type_id":"4","last_reported":1737015119,"current_range_meters":0,"station_id":"ce4bhn92rcd13ifvqgrg","pricing_plan_id":"cebpf4jnsgd1na2vs0mg"},{"bike_id":"acdaf1bf-1493-4ba6-ad65-eb2b8bb90521","system_id":"levelo_inurba_marseille","lat":43.30134,"lon":5.38785,"is_reserved":false,"is_disabled":true,"rental_uris":{"android":"levelo://app?vid=acdaf1bf-1493-4ba6-ad65-eb2b8bb90521","ios":"levelo://app?vid=acdaf1bf-1493-4ba6-ad65-eb2b8bb90521"},"vehicle_type_id":"4","last_reported":1737015119,"current_range_meters":1600,"station_id":"ce4bghh2rcd13ifvqb60","pricing_plan_id":"cebpf4jnsgd1na2vs0mg"},{"bike_id":"cdaad3f4-277a-4f8c-98ff-d90d4eb032cc","system_id":"levelo_inurba_marseille","lat":43.31224,"lon":5.36859,"is_reserved":false,"is_disabled":false,"rental_uris":{"android":"levelo://app?vid=cdaad3f4-277a-4f8c-98ff-d90d4eb032cc","ios":"levelo://app?vid=cdaad3f4-277a-4f8c-98ff-d90d4eb032cc"},"vehicle_type_id":"4","last_reported":1737015119,"current_range_meters":10800,"station_id":"ce4bgl92rcd13ifvqbq0","pricing_plan_id":"cebpf4jnsgd1na2vs0mg"},{"bike_id":"5565ba63-8c08-4156-ad24-a446e77f076d","system_id":"levelo_inurba_marseille","lat":43.2549,"lon":5.37661,"is_reserved":false,"is_disabled":false,"rental_uris":{"android":"levelo://app?vid=5565ba63-8c08-4156-ad24-a446e77f076d","ios":"levelo://app?vid=5565ba63-8c08-4156-ad24-a446e77f076d"},"vehicle_type_id":"4","last_reported":1737015119,"current_range_meters":36000,"station_id":"ce4bhh12rcd13ifvqff0","pricing_plan_id":"cebpf4jnsgd1na2vs0mg"},{"bike_id":"4ae5cf8c-749c-469c-9df4-d134cf204ff4","system_id":"levelo_inurba_marseille","lat":43.24078,"lon":5.37757,"is_reserved":false,"is_disabled":false,"rental_uris":{"android":"levelo://app?vid=4ae5cf8c-749c-469c-9df4-d134cf204ff4","ios":"levelo://app?vid=4ae5cf8c-749c-469c-9df4-d134cf204ff4"},"vehicle_type_id":"4","last_reported":1737015119,"current_range_meters":28400,"station_id":"ce4bhnp2rcd13ifvqgvg","pricing_plan_id":"cebpf4jnsgd1na2vs0mg"},{"bike_id":"3677afbf-68f9-4979-899f-7e1aaf00ce96","system_id":"levelo_inurba_marseille","lat":43.27948,"lon":5.41041,"is_reserved":false,"is_disabled":true,"rental_uris":{"android":"levelo://app?vid=3677afbf-68f9-4979-899f-7e1aaf00ce96","ios":"levelo://app?vid=3677afbf-68f9-4979-899f-7e1aaf00ce96"},"vehicle_type_id":"4","last_reported":1737015119,"current_range_meters":28800,"station_id":"ce4bhnp2rcd13ifvqh0g","pricing_plan_id":"cebpf4jnsgd1na2vs0mg"},{"bike_id":"e1f9a0b5-1419-4e67-ab24-a72ee45dfd85","system_id":"levelo_inurba_marseille","lat":43.241653,"lon":5.363932,"is_reserved":false,"is_disabled":false,"rental_uris":{"android":"levelo://app?vid=e1f9a0b5-1419-4e67-ab24-a72ee45dfd85","ios":"levelo://app?vid=e1f9a0b5-1419-4e67-ab24-a72ee45dfd85"},"vehicle_type_id":"4","last_reported":1737015119,"current_range_meters":22400,"station_id":"cpo36qri1sfpv3e86is0","pricing_plan_id":"cebpf4jnsgd1na2vs0mg"},{"bike_id":"e14fe674-d6e2-440f-88d5-ccc7cbea8f91","system_id":"levelo_inurba_marseille","lat":43.274905,"lon":5.424435,"is_reserved":false,"is_disabled":false,"rental_uris":{"android":"levelo://app?vid=e14fe674-d6e2-440f-88d5-ccc7cbea8f91","ios":"levelo://app?vid=e14fe674-d6e2-440f-88d5-ccc7cbea8f91"},"vehicle_type_id":"4","last_reported":1737015119,"current_range_meters":28400,"station_id":"ce4bhn92rcd13ifvqgrg","pricing_plan_id":"cebpf4jnsgd1na2vs0mg"},{"bike_id":"93bc7e9d-3047-482e-a396-1037e95fe874","system_id":"levelo_inurba_marseille","lat":43.32229,"lon":5.38298,"is_reserved":false,"is_disabled":false,"rental_uris":{"android":"levelo://app?vid=93bc7e9d-3047-482e-a396-1037e95fe874","ios":"levelo://app?vid=93bc7e9d-3047-482e-a396-1037e95fe874"},"vehicle_type_id":"4","last_reported":1737015119,"current_range_meters":18000,"station_id":"","pricing_plan_id":"cebpf4jnsgd1na2vs0mg"},{"bike_id":"1f0594a4-3ffd-4d41-80fb-d6812ea0d488","system_id":"levelo_inurba_marseille","lat":43.32481,"lon":5.36569,"is_reserved":false,"is_disabled":false,"rental_uris":{"android":"levelo://app?vid=1f0594a4-3ffd-4d41-80fb-d6812ea0d488","ios":"levelo://app?vid=1f0594a4-3ffd-4d41-80fb-d6812ea0d488"},"vehicle_type_id":"4","last_reported":1737015119,"current_range_meters":24400,"station_id":"ce4bhs12rcd13ifvqhvg","pricing_plan_id":"cebpf4jnsgd1na2vs0mg"},{"bike_id":"f7a93299-4b31-44c2-976e-82f7878bc418","system_id":"levelo_inurba_marseille","lat":43.25477,"lon":5.37672,"is_reserved":false,"is_disabled":false,"rental_uris":{"android":"levelo://app?vid=f7a93299-4b31-44c2-976e-82f7878bc418","ios":"levelo://app?vid=f7a93299-4b31-44c2-976e-82f7878bc418"},"vehicle_type_id":"4","last_reported":1737015119,"current_range_meters":39200,"station_id":"ce4bhh12rcd13ifvqff0","pricing_plan_id":"cebpf4jnsgd1na2vs0mg"},{"bike_id":"31f00ed0-b0ca-427a-9039-ac29c940ea2c","system_id":"levelo_inurba_marseille","lat":43.23193,"lon":5.35563,"is_reserved":false,"is_disabled":false,"rental_uris":{"android":"levelo://app?vid=31f00ed0-b0ca-427a-9039-ac29c940ea2c","ios":"levelo://app?vid=31f00ed0-b0ca-427a-9039-ac29c940ea2c"},"vehicle_type_id":"4","last_reported":1737015119,"current_range_meters":20000,"station_id":"ce4bhu92rcd13ifvqi70","pricing_plan_id":"cebpf4jnsgd1na2vs0mg"},{"bike_id":"a7537d32-a913-4ccc-b5aa-5d0e523dcf14","system_id":"levelo_inurba_marseille","lat":43.307835,"lon":5.37653,"is_reserved":false,"is_disabled":false,"rental_uris":{"android":"levelo://app?vid=a7537d32-a913-4ccc-b5aa-5d0e523dcf14","ios":"levelo://app?vid=a7537d32-a913-4ccc-b5aa-5d0e523dcf14"},"vehicle_type_id":"4","last_reported":1737015119,"current_range_meters":25200,"station_id":"ce4bgv92rcd13ifvqcq0","pricing_plan_id":"cebpf4jnsgd1na2vs0mg"},{"bike_id":"fc0fba9a-52e3-4564-ac9d-ade21d828db4","system_id":"levelo_inurba_marseille","lat":43.26793,"lon":5.39421,"is_reserved":false,"is_disabled":true,"rental_uris":{"android":"levelo://app?vid=fc0fba9a-52e3-4564-ac9d-ade21d828db4","ios":"levelo://app?vid=fc0fba9a-52e3-4564-ac9d-ade21d828db4"},"vehicle_type_id":"4","last_reported":1737015119,"current_range_meters":800,"station_id":"ce4bhh12rcd13ifvqfg0","pricing_plan_id":"cebpf4jnsgd1na2vs0mg"},