{"last_updated":1699931273,"ttl":30,"version":"2.2","data":{"bikes":[{"bike_id":"cb49dca8-aaaa-45a5-b223-bc7fe34663dd","system_id":"levelo_inurba_marseille","lat":43.312239,"lon":5.368562,"is_reserved":false,"is_disabled":false,"rental_uris":{"android":"levelo://app?vid=cb49dca8-aaaa-45a5-b223-bc7fe34663dd","ios":"levelo://app?vid=cb49dca8-aaaa-45a5-b223-bc7fe34663dd"},"vehicle_type_id":"4","last_reported":1699931273,"current_range_meters":14400,"station_id":"ce4bgl92rcd13ifvqbq0","pricing_plan_id":"free"},{"bike_id":"b984f0e8-dc8f-4457-8de2-dd5d77e3da8e","system_id":"levelo_inurba_marseille","lat":43.309076,"lon":5.368465,"is_reserved":false,"is_disabled":false,"rental_uris":{"android":"levelo://app?vid=b984f0e8-dc8f-4457-8de2-dd5d77e3da8e","ios":"levelo://app?vid=b984f0e8-dc8f-4457-8de2-dd5d77e3da8e"},"vehicle_type_id":"4","last_reported":1699931273,"current_range_meters":29200,"station_id":"ce4bgn92rcd13ifvqbvg","pricing_plan_id":"free"},{"bike_id":"fd2aa723-2ae4-4e92-b764-4cfa75b48d62","system_id":"levelo_inurba_marseille","lat":43.314811,"lon":5.373103,"is_reserved":false,"is_disabled":false,"rental_uris":{"android":"levelo://app?vid=fd2aa723-2ae4-4e92-b764-4cfa75b48d62","ios":"levelo://app?vid=fd2aa723-2ae4-4e92-b764-4cfa75b48d62"},"vehicle_type_id":"4","last_reported":1699931273,"current_range_meters":31200,"station_id":"ce4bgt12rcd13ifvqcd0","pricing_plan_id":"free"},{"bike_id":"b745e723-955e-4133-a3d5-c91350166b73","system_id":"levelo_inurba_marseille","lat":43.314811,"lon":5.373103,"is_reserved":false,"is_disabled":false,"rental_uris":{"android":"levelo://app?vid=b745e723-955e-4133-a3d5-c91350166b73","ios":"levelo://app?vid=b745e723-955e-4133-a3d5-c91350166b73"},"vehicle_type_id":"4","last_reported":1699931273,"current_range_meters":4400,"station_id":"ce4bgt12rcd13ifvqcd0","pricing_plan_id":"free"},{"bike_id":"ff3f3000-095a-4e05-bc3e-fccf2e5976db","system_id":"levelo_inurba_marseille","lat":43.314811,"lon":5.373103,"is_reserved":false,"is_disabled":false,"rental_uris":{"android":"levelo://app?vid=ff3f3000-095a-4e05-bc3e-fccf2e5976db","ios":"levelo://app?vid=ff3f3000-095a-4e05-bc3e-fccf2e5976db"},"vehicle_type_id":"4","last_reported":1699931273,"current_range_meters":22000,"station_id":"ce4bgt12rcd13ifvqcd0","pricing_plan_id":"free"},{"bike_id":"cb5b21a7-3f01-4c88-8904-cf2494b3c3b9","system_id":"levelo_inurba_marseille","lat":43.314811,"lon":5.373104,"is_reserved":false,"is_disabled":false,"rental_uris":{"android":"levelo://app?vid=cb5b21a7-3f01-4c88-8904-cf2494b3c3b9","ios":"levelo://app?vid=cb5b21a7-3f01-4c88-8904-cf2494b3c3b9"},"vehicle_type_id":"4","last_reported":1699931273,"current_range_meters":3600,"station_id":"ce4bgt12rcd13ifvqcd0","pricing_plan_id":"free"},{"bike_id":"fbb85f6c-9fc2-43f6-a217-0a50628e6adc","system_id":"levelo_inurba_marseille","lat":43.314811,"lon":5.373103,"is_reserved":false,"is_disabled":false,"rental_uris":{"android":"levelo://app?vid=fbb85f6c-9fc2-43f6-a217-0a50628e6adc","ios":"levelo://app?vid=fbb85f6c-9fc2-43f6-a217-0a50628e6adc"},"vehicle_type_id":"4","last_reported":1699931273,"current_range_meters":3200,"station_id":"ce4bgt12rcd13ifvqcd0","pricing_plan_id":"free"},{"bike_id":"410ffb99-b085-4e36-95fb-ce28d5f28f99","system_id":"levelo_inurba_marseille","lat":43.314811,"lon":5.373103,"is_reserved":false,"is_disabled":false,"rental_uris":{"android":"levelo://app?vid=410ffb99-b085-4e36-95fb-ce28d5f28f99","ios":"levelo://app?vid=410ffb99-b085-4e36-95fb-ce28d5f28f99"},"vehicle_type_id":"4","last_reported":1699931273,"current_range_meters":0,"station_id":"ce4bgt12rcd13ifvqcd0","pricing_plan_id":"free"},{"bike_id":"07df1672-1c4a-49a2-a517-79e10fe5f905","system_id":"levelo_inurba_marseille","lat":43.314811,"lon":5.373104,"is_reserved":false,"is_disabled":false,"rental_uris":{"android":"levelo://app?vid=07df1672-1c4a-49a2-a517-79e10fe5f905","ios":"levelo://app?vid=07df1672-1c4a-49a2-a517-79e10fe5f905"},"vehicle_type_id":"4","last_reported":1699931273,"current_range_meters":31600,"station_id":"ce4bgt12rcd13ifvqcd0","pricing_plan_id":"free"},{"bike_id":"08b6ef7b-2a18-49a8-8078-1c7fb1c82f6e","system_id":"levelo_inurba_marseille","lat":43.314811,"lon":5.373104,"is_reserved":false,"is_disabled":false,"rental_uris":{"android":"levelo://app?vid=08b6ef7b-2a18-49a8-8078-1c7fb1c82f6e","ios":"levelo://app?vid=08b6ef7b-2a18-49a8-8078-1c7fb1c82f6e"},"vehicle_type_id":"4","last_reported":1699931273,"current_range_meters":26000,"station_id":"ce4bgt12rcd13ifvqcd0","pricing_plan_id":"free"},{"bike_id":"eae94a62-172d-4776-8c31-cb679889a29a","system_id":"levelo_inurba_marseille","lat":43.309039,"lon":5.371797,"is_reserved":false,"is_disabled":false,"rental_uris":{"android":"levelo://app?vid=eae94a62-172d-4776-8c31-cb679889a29a","ios":"levelo://app?vid=eae94a62-172d-4776-8c31-cb679889a29a"},"vehicle_type_id":"4","last_reported":1699931273,"current_range_meters":26400,"station_id":"ce4bguh2rcd13ifvqckg","pricing_plan_id":"free"},{"bike_id":"d4c4dd9f-bcbf-488d-94d2-b34602553caa","system_id":"levelo_inurba_marseille","lat":43.309039,"lon":5.371797,"is_reserved":false,"is_disabled":false,"rental_uris":{"android":"levelo://app?vid=d4c4dd9f-bcbf-488d-94d2-b34602553caa","ios":"levelo://app?vid=d4c4dd9f-bcbf-488d-94d2-b34602553caa"},"vehicle_type_id":"4","last_reported":1699931273,"current_range_meters":31200,"station_id":"ce4bguh2rcd13ifvqckg","pricing_plan_id":"free"},{"bike_id":"60725b72-6514-47b1-8a0a-573cb8240165","system_id":"levelo_inurba_marseille","lat":43.309039,"lon":5.371797,"is_reserved":false,"is_disabled":false,"rental_uris":{"android":"levelo://app?vid=60725b72-6514-47b1-8a0a-573cb8240165","ios":"levelo://app?vid=60725b72-6514-47b1-8a0a-573cb8240165"},"vehicle_type_id":"4","last_reported":1699931273,"current_range_meters":800,"station_id":"ce4bguh2rcd13ifvqckg","pricing_plan_id":"free"},{"bike_id":"a32af6ac-34e0-4241-926a-07b606011c5f","system_id":"levelo_inurba_marseille","lat":43.309039,"lon":5.371797,"is_reserved":false,"is_disabled":false,"rental_uris":{"android":"levelo://app?vid=a32af6ac-34e0-4241-926a-07b606011c5f","ios":"levelo://app?vid=a32af6ac-34e0-4241-926a-07b606011c5f"},"vehicle_type_id":"4","last_reported":1699931273,"current_range_meters":24400,"station_id":"ce4bguh2rcd13ifvqckg","pricing_plan_id":"free"},{"bike_id":"3db1199c-d837-4647-b355-426d45e14c78","system_id":"levelo_inurba_marseille","lat":43.305989,"lon":5.37225,"is_reserved":false,"is_disabled":false,"rental_uris":{"android":"levelo://app?vid=3db1199c-d837-4647-b355-426d45e14c78","ios":"levelo://app?vid=3db1199c-d837-4647-b355-426d45e14c78"},"vehicle_type_id":"4","last_reported":1699931273,"current_range_meters":27600,"station_id":"ce4bgqh2rcd13ifvqc4g","pricing_plan_id":"free"},{"bike_id":"69d016a5-d6e6-44f7-bbbc-2a1a2aad7318","system_id":"levelo_inurba_marseille","lat":43.31409,"lon":5.37635,"is_reserved":false,"is_disabled":false,"rental_uris":{"android":"levelo://app?vid=69d016a5-d6e6-44f7-bbbc-2a1a2aad7318","ios":"levelo://app?vid=69d016a5-d6e6-44f7-bbbc-2a1a2aad7318"},"vehicle_type_id":"4","last_reported":1699931273,"current_range_meters":14400,"station_id":"","pricing_plan_id":"free"},{"bike_id":"a2cce5f2-0690-4fd6-906b-53285044f072","system_id":"levelo_inurba_marseille","lat":43.311131,"lon":5.377651,"is_reserved":false,"is_disabled":false,"rental_uris":{"android":"levelo://app?vid=a2cce5f2-0690-4fd6-906b-53285044f072","ios":"levelo://app?vid=a2cce5f2-0690-4fd6-906b-53285044f072"},"vehicle_type_id":"4","last_reported":1699931273,"current_range_meters":27200,"station_id":"ce4bgt92rcd13ifvqcg0","pricing_plan_id":"free"},{"bike_id":"000a743d-c864-46f8-a3a1-c073276598a2","system_id":"levelo_inurba_marseille","lat":43.311131,"lon":5.377651,"is_reserved":false,"is_disabled":false,"rental_uris":{"android":"levelo://app?vid=000a743d-c864-46f8-a3a1-c073276598a2","ios":"levelo://app?vid=000a743d-c864-46f8-a3a1-c073276598a2"},"vehicle_type_id":"4","last_reported":1699931273,"current_range_meters":25200,"station_id":"ce4bgt92rcd13ifvqcg0","pricing_plan_id":"free"},{"bike_id":"a232614b-3ec9-4c0a-89c1-84370aa444f1","system_id":"levelo_inurba_marseille","lat":43.311125,"lon":5.377624,"is_reserved":false,"is_disabled":false,"rental_uris":{"android":"levelo://app?vid=a232614b-3ec9-4c0a-89c1-84370aa444f1","ios":"levelo://app?vid=a232614b-3ec9-4c0a-89c1-84370aa444f1"},"vehicle_type_id":"4","last_reported":1699931273,"current_range_meters":19200,"station_id":"ce4bgt92rcd13ifvqcg0","pricing_plan_id":"free"},{"bike_id":"34cc87a2-8c1f-4e42-a4ca-bdc1a8e9ea67","system_id":"levelo_inurba_marseille","lat":43.311131,"lon":5.377651,"is_reserved":false,"is_disabled":false,"rental_uris":{"android":"levelo://app?vid=34cc87a2-8c1f-4e42-a4ca-bdc1a8e9ea67","ios":"levelo://app?vid=34cc87a2-8c1f-4e42-a4ca-bdc1a8e9ea67"},"vehicle_type_id":"4","last_reported":1699931273,"current_range_meters":30000,"station_id":"ce4bgt92rcd13ifvqcg0","pricing_plan_id":"free"},{"bike_id":"6811dd50-edbe-41ad-9d69-4e5af2430f6b","system_id":"levelo_inurba_marseille","lat":43.307945,"lon":5.376487,"is_reserved":false,"is_disabled":false,"rental_uris":{"android":"levelo://app?vid=6811dd50-edbe-41ad-9d69-4e5af2430f6b","ios":"levelo://app?vid=6811dd50-edbe-41ad-9d69-4e5af2430f6b"},"vehicle_type_id":"4","last_reported":1699931273,"current_range_meters":30400,"station_id":"ce4bgv92rcd13ifvqcq0","pricing_plan_id":"free"},{"bike_id":"57053367-5328-4d78-8951-737f56b37ed9","system_id":"levelo_inurba_marseille","lat":43.319924,"lon":5.373389,"is_reserved":false,"is_disabled":false,"rental_uris":{"android":"levelo://app?vid=57053367-5328-4d78-8951-737f56b37ed9","ios":"levelo://app?vid=57053367-5328-4d78-8951-737f56b37ed9"},"vehicle_type_id":"4","last_reported":1699931273,"current_range_meters":8800,"station_id":"","pricing_plan_id":"free"},{"bike_id":"edc965e4-37a0-4faa-9068-66f1c1009e15","system_id":"levelo_inurba_marseille","lat":43.317075,"lon":5.377367,"is_reserved":false,"is_disabled":false,"rental_uris":{"android":"levelo://app?vid=edc965e4-37a0-4faa-9068-66f1c1009e15","ios":"levelo://app?vid=edc965e4-37a0-4faa-9068-66f1c1009e15"},"vehicle_type_id":"4","last_reported":1699931273,"current_range_meters":29600,"station_id":"ce4bgth2rcd13ifvqch0","pricing_plan_id":"free"},{"bike_id":"55b61de6-bcfd-4baa-a733-b5e8fcf2e626","system_id":"levelo_inurba_marseille","lat":43.317075,"lon":5.377367,"is_reserved":false,"is_disabled":false,"rental_uris":{"android":"levelo://app?vid=55b61de6-bcfd-4baa-a733-b5e8fcf2e626","ios":"levelo://app?vid=55b61de6-bcfd-4baa-a733-b5e8fcf2e626"},"vehicle_type_id":"4","last_reported":1699931273,"current_range_meters":30000,"station_id":"ce4bgth2rcd13ifvqch0","pricing_plan_id":"free"},{"bike_id":"17f562ca-cad3-44de-adf2-14137444e909","system_id":"levelo_inurba_marseille","lat":43.304307,"lon":5.371865,"is_reserved":false,"is_disabled":false,"rental_uris":{"android":"levelo://app?vid=17f562ca-cad3-44de-adf2-14137444e909","ios":"levelo://app?vid=17f562ca-cad3-44de-adf2-14137444e909"},"vehicle_type_id":"4","last_reported":1699931273,"current_range_meters":16400,"station_id":"","pricing_plan_id":"free"},{"bike_id":"a6b9b5a1-fd48-48fc-be70-cf1d1343302f","system_id":"levelo_inurba_marseille","lat":43.306737,"lon":5.380387,"is_reserved":false,"is_disabled":false,"rental_uris":{"android":"levelo://app?vid=a6b9b5a1-fd48-48fc-be70-cf1d1343302f","ios":"levelo://app?vid=a6b9b5a1-fd48-48fc-be70-cf1d1343302f"},"vehicle_type_id":"4","last_reported":1699931273,"current_range_meters":15600,"station_id":"","pricing_plan_id":"free"},{"bike_id":"a26a672c-8f86-40f5-9e8e-9856cf399a24","system_id":"levelo_inurba_marseille","lat":43.308072,"lon":5.381465,"is_reserved":false,"is_disabled":false,"rental_uris":{"android":"levelo://app?vid=a26a672c-8f86-40f5-9e8e-9856cf399a24","ios":"levelo://app?vid=a26a672c-8f86-40f5-9e8e-9856cf399a24"},"vehicle_type_id":"4","last_reported":1699931273,"current_range_meters":15600,"station_id":"ce4bgt12rcd13ifvqce0","pricing_plan_id":"free"},{"bike_id":"09a525e8-3900-4641-b44b-71fb530538f5","system_id":"levelo_inurba_marseille","lat":43.308028,"lon":5.38149,"is_reserved":false,"is_disabled":false,"rental_uris":{"android":"levelo://app?vid=09a525e8-3900-4641-b44b-71fb530538f5","ios":"levelo://app?vid=09a525e8-3900-4641-b44b-71fb530538f5"},"vehicle_type_id":"4","last_reported":1699931273,"current_range_meters":16400,"station_id":"ce4bgt12rcd13ifvqce0","pricing_plan_id":"free"},{"bike_id":"c70abf77-a4c4-4121-bc18-1b090da2de79","system_id":"levelo_inurba_marseille","lat":43.308039,"lon":5.381528,"is_reserved":false,"is_disabled":false,"rental_uris":{"android":"levelo://app?vid=c70abf77-a4c4-4121-bc18-1b090da2de79","ios":"levelo://app?vid=c70abf77-a4c4-4121-bc18-1b090da2de79"},"vehicle_type_id":"4","last_reported":1699931273,"current_range_meters":26400,"station_id":"ce4bgt12rcd13ifvqce0","pricing_plan_id":"free"},{"bike_id":"6aeea15b-0dab-489b-90e5-351a10175743","system_id":"levelo_inurba_marseille","lat":43.324828,"lon":5.365588,"is_reserved":false,"is_disabled":false,"rental_uris":{"android":"levelo://app?vid=6aeea15b-0dab-489b-90e5-351a10175743","ios":"levelo://app?vid=6aeea15b-0dab-489b-90e5-351a10175743"},"vehicle_type_id":"4","last_reported":1699931273,"current_range_meters":0,"station_id":"ce4bhs12rcd13ifvqhvg","pricing_plan_id":"free"},{"bike_id":"45eb3183-e2bc-418b-98e5-36875e7205a9","system_id":"levelo_inurba_marseille","lat":43.301429,"lon":5.37413,"is_reserved":false,"is_disabled":false,"rental_uris":{"android":"levelo://app?vid=45eb3183-e2bc-418b-98e5-36875e7205a9","ios":"levelo://app?vid=45eb3183-e2bc-418b-98e5-36875e7205a9"},"vehicle_type_id":"4","last_reported":1699931273,"current_range_meters":31200,"station_id":"ce4bgs92rcd13ifvqcc0","pricing_plan_id":"free"},{"bike_id":"69166d53-ec8e-4a0a-864c-7a29f7650dd8","system_id":"levelo_inurba_marseille","lat":43.321176,"lon":5.380024,"is_reserved":false,"is_disabled":false,"rental_uris":{"android":"levelo://app?vid=69166d53-ec8e-4a0a-864c-7a29f7650dd8","ios":"levelo://app?vid=69166d53-ec8e-4a0a-864c-7a29f7650dd8"},"vehicle_type_id":"4","last_reported":1699931273,"current_range_meters":7200,"station_id":"","pricing_plan_id":"free"},{"bike_id":"13d78257-2559-4a10-97b8-aaa7032179bc","system_id":"levelo_inurba_marseille","lat":43.319975,"lon":5.381519,"is_reserved":false,"is_disabled":false,"rental_uris":{"android":"levelo://app?vid=13d78257-2559-4a10-97b8-aaa7032179bc","ios":"levelo://app?vid=13d78257-2559-4a10-97b8-aaa7032179bc"},"vehicle_type_id":"4","last_reported":1699931273,"current_range_meters":0,"station_id":"","pricing_plan_id":"free"},{"bike_id":"a02602d9-4031-430a-a01f-14b9a38e953a","system_id":"levelo_inurba_marseille","lat":43.313571,"lon":5.384829,"is_reserved":false,"is_disabled":false,"rental_uris":{"android":"levelo://app?vid=a02602d9-4031-430a-a01f-14b9a38e953a","ios":"levelo://app?vid=a02602d9-4031-430a-a01f-14b9a38e953a"},"vehicle_type_id":"4","last_reported":1699931273,"current_range_meters":27600,"station_id":"ce4bgt92rcd13ifvqcf0","pricing_plan_id":"free"},{"bike_id":"aa9d6a84-d44c-407d-80f4-87091ddbbd51","system_id":"levelo_inurba_marseille","lat":43.313571,"lon":5.384829,"is_reserved":false,"is_disabled":false,"rental_uris":{"android":"levelo://app?vid=aa9d6a84-d44c-407d-80f4-87091ddbbd51","ios":"levelo://app?vid=aa9d6a84-d44c-407d-80f4-87091ddbbd51"},"vehicle_type_id":"4","last_reported":1699931273,"current_range_meters":30400,"station_id":"ce4bgt92rcd13ifvqcf0","pricing_plan_id":"free"},{"bike_id":"96137788-b08f-40c3-b02a-703263be057f","system_id":"levelo_inurba_marseille","lat":43.313571,"lon":5.384829,"is_reserved":false,"is_disabled":false,"rental_uris":{"android":"levelo://app?vid=96137788-b08f-40c3-b02a-703263be057f","ios":"levelo://app?vid=96137788-b08f-40c3-b02a-703263be057f"},"vehicle_type_id":"4","last_reported":1699931273,"current_range_meters":31200,"station_id":"ce4bgt92rcd13ifvqcf0","pricing_plan_id":"free"},{"bike_id":"4823635b-d817-43f0-bd42-33a64b67c3ba","system_id":"levelo_inurba_marseille","lat":43.313571,"lon":5.384829,"is_reserved":false,"is_disabled":false,"rental_uris":{"android":"levelo://app?vid=4823635b-d817-43f0-bd42-33a64b67c3ba","ios":"levelo://app?vid=4823635b-d817-43f0-bd42-33a64b67c3ba"},"vehicle_type_id":"4","last_reported":1699931273,"current_range_meters":28000,"station_id":"ce4bgt92rcd13ifvqcf0","pricing_plan_id":"free"},{"bike_id":"b99d0c90-7b4d-47ad-a524-7bfc1802d9ab","system_id":"levelo_inurba_marseille","lat":43.313571,"lon":5.384829,"is_reserved":false,"is_disabled":false,"rental_uris":{"android":"levelo://app?vid=b99d0c90-7b4d-47ad-a524-7bfc1802d9ab","ios":"levelo://app?vid=b99d0c90-7b4d-47ad-a524-7bfc1802d9ab"},"vehicle_type_id":"4","last_reported":1699931273,"current_range_meters":6800,"station_id":"ce4bgt92rcd13ifvqcf0","pricing_plan_id":"free"},{"bike_id":"c9d02527-8ca4-4703-bb52-8654ee5a55c7","system_id":"levelo_inurba_marseille","lat":43.29938,"lon":5.36536,"is_reserved":false,"is_disabled":false,"rental_uris":{"android":"levelo://app?vid=c9d02527-8ca4-4703-bb52-8654ee5a55c7","ios":"levelo://app?vid=c9d02527-8ca4-4703-bb52-8654ee5a55c7"},"vehicle_type_id":"4","last_reported":1699931273,"current_range_meters":0,"station_id":"ce4bgm92rcd13ifvqbr0","pricing_plan_id":"free"},{"bike_id":"5da9dea2-bd9f-4746-b637-56e44ea9e587","system_id":"levelo_inurba_marseille","lat":43.298489,"lon":5.362942,"is_reserved":false,"is_disabled":false,"rental_uris":{"android":"levelo://app?vid=5da9dea2-bd9f-4746-b637-56e44ea9e587","ios":"levelo://app?vid=5da9dea2-bd9f-4746-b637-56e44ea9e587"},"vehicle_type_id":"4","last_reported":1699931273,"current_range_meters":14800,"station_id":"ce4bgpp2rcd13ifvqc3g","pricing_plan_id":"free"},{"bike_id":"6c1caa6c-33e4-4242-bfdd-bc7d95e10245","system_id":"levelo_inurba_marseille","lat":43.311722,"lon":5.387247,"is_reserved":false,"is_disabled":false,"rental_uris":{"android":"levelo://app?vid=6c1caa6c-33e4-4242-bfdd-bc7d95e10245","ios":"levelo://app?vid=6c1caa6c-33e4-4242-bfdd-bc7d95e10245"},"vehicle_type_id":"4","last_reported":1699931273,"current_range_meters":27200,"station_id":"ce4bgv12rcd13ifvqcp0","pricing_plan_id":"free"},{"bike_id":"9160d6a1-4fa8-4dbe-95a5-bc297198e0c1","system_id":"levelo_inurba_marseille","lat":43.311722,"lon":5.387247,"is_reserved":false,"is_disabled":false,"rental_uris":{"android":"levelo://app?vid=9160d6a1-4fa8-4dbe-95a5-bc297198e0c1","ios":"levelo://app?vid=9160d6a1-4fa8-4dbe-95a5-bc297198e0c1"},"vehicle_type_id":"4","last_reported":1699931273,"current_range_meters":20400,"station_id":"ce4bgv12rcd13ifvqcp0","pricing_plan_id":"free"},{"bike_id":"8950f55a-e75d-4fac-9a7c-f529bc0580a5","system_id":"levelo_inurba_marseille","lat":43.320464,"lon":5.384144,"is_reserved":false,"is_disabled":false,"rental_uris":{"android":"levelo://app?vid=8950f55a-e75d-4fac-9a7c-f529bc0580a5","ios":"levelo://app?vid=8950f55a-e75d-4fac-9a7c-f529bc0580a5"},"vehicle_type_id":"4","last_reported":1699931273,"current_range_meters":3200,"station_id":"","pricing_plan_id":"free"},{"bike_id":"de1a7823-1634-448a-8bb8-e7e3a52a6463","system_id":"levelo_inurba_marseille","lat":43.311722,"lon":5.387247,"is_reserved":false,"is_disabled":false,"rental_uris":{"android":"levelo://app?vid=de1a7823-1634-448a-8bb8-e7e3a52a6463","ios":"levelo://app?vid=de1a7823-1634-448a-8bb8-e7e3a52a6463"},"vehicle_type_id":"4","last_reported":1699931273,"current_range_meters":3200,"station_id":"ce4bgv12rcd13ifvqcp0","pricing_plan_id":"free"},{"bike_id":"c581d474-cb97-441e-9f22-7badbafa9eae","system_id":"levelo_inurba_marseille","lat":43.311722,"lon":5.387247,"is_reserved":false,"is_disabled":false,"rental_uris":{"android":"levelo://app?vid=c581d474-cb97-441e-9f22-7badbafa9eae","ios":"levelo://app?vid=c581d474-cb97-441e-9f22-7badbafa9eae"},"vehicle_type_id":"4","last_reported":1699931273,"current_range_meters":8800,"station_id":"ce4bgv12rcd13ifvqcp0","pricing_plan_id":"free"},{"bike_id":"d9757dac-b57f-4892-932b-c2745130e628","system_id":"levelo_inurba_marseille","lat":43.311722,"lon":5.387247,"is_reserved":false,"is_disabled":false,"rental_uris":{"android":"levelo://app?vid=d9757dac-b57f-4892-932b-c2745130e628","ios":"levelo://app?vid=d9757dac-b57f-4892-932b-c2745130e628"},"vehicle_type_id":"4","last_reported":1699931273,"current_range_meters":24400,"station_id":"ce4bgv12rcd13ifvqcp0","pricing_plan_id":"free"},{"bike_id":"7b2329d1-77b0-44b7-a96c-5c82f562fea0","system_id":"levelo_inurba_marseille","lat":43.311722,"lon":5.387247,"is_reserved":false,"is_disabled":false,"rental_uris":{"android":"levelo://app?vid=7b2329d1-77b0-44b7-a96c-5c82f562fea0","ios":"levelo://app?vid=7b2329d1-77b0-44b7-a96c-5c82f562fea0"},"vehicle_type_id":"4","last_reported":1699931273,"current_range_meters":20800,"station_id":"ce4bgv12rcd13ifvqcp0","pricing_plan_id":"free"},{"bike_id":"b0b62844-bd59-45c7-a3c9-a4c4e3f9a1b4","system_id":"levelo_inurba_marseille","lat":43.311722,"lon":5.387247,"is_reserved":false,"is_disabled":false,"rental_uris":{"android":"levelo://app?vid=b0b62844-bd59-45c7-a3c9-a4c4e3f9a1b4","ios":"levelo://app?vid=b0b62844-bd59-45c7-a3c9-a4c4e3f9a1b4"},"vehicle_type_id":"4","last_reported":1699931273,"current_range_meters":28400,"station_id":"ce4bgv12rcd13ifvqcp0","pricing_plan_id":"free"},{"bike_id":"99115fb3-dd06-4dfc-b180-09352c4244af","system_id":"levelo_inurba_marseille","lat":43.322872,"lon":5.382756,"is_reserved":false,"is_disabled":false,"rental_uris":{"android":"levelo://app?vid=99115fb3-dd06-4dfc-b180-09352c4244af","ios":"levelo://app?vid=99115fb3-dd06-4dfc-b180-09352c4244af"},"vehicle_type_id":"4","last_reported":1699931273,"current_range_meters":26000,"station_id":"ce4bhr12rcd13ifvqhqg","pricing_plan_id":"free"},{"bike_id":"b5ce14e4-ad62-4f34-9eeb-4d0d8c01c68a","system_id":"levelo_inurba_marseille","lat":43.322872,"lon":5.382756,"is_reserved":false,"is_disabled":false,"rental_uris":{"android":"levelo://app?vid=b5ce14e4-ad62-4f34-9eeb-4d0d8c01c68a","ios":"levelo://app?vid=b5ce14e4-ad62-4f34-9eeb-4d0d8c01c68a"},"vehicle_type_id":"4","last_reported":1699931273,"current_range_meters":31200,"station_id":"ce4bhr12rcd13ifvqhqg","pricing_plan_id":"free"},{"bike_id":"c2729230-db0b-4dda-bff7-f955d4c0c648","system_id":"levelo_inurba_marseille","lat":43.328277,"lon":5.366773,"is_reserved":false,"is_disabled":false,"rental_uris":{"android":"levelo://app?vid=c2729230-db0b-4dda-bff7-f955d4c0c648","ios":"levelo://app?vid=c2729230-db0b-4dda-bff7-f955d4c0c648"},"vehicle_type_id":"4","last_reported":1699931273,"current_range_meters":17600,"station_id":"ce4bhs92rcd13ifvqi0g","pricing_plan_id":"free"},{"bike_id":"be08e048-4a3c-41dd-858d-463ceef3e65a","system_id":"levelo_inurba_marseille","lat":43.297163,"lon":5.365866,"is_reserved":false,"is_disabled":false,"rental_uris":{"android":"levelo://app?vid=be08e048-4a3c-41dd-858d-463ceef3e65a","ios":"levelo://app?vid=be08e048-4a3c-41dd-858d-463ceef3e65a"},"vehicle_type_id":"4","last_reported":1699931273,"current_range_meters":28000,"station_id":"ce4bgn12rcd13ifvqbt0","pricing_plan_id":"free"},{"bike_id":"d447991a-59b4-4778-a190-7d2b0920a414","system_id":"levelo_inurba_marseille","lat":43.32215,"lon":5.38613,"is_reserved":false,"is_disabled":false,"rental_uris":{"android":"levelo://app?vid=d447991a-59b4-4778-a190-7d2b0920a414","ios":"levelo://app?vid=d447991a-59b4-4778-a190-7d2b0920a414"},"vehicle_type_id":"4","last_reported":1699931273,"current_range_meters":10800,"station_id":"","pricing_plan_id":"free"},{"bike_id":"408e1bba-ac1b-479c-ad30-32026784c873","system_id":"levelo_inurba_marseille","lat":43.2966,"lon":5.37463,"is_reserved":false,"is_disabled":false,"rental_uris":{"android":"levelo://app?vid=408e1bba-ac1b-479c-ad30-32026784c873","ios":"levelo://app?vid=408e1bba-ac1b-479c-ad30-32026784c873"},"vehicle_type_id":"4","last_reported":1699931273,"current_range_meters":4800,"station_id":"","pricing_plan_id":"free"},{"bike_id":"059ad2a8-a573-4ad3-8cc4-2a9705c2644f","system_id":"levelo_inurba_marseille","lat":43.309589,"lon":5.390258,"is_reserved":false,"is_disabled":false,"rental_uris":{"android":"levelo://app?vid=059ad2a8-a573-4ad3-8cc4-2a9705c2644f","ios":"levelo://app?vid=059ad2a8-a573-4ad3-8cc4-2a9705c2644f"},"vehicle_type_id":"4","last_reported":1699931273,"current_range_meters":29200,"station_id":"ce4bgup2rcd13ifvqco0","pricing_plan_id":"free"},{"bike_id":"c17fe9e5-9d39-4813-bdb3-b9b082824d9e","system_id":"levelo_inurba_marseille","lat":43.309528,"lon":5.39037,"is_reserved":false,"is_disabled":false,"rental_uris":{"android":"levelo://app?vid=c17fe9e5-9d39-4813-bdb3-b9b082824d9e","ios":"levelo://app?vid=c17fe9e5-9d39-4813-bdb3-b9b082824d9e"},"vehicle_type_id":"4","last_reported":1699931273,"current_range_meters":20800,"station_id":"ce4bgup2rcd13ifvqco0","pricing_plan_id":"free"},{"bike_id":"ade2f2e2-daf3-4d13-af44-4d9c84aab39c","system_id":"levelo_inurba_marseille","lat":43.309513,"lon":5.39037,"is_reserved":false,"is_disabled":false,"rental_uris":{"android":"levelo://app?vid=ade2f2e2-daf3-4d13-af44-4d9c84aab39c","ios":"levelo://app?vid=ade2f2e2-daf3-4d13-af44-4d9c84aab39c"},"vehicle_type_id":"4","last_reported":1699931273,"current_range_meters":21200,"station_id":"ce4bgup2rcd13ifvqco0","pricing_plan_id":"free"},{"bike_id":"2c5d8b0c-f970-4dd0-b70a-c866c382d1fe","system_id":"levelo_inurba_marseille","lat":43.30957,"lon":5.39045,"is_reserved":false,"is_disabled":false,"rental_uris":{"android":"levelo://app?vid=2c5d8b0c-f970-4dd0-b70a-c866c382d1fe","ios":"levelo://app?vid=2c5d8b0c-f970-4dd0-b70a-c866c382d1fe"},"vehicle_type_id":"4","last_reported":1699931273,"current_range_meters":29200,"station_id":"ce4bgup2rcd13ifvqco0","pricing_plan_id":"free"},{"bike_id":"d9f3ac23-43bc-4712-a13d-50decf18e95f","system_id":"levelo_inurba_marseille","lat":43.317557,"lon":5.390173,"is_reserved":false,"is_disabled":false,"rental_uris":{"android":"levelo://app?vid=d9f3ac23-43bc-4712-a13d-50decf18e95f","ios":"levelo://app?vid=d9f3ac23-43bc-4712-a13d-50decf18e95f"},"vehicle_type_id":"4","last_reported":1699931273,"current_range_meters":22800,"station_id":"ce4bhqp2rcd13ifvqhng","pricing_plan_id":"free"},{"bike_id":"feff7d8e-9456-4b4b-b917-4f91bb23e023","system_id":"levelo_inurba_marseille","lat":43.3175,"lon":5.39022,"is_reserved":false,"is_disabled":false,"rental_uris":{"android":"levelo://app?vid=feff7d8e-9456-4b4b-b917-4f91bb23e023","ios":"levelo://app?vid=feff7d8e-9456-4b4b-b917-4f91bb23e023"},"vehicle_type_id":"4","last_reported":1699931273,"current_range_meters":8800,"station_id":"","pricing_plan_id":"free"},{"bike_id":"3907a608-722a-4a3e-8047-40a0cdf5836a","system_id":"levelo_inurba_marseille","lat":43.304274,"lon":5.388873,"is_reserved":false,"is_disabled":false,"rental_uris":{"android":"levelo://app?vid=3907a608-722a-4a3e-8047-40a0cdf5836a","ios":"levelo://app?vid=3907a608-722a-4a3e-8047-40a0cdf5836a"},"vehicle_type_id":"4","last_reported":1699931273,"current_range_meters":28800,"station_id":"ce4bgk12rcd13ifvqbi0","pricing_plan_id":"free"},{"bike_id":"d1be4948-3db8-46c6-a0e9-4eb9877553a6","system_id":"levelo_inurba_marseille","lat":43.2957,"lon":5.37498,"is_reserved":false,"is_disabled":false,"rental_uris":{"android":"levelo://app?vid=d1be4948-3db8-46c6-a0e9-4eb9877553a6","ios":"levelo://app?vid=d1be4948-3db8-46c6-a0e9-4eb9877553a6"},"vehicle_type_id":"4","last_reported":1699931273,"current_range_meters":24400,"station_id":"ce4bgh92rcd13ifvqb50","pricing_plan_id":"free"},{"bike_id":"7ce14892-7dc9-4568-aa6a-28801595aaff","system_id":"levelo_inurba_marseille","lat":43.304278,"lon":5.388868,"is_reserved":false,"is_disabled":false,"rental_uris":{"android":"levelo://app?vid=7ce14892-7dc9-4568-aa6a-28801595aaff","ios":"levelo://app?vid=7ce14892-7dc9-4568-aa6a-28801595aaff"},"vehicle_type_id":"4","last_reported":1699931273,"current_range_meters":27200,"station_id":"ce4bgk12rcd13ifvqbi0","pricing_plan_id":"free"},{"bike_id":"4bb475d2-ad4d-4178-8120-2fdbd14cb6fb","system_id":"levelo_inurba_marseille","lat":43.304274,"lon":5.388873,"is_reserved":false,"is_disabled":false,"rental_uris":{"android":"levelo://app?vid=4bb475d2-ad4d-4178-8120-2fdbd14cb6fb","ios":"levelo://app?vid=4bb475d2-ad4d-4178-8120-2fdbd14cb6fb"},"vehicle_type_id":"4","last_reported":1699931273,"current_range_meters":6800,"station_id":"ce4bgk12rcd13ifvqbi0","pricing_plan_id":"free"},{"bike_id":"9caec048-a3aa-428b-9d1e-66ad6c2d8e58","system_id":"levelo_inurba_marseille","lat":43.324423,"lon":5.386044,"is_reserved":false,"is_disabled":false,"rental_uris":{"android":"levelo://app?vid=9caec048-a3aa-428b-9d1e-66ad6c2d8e58","ios":"levelo://app?vid=9caec048-a3aa-428b-9d1e-66ad6c2d8e58"},"vehicle_type_id":"4","last_reported":1699931273,"current_range_meters":20800,"station_id":"","pricing_plan_id":"free"},{"bike_id":"a04e2623-88e1-4aac-8d40-b8b0a14a358a","system_id":"levelo_inurba_marseille","lat":43.299707,"lon":5.384859,"is_reserved":false,"is_disabled":false,"rental_uris":{"android":"levelo://app?vid=a04e2623-88e1-4aac-8d40-b8b0a14a358a","ios":"levelo://app?vid=a04e2623-88e1-4aac-8d40-b8b0a14a358a"},"vehicle_type_id":"4","last_reported":1699931273,"current_range_meters":14000,"station_id":"ce4bgj92rcd13ifvqbd0","pricing_plan_id":"free"},{"bike_id":"1b2c484f-c9c7-4f72-9821-5934cb0e4a85","system_id":"levelo_inurba_marseille","lat":43.323583,"lon":5.388807,"is_reserved":false,"is_disabled":false,"rental_uris":{"android":"levelo://app?vid=1b2c484f-c9c7-4f72-9821-5934cb0e4a85","ios":"levelo://app?vid=1b2c484f-c9c7-4f72-9821-5934cb0e4a85"},"vehicle_type_id":"4","last_reported":1699931273,"current_range_meters":12400,"station_id":"ce4bhqp2rcd13ifvqhog","pricing_plan_id":"free"},{"bike_id":"db651863-0567-4224-95f5-1002bd2131c4","system_id":"levelo_inurba_marseille","lat":43.323611,"lon":5.388849,"is_reserved":false,"is_disabled":false,"rental_uris":{"android":"levelo://app?vid=db651863-0567-4224-95f5-1002bd2131c4","ios":"levelo://app?vid=db651863-0567-4224-95f5-1002bd2131c4"},"vehicle_type_id":"4","last_reported":1699931273,"current_range_meters":15200,"station_id":"ce4bhqp2rcd13ifvqhog","pricing_plan_id":"free"},{"bike_id":"69777a87-e4cb-4a16-806c-b9d64d430181","system_id":"levelo_inurba_marseille","lat":43.32367,"lon":5.388836,"is_reserved":false,"is_disabled":false,"rental_uris":{"android":"levelo://app?vid=69777a87-e4cb-4a16-806c-b9d64d430181","ios":"levelo://app?vid=69777a87-e4cb-4a16-806c-b9d64d430181"},"vehicle_type_id":"4","last_reported":1699931273,"current_range_meters":24000,"station_id":"ce4bhqp2rcd13ifvqhog","pricing_plan_id":"free"},{"bike_id":"77ca9ad2-a31e-4282-94bb-f88a7c5f7361","system_id":"levelo_inurba_marseille","lat":43.32367,"lon":5.388836,"is_reserved":false,"is_disabled":false,"rental_uris":{"android":"levelo://app?vid=77ca9ad2-a31e-4282-94bb-f88a7c5f7361","ios":"levelo://app?vid=77ca9ad2-a31e-4282-94bb-f88a7c5f7361"},"vehicle_type_id":"4","last_reported":1699931273,"current_range_meters":1600,"station_id":"ce4bhqp2rcd13ifvqhog","pricing_plan_id":"free"},{"bike_id":"d2dced52-b7fb-4d11-ad33-56be009e3364","system_id":"levelo_inurba_marseille","lat":43.33061,"lon":5.37892,"is_reserved":false,"is_disabled":false,"rental_uris":{"android":"levelo://app?vid=d2dced52-b7fb-4d11-ad33-56be009e3364","ios":"levelo://app?vid=d2dced52-b7fb-4d11-ad33-56be009e3364"},"vehicle_type_id":"4","last_reported":1699931273,"current_range_meters":29200,"station_id":"","pricing_plan_id":"free"},{"bike_id":"08908505-755b-47f5-81a9-10222d4b0912","system_id":"levelo_inurba_marseille","lat":43.282744,"lon":5.350533,"is_reserved":false,"is_disabled":false,"rental_uris":{"android":"levelo://app?vid=08908505-755b-47f5-81a9-10222d4b0912","ios":"levelo://app?vid=08908505-755b-47f5-81a9-10222d4b0912"},"vehicle_type_id":"4","last_reported":1699931273,"current_range_meters":29600,"station_id":"ce4bhbp2rcd13ifvqerg","pricing_plan_id":"free"},{"bike_id":"bc4765db-a5de-4acf-9af1-dd0214f88df9","system_id":"levelo_inurba_marseille","lat":43.300852,"lon":5.390859,"is_reserved":false,"is_disabled":false,"rental_uris":{"android":"levelo://app?vid=bc4765db-a5de-4acf-9af1-dd0214f88df9","ios":"levelo://app?vid=bc4765db-a5de-4acf-9af1-dd0214f88df9"},"vehicle_type_id":"4","last_reported":1699931273,"current_range_meters":5600,"station_id":"ce4bh192rcd13ifvqdb0","pricing_plan_id":"free"},{"bike_id":"4f33d88e-7c6f-4d77-8137-4e743575c384","system_id":"levelo_inurba_marseille","lat":43.30884,"lon":5.39626,"is_reserved":false,"is_disabled":false,"rental_uris":{"android":"levelo://app?vid=4f33d88e-7c6f-4d77-8137-4e743575c384","ios":"levelo://app?vid=4f33d88e-7c6f-4d77-8137-4e743575c384"},"vehicle_type_id":"4","last_reported":1699931273,"current_range_meters":19600,"station_id":"ce4bh012rcd13ifvqcv0","pricing_plan_id":"free"},{"bike_id":"24119afd-058c-4836-90ab-70c3bfad4244","system_id":"levelo_inurba_marseille","lat":43.30885,"lon":5.39632,"is_reserved":false,"is_disabled":false,"rental_uris":{"android":"levelo://app?vid=24119afd-058c-4836-90ab-70c3bfad4244","ios":"levelo://app?vid=24119afd-058c-4836-90ab-70c3bfad4244"},"vehicle_type_id":"4","last_reported":1699931273,"current_range_meters":12800,"station_id":"ce4bh012rcd13ifvqcv0","pricing_plan_id":"free"},{"bike_id":"76b359af-c20b-45d0-a1df-78f4c9a6553a","system_id":"levelo_inurba_marseille","lat":43.309047,"lon":5.396551,"is_reserved":false,"is_disabled":false,"rental_uris":{"android":"levelo://app?vid=76b359af-c20b-45d0-a1df-78f4c9a6553a","ios":"levelo://app?vid=76b359af-c20b-45d0-a1df-78f4c9a6553a"},"vehicle_type_id":"4","last_reported":1699931273,"current_range_meters":29600,"station_id":"ce4bh012rcd13ifvqcv0","pricing_plan_id":"free"},{"bike_id":"44d3512e-08c0-410a-97ef-a5acc8d5f64c","system_id":"levelo_inurba_marseille","lat":43.308811,"lon":5.396348,"is_reserved":false,"is_disabled":false,"rental_uris":{"android":"levelo://app?vid=44d3512e-08c0-410a-97ef-a5acc8d5f64c","ios":"levelo://app?vid=44d3512e-08c0-410a-97ef-a5acc8d5f64c"},"vehicle_type_id":"4","last_reported":1699931273,"current_range_meters":31200,"station_id":"ce4bh012rcd13ifvqcv0","pricing_plan_id":"free"},{"bike_id":"56d5c5c0-e4d6-402f-b301-f11e8c42865e","system_id":"levelo_inurba_marseille","lat":43.308824,"lon":5.396376,"is_reserved":false,"is_disabled":false,"rental_uris":{"android":"levelo://app?vid=56d5c5c0-e4d6-402f-b301-f11e8c42865e","ios":"levelo://app?vid=56d5c5c0-e4d6-402f-b301-f11e8c42865e"},"vehicle_type_id":"4","last_reported":1699931273,"current_range_meters":31200,"station_id":"ce4bh012rcd13ifvqcv0","pricing_plan_id":"free"},{"bike_id":"04a127d4-4de4-4c5c-9e58-852bcac52681","system_id":"levelo_inurba_marseille","lat":43.31327,"lon":5.39687,"is_reserved":false,"is_disabled":false,"rental_uris":{"android":"levelo://app?vid=04a127d4-4de4-4c5c-9e58-852bcac52681","ios":"levelo://app?vid=04a127d4-4de4-4c5c-9e58-852bcac52681"},"vehicle_type_id":"4","last_reported":1699931273,"current_range_meters":6400,"station_id":"ce4bgvp2rcd13ifvqcu0","pricing_plan_id":"free"},{"bike_id":"2434c3fc-cfe8-43df-b49d-f3687189f73b","system_id":"levelo_inurba_marseille","lat":43.309047,"lon":5.396551,"is_reserved":false,"is_disabled":false,"rental_uris":{"android":"levelo://app?vid=2434c3fc-cfe8-43df-b49d-f3687189f73b","ios":"levelo://app?vid=2434c3fc-cfe8-43df-b49d-f3687189f73b"},"vehicle_type_id":"4","last_reported":1699931273,"current_range_meters":24400,"station_id":"ce4bh012rcd13ifvqcv0","pricing_plan_id":"free"},{"bike_id":"e5514780-992d-4f8a-becb-83aafd01c33a","system_id":"levelo_inurba_marseille","lat":43.291945,"lon":5.35793,"is_reserved":false,"is_disabled":false,"rental_uris":{"android":"levelo://app?vid=e5514780-992d-4f8a-becb-83aafd01c33a","ios":"levelo://app?vid=e5514780-992d-4f8a-becb-83aafd01c33a"},"vehicle_type_id":"4","last_reported":1699931273,"current_range_meters":12000,"station_id":"ce4bhb12rcd13ifvqel0","pricing_plan_id":"free"},{"bike_id":"24d2a2f8-d660-429f-8e0f-4cec1f85078f","system_id":"levelo_inurba_marseille","lat":43.313291,"lon":5.396838,"is_reserved":false,"is_disabled":false,"rental_uris":{"android":"levelo://app?vid=24d2a2f8-d660-429f-8e0f-4cec1f85078f","ios":"levelo://app?vid=24d2a2f8-d660-429f-8e0f-4cec1f85078f"},"vehicle_type_id":"4","last_reported":1699931273,"current_range_meters":15600,"station_id":"ce4bgvp2rcd13ifvqcu0","pricing_plan_id":"free"},{"bike_id":"345984a9-d215-44ee-ad54-df17ace9bb1c","system_id":"levelo_inurba_marseille","lat":43.3133,"lon":5.39689,"is_reserved":false,"is_disabled":false,"rental_uris":{"android":"levelo://app?vid=345984a9-d215-44ee-ad54-df17ace9bb1c","ios":"levelo://app?vid=345984a9-d215-44ee-ad54-df17ace9bb1c"},"vehicle_type_id":"4","last_reported":1699931273,"current_range_meters":9600,"station_id":"ce4bgvp2rcd13ifvqcu0","pricing_plan_id":"free"},{"bike_id":"61b18d00-8e67-48b1-a7fc-65e02067a61e","system_id":"levelo_inurba_marseille","lat":43.30885,"lon":5.39642,"is_reserved":false,"is_disabled":false,"rental_uris":{"android":"levelo://app?vid=61b18d00-8e67-48b1-a7fc-65e02067a61e","ios":"levelo://app?vid=61b18d00-8e67-48b1-a7fc-65e02067a61e"},"vehicle_type_id":"4","last_reported":1699931273,"current_range_meters":18400,"station_id":"ce4bh012rcd13ifvqcv0","pricing_plan_id":"free"},{"bike_id":"056cc520-48a7-4050-9a3e-c7a86e24b882","system_id":"levelo_inurba_marseille","lat":43.313291,"lon":5.396838,"is_reserved":false,"is_disabled":false,"rental_uris":{"android":"levelo://app?vid=056cc520-48a7-4050-9a3e-c7a86e24b882","ios":"levelo://app?vid=056cc520-48a7-4050-9a3e-c7a86e24b882"},"vehicle_type_id":"4","last_reported":1699931273,"current_range_meters":22000,"station_id":"ce4bgvp2rcd13ifvqcu0","pricing_plan_id":"free"},{"bike_id":"3d8e2ab7-8b7c-4843-882f-45cfae230419","system_id":"levelo_inurba_marseille","lat":43.313291,"lon":5.396838,"is_reserved":false,"is_disabled":false,"rental_uris":{"android":"levelo://app?vid=3d8e2ab7-8b7c-4843-882f-45cfae230419","ios":"levelo://app?vid=3d8e2ab7-8b7c-4843-882f-45cfae230419"},"vehicle_type_id":"4","last_reported":1699931273,"current_range_meters":10800,"station_id":"ce4bgvp2rcd13ifvqcu0","pricing_plan_id":"free"},{"bike_id":"430d31f9-6ab1-43b7-9eb2-8af3fc9b2a5e","system_id":"levelo_inurba_marseille","lat":43.309047,"lon":5.396551,"is_reserved":false,"is_disabled":false,"rental_uris":{"android":"levelo://app?vid=430d31f9-6ab1-43b7-9eb2-8af3fc9b2a5e","ios":"levelo://app?vid=430d31f9-6ab1-43b7-9eb2-8af3fc9b2a5e"},"vehicle_type_id":"4","last_reported":1699931273,"current_range_meters":26000,"station_id":"ce4bh012rcd13ifvqcv0","pricing_plan_id":"free"},{"bike_id":"5ae76695-c966-4873-a6e9-7fda4a1d078c","system_id":"levelo_inurba_marseille","lat":43.308842,"lon":5.396451,"is_reserved":false,"is_disabled":false,"rental_uris":{"android":"levelo://app?vid=5ae76695-c966-4873-a6e9-7fda4a1d078c","ios":"levelo://app?vid=5ae76695-c966-4873-a6e9-7fda4a1d078c"},"vehicle_type_id":"4","last_reported":1699931273,"current_range_meters":20000,"station_id":"ce4bh012rcd13ifvqcv0","pricing_plan_id":"free"},{"bike_id":"4d9e9e76-f4ec-4dcc-9985-4f17864199fc","system_id":"levelo_inurba_marseille","lat":43.313308,"lon":5.396934,"is_reserved":false,"is_disabled":false,"rental_uris":{"android":"levelo://app?vid=4d9e9e76-f4ec-4dcc-9985-4f17864199fc","ios":"levelo://app?vid=4d9e9e76-f4ec-4dcc-9985-4f17864199fc"},"vehicle_type_id":"4","last_reported":1699931273,"current_range_meters":31200,"station_id":"ce4bgvp2rcd13ifvqcu0","pricing_plan_id":"free"},{"bike_id":"0ce4c79b-0e1d-494c-9bfb-18b25ebe54ba","system_id":"levelo_inurba_marseille","lat":43.309047,"lon":5.396551,"is_reserved":false,"is_disabled":false,"rental_uris":{"android":"levelo://app?vid=0ce4c79b-0e1d-494c-9bfb-18b25ebe54ba","ios":"levelo://app?vid=0ce4c79b-0e1d-494c-9bfb-18b25ebe54ba"},"vehicle_type_id":"4","last_reported":1699931273,"current_range_meters":31200,"station_id":"ce4bh012rcd13ifvqcv0","pricing_plan_id":"free"},{"bike_id":"43d854bd-6e28-4f70-be6c-ce3b45f7b58b","system_id":"levelo_inurba_marseille","lat":43.313253,"lon":5.396942,"is_reserved":false,"is_disabled":false,"rental_uris":{"android":"levelo://app?vid=43d854bd-6e28-4f70-be6c-ce3b45f7b58b","ios":"levelo://app?vid=43d854bd-6e28-4f70-be6c-ce3b45f7b58b"},"vehicle_type_id":"4","last_reported":1699931273,"current_range_meters":23600,"station_id":"ce4bgvp2rcd13ifvqcu0","pricing_plan_id":"free"},{"bike_id":"75b7923c-d581-4553-94a9-91ad24caa356","system_id":"levelo_inurba_marseille","lat":43.30885,"lon":5.39647,"is_reserved":false,"is_disabled":false,"rental_uris":{"android":"levelo://app?vid=75b7923c-d581-4553-94a9-91ad24caa356","ios":"levelo://app?vid=75b7923c-d581-4553-94a9-91ad24caa356"},"vehicle_type_id":"4","last_reported":1699931273,"current_range_meters":5600,"station_id":"ce4bh012rcd13ifvqcv0","pricing_plan_id":"free"},{"bike_id":"3244a47e-709f-489e-a420-08245e2bb46d","system_id":"levelo_inurba_marseille","lat":43.308852,"lon":5.396471,"is_reserved":false,"is_disabled":false,"rental_uris":{"android":"levelo://app?vid=3244a47e-709f-489e-a420-08245e2bb46d","ios":"levelo://app?vid=3244a47e-709f-489e-a420-08245e2bb46d"},"vehicle_type_id":"4","last_reported":1699931273,"current_range_meters":16800,"station_id":"ce4bh012rcd13ifvqcv0","pricing_plan_id":"free"},{"bike_id":"1e9cdac7-6d78-4812-8148-e0765b1ad192","system_id":"levelo_inurba_marseille","lat":43.308857,"lon":5.39648,"is_reserved":false,"is_disabled":false,"rental_uris":{"android":"levelo://app?vid=1e9cdac7-6d78-4812-8148-e0765b1ad192","ios":"levelo://app?vid=1e9cdac7-6d78-4812-8148-e0765b1ad192"},"vehicle_type_id":"4","last_reported":1699931273,"current_range_meters":11200,"station_id":"ce4bh012rcd13ifvqcv0","pricing_plan_id":"free"},{"bike_id":"7ba20c50-f3d5-4472-a168-6be49954b9f1","system_id":"levelo_inurba_marseille","lat":43.31331,"lon":5.39698,"is_reserved":false,"is_disabled":false,"rental_uris":{"android":"levelo://app?vid=7ba20c50-f3d5-4472-a168-6be49954b9f1","ios":"levelo://app?vid=7ba20c50-f3d5-4472-a168-6be49954b9f1"},"vehicle_type_id":"4","last_reported":1699931273,"current_range_meters":14800,"station_id":"ce4bgvp2rcd13ifvqcu0","pricing_plan_id":"free"},{"bike_id":"28df1523-f53b-4ad2-a82a-775dbcf2a305","system_id":"levelo_inurba_marseille","lat":43.308914,"lon":5.396576,"is_reserved":false,"is_disabled":false,"rental_uris":{"android":"levelo://app?vid=28df1523-f53b-4ad2-a82a-775dbcf2a305","ios":"levelo://app?vid=28df1523-f53b-4ad2-a82a-775dbcf2a305"},"vehicle_type_id":"4","last_reported":1699931273,"current_range_meters":23600,"station_id":"ce4bh012rcd13ifvqcv0","pricing_plan_id":"free"},{"bike_id":"97bd261b-7192-4b94-a3c3-7b78752f2b36","system_id":"levelo_inurba_marseille","lat":43.290631,"lon":5.359244,"is_reserved":false,"is_disabled":false,"rental_uris":{"android":"levelo://app?vid=97bd261b-7192-4b94-a3c3-7b78752f2b36","ios":"levelo://app?vid=97bd261b-7192-4b94-a3c3-7b78752f2b36"},"vehicle_type_id":"4","last_reported":1699931273,"current_range_meters":26400,"station_id":"ce4bha92rcd13ifvqeg0","pricing_plan_id":"free"},{"bike_id":"5bb00912-6b8e-4a03-8fb3-c541d22e2947","system_id":"levelo_inurba_marseille","lat":43.290624,"lon":5.359245,"is_reserved":false,"is_disabled":false,"rental_uris":{"android":"levelo://app?vid=5bb00912-6b8e-4a03-8fb3-c541d22e2947","ios":"levelo://app?vid=5bb00912-6b8e-4a03-8fb3-c541d22e2947"},"vehicle_type_id":"4","last_reported":1699931273,"current_range_meters":29200,"station_id":"ce4bha92rcd13ifvqeg0","pricing_plan_id":"free"},{"bike_id":"6800c257-8579-4496-a736-d6e38c628fa0","system_id":"levelo_inurba_marseille","lat":43.290624,"lon":5.359245,"is_reserved":false,"is_disabled":false,"rental_uris":{"android":"levelo://app?vid=6800c257-8579-4496-a736-d6e38c628fa0","ios":"levelo://app?vid=6800c257-8579-4496-a736-d6e38c628fa0"},"vehicle_type_id":"4","last_reported":1699931273,"current_range_meters":28400,"station_id":"ce4bha92rcd13ifvqeg0","pricing_plan_id":"free"},{"bike_id":"dbc0f435-eeea-4478-950d-c7caf9c7a3de","system_id":"levelo_inurba_marseille","lat":43.294162,"lon":5.386292,"is_reserved":false,"is_disabled":false,"rental_uris":{"android":"levelo://app?vid=dbc0f435-eeea-4478-950d-c7caf9c7a3de","ios":"levelo://app?vid=dbc0f435-eeea-4478-950d-c7caf9c7a3de"},"vehicle_type_id":"4","last_reported":1699931273,"current_range_meters":30000,"station_id":"ce4bh2h2rcd13ifvqdh0","pricing_plan_id":"free"},{"bike_id":"3b5f088d-f043-460d-8cb8-67fa547064cd","system_id":"levelo_inurba_marseille","lat":43.289468,"lon":5.363719,"is_reserved":false,"is_disabled":false,"rental_uris":{"android":"levelo://app?vid=3b5f088d-f043-460d-8cb8-67fa547064cd","ios":"levelo://app?vid=3b5f088d-f043-460d-8cb8-67fa547064cd"},"vehicle_type_id":"4","last_reported":1699931273,"current_range_meters":24800,"station_id":"ce4bhc92rcd13ifvqetg","pricing_plan_id":"free"},{"bike_id":"850678fc-7a83-45f4-b3db-ccb9472f987d","system_id":"levelo_inurba_marseille","lat":43.289403,"lon":5.363958,"is_reserved":false,"is_disabled":false,"rental_uris":{"android":"levelo://app?vid=850678fc-7a83-45f4-b3db-ccb9472f987d","ios":"levelo://app?vid=850678fc-7a83-45f4-b3db-ccb9472f987d"},"vehicle_type_id":"4","last_reported":1699931273,"current_range_meters":26400,"station_id":"ce4bhc92rcd13ifvqetg","pricing_plan_id":"free"},{"bike_id":"dcfeedb6-4e07-45d1-a173-37a243820210","system_id":"levelo_inurba_marseille","lat":43.289184,"lon":5.366408,"is_reserved":false,"is_disabled":false,"rental_uris":{"android":"levelo://app?vid=dcfeedb6-4e07-45d1-a173-37a243820210","ios":"levelo://app?vid=dcfeedb6-4e07-45d1-a173-37a243820210"},"vehicle_type_id":"4","last_reported":1699931273,"current_range_meters":31600,"station_id":"ce4bhap2rcd13ifvqek0","pricing_plan_id":"free"},{"bike_id":"f0e76257-0e1e-4fdf-9038-a2ef7ad46f79","system_id":"levelo_inurba_marseille","lat":43.289468,"lon":5.363719,"is_reserved":false,"is_disabled":false,"rental_uris":{"android":"levelo://app?vid=f0e76257-0e1e-4fdf-9038-a2ef7ad46f79","ios":"levelo://app?vid=f0e76257-0e1e-4fdf-9038-a2ef7ad46f79"},"vehicle_type_id":"4","last_reported":1699931273,"current_range_meters":31600,"station_id":"ce4bhc92rcd13ifvqetg","pricing_plan_id":"free"},{"bike_id":"f95fefb9-5c12-4879-a7ba-d97105a8b312","system_id":"levelo_inurba_marseille","lat":43.289365,"lon":5.363836,"is_reserved":false,"is_disabled":false,"rental_uris":{"android":"levelo://app?vid=f95fefb9-5c12-4879-a7ba-d97105a8b312","ios":"levelo://app?vid=f95fefb9-5c12-4879-a7ba-d97105a8b312"},"vehicle_type_id":"4","last_reported":1699931273,"current_range_meters":21200,"station_id":"ce4bhc92rcd13ifvqetg","pricing_plan_id":"free"},{"bike_id":"9a348317-56b3-4bf7-8a89-128033d8e49a","system_id":"levelo_inurba_marseille","lat":43.289468,"lon":5.363719,"is_reserved":false,"is_disabled":false,"rental_uris":{"android":"levelo://app?vid=9a348317-56b3-4bf7-8a89-128033d8e49a","ios":"levelo://app?vid=9a348317-56b3-4bf7-8a89-128033d8e49a"},"vehicle_type_id":"4","last_reported":1699931273,"current_range_meters":14400,"station_id":"ce4bhc92rcd13ifvqetg","pricing_plan_id":"free"},{"bike_id":"c44e24a6-0bd8-4ff3-a615-ce2bee2f9b5e","system_id":"levelo_inurba_marseille","lat":43.292644,"lon":5.384257,"is_reserved":false,"is_disabled":false,"rental_uris":{"android":"levelo://app?vid=c44e24a6-0bd8-4ff3-a615-ce2bee2f9b5e","ios":"levelo://app?vid=c44e24a6-0bd8-4ff3-a615-ce2bee2f9b5e"},"vehicle_type_id":"4","last_reported":1699931273,"current_range_meters":28000,"station_id":"ce4bh692rcd13ifvqea0","pricing_plan_id":"free"},{"bike_id":"8c6dac88-ad08-48e3-b915-74620c5435b1","system_id":"levelo_inurba_marseille","lat":43.292644,"lon":5.384257,"is_reserved":false,"is_disabled":false,"rental_uris":{"android":"levelo://app?vid=8c6dac88-ad08-48e3-b915-74620c5435b1","ios":"levelo://app?vid=8c6dac88-ad08-48e3-b915-74620c5435b1"},"vehicle_type_id":"4","last_reported":1699931273,"current_range_meters":25600,"station_id":"ce4bh692rcd13ifvqea0","pricing_plan_id":"free"},{"bike_id":"2bc9b51e-1a79-4af6-8f1f-50f7884325c0","system_id":"levelo_inurba_marseille","lat":43.33044,"lon":5.38919,"is_reserved":false,"is_disabled":false,"rental_uris":{"android":"levelo://app?vid=2bc9b51e-1a79-4af6-8f1f-50f7884325c0","ios":"levelo://app?vid=2bc9b51e-1a79-4af6-8f1f-50f7884325c0"},"vehicle_type_id":"4","last_reported":1699931273,"current_range_meters":15200,"station_id":"ce4bhr92rcd13ifvqhrg","pricing_plan_id":"free"},{"bike_id":"2bbb01df-ddca-4c11-8f74-f2f0431a4f74","system_id":"levelo_inurba_marseille","lat":43.33042,"lon":5.38923,"is_reserved":false,"is_disabled":false,"rental_uris":{"android":"levelo://app?vid=2bbb01df-ddca-4c11-8f74-f2f0431a4f74","ios":"levelo://app?vid=2bbb01df-ddca-4c11-8f74-f2f0431a4f74"},"vehicle_type_id":"4","last_reported":1699931273,"current_range_meters":2000,"station_id":"ce4bhr92rcd13ifvqhrg","pricing_plan_id":"free"},{"bike_id":"aee096e5-440f-47da-ad12-1e3c64b6f28a","system_id":"levelo_inurba_marseille","lat":43.30245,"lon":5.39674,"is_reserved":false,"is_disabled":false,"rental_uris":{"android":"levelo://app?vid=aee096e5-440f-47da-ad12-1e3c64b6f28a","ios":"levelo://app?vid=aee096e5-440f-47da-ad12-1e3c64b6f28a"},"vehicle_type_id":"4","last_reported":1699931273,"current_range_meters":15200,"station_id":"","pricing_plan_id":"free"},{"bike_id":"960d76c6-0852-4ea4-ab04-727134e1b3f3","system_id":"levelo_inurba_marseille","lat":43.290103,"lon":5.356114,"is_reserved":false,"is_disabled":false,"rental_uris":{"android":"levelo://app?vid=960d76c6-0852-4ea4-ab04-727134e1b3f3","ios":"levelo://app?vid=960d76c6-0852-4ea4-ab04-727134e1b3f3"},"vehicle_type_id":"4","last_reported":1699931273,"current_range_meters":28000,"station_id":"ce4bhb92rcd13ifvqen0","pricing_plan_id":"free"},{"bike_id":"3eaf4012-3270-4973-b128-c7b26b2e3d78","system_id":"levelo_inurba_marseille","lat":43.290104,"lon":5.356111,"is_reserved":false,"is_disabled":false,"rental_uris":{"android":"levelo://app?vid=3eaf4012-3270-4973-b128-c7b26b2e3d78","ios":"levelo://app?vid=3eaf4012-3270-4973-b128-c7b26b2e3d78"},"vehicle_type_id":"4","last_reported":1699931273,"current_range_meters":30400,"station_id":"ce4bhb92rcd13ifvqen0","pricing_plan_id":"free"},{"bike_id":"e44a6034-b203-4dfe-966c-16aa5fe8c471","system_id":"levelo_inurba_marseille","lat":43.33059,"lon":5.39056,"is_reserved":false,"is_disabled":false,"rental_uris":{"android":"levelo://app?vid=e44a6034-b203-4dfe-966c-16aa5fe8c471","ios":"levelo://app?vid=e44a6034-b203-4dfe-966c-16aa5fe8c471"},"vehicle_type_id":"4","last_reported":1699931273,"current_range_meters":10800,"station_id":"","pricing_plan_id":"free"},{"bike_id":"7a1356b5-2437-4bfa-bb34-cf55b7f00bb1","system_id":"levelo_inurba_marseille","lat":43.33063,"lon":5.39051,"is_reserved":false,"is_disabled":false,"rental_uris":{"android":"levelo://app?vid=7a1356b5-2437-4bfa-bb34-cf55b7f00bb1","ios":"levelo://app?vid=7a1356b5-2437-4bfa-bb34-cf55b7f00bb1"},"vehicle_type_id":"4","last_reported":1699931273,"current_range_meters":4800,"station_id":"","pricing_plan_id":"free"},{"bike_id":"f82b66cc-687e-4d1d-ba96-9722a4f1c25a","system_id":"levelo_inurba_marseille","lat":43.28856,"lon":5.358371,"is_reserved":false,"is_disabled":false,"rental_uris":{"android":"levelo://app?vid=f82b66cc-687e-4d1d-ba96-9722a4f1c25a","ios":"levelo://app?vid=f82b66cc-687e-4d1d-ba96-9722a4f1c25a"},"vehicle_type_id":"4","last_reported":1699931273,"current_range_meters":23600,"station_id":"ce4bhb12rcd13ifvqem0","pricing_plan_id":"free"},{"bike_id":"d266334d-08f8-4626-822b-4ad2e41a3be0","system_id":"levelo_inurba_marseille","lat":43.31274,"lon":5.40165,"is_reserved":false,"is_disabled":false,"rental_uris":{"android":"levelo://app?vid=d266334d-08f8-4626-822b-4ad2e41a3be0","ios":"levelo://app?vid=d266334d-08f8-4626-822b-4ad2e41a3be0"},"vehicle_type_id":"4","last_reported":1699931273,"current_range_meters":20800,"station_id":"ce4bh092rcd13ifvqd30","pricing_plan_id":"free"},{"bike_id":"0c06e105-b228-4a72-ac99-141f3fab6e41","system_id":"levelo_inurba_marseille","lat":43.309242,"lon":5.401326,"is_reserved":false,"is_disabled":false,"rental_uris":{"android":"levelo://app?vid=0c06e105-b228-4a72-ac99-141f3fab6e41","ios":"levelo://app?vid=0c06e105-b228-4a72-ac99-141f3fab6e41"},"vehicle_type_id":"4","last_reported":1699931273,"current_range_meters":30400,"station_id":"ce4bgvp2rcd13ifvqct0","pricing_plan_id":"free"},{"bike_id":"25e21b9e-f966-4cdf-b5f2-81641e878ff0","system_id":"levelo_inurba_marseille","lat":43.309413,"lon":5.401384,"is_reserved":false,"is_disabled":false,"rental_uris":{"android":"levelo://app?vid=25e21b9e-f966-4cdf-b5f2-81641e878ff0","ios":"levelo://app?vid=25e21b9e-f966-4cdf-b5f2-81641e878ff0"},"vehicle_type_id":"4","last_reported":1699931273,"current_range_meters":28400,"station_id":"ce4bgvp2rcd13ifvqct0","pricing_plan_id":"free"},{"bike_id":"7a1e9a17-129b-4d27-846c-baa4da75166d","system_id":"levelo_inurba_marseille","lat":43.312816,"lon":5.401713,"is_reserved":false,"is_disabled":false,"rental_uris":{"android":"levelo://app?vid=7a1e9a17-129b-4d27-846c-baa4da75166d","ios":"levelo://app?vid=7a1e9a17-129b-4d27-846c-baa4da75166d"},"vehicle_type_id":"4","last_reported":1699931273,"current_range_meters":23200,"station_id":"ce4bh092rcd13ifvqd30","pricing_plan_id":"free"},{"bike_id":"42a5344f-6cd3-4ce1-bbbd-bdf0bca788f5","system_id":"levelo_inurba_marseille","lat":43.30929,"lon":5.401437,"is_reserved":false,"is_disabled":false,"rental_uris":{"android":"levelo://app?vid=42a5344f-6cd3-4ce1-bbbd-bdf0bca788f5","ios":"levelo://app?vid=42a5344f-6cd3-4ce1-bbbd-bdf0bca788f5"},"vehicle_type_id":"4","last_reported":1699931273,"current_range_meters":9200,"station_id":"ce4bgvp2rcd13ifvqct0","pricing_plan_id":"free"},{"bike_id":"aec9de4b-b31b-4949-b90e-3d92d3c53b97","system_id":"levelo_inurba_marseille","lat":43.309371,"lon":5.401449,"is_reserved":false,"is_disabled":false,"rental_uris":{"android":"levelo://app?vid=aec9de4b-b31b-4949-b90e-3d92d3c53b97","ios":"levelo://app?vid=aec9de4b-b31b-4949-b90e-3d92d3c53b97"},"vehicle_type_id":"4","last_reported":1699931273,"current_range_meters":0,"station_id":"ce4bgvp2rcd13ifvqct0","pricing_plan_id":"free"},{"bike_id":"f964ef6c-d985-4cd4-a29e-e5cb13214893","system_id":"levelo_inurba_marseille","lat":43.309371,"lon":5.401449,"is_reserved":false,"is_disabled":false,"rental_uris":{"android":"levelo://app?vid=f964ef6c-d985-4cd4-a29e-e5cb13214893","ios":"levelo://app?vid=f964ef6c-d985-4cd4-a29e-e5cb13214893"},"vehicle_type_id":"4","last_reported":1699931273,"current_range_meters":15600,"station_id":"ce4bgvp2rcd13ifvqct0","pricing_plan_id":"free"},{"bike_id":"ff2abb13-2ef3-4b29-a4b9-c31a9e5a9b16","system_id":"levelo_inurba_marseille","lat":43.30642,"lon":5.401031,"is_reserved":false,"is_disabled":false,"rental_uris":{"android":"levelo://app?vid=ff2abb13-2ef3-4b29-a4b9-c31a9e5a9b16","ios":"levelo://app?vid=ff2abb13-2ef3-4b29-a4b9-c31a9e5a9b16"},"vehicle_type_id":"4","last_reported":1699931273,"current_range_meters":26400,"station_id":"ce4bh112rcd13ifvqda0","pricing_plan_id":"free"},{"bike_id":"a0637bd7-5d7b-49d8-afd2-5f10bd48b516","system_id":"levelo_inurba_marseille","lat":43.30642,"lon":5.401031,"is_reserved":false,"is_disabled":false,"rental_uris":{"android":"levelo://app?vid=a0637bd7-5d7b-49d8-afd2-5f10bd48b516","ios":"levelo://app?vid=a0637bd7-5d7b-49d8-afd2-5f10bd48b516"},"vehicle_type_id":"4","last_reported":1699931273,"current_range_meters":31200,"station_id":"ce4bh112rcd13ifvqda0","pricing_plan_id":"free"},{"bike_id":"8fed6282-8e51-49cb-89d3-ea38008549ee","system_id":"levelo_inurba_marseille","lat":43.309314,"lon":5.401548,"is_reserved":false,"is_disabled":false,"rental_uris":{"android":"levelo://app?vid=8fed6282-8e51-49cb-89d3-ea38008549ee","ios":"levelo://app?vid=8fed6282-8e51-49cb-89d3-ea38008549ee"},"vehicle_type_id":"4","last_reported":1699931273,"current_range_meters":31200,"station_id":"ce4bgvp2rcd13ifvqct0","pricing_plan_id":"free"},{"bike_id":"a6d8d95f-e604-4c8b-abfb-af3f943d7848","system_id":"levelo_inurba_marseille","lat":43.306484,"lon":5.400878,"is_reserved":false,"is_disabled":false,"rental_uris":{"android":"levelo://app?vid=a6d8d95f-e604-4c8b-abfb-af3f943d7848","ios":"levelo://app?vid=a6d8d95f-e604-4c8b-abfb-af3f943d7848"},"vehicle_type_id":"4","last_reported":1699931273,"current_range_meters":29600,"station_id":"ce4bh112rcd13ifvqda0","pricing_plan_id":"free"},{"bike_id":"5382b2eb-1007-4a4a-a5a9-482217cacb49","system_id":"levelo_inurba_marseille","lat":43.306533,"lon":5.400954,"is_reserved":false,"is_disabled":false,"rental_uris":{"android":"levelo://app?vid=5382b2eb-1007-4a4a-a5a9-482217cacb49","ios":"levelo://app?vid=5382b2eb-1007-4a4a-a5a9-482217cacb49"},"vehicle_type_id":"4","last_reported":1699931273,"current_range_meters":30800,"station_id":"ce4bh112rcd13ifvqda0","pricing_plan_id":"free"},{"bike_id":"743f3bc5-43c9-45a3-8965-b67b169c6c30","system_id":"levelo_inurba_marseille","lat":43.30513,"lon":5.40077,"is_reserved":false,"is_disabled":false,"rental_uris":{"android":"levelo://app?vid=743f3bc5-43c9-45a3-8965-b67b169c6c30","ios":"levelo://app?vid=743f3bc5-43c9-45a3-8965-b67b169c6c30"},"vehicle_type_id":"4","last_reported":1699931273,"current_range_meters":0,"station_id":"","pricing_plan_id":"free"},{"bike_id":"0fcda4ca-3cf5-4d5b-a595-d0b9ce29b0a8","system_id":"levelo_inurba_marseille","lat":43.301184,"lon":5.398675,"is_reserved":false,"is_disabled":false,"rental_uris":{"android":"levelo://app?vid=0fcda4ca-3cf5-4d5b-a595-d0b9ce29b0a8","ios":"levelo://app?vid=0fcda4ca-3cf5-4d5b-a595-d0b9ce29b0a8"},"vehicle_type_id":"4","last_reported":1699931273,"current_range_meters":30800,"station_id":"ce4bh0h2rcd13ifvqd40","pricing_plan_id":"free"},{"bike_id":"cce39d30-e345-412b-825f-e4b7eb08275c","system_id":"levelo_inurba_marseille","lat":43.28727,"lon":5.36078,"is_reserved":false,"is_disabled":false,"rental_uris":{"android":"levelo://app?vid=cce39d30-e345-412b-825f-e4b7eb08275c","ios":"levelo://app?vid=cce39d30-e345-412b-825f-e4b7eb08275c"},"vehicle_type_id":"4","last_reported":1699931273,"current_range_meters":31200,"station_id":"cki0cbj6b192h4jlfktg","pricing_plan_id":"free"},{"bike_id":"8cdc884e-0864-445a-8bc6-df5cd0142d44","system_id":"levelo_inurba_marseille","lat":43.301309,"lon":5.398831,"is_reserved":false,"is_disabled":false,"rental_uris":{"android":"levelo://app?vid=8cdc884e-0864-445a-8bc6-df5cd0142d44","ios":"levelo://app?vid=8cdc884e-0864-445a-8bc6-df5cd0142d44"},"vehicle_type_id":"4","last_reported":1699931273,"current_range_meters":30000,"station_id":"ce4bh0h2rcd13ifvqd40","pricing_plan_id":"free"},{"bike_id":"9c1b6663-f3b1-4663-86c5-7855c2b0effb","system_id":"levelo_inurba_marseille","lat":43.28727,"lon":5.36078,"is_reserved":false,"is_disabled":false,"rental_uris":{"android":"levelo://app?vid=9c1b6663-f3b1-4663-86c5-7855c2b0effb","ios":"levelo://app?vid=9c1b6663-f3b1-4663-86c5-7855c2b0effb"},"vehicle_type_id":"4","last_reported":1699931273,"current_range_meters":28800,"station_id":"cki0cbj6b192h4jlfktg","pricing_plan_id":"free"},{"bike_id":"804c0254-34a3-401f-b61d-e5a5d49ca466","system_id":"levelo_inurba_marseille","lat":43.298681,"lon":5.397225,"is_reserved":false,"is_disabled":false,"rental_uris":{"android":"levelo://app?vid=804c0254-34a3-401f-b61d-e5a5d49ca466","ios":"levelo://app?vid=804c0254-34a3-401f-b61d-e5a5d49ca466"},"vehicle_type_id":"4","last_reported":1699931273,"current_range_meters":29600,"station_id":"ce4bh0h2rcd13ifvqd50","pricing_plan_id":"free"},{"bike_id":"b7597a3f-cb1f-448e-a53c-49376e552375","system_id":"levelo_inurba_marseille","lat":43.298681,"lon":5.397225,"is_reserved":false,"is_disabled":false,"rental_uris":{"android":"levelo://app?vid=b7597a3f-cb1f-448e-a53c-49376e552375","ios":"levelo://app?vid=b7597a3f-cb1f-448e-a53c-49376e552375"},"vehicle_type_id":"4","last_reported":1699931273,"current_range_meters":29600,"station_id":"ce4bh0h2rcd13ifvqd50","pricing_plan_id":"free"},{"bike_id":"fad50f8e-0cd9-4ea2-b715-5fd4f466bf18","system_id":"levelo_inurba_marseille","lat":43.298778,"lon":5.397325,"is_reserved":false,"is_disabled":false,"rental_uris":{"android":"levelo://app?vid=fad50f8e-0cd9-4ea2-b715-5fd4f466bf18","ios":"levelo://app?vid=fad50f8e-0cd9-4ea2-b715-5fd4f466bf18"},"vehicle_type_id":"4","last_reported":1699931273,"current_range_meters":31200,"station_id":"ce4bh0h2rcd13ifvqd50","pricing_plan_id":"free"},{"bike_id":"7c8a36ec-ec03-402d-992f-27c2b28f724c","system_id":"levelo_inurba_marseille","lat":43.286961,"lon":5.373785,"is_reserved":false,"is_disabled":false,"rental_uris":{"android":"levelo://app?vid=7c8a36ec-ec03-402d-992f-27c2b28f724c","ios":"levelo://app?vid=7c8a36ec-ec03-402d-992f-27c2b28f724c"},"vehicle_type_id":"4","last_reported":1699931273,"current_range_meters":31200,"station_id":"ce4bh3p2rcd13ifvqdq0","pricing_plan_id":"free"},{"bike_id":"52c0ce33-feea-4b62-b7c4-0715f4debac7","system_id":"levelo_inurba_marseille","lat":43.298833,"lon":5.397383,"is_reserved":false,"is_disabled":false,"rental_uris":{"android":"levelo://app?vid=52c0ce33-feea-4b62-b7c4-0715f4debac7","ios":"levelo://app?vid=52c0ce33-feea-4b62-b7c4-0715f4debac7"},"vehicle_type_id":"4","last_reported":1699931273,"current_range_meters":22800,"station_id":"ce4bh0h2rcd13ifvqd50","pricing_plan_id":"free"},{"bike_id":"6094ff4d-0dd6-4fb6-983f-63cb06d954f1","system_id":"levelo_inurba_marseille","lat":43.286591,"lon":5.363346,"is_reserved":false,"is_disabled":false,"rental_uris":{"android":"levelo://app?vid=6094ff4d-0dd6-4fb6-983f-63cb06d954f1","ios":"levelo://app?vid=6094ff4d-0dd6-4fb6-983f-63cb06d954f1"},"vehicle_type_id":"4","last_reported":1699931273,"current_range_meters":30400,"station_id":"ce4bhah2rcd13ifvqej0","pricing_plan_id":"free"},{"bike_id":"2d4ab7b0-a88c-4b97-98db-fe93c86c79e7","system_id":"levelo_inurba_marseille","lat":43.298681,"lon":5.397225,"is_reserved":false,"is_disabled":false,"rental_uris":{"android":"levelo://app?vid=2d4ab7b0-a88c-4b97-98db-fe93c86c79e7","ios":"levelo://app?vid=2d4ab7b0-a88c-4b97-98db-fe93c86c79e7"},"vehicle_type_id":"4","last_reported":1699931273,"current_range_meters":29200,"station_id":"ce4bh0h2rcd13ifvqd50","pricing_plan_id":"free"},{"bike_id":"02d754fe-33c5-49ac-a8e2-ac84572e5c51","system_id":"levelo_inurba_marseille","lat":43.298681,"lon":5.397225,"is_reserved":false,"is_disabled":false,"rental_uris":{"android":"levelo://app?vid=02d754fe-33c5-49ac-a8e2-ac84572e5c51","ios":"levelo://app?vid=02d754fe-33c5-49ac-a8e2-ac84572e5c51"},"vehicle_type_id":"4","last_reported":1699931273,"current_range_meters":28000,"station_id":"ce4bh0h2rcd13ifvqd50","pricing_plan_id":"free"},{"bike_id":"e73ad751-3c37-4366-9f28-55b4a21fe448","system_id":"levelo_inurba_marseille","lat":43.286591,"lon":5.363346,"is_reserved":false,"is_disabled":false,"rental_uris":{"android":"levelo://app?vid=e73ad751-3c37-4366-9f28-55b4a21fe448","ios":"levelo://app?vid=e73ad751-3c37-4366-9f28-55b4a21fe448"},"vehicle_type_id":"4","last_reported":1699931273,"current_range_meters":31200,"station_id":"ce4bhah2rcd13ifvqej0","pricing_plan_id":"free"},{"bike_id":"5df8573b-5feb-4baa-acae-86822eac5cfe","system_id":"levelo_inurba_marseille","lat":43.298759,"lon":5.397376,"is_reserved":false,"is_disabled":false,"rental_uris":{"android":"levelo://app?vid=5df8573b-5feb-4baa-acae-86822eac5cfe","ios":"levelo://app?vid=5df8573b-5feb-4baa-acae-86822eac5cfe"},"vehicle_type_id":"4","last_reported":1699931273,"current_range_meters":19600,"station_id":"ce4bh0h2rcd13ifvqd50","pricing_plan_id":"free"},{"bike_id":"83d8316f-5ab9-4326-b5f9-ba906e10fcfb","system_id":"levelo_inurba_marseille","lat":43.286591,"lon":5.363346,"is_reserved":false,"is_disabled":false,"rental_uris":{"android":"levelo://app?vid=83d8316f-5ab9-4326-b5f9-ba906e10fcfb","ios":"levelo://app?vid=83d8316f-5ab9-4326-b5f9-ba906e10fcfb"},"vehicle_type_id":"4","last_reported":1699931273,"current_range_meters":28800,"station_id":"ce4bhah2rcd13ifvqej0","pricing_plan_id":"free"},{"bike_id":"8efdcaf2-8edd-4678-af34-ff4f115e2c04","system_id":"levelo_inurba_marseille","lat":43.286591,"lon":5.363346,"is_reserved":false,"is_disabled":false,"rental_uris":{"android":"levelo://app?vid=8efdcaf2-8edd-4678-af34-ff4f115e2c04","ios":"levelo://app?vid=8efdcaf2-8edd-4678-af34-ff4f115e2c04"},"vehicle_type_id":"4","last_reported":1699931273,"current_range_meters":31200,"station_id":"ce4bhah2rcd13ifvqej0","pricing_plan_id":"free"},{"bike_id":"6fc1833c-869e-46eb-a86a-4a10ced8ce1a","system_id":"levelo_inurba_marseille","lat":43.286961,"lon":5.373785,"is_reserved":false,"is_disabled":false,"rental_uris":{"android":"levelo://app?vid=6fc1833c-869e-46eb-a86a-4a10ced8ce1a","ios":"levelo://app?vid=6fc1833c-869e-46eb-a86a-4a10ced8ce1a"},"vehicle_type_id":"4","last_reported":1699931273,"current_range_meters":26000,"station_id":"ce4bh3p2rcd13ifvqdq0","pricing_plan_id":"free"},{"bike_id":"0df7fbee-03c1-4979-a41d-c602591139fb","system_id":"levelo_inurba_marseille","lat":43.286593,"lon":5.363346,"is_reserved":false,"is_disabled":false,"rental_uris":{"android":"levelo://app?vid=0df7fbee-03c1-4979-a41d-c602591139fb","ios":"levelo://app?vid=0df7fbee-03c1-4979-a41d-c602591139fb"},"vehicle_type_id":"4","last_reported":1699931273,"current_range_meters":26000,"station_id":"ce4bhah2rcd13ifvqej0","pricing_plan_id":"free"},{"bike_id":"a322dd92-4e10-4462-85a8-97a388122ff4","system_id":"levelo_inurba_marseille","lat":43.298681,"lon":5.397225,"is_reserved":false,"is_disabled":false,"rental_uris":{"android":"levelo://app?vid=a322dd92-4e10-4462-85a8-97a388122ff4","ios":"levelo://app?vid=a322dd92-4e10-4462-85a8-97a388122ff4"},"vehicle_type_id":"4","last_reported":1699931273,"current_range_meters":28000,"station_id":"ce4bh0h2rcd13ifvqd50","pricing_plan_id":"free"},{"bike_id":"0cf98487-623f-4aef-bae2-0e913a1d5d51","system_id":"levelo_inurba_marseille","lat":43.286615,"lon":5.363572,"is_reserved":false,"is_disabled":false,"rental_uris":{"android":"levelo://app?vid=0cf98487-623f-4aef-bae2-0e913a1d5d51","ios":"levelo://app?vid=0cf98487-623f-4aef-bae2-0e913a1d5d51"},"vehicle_type_id":"4","last_reported":1699931273,"current_range_meters":6800,"station_id":"ce4bhah2rcd13ifvqej0","pricing_plan_id":"free"},{"bike_id":"7ea2a1d0-957f-4303-84da-19171450ec6b","system_id":"levelo_inurba_marseille","lat":43.286591,"lon":5.363346,"is_reserved":false,"is_disabled":false,"rental_uris":{"android":"levelo://app?vid=7ea2a1d0-957f-4303-84da-19171450ec6b","ios":"levelo://app?vid=7ea2a1d0-957f-4303-84da-19171450ec6b"},"vehicle_type_id":"4","last_reported":1699931273,"current_range_meters":28400,"station_id":"ce4bhah2rcd13ifvqej0","pricing_plan_id":"free"},{"bike_id":"a4111030-4f1e-4743-907f-76b8821ddc7a","system_id":"levelo_inurba_marseille","lat":43.286591,"lon":5.363346,"is_reserved":false,"is_disabled":false,"rental_uris":{"android":"levelo://app?vid=a4111030-4f1e-4743-907f-76b8821ddc7a","ios":"levelo://app?vid=a4111030-4f1e-4743-907f-76b8821ddc7a"},"vehicle_type_id":"4","last_reported":1699931273,"current_range_meters":30800,"station_id":"ce4bhah2rcd13ifvqej0","pricing_plan_id":"free"},{"bike_id":"095ce675-8474-41fa-a9c9-2feea8328fd2","system_id":"levelo_inurba_marseille","lat":43.286975,"lon":5.373872,"is_reserved":false,"is_disabled":false,"rental_uris":{"android":"levelo://app?vid=095ce675-8474-41fa-a9c9-2feea8328fd2","ios":"levelo://app?vid=095ce675-8474-41fa-a9c9-2feea8328fd2"},"vehicle_type_id":"4","last_reported":1699931273,"current_range_meters":31200,"station_id":"ce4bh3p2rcd13ifvqdq0","pricing_plan_id":"free"},{"bike_id":"d44e5321-be45-47dd-844f-6540488801b2","system_id":"levelo_inurba_marseille","lat":43.289283,"lon":5.384005,"is_reserved":false,"is_disabled":false,"rental_uris":{"android":"levelo://app?vid=d44e5321-be45-47dd-844f-6540488801b2","ios":"levelo://app?vid=d44e5321-be45-47dd-844f-6540488801b2"},"vehicle_type_id":"4","last_reported":1699931273,"current_range_meters":28800,"station_id":"ce4bh612rcd13ifvqe6g","pricing_plan_id":"free"},{"bike_id":"697bc6c6-fd68-4cab-9faf-dec3a18da3c5","system_id":"levelo_inurba_marseille","lat":43.302759,"lon":5.400793,"is_reserved":false,"is_disabled":false,"rental_uris":{"android":"levelo://app?vid=697bc6c6-fd68-4cab-9faf-dec3a18da3c5","ios":"levelo://app?vid=697bc6c6-fd68-4cab-9faf-dec3a18da3c5"},"vehicle_type_id":"4","last_reported":1699931273,"current_range_meters":30000,"station_id":"ce4bgvh2rcd13ifvqcs0","pricing_plan_id":"free"},{"bike_id":"9a580be9-98ea-4281-8585-32900ed42410","system_id":"levelo_inurba_marseille","lat":43.302294,"lon":5.400604,"is_reserved":false,"is_disabled":false,"rental_uris":{"android":"levelo://app?vid=9a580be9-98ea-4281-8585-32900ed42410","ios":"levelo://app?vid=9a580be9-98ea-4281-8585-32900ed42410"},"vehicle_type_id":"4","last_reported":1699931273,"current_range_meters":31600,"station_id":"ce4bgvh2rcd13ifvqcs0","pricing_plan_id":"free"},{"bike_id":"7bb441da-891c-4938-897b-9efd24ddd27e","system_id":"levelo_inurba_marseille","lat":43.302759,"lon":5.400793,"is_reserved":false,"is_disabled":false,"rental_uris":{"android":"levelo://app?vid=7bb441da-891c-4938-897b-9efd24ddd27e","ios":"levelo://app?vid=7bb441da-891c-4938-897b-9efd24ddd27e"},"vehicle_type_id":"4","last_reported":1699931273,"current_range_meters":26000,"station_id":"ce4bgvh2rcd13ifvqcs0","pricing_plan_id":"free"},{"bike_id":"241a96d2-2448-436e-b44e-42b6f55dc8fd","system_id":"levelo_inurba_marseille","lat":43.302759,"lon":5.400793,"is_reserved":false,"is_disabled":false,"rental_uris":{"android":"levelo://app?vid=241a96d2-2448-436e-b44e-42b6f55dc8fd","ios":"levelo://app?vid=241a96d2-2448-436e-b44e-42b6f55dc8fd"},"vehicle_type_id":"4","last_reported":1699931273,"current_range_meters":23600,"station_id":"ce4bgvh2rcd13ifvqcs0","pricing_plan_id":"free"},{"bike_id":"10d1d1e3-92b0-4dd2-a9e6-27cd6164d2ff","system_id":"levelo_inurba_marseille","lat":43.286039,"lon":5.370681,"is_reserved":false,"is_disabled":false,"rental_uris":{"android":"levelo://app?vid=10d1d1e3-92b0-4dd2-a9e6-27cd6164d2ff","ios":"levelo://app?vid=10d1d1e3-92b0-4dd2-a9e6-27cd6164d2ff"},"vehicle_type_id":"4","last_reported":1699931273,"current_range_meters":10800,"station_id":"ce4bht12rcd13ifvqi60","pricing_plan_id":"free"},{"bike_id":"844373ee-5874-4586-88b3-ea6b28953c52","system_id":"levelo_inurba_marseille","lat":43.316517,"lon":5.404375,"is_reserved":false,"is_disabled":false,"rental_uris":{"android":"levelo://app?vid=844373ee-5874-4586-88b3-ea6b28953c52","ios":"levelo://app?vid=844373ee-5874-4586-88b3-ea6b28953c52"},"vehicle_type_id":"4","last_reported":1699931273,"current_range_meters":31200,"station_id":"ce4bh012rcd13ifvqd00","pricing_plan_id":"free"},{"bike_id":"6f4872c2-a27f-4f77-95bf-82bbbc3cdf13","system_id":"levelo_inurba_marseille","lat":43.316517,"lon":5.404375,"is_reserved":false,"is_disabled":false,"rental_uris":{"android":"levelo://app?vid=6f4872c2-a27f-4f77-95bf-82bbbc3cdf13","ios":"levelo://app?vid=6f4872c2-a27f-4f77-95bf-82bbbc3cdf13"},"vehicle_type_id":"4","last_reported":1699931273,"current_range_meters":31200,"station_id":"ce4bh012rcd13ifvqd00","pricing_plan_id":"free"},{"bike_id":"988de84c-85a3-4a28-890d-944d688a0f6f","system_id":"levelo_inurba_marseille","lat":43.31648,"lon":5.40444,"is_reserved":false,"is_disabled":false,"rental_uris":{"android":"levelo://app?vid=988de84c-85a3-4a28-890d-944d688a0f6f","ios":"levelo://app?vid=988de84c-85a3-4a28-890d-944d688a0f6f"},"vehicle_type_id":"4","last_reported":1699931273,"current_range_meters":9200,"station_id":"ce4bh012rcd13ifvqd00","pricing_plan_id":"free"},{"bike_id":"e57449c2-d088-47cf-8bf2-271593713c89","system_id":"levelo_inurba_marseille","lat":43.328576,"lon":5.398841,"is_reserved":false,"is_disabled":false,"rental_uris":{"android":"levelo://app?vid=e57449c2-d088-47cf-8bf2-271593713c89","ios":"levelo://app?vid=e57449c2-d088-47cf-8bf2-271593713c89"},"vehicle_type_id":"4","last_reported":1699931273,"current_range_meters":0,"station_id":"","pricing_plan_id":"free"},{"bike_id":"3eed3b3b-e04e-4223-ab3e-52e4e7b318d0","system_id":"levelo_inurba_marseille","lat":43.291994,"lon":5.392907,"is_reserved":false,"is_disabled":false,"rental_uris":{"android":"levelo://app?vid=3eed3b3b-e04e-4223-ab3e-52e4e7b318d0","ios":"levelo://app?vid=3eed3b3b-e04e-4223-ab3e-52e4e7b318d0"},"vehicle_type_id":"4","last_reported":1699931273,"current_range_meters":14400,"station_id":"ce4bh192rcd13ifvqdd0","pricing_plan_id":"free"},{"bike_id":"b4227bd4-17cd-4013-9977-fce563d95a76","system_id":"levelo_inurba_marseille","lat":43.29194,"lon":5.39315,"is_reserved":false,"is_disabled":false,"rental_uris":{"android":"levelo://app?vid=b4227bd4-17cd-4013-9977-fce563d95a76","ios":"levelo://app?vid=b4227bd4-17cd-4013-9977-fce563d95a76"},"vehicle_type_id":"4","last_reported":1699931273,"current_range_meters":15200,"station_id":"ce4bh192rcd13ifvqdd0","pricing_plan_id":"free"},{"bike_id":"2256f2ca-f750-49e1-9b80-561da0a6f1f8","system_id":"levelo_inurba_marseille","lat":43.291994,"lon":5.392907,"is_reserved":false,"is_disabled":false,"rental_uris":{"android":"levelo://app?vid=2256f2ca-f750-49e1-9b80-561da0a6f1f8","ios":"levelo://app?vid=2256f2ca-f750-49e1-9b80-561da0a6f1f8"},"vehicle_type_id":"4","last_reported":1699931273,"current_range_meters":20000,"station_id":"ce4bh192rcd13ifvqdd0","pricing_plan_id":"free"},{"bike_id":"2a350427-e059-4400-b2f8-b0d5fada1c05","system_id":"levelo_inurba_marseille","lat":43.291994,"lon":5.392907,"is_reserved":false,"is_disabled":false,"rental_uris":{"android":"levelo://app?vid=2a350427-e059-4400-b2f8-b0d5fada1c05","ios":"levelo://app?vid=2a350427-e059-4400-b2f8-b0d5fada1c05"},"vehicle_type_id":"4","last_reported":1699931273,"current_range_meters":4000,"station_id":"ce4bh192rcd13ifvqdd0","pricing_plan_id":"free"},{"bike_id":"7d1dabf7-3b71-4b5e-ab57-902b423cb90e","system_id":"levelo_inurba_marseille","lat":43.28468,"lon":5.3589,"is_reserved":false,"is_disabled":false,"rental_uris":{"android":"levelo://app?vid=7d1dabf7-3b71-4b5e-ab57-902b423cb90e","ios":"levelo://app?vid=7d1dabf7-3b71-4b5e-ab57-902b423cb90e"},"vehicle_type_id":"4","last_reported":1699931273,"current_range_meters":23200,"station_id":"ce4bhah2rcd13ifvqei0","pricing_plan_id":"free"},{"bike_id":"ebab16dc-75d2-4f54-a841-2bf131fd3794","system_id":"levelo_inurba_marseille","lat":43.284666,"lon":5.358906,"is_reserved":false,"is_disabled":false,"rental_uris":{"android":"levelo://app?vid=ebab16dc-75d2-4f54-a841-2bf131fd3794","ios":"levelo://app?vid=ebab16dc-75d2-4f54-a841-2bf131fd3794"},"vehicle_type_id":"4","last_reported":1699931273,"current_range_meters":14800,"station_id":"ce4bhah2rcd13ifvqei0","pricing_plan_id":"free"},{"bike_id":"f427be72-4670-48e4-a67c-3e0802a36c40","system_id":"levelo_inurba_marseille","lat":43.284638,"lon":5.358895,"is_reserved":false,"is_disabled":false,"rental_uris":{"android":"levelo://app?vid=f427be72-4670-48e4-a67c-3e0802a36c40","ios":"levelo://app?vid=f427be72-4670-48e4-a67c-3e0802a36c40"},"vehicle_type_id":"4","last_reported":1699931273,"current_range_meters":30000,"station_id":"ce4bhah2rcd13ifvqei0","pricing_plan_id":"free"},{"bike_id":"4144c037-993e-4ade-ac96-e7ff0b309ec8","system_id":"levelo_inurba_marseille","lat":43.284638,"lon":5.358885,"is_reserved":false,"is_disabled":false,"rental_uris":{"android":"levelo://app?vid=4144c037-993e-4ade-ac96-e7ff0b309ec8","ios":"levelo://app?vid=4144c037-993e-4ade-ac96-e7ff0b309ec8"},"vehicle_type_id":"4","last_reported":1699931273,"current_range_meters":20800,"station_id":"ce4bhah2rcd13ifvqei0","pricing_plan_id":"free"},{"bike_id":"1ba9e6b9-a2ab-4624-a4e6-26421e5b5802","system_id":"levelo_inurba_marseille","lat":43.284628,"lon":5.358914,"is_reserved":false,"is_disabled":false,"rental_uris":{"android":"levelo://app?vid=1ba9e6b9-a2ab-4624-a4e6-26421e5b5802","ios":"levelo://app?vid=1ba9e6b9-a2ab-4624-a4e6-26421e5b5802"},"vehicle_type_id":"4","last_reported":1699931273,"current_range_meters":9200,"station_id":"ce4bhah2rcd13ifvqei0","pricing_plan_id":"free"},{"bike_id":"9a0966e5-bdfe-4ec4-996c-ed657d457595","system_id":"levelo_inurba_marseille","lat":43.284615,"lon":5.358904,"is_reserved":false,"is_disabled":false,"rental_uris":{"android":"levelo://app?vid=9a0966e5-bdfe-4ec4-996c-ed657d457595","ios":"levelo://app?vid=9a0966e5-bdfe-4ec4-996c-ed657d457595"},"vehicle_type_id":"4","last_reported":1699931273,"current_range_meters":12800,"station_id":"ce4bhah2rcd13ifvqei0","pricing_plan_id":"free"},{"bike_id":"e38651f6-d007-45d0-b132-7bc5d8d49514","system_id":"levelo_inurba_marseille","lat":43.284611,"lon":5.358923,"is_reserved":false,"is_disabled":false,"rental_uris":{"android":"levelo://app?vid=e38651f6-d007-45d0-b132-7bc5d8d49514","ios":"levelo://app?vid=e38651f6-d007-45d0-b132-7bc5d8d49514"},"vehicle_type_id":"4","last_reported":1699931273,"current_range_meters":8400,"station_id":"ce4bhah2rcd13ifvqei0","pricing_plan_id":"free"},{"bike_id":"980516ab-a0eb-4534-a15f-34fa74509c84","system_id":"levelo_inurba_marseille","lat":43.284622,"lon":5.358803,"is_reserved":false,"is_disabled":false,"rental_uris":{"android":"levelo://app?vid=980516ab-a0eb-4534-a15f-34fa74509c84","ios":"levelo://app?vid=980516ab-a0eb-4534-a15f-34fa74509c84"},"vehicle_type_id":"4","last_reported":1699931273,"current_range_meters":8400,"station_id":"ce4bhah2rcd13ifvqei0","pricing_plan_id":"free"},{"bike_id":"605f7c30-0fc1-4f09-bcd1-084c06fee4c7","system_id":"levelo_inurba_marseille","lat":43.284602,"lon":5.358933,"is_reserved":false,"is_disabled":false,"rental_uris":{"android":"levelo://app?vid=605f7c30-0fc1-4f09-bcd1-084c06fee4c7","ios":"levelo://app?vid=605f7c30-0fc1-4f09-bcd1-084c06fee4c7"},"vehicle_type_id":"4","last_reported":1699931273,"current_range_meters":28000,"station_id":"ce4bhah2rcd13ifvqei0","pricing_plan_id":"free"},{"bike_id":"049b8a5f-7dce-4d39-a476-8944b3003f30","system_id":"levelo_inurba_marseille","lat":43.284588,"lon":5.358838,"is_reserved":false,"is_disabled":false,"rental_uris":{"android":"levelo://app?vid=049b8a5f-7dce-4d39-a476-8944b3003f30","ios":"levelo://app?vid=049b8a5f-7dce-4d39-a476-8944b3003f30"},"vehicle_type_id":"4","last_reported":1699931273,"current_range_meters":31200,"station_id":"ce4bhah2rcd13ifvqei0","pricing_plan_id":"free"},{"bike_id":"abd3957b-6bce-4839-b188-81f2da56b7c1","system_id":"levelo_inurba_marseille","lat":43.284583,"lon":5.358852,"is_reserved":false,"is_disabled":false,"rental_uris":{"android":"levelo://app?vid=abd3957b-6bce-4839-b188-81f2da56b7c1","ios":"levelo://app?vid=abd3957b-6bce-4839-b188-81f2da56b7c1"},"vehicle_type_id":"4","last_reported":1699931273,"current_range_meters":18800,"station_id":"ce4bhah2rcd13ifvqei0","pricing_plan_id":"free"},{"bike_id":"33ce126f-aeb2-45cd-9ee2-42ef47dbda14","system_id":"levelo_inurba_marseille","lat":43.294314,"lon":5.397498,"is_reserved":false,"is_disabled":false,"rental_uris":{"android":"levelo://app?vid=33ce126f-aeb2-45cd-9ee2-42ef47dbda14","ios":"levelo://app?vid=33ce126f-aeb2-45cd-9ee2-42ef47dbda14"},"vehicle_type_id":"4","last_reported":1699931273,"current_range_meters":26800,"station_id":"ce4bh3h2rcd13ifvqdo0","pricing_plan_id":"free"},{"bike_id":"7603f1ad-b0ef-42ab-b90c-ef55080fb1ae","system_id":"levelo_inurba_marseille","lat":43.284556,"lon":5.358819,"is_reserved":false,"is_disabled":false,"rental_uris":{"android":"levelo://app?vid=7603f1ad-b0ef-42ab-b90c-ef55080fb1ae","ios":"levelo://app?vid=7603f1ad-b0ef-42ab-b90c-ef55080fb1ae"},"vehicle_type_id":"4","last_reported":1699931273,"current_range_meters":0,"station_id":"ce4bhah2rcd13ifvqei0","pricing_plan_id":"free"},{"bike_id":"214509b7-4bbc-49d6-8b2c-6a87f7d55493","system_id":"levelo_inurba_marseille","lat":43.283998,"lon":5.375062,"is_reserved":false,"is_disabled":false,"rental_uris":{"android":"levelo://app?vid=214509b7-4bbc-49d6-8b2c-6a87f7d55493","ios":"levelo://app?vid=214509b7-4bbc-49d6-8b2c-6a87f7d55493"},"vehicle_type_id":"4","last_reported":1699931273,"current_range_meters":12400,"station_id":"ce4bh412rcd13ifvqds0","pricing_plan_id":"free"},{"bike_id":"224b6949-1674-4f26-8752-7c9d9cdc6dbd","system_id":"levelo_inurba_marseille","lat":43.283998,"lon":5.375062,"is_reserved":false,"is_disabled":false,"rental_uris":{"android":"levelo://app?vid=224b6949-1674-4f26-8752-7c9d9cdc6dbd","ios":"levelo://app?vid=224b6949-1674-4f26-8752-7c9d9cdc6dbd"},"vehicle_type_id":"4","last_reported":1699931273,"current_range_meters":22400,"station_id":"ce4bh412rcd13ifvqds0","pricing_plan_id":"free"},{"bike_id":"5f743e18-953f-4ed8-bc57-a9f8673ffca8","system_id":"levelo_inurba_marseille","lat":43.283998,"lon":5.375062,"is_reserved":false,"is_disabled":false,"rental_uris":{"android":"levelo://app?vid=5f743e18-953f-4ed8-bc57-a9f8673ffca8","ios":"levelo://app?vid=5f743e18-953f-4ed8-bc57-a9f8673ffca8"},"vehicle_type_id":"4","last_reported":1699931273,"current_range_meters":26800,"station_id":"ce4bh412rcd13ifvqds0","pricing_plan_id":"free"},{"bike_id":"135286d6-ffbf-41e4-8e50-972864471c8b","system_id":"levelo_inurba_marseille","lat":43.283998,"lon":5.375062,"is_reserved":false,"is_disabled":false,"rental_uris":{"android":"levelo://app?vid=135286d6-ffbf-41e4-8e50-972864471c8b","ios":"levelo://app?vid=135286d6-ffbf-41e4-8e50-972864471c8b"},"vehicle_type_id":"4","last_reported":1699931273,"current_range_meters":31200,"station_id":"ce4bh412rcd13ifvqds0","pricing_plan_id":"free"},{"bike_id":"8ae3ac23-0b08-477c-8098-4e22e962ccc5","system_id":"levelo_inurba_marseille","lat":43.283998,"lon":5.375062,"is_reserved":false,"is_disabled":false,"rental_uris":{"android":"levelo://app?vid=8ae3ac23-0b08-477c-8098-4e22e962ccc5","ios":"levelo://app?vid=8ae3ac23-0b08-477c-8098-4e22e962ccc5"},"vehicle_type_id":"4","last_reported":1699931273,"current_range_meters":29200,"station_id":"ce4bh412rcd13ifvqds0","pricing_plan_id":"free"},{"bike_id":"25e84dc5-1b9c-4362-99aa-84f0be62e35e","system_id":"levelo_inurba_marseille","lat":43.283998,"lon":5.375062,"is_reserved":false,"is_disabled":false,"rental_uris":{"android":"levelo://app?vid=25e84dc5-1b9c-4362-99aa-84f0be62e35e","ios":"levelo://app?vid=25e84dc5-1b9c-4362-99aa-84f0be62e35e"},"vehicle_type_id":"4","last_reported":1699931273,"current_range_meters":31600,"station_id":"ce4bh412rcd13ifvqds0","pricing_plan_id":"free"},{"bike_id":"fee7b59b-f135-4d70-8738-ea442428a9e5","system_id":"levelo_inurba_marseille","lat":43.319179,"lon":5.407725,"is_reserved":false,"is_disabled":false,"rental_uris":{"android":"levelo://app?vid=fee7b59b-f135-4d70-8738-ea442428a9e5","ios":"levelo://app?vid=fee7b59b-f135-4d70-8738-ea442428a9e5"},"vehicle_type_id":"4","last_reported":1699931273,"current_range_meters":26800,"station_id":"ce4bhq12rcd13ifvqhig","pricing_plan_id":"free"},{"bike_id":"290ec3ff-b171-45d4-a796-4c54a8d0d69e","system_id":"levelo_inurba_marseille","lat":43.33717,"lon":5.391857,"is_reserved":false,"is_disabled":false,"rental_uris":{"android":"levelo://app?vid=290ec3ff-b171-45d4-a796-4c54a8d0d69e","ios":"levelo://app?vid=290ec3ff-b171-45d4-a796-4c54a8d0d69e"},"vehicle_type_id":"4","last_reported":1699931273,"current_range_meters":24800,"station_id":"ce4bhr92rcd13ifvqhsg","pricing_plan_id":"free"},{"bike_id":"efd5fa98-04e4-4a10-a25b-865aae8829f9","system_id":"levelo_inurba_marseille","lat":43.323464,"lon":5.406297,"is_reserved":false,"is_disabled":false,"rental_uris":{"android":"levelo://app?vid=efd5fa98-04e4-4a10-a25b-865aae8829f9","ios":"levelo://app?vid=efd5fa98-04e4-4a10-a25b-865aae8829f9"},"vehicle_type_id":"4","last_reported":1699931273,"current_range_meters":27600,"station_id":"ce4bhq92rcd13ifvqhjg","pricing_plan_id":"free"},{"bike_id":"3c959eae-0144-4a5a-8a31-ae325772e917","system_id":"levelo_inurba_marseille","lat":43.323464,"lon":5.406297,"is_reserved":false,"is_disabled":false,"rental_uris":{"android":"levelo://app?vid=3c959eae-0144-4a5a-8a31-ae325772e917","ios":"levelo://app?vid=3c959eae-0144-4a5a-8a31-ae325772e917"},"vehicle_type_id":"4","last_reported":1699931273,"current_range_meters":5200,"station_id":"ce4bhq92rcd13ifvqhjg","pricing_plan_id":"free"},{"bike_id":"e0d9bf9a-3d1e-4c17-8410-04f7b26897b9","system_id":"levelo_inurba_marseille","lat":43.288497,"lon":5.393089,"is_reserved":false,"is_disabled":false,"rental_uris":{"android":"levelo://app?vid=e0d9bf9a-3d1e-4c17-8410-04f7b26897b9","ios":"levelo://app?vid=e0d9bf9a-3d1e-4c17-8410-04f7b26897b9"},"vehicle_type_id":"4","last_reported":1699931273,"current_range_meters":21200,"station_id":"ce4bh2p2rcd13ifvqdi0","pricing_plan_id":"free"},{"bike_id":"f3328093-91e7-4619-860e-9dadf5aa7d48","system_id":"levelo_inurba_marseille","lat":43.288497,"lon":5.393089,"is_reserved":false,"is_disabled":false,"rental_uris":{"android":"levelo://app?vid=f3328093-91e7-4619-860e-9dadf5aa7d48","ios":"levelo://app?vid=f3328093-91e7-4619-860e-9dadf5aa7d48"},"vehicle_type_id":"4","last_reported":1699931273,"current_range_meters":28000,"station_id":"ce4bh2p2rcd13ifvqdi0","pricing_plan_id":"free"},{"bike_id":"d7c3c78d-91ec-4824-9763-e929d9e27158","system_id":"levelo_inurba_marseille","lat":43.297946,"lon":5.404063,"is_reserved":false,"is_disabled":false,"rental_uris":{"android":"levelo://app?vid=d7c3c78d-91ec-4824-9763-e929d9e27158","ios":"levelo://app?vid=d7c3c78d-91ec-4824-9763-e929d9e27158"},"vehicle_type_id":"4","last_reported":1699931273,"current_range_meters":31200,"station_id":"ce4bh112rcd13ifvqd90","pricing_plan_id":"free"},{"bike_id":"d0efeb3a-085e-4b07-aee9-7cf9f917f1f4","system_id":"levelo_inurba_marseille","lat":43.292724,"lon":5.401131,"is_reserved":false,"is_disabled":false,"rental_uris":{"android":"levelo://app?vid=d0efeb3a-085e-4b07-aee9-7cf9f917f1f4","ios":"levelo://app?vid=d0efeb3a-085e-4b07-aee9-7cf9f917f1f4"},"vehicle_type_id":"4","last_reported":1699931273,"current_range_meters":30400,"station_id":"ce4bh312rcd13ifvqdk0","pricing_plan_id":"free"},{"bike_id":"d05a3fa1-4d08-4905-b387-9b6901c45ec8","system_id":"levelo_inurba_marseille","lat":43.292735,"lon":5.401227,"is_reserved":false,"is_disabled":false,"rental_uris":{"android":"levelo://app?vid=d05a3fa1-4d08-4905-b387-9b6901c45ec8","ios":"levelo://app?vid=d05a3fa1-4d08-4905-b387-9b6901c45ec8"},"vehicle_type_id":"4","last_reported":1699931273,"current_range_meters":0,"station_id":"ce4bh312rcd13ifvqdk0","pricing_plan_id":"free"},{"bike_id":"30a0e051-191b-47c6-bd56-21658e14dbbe","system_id":"levelo_inurba_marseille","lat":43.292724,"lon":5.401131,"is_reserved":false,"is_disabled":false,"rental_uris":{"android":"levelo://app?vid=30a0e051-191b-47c6-bd56-21658e14dbbe","ios":"levelo://app?vid=30a0e051-191b-47c6-bd56-21658e14dbbe"},"vehicle_type_id":"4","last_reported":1699931273,"current_range_meters":28400,"station_id":"ce4bh312rcd13ifvqdk0","pricing_plan_id":"free"},{"bike_id":"cc392747-0bae-4964-b61d-819e99f0d817","system_id":"levelo_inurba_marseille","lat":43.283502,"lon":5.386471,"is_reserved":false,"is_disabled":false,"rental_uris":{"android":"levelo://app?vid=cc392747-0bae-4964-b61d-819e99f0d817","ios":"levelo://app?vid=cc392747-0bae-4964-b61d-819e99f0d817"},"vehicle_type_id":"4","last_reported":1699931273,"current_range_meters":30400,"station_id":"ce4bh492rcd13ifvqdvg","pricing_plan_id":"free"},{"bike_id":"14fecb59-9a04-4654-a0bc-ce14a7114ba5","system_id":"levelo_inurba_marseille","lat":43.282754,"lon":5.350519,"is_reserved":false,"is_disabled":false,"rental_uris":{"android":"levelo://app?vid=14fecb59-9a04-4654-a0bc-ce14a7114ba5","ios":"levelo://app?vid=14fecb59-9a04-4654-a0bc-ce14a7114ba5"},"vehicle_type_id":"4","last_reported":1699931273,"current_range_meters":31200,"station_id":"ce4bhbp2rcd13ifvqerg","pricing_plan_id":"free"},{"bike_id":"1cc1465a-cb9a-4caf-94b9-bebf755c62b4","system_id":"levelo_inurba_marseille","lat":43.282744,"lon":5.350533,"is_reserved":false,"is_disabled":false,"rental_uris":{"android":"levelo://app?vid=1cc1465a-cb9a-4caf-94b9-bebf755c62b4","ios":"levelo://app?vid=1cc1465a-cb9a-4caf-94b9-bebf755c62b4"},"vehicle_type_id":"4","last_reported":1699931273,"current_range_meters":31200,"station_id":"ce4bhbp2rcd13ifvqerg","pricing_plan_id":"free"},{"bike_id":"3f2cc325-b1fb-4740-9b21-ad7ca25c475e","system_id":"levelo_inurba_marseille","lat":43.282754,"lon":5.350519,"is_reserved":false,"is_disabled":false,"rental_uris":{"android":"levelo://app?vid=3f2cc325-b1fb-4740-9b21-ad7ca25c475e","ios":"levelo://app?vid=3f2cc325-b1fb-4740-9b21-ad7ca25c475e"},"vehicle_type_id":"4","last_reported":1699931273,"current_range_meters":2800,"station_id":"ce4bhbp2rcd13ifvqerg","pricing_plan_id":"free"},{"bike_id":"8c3e8705-250e-4bb7-a090-0e23fc05ed53","system_id":"levelo_inurba_marseille","lat":43.282744,"lon":5.350533,"is_reserved":false,"is_disabled":false,"rental_uris":{"android":"levelo://app?vid=8c3e8705-250e-4bb7-a090-0e23fc05ed53","ios":"levelo://app?vid=8c3e8705-250e-4bb7-a090-0e23fc05ed53"},"vehicle_type_id":"4","last_reported":1699931273,"current_range_meters":31200,"station_id":"ce4bhbp2rcd13ifvqerg","pricing_plan_id":"free"},{"bike_id":"0242b54d-6b2b-49b3-9d48-eeac85749b60","system_id":"levelo_inurba_marseille","lat":43.283502,"lon":5.386471,"is_reserved":false,"is_disabled":false,"rental_uris":{"android":"levelo://app?vid=0242b54d-6b2b-49b3-9d48-eeac85749b60","ios":"levelo://app?vid=0242b54d-6b2b-49b3-9d48-eeac85749b60"},"vehicle_type_id":"4","last_reported":1699931273,"current_range_meters":30000,"station_id":"ce4bh492rcd13ifvqdvg","pricing_plan_id":"free"},{"bike_id":"8c5cbd89-343d-4f4b-8b79-0313bc4bc41f","system_id":"levelo_inurba_marseille","lat":43.283558,"lon":5.38637,"is_reserved":false,"is_disabled":false,"rental_uris":{"android":"levelo://app?vid=8c5cbd89-343d-4f4b-8b79-0313bc4bc41f","ios":"levelo://app?vid=8c5cbd89-343d-4f4b-8b79-0313bc4bc41f"},"vehicle_type_id":"4","last_reported":1699931273,"current_range_meters":3600,"station_id":"ce4bh492rcd13ifvqdvg","pricing_plan_id":"free"},{"bike_id":"4370869b-0c59-4e1b-b4c7-59bf3a7bc50e","system_id":"levelo_inurba_marseille","lat":43.290412,"lon":5.399633,"is_reserved":false,"is_disabled":false,"rental_uris":{"android":"levelo://app?vid=4370869b-0c59-4e1b-b4c7-59bf3a7bc50e","ios":"levelo://app?vid=4370869b-0c59-4e1b-b4c7-59bf3a7bc50e"},"vehicle_type_id":"4","last_reported":1699931273,"current_range_meters":30000,"station_id":"ce4bh392rcd13ifvqdm0","pricing_plan_id":"free"},{"bike_id":"b0e8202f-11ad-4f4c-a6a2-6d87f012e63d","system_id":"levelo_inurba_marseille","lat":43.281044,"lon":5.378308,"is_reserved":false,"is_disabled":false,"rental_uris":{"android":"levelo://app?vid=b0e8202f-11ad-4f4c-a6a2-6d87f012e63d","ios":"levelo://app?vid=b0e8202f-11ad-4f4c-a6a2-6d87f012e63d"},"vehicle_type_id":"4","last_reported":1699931273,"current_range_meters":26800,"station_id":"ce4bha12rcd13ifvqee0","pricing_plan_id":"free"},{"bike_id":"d78521fb-91d3-49a7-a984-c5d99d9cf455","system_id":"levelo_inurba_marseille","lat":43.281044,"lon":5.378308,"is_reserved":false,"is_disabled":false,"rental_uris":{"android":"levelo://app?vid=d78521fb-91d3-49a7-a984-c5d99d9cf455","ios":"levelo://app?vid=d78521fb-91d3-49a7-a984-c5d99d9cf455"},"vehicle_type_id":"4","last_reported":1699931273,"current_range_meters":26800,"station_id":"ce4bha12rcd13ifvqee0","pricing_plan_id":"free"},{"bike_id":"7faf1c11-6808-4038-96dc-76dbe92e690b","system_id":"levelo_inurba_marseille","lat":43.281044,"lon":5.378308,"is_reserved":false,"is_disabled":false,"rental_uris":{"android":"levelo://app?vid=7faf1c11-6808-4038-96dc-76dbe92e690b","ios":"levelo://app?vid=7faf1c11-6808-4038-96dc-76dbe92e690b"},"vehicle_type_id":"4","last_reported":1699931273,"current_range_meters":18400,"station_id":"ce4bha12rcd13ifvqee0","pricing_plan_id":"free"},{"bike_id":"ffa81b21-7f0d-4d98-9a2f-693f9363c156","system_id":"levelo_inurba_marseille","lat":43.281044,"lon":5.378308,"is_reserved":false,"is_disabled":false,"rental_uris":{"android":"levelo://app?vid=ffa81b21-7f0d-4d98-9a2f-693f9363c156","ios":"levelo://app?vid=ffa81b21-7f0d-4d98-9a2f-693f9363c156"},"vehicle_type_id":"4","last_reported":1699931273,"current_range_meters":30000,"station_id":"ce4bha12rcd13ifvqee0","pricing_plan_id":"free"},{"bike_id":"f905c658-91ff-4810-bfcc-a82b06109853","system_id":"levelo_inurba_marseille","lat":43.281044,"lon":5.378308,"is_reserved":false,"is_disabled":false,"rental_uris":{"android":"levelo://app?vid=f905c658-91ff-4810-bfcc-a82b06109853","ios":"levelo://app?vid=f905c658-91ff-4810-bfcc-a82b06109853"},"vehicle_type_id":"4","last_reported":1699931273,"current_range_meters":31600,"station_id":"ce4bha12rcd13ifvqee0","pricing_plan_id":"free"},{"bike_id":"89da21d1-ad03-4f2b-8fae-bc30b9951a11","system_id":"levelo_inurba_marseille","lat":43.281044,"lon":5.378308,"is_reserved":false,"is_disabled":false,"rental_uris":{"android":"levelo://app?vid=89da21d1-ad03-4f2b-8fae-bc30b9951a11","ios":"levelo://app?vid=89da21d1-ad03-4f2b-8fae-bc30b9951a11"},"vehicle_type_id":"4","last_reported":1699931273,"current_range_meters":6800,"station_id":"ce4bha12rcd13ifvqee0","pricing_plan_id":"free"},{"bike_id":"12893b09-ca98-47ea-a967-7c2d32ad3e38","system_id":"levelo_inurba_marseille","lat":43.281044,"lon":5.378308,"is_reserved":false,"is_disabled":false,"rental_uris":{"android":"levelo://app?vid=12893b09-ca98-47ea-a967-7c2d32ad3e38","ios":"levelo://app?vid=12893b09-ca98-47ea-a967-7c2d32ad3e38"},"vehicle_type_id":"4","last_reported":1699931273,"current_range_meters":24800,"station_id":"ce4bha12rcd13ifvqee0","pricing_plan_id":"free"},{"bike_id":"7511baf2-4294-4245-8c56-6697389470a8","system_id":"levelo_inurba_marseille","lat":43.296263,"lon":5.40601,"is_reserved":false,"is_disabled":false,"rental_uris":{"android":"levelo://app?vid=7511baf2-4294-4245-8c56-6697389470a8","ios":"levelo://app?vid=7511baf2-4294-4245-8c56-6697389470a8"},"vehicle_type_id":"4","last_reported":1699931273,"current_range_meters":31200,"station_id":"ce4bh0h2rcd13ifvqd60","pricing_plan_id":"free"},{"bike_id":"b783bbd5-222a-417f-8274-56000be38dde","system_id":"levelo_inurba_marseille","lat":43.296263,"lon":5.40601,"is_reserved":false,"is_disabled":false,"rental_uris":{"android":"levelo://app?vid=b783bbd5-222a-417f-8274-56000be38dde","ios":"levelo://app?vid=b783bbd5-222a-417f-8274-56000be38dde"},"vehicle_type_id":"4","last_reported":1699931273,"current_range_meters":20800,"station_id":"ce4bh0h2rcd13ifvqd60","pricing_plan_id":"free"},{"bike_id":"a1e29b40-9a5a-4aeb-bf4c-579d818f746c","system_id":"levelo_inurba_marseille","lat":43.296263,"lon":5.40601,"is_reserved":false,"is_disabled":false,"rental_uris":{"android":"levelo://app?vid=a1e29b40-9a5a-4aeb-bf4c-579d818f746c","ios":"levelo://app?vid=a1e29b40-9a5a-4aeb-bf4c-579d818f746c"},"vehicle_type_id":"4","last_reported":1699931273,"current_range_meters":29200,"station_id":"ce4bh0h2rcd13ifvqd60","pricing_plan_id":"free"},{"bike_id":"55439508-f2f3-4b24-a0da-f09d279ead60","system_id":"levelo_inurba_marseille","lat":43.281044,"lon":5.378308,"is_reserved":false,"is_disabled":false,"rental_uris":{"android":"levelo://app?vid=55439508-f2f3-4b24-a0da-f09d279ead60","ios":"levelo://app?vid=55439508-f2f3-4b24-a0da-f09d279ead60"},"vehicle_type_id":"4","last_reported":1699931273,"current_range_meters":16800,"station_id":"ce4bha12rcd13ifvqee0","pricing_plan_id":"free"},{"bike_id":"c5269fde-c094-4163-a2ac-a6350e774e3c","system_id":"levelo_inurba_marseille","lat":43.323447,"lon":5.41003,"is_reserved":false,"is_disabled":false,"rental_uris":{"android":"levelo://app?vid=c5269fde-c094-4163-a2ac-a6350e774e3c","ios":"levelo://app?vid=c5269fde-c094-4163-a2ac-a6350e774e3c"},"vehicle_type_id":"4","last_reported":1699931273,"current_range_meters":0,"station_id":"","pricing_plan_id":"free"},{"bike_id":"ccf9b17e-2fb6-47d5-b5cb-73ea08fcb6e5","system_id":"levelo_inurba_marseille","lat":43.28575,"lon":5.39498,"is_reserved":false,"is_disabled":false,"rental_uris":{"android":"levelo://app?vid=ccf9b17e-2fb6-47d5-b5cb-73ea08fcb6e5","ios":"levelo://app?vid=ccf9b17e-2fb6-47d5-b5cb-73ea08fcb6e5"},"vehicle_type_id":"4","last_reported":1699931273,"current_range_meters":18000,"station_id":"ce4bh292rcd13ifvqdg0","pricing_plan_id":"free"},{"bike_id":"ffee40f6-2644-4665-982c-fab7e337606d","system_id":"levelo_inurba_marseille","lat":43.285742,"lon":5.395004,"is_reserved":false,"is_disabled":false,"rental_uris":{"android":"levelo://app?vid=ffee40f6-2644-4665-982c-fab7e337606d","ios":"levelo://app?vid=ffee40f6-2644-4665-982c-fab7e337606d"},"vehicle_type_id":"4","last_reported":1699931273,"current_range_meters":31200,"station_id":"ce4bh292rcd13ifvqdg0","pricing_plan_id":"free"},{"bike_id":"c99646be-736f-49c4-939d-f6ae08684967","system_id":"levelo_inurba_marseille","lat":43.285742,"lon":5.395004,"is_reserved":false,"is_disabled":false,"rental_uris":{"android":"levelo://app?vid=c99646be-736f-49c4-939d-f6ae08684967","ios":"levelo://app?vid=c99646be-736f-49c4-939d-f6ae08684967"},"vehicle_type_id":"4","last_reported":1699931273,"current_range_meters":29200,"station_id":"ce4bh292rcd13ifvqdg0","pricing_plan_id":"free"},{"bike_id":"81191254-951d-4151-8a86-dc5c3469ac68","system_id":"levelo_inurba_marseille","lat":43.28573,"lon":5.394992,"is_reserved":false,"is_disabled":false,"rental_uris":{"android":"levelo://app?vid=81191254-951d-4151-8a86-dc5c3469ac68","ios":"levelo://app?vid=81191254-951d-4151-8a86-dc5c3469ac68"},"vehicle_type_id":"4","last_reported":1699931273,"current_range_meters":28000,"station_id":"ce4bh292rcd13ifvqdg0","pricing_plan_id":"free"},{"bike_id":"936e7b41-d78e-4849-8bda-0e80c2ffb835","system_id":"levelo_inurba_marseille","lat":43.304188,"lon":5.412904,"is_reserved":false,"is_disabled":false,"rental_uris":{"android":"levelo://app?vid=936e7b41-d78e-4849-8bda-0e80c2ffb835","ios":"levelo://app?vid=936e7b41-d78e-4849-8bda-0e80c2ffb835"},"vehicle_type_id":"4","last_reported":1699931273,"current_range_meters":31200,"station_id":"ce4bhop2rcd13ifvqh8g","pricing_plan_id":"free"},{"bike_id":"0bfd74bc-bfb8-497c-b556-64a37de952bd","system_id":"levelo_inurba_marseille","lat":43.304188,"lon":5.412904,"is_reserved":false,"is_disabled":false,"rental_uris":{"android":"levelo://app?vid=0bfd74bc-bfb8-497c-b556-64a37de952bd","ios":"levelo://app?vid=0bfd74bc-bfb8-497c-b556-64a37de952bd"},"vehicle_type_id":"4","last_reported":1699931273,"current_range_meters":6800,"station_id":"ce4bhop2rcd13ifvqh8g","pricing_plan_id":"free"},{"bike_id":"c7d868b2-c244-48b6-b0b3-85999dfba765","system_id":"levelo_inurba_marseille","lat":43.30418,"lon":5.41283,"is_reserved":false,"is_disabled":false,"rental_uris":{"android":"levelo://app?vid=c7d868b2-c244-48b6-b0b3-85999dfba765","ios":"levelo://app?vid=c7d868b2-c244-48b6-b0b3-85999dfba765"},"vehicle_type_id":"4","last_reported":1699931273,"current_range_meters":2000,"station_id":"ce4bhop2rcd13ifvqh8g","pricing_plan_id":"free"},{"bike_id":"8804f519-2282-453b-a59d-a7dbfb2d813f","system_id":"levelo_inurba_marseille","lat":43.30416,"lon":5.41283,"is_reserved":false,"is_disabled":false,"rental_uris":{"android":"levelo://app?vid=8804f519-2282-453b-a59d-a7dbfb2d813f","ios":"levelo://app?vid=8804f519-2282-453b-a59d-a7dbfb2d813f"},"vehicle_type_id":"4","last_reported":1699931273,"current_range_meters":10000,"station_id":"ce4bhop2rcd13ifvqh8g","pricing_plan_id":"free"},{"bike_id":"43557f11-2bd7-43e5-b14a-fe1071968279","system_id":"levelo_inurba_marseille","lat":43.304188,"lon":5.412904,"is_reserved":false,"is_disabled":false,"rental_uris":{"android":"levelo://app?vid=43557f11-2bd7-43e5-b14a-fe1071968279","ios":"levelo://app?vid=43557f11-2bd7-43e5-b14a-fe1071968279"},"vehicle_type_id":"4","last_reported":1699931273,"current_range_meters":6000,"station_id":"ce4bhop2rcd13ifvqh8g","pricing_plan_id":"free"},{"bike_id":"b6601141-b574-435d-beb8-2d9584d7f879","system_id":"levelo_inurba_marseille","lat":43.304188,"lon":5.412904,"is_reserved":false,"is_disabled":false,"rental_uris":{"android":"levelo://app?vid=b6601141-b574-435d-beb8-2d9584d7f879","ios":"levelo://app?vid=b6601141-b574-435d-beb8-2d9584d7f879"},"vehicle_type_id":"4","last_reported":1699931273,"current_range_meters":10000,"station_id":"ce4bhop2rcd13ifvqh8g","pricing_plan_id":"free"},{"bike_id":"2311b304-3c09-4570-88bd-e1c7b7569008","system_id":"levelo_inurba_marseille","lat":43.304188,"lon":5.412904,"is_reserved":false,"is_disabled":false,"rental_uris":{"android":"levelo://app?vid=2311b304-3c09-4570-88bd-e1c7b7569008","ios":"levelo://app?vid=2311b304-3c09-4570-88bd-e1c7b7569008"},"vehicle_type_id":"4","last_reported":1699931273,"current_range_meters":23200,"station_id":"ce4bhop2rcd13ifvqh8g","pricing_plan_id":"free"},{"bike_id":"b68d51f1-db1c-4d53-99bd-2e906d369c60","system_id":"levelo_inurba_marseille","lat":43.279087,"lon":5.380114,"is_reserved":false,"is_disabled":false,"rental_uris":{"android":"levelo://app?vid=b68d51f1-db1c-4d53-99bd-2e906d369c60","ios":"levelo://app?vid=b68d51f1-db1c-4d53-99bd-2e906d369c60"},