{"last_updated":1703153253,"ttl":30,"version":"2.2","data":{"bikes":[{"bike_id":"58d3b9e0-6402-4a47-b126-d305d66a04b8","system_id":"levelo_inurba_marseille","lat":43.313391,"lon":5.36706,"is_reserved":false,"is_disabled":false,"rental_uris":{"android":"levelo://app?vid=58d3b9e0-6402-4a47-b126-d305d66a04b8","ios":"levelo://app?vid=58d3b9e0-6402-4a47-b126-d305d66a04b8"},"vehicle_type_id":"4","last_reported":1703153253,"current_range_meters":22400,"station_id":"ce4bgr92rcd13ifvqc6g","pricing_plan_id":"free"},{"bike_id":"0f4cc70e-ce1e-4e82-a66e-5588a43de74a","system_id":"levelo_inurba_marseille","lat":43.313391,"lon":5.36706,"is_reserved":false,"is_disabled":false,"rental_uris":{"android":"levelo://app?vid=0f4cc70e-ce1e-4e82-a66e-5588a43de74a","ios":"levelo://app?vid=0f4cc70e-ce1e-4e82-a66e-5588a43de74a"},"vehicle_type_id":"4","last_reported":1703153253,"current_range_meters":31600,"station_id":"ce4bgr92rcd13ifvqc6g","pricing_plan_id":"free"},{"bike_id":"a10e181f-a198-45a5-b95a-2c762cb5e61a","system_id":"levelo_inurba_marseille","lat":43.31341,"lon":5.367098,"is_reserved":false,"is_disabled":false,"rental_uris":{"android":"levelo://app?vid=a10e181f-a198-45a5-b95a-2c762cb5e61a","ios":"levelo://app?vid=a10e181f-a198-45a5-b95a-2c762cb5e61a"},"vehicle_type_id":"4","last_reported":1703153253,"current_range_meters":22000,"station_id":"ce4bgr92rcd13ifvqc6g","pricing_plan_id":"free"},{"bike_id":"6cbd72cd-31ae-4016-a8ae-21818b385590","system_id":"levelo_inurba_marseille","lat":43.31341,"lon":5.367098,"is_reserved":false,"is_disabled":false,"rental_uris":{"android":"levelo://app?vid=6cbd72cd-31ae-4016-a8ae-21818b385590","ios":"levelo://app?vid=6cbd72cd-31ae-4016-a8ae-21818b385590"},"vehicle_type_id":"4","last_reported":1703153253,"current_range_meters":22000,"station_id":"ce4bgr92rcd13ifvqc6g","pricing_plan_id":"free"},{"bike_id":"c32e3021-2d39-45a9-8f5c-43c0f9699d07","system_id":"levelo_inurba_marseille","lat":43.313391,"lon":5.36706,"is_reserved":false,"is_disabled":false,"rental_uris":{"android":"levelo://app?vid=c32e3021-2d39-45a9-8f5c-43c0f9699d07","ios":"levelo://app?vid=c32e3021-2d39-45a9-8f5c-43c0f9699d07"},"vehicle_type_id":"4","last_reported":1703153253,"current_range_meters":24000,"station_id":"ce4bgr92rcd13ifvqc6g","pricing_plan_id":"free"},{"bike_id":"01e8188e-a813-4a19-b955-6b9bcc876833","system_id":"levelo_inurba_marseille","lat":43.313391,"lon":5.36706,"is_reserved":false,"is_disabled":false,"rental_uris":{"android":"levelo://app?vid=01e8188e-a813-4a19-b955-6b9bcc876833","ios":"levelo://app?vid=01e8188e-a813-4a19-b955-6b9bcc876833"},"vehicle_type_id":"4","last_reported":1703153253,"current_range_meters":11600,"station_id":"ce4bgr92rcd13ifvqc6g","pricing_plan_id":"free"},{"bike_id":"863d1d39-2b2c-4c20-9587-ed3879c48410","system_id":"levelo_inurba_marseille","lat":43.313391,"lon":5.36706,"is_reserved":false,"is_disabled":false,"rental_uris":{"android":"levelo://app?vid=863d1d39-2b2c-4c20-9587-ed3879c48410","ios":"levelo://app?vid=863d1d39-2b2c-4c20-9587-ed3879c48410"},"vehicle_type_id":"4","last_reported":1703153253,"current_range_meters":20800,"station_id":"ce4bgr92rcd13ifvqc6g","pricing_plan_id":"free"},{"bike_id":"9e8522a6-8d12-4a90-a6fc-5f975dcf5153","system_id":"levelo_inurba_marseille","lat":43.313391,"lon":5.36706,"is_reserved":false,"is_disabled":false,"rental_uris":{"android":"levelo://app?vid=9e8522a6-8d12-4a90-a6fc-5f975dcf5153","ios":"levelo://app?vid=9e8522a6-8d12-4a90-a6fc-5f975dcf5153"},"vehicle_type_id":"4","last_reported":1703153253,"current_range_meters":20800,"station_id":"ce4bgr92rcd13ifvqc6g","pricing_plan_id":"free"},{"bike_id":"9c4bed50-4c08-46fb-9163-9ec5afa45ff6","system_id":"levelo_inurba_marseille","lat":43.313391,"lon":5.36706,"is_reserved":false,"is_disabled":false,"rental_uris":{"android":"levelo://app?vid=9c4bed50-4c08-46fb-9163-9ec5afa45ff6","ios":"levelo://app?vid=9c4bed50-4c08-46fb-9163-9ec5afa45ff6"},"vehicle_type_id":"4","last_reported":1703153253,"current_range_meters":0,"station_id":"ce4bgr92rcd13ifvqc6g","pricing_plan_id":"free"},{"bike_id":"0ca656c3-1664-4e62-96d4-7a9cfeb5aa3f","system_id":"levelo_inurba_marseille","lat":43.313391,"lon":5.36706,"is_reserved":false,"is_disabled":false,"rental_uris":{"android":"levelo://app?vid=0ca656c3-1664-4e62-96d4-7a9cfeb5aa3f","ios":"levelo://app?vid=0ca656c3-1664-4e62-96d4-7a9cfeb5aa3f"},"vehicle_type_id":"4","last_reported":1703153253,"current_range_meters":22000,"station_id":"ce4bgr92rcd13ifvqc6g","pricing_plan_id":"free"},{"bike_id":"ee707e06-b9ed-4ebc-9ba5-d7e4c3505a7d","system_id":"levelo_inurba_marseille","lat":43.309076,"lon":5.368465,"is_reserved":false,"is_disabled":false,"rental_uris":{"android":"levelo://app?vid=ee707e06-b9ed-4ebc-9ba5-d7e4c3505a7d","ios":"levelo://app?vid=ee707e06-b9ed-4ebc-9ba5-d7e4c3505a7d"},"vehicle_type_id":"4","last_reported":1703153253,"current_range_meters":24400,"station_id":"ce4bgn92rcd13ifvqbvg","pricing_plan_id":"free"},{"bike_id":"5d5d4789-8f06-4ef4-9d08-2c13f4cd452c","system_id":"levelo_inurba_marseille","lat":43.309076,"lon":5.368465,"is_reserved":false,"is_disabled":false,"rental_uris":{"android":"levelo://app?vid=5d5d4789-8f06-4ef4-9d08-2c13f4cd452c","ios":"levelo://app?vid=5d5d4789-8f06-4ef4-9d08-2c13f4cd452c"},"vehicle_type_id":"4","last_reported":1703153253,"current_range_meters":9600,"station_id":"ce4bgn92rcd13ifvqbvg","pricing_plan_id":"free"},{"bike_id":"6af4a1d2-c218-4b41-b48f-e5f6af338f1a","system_id":"levelo_inurba_marseille","lat":43.309076,"lon":5.368465,"is_reserved":false,"is_disabled":false,"rental_uris":{"android":"levelo://app?vid=6af4a1d2-c218-4b41-b48f-e5f6af338f1a","ios":"levelo://app?vid=6af4a1d2-c218-4b41-b48f-e5f6af338f1a"},"vehicle_type_id":"4","last_reported":1703153253,"current_range_meters":30000,"station_id":"ce4bgn92rcd13ifvqbvg","pricing_plan_id":"free"},{"bike_id":"9fb2f0e0-18aa-48c6-81c8-1f4a120422f4","system_id":"levelo_inurba_marseille","lat":43.309076,"lon":5.368465,"is_reserved":false,"is_disabled":false,"rental_uris":{"android":"levelo://app?vid=9fb2f0e0-18aa-48c6-81c8-1f4a120422f4","ios":"levelo://app?vid=9fb2f0e0-18aa-48c6-81c8-1f4a120422f4"},"vehicle_type_id":"4","last_reported":1703153253,"current_range_meters":30000,"station_id":"ce4bgn92rcd13ifvqbvg","pricing_plan_id":"free"},{"bike_id":"9610fd63-0e45-4cc8-85a9-ff3c4789afda","system_id":"levelo_inurba_marseille","lat":43.309076,"lon":5.368465,"is_reserved":false,"is_disabled":false,"rental_uris":{"android":"levelo://app?vid=9610fd63-0e45-4cc8-85a9-ff3c4789afda","ios":"levelo://app?vid=9610fd63-0e45-4cc8-85a9-ff3c4789afda"},"vehicle_type_id":"4","last_reported":1703153253,"current_range_meters":30000,"station_id":"ce4bgn92rcd13ifvqbvg","pricing_plan_id":"free"},{"bike_id":"189e4ac5-baa6-446c-beed-3b547862a2c1","system_id":"levelo_inurba_marseille","lat":43.314811,"lon":5.373103,"is_reserved":false,"is_disabled":false,"rental_uris":{"android":"levelo://app?vid=189e4ac5-baa6-446c-beed-3b547862a2c1","ios":"levelo://app?vid=189e4ac5-baa6-446c-beed-3b547862a2c1"},"vehicle_type_id":"4","last_reported":1703153253,"current_range_meters":18400,"station_id":"ce4bgt12rcd13ifvqcd0","pricing_plan_id":"free"},{"bike_id":"b321c683-9d5f-4212-92b6-be44b3a1e7d9","system_id":"levelo_inurba_marseille","lat":43.314811,"lon":5.373103,"is_reserved":false,"is_disabled":false,"rental_uris":{"android":"levelo://app?vid=b321c683-9d5f-4212-92b6-be44b3a1e7d9","ios":"levelo://app?vid=b321c683-9d5f-4212-92b6-be44b3a1e7d9"},"vehicle_type_id":"4","last_reported":1703153253,"current_range_meters":10800,"station_id":"ce4bgt12rcd13ifvqcd0","pricing_plan_id":"free"},{"bike_id":"0e238ddf-9134-4a30-9f2e-329343fa06cb","system_id":"levelo_inurba_marseille","lat":43.314811,"lon":5.373104,"is_reserved":false,"is_disabled":false,"rental_uris":{"android":"levelo://app?vid=0e238ddf-9134-4a30-9f2e-329343fa06cb","ios":"levelo://app?vid=0e238ddf-9134-4a30-9f2e-329343fa06cb"},"vehicle_type_id":"4","last_reported":1703153253,"current_range_meters":22400,"station_id":"ce4bgt12rcd13ifvqcd0","pricing_plan_id":"free"},{"bike_id":"505c470e-2f6a-47b1-ace3-3470b4380ab1","system_id":"levelo_inurba_marseille","lat":43.309039,"lon":5.371797,"is_reserved":false,"is_disabled":false,"rental_uris":{"android":"levelo://app?vid=505c470e-2f6a-47b1-ace3-3470b4380ab1","ios":"levelo://app?vid=505c470e-2f6a-47b1-ace3-3470b4380ab1"},"vehicle_type_id":"4","last_reported":1703153253,"current_range_meters":22800,"station_id":"ce4bguh2rcd13ifvqckg","pricing_plan_id":"free"},{"bike_id":"1b5649e3-7852-4147-b5ea-041770351b7c","system_id":"levelo_inurba_marseille","lat":43.309039,"lon":5.371797,"is_reserved":false,"is_disabled":false,"rental_uris":{"android":"levelo://app?vid=1b5649e3-7852-4147-b5ea-041770351b7c","ios":"levelo://app?vid=1b5649e3-7852-4147-b5ea-041770351b7c"},"vehicle_type_id":"4","last_reported":1703153253,"current_range_meters":16400,"station_id":"ce4bguh2rcd13ifvqckg","pricing_plan_id":"free"},{"bike_id":"59e36ea4-c803-480a-b568-594e51839d20","system_id":"levelo_inurba_marseille","lat":43.305712,"lon":5.365641,"is_reserved":false,"is_disabled":false,"rental_uris":{"android":"levelo://app?vid=59e36ea4-c803-480a-b568-594e51839d20","ios":"levelo://app?vid=59e36ea4-c803-480a-b568-594e51839d20"},"vehicle_type_id":"4","last_reported":1703153253,"current_range_meters":5200,"station_id":"ce4bgs12rcd13ifvqcag","pricing_plan_id":"free"},{"bike_id":"b87b8b04-bef8-4c5b-bf75-485a75de5ade","system_id":"levelo_inurba_marseille","lat":43.30554,"lon":5.36564,"is_reserved":false,"is_disabled":false,"rental_uris":{"android":"levelo://app?vid=b87b8b04-bef8-4c5b-bf75-485a75de5ade","ios":"levelo://app?vid=b87b8b04-bef8-4c5b-bf75-485a75de5ade"},"vehicle_type_id":"4","last_reported":1703153253,"current_range_meters":10400,"station_id":"ce4bgs12rcd13ifvqcag","pricing_plan_id":"free"},{"bike_id":"2c7b1a1a-f67e-4633-93bf-2bcd60210142","system_id":"levelo_inurba_marseille","lat":43.305712,"lon":5.365641,"is_reserved":false,"is_disabled":false,"rental_uris":{"android":"levelo://app?vid=2c7b1a1a-f67e-4633-93bf-2bcd60210142","ios":"levelo://app?vid=2c7b1a1a-f67e-4633-93bf-2bcd60210142"},"vehicle_type_id":"4","last_reported":1703153253,"current_range_meters":28000,"station_id":"ce4bgs12rcd13ifvqcag","pricing_plan_id":"free"},{"bike_id":"52a98006-4d2a-4dde-8525-b5f89dcc2730","system_id":"levelo_inurba_marseille","lat":43.30545,"lon":5.36544,"is_reserved":false,"is_disabled":false,"rental_uris":{"android":"levelo://app?vid=52a98006-4d2a-4dde-8525-b5f89dcc2730","ios":"levelo://app?vid=52a98006-4d2a-4dde-8525-b5f89dcc2730"},"vehicle_type_id":"4","last_reported":1703153253,"current_range_meters":27200,"station_id":"ce4bgs12rcd13ifvqcag","pricing_plan_id":"free"},{"bike_id":"fe80f499-d3e7-4d1b-a2b6-4a40abf436eb","system_id":"levelo_inurba_marseille","lat":43.30545,"lon":5.36535,"is_reserved":false,"is_disabled":false,"rental_uris":{"android":"levelo://app?vid=fe80f499-d3e7-4d1b-a2b6-4a40abf436eb","ios":"levelo://app?vid=fe80f499-d3e7-4d1b-a2b6-4a40abf436eb"},"vehicle_type_id":"4","last_reported":1703153253,"current_range_meters":26800,"station_id":"ce4bgs12rcd13ifvqcag","pricing_plan_id":"free"},{"bike_id":"24198953-b0c1-48a6-b109-5f6c5958ea32","system_id":"levelo_inurba_marseille","lat":43.305706,"lon":5.365654,"is_reserved":false,"is_disabled":false,"rental_uris":{"android":"levelo://app?vid=24198953-b0c1-48a6-b109-5f6c5958ea32","ios":"levelo://app?vid=24198953-b0c1-48a6-b109-5f6c5958ea32"},"vehicle_type_id":"4","last_reported":1703153253,"current_range_meters":26000,"station_id":"ce4bgs12rcd13ifvqcag","pricing_plan_id":"free"},{"bike_id":"18672d5e-f9bb-40e8-a923-88ead7711b37","system_id":"levelo_inurba_marseille","lat":43.30543,"lon":5.36533,"is_reserved":false,"is_disabled":false,"rental_uris":{"android":"levelo://app?vid=18672d5e-f9bb-40e8-a923-88ead7711b37","ios":"levelo://app?vid=18672d5e-f9bb-40e8-a923-88ead7711b37"},"vehicle_type_id":"4","last_reported":1703153253,"current_range_meters":16000,"station_id":"ce4bgs12rcd13ifvqcag","pricing_plan_id":"free"},{"bike_id":"66ac1ea2-fcef-450e-b7c1-042b07579489","system_id":"levelo_inurba_marseille","lat":43.305408,"lon":5.365495,"is_reserved":false,"is_disabled":false,"rental_uris":{"android":"levelo://app?vid=66ac1ea2-fcef-450e-b7c1-042b07579489","ios":"levelo://app?vid=66ac1ea2-fcef-450e-b7c1-042b07579489"},"vehicle_type_id":"4","last_reported":1703153253,"current_range_meters":28400,"station_id":"","pricing_plan_id":"free"},{"bike_id":"3b889af7-a29d-437b-9dae-21d150b3c58a","system_id":"levelo_inurba_marseille","lat":43.305413,"lon":5.365289,"is_reserved":false,"is_disabled":false,"rental_uris":{"android":"levelo://app?vid=3b889af7-a29d-437b-9dae-21d150b3c58a","ios":"levelo://app?vid=3b889af7-a29d-437b-9dae-21d150b3c58a"},"vehicle_type_id":"4","last_reported":1703153253,"current_range_meters":27600,"station_id":"ce4bgs12rcd13ifvqcag","pricing_plan_id":"free"},{"bike_id":"e4651f1c-0e33-4d3a-a2f4-4fe670884c1e","system_id":"levelo_inurba_marseille","lat":43.305368,"lon":5.367343,"is_reserved":false,"is_disabled":false,"rental_uris":{"android":"levelo://app?vid=e4651f1c-0e33-4d3a-a2f4-4fe670884c1e","ios":"levelo://app?vid=e4651f1c-0e33-4d3a-a2f4-4fe670884c1e"},"vehicle_type_id":"4","last_reported":1703153253,"current_range_meters":10400,"station_id":"ce4bgrp2rcd13ifvqc9g","pricing_plan_id":"free"},{"bike_id":"dd599d87-7d52-4f2c-b497-8e6d09d8ff46","system_id":"levelo_inurba_marseille","lat":43.305706,"lon":5.365654,"is_reserved":false,"is_disabled":false,"rental_uris":{"android":"levelo://app?vid=dd599d87-7d52-4f2c-b497-8e6d09d8ff46","ios":"levelo://app?vid=dd599d87-7d52-4f2c-b497-8e6d09d8ff46"},"vehicle_type_id":"4","last_reported":1703153253,"current_range_meters":4400,"station_id":"ce4bgs12rcd13ifvqcag","pricing_plan_id":"free"},{"bike_id":"df6ecf27-7acf-48c7-a1f8-cd5fedd3b785","system_id":"levelo_inurba_marseille","lat":43.305706,"lon":5.365654,"is_reserved":false,"is_disabled":false,"rental_uris":{"android":"levelo://app?vid=df6ecf27-7acf-48c7-a1f8-cd5fedd3b785","ios":"levelo://app?vid=df6ecf27-7acf-48c7-a1f8-cd5fedd3b785"},"vehicle_type_id":"4","last_reported":1703153253,"current_range_meters":21200,"station_id":"ce4bgs12rcd13ifvqcag","pricing_plan_id":"free"},{"bike_id":"2bd707cd-b871-4078-a3bf-6e5d985e7b45","system_id":"levelo_inurba_marseille","lat":43.305706,"lon":5.365654,"is_reserved":false,"is_disabled":false,"rental_uris":{"android":"levelo://app?vid=2bd707cd-b871-4078-a3bf-6e5d985e7b45","ios":"levelo://app?vid=2bd707cd-b871-4078-a3bf-6e5d985e7b45"},"vehicle_type_id":"4","last_reported":1703153253,"current_range_meters":31200,"station_id":"ce4bgs12rcd13ifvqcag","pricing_plan_id":"free"},{"bike_id":"00025df9-d908-4484-89e5-3b00ebffb2ad","system_id":"levelo_inurba_marseille","lat":43.305706,"lon":5.365654,"is_reserved":false,"is_disabled":false,"rental_uris":{"android":"levelo://app?vid=00025df9-d908-4484-89e5-3b00ebffb2ad","ios":"levelo://app?vid=00025df9-d908-4484-89e5-3b00ebffb2ad"},"vehicle_type_id":"4","last_reported":1703153253,"current_range_meters":9600,"station_id":"ce4bgs12rcd13ifvqcag","pricing_plan_id":"free"},{"bike_id":"dae571e3-c946-40a6-8a1a-93d1dcdc2ca0","system_id":"levelo_inurba_marseille","lat":43.305706,"lon":5.365654,"is_reserved":false,"is_disabled":false,"rental_uris":{"android":"levelo://app?vid=dae571e3-c946-40a6-8a1a-93d1dcdc2ca0","ios":"levelo://app?vid=dae571e3-c946-40a6-8a1a-93d1dcdc2ca0"},"vehicle_type_id":"4","last_reported":1703153253,"current_range_meters":26800,"station_id":"ce4bgs12rcd13ifvqcag","pricing_plan_id":"free"},{"bike_id":"a70a89dd-b8bf-4888-9b25-af4f2896cb63","system_id":"levelo_inurba_marseille","lat":43.305706,"lon":5.365654,"is_reserved":false,"is_disabled":false,"rental_uris":{"android":"levelo://app?vid=a70a89dd-b8bf-4888-9b25-af4f2896cb63","ios":"levelo://app?vid=a70a89dd-b8bf-4888-9b25-af4f2896cb63"},"vehicle_type_id":"4","last_reported":1703153253,"current_range_meters":6400,"station_id":"ce4bgs12rcd13ifvqcag","pricing_plan_id":"free"},{"bike_id":"c9d0122a-6b42-40f5-97c4-0904d724d9ec","system_id":"levelo_inurba_marseille","lat":43.305706,"lon":5.365654,"is_reserved":false,"is_disabled":false,"rental_uris":{"android":"levelo://app?vid=c9d0122a-6b42-40f5-97c4-0904d724d9ec","ios":"levelo://app?vid=c9d0122a-6b42-40f5-97c4-0904d724d9ec"},"vehicle_type_id":"4","last_reported":1703153253,"current_range_meters":25200,"station_id":"ce4bgs12rcd13ifvqcag","pricing_plan_id":"free"},{"bike_id":"18171d1a-eaa0-403c-8f6e-6cd57e374d11","system_id":"levelo_inurba_marseille","lat":43.305706,"lon":5.365654,"is_reserved":false,"is_disabled":false,"rental_uris":{"android":"levelo://app?vid=18171d1a-eaa0-403c-8f6e-6cd57e374d11","ios":"levelo://app?vid=18171d1a-eaa0-403c-8f6e-6cd57e374d11"},"vehicle_type_id":"4","last_reported":1703153253,"current_range_meters":25200,"station_id":"ce4bgs12rcd13ifvqcag","pricing_plan_id":"free"},{"bike_id":"9d46b7a0-b3f2-4495-a8a2-61cf6a2662f1","system_id":"levelo_inurba_marseille","lat":43.305706,"lon":5.365654,"is_reserved":false,"is_disabled":false,"rental_uris":{"android":"levelo://app?vid=9d46b7a0-b3f2-4495-a8a2-61cf6a2662f1","ios":"levelo://app?vid=9d46b7a0-b3f2-4495-a8a2-61cf6a2662f1"},"vehicle_type_id":"4","last_reported":1703153253,"current_range_meters":28800,"station_id":"ce4bgs12rcd13ifvqcag","pricing_plan_id":"free"},{"bike_id":"dbed54b7-24b8-410f-96e1-acc1e1eb8e42","system_id":"levelo_inurba_marseille","lat":43.305706,"lon":5.365654,"is_reserved":false,"is_disabled":false,"rental_uris":{"android":"levelo://app?vid=dbed54b7-24b8-410f-96e1-acc1e1eb8e42","ios":"levelo://app?vid=dbed54b7-24b8-410f-96e1-acc1e1eb8e42"},"vehicle_type_id":"4","last_reported":1703153253,"current_range_meters":31200,"station_id":"ce4bgs12rcd13ifvqcag","pricing_plan_id":"free"},{"bike_id":"050bfe0c-b808-4e2a-9c86-cbdf75f3f244","system_id":"levelo_inurba_marseille","lat":43.30609,"lon":5.37223,"is_reserved":false,"is_disabled":false,"rental_uris":{"android":"levelo://app?vid=050bfe0c-b808-4e2a-9c86-cbdf75f3f244","ios":"levelo://app?vid=050bfe0c-b808-4e2a-9c86-cbdf75f3f244"},"vehicle_type_id":"4","last_reported":1703153253,"current_range_meters":23600,"station_id":"ce4bgqh2rcd13ifvqc4g","pricing_plan_id":"free"},{"bike_id":"88e959fa-ae45-47e7-aeaa-95a5bb4dfb42","system_id":"levelo_inurba_marseille","lat":43.305986,"lon":5.372176,"is_reserved":false,"is_disabled":false,"rental_uris":{"android":"levelo://app?vid=88e959fa-ae45-47e7-aeaa-95a5bb4dfb42","ios":"levelo://app?vid=88e959fa-ae45-47e7-aeaa-95a5bb4dfb42"},"vehicle_type_id":"4","last_reported":1703153253,"current_range_meters":23200,"station_id":"ce4bgqh2rcd13ifvqc4g","pricing_plan_id":"free"},{"bike_id":"3ef0e40a-eccd-4756-a095-e0118df5a9c7","system_id":"levelo_inurba_marseille","lat":43.305984,"lon":5.372377,"is_reserved":false,"is_disabled":false,"rental_uris":{"android":"levelo://app?vid=3ef0e40a-eccd-4756-a095-e0118df5a9c7","ios":"levelo://app?vid=3ef0e40a-eccd-4756-a095-e0118df5a9c7"},"vehicle_type_id":"4","last_reported":1703153253,"current_range_meters":2000,"station_id":"ce4bgqh2rcd13ifvqc4g","pricing_plan_id":"free"},{"bike_id":"390652b0-9429-4a84-8dc0-486275ae3e7b","system_id":"levelo_inurba_marseille","lat":43.311131,"lon":5.377651,"is_reserved":false,"is_disabled":false,"rental_uris":{"android":"levelo://app?vid=390652b0-9429-4a84-8dc0-486275ae3e7b","ios":"levelo://app?vid=390652b0-9429-4a84-8dc0-486275ae3e7b"},"vehicle_type_id":"4","last_reported":1703153253,"current_range_meters":13600,"station_id":"ce4bgt92rcd13ifvqcg0","pricing_plan_id":"free"},{"bike_id":"3942969e-b612-401c-8e3f-a1da6c1ac677","system_id":"levelo_inurba_marseille","lat":43.307945,"lon":5.376487,"is_reserved":false,"is_disabled":false,"rental_uris":{"android":"levelo://app?vid=3942969e-b612-401c-8e3f-a1da6c1ac677","ios":"levelo://app?vid=3942969e-b612-401c-8e3f-a1da6c1ac677"},"vehicle_type_id":"4","last_reported":1703153253,"current_range_meters":29200,"station_id":"ce4bgv92rcd13ifvqcq0","pricing_plan_id":"free"},{"bike_id":"beffe9a6-5b0c-49cd-8453-11e5acfbc908","system_id":"levelo_inurba_marseille","lat":43.30304,"lon":5.368987,"is_reserved":false,"is_disabled":false,"rental_uris":{"android":"levelo://app?vid=beffe9a6-5b0c-49cd-8453-11e5acfbc908","ios":"levelo://app?vid=beffe9a6-5b0c-49cd-8453-11e5acfbc908"},"vehicle_type_id":"4","last_reported":1703153253,"current_range_meters":27600,"station_id":"ce4bgqh2rcd13ifvqc5g","pricing_plan_id":"free"},{"bike_id":"fdbb2e69-f82b-4755-8789-630010dff82e","system_id":"levelo_inurba_marseille","lat":43.303046,"lon":5.368981,"is_reserved":false,"is_disabled":false,"rental_uris":{"android":"levelo://app?vid=fdbb2e69-f82b-4755-8789-630010dff82e","ios":"levelo://app?vid=fdbb2e69-f82b-4755-8789-630010dff82e"},"vehicle_type_id":"4","last_reported":1703153253,"current_range_meters":3200,"station_id":"ce4bgqh2rcd13ifvqc5g","pricing_plan_id":"free"},{"bike_id":"bc2c7bf7-22be-4f94-87bc-06a35545ca4f","system_id":"levelo_inurba_marseille","lat":43.303046,"lon":5.368981,"is_reserved":false,"is_disabled":false,"rental_uris":{"android":"levelo://app?vid=bc2c7bf7-22be-4f94-87bc-06a35545ca4f","ios":"levelo://app?vid=bc2c7bf7-22be-4f94-87bc-06a35545ca4f"},"vehicle_type_id":"4","last_reported":1703153253,"current_range_meters":16000,"station_id":"ce4bgqh2rcd13ifvqc5g","pricing_plan_id":"free"},{"bike_id":"30e69e6c-5242-4fb1-9e0a-ea7820443125","system_id":"levelo_inurba_marseille","lat":43.304606,"lon":5.379026,"is_reserved":false,"is_disabled":false,"rental_uris":{"android":"levelo://app?vid=30e69e6c-5242-4fb1-9e0a-ea7820443125","ios":"levelo://app?vid=30e69e6c-5242-4fb1-9e0a-ea7820443125"},"vehicle_type_id":"4","last_reported":1703153253,"current_range_meters":19600,"station_id":"ce4bgup2rcd13ifvqcn0","pricing_plan_id":"free"},{"bike_id":"abeeabca-7195-4931-b304-1f3f4de24e06","system_id":"levelo_inurba_marseille","lat":43.304606,"lon":5.379026,"is_reserved":false,"is_disabled":false,"rental_uris":{"android":"levelo://app?vid=abeeabca-7195-4931-b304-1f3f4de24e06","ios":"levelo://app?vid=abeeabca-7195-4931-b304-1f3f4de24e06"},"vehicle_type_id":"4","last_reported":1703153253,"current_range_meters":17600,"station_id":"ce4bgup2rcd13ifvqcn0","pricing_plan_id":"free"},{"bike_id":"c8511e9d-5f62-4adb-8fe0-4a8897be5186","system_id":"levelo_inurba_marseille","lat":43.302784,"lon":5.377158,"is_reserved":false,"is_disabled":false,"rental_uris":{"android":"levelo://app?vid=c8511e9d-5f62-4adb-8fe0-4a8897be5186","ios":"levelo://app?vid=c8511e9d-5f62-4adb-8fe0-4a8897be5186"},"vehicle_type_id":"4","last_reported":1703153253,"current_range_meters":24800,"station_id":"ce4bguh2rcd13ifvqcj0","pricing_plan_id":"free"},{"bike_id":"a6937c53-5e9c-46dc-81f5-55c014975955","system_id":"levelo_inurba_marseille","lat":43.301429,"lon":5.37413,"is_reserved":false,"is_disabled":false,"rental_uris":{"android":"levelo://app?vid=a6937c53-5e9c-46dc-81f5-55c014975955","ios":"levelo://app?vid=a6937c53-5e9c-46dc-81f5-55c014975955"},"vehicle_type_id":"4","last_reported":1703153253,"current_range_meters":25600,"station_id":"ce4bgs92rcd13ifvqcc0","pricing_plan_id":"free"},{"bike_id":"ad0dedf2-0cd4-4d6b-9ecb-d240001f99ef","system_id":"levelo_inurba_marseille","lat":43.319935,"lon":5.381699,"is_reserved":false,"is_disabled":false,"rental_uris":{"android":"levelo://app?vid=ad0dedf2-0cd4-4d6b-9ecb-d240001f99ef","ios":"levelo://app?vid=ad0dedf2-0cd4-4d6b-9ecb-d240001f99ef"},"vehicle_type_id":"4","last_reported":1703153253,"current_range_meters":0,"station_id":"ce4bhr12rcd13ifvqhpg","pricing_plan_id":"free"},{"bike_id":"bf29f302-2dda-4aeb-bd7f-38d08e28933e","system_id":"levelo_inurba_marseille","lat":43.320005,"lon":5.381601,"is_reserved":false,"is_disabled":false,"rental_uris":{"android":"levelo://app?vid=bf29f302-2dda-4aeb-bd7f-38d08e28933e","ios":"levelo://app?vid=bf29f302-2dda-4aeb-bd7f-38d08e28933e"},"vehicle_type_id":"4","last_reported":1703153253,"current_range_meters":10800,"station_id":"ce4bhr12rcd13ifvqhpg","pricing_plan_id":"free"},{"bike_id":"6b0fd6a7-41e8-4f30-8960-d776169f590f","system_id":"levelo_inurba_marseille","lat":43.313571,"lon":5.384829,"is_reserved":false,"is_disabled":false,"rental_uris":{"android":"levelo://app?vid=6b0fd6a7-41e8-4f30-8960-d776169f590f","ios":"levelo://app?vid=6b0fd6a7-41e8-4f30-8960-d776169f590f"},"vehicle_type_id":"4","last_reported":1703153253,"current_range_meters":8000,"station_id":"ce4bgt92rcd13ifvqcf0","pricing_plan_id":"free"},{"bike_id":"343eb495-173c-4aa7-b874-0b7649e6bb44","system_id":"levelo_inurba_marseille","lat":43.299222,"lon":5.365554,"is_reserved":false,"is_disabled":false,"rental_uris":{"android":"levelo://app?vid=343eb495-173c-4aa7-b874-0b7649e6bb44","ios":"levelo://app?vid=343eb495-173c-4aa7-b874-0b7649e6bb44"},"vehicle_type_id":"4","last_reported":1703153253,"current_range_meters":20400,"station_id":"ce4bgm92rcd13ifvqbr0","pricing_plan_id":"free"},{"bike_id":"1c0b6e66-593e-458f-8832-9c7af123625c","system_id":"levelo_inurba_marseille","lat":43.30317,"lon":5.3804,"is_reserved":false,"is_disabled":false,"rental_uris":{"android":"levelo://app?vid=1c0b6e66-593e-458f-8832-9c7af123625c","ios":"levelo://app?vid=1c0b6e66-593e-458f-8832-9c7af123625c"},"vehicle_type_id":"4","last_reported":1703153253,"current_range_meters":3200,"station_id":"","pricing_plan_id":"free"},{"bike_id":"61fe64d6-24c8-437c-9018-bd95516545e7","system_id":"levelo_inurba_marseille","lat":43.298433,"lon":5.362774,"is_reserved":false,"is_disabled":false,"rental_uris":{"android":"levelo://app?vid=61fe64d6-24c8-437c-9018-bd95516545e7","ios":"levelo://app?vid=61fe64d6-24c8-437c-9018-bd95516545e7"},"vehicle_type_id":"4","last_reported":1703153253,"current_range_meters":29200,"station_id":"ce4bgpp2rcd13ifvqc3g","pricing_plan_id":"free"},{"bike_id":"c925f688-a169-49cc-918f-b6ffd294a4c1","system_id":"levelo_inurba_marseille","lat":43.298433,"lon":5.362774,"is_reserved":false,"is_disabled":false,"rental_uris":{"android":"levelo://app?vid=c925f688-a169-49cc-918f-b6ffd294a4c1","ios":"levelo://app?vid=c925f688-a169-49cc-918f-b6ffd294a4c1"},"vehicle_type_id":"4","last_reported":1703153253,"current_range_meters":21600,"station_id":"ce4bgpp2rcd13ifvqc3g","pricing_plan_id":"free"},{"bike_id":"fb5fd907-460c-4a25-a1e4-884547970c49","system_id":"levelo_inurba_marseille","lat":43.298433,"lon":5.362774,"is_reserved":false,"is_disabled":false,"rental_uris":{"android":"levelo://app?vid=fb5fd907-460c-4a25-a1e4-884547970c49","ios":"levelo://app?vid=fb5fd907-460c-4a25-a1e4-884547970c49"},"vehicle_type_id":"4","last_reported":1703153253,"current_range_meters":5200,"station_id":"ce4bgpp2rcd13ifvqc3g","pricing_plan_id":"free"},{"bike_id":"78875150-d64f-42db-96cf-da81ea826daa","system_id":"levelo_inurba_marseille","lat":43.298433,"lon":5.362774,"is_reserved":false,"is_disabled":false,"rental_uris":{"android":"levelo://app?vid=78875150-d64f-42db-96cf-da81ea826daa","ios":"levelo://app?vid=78875150-d64f-42db-96cf-da81ea826daa"},"vehicle_type_id":"4","last_reported":1703153253,"current_range_meters":18800,"station_id":"ce4bgpp2rcd13ifvqc3g","pricing_plan_id":"free"},{"bike_id":"db4fffcc-d7f7-42b8-8946-844d8963797e","system_id":"levelo_inurba_marseille","lat":43.298433,"lon":5.362774,"is_reserved":false,"is_disabled":false,"rental_uris":{"android":"levelo://app?vid=db4fffcc-d7f7-42b8-8946-844d8963797e","ios":"levelo://app?vid=db4fffcc-d7f7-42b8-8946-844d8963797e"},"vehicle_type_id":"4","last_reported":1703153253,"current_range_meters":24000,"station_id":"ce4bgpp2rcd13ifvqc3g","pricing_plan_id":"free"},{"bike_id":"5ca98104-24b2-455c-8f19-d9b779affa9a","system_id":"levelo_inurba_marseille","lat":43.299243,"lon":5.37481,"is_reserved":false,"is_disabled":false,"rental_uris":{"android":"levelo://app?vid=5ca98104-24b2-455c-8f19-d9b779affa9a","ios":"levelo://app?vid=5ca98104-24b2-455c-8f19-d9b779affa9a"},"vehicle_type_id":"4","last_reported":1703153253,"current_range_meters":10000,"station_id":"ce4bgjh2rcd13ifvqbg0","pricing_plan_id":"free"},{"bike_id":"c5118001-5503-44fb-9b93-85a6ac8d8747","system_id":"levelo_inurba_marseille","lat":43.298433,"lon":5.362774,"is_reserved":false,"is_disabled":false,"rental_uris":{"android":"levelo://app?vid=c5118001-5503-44fb-9b93-85a6ac8d8747","ios":"levelo://app?vid=c5118001-5503-44fb-9b93-85a6ac8d8747"},"vehicle_type_id":"4","last_reported":1703153253,"current_range_meters":24800,"station_id":"ce4bgpp2rcd13ifvqc3g","pricing_plan_id":"free"},{"bike_id":"c22e4b9f-ba20-4a7c-a7c8-fd0a73d903e0","system_id":"levelo_inurba_marseille","lat":43.32829,"lon":5.36684,"is_reserved":false,"is_disabled":false,"rental_uris":{"android":"levelo://app?vid=c22e4b9f-ba20-4a7c-a7c8-fd0a73d903e0","ios":"levelo://app?vid=c22e4b9f-ba20-4a7c-a7c8-fd0a73d903e0"},"vehicle_type_id":"4","last_reported":1703153253,"current_range_meters":19600,"station_id":"ce4bhs92rcd13ifvqi0g","pricing_plan_id":"free"},{"bike_id":"eb8ebe7d-6983-4780-997c-9447c3c0c6e2","system_id":"levelo_inurba_marseille","lat":43.3283,"lon":5.3668,"is_reserved":false,"is_disabled":false,"rental_uris":{"android":"levelo://app?vid=eb8ebe7d-6983-4780-997c-9447c3c0c6e2","ios":"levelo://app?vid=eb8ebe7d-6983-4780-997c-9447c3c0c6e2"},"vehicle_type_id":"4","last_reported":1703153253,"current_range_meters":25200,"station_id":"ce4bhs92rcd13ifvqi0g","pricing_plan_id":"free"},{"bike_id":"c12df297-168e-4ca3-95d9-a300ff1ffbd9","system_id":"levelo_inurba_marseille","lat":43.328371,"lon":5.366909,"is_reserved":false,"is_disabled":false,"rental_uris":{"android":"levelo://app?vid=c12df297-168e-4ca3-95d9-a300ff1ffbd9","ios":"levelo://app?vid=c12df297-168e-4ca3-95d9-a300ff1ffbd9"},"vehicle_type_id":"4","last_reported":1703153253,"current_range_meters":25600,"station_id":"ce4bhs92rcd13ifvqi0g","pricing_plan_id":"free"},{"bike_id":"7b61e578-eb09-4c42-8536-5cf1eb9d1ca6","system_id":"levelo_inurba_marseille","lat":43.328334,"lon":5.366779,"is_reserved":false,"is_disabled":false,"rental_uris":{"android":"levelo://app?vid=7b61e578-eb09-4c42-8536-5cf1eb9d1ca6","ios":"levelo://app?vid=7b61e578-eb09-4c42-8536-5cf1eb9d1ca6"},"vehicle_type_id":"4","last_reported":1703153253,"current_range_meters":30000,"station_id":"ce4bhs92rcd13ifvqi0g","pricing_plan_id":"free"},{"bike_id":"d43a8e71-21a6-440f-82cc-35ff68a20e43","system_id":"levelo_inurba_marseille","lat":43.297163,"lon":5.365866,"is_reserved":false,"is_disabled":false,"rental_uris":{"android":"levelo://app?vid=d43a8e71-21a6-440f-82cc-35ff68a20e43","ios":"levelo://app?vid=d43a8e71-21a6-440f-82cc-35ff68a20e43"},"vehicle_type_id":"4","last_reported":1703153253,"current_range_meters":22400,"station_id":"ce4bgn12rcd13ifvqbt0","pricing_plan_id":"free"},{"bike_id":"48370266-6af5-49bb-b6b9-b15663d93bb7","system_id":"levelo_inurba_marseille","lat":43.296131,"lon":5.370773,"is_reserved":false,"is_disabled":false,"rental_uris":{"android":"levelo://app?vid=48370266-6af5-49bb-b6b9-b15663d93bb7","ios":"levelo://app?vid=48370266-6af5-49bb-b6b9-b15663d93bb7"},"vehicle_type_id":"4","last_reported":1703153253,"current_range_meters":26400,"station_id":"ce4bgnh2rcd13ifvqc0g","pricing_plan_id":"free"},{"bike_id":"be16ab84-d79b-433f-a7d6-5e19b15d666a","system_id":"levelo_inurba_marseille","lat":43.296131,"lon":5.370791,"is_reserved":false,"is_disabled":false,"rental_uris":{"android":"levelo://app?vid=be16ab84-d79b-433f-a7d6-5e19b15d666a","ios":"levelo://app?vid=be16ab84-d79b-433f-a7d6-5e19b15d666a"},"vehicle_type_id":"4","last_reported":1703153253,"current_range_meters":15200,"station_id":"ce4bgnh2rcd13ifvqc0g","pricing_plan_id":"free"},{"bike_id":"163988a3-41f6-4d6c-a888-a9aa863bff1c","system_id":"levelo_inurba_marseille","lat":43.29573,"lon":5.367355,"is_reserved":false,"is_disabled":false,"rental_uris":{"android":"levelo://app?vid=163988a3-41f6-4d6c-a888-a9aa863bff1c","ios":"levelo://app?vid=163988a3-41f6-4d6c-a888-a9aa863bff1c"},"vehicle_type_id":"4","last_reported":1703153253,"current_range_meters":25600,"station_id":"ce4bgph2rcd13ifvqc2g","pricing_plan_id":"free"},{"bike_id":"5d7b3623-b702-41f1-bbc7-ff654209b606","system_id":"levelo_inurba_marseille","lat":43.299028,"lon":5.381509,"is_reserved":false,"is_disabled":false,"rental_uris":{"android":"levelo://app?vid=5d7b3623-b702-41f1-bbc7-ff654209b606","ios":"levelo://app?vid=5d7b3623-b702-41f1-bbc7-ff654209b606"},"vehicle_type_id":"4","last_reported":1703153253,"current_range_meters":30400,"station_id":"ce4bgj12rcd13ifvqbc0","pricing_plan_id":"free"},{"bike_id":"51ba9639-b64c-42c9-b90e-caff3fee671a","system_id":"levelo_inurba_marseille","lat":43.309589,"lon":5.390258,"is_reserved":false,"is_disabled":false,"rental_uris":{"android":"levelo://app?vid=51ba9639-b64c-42c9-b90e-caff3fee671a","ios":"levelo://app?vid=51ba9639-b64c-42c9-b90e-caff3fee671a"},"vehicle_type_id":"4","last_reported":1703153253,"current_range_meters":25600,"station_id":"ce4bgup2rcd13ifvqco0","pricing_plan_id":"free"},{"bike_id":"eed99caa-cbb5-480c-867c-ed752e7cd20f","system_id":"levelo_inurba_marseille","lat":43.299028,"lon":5.381509,"is_reserved":false,"is_disabled":false,"rental_uris":{"android":"levelo://app?vid=eed99caa-cbb5-480c-867c-ed752e7cd20f","ios":"levelo://app?vid=eed99caa-cbb5-480c-867c-ed752e7cd20f"},"vehicle_type_id":"4","last_reported":1703153253,"current_range_meters":24800,"station_id":"ce4bgj12rcd13ifvqbc0","pricing_plan_id":"free"},{"bike_id":"634b60a2-c8fc-4a8e-bc59-f7dcd9a5a706","system_id":"levelo_inurba_marseille","lat":43.309589,"lon":5.390258,"is_reserved":false,"is_disabled":false,"rental_uris":{"android":"levelo://app?vid=634b60a2-c8fc-4a8e-bc59-f7dcd9a5a706","ios":"levelo://app?vid=634b60a2-c8fc-4a8e-bc59-f7dcd9a5a706"},"vehicle_type_id":"4","last_reported":1703153253,"current_range_meters":13600,"station_id":"ce4bgup2rcd13ifvqco0","pricing_plan_id":"free"},{"bike_id":"525bcf87-0f04-4168-b202-108d7d02c822","system_id":"levelo_inurba_marseille","lat":43.309589,"lon":5.390258,"is_reserved":false,"is_disabled":false,"rental_uris":{"android":"levelo://app?vid=525bcf87-0f04-4168-b202-108d7d02c822","ios":"levelo://app?vid=525bcf87-0f04-4168-b202-108d7d02c822"},"vehicle_type_id":"4","last_reported":1703153253,"current_range_meters":16800,"station_id":"ce4bgup2rcd13ifvqco0","pricing_plan_id":"free"},{"bike_id":"fdb00479-a75a-48fa-bf7b-6b82619acf43","system_id":"levelo_inurba_marseille","lat":43.30949,"lon":5.39043,"is_reserved":false,"is_disabled":false,"rental_uris":{"android":"levelo://app?vid=fdb00479-a75a-48fa-bf7b-6b82619acf43","ios":"levelo://app?vid=fdb00479-a75a-48fa-bf7b-6b82619acf43"},"vehicle_type_id":"4","last_reported":1703153253,"current_range_meters":22800,"station_id":"ce4bgup2rcd13ifvqco0","pricing_plan_id":"free"},{"bike_id":"26f21f4f-cb36-4d69-8165-7236a8d24435","system_id":"levelo_inurba_marseille","lat":43.309498,"lon":5.390518,"is_reserved":false,"is_disabled":false,"rental_uris":{"android":"levelo://app?vid=26f21f4f-cb36-4d69-8165-7236a8d24435","ios":"levelo://app?vid=26f21f4f-cb36-4d69-8165-7236a8d24435"},"vehicle_type_id":"4","last_reported":1703153253,"current_range_meters":0,"station_id":"ce4bgup2rcd13ifvqco0","pricing_plan_id":"free"},{"bike_id":"8e606007-3923-49a7-994c-21e447089524","system_id":"levelo_inurba_marseille","lat":43.317557,"lon":5.390173,"is_reserved":false,"is_disabled":false,"rental_uris":{"android":"levelo://app?vid=8e606007-3923-49a7-994c-21e447089524","ios":"levelo://app?vid=8e606007-3923-49a7-994c-21e447089524"},"vehicle_type_id":"4","last_reported":1703153253,"current_range_meters":16000,"station_id":"ce4bhqp2rcd13ifvqhng","pricing_plan_id":"free"},{"bike_id":"72bf7720-99a3-4eda-95cc-e15cff72abf7","system_id":"levelo_inurba_marseille","lat":43.298037,"lon":5.381066,"is_reserved":false,"is_disabled":false,"rental_uris":{"android":"levelo://app?vid=72bf7720-99a3-4eda-95cc-e15cff72abf7","ios":"levelo://app?vid=72bf7720-99a3-4eda-95cc-e15cff72abf7"},"vehicle_type_id":"4","last_reported":1703153253,"current_range_meters":400,"station_id":"ce4bgip2rcd13ifvqbb0","pricing_plan_id":"free"},{"bike_id":"25d3f78e-b212-4fae-9379-e93476e75cd3","system_id":"levelo_inurba_marseille","lat":43.29628,"lon":5.3771,"is_reserved":false,"is_disabled":false,"rental_uris":{"android":"levelo://app?vid=25d3f78e-b212-4fae-9379-e93476e75cd3","ios":"levelo://app?vid=25d3f78e-b212-4fae-9379-e93476e75cd3"},"vehicle_type_id":"4","last_reported":1703153253,"current_range_meters":4400,"station_id":"","pricing_plan_id":"free"},{"bike_id":"0d462135-d197-48e3-b903-d99fcfce7c05","system_id":"levelo_inurba_marseille","lat":43.295748,"lon":5.37522,"is_reserved":false,"is_disabled":false,"rental_uris":{"android":"levelo://app?vid=0d462135-d197-48e3-b903-d99fcfce7c05","ios":"levelo://app?vid=0d462135-d197-48e3-b903-d99fcfce7c05"},"vehicle_type_id":"4","last_reported":1703153253,"current_range_meters":10400,"station_id":"ce4bgh92rcd13ifvqb50","pricing_plan_id":"free"},{"bike_id":"e3efcf38-11c4-49c8-9565-a016f4c72a85","system_id":"levelo_inurba_marseille","lat":43.295748,"lon":5.37522,"is_reserved":false,"is_disabled":false,"rental_uris":{"android":"levelo://app?vid=e3efcf38-11c4-49c8-9565-a016f4c72a85","ios":"levelo://app?vid=e3efcf38-11c4-49c8-9565-a016f4c72a85"},"vehicle_type_id":"4","last_reported":1703153253,"current_range_meters":23600,"station_id":"ce4bgh92rcd13ifvqb50","pricing_plan_id":"free"},{"bike_id":"7e7816ab-f88d-4311-a5e7-0708146be000","system_id":"levelo_inurba_marseille","lat":43.298037,"lon":5.381066,"is_reserved":false,"is_disabled":false,"rental_uris":{"android":"levelo://app?vid=7e7816ab-f88d-4311-a5e7-0708146be000","ios":"levelo://app?vid=7e7816ab-f88d-4311-a5e7-0708146be000"},"vehicle_type_id":"4","last_reported":1703153253,"current_range_meters":12800,"station_id":"ce4bgip2rcd13ifvqbb0","pricing_plan_id":"free"},{"bike_id":"a4b02d70-e166-4586-9972-88e5d40fc2cb","system_id":"levelo_inurba_marseille","lat":43.295748,"lon":5.37522,"is_reserved":false,"is_disabled":false,"rental_uris":{"android":"levelo://app?vid=a4b02d70-e166-4586-9972-88e5d40fc2cb","ios":"levelo://app?vid=a4b02d70-e166-4586-9972-88e5d40fc2cb"},"vehicle_type_id":"4","last_reported":1703153253,"current_range_meters":30800,"station_id":"ce4bgh92rcd13ifvqb50","pricing_plan_id":"free"},{"bike_id":"cdb54100-fb71-41bc-89cb-15ed915506cb","system_id":"levelo_inurba_marseille","lat":43.29615,"lon":5.37723,"is_reserved":false,"is_disabled":false,"rental_uris":{"android":"levelo://app?vid=cdb54100-fb71-41bc-89cb-15ed915506cb","ios":"levelo://app?vid=cdb54100-fb71-41bc-89cb-15ed915506cb"},"vehicle_type_id":"4","last_reported":1703153253,"current_range_meters":29600,"station_id":"ce4bgi92rcd13ifvqb90","pricing_plan_id":"free"},{"bike_id":"8c5b3aae-c53e-4e87-bf85-8adf76c79d1f","system_id":"levelo_inurba_marseille","lat":43.296277,"lon":5.377108,"is_reserved":false,"is_disabled":false,"rental_uris":{"android":"levelo://app?vid=8c5b3aae-c53e-4e87-bf85-8adf76c79d1f","ios":"levelo://app?vid=8c5b3aae-c53e-4e87-bf85-8adf76c79d1f"},"vehicle_type_id":"4","last_reported":1703153253,"current_range_meters":28800,"station_id":"ce4bgi92rcd13ifvqb90","pricing_plan_id":"free"},{"bike_id":"730b4b5b-6343-4295-a332-ffa0fa8030dd","system_id":"levelo_inurba_marseille","lat":43.295279,"lon":5.375048,"is_reserved":false,"is_disabled":false,"rental_uris":{"android":"levelo://app?vid=730b4b5b-6343-4295-a332-ffa0fa8030dd","ios":"levelo://app?vid=730b4b5b-6343-4295-a332-ffa0fa8030dd"},"vehicle_type_id":"4","last_reported":1703153253,"current_range_meters":26800,"station_id":"ce4bgkp2rcd13ifvqbmg","pricing_plan_id":"free"},{"bike_id":"5cefa421-9a80-484e-83e9-d58f4d37a93d","system_id":"levelo_inurba_marseille","lat":43.29511,"lon":5.37503,"is_reserved":false,"is_disabled":false,"rental_uris":{"android":"levelo://app?vid=5cefa421-9a80-484e-83e9-d58f4d37a93d","ios":"levelo://app?vid=5cefa421-9a80-484e-83e9-d58f4d37a93d"},"vehicle_type_id":"4","last_reported":1703153253,"current_range_meters":23600,"station_id":"ce4bgkp2rcd13ifvqbmg","pricing_plan_id":"free"},{"bike_id":"39a5a7f1-613e-4ce9-85dc-bf406e7675c4","system_id":"levelo_inurba_marseille","lat":43.32367,"lon":5.388836,"is_reserved":false,"is_disabled":false,"rental_uris":{"android":"levelo://app?vid=39a5a7f1-613e-4ce9-85dc-bf406e7675c4","ios":"levelo://app?vid=39a5a7f1-613e-4ce9-85dc-bf406e7675c4"},"vehicle_type_id":"4","last_reported":1703153253,"current_range_meters":0,"station_id":"ce4bhqp2rcd13ifvqhog","pricing_plan_id":"free"},{"bike_id":"68170004-38e5-4093-87ef-d1865be83be6","system_id":"levelo_inurba_marseille","lat":43.32367,"lon":5.388836,"is_reserved":false,"is_disabled":false,"rental_uris":{"android":"levelo://app?vid=68170004-38e5-4093-87ef-d1865be83be6","ios":"levelo://app?vid=68170004-38e5-4093-87ef-d1865be83be6"},"vehicle_type_id":"4","last_reported":1703153253,"current_range_meters":27200,"station_id":"ce4bhqp2rcd13ifvqhog","pricing_plan_id":"free"},{"bike_id":"c78d68b2-8d00-42ef-ab5a-7e9eebd003da","system_id":"levelo_inurba_marseille","lat":43.293259,"lon":5.371586,"is_reserved":false,"is_disabled":false,"rental_uris":{"android":"levelo://app?vid=c78d68b2-8d00-42ef-ab5a-7e9eebd003da","ios":"levelo://app?vid=c78d68b2-8d00-42ef-ab5a-7e9eebd003da"},"vehicle_type_id":"4","last_reported":1703153253,"current_range_meters":26800,"station_id":"ce4bgh92rcd13ifvqb40","pricing_plan_id":"free"},{"bike_id":"3814010a-f31f-4e62-8055-4aef664d41e6","system_id":"levelo_inurba_marseille","lat":43.292749,"lon":5.368402,"is_reserved":false,"is_disabled":false,"rental_uris":{"android":"levelo://app?vid=3814010a-f31f-4e62-8055-4aef664d41e6","ios":"levelo://app?vid=3814010a-f31f-4e62-8055-4aef664d41e6"},"vehicle_type_id":"4","last_reported":1703153253,"current_range_meters":30000,"station_id":"ce4bhbp2rcd13ifvqesg","pricing_plan_id":"free"},{"bike_id":"9c4a0744-e4d0-4d78-868e-d30da90c2932","system_id":"levelo_inurba_marseille","lat":43.292749,"lon":5.368402,"is_reserved":false,"is_disabled":false,"rental_uris":{"android":"levelo://app?vid=9c4a0744-e4d0-4d78-868e-d30da90c2932","ios":"levelo://app?vid=9c4a0744-e4d0-4d78-868e-d30da90c2932"},"vehicle_type_id":"4","last_reported":1703153253,"current_range_meters":5200,"station_id":"ce4bhbp2rcd13ifvqesg","pricing_plan_id":"free"},{"bike_id":"5c57d638-952c-47dc-9566-9570ce08adfd","system_id":"levelo_inurba_marseille","lat":43.293009,"lon":5.374584,"is_reserved":false,"is_disabled":false,"rental_uris":{"android":"levelo://app?vid=5c57d638-952c-47dc-9566-9570ce08adfd","ios":"levelo://app?vid=5c57d638-952c-47dc-9566-9570ce08adfd"},"vehicle_type_id":"4","last_reported":1703153253,"current_range_meters":27200,"station_id":"ce4bgi12rcd13ifvqb70","pricing_plan_id":"free"},{"bike_id":"a578699c-fb98-407b-ad1b-4410b41112d1","system_id":"levelo_inurba_marseille","lat":43.293009,"lon":5.374584,"is_reserved":false,"is_disabled":false,"rental_uris":{"android":"levelo://app?vid=a578699c-fb98-407b-ad1b-4410b41112d1","ios":"levelo://app?vid=a578699c-fb98-407b-ad1b-4410b41112d1"},"vehicle_type_id":"4","last_reported":1703153253,"current_range_meters":13600,"station_id":"ce4bgi12rcd13ifvqb70","pricing_plan_id":"free"},{"bike_id":"7b4659cc-76df-4c84-a223-48d4c52c7383","system_id":"levelo_inurba_marseille","lat":43.2936,"lon":5.37835,"is_reserved":false,"is_disabled":false,"rental_uris":{"android":"levelo://app?vid=7b4659cc-76df-4c84-a223-48d4c52c7383","ios":"levelo://app?vid=7b4659cc-76df-4c84-a223-48d4c52c7383"},"vehicle_type_id":"4","last_reported":1703153253,"current_range_meters":31200,"station_id":"ce4bgjh2rcd13ifvqbf0","pricing_plan_id":"free"},{"bike_id":"c8de4f12-ea5c-495c-b54d-591cd8c473de","system_id":"levelo_inurba_marseille","lat":43.2936,"lon":5.37835,"is_reserved":false,"is_disabled":false,"rental_uris":{"android":"levelo://app?vid=c8de4f12-ea5c-495c-b54d-591cd8c473de","ios":"levelo://app?vid=c8de4f12-ea5c-495c-b54d-591cd8c473de"},"vehicle_type_id":"4","last_reported":1703153253,"current_range_meters":24400,"station_id":"ce4bgjh2rcd13ifvqbf0","pricing_plan_id":"free"},{"bike_id":"8a50a0f7-af2a-4873-bcbc-6c756c549dc5","system_id":"levelo_inurba_marseille","lat":43.2936,"lon":5.37835,"is_reserved":false,"is_disabled":false,"rental_uris":{"android":"levelo://app?vid=8a50a0f7-af2a-4873-bcbc-6c756c549dc5","ios":"levelo://app?vid=8a50a0f7-af2a-4873-bcbc-6c756c549dc5"},"vehicle_type_id":"4","last_reported":1703153253,"current_range_meters":25600,"station_id":"ce4bgjh2rcd13ifvqbf0","pricing_plan_id":"free"},{"bike_id":"b7aa5273-93e8-49c8-b002-d77d67d15ae6","system_id":"levelo_inurba_marseille","lat":43.2936,"lon":5.37835,"is_reserved":false,"is_disabled":false,"rental_uris":{"android":"levelo://app?vid=b7aa5273-93e8-49c8-b002-d77d67d15ae6","ios":"levelo://app?vid=b7aa5273-93e8-49c8-b002-d77d67d15ae6"},"vehicle_type_id":"4","last_reported":1703153253,"current_range_meters":13600,"station_id":"ce4bgjh2rcd13ifvqbf0","pricing_plan_id":"free"},{"bike_id":"3f18dca7-b455-492b-9ba9-42c2636fef8c","system_id":"levelo_inurba_marseille","lat":43.30085,"lon":5.390856,"is_reserved":false,"is_disabled":false,"rental_uris":{"android":"levelo://app?vid=3f18dca7-b455-492b-9ba9-42c2636fef8c","ios":"levelo://app?vid=3f18dca7-b455-492b-9ba9-42c2636fef8c"},"vehicle_type_id":"4","last_reported":1703153253,"current_range_meters":9600,"station_id":"ce4bh192rcd13ifvqdb0","pricing_plan_id":"free"},{"bike_id":"5f495086-b90a-4330-90b7-b73d292c511d","system_id":"levelo_inurba_marseille","lat":43.29265,"lon":5.37608,"is_reserved":false,"is_disabled":false,"rental_uris":{"android":"levelo://app?vid=5f495086-b90a-4330-90b7-b73d292c511d","ios":"levelo://app?vid=5f495086-b90a-4330-90b7-b73d292c511d"},"vehicle_type_id":"4","last_reported":1703153253,"current_range_meters":24000,"station_id":"","pricing_plan_id":"free"},{"bike_id":"3c68bbaa-112e-4994-92c5-4223311094cc","system_id":"levelo_inurba_marseille","lat":43.29264,"lon":5.37626,"is_reserved":false,"is_disabled":false,"rental_uris":{"android":"levelo://app?vid=3c68bbaa-112e-4994-92c5-4223311094cc","ios":"levelo://app?vid=3c68bbaa-112e-4994-92c5-4223311094cc"},"vehicle_type_id":"4","last_reported":1703153253,"current_range_meters":8000,"station_id":"","pricing_plan_id":"free"},{"bike_id":"2ecc3584-dd18-4533-97ba-067f225c5b3a","system_id":"levelo_inurba_marseille","lat":43.291675,"lon":5.371583,"is_reserved":false,"is_disabled":false,"rental_uris":{"android":"levelo://app?vid=2ecc3584-dd18-4533-97ba-067f225c5b3a","ios":"levelo://app?vid=2ecc3584-dd18-4533-97ba-067f225c5b3a"},"vehicle_type_id":"4","last_reported":1703153253,"current_range_meters":12400,"station_id":"ce4bha92rcd13ifvqeh0","pricing_plan_id":"free"},{"bike_id":"9daf6733-f00b-4f10-981e-433756961b64","system_id":"levelo_inurba_marseille","lat":43.291671,"lon":5.371575,"is_reserved":false,"is_disabled":false,"rental_uris":{"android":"levelo://app?vid=9daf6733-f00b-4f10-981e-433756961b64","ios":"levelo://app?vid=9daf6733-f00b-4f10-981e-433756961b64"},"vehicle_type_id":"4","last_reported":1703153253,"current_range_meters":26400,"station_id":"ce4bha92rcd13ifvqeh0","pricing_plan_id":"free"},{"bike_id":"3b7272af-b5cb-499c-b9ed-921ff6d22785","system_id":"levelo_inurba_marseille","lat":43.291675,"lon":5.371583,"is_reserved":false,"is_disabled":false,"rental_uris":{"android":"levelo://app?vid=3b7272af-b5cb-499c-b9ed-921ff6d22785","ios":"levelo://app?vid=3b7272af-b5cb-499c-b9ed-921ff6d22785"},"vehicle_type_id":"4","last_reported":1703153253,"current_range_meters":5600,"station_id":"ce4bha92rcd13ifvqeh0","pricing_plan_id":"free"},{"bike_id":"87ecc19a-27c7-4954-b558-5febadccf9ac","system_id":"levelo_inurba_marseille","lat":43.313291,"lon":5.396838,"is_reserved":false,"is_disabled":false,"rental_uris":{"android":"levelo://app?vid=87ecc19a-27c7-4954-b558-5febadccf9ac","ios":"levelo://app?vid=87ecc19a-27c7-4954-b558-5febadccf9ac"},"vehicle_type_id":"4","last_reported":1703153253,"current_range_meters":26800,"station_id":"ce4bgvp2rcd13ifvqcu0","pricing_plan_id":"free"},{"bike_id":"41698e1f-4f9b-4628-80b9-66d65f7ce08b","system_id":"levelo_inurba_marseille","lat":43.302008,"lon":5.394694,"is_reserved":false,"is_disabled":false,"rental_uris":{"android":"levelo://app?vid=41698e1f-4f9b-4628-80b9-66d65f7ce08b","ios":"levelo://app?vid=41698e1f-4f9b-4628-80b9-66d65f7ce08b"},"vehicle_type_id":"4","last_reported":1703153253,"current_range_meters":29200,"station_id":"ce4bh0p2rcd13ifvqd70","pricing_plan_id":"free"},{"bike_id":"2fdddbed-74be-4747-91b9-645f4bef026b","system_id":"levelo_inurba_marseille","lat":43.290327,"lon":5.375711,"is_reserved":false,"is_disabled":false,"rental_uris":{"android":"levelo://app?vid=2fdddbed-74be-4747-91b9-645f4bef026b","ios":"levelo://app?vid=2fdddbed-74be-4747-91b9-645f4bef026b"},"vehicle_type_id":"4","last_reported":1703153253,"current_range_meters":13600,"station_id":"ce4bh692rcd13ifvqe90","pricing_plan_id":"free"},{"bike_id":"02609a69-6ac7-4b58-9485-94f92c8c2126","system_id":"levelo_inurba_marseille","lat":43.290327,"lon":5.375711,"is_reserved":false,"is_disabled":false,"rental_uris":{"android":"levelo://app?vid=02609a69-6ac7-4b58-9485-94f92c8c2126","ios":"levelo://app?vid=02609a69-6ac7-4b58-9485-94f92c8c2126"},"vehicle_type_id":"4","last_reported":1703153253,"current_range_meters":19600,"station_id":"ce4bh692rcd13ifvqe90","pricing_plan_id":"free"},{"bike_id":"76ad0d28-e83d-41e4-b37e-933ddecca311","system_id":"levelo_inurba_marseille","lat":43.290327,"lon":5.375711,"is_reserved":false,"is_disabled":false,"rental_uris":{"android":"levelo://app?vid=76ad0d28-e83d-41e4-b37e-933ddecca311","ios":"levelo://app?vid=76ad0d28-e83d-41e4-b37e-933ddecca311"},"vehicle_type_id":"4","last_reported":1703153253,"current_range_meters":6800,"station_id":"ce4bh692rcd13ifvqe90","pricing_plan_id":"free"},{"bike_id":"9bfd433d-af36-4fd3-87e2-2ee76411320e","system_id":"levelo_inurba_marseille","lat":43.294162,"lon":5.386292,"is_reserved":false,"is_disabled":false,"rental_uris":{"android":"levelo://app?vid=9bfd433d-af36-4fd3-87e2-2ee76411320e","ios":"levelo://app?vid=9bfd433d-af36-4fd3-87e2-2ee76411320e"},"vehicle_type_id":"4","last_reported":1703153253,"current_range_meters":15600,"station_id":"ce4bh2h2rcd13ifvqdh0","pricing_plan_id":"free"},{"bike_id":"9a9c06bc-d029-4ed9-af62-3394d29cc88a","system_id":"levelo_inurba_marseille","lat":43.289468,"lon":5.363719,"is_reserved":false,"is_disabled":false,"rental_uris":{"android":"levelo://app?vid=9a9c06bc-d029-4ed9-af62-3394d29cc88a","ios":"levelo://app?vid=9a9c06bc-d029-4ed9-af62-3394d29cc88a"},"vehicle_type_id":"4","last_reported":1703153253,"current_range_meters":31200,"station_id":"ce4bhc92rcd13ifvqetg","pricing_plan_id":"free"},{"bike_id":"beb37ad6-2111-41aa-b2be-0d26f98913ce","system_id":"levelo_inurba_marseille","lat":43.289184,"lon":5.366408,"is_reserved":false,"is_disabled":false,"rental_uris":{"android":"levelo://app?vid=beb37ad6-2111-41aa-b2be-0d26f98913ce","ios":"levelo://app?vid=beb37ad6-2111-41aa-b2be-0d26f98913ce"},"vehicle_type_id":"4","last_reported":1703153253,"current_range_meters":25600,"station_id":"ce4bhap2rcd13ifvqek0","pricing_plan_id":"free"},{"bike_id":"8a1ae827-a741-40db-90e3-ad04c324087d","system_id":"levelo_inurba_marseille","lat":43.289468,"lon":5.363719,"is_reserved":false,"is_disabled":false,"rental_uris":{"android":"levelo://app?vid=8a1ae827-a741-40db-90e3-ad04c324087d","ios":"levelo://app?vid=8a1ae827-a741-40db-90e3-ad04c324087d"},"vehicle_type_id":"4","last_reported":1703153253,"current_range_meters":30800,"station_id":"ce4bhc92rcd13ifvqetg","pricing_plan_id":"free"},{"bike_id":"5f85d6ef-d957-49e7-a148-83ea00db3e32","system_id":"levelo_inurba_marseille","lat":43.292644,"lon":5.384257,"is_reserved":false,"is_disabled":false,"rental_uris":{"android":"levelo://app?vid=5f85d6ef-d957-49e7-a148-83ea00db3e32","ios":"levelo://app?vid=5f85d6ef-d957-49e7-a148-83ea00db3e32"},"vehicle_type_id":"4","last_reported":1703153253,"current_range_meters":31200,"station_id":"ce4bh692rcd13ifvqea0","pricing_plan_id":"free"},{"bike_id":"51125501-2ca0-49ac-a5de-6bdf3a86dafe","system_id":"levelo_inurba_marseille","lat":43.292642,"lon":5.384254,"is_reserved":false,"is_disabled":false,"rental_uris":{"android":"levelo://app?vid=51125501-2ca0-49ac-a5de-6bdf3a86dafe","ios":"levelo://app?vid=51125501-2ca0-49ac-a5de-6bdf3a86dafe"},"vehicle_type_id":"4","last_reported":1703153253,"current_range_meters":19200,"station_id":"ce4bh692rcd13ifvqea0","pricing_plan_id":"free"},{"bike_id":"09a9f170-55cd-4bee-a6ec-b133e8f2e508","system_id":"levelo_inurba_marseille","lat":43.292644,"lon":5.384257,"is_reserved":false,"is_disabled":false,"rental_uris":{"android":"levelo://app?vid=09a9f170-55cd-4bee-a6ec-b133e8f2e508","ios":"levelo://app?vid=09a9f170-55cd-4bee-a6ec-b133e8f2e508"},"vehicle_type_id":"4","last_reported":1703153253,"current_range_meters":26800,"station_id":"ce4bh692rcd13ifvqea0","pricing_plan_id":"free"},{"bike_id":"3f6c47f4-c028-49fb-a799-68414abc5675","system_id":"levelo_inurba_marseille","lat":43.29601,"lon":5.381084,"is_reserved":false,"is_disabled":false,"rental_uris":{"android":"levelo://app?vid=3f6c47f4-c028-49fb-a799-68414abc5675","ios":"levelo://app?vid=3f6c47f4-c028-49fb-a799-68414abc5675"},"vehicle_type_id":"4","last_reported":1703153253,"current_range_meters":16800,"station_id":"ce4bgl12rcd13ifvqbo0","pricing_plan_id":"free"},{"bike_id":"918cfe44-6887-4bcb-84e8-6b9f71abc617","system_id":"levelo_inurba_marseille","lat":43.330442,"lon":5.389148,"is_reserved":false,"is_disabled":false,"rental_uris":{"android":"levelo://app?vid=918cfe44-6887-4bcb-84e8-6b9f71abc617","ios":"levelo://app?vid=918cfe44-6887-4bcb-84e8-6b9f71abc617"},"vehicle_type_id":"4","last_reported":1703153253,"current_range_meters":8400,"station_id":"ce4bhr92rcd13ifvqhrg","pricing_plan_id":"free"},{"bike_id":"96ffbe44-c7d7-4301-962e-3918fe3b15ac","system_id":"levelo_inurba_marseille","lat":43.290995,"lon":5.381361,"is_reserved":false,"is_disabled":false,"rental_uris":{"android":"levelo://app?vid=96ffbe44-c7d7-4301-962e-3918fe3b15ac","ios":"levelo://app?vid=96ffbe44-c7d7-4301-962e-3918fe3b15ac"},"vehicle_type_id":"4","last_reported":1703153253,"current_range_meters":23600,"station_id":"ce4bh512rcd13ifvqe2g","pricing_plan_id":"free"},{"bike_id":"b0726205-46a0-46e2-a34c-ac750a26146f","system_id":"levelo_inurba_marseille","lat":43.290995,"lon":5.381361,"is_reserved":false,"is_disabled":false,"rental_uris":{"android":"levelo://app?vid=b0726205-46a0-46e2-a34c-ac750a26146f","ios":"levelo://app?vid=b0726205-46a0-46e2-a34c-ac750a26146f"},"vehicle_type_id":"4","last_reported":1703153253,"current_range_meters":22400,"station_id":"ce4bh512rcd13ifvqe2g","pricing_plan_id":"free"},{"bike_id":"5df88ea0-2066-40ec-b50c-e0a828a5fd18","system_id":"levelo_inurba_marseille","lat":43.290995,"lon":5.381361,"is_reserved":false,"is_disabled":false,"rental_uris":{"android":"levelo://app?vid=5df88ea0-2066-40ec-b50c-e0a828a5fd18","ios":"levelo://app?vid=5df88ea0-2066-40ec-b50c-e0a828a5fd18"},"vehicle_type_id":"4","last_reported":1703153253,"current_range_meters":28400,"station_id":"ce4bh512rcd13ifvqe2g","pricing_plan_id":"free"},{"bike_id":"c1f46ed4-6755-41f7-b04f-4181afda4695","system_id":"levelo_inurba_marseille","lat":43.29787,"lon":5.39346,"is_reserved":false,"is_disabled":false,"rental_uris":{"android":"levelo://app?vid=c1f46ed4-6755-41f7-b04f-4181afda4695","ios":"levelo://app?vid=c1f46ed4-6755-41f7-b04f-4181afda4695"},"vehicle_type_id":"4","last_reported":1703153253,"current_range_meters":1600,"station_id":"chh1huq6cuj3fo74tm60","pricing_plan_id":"free"},{"bike_id":"7f72854b-6aec-437b-a861-6aabdb818810","system_id":"levelo_inurba_marseille","lat":43.289743,"lon":5.378304,"is_reserved":false,"is_disabled":false,"rental_uris":{"android":"levelo://app?vid=7f72854b-6aec-437b-a861-6aabdb818810","ios":"levelo://app?vid=7f72854b-6aec-437b-a861-6aabdb818810"},"vehicle_type_id":"4","last_reported":1703153253,"current_range_meters":22000,"station_id":"ce4bh9p2rcd13ifvqed0","pricing_plan_id":"free"},{"bike_id":"e16263f8-7a26-4f15-a8a4-1608c58afca1","system_id":"levelo_inurba_marseille","lat":43.2901,"lon":5.381269,"is_reserved":false,"is_disabled":false,"rental_uris":{"android":"levelo://app?vid=e16263f8-7a26-4f15-a8a4-1608c58afca1","ios":"levelo://app?vid=e16263f8-7a26-4f15-a8a4-1608c58afca1"},"vehicle_type_id":"4","last_reported":1703153253,"current_range_meters":12400,"station_id":"ce4bh4p2rcd13ifvqe1g","pricing_plan_id":"free"},{"bike_id":"3f916e0e-46df-4553-81f9-5e51ccad3843","system_id":"levelo_inurba_marseille","lat":43.2901,"lon":5.381269,"is_reserved":false,"is_disabled":false,"rental_uris":{"android":"levelo://app?vid=3f916e0e-46df-4553-81f9-5e51ccad3843","ios":"levelo://app?vid=3f916e0e-46df-4553-81f9-5e51ccad3843"},"vehicle_type_id":"4","last_reported":1703153253,"current_range_meters":15600,"station_id":"ce4bh4p2rcd13ifvqe1g","pricing_plan_id":"free"},{"bike_id":"45022f59-18a3-48f9-ba62-d182df5a217d","system_id":"levelo_inurba_marseille","lat":43.290094,"lon":5.381264,"is_reserved":false,"is_disabled":false,"rental_uris":{"android":"levelo://app?vid=45022f59-18a3-48f9-ba62-d182df5a217d","ios":"levelo://app?vid=45022f59-18a3-48f9-ba62-d182df5a217d"},"vehicle_type_id":"4","last_reported":1703153253,"current_range_meters":24000,"station_id":"ce4bh4p2rcd13ifvqe1g","pricing_plan_id":"free"},{"bike_id":"df513e8f-de44-49df-8541-a5aca624ab21","system_id":"levelo_inurba_marseille","lat":43.28856,"lon":5.358371,"is_reserved":false,"is_disabled":false,"rental_uris":{"android":"levelo://app?vid=df513e8f-de44-49df-8541-a5aca624ab21","ios":"levelo://app?vid=df513e8f-de44-49df-8541-a5aca624ab21"},"vehicle_type_id":"4","last_reported":1703153253,"current_range_meters":16800,"station_id":"ce4bhb12rcd13ifvqem0","pricing_plan_id":"free"},{"bike_id":"8b0ab4c6-2a5c-4a8b-a434-386a78656519","system_id":"levelo_inurba_marseille","lat":43.28856,"lon":5.358371,"is_reserved":false,"is_disabled":false,"rental_uris":{"android":"levelo://app?vid=8b0ab4c6-2a5c-4a8b-a434-386a78656519","ios":"levelo://app?vid=8b0ab4c6-2a5c-4a8b-a434-386a78656519"},"vehicle_type_id":"4","last_reported":1703153253,"current_range_meters":20400,"station_id":"ce4bhb12rcd13ifvqem0","pricing_plan_id":"free"},{"bike_id":"17ae038a-ecd9-4c2b-b8c0-97cabda20d06","system_id":"levelo_inurba_marseille","lat":43.298681,"lon":5.397225,"is_reserved":false,"is_disabled":false,"rental_uris":{"android":"levelo://app?vid=17ae038a-ecd9-4c2b-b8c0-97cabda20d06","ios":"levelo://app?vid=17ae038a-ecd9-4c2b-b8c0-97cabda20d06"},"vehicle_type_id":"4","last_reported":1703153253,"current_range_meters":30000,"station_id":"ce4bh0h2rcd13ifvqd50","pricing_plan_id":"free"},{"bike_id":"ba56a62d-19c9-4904-8845-7b8bf344644f","system_id":"levelo_inurba_marseille","lat":43.286591,"lon":5.363346,"is_reserved":false,"is_disabled":false,"rental_uris":{"android":"levelo://app?vid=ba56a62d-19c9-4904-8845-7b8bf344644f","ios":"levelo://app?vid=ba56a62d-19c9-4904-8845-7b8bf344644f"},"vehicle_type_id":"4","last_reported":1703153253,"current_range_meters":29600,"station_id":"ce4bhah2rcd13ifvqej0","pricing_plan_id":"free"},{"bike_id":"bf09c941-74b4-4e56-9388-abf719f63b17","system_id":"levelo_inurba_marseille","lat":43.286593,"lon":5.363346,"is_reserved":false,"is_disabled":false,"rental_uris":{"android":"levelo://app?vid=bf09c941-74b4-4e56-9388-abf719f63b17","ios":"levelo://app?vid=bf09c941-74b4-4e56-9388-abf719f63b17"},"vehicle_type_id":"4","last_reported":1703153253,"current_range_meters":24000,"station_id":"ce4bhah2rcd13ifvqej0","pricing_plan_id":"free"},{"bike_id":"7269f4b6-5e34-4d24-9d47-609ba90d5f8d","system_id":"levelo_inurba_marseille","lat":43.302759,"lon":5.400793,"is_reserved":false,"is_disabled":false,"rental_uris":{"android":"levelo://app?vid=7269f4b6-5e34-4d24-9d47-609ba90d5f8d","ios":"levelo://app?vid=7269f4b6-5e34-4d24-9d47-609ba90d5f8d"},"vehicle_type_id":"4","last_reported":1703153253,"current_range_meters":14800,"station_id":"ce4bgvh2rcd13ifvqcs0","pricing_plan_id":"free"},{"bike_id":"8f64d522-7a38-45fb-b6e6-5b4d6337952b","system_id":"levelo_inurba_marseille","lat":43.290345,"lon":5.38646,"is_reserved":false,"is_disabled":false,"rental_uris":{"android":"levelo://app?vid=8f64d522-7a38-45fb-b6e6-5b4d6337952b","ios":"levelo://app?vid=8f64d522-7a38-45fb-b6e6-5b4d6337952b"},"vehicle_type_id":"4","last_reported":1703153253,"current_range_meters":0,"station_id":"ce4bh4p2rcd13ifvqe0g","pricing_plan_id":"free"},{"bike_id":"8538e6dd-dbef-4a5a-a119-9a857fd021ad","system_id":"levelo_inurba_marseille","lat":43.33218,"lon":5.397067,"is_reserved":false,"is_disabled":false,"rental_uris":{"android":"levelo://app?vid=8538e6dd-dbef-4a5a-a119-9a857fd021ad","ios":"levelo://app?vid=8538e6dd-dbef-4a5a-a119-9a857fd021ad"},"vehicle_type_id":"4","last_reported":1703153253,"current_range_meters":0,"station_id":"","pricing_plan_id":"free"},{"bike_id":"8ecab7b4-77be-4ad4-89b7-9ad365764ce3","system_id":"levelo_inurba_marseille","lat":43.295713,"lon":5.399639,"is_reserved":false,"is_disabled":false,"rental_uris":{"android":"levelo://app?vid=8ecab7b4-77be-4ad4-89b7-9ad365764ce3","ios":"levelo://app?vid=8ecab7b4-77be-4ad4-89b7-9ad365764ce3"},"vehicle_type_id":"4","last_reported":1703153253,"current_range_meters":24400,"station_id":"ce4bh312rcd13ifvqdj0","pricing_plan_id":"free"},{"bike_id":"2cfe0997-b079-43ea-8b07-3f590103efa9","system_id":"levelo_inurba_marseille","lat":43.295713,"lon":5.399639,"is_reserved":false,"is_disabled":false,"rental_uris":{"android":"levelo://app?vid=2cfe0997-b079-43ea-8b07-3f590103efa9","ios":"levelo://app?vid=2cfe0997-b079-43ea-8b07-3f590103efa9"},"vehicle_type_id":"4","last_reported":1703153253,"current_range_meters":16000,"station_id":"ce4bh312rcd13ifvqdj0","pricing_plan_id":"free"},{"bike_id":"e48c0e95-f8a9-4bf2-804b-8e189f1aaa5e","system_id":"levelo_inurba_marseille","lat":43.286595,"lon":5.386795,"is_reserved":false,"is_disabled":false,"rental_uris":{"android":"levelo://app?vid=e48c0e95-f8a9-4bf2-804b-8e189f1aaa5e","ios":"levelo://app?vid=e48c0e95-f8a9-4bf2-804b-8e189f1aaa5e"},"vehicle_type_id":"4","last_reported":1703153253,"current_range_meters":22800,"station_id":"ce4bh492rcd13ifvqdug","pricing_plan_id":"free"},{"bike_id":"0e6bbc92-cec6-497f-ad89-d75d7e889db3","system_id":"levelo_inurba_marseille","lat":43.33717,"lon":5.391857,"is_reserved":false,"is_disabled":false,"rental_uris":{"android":"levelo://app?vid=0e6bbc92-cec6-497f-ad89-d75d7e889db3","ios":"levelo://app?vid=0e6bbc92-cec6-497f-ad89-d75d7e889db3"},"vehicle_type_id":"4","last_reported":1703153253,"current_range_meters":31200,"station_id":"ce4bhr92rcd13ifvqhsg","pricing_plan_id":"free"},{"bike_id":"0f42eedd-bd33-445f-91fc-4e7504a96eb4","system_id":"levelo_inurba_marseille","lat":43.323673,"lon":5.406393,"is_reserved":false,"is_disabled":false,"rental_uris":{"android":"levelo://app?vid=0f42eedd-bd33-445f-91fc-4e7504a96eb4","ios":"levelo://app?vid=0f42eedd-bd33-445f-91fc-4e7504a96eb4"},"vehicle_type_id":"4","last_reported":1703153253,"current_range_meters":18000,"station_id":"","pricing_plan_id":"free"},{"bike_id":"5469035a-df4a-4f90-bd51-dd980b3a3b11","system_id":"levelo_inurba_marseille","lat":43.28344,"lon":5.38109,"is_reserved":false,"is_disabled":false,"rental_uris":{"android":"levelo://app?vid=5469035a-df4a-4f90-bd51-dd980b3a3b11","ios":"levelo://app?vid=5469035a-df4a-4f90-bd51-dd980b3a3b11"},"vehicle_type_id":"4","last_reported":1703153253,"current_range_meters":0,"station_id":"ce4bh412rcd13ifvqdr0","pricing_plan_id":"free"},{"bike_id":"25acf729-0c15-45f0-8053-2c35b0919b50","system_id":"levelo_inurba_marseille","lat":43.284219,"lon":5.3497,"is_reserved":false,"is_disabled":false,"rental_uris":{"android":"levelo://app?vid=25acf729-0c15-45f0-8053-2c35b0919b50","ios":"levelo://app?vid=25acf729-0c15-45f0-8053-2c35b0919b50"},"vehicle_type_id":"4","last_reported":1703153253,"current_range_meters":28400,"station_id":"ce4bhbh2rcd13ifvqepg","pricing_plan_id":"free"},{"bike_id":"e68ad7a3-9f73-42da-8e90-59adcc6ccfbd","system_id":"levelo_inurba_marseille","lat":43.284219,"lon":5.3497,"is_reserved":false,"is_disabled":false,"rental_uris":{"android":"levelo://app?vid=e68ad7a3-9f73-42da-8e90-59adcc6ccfbd","ios":"levelo://app?vid=e68ad7a3-9f73-42da-8e90-59adcc6ccfbd"},"vehicle_type_id":"4","last_reported":1703153253,"current_range_meters":30000,"station_id":"ce4bhbh2rcd13ifvqepg","pricing_plan_id":"free"},{"bike_id":"d33d70d6-0a1e-4a44-bfc5-d3da5ecf10ca","system_id":"levelo_inurba_marseille","lat":43.289363,"lon":5.396322,"is_reserved":false,"is_disabled":false,"rental_uris":{"android":"levelo://app?vid=d33d70d6-0a1e-4a44-bfc5-d3da5ecf10ca","ios":"levelo://app?vid=d33d70d6-0a1e-4a44-bfc5-d3da5ecf10ca"},"vehicle_type_id":"4","last_reported":1703153253,"current_range_meters":22000,"station_id":"ce4bh3h2rcd13ifvqdn0","pricing_plan_id":"free"},{"bike_id":"7aad9e54-26f5-4fe7-bfc2-6a58cb0aef40","system_id":"levelo_inurba_marseille","lat":43.292724,"lon":5.401131,"is_reserved":false,"is_disabled":false,"rental_uris":{"android":"levelo://app?vid=7aad9e54-26f5-4fe7-bfc2-6a58cb0aef40","ios":"levelo://app?vid=7aad9e54-26f5-4fe7-bfc2-6a58cb0aef40"},"vehicle_type_id":"4","last_reported":1703153253,"current_range_meters":22800,"station_id":"ce4bh312rcd13ifvqdk0","pricing_plan_id":"free"},{"bike_id":"494d98a3-1979-4fff-8f69-2edc18163137","system_id":"levelo_inurba_marseille","lat":43.29271,"lon":5.40111,"is_reserved":false,"is_disabled":false,"rental_uris":{"android":"levelo://app?vid=494d98a3-1979-4fff-8f69-2edc18163137","ios":"levelo://app?vid=494d98a3-1979-4fff-8f69-2edc18163137"},"vehicle_type_id":"4","last_reported":1703153253,"current_range_meters":0,"station_id":"ce4bh312rcd13ifvqdk0","pricing_plan_id":"free"},{"bike_id":"fac924f5-635f-46ca-b84f-a9d9ddf9e3f4","system_id":"levelo_inurba_marseille","lat":43.284462,"lon":5.392121,"is_reserved":false,"is_disabled":false,"rental_uris":{"android":"levelo://app?vid=fac924f5-635f-46ca-b84f-a9d9ddf9e3f4","ios":"levelo://app?vid=fac924f5-635f-46ca-b84f-a9d9ddf9e3f4"},"vehicle_type_id":"4","last_reported":1703153253,"current_range_meters":19200,"station_id":"ce4bhoh2rcd13ifvqh5g","pricing_plan_id":"free"},{"bike_id":"a3699879-f32d-49c2-b48e-0a3aa32e9ad2","system_id":"levelo_inurba_marseille","lat":43.284462,"lon":5.392121,"is_reserved":false,"is_disabled":false,"rental_uris":{"android":"levelo://app?vid=a3699879-f32d-49c2-b48e-0a3aa32e9ad2","ios":"levelo://app?vid=a3699879-f32d-49c2-b48e-0a3aa32e9ad2"},"vehicle_type_id":"4","last_reported":1703153253,"current_range_meters":23600,"station_id":"ce4bhoh2rcd13ifvqh5g","pricing_plan_id":"free"},{"bike_id":"bdddb89b-d4ea-48fd-84d2-aafa175bf35f","system_id":"levelo_inurba_marseille","lat":43.284462,"lon":5.392121,"is_reserved":false,"is_disabled":false,"rental_uris":{"android":"levelo://app?vid=bdddb89b-d4ea-48fd-84d2-aafa175bf35f","ios":"levelo://app?vid=bdddb89b-d4ea-48fd-84d2-aafa175bf35f"},"vehicle_type_id":"4","last_reported":1703153253,"current_range_meters":27600,"station_id":"ce4bhoh2rcd13ifvqh5g","pricing_plan_id":"free"},{"bike_id":"698b29fd-10e3-48b7-8fde-37c8d5711e8c","system_id":"levelo_inurba_marseille","lat":43.284462,"lon":5.392121,"is_reserved":false,"is_disabled":false,"rental_uris":{"android":"levelo://app?vid=698b29fd-10e3-48b7-8fde-37c8d5711e8c","ios":"levelo://app?vid=698b29fd-10e3-48b7-8fde-37c8d5711e8c"},"vehicle_type_id":"4","last_reported":1703153253,"current_range_meters":26000,"station_id":"ce4bhoh2rcd13ifvqh5g","pricing_plan_id":"free"},{"bike_id":"fbd2ce6e-c792-49b4-81a5-c8cdbe45b2c3","system_id":"levelo_inurba_marseille","lat":43.284462,"lon":5.392121,"is_reserved":false,"is_disabled":false,"rental_uris":{"android":"levelo://app?vid=fbd2ce6e-c792-49b4-81a5-c8cdbe45b2c3","ios":"levelo://app?vid=fbd2ce6e-c792-49b4-81a5-c8cdbe45b2c3"},"vehicle_type_id":"4","last_reported":1703153253,"current_range_meters":30400,"station_id":"ce4bhoh2rcd13ifvqh5g","pricing_plan_id":"free"},{"bike_id":"33707aac-a7e2-45a4-afe8-492a6c1af7ef","system_id":"levelo_inurba_marseille","lat":43.284462,"lon":5.392121,"is_reserved":false,"is_disabled":false,"rental_uris":{"android":"levelo://app?vid=33707aac-a7e2-45a4-afe8-492a6c1af7ef","ios":"levelo://app?vid=33707aac-a7e2-45a4-afe8-492a6c1af7ef"},"vehicle_type_id":"4","last_reported":1703153253,"current_range_meters":12000,"station_id":"ce4bhoh2rcd13ifvqh5g","pricing_plan_id":"free"},{"bike_id":"20a66e52-3814-408d-87be-64cea1c56576","system_id":"levelo_inurba_marseille","lat":43.284462,"lon":5.392121,"is_reserved":false,"is_disabled":false,"rental_uris":{"android":"levelo://app?vid=20a66e52-3814-408d-87be-64cea1c56576","ios":"levelo://app?vid=20a66e52-3814-408d-87be-64cea1c56576"},"vehicle_type_id":"4","last_reported":1703153253,"current_range_meters":28400,"station_id":"ce4bhoh2rcd13ifvqh5g","pricing_plan_id":"free"},{"bike_id":"a1b0d001-2665-4828-a664-cf64a0b87d4e","system_id":"levelo_inurba_marseille","lat":43.285742,"lon":5.395004,"is_reserved":false,"is_disabled":false,"rental_uris":{"android":"levelo://app?vid=a1b0d001-2665-4828-a664-cf64a0b87d4e","ios":"levelo://app?vid=a1b0d001-2665-4828-a664-cf64a0b87d4e"},"vehicle_type_id":"4","last_reported":1703153253,"current_range_meters":29600,"station_id":"ce4bh292rcd13ifvqdg0","pricing_plan_id":"free"},{"bike_id":"12dc0ac8-8431-4f45-b8fa-4270a91d62a9","system_id":"levelo_inurba_marseille","lat":43.284462,"lon":5.392121,"is_reserved":false,"is_disabled":false,"rental_uris":{"android":"levelo://app?vid=12dc0ac8-8431-4f45-b8fa-4270a91d62a9","ios":"levelo://app?vid=12dc0ac8-8431-4f45-b8fa-4270a91d62a9"},"vehicle_type_id":"4","last_reported":1703153253,"current_range_meters":31200,"station_id":"ce4bhoh2rcd13ifvqh5g","pricing_plan_id":"free"},{"bike_id":"190cf147-d796-422d-bc69-7b5af45ad41e","system_id":"levelo_inurba_marseille","lat":43.279742,"lon":5.38744,"is_reserved":false,"is_disabled":false,"rental_uris":{"android":"levelo://app?vid=190cf147-d796-422d-bc69-7b5af45ad41e","ios":"levelo://app?vid=190cf147-d796-422d-bc69-7b5af45ad41e"},"vehicle_type_id":"4","last_reported":1703153253,"current_range_meters":15600,"station_id":"ce4bhg12rcd13ifvqf80","pricing_plan_id":"free"},{"bike_id":"844fa578-3c21-47c8-a32d-9c0eeab2b020","system_id":"levelo_inurba_marseille","lat":43.325243,"lon":5.414326,"is_reserved":false,"is_disabled":false,"rental_uris":{"android":"levelo://app?vid=844fa578-3c21-47c8-a32d-9c0eeab2b020","ios":"levelo://app?vid=844fa578-3c21-47c8-a32d-9c0eeab2b020"},"vehicle_type_id":"4","last_reported":1703153253,"current_range_meters":12000,"station_id":"ce4bhq12rcd13ifvqhhg","pricing_plan_id":"free"},{"bike_id":"dd3f7296-dcf2-486c-8d30-ce1834e50ab4","system_id":"levelo_inurba_marseille","lat":43.325243,"lon":5.414326,"is_reserved":false,"is_disabled":false,"rental_uris":{"android":"levelo://app?vid=dd3f7296-dcf2-486c-8d30-ce1834e50ab4","ios":"levelo://app?vid=dd3f7296-dcf2-486c-8d30-ce1834e50ab4"},"vehicle_type_id":"4","last_reported":1703153253,"current_range_meters":30400,"station_id":"ce4bhq12rcd13ifvqhhg","pricing_plan_id":"free"},{"bike_id":"3b790341-8195-4677-92bf-bf82f3656bab","system_id":"levelo_inurba_marseille","lat":43.325243,"lon":5.414326,"is_reserved":false,"is_disabled":false,"rental_uris":{"android":"levelo://app?vid=3b790341-8195-4677-92bf-bf82f3656bab","ios":"levelo://app?vid=3b790341-8195-4677-92bf-bf82f3656bab"},"vehicle_type_id":"4","last_reported":1703153253,"current_range_meters":31200,"station_id":"ce4bhq12rcd13ifvqhhg","pricing_plan_id":"free"},{"bike_id":"e18133a5-9a3b-406a-a9d1-c9964e4a9e91","system_id":"levelo_inurba_marseille","lat":43.325233,"lon":5.414318,"is_reserved":false,"is_disabled":false,"rental_uris":{"android":"levelo://app?vid=e18133a5-9a3b-406a-a9d1-c9964e4a9e91","ios":"levelo://app?vid=e18133a5-9a3b-406a-a9d1-c9964e4a9e91"},"vehicle_type_id":"4","last_reported":1703153253,"current_range_meters":29200,"station_id":"ce4bhq12rcd13ifvqhhg","pricing_plan_id":"free"},{"bike_id":"1a937141-33b2-4d3a-a476-496a1a8c2d08","system_id":"levelo_inurba_marseille","lat":43.280784,"lon":5.396622,"is_reserved":false,"is_disabled":false,"rental_uris":{"android":"levelo://app?vid=1a937141-33b2-4d3a-a476-496a1a8c2d08","ios":"levelo://app?vid=1a937141-33b2-4d3a-a476-496a1a8c2d08"},"vehicle_type_id":"4","last_reported":1703153253,"current_range_meters":4000,"station_id":"ce4bho12rcd13ifvqh2g","pricing_plan_id":"free"},{"bike_id":"e08b7c96-79e5-4077-b55f-738f27113a8b","system_id":"levelo_inurba_marseille","lat":43.278399,"lon":5.392139,"is_reserved":false,"is_disabled":false,"rental_uris":{"android":"levelo://app?vid=e08b7c96-79e5-4077-b55f-738f27113a8b","ios":"levelo://app?vid=e08b7c96-79e5-4077-b55f-738f27113a8b"},"vehicle_type_id":"4","last_reported":1703153253,"current_range_meters":27600,"station_id":"ce4bhjp2rcd13ifvqga0","pricing_plan_id":"free"},{"bike_id":"8440783c-07c9-423e-a7fc-7d68df01cf8d","system_id":"levelo_inurba_marseille","lat":43.273613,"lon":5.362705,"is_reserved":false,"is_disabled":false,"rental_uris":{"android":"levelo://app?vid=8440783c-07c9-423e-a7fc-7d68df01cf8d","ios":"levelo://app?vid=8440783c-07c9-423e-a7fc-7d68df01cf8d"},"vehicle_type_id":"4","last_reported":1703153253,"current_range_meters":8800,"station_id":"ce4bhbh2rcd13ifvqeo0","pricing_plan_id":"free"},{"bike_id":"04302cc2-c905-4f83-a27d-986d7e979716","system_id":"levelo_inurba_marseille","lat":43.336134,"lon":5.410341,"is_reserved":false,"is_disabled":false,"rental_uris":{"android":"levelo://app?vid=04302cc2-c905-4f83-a27d-986d7e979716","ios":"levelo://app?vid=04302cc2-c905-4f83-a27d-986d7e979716"},"vehicle_type_id":"4","last_reported":1703153253,"current_range_meters":20800,"station_id":"ce4bhqh2rcd13ifvqhmg","pricing_plan_id":"free"},{"bike_id":"e2fcba59-5fe1-4929-89e3-a595b1232a43","system_id":"levelo_inurba_marseille","lat":43.336073,"lon":5.410253,"is_reserved":false,"is_disabled":false,"rental_uris":{"android":"levelo://app?vid=e2fcba59-5fe1-4929-89e3-a595b1232a43","ios":"levelo://app?vid=e2fcba59-5fe1-4929-89e3-a595b1232a43"},"vehicle_type_id":"4","last_reported":1703153253,"current_range_meters":10400,"station_id":"ce4bhqh2rcd13ifvqhmg","pricing_plan_id":"free"},{"bike_id":"a2961cf9-de37-41a0-9b1a-96bfa4e4887c","system_id":"levelo_inurba_marseille","lat":43.27558,"lon":5.3843,"is_reserved":false,"is_disabled":false,"rental_uris":{"android":"levelo://app?vid=a2961cf9-de37-41a0-9b1a-96bfa4e4887c","ios":"levelo://app?vid=a2961cf9-de37-41a0-9b1a-96bfa4e4887c"},"vehicle_type_id":"4","last_reported":1703153253,"current_range_meters":25200,"station_id":"ce4bhh92rcd13ifvqfi0","pricing_plan_id":"free"},{"bike_id":"e41ac5a2-9343-4c24-902f-1b8bfd0fa19e","system_id":"levelo_inurba_marseille","lat":43.276771,"lon":5.388799,"is_reserved":false,"is_disabled":false,"rental_uris":{"android":"levelo://app?vid=e41ac5a2-9343-4c24-902f-1b8bfd0fa19e","ios":"levelo://app?vid=e41ac5a2-9343-4c24-902f-1b8bfd0fa19e"},"vehicle_type_id":"4","last_reported":1703153253,"current_range_meters":10000,"station_id":"ce4bhi12rcd13ifvqfo0","pricing_plan_id":"free"},{"bike_id":"0078fc31-b533-44cb-b47c-4aff8b27716d","system_id":"levelo_inurba_marseille","lat":43.27997,"lon":5.4002,"is_reserved":false,"is_disabled":false,"rental_uris":{"android":"levelo://app?vid=0078fc31-b533-44cb-b47c-4aff8b27716d","ios":"levelo://app?vid=0078fc31-b533-44cb-b47c-4aff8b27716d"},"vehicle_type_id":"4","last_reported":1703153253,"current_range_meters":25200,"station_id":"ce4bho92rcd13ifvqh4g","pricing_plan_id":"free"},{"bike_id":"2ccdce10-14f3-49aa-864f-a4af82f9832d","system_id":"levelo_inurba_marseille","lat":43.279952,"lon":5.400085,"is_reserved":false,"is_disabled":false,"rental_uris":{"android":"levelo://app?vid=2ccdce10-14f3-49aa-864f-a4af82f9832d","ios":"levelo://app?vid=2ccdce10-14f3-49aa-864f-a4af82f9832d"},"vehicle_type_id":"4","last_reported":1703153253,"current_range_meters":30400,"station_id":"ce4bho92rcd13ifvqh4g","pricing_plan_id":"free"},{"bike_id":"a7ebbe4e-e4b4-4b88-92ae-339f682a95cb","system_id":"levelo_inurba_marseille","lat":43.310785,"lon":5.424305,"is_reserved":false,"is_disabled":false,"rental_uris":{"android":"levelo://app?vid=a7ebbe4e-e4b4-4b88-92ae-339f682a95cb","ios":"levelo://app?vid=a7ebbe4e-e4b4-4b88-92ae-339f682a95cb"},"vehicle_type_id":"4","last_reported":1703153253,"current_range_meters":16400,"station_id":"ce4bhp92rcd13ifvqhag","pricing_plan_id":"free"},{"bike_id":"21f4a169-6e35-4a8e-94ba-dad1b033815c","system_id":"levelo_inurba_marseille","lat":43.310785,"lon":5.424305,"is_reserved":false,"is_disabled":false,"rental_uris":{"android":"levelo://app?vid=21f4a169-6e35-4a8e-94ba-dad1b033815c","ios":"levelo://app?vid=21f4a169-6e35-4a8e-94ba-dad1b033815c"},"vehicle_type_id":"4","last_reported":1703153253,"current_range_meters":2000,"station_id":"ce4bhp92rcd13ifvqhag","pricing_plan_id":"free"},{"bike_id":"9955a062-f7ae-4924-8635-66271055d017","system_id":"levelo_inurba_marseille","lat":43.34133,"lon":5.40911,"is_reserved":false,"is_disabled":false,"rental_uris":{"android":"levelo://app?vid=9955a062-f7ae-4924-8635-66271055d017","ios":"levelo://app?vid=9955a062-f7ae-4924-8635-66271055d017"},"vehicle_type_id":"4","last_reported":1703153253,"current_range_meters":0,"station_id":"ce4bhqh2rcd13ifvqhlg","pricing_plan_id":"free"},{"bike_id":"974dc7db-ff3c-4554-8964-132f9db52d9b","system_id":"levelo_inurba_marseille","lat":43.276092,"lon":5.395289,"is_reserved":false,"is_disabled":false,"rental_uris":{"android":"levelo://app?vid=974dc7db-ff3c-4554-8964-132f9db52d9b","ios":"levelo://app?vid=974dc7db-ff3c-4554-8964-132f9db52d9b"},"vehicle_type_id":"4","last_reported":1703153253,"current_range_meters":0,"station_id":"","pricing_plan_id":"free"},{"bike_id":"b68e060a-e1df-4822-bc58-ced4025d5c8a","system_id":"levelo_inurba_marseille","lat":43.273125,"lon":5.390731,"is_reserved":false,"is_disabled":false,"rental_uris":{"android":"levelo://app?vid=b68e060a-e1df-4822-bc58-ced4025d5c8a","ios":"levelo://app?vid=b68e060a-e1df-4822-bc58-ced4025d5c8a"},"vehicle_type_id":"4","last_reported":1703153253,"current_range_meters":10000,"station_id":"ce4bhgp2rcd13ifvqfe0","pricing_plan_id":"free"},{"bike_id":"072ff125-f503-4c20-b41a-46979dbb7c9a","system_id":"levelo_inurba_marseille","lat":43.273129,"lon":5.390725,"is_reserved":false,"is_disabled":false,"rental_uris":{"android":"levelo://app?vid=072ff125-f503-4c20-b41a-46979dbb7c9a","ios":"levelo://app?vid=072ff125-f503-4c20-b41a-46979dbb7c9a"},"vehicle_type_id":"4","last_reported":1703153253,"current_range_meters":22400,"station_id":"ce4bhgp2rcd13ifvqfe0","pricing_plan_id":"free"},{"bike_id":"d9a02183-a000-43af-b331-798da0a99f12","system_id":"levelo_inurba_marseille","lat":43.273129,"lon":5.390725,"is_reserved":false,"is_disabled":false,"rental_uris":{"android":"levelo://app?vid=d9a02183-a000-43af-b331-798da0a99f12","ios":"levelo://app?vid=d9a02183-a000-43af-b331-798da0a99f12"},"vehicle_type_id":"4","last_reported":1703153253,"current_range_meters":26400,"station_id":"ce4bhgp2rcd13ifvqfe0","pricing_plan_id":"free"},{"bike_id":"b2246717-b6d6-46bf-9868-75e79fd6bc16","system_id":"levelo_inurba_marseille","lat":43.274099,"lon":5.394019,"is_reserved":false,"is_disabled":false,"rental_uris":{"android":"levelo://app?vid=b2246717-b6d6-46bf-9868-75e79fd6bc16","ios":"levelo://app?vid=b2246717-b6d6-46bf-9868-75e79fd6bc16"},"vehicle_type_id":"4","last_reported":1703153253,"current_range_meters":30000,"station_id":"ce4bhdp2rcd13ifvqf20","pricing_plan_id":"free"},{"bike_id":"e1bf0a92-1001-45ad-b936-6f06e086a92c","system_id":"levelo_inurba_marseille","lat":43.295511,"lon":5.422926,"is_reserved":false,"is_disabled":false,"rental_uris":{"android":"levelo://app?vid=e1bf0a92-1001-45ad-b936-6f06e086a92c","ios":"levelo://app?vid=e1bf0a92-1001-45ad-b936-6f06e086a92c"},"vehicle_type_id":"4","last_reported":1703153253,"current_range_meters":4000,"station_id":"ce4bhph2rcd13ifvqhdg","pricing_plan_id":"free"},{"bike_id":"5b29fe46-f98b-40e4-8c4c-2a510e7be214","system_id":"levelo_inurba_marseille","lat":43.295511,"lon":5.422926,"is_reserved":false,"is_disabled":false,"rental_uris":{"android":"levelo://app?vid=5b29fe46-f98b-40e4-8c4c-2a510e7be214","ios":"levelo://app?vid=5b29fe46-f98b-40e4-8c4c-2a510e7be214"},"vehicle_type_id":"4","last_reported":1703153253,"current_range_meters":15200,"station_id":"ce4bhph2rcd13ifvqhdg","pricing_plan_id":"free"},{"bike_id":"b820e38f-be0d-4e7b-9fb1-dfc16632fe0d","system_id":"levelo_inurba_marseille","lat":43.295511,"lon":5.422926,"is_reserved":false,"is_disabled":false,"rental_uris":{"android":"levelo://app?vid=b820e38f-be0d-4e7b-9fb1-dfc16632fe0d","ios":"levelo://app?vid=b820e38f-be0d-4e7b-9fb1-dfc16632fe0d"},"vehicle_type_id":"4","last_reported":1703153253,"current_range_meters":25600,"station_id":"ce4bhph2rcd13ifvqhdg","pricing_plan_id":"free"},{"bike_id":"b55db1a0-b820-479b-9929-7610c21584c5","system_id":"levelo_inurba_marseille","lat":43.295511,"lon":5.422926,"is_reserved":false,"is_disabled":false,"rental_uris":{"android":"levelo://app?vid=b55db1a0-b820-479b-9929-7610c21584c5","ios":"levelo://app?vid=b55db1a0-b820-479b-9929-7610c21584c5"},"vehicle_type_id":"4","last_reported":1703153253,"current_range_meters":24800,"station_id":"ce4bhph2rcd13ifvqhdg","pricing_plan_id":"free"},{"bike_id":"97999d47-e50f-4006-afef-b554a87fcfb7","system_id":"levelo_inurba_marseille","lat":43.295511,"lon":5.422926,"is_reserved":false,"is_disabled":false,"rental_uris":{"android":"levelo://app?vid=97999d47-e50f-4006-afef-b554a87fcfb7","ios":"levelo://app?vid=97999d47-e50f-4006-afef-b554a87fcfb7"},"vehicle_type_id":"4","last_reported":1703153253,"current_range_meters":10000,"station_id":"ce4bhph2rcd13ifvqhdg","pricing_plan_id":"free"},{"bike_id":"96484c65-8dd7-4167-a438-a7d837c6b7a7","system_id":"levelo_inurba_marseille","lat":43.295523,"lon":5.422926,"is_reserved":false,"is_disabled":false,"rental_uris":{"android":"levelo://app?vid=96484c65-8dd7-4167-a438-a7d837c6b7a7","ios":"levelo://app?vid=96484c65-8dd7-4167-a438-a7d837c6b7a7"},"vehicle_type_id":"4","last_reported":1703153253,"current_range_meters":30800,"station_id":"ce4bhph2rcd13ifvqhdg","pricing_plan_id":"free"},{"bike_id":"22706b4f-3656-4e38-92ed-f7cffffc8317","system_id":"levelo_inurba_marseille","lat":43.295523,"lon":5.422926,"is_reserved":false,"is_disabled":false,"rental_uris":{"android":"levelo://app?vid=22706b4f-3656-4e38-92ed-f7cffffc8317","ios":"levelo://app?vid=22706b4f-3656-4e38-92ed-f7cffffc8317"},"vehicle_type_id":"4","last_reported":1703153253,"current_range_meters":21200,"station_id":"ce4bhph2rcd13ifvqhdg","pricing_plan_id":"free"},{"bike_id":"96e361fa-504c-47e1-a5c4-264e7e97026f","system_id":"levelo_inurba_marseille","lat":43.272116,"lon":5.391747,"is_reserved":false,"is_disabled":false,"rental_uris":{"android":"levelo://app?vid=96e361fa-504c-47e1-a5c4-264e7e97026f","ios":"levelo://app?vid=96e361fa-504c-47e1-a5c4-264e7e97026f"},"vehicle_type_id":"4","last_reported":1703153253,"current_range_meters":25200,"station_id":"ce4bhhp2rcd13ifvqfm0","pricing_plan_id":"free"},{"bike_id":"1cf29c8c-3aa7-45da-9151-6233028e2361","system_id":"levelo_inurba_marseille","lat":43.278128,"lon":5.407195,"is_reserved":false,"is_disabled":false,"rental_uris":{"android":"levelo://app?vid=1cf29c8c-3aa7-45da-9151-6233028e2361","ios":"levelo://app?vid=1cf29c8c-3aa7-45da-9151-6233028e2361"},"vehicle_type_id":"4","last_reported":1703153253,"current_range_meters":31200,"station_id":"ce4bhnh2rcd13ifvqgtg","pricing_plan_id":"free"},{"bike_id":"a2c7d738-9653-4438-a46a-8f1a6a13dcae","system_id":"levelo_inurba_marseille","lat":43.269467,"lon":5.386439,"is_reserved":false,"is_disabled":false,"rental_uris":{"android":"levelo://app?vid=a2c7d738-9653-4438-a46a-8f1a6a13dcae","ios":"levelo://app?vid=a2c7d738-9653-4438-a46a-8f1a6a13dcae"},"vehicle_type_id":"4","last_reported":1703153253,"current_range_meters":23600,"station_id":"ce4bhh92rcd13ifvqfh0","pricing_plan_id":"free"},{"bike_id":"e368d309-2938-4c86-99b1-71b0fef1e6a8","system_id":"levelo_inurba_marseille","lat":43.269467,"lon":5.386439,"is_reserved":false,"is_disabled":false,"rental_uris":{"android":"levelo://app?vid=e368d309-2938-4c86-99b1-71b0fef1e6a8","ios":"levelo://app?vid=e368d309-2938-4c86-99b1-71b0fef1e6a8"},"vehicle_type_id":"4","last_reported":1703153253,"current_range_meters":18400,"station_id":"ce4bhh92rcd13ifvqfh0","pricing_plan_id":"free"},{"bike_id":"1d874513-3522-4671-a576-6066e801f589","system_id":"levelo_inurba_marseille","lat":43.269467,"lon":5.386439,"is_reserved":false,"is_disabled":false,"rental_uris":{"android":"levelo://app?vid=1d874513-3522-4671-a576-6066e801f589","ios":"levelo://app?vid=1d874513-3522-4671-a576-6066e801f589"},"vehicle_type_id":"4","last_reported":1703153253,"current_range_meters":27600,"station_id":"ce4bhh92rcd13ifvqfh0","pricing_plan_id":"free"},{"bike_id":"598218ad-b5ca-4750-a4b2-e5e4a4428022","system_id":"levelo_inurba_marseille","lat":43.269467,"lon":5.386439,"is_reserved":false,"is_disabled":false,"rental_uris":{"android":"levelo://app?vid=598218ad-b5ca-4750-a4b2-e5e4a4428022","ios":"levelo://app?vid=598218ad-b5ca-4750-a4b2-e5e4a4428022"},"vehicle_type_id":"4","last_reported":1703153253,"current_range_meters":27600,"station_id":"ce4bhh92rcd13ifvqfh0","pricing_plan_id":"free"},{"bike_id":"86e873f8-a38e-4794-a872-b5b8802e3aeb","system_id":"levelo_inurba_marseille","lat":43.269467,"lon":5.386439,"is_reserved":false,"is_disabled":false,"rental_uris":{"android":"levelo://app?vid=86e873f8-a38e-4794-a872-b5b8802e3aeb","ios":"levelo://app?vid=86e873f8-a38e-4794-a872-b5b8802e3aeb"},"vehicle_type_id":"4","last_reported":1703153253,"current_range_meters":13200,"station_id":"ce4bhh92rcd13ifvqfh0","pricing_plan_id":"free"},{"bike_id":"baa26ee1-d04c-4664-a582-70cdda2ac72f","system_id":"levelo_inurba_marseille","lat":43.269467,"lon":5.386439,"is_reserved":false,"is_disabled":false,"rental_uris":{"android":"levelo://app?vid=baa26ee1-d04c-4664-a582-70cdda2ac72f","ios":"levelo://app?vid=baa26ee1-d04c-4664-a582-70cdda2ac72f"},"vehicle_type_id":"4","last_reported":1703153253,"current_range_meters":21200,"station_id":"ce4bhh92rcd13ifvqfh0","pricing_plan_id":"free"},{"bike_id":"7accbb69-916a-48d5-8b5d-10f70cdacc3b","system_id":"levelo_inurba_marseille","lat":43.269467,"lon":5.386439,"is_reserved":false,"is_disabled":false,"rental_uris":{"android":"levelo://app?vid=7accbb69-916a-48d5-8b5d-10f70cdacc3b","ios":"levelo://app?vid=7accbb69-916a-48d5-8b5d-10f70cdacc3b"},"vehicle_type_id":"4","last_reported":1703153253,"current_range_meters":28800,"station_id":"ce4bhh92rcd13ifvqfh0","pricing_plan_id":"free"},{"bike_id":"a0f7fd54-a8ed-4cdb-98ad-2a27d507a390","system_id":"levelo_inurba_marseille","lat":43.269467,"lon":5.386439,"is_reserved":false,"is_disabled":false,"rental_uris":{"android":"levelo://app?vid=a0f7fd54-a8ed-4cdb-98ad-2a27d507a390","ios":"levelo://app?vid=a0f7fd54-a8ed-4cdb-98ad-2a27d507a390"},"vehicle_type_id":"4","last_reported":1703153253,"current_range_meters":24800,"station_id":"ce4bhh92rcd13ifvqfh0","pricing_plan_id":"free"},{"bike_id":"c235349a-6eab-4009-8305-181eab6fa4ea","system_id":"levelo_inurba_marseille","lat":43.269467,"lon":5.386439,"is_reserved":false,"is_disabled":false,"rental_uris":{"android":"levelo://app?vid=c235349a-6eab-4009-8305-181eab6fa4ea","ios":"levelo://app?vid=c235349a-6eab-4009-8305-181eab6fa4ea"},"vehicle_type_id":"4","last_reported":1703153253,"current_range_meters":28400,"station_id":"ce4bhh92rcd13ifvqfh0","pricing_plan_id":"free"},{"bike_id":"0e8b4398-3a6c-44db-897f-a6c2814378d8","system_id":"levelo_inurba_marseille","lat":43.269467,"lon":5.386439,"is_reserved":false,"is_disabled":false,"rental_uris":{"android":"levelo://app?vid=0e8b4398-3a6c-44db-897f-a6c2814378d8","ios":"levelo://app?vid=0e8b4398-3a6c-44db-897f-a6c2814378d8"},"vehicle_type_id":"4","last_reported":1703153253,"current_range_meters":16800,"station_id":"ce4bhh92rcd13ifvqfh0","pricing_plan_id":"free"},{"bike_id":"8ba1fdcf-6f06-4441-9f40-c46394ac677c","system_id":"levelo_inurba_marseille","lat":43.269467,"lon":5.386439,"is_reserved":false,"is_disabled":false,"rental_uris":{"android":"levelo://app?vid=8ba1fdcf-6f06-4441-9f40-c46394ac677c","ios":"levelo://app?vid=8ba1fdcf-6f06-4441-9f40-c46394ac677c"},"vehicle_type_id":"4","last_reported":1703153253,"current_range_meters":28000,"station_id":"ce4bhh92rcd13ifvqfh0","pricing_plan_id":"free"},{"bike_id":"9681aff0-da2a-4880-99ea-51fdd1f5202e","system_id":"levelo_inurba_marseille","lat":43.269467,"lon":5.386439,"is_reserved":false,"is_disabled":false,"rental_uris":{"android":"levelo://app?vid=9681aff0-da2a-4880-99ea-51fdd1f5202e","ios":"levelo://app?vid=9681aff0-da2a-4880-99ea-51fdd1f5202e"},"vehicle_type_id":"4","last_reported":1703153253,"current_range_meters":25600,"station_id":"ce4bhh92rcd13ifvqfh0","pricing_plan_id":"free"},{"bike_id":"7e9c2d59-c8cd-4749-853a-de401ef5c64b","system_id":"levelo_inurba_marseille","lat":43.269467,"lon":5.386439,"is_reserved":false,"is_disabled":false,"rental_uris":{"android":"levelo://app?vid=7e9c2d59-c8cd-4749-853a-de401ef5c64b","ios":"levelo://app?vid=7e9c2d59-c8cd-4749-853a-de401ef5c64b"},"vehicle_type_id":"4","last_reported":1703153253,"current_range_meters":25600,"station_id":"ce4bhh92rcd13ifvqfh0","pricing_plan_id":"free"},{"bike_id":"934e6eae-f346-4018-bb25-353c75a5712b","system_id":"levelo_inurba_marseille","lat":43.269536,"lon":5.386376,"is_reserved":false,"is_disabled":false,"rental_uris":{"android":"levelo://app?vid=934e6eae-f346-4018-bb25-353c75a5712b","ios":"levelo://app?vid=934e6eae-f346-4018-bb25-353c75a5712b"},"vehicle_type_id":"4","last_reported":1703153253,"current_range_meters":24800,"station_id":"ce4bhh92rcd13ifvqfh0","pricing_plan_id":"free"},{"bike_id":"54f2e7eb-ce57-4b70-ad6c-b3421601538b","system_id":"levelo_inurba_marseille","lat":43.26954,"lon":5.38642,"is_reserved":false,"is_disabled":false,"rental_uris":{"android":"levelo://app?vid=54f2e7eb-ce57-4b70-ad6c-b3421601538b","ios":"levelo://app?vid=54f2e7eb-ce57-4b70-ad6c-b3421601538b"},"vehicle_type_id":"4","last_reported":1703153253,"current_range_meters":26000,"station_id":"ce4bhh92rcd13ifvqfh0","pricing_plan_id":"free"},{"bike_id":"919201fc-c2d1-4af5-9310-baef3d4928e1","system_id":"levelo_inurba_marseille","lat":43.269467,"lon":5.386439,"is_reserved":false,"is_disabled":false,"rental_uris":{"android":"levelo://app?vid=919201fc-c2d1-4af5-9310-baef3d4928e1","ios":"levelo://app?vid=919201fc-c2d1-4af5-9310-baef3d4928e1"},"vehicle_type_id":"4","last_reported":1703153253,"current_range_meters":26000,"station_id":"ce4bhh92rcd13ifvqfh0","pricing_plan_id":"free"},{"bike_id":"4a98490b-ec13-4857-9b8c-97fa606891a5","system_id":"levelo_inurba_marseille","lat":43.269467,"lon":5.386439,"is_reserved":false,"is_disabled":false,"rental_uris":{"android":"levelo://app?vid=4a98490b-ec13-4857-9b8c-97fa606891a5","ios":"levelo://app?vid=4a98490b-ec13-4857-9b8c-97fa606891a5"},"vehicle_type_id":"4","last_reported":1703153253,"current_range_meters":28400,"station_id":"ce4bhh92rcd13ifvqfh0","pricing_plan_id":"free"},{"bike_id":"213e632f-c9b3-4a50-b82d-687eaf5bde3b","system_id":"levelo_inurba_marseille","lat":43.269467,"lon":5.386439,"is_reserved":false,"is_disabled":false,"rental_uris":{"android":"levelo://app?vid=213e632f-c9b3-4a50-b82d-687eaf5bde3b","ios":"levelo://app?vid=213e632f-c9b3-4a50-b82d-687eaf5bde3b"},"vehicle_type_id":"4","last_reported":1703153253,"current_range_meters":24800,"station_id":"ce4bhh92rcd13ifvqfh0","pricing_plan_id":"free"},{"bike_id":"69422865-249b-4ba9-a8f2-9f12f17374f4","system_id":"levelo_inurba_marseille","lat":43.269467,"lon":5.386439,"is_reserved":false,"is_disabled":false,"rental_uris":{"android":"levelo://app?vid=69422865-249b-4ba9-a8f2-9f12f17374f4","ios":"levelo://app?vid=69422865-249b-4ba9-a8f2-9f12f17374f4"},"vehicle_type_id":"4","last_reported":1703153253,"current_range_meters":20800,"station_id":"ce4bhh92rcd13ifvqfh0","pricing_plan_id":"free"},{"bike_id":"22d122b5-f660-47aa-9af5-32c09c4686c1","system_id":"levelo_inurba_marseille","lat":43.269319,"lon":5.389397,"is_reserved":false,"is_disabled":false,"rental_uris":{"android":"levelo://app?vid=22d122b5-f660-47aa-9af5-32c09c4686c1","ios":"levelo://app?vid=22d122b5-f660-47aa-9af5-32c09c4686c1"},"vehicle_type_id":"4","last_reported":1703153253,"current_range_meters":26400,"station_id":"ce4bhhh2rcd13ifvqfl0","pricing_plan_id":"free"},{"bike_id":"c5582c17-9a2d-4275-9be7-0f4dd80c9f28","system_id":"levelo_inurba_marseille","lat":43.269319,"lon":5.389397,"is_reserved":false,"is_disabled":false,"rental_uris":{"android":"levelo://app?vid=c5582c17-9a2d-4275-9be7-0f4dd80c9f28","ios":"levelo://app?vid=c5582c17-9a2d-4275-9be7-0f4dd80c9f28"},"vehicle_type_id":"4","last_reported":1703153253,"current_range_meters":28000,"station_id":"ce4bhhh2rcd13ifvqfl0","pricing_plan_id":"free"},{"bike_id":"177828f6-b3f8-467c-a5bc-6758ba6b1013","system_id":"levelo_inurba_marseille","lat":43.26684,"lon":5.38272,"is_reserved":false,"is_disabled":false,"rental_uris":{"android":"levelo://app?vid=177828f6-b3f8-467c-a5bc-6758ba6b1013","ios":"levelo://app?vid=177828f6-b3f8-467c-a5bc-6758ba6b1013"},"vehicle_type_id":"4","last_reported":1703153253,"current_range_meters":27600,"station_id":"ce4bhg92rcd13ifvqf90","pricing_plan_id":"free"},{"bike_id":"e4aead73-a308-47c2-997c-b375658ac6f2","system_id":"levelo_inurba_marseille","lat":43.26683,"lon":5.38267,"is_reserved":false,"is_disabled":false,"rental_uris":{"android":"levelo://app?vid=e4aead73-a308-47c2-997c-b375658ac6f2","ios":"levelo://app?vid=e4aead73-a308-47c2-997c-b375658ac6f2"},"vehicle_type_id":"4","last_reported":1703153253,"current_range_meters":16800,"station_id":"ce4bhg92rcd13ifvqf90","pricing_plan_id":"free"},{"bike_id":"0ed87846-2b7c-485f-8548-009efb7438a1","system_id":"levelo_inurba_marseille","lat":43.26684,"lon":5.38273,"is_reserved":false,"is_disabled":false,"rental_uris":{"android":"levelo://app?vid=0ed87846-2b7c-485f-8548-009efb7438a1","ios":"levelo://app?vid=0ed87846-2b7c-485f-8548-009efb7438a1"},"vehicle_type_id":"4","last_reported":1703153253,"current_range_meters":13600,"station_id":"ce4bhg92rcd13ifvqf90","pricing_plan_id":"free"},{"bike_id":"a9ba4e8b-8bde-4838-a4d5-b5a8c970b833","system_id":"levelo_inurba_marseille","lat":43.26681,"lon":5.382694,"is_reserved":false,"is_disabled":false,"rental_uris":{"android":"levelo://app?vid=a9ba4e8b-8bde-4838-a4d5-b5a8c970b833","ios":"levelo://app?vid=a9ba4e8b-8bde-4838-a4d5-b5a8c970b833"},"vehicle_type_id":"4","last_reported":1703153253,"current_range_meters":26400,"station_id":"ce4bhg92rcd13ifvqf90","pricing_plan_id":"free"},{"bike_id":"c6abee2f-540f-4858-95fa-7c53fd6a171b","system_id":"levelo_inurba_marseille","lat":43.26681,"lon":5.382694,"is_reserved":false,"is_disabled":false,"rental_uris":{"android":"levelo://app?vid=c6abee2f-540f-4858-95fa-7c53fd6a171b","ios":"levelo://app?vid=c6abee2f-540f-4858-95fa-7c53fd6a171b"},"vehicle_type_id":"4","last_reported":1703153253,"current_range_meters":16800,"station_id":"ce4bhg92rcd13ifvqf90","pricing_plan_id":"free"},{"bike_id":"499e0ea3-b36e-4411-bf4a-88455c2cfc35","system_id":"levelo_inurba_marseille","lat":43.26681,"lon":5.382694,"is_reserved":false,"is_disabled":false,"rental_uris":{"android":"levelo://app?vid=499e0ea3-b36e-4411-bf4a-88455c2cfc35","ios":"levelo://app?vid=499e0ea3-b36e-4411-bf4a-88455c2cfc35"},"vehicle_type_id":"4","last_reported":1703153253,"current_range_meters":7200,"station_id":"ce4bhg92rcd13ifvqf90","pricing_plan_id":"free"},{"bike_id":"0d32babf-089e-4ab5-9b2b-6b854189f25e","system_id":"levelo_inurba_marseille","lat":43.266778,"lon":5.382674,"is_reserved":false,"is_disabled":false,"rental_uris":{"android":"levelo://app?vid=0d32babf-089e-4ab5-9b2b-6b854189f25e","ios":"levelo://app?vid=0d32babf-089e-4ab5-9b2b-6b854189f25e"},"vehicle_type_id":"4","last_reported":1703153253,"current_range_meters":27200,"station_id":"ce4bhgp2rcd13ifvqfe0","pricing_plan_id":"free"},{"bike_id":"28409cfa-9604-442b-9a4d-7f70005b036e","system_id":"levelo_inurba_marseille","lat":43.26681,"lon":5.382694,"is_reserved":false,"is_disabled":false,"rental_uris":{"android":"levelo://app?vid=28409cfa-9604-442b-9a4d-7f70005b036e","ios":"levelo://app?vid=28409cfa-9604-442b-9a4d-7f70005b036e"},"vehicle_type_id":"4","last_reported":1703153253,"current_range_meters":29600,"station_id":"ce4bhg92rcd13ifvqf90","pricing_plan_id":"free"},{"bike_id":"19425073-5bf1-49c8-b6bf-5f11f4531035","system_id":"levelo_inurba_marseille","lat":43.265714,"lon":5.372891,"is_reserved":false,"is_disabled":false,"rental_uris":{"android":"levelo://app?vid=19425073-5bf1-49c8-b6bf-5f11f4531035","ios":"levelo://app?vid=19425073-5bf1-49c8-b6bf-5f11f4531035"},"vehicle_type_id":"4","last_reported":1703153253,"current_range_meters":9200,"station_id":"ce4bhg12rcd13ifvqf70","pricing_plan_id":"free"},{"bike_id":"e5eee720-81cd-4487-a969-6c8bb657cefd","system_id":"levelo_inurba_marseille","lat":43.2799,"lon":5.41657,"is_reserved":false,"is_disabled":false,"rental_uris":{"android":"levelo://app?vid=e5eee720-81cd-4487-a969-6c8bb657cefd","ios":"levelo://app?vid=e5eee720-81cd-4487-a969-6c8bb657cefd"},"vehicle_type_id":"4","last_reported":1703153253,"current_range_meters":0,"station_id":"ce4bho12rcd13ifvqh1g","pricing_plan_id":"free"},{"bike_id":"50963a47-8009-49e2-a70c-df7867968833","system_id":"levelo_inurba_marseille","lat":43.267966,"lon":5.393976,"is_reserved":false,"is_disabled":false,"rental_uris":{"android":"levelo://app?vid=50963a47-8009-49e2-a70c-df7867968833","ios":"levelo://app?vid=50963a47-8009-49e2-a70c-df7867968833"},"vehicle_type_id":"4","last_reported":1703153253,"current_range_meters":17600,"station_id":"ce4bhh12rcd13ifvqfg0","pricing_plan_id":"free"},{"bike_id":"467bd814-7c37-454c-94d8-6d8683e1ba11","system_id":"levelo_inurba_marseille","lat":43.27996,"lon":5.416624,"is_reserved":false,"is_disabled":false,"rental_uris":{"android":"levelo://app?vid=467bd814-7c37-454c-94d8-6d8683e1ba11","ios":"levelo://app?vid=467bd814-7c37-454c-94d8-6d8683e1ba11"},"vehicle_type_id":"4","last_reported":1703153253,"current_range_meters":8800,"station_id":"ce4bho12rcd13ifvqh1g","pricing_plan_id":"free"},{"bike_id":"068d44b4-ed23-4423-8fb2-03dcd42c3bc8","system_id":"levelo_inurba_marseille","lat":43.265569,"lon":5.390047,"is_reserved":false,"is_disabled":false,"rental_uris":{"android":"levelo://app?vid=068d44b4-ed23-4423-8fb2-03dcd42c3bc8","ios":"levelo://app?vid=068d44b4-ed23-4423-8fb2-03dcd42c3bc8"},"vehicle_type_id":"4","last_reported":1703153253,"current_range_meters":17600,"station_id":"ce4bhe12rcd13ifvqf30","pricing_plan_id":"free"},{"bike_id":"4594436c-65e6-4f59-95ce-8e9d635e73f3","system_id":"levelo_inurba_marseille","lat":43.265571,"lon":5.390032,"is_reserved":false,"is_disabled":false,"rental_uris":{"android":"levelo://app?vid=4594436c-65e6-4f59-95ce-8e9d635e73f3","ios":"levelo://app?vid=4594436c-65e6-4f59-95ce-8e9d635e73f3"},"vehicle_type_id":"4","last_reported":1703153253,"current_range_meters":18000,"station_id":"ce4bhe12rcd13ifvqf30","pricing_plan_id":"free"},{"bike_id":"f0734ffd-6350-4c03-86dc-84fc1142785b","system_id":"levelo_inurba_marseille","lat":43.26949,"lon":5.40262,"is_reserved":false,"is_disabled":false,"rental_uris":{"android":"levelo://app?vid=f0734ffd-6350-4c03-86dc-84fc1142785b","ios":"levelo://app?vid=f0734ffd-6350-4c03-86dc-84fc1142785b"},"vehicle_type_id":"4","last_reported":1703153253,"current_range_meters":18400,"station_id":"cjm6bp8fraef2m0cb0m0","pricing_plan_id":"free"},{"bike_id":"3e8209a5-f2ac-41b5-a4c3-19e00ecb278a","system_id":"levelo_inurba_marseille","lat":43.26949,"lon":5.40262,"is_reserved":false,"is_disabled":false,"rental_uris":{"android":"levelo://app?vid=3e8209a5-f2ac-41b5-a4c3-19e00ecb278a","ios":"levelo://app?vid=3e8209a5-f2ac-41b5-a4c3-19e00ecb278a"},"vehicle_type_id":"4","last_reported":1703153253,"current_range_meters":24400,"station_id":"cjm6bp8fraef2m0cb0m0","pricing_plan_id":"free"},{"bike_id":"cc94c972-ff7b-4546-9d86-9d0a06b255e4","system_id":"levelo_inurba_marseille","lat":43.26949,"lon":5.40262,"is_reserved":false,"is_disabled":false,"rental_uris":{"android":"levelo://app?vid=cc94c972-ff7b-4546-9d86-9d0a06b255e4","ios":"levelo://app?vid=cc94c972-ff7b-4546-9d86-9d0a06b255e4"},"vehicle_type_id":"4","last_reported":1703153253,"current_range_meters":27600,"station_id":"cjm6bp8fraef2m0cb0m0","pricing_plan_id":"free"},