{"last_updated":1771493632,"ttl":60,"version":"2.2","data":{"bikes":[{"bike_id":"f172b5b3-c333-47ea-9d5e-14a1e1c1e1bd","system_id":"levelo_inurba_marseille","lat":43.264888,"lon":5.395572,"is_reserved":false,"is_disabled":false,"rental_uris":{"android":"levelo://app?vid=f172b5b3-c333-47ea-9d5e-14a1e1c1e1bd","ios":"levelo://app?vid=f172b5b3-c333-47ea-9d5e-14a1e1c1e1bd"},"vehicle_type_id":"4","last_reported":1771493633,"current_range_meters":38800,"station_id":"ce4bhi12rcd13ifvqfq0","pricing_plan_id":"cebpf4jnsgd1na2vs0mg"},{"bike_id":"082c18e4-001a-495d-847f-c5ad36f2a9ff","system_id":"levelo_inurba_marseille","lat":43.25056,"lon":5.40346,"is_reserved":false,"is_disabled":false,"rental_uris":{"android":"levelo://app?vid=082c18e4-001a-495d-847f-c5ad36f2a9ff","ios":"levelo://app?vid=082c18e4-001a-495d-847f-c5ad36f2a9ff"},"vehicle_type_id":"4","last_reported":1771493633,"current_range_meters":8400,"station_id":"","pricing_plan_id":"cebpf4jnsgd1na2vs0mg"},{"bike_id":"d2556e92-2ca9-4a78-9f71-9255354e5fd9","system_id":"levelo_inurba_marseille","lat":43.28858,"lon":5.39338,"is_reserved":false,"is_disabled":true,"rental_uris":{"android":"levelo://app?vid=d2556e92-2ca9-4a78-9f71-9255354e5fd9","ios":"levelo://app?vid=d2556e92-2ca9-4a78-9f71-9255354e5fd9"},"vehicle_type_id":"4","last_reported":1771493633,"current_range_meters":29600,"station_id":"ce4bh2p2rcd13ifvqdi0","pricing_plan_id":"cebpf4jnsgd1na2vs0mg"},{"bike_id":"d8078990-2633-4921-9e81-c73d420fcb12","system_id":"levelo_inurba_marseille","lat":43.28407,"lon":5.37533,"is_reserved":false,"is_disabled":true,"rental_uris":{"android":"levelo://app?vid=d8078990-2633-4921-9e81-c73d420fcb12","ios":"levelo://app?vid=d8078990-2633-4921-9e81-c73d420fcb12"},"vehicle_type_id":"4","last_reported":1771493633,"current_range_meters":19200,"station_id":"ce4bh412rcd13ifvqds0","pricing_plan_id":"cebpf4jnsgd1na2vs0mg"},{"bike_id":"f56469d6-156e-4dc9-9c3e-3416ed76c4ba","system_id":"levelo_inurba_marseille","lat":43.33161,"lon":5.37692,"is_reserved":false,"is_disabled":false,"rental_uris":{"android":"levelo://app?vid=f56469d6-156e-4dc9-9c3e-3416ed76c4ba","ios":"levelo://app?vid=f56469d6-156e-4dc9-9c3e-3416ed76c4ba"},"vehicle_type_id":"4","last_reported":1771493633,"current_range_meters":23200,"station_id":"st_d46cu089ee8s73dldbu0","pricing_plan_id":"cebpf4jnsgd1na2vs0mg"},{"bike_id":"53c56034-6548-40cb-ab29-b9712ab7a94b","system_id":"levelo_inurba_marseille","lat":43.30324,"lon":5.36899,"is_reserved":false,"is_disabled":false,"rental_uris":{"android":"levelo://app?vid=53c56034-6548-40cb-ab29-b9712ab7a94b","ios":"levelo://app?vid=53c56034-6548-40cb-ab29-b9712ab7a94b"},"vehicle_type_id":"4","last_reported":1771493633,"current_range_meters":28000,"station_id":"ce4bgqh2rcd13ifvqc5g","pricing_plan_id":"cebpf4jnsgd1na2vs0mg"},{"bike_id":"0b05c0cf-bd2a-4169-beb3-36dee5a908a9","system_id":"levelo_inurba_marseille","lat":43.29302,"lon":5.37199,"is_reserved":false,"is_disabled":false,"rental_uris":{"android":"levelo://app?vid=0b05c0cf-bd2a-4169-beb3-36dee5a908a9","ios":"levelo://app?vid=0b05c0cf-bd2a-4169-beb3-36dee5a908a9"},"vehicle_type_id":"4","last_reported":1771493633,"current_range_meters":26800,"station_id":"ce4bgh92rcd13ifvqb40","pricing_plan_id":"cebpf4jnsgd1na2vs0mg"},{"bike_id":"ec3c2263-3477-484f-b296-a0baddece9fc","system_id":"levelo_inurba_marseille","lat":43.31708,"lon":5.40467,"is_reserved":false,"is_disabled":false,"rental_uris":{"android":"levelo://app?vid=ec3c2263-3477-484f-b296-a0baddece9fc","ios":"levelo://app?vid=ec3c2263-3477-484f-b296-a0baddece9fc"},"vehicle_type_id":"4","last_reported":1771493633,"current_range_meters":39200,"station_id":"ce4bh012rcd13ifvqd00","pricing_plan_id":"cebpf4jnsgd1na2vs0mg"},{"bike_id":"1d13cd77-d7b2-41db-9ccc-f0852a66c40e","system_id":"levelo_inurba_marseille","lat":43.27846,"lon":5.39203,"is_reserved":false,"is_disabled":false,"rental_uris":{"android":"levelo://app?vid=1d13cd77-d7b2-41db-9ccc-f0852a66c40e","ios":"levelo://app?vid=1d13cd77-d7b2-41db-9ccc-f0852a66c40e"},"vehicle_type_id":"4","last_reported":1771493633,"current_range_meters":32800,"station_id":"ce4bhjp2rcd13ifvqga0","pricing_plan_id":"cebpf4jnsgd1na2vs0mg"},{"bike_id":"37b7e444-9d5d-4c7d-ab45-e9b1c28ae4ed","system_id":"levelo_inurba_marseille","lat":43.26993,"lon":5.38707,"is_reserved":false,"is_disabled":false,"rental_uris":{"android":"levelo://app?vid=37b7e444-9d5d-4c7d-ab45-e9b1c28ae4ed","ios":"levelo://app?vid=37b7e444-9d5d-4c7d-ab45-e9b1c28ae4ed"},"vehicle_type_id":"4","last_reported":1771493633,"current_range_meters":24800,"station_id":"","pricing_plan_id":"cebpf4jnsgd1na2vs0mg"},{"bike_id":"d2bb17c7-6558-4b9c-ae8a-0d2292552853","system_id":"levelo_inurba_marseille","lat":43.28474,"lon":5.48401,"is_reserved":false,"is_disabled":false,"rental_uris":{"android":"levelo://app?vid=d2bb17c7-6558-4b9c-ae8a-0d2292552853","ios":"levelo://app?vid=d2bb17c7-6558-4b9c-ae8a-0d2292552853"},"vehicle_type_id":"4","last_reported":1771493633,"current_range_meters":35600,"station_id":"","pricing_plan_id":"cebpf4jnsgd1na2vs0mg"},{"bike_id":"da4093a5-6673-43a8-b7ee-b4859a45cac4","system_id":"levelo_inurba_marseille","lat":43.24381,"lon":5.37091,"is_reserved":false,"is_disabled":false,"rental_uris":{"android":"levelo://app?vid=da4093a5-6673-43a8-b7ee-b4859a45cac4","ios":"levelo://app?vid=da4093a5-6673-43a8-b7ee-b4859a45cac4"},"vehicle_type_id":"4","last_reported":1771493633,"current_range_meters":6800,"station_id":"ce4bhhh2rcd13ifvqfk0","pricing_plan_id":"cebpf4jnsgd1na2vs0mg"},{"bike_id":"7cc7ae6d-fe1b-4556-aa28-0dd3a5e0cb66","system_id":"levelo_inurba_marseille","lat":43.28719,"lon":5.36093,"is_reserved":false,"is_disabled":false,"rental_uris":{"android":"levelo://app?vid=7cc7ae6d-fe1b-4556-aa28-0dd3a5e0cb66","ios":"levelo://app?vid=7cc7ae6d-fe1b-4556-aa28-0dd3a5e0cb66"},"vehicle_type_id":"4","last_reported":1771493633,"current_range_meters":37600,"station_id":"cki0cbj6b192h4jlfktg","pricing_plan_id":"cebpf4jnsgd1na2vs0mg"},{"bike_id":"e6c1de9c-2deb-4b67-aa84-2176530c24d5","system_id":"levelo_inurba_marseille","lat":43.28852,"lon":5.39328,"is_reserved":false,"is_disabled":false,"rental_uris":{"android":"levelo://app?vid=e6c1de9c-2deb-4b67-aa84-2176530c24d5","ios":"levelo://app?vid=e6c1de9c-2deb-4b67-aa84-2176530c24d5"},"vehicle_type_id":"4","last_reported":1771493633,"current_range_meters":38000,"station_id":"ce4bh2p2rcd13ifvqdi0","pricing_plan_id":"cebpf4jnsgd1na2vs0mg"},{"bike_id":"048679f1-6b5a-430f-b12c-7c817d77bd31","system_id":"levelo_inurba_marseille","lat":43.26684,"lon":5.38276,"is_reserved":false,"is_disabled":false,"rental_uris":{"android":"levelo://app?vid=048679f1-6b5a-430f-b12c-7c817d77bd31","ios":"levelo://app?vid=048679f1-6b5a-430f-b12c-7c817d77bd31"},"vehicle_type_id":"4","last_reported":1771493633,"current_range_meters":36800,"station_id":"ce4bhg92rcd13ifvqf90","pricing_plan_id":"cebpf4jnsgd1na2vs0mg"},{"bike_id":"0755867f-5640-414a-b41f-a3c933ce811e","system_id":"levelo_inurba_marseille","lat":43.29026,"lon":5.3812,"is_reserved":false,"is_disabled":false,"rental_uris":{"android":"levelo://app?vid=0755867f-5640-414a-b41f-a3c933ce811e","ios":"levelo://app?vid=0755867f-5640-414a-b41f-a3c933ce811e"},"vehicle_type_id":"4","last_reported":1771493633,"current_range_meters":33200,"station_id":"ce4bh4p2rcd13ifvqe1g","pricing_plan_id":"cebpf4jnsgd1na2vs0mg"},{"bike_id":"351bcd66-96e5-4e62-ae12-2c87a2f81846","system_id":"levelo_inurba_marseille","lat":43.27549,"lon":5.38435,"is_reserved":false,"is_disabled":false,"rental_uris":{"android":"levelo://app?vid=351bcd66-96e5-4e62-ae12-2c87a2f81846","ios":"levelo://app?vid=351bcd66-96e5-4e62-ae12-2c87a2f81846"},"vehicle_type_id":"4","last_reported":1771493633,"current_range_meters":39200,"station_id":"ce4bhh92rcd13ifvqfi0","pricing_plan_id":"cebpf4jnsgd1na2vs0mg"},{"bike_id":"1c09d9bd-54fb-4be8-81ee-d9e761e8a40a","system_id":"levelo_inurba_marseille","lat":43.324426,"lon":5.404471,"is_reserved":false,"is_disabled":false,"rental_uris":{"android":"levelo://app?vid=1c09d9bd-54fb-4be8-81ee-d9e761e8a40a","ios":"levelo://app?vid=1c09d9bd-54fb-4be8-81ee-d9e761e8a40a"},"vehicle_type_id":"4","last_reported":1771493633,"current_range_meters":28800,"station_id":"","pricing_plan_id":"cebpf4jnsgd1na2vs0mg"},{"bike_id":"995dd4aa-d943-4547-aee8-c3325bdb05ae","system_id":"levelo_inurba_marseille","lat":43.31251,"lon":5.40178,"is_reserved":false,"is_disabled":true,"rental_uris":{"android":"levelo://app?vid=995dd4aa-d943-4547-aee8-c3325bdb05ae","ios":"levelo://app?vid=995dd4aa-d943-4547-aee8-c3325bdb05ae"},"vehicle_type_id":"4","last_reported":1771493633,"current_range_meters":22000,"station_id":"ce4bh092rcd13ifvqd30","pricing_plan_id":"cebpf4jnsgd1na2vs0mg"},{"bike_id":"46bd0fbe-1b91-4173-8a8a-35c013d8c3a4","system_id":"levelo_inurba_marseille","lat":43.28947,"lon":5.39683,"is_reserved":false,"is_disabled":false,"rental_uris":{"android":"levelo://app?vid=46bd0fbe-1b91-4173-8a8a-35c013d8c3a4","ios":"levelo://app?vid=46bd0fbe-1b91-4173-8a8a-35c013d8c3a4"},"vehicle_type_id":"4","last_reported":1771493633,"current_range_meters":35600,"station_id":"ce4bh3h2rcd13ifvqdn0","pricing_plan_id":"cebpf4jnsgd1na2vs0mg"},{"bike_id":"40f2ba87-9e99-4eb0-a681-ed6e619ceee5","system_id":"levelo_inurba_marseille","lat":43.30919,"lon":5.36853,"is_reserved":false,"is_disabled":false,"rental_uris":{"android":"levelo://app?vid=40f2ba87-9e99-4eb0-a681-ed6e619ceee5","ios":"levelo://app?vid=40f2ba87-9e99-4eb0-a681-ed6e619ceee5"},"vehicle_type_id":"4","last_reported":1771493633,"current_range_meters":24400,"station_id":"ce4bgn92rcd13ifvqbvg","pricing_plan_id":"cebpf4jnsgd1na2vs0mg"},{"bike_id":"2bc11330-0c0c-49bb-9a81-5405a305d1d2","system_id":"levelo_inurba_marseille","lat":43.28494,"lon":5.38416,"is_reserved":false,"is_disabled":false,"rental_uris":{"android":"levelo://app?vid=2bc11330-0c0c-49bb-9a81-5405a305d1d2","ios":"levelo://app?vid=2bc11330-0c0c-49bb-9a81-5405a305d1d2"},"vehicle_type_id":"4","last_reported":1771493633,"current_range_meters":39200,"station_id":"ce4bh512rcd13ifvqe3g","pricing_plan_id":"cebpf4jnsgd1na2vs0mg"},{"bike_id":"97e5b8bb-9ce2-4a3e-b4a9-8b7acc5a9dcc","system_id":"levelo_inurba_marseille","lat":43.292129,"lon":5.360839,"is_reserved":false,"is_disabled":false,"rental_uris":{"android":"levelo://app?vid=97e5b8bb-9ce2-4a3e-b4a9-8b7acc5a9dcc","ios":"levelo://app?vid=97e5b8bb-9ce2-4a3e-b4a9-8b7acc5a9dcc"},"vehicle_type_id":"4","last_reported":1771493633,"current_range_meters":40000,"station_id":"ce4bhbh2rcd13ifvqeqg","pricing_plan_id":"cebpf4jnsgd1na2vs0mg"},{"bike_id":"46c447a8-c22d-46e4-b3ec-c11963541ce1","system_id":"levelo_inurba_marseille","lat":43.29725,"lon":5.37686,"is_reserved":false,"is_disabled":false,"rental_uris":{"android":"levelo://app?vid=46c447a8-c22d-46e4-b3ec-c11963541ce1","ios":"levelo://app?vid=46c447a8-c22d-46e4-b3ec-c11963541ce1"},"vehicle_type_id":"4","last_reported":1771493633,"current_range_meters":20800,"station_id":"ce4bgkh2rcd13ifvqbl0","pricing_plan_id":"cebpf4jnsgd1na2vs0mg"},{"bike_id":"3d496d2a-e641-4bb2-9318-ff2f30c8d1d1","system_id":"levelo_inurba_marseille","lat":43.2903,"lon":5.39998,"is_reserved":false,"is_disabled":false,"rental_uris":{"android":"levelo://app?vid=3d496d2a-e641-4bb2-9318-ff2f30c8d1d1","ios":"levelo://app?vid=3d496d2a-e641-4bb2-9318-ff2f30c8d1d1"},"vehicle_type_id":"4","last_reported":1771493633,"current_range_meters":35600,"station_id":"ce4bh392rcd13ifvqdm0","pricing_plan_id":"cebpf4jnsgd1na2vs0mg"},{"bike_id":"9daa25c7-d524-46ae-8d41-0a3c36c8c2a4","system_id":"levelo_inurba_marseille","lat":43.29106,"lon":5.4,"is_reserved":false,"is_disabled":false,"rental_uris":{"android":"levelo://app?vid=9daa25c7-d524-46ae-8d41-0a3c36c8c2a4","ios":"levelo://app?vid=9daa25c7-d524-46ae-8d41-0a3c36c8c2a4"},"vehicle_type_id":"4","last_reported":1771493633,"current_range_meters":16400,"station_id":"","pricing_plan_id":"cebpf4jnsgd1na2vs0mg"},{"bike_id":"748e0f94-1d84-4e99-a2d8-3ed4f6188416","system_id":"levelo_inurba_marseille","lat":43.25111,"lon":5.4036,"is_reserved":false,"is_disabled":false,"rental_uris":{"android":"levelo://app?vid=748e0f94-1d84-4e99-a2d8-3ed4f6188416","ios":"levelo://app?vid=748e0f94-1d84-4e99-a2d8-3ed4f6188416"},"vehicle_type_id":"4","last_reported":1771493633,"current_range_meters":32800,"station_id":"ce4bhlh2rcd13ifvqgig","pricing_plan_id":"cebpf4jnsgd1na2vs0mg"},{"bike_id":"88df8aeb-f21d-4421-82fe-25d429904f5b","system_id":"levelo_inurba_marseille","lat":43.2798,"lon":5.41659,"is_reserved":false,"is_disabled":false,"rental_uris":{"android":"levelo://app?vid=88df8aeb-f21d-4421-82fe-25d429904f5b","ios":"levelo://app?vid=88df8aeb-f21d-4421-82fe-25d429904f5b"},"vehicle_type_id":"4","last_reported":1771493633,"current_range_meters":26000,"station_id":"ce4bho12rcd13ifvqh1g","pricing_plan_id":"cebpf4jnsgd1na2vs0mg"},{"bike_id":"f2d30de6-4c83-468b-9ea0-b4022ee843f0","system_id":"levelo_inurba_marseille","lat":43.32358,"lon":5.36731,"is_reserved":false,"is_disabled":false,"rental_uris":{"android":"levelo://app?vid=f2d30de6-4c83-468b-9ea0-b4022ee843f0","ios":"levelo://app?vid=f2d30de6-4c83-468b-9ea0-b4022ee843f0"},"vehicle_type_id":"4","last_reported":1771493633,"current_range_meters":26000,"station_id":"ce4bhsh2rcd13ifvqi2g","pricing_plan_id":"cebpf4jnsgd1na2vs0mg"},{"bike_id":"96d49a0a-bcf2-4d4e-a356-0435ffbd5d97","system_id":"levelo_inurba_marseille","lat":43.324886,"lon":5.383071,"is_reserved":false,"is_disabled":false,"rental_uris":{"android":"levelo://app?vid=96d49a0a-bcf2-4d4e-a356-0435ffbd5d97","ios":"levelo://app?vid=96d49a0a-bcf2-4d4e-a356-0435ffbd5d97"},"vehicle_type_id":"4","last_reported":1771493633,"current_range_meters":28400,"station_id":"st_d4asgbiv49dc73anf9m0","pricing_plan_id":"cebpf4jnsgd1na2vs0mg"},{"bike_id":"d603907d-36d6-4239-ba61-7fa0e01e0adf","system_id":"levelo_inurba_marseille","lat":43.30897,"lon":5.36864,"is_reserved":false,"is_disabled":false,"rental_uris":{"android":"levelo://app?vid=d603907d-36d6-4239-ba61-7fa0e01e0adf","ios":"levelo://app?vid=d603907d-36d6-4239-ba61-7fa0e01e0adf"},"vehicle_type_id":"4","last_reported":1771493633,"current_range_meters":34000,"station_id":"ce4bgn92rcd13ifvqbvg","pricing_plan_id":"cebpf4jnsgd1na2vs0mg"},{"bike_id":"5c395fc7-d19c-473a-a750-4f54b6a58e6c","system_id":"levelo_inurba_marseille","lat":43.33612,"lon":5.41017,"is_reserved":false,"is_disabled":false,"rental_uris":{"android":"levelo://app?vid=5c395fc7-d19c-473a-a750-4f54b6a58e6c","ios":"levelo://app?vid=5c395fc7-d19c-473a-a750-4f54b6a58e6c"},"vehicle_type_id":"4","last_reported":1771493633,"current_range_meters":27600,"station_id":"ce4bhqh2rcd13ifvqhmg","pricing_plan_id":"cebpf4jnsgd1na2vs0mg"},{"bike_id":"e071cb6b-00dd-46cc-bbae-0c336769674f","system_id":"levelo_inurba_marseille","lat":43.26503,"lon":5.3955,"is_reserved":false,"is_disabled":false,"rental_uris":{"android":"levelo://app?vid=e071cb6b-00dd-46cc-bbae-0c336769674f","ios":"levelo://app?vid=e071cb6b-00dd-46cc-bbae-0c336769674f"},"vehicle_type_id":"4","last_reported":1771493633,"current_range_meters":30000,"station_id":"ce4bhi12rcd13ifvqfq0","pricing_plan_id":"cebpf4jnsgd1na2vs0mg"},{"bike_id":"01c62984-a2ae-4489-84a9-6a173aa3a0f3","system_id":"levelo_inurba_marseille","lat":43.31184,"lon":5.36846,"is_reserved":false,"is_disabled":true,"rental_uris":{"android":"levelo://app?vid=01c62984-a2ae-4489-84a9-6a173aa3a0f3","ios":"levelo://app?vid=01c62984-a2ae-4489-84a9-6a173aa3a0f3"},"vehicle_type_id":"4","last_reported":1771493633,"current_range_meters":25600,"station_id":"ce4bgl92rcd13ifvqbq0","pricing_plan_id":"cebpf4jnsgd1na2vs0mg"},{"bike_id":"0f10428a-bdc4-429e-8e33-e4cb0dd1ce62","system_id":"levelo_inurba_marseille","lat":43.27994,"lon":5.38751,"is_reserved":false,"is_disabled":false,"rental_uris":{"android":"levelo://app?vid=0f10428a-bdc4-429e-8e33-e4cb0dd1ce62","ios":"levelo://app?vid=0f10428a-bdc4-429e-8e33-e4cb0dd1ce62"},"vehicle_type_id":"4","last_reported":1771493633,"current_range_meters":39200,"station_id":"ce4bhg12rcd13ifvqf80","pricing_plan_id":"cebpf4jnsgd1na2vs0mg"},{"bike_id":"e9c8c195-4938-4494-9005-66aa872cbce1","system_id":"levelo_inurba_marseille","lat":43.31064,"lon":5.36881,"is_reserved":false,"is_disabled":false,"rental_uris":{"android":"levelo://app?vid=e9c8c195-4938-4494-9005-66aa872cbce1","ios":"levelo://app?vid=e9c8c195-4938-4494-9005-66aa872cbce1"},"vehicle_type_id":"4","last_reported":1771493633,"current_range_meters":17600,"station_id":"","pricing_plan_id":"cebpf4jnsgd1na2vs0mg"},{"bike_id":"e4ed0b5d-881b-4b60-82dc-fcefb5f5d430","system_id":"levelo_inurba_marseille","lat":43.29552,"lon":5.4229,"is_reserved":false,"is_disabled":false,"rental_uris":{"android":"levelo://app?vid=e4ed0b5d-881b-4b60-82dc-fcefb5f5d430","ios":"levelo://app?vid=e4ed0b5d-881b-4b60-82dc-fcefb5f5d430"},"vehicle_type_id":"4","last_reported":1771493633,"current_range_meters":38800,"station_id":"ce4bhph2rcd13ifvqhdg","pricing_plan_id":"cebpf4jnsgd1na2vs0mg"},{"bike_id":"98a67533-ea7b-4164-baa5-193216bf6d2e","system_id":"levelo_inurba_marseille","lat":43.29185,"lon":5.37148,"is_reserved":false,"is_disabled":false,"rental_uris":{"android":"levelo://app?vid=98a67533-ea7b-4164-baa5-193216bf6d2e","ios":"levelo://app?vid=98a67533-ea7b-4164-baa5-193216bf6d2e"},"vehicle_type_id":"4","last_reported":1771493633,"current_range_meters":30000,"station_id":"ce4bha92rcd13ifvqeh0","pricing_plan_id":"cebpf4jnsgd1na2vs0mg"},{"bike_id":"a2aac6db-ff2a-410f-9224-52b6b4391027","system_id":"levelo_inurba_marseille","lat":43.25109,"lon":5.40329,"is_reserved":false,"is_disabled":false,"rental_uris":{"android":"levelo://app?vid=a2aac6db-ff2a-410f-9224-52b6b4391027","ios":"levelo://app?vid=a2aac6db-ff2a-410f-9224-52b6b4391027"},"vehicle_type_id":"4","last_reported":1771493633,"current_range_meters":25200,"station_id":"ce4bhlh2rcd13ifvqgig","pricing_plan_id":"cebpf4jnsgd1na2vs0mg"},{"bike_id":"b136cfe6-77f0-4c5a-b44f-0d1cbc19ecf7","system_id":"levelo_inurba_marseille","lat":43.27977,"lon":5.38742,"is_reserved":false,"is_disabled":false,"rental_uris":{"android":"levelo://app?vid=b136cfe6-77f0-4c5a-b44f-0d1cbc19ecf7","ios":"levelo://app?vid=b136cfe6-77f0-4c5a-b44f-0d1cbc19ecf7"},"vehicle_type_id":"4","last_reported":1771493633,"current_range_meters":21600,"station_id":"ce4bhg12rcd13ifvqf80","pricing_plan_id":"cebpf4jnsgd1na2vs0mg"},{"bike_id":"7a3540a6-acb0-4690-92e8-7f2c29fcbf6c","system_id":"levelo_inurba_marseille","lat":43.30946,"lon":5.39039,"is_reserved":false,"is_disabled":false,"rental_uris":{"android":"levelo://app?vid=7a3540a6-acb0-4690-92e8-7f2c29fcbf6c","ios":"levelo://app?vid=7a3540a6-acb0-4690-92e8-7f2c29fcbf6c"},"vehicle_type_id":"4","last_reported":1771493633,"current_range_meters":30400,"station_id":"ce4bgup2rcd13ifvqco0","pricing_plan_id":"cebpf4jnsgd1na2vs0mg"},{"bike_id":"af1f5da2-4ff9-431d-8e5b-ac8865d317e8","system_id":"levelo_inurba_marseille","lat":43.24398,"lon":5.37075,"is_reserved":false,"is_disabled":false,"rental_uris":{"android":"levelo://app?vid=af1f5da2-4ff9-431d-8e5b-ac8865d317e8","ios":"levelo://app?vid=af1f5da2-4ff9-431d-8e5b-ac8865d317e8"},"vehicle_type_id":"4","last_reported":1771493633,"current_range_meters":8400,"station_id":"ce4bhhh2rcd13ifvqfk0","pricing_plan_id":"cebpf4jnsgd1na2vs0mg"},{"bike_id":"091f7dbf-a446-496b-9e4a-a29b4a835f56","system_id":"levelo_inurba_marseille","lat":43.27664,"lon":5.38935,"is_reserved":false,"is_disabled":true,"rental_uris":{"android":"levelo://app?vid=091f7dbf-a446-496b-9e4a-a29b4a835f56","ios":"levelo://app?vid=091f7dbf-a446-496b-9e4a-a29b4a835f56"},"vehicle_type_id":"4","last_reported":1771493633,"current_range_meters":9200,"station_id":"ce4bhi12rcd13ifvqfo0","pricing_plan_id":"cebpf4jnsgd1na2vs0mg"},{"bike_id":"659923c1-de2a-425b-b089-253fcf51c04f","system_id":"levelo_inurba_marseille","lat":43.24166,"lon":5.36399,"is_reserved":false,"is_disabled":false,"rental_uris":{"android":"levelo://app?vid=659923c1-de2a-425b-b089-253fcf51c04f","ios":"levelo://app?vid=659923c1-de2a-425b-b089-253fcf51c04f"},"vehicle_type_id":"4","last_reported":1771493633,"current_range_meters":24800,"station_id":"cpo36qri1sfpv3e86is0","pricing_plan_id":"cebpf4jnsgd1na2vs0mg"},{"bike_id":"f33ff9b1-33ae-4bde-a246-24dbf2efded5","system_id":"levelo_inurba_marseille","lat":43.31526,"lon":5.38042,"is_reserved":false,"is_disabled":false,"rental_uris":{"android":"levelo://app?vid=f33ff9b1-33ae-4bde-a246-24dbf2efded5","ios":"levelo://app?vid=f33ff9b1-33ae-4bde-a246-24dbf2efded5"},"vehicle_type_id":"4","last_reported":1771493633,"current_range_meters":16400,"station_id":"ce4bhsp2rcd13ifvqi50","pricing_plan_id":"cebpf4jnsgd1na2vs0mg"},{"bike_id":"7a15b882-a18b-490f-bd79-31c4f4320458","system_id":"levelo_inurba_marseille","lat":43.30602,"lon":5.37213,"is_reserved":false,"is_disabled":false,"rental_uris":{"android":"levelo://app?vid=7a15b882-a18b-490f-bd79-31c4f4320458","ios":"levelo://app?vid=7a15b882-a18b-490f-bd79-31c4f4320458"},"vehicle_type_id":"4","last_reported":1771493633,"current_range_meters":28000,"station_id":"ce4bgqh2rcd13ifvqc4g","pricing_plan_id":"cebpf4jnsgd1na2vs0mg"},{"bike_id":"97acf96b-dc2d-4e4e-be92-698764f6b708","system_id":"levelo_inurba_marseille","lat":43.30943,"lon":5.39056,"is_reserved":false,"is_disabled":false,"rental_uris":{"android":"levelo://app?vid=97acf96b-dc2d-4e4e-be92-698764f6b708","ios":"levelo://app?vid=97acf96b-dc2d-4e4e-be92-698764f6b708"},"vehicle_type_id":"4","last_reported":1771493633,"current_range_meters":8400,"station_id":"ce4bgup2rcd13ifvqco0","pricing_plan_id":"cebpf4jnsgd1na2vs0mg"},{"bike_id":"19d3787d-1c8e-4249-902d-f5e776447478","system_id":"levelo_inurba_marseille","lat":43.25535,"lon":5.37657,"is_reserved":false,"is_disabled":false,"rental_uris":{"android":"levelo://app?vid=19d3787d-1c8e-4249-902d-f5e776447478","ios":"levelo://app?vid=19d3787d-1c8e-4249-902d-f5e776447478"},"vehicle_type_id":"4","last_reported":1771493633,"current_range_meters":28000,"station_id":"ce4bhh12rcd13ifvqff0","pricing_plan_id":"cebpf4jnsgd1na2vs0mg"},{"bike_id":"5c0952e3-3469-48d1-b0ac-88596b084e30","system_id":"levelo_inurba_marseille","lat":43.33757,"lon":5.37498,"is_reserved":false,"is_disabled":false,"rental_uris":{"android":"levelo://app?vid=5c0952e3-3469-48d1-b0ac-88596b084e30","ios":"levelo://app?vid=5c0952e3-3469-48d1-b0ac-88596b084e30"},"vehicle_type_id":"4","last_reported":1771493633,"current_range_meters":38000,"station_id":"","pricing_plan_id":"cebpf4jnsgd1na2vs0mg"},{"bike_id":"b7dac767-24d1-4be3-af83-6e09c2172a28","system_id":"levelo_inurba_marseille","lat":43.31529,"lon":5.38035,"is_reserved":false,"is_disabled":false,"rental_uris":{"android":"levelo://app?vid=b7dac767-24d1-4be3-af83-6e09c2172a28","ios":"levelo://app?vid=b7dac767-24d1-4be3-af83-6e09c2172a28"},"vehicle_type_id":"4","last_reported":1771493633,"current_range_meters":14800,"station_id":"ce4bhsp2rcd13ifvqi50","pricing_plan_id":"cebpf4jnsgd1na2vs0mg"},{"bike_id":"593b2660-cf9e-47b7-a050-a0230d391b95","system_id":"levelo_inurba_marseille","lat":43.29535,"lon":5.37486,"is_reserved":false,"is_disabled":false,"rental_uris":{"android":"levelo://app?vid=593b2660-cf9e-47b7-a050-a0230d391b95","ios":"levelo://app?vid=593b2660-cf9e-47b7-a050-a0230d391b95"},"vehicle_type_id":"4","last_reported":1771493633,"current_range_meters":40000,"station_id":"ce4bgkp2rcd13ifvqbmg","pricing_plan_id":"cebpf4jnsgd1na2vs0mg"},{"bike_id":"0d3daa30-3ce2-4060-84bc-06344c4adf07","system_id":"levelo_inurba_marseille","lat":43.29039,"lon":5.37571,"is_reserved":false,"is_disabled":false,"rental_uris":{"android":"levelo://app?vid=0d3daa30-3ce2-4060-84bc-06344c4adf07","ios":"levelo://app?vid=0d3daa30-3ce2-4060-84bc-06344c4adf07"},"vehicle_type_id":"4","last_reported":1771493633,"current_range_meters":20000,"station_id":"ce4bh692rcd13ifvqe90","pricing_plan_id":"cebpf4jnsgd1na2vs0mg"},{"bike_id":"a2beeeff-0cc2-419f-a9a2-b380e8557ccb","system_id":"levelo_inurba_marseille","lat":43.27204,"lon":5.39189,"is_reserved":false,"is_disabled":false,"rental_uris":{"android":"levelo://app?vid=a2beeeff-0cc2-419f-a9a2-b380e8557ccb","ios":"levelo://app?vid=a2beeeff-0cc2-419f-a9a2-b380e8557ccb"},"vehicle_type_id":"4","last_reported":1771493633,"current_range_meters":16400,"station_id":"ce4bhhp2rcd13ifvqfm0","pricing_plan_id":"cebpf4jnsgd1na2vs0mg"},{"bike_id":"166e35c4-ba58-48ae-81a6-945bb5d753ca","system_id":"levelo_inurba_marseille","lat":43.2465,"lon":5.38873,"is_reserved":false,"is_disabled":false,"rental_uris":{"android":"levelo://app?vid=166e35c4-ba58-48ae-81a6-945bb5d753ca","ios":"levelo://app?vid=166e35c4-ba58-48ae-81a6-945bb5d753ca"},"vehicle_type_id":"4","last_reported":1771493633,"current_range_meters":27200,"station_id":"ce4bhg12rcd13ifvqf60","pricing_plan_id":"cebpf4jnsgd1na2vs0mg"},{"bike_id":"1e69471d-55ba-4e91-81c1-2c61c1be7739","system_id":"levelo_inurba_marseille","lat":43.26371,"lon":5.4108,"is_reserved":false,"is_disabled":false,"rental_uris":{"android":"levelo://app?vid=1e69471d-55ba-4e91-81c1-2c61c1be7739","ios":"levelo://app?vid=1e69471d-55ba-4e91-81c1-2c61c1be7739"},"vehicle_type_id":"4","last_reported":1771493633,"current_range_meters":36400,"station_id":"st_d4e5ca6na9uc73bfl5fg","pricing_plan_id":"cebpf4jnsgd1na2vs0mg"},{"bike_id":"2cbbc2f5-92a3-4c38-a0e2-181ee10ae410","system_id":"levelo_inurba_marseille","lat":43.27522,"lon":5.42434,"is_reserved":false,"is_disabled":false,"rental_uris":{"android":"levelo://app?vid=2cbbc2f5-92a3-4c38-a0e2-181ee10ae410","ios":"levelo://app?vid=2cbbc2f5-92a3-4c38-a0e2-181ee10ae410"},"vehicle_type_id":"4","last_reported":1771493633,"current_range_meters":36000,"station_id":"ce4bhn92rcd13ifvqgrg","pricing_plan_id":"cebpf4jnsgd1na2vs0mg"},{"bike_id":"77c84e28-a226-4c9d-bcc9-76b7f8c0d11c","system_id":"levelo_inurba_marseille","lat":43.24555,"lon":5.39535,"is_reserved":false,"is_disabled":true,"rental_uris":{"android":"levelo://app?vid=77c84e28-a226-4c9d-bcc9-76b7f8c0d11c","ios":"levelo://app?vid=77c84e28-a226-4c9d-bcc9-76b7f8c0d11c"},"vehicle_type_id":"4","last_reported":1771493633,"current_range_meters":35600,"station_id":"ce4bhlp2rcd13ifvqgjg","pricing_plan_id":"cebpf4jnsgd1na2vs0mg"},{"bike_id":"c9b743d2-ea19-486c-9150-6905c9d98a27","system_id":"levelo_inurba_marseille","lat":43.26561,"lon":5.40329,"is_reserved":false,"is_disabled":false,"rental_uris":{"android":"levelo://app?vid=c9b743d2-ea19-486c-9150-6905c9d98a27","ios":"levelo://app?vid=c9b743d2-ea19-486c-9150-6905c9d98a27"},"vehicle_type_id":"4","last_reported":1771493633,"current_range_meters":22800,"station_id":"ce4bhmp2rcd13ifvqgng","pricing_plan_id":"cebpf4jnsgd1na2vs0mg"},{"bike_id":"368d41e2-ffd2-4aa4-8921-46c854d7e0bd","system_id":"levelo_inurba_marseille","lat":43.28578,"lon":5.39506,"is_reserved":false,"is_disabled":false,"rental_uris":{"android":"levelo://app?vid=368d41e2-ffd2-4aa4-8921-46c854d7e0bd","ios":"levelo://app?vid=368d41e2-ffd2-4aa4-8921-46c854d7e0bd"},"vehicle_type_id":"4","last_reported":1771493633,"current_range_meters":15200,"station_id":"ce4bh292rcd13ifvqdg0","pricing_plan_id":"cebpf4jnsgd1na2vs0mg"},{"bike_id":"485721fe-ed4c-48bb-b6fc-4d54038110f3","system_id":"levelo_inurba_marseille","lat":43.24066,"lon":5.37744,"is_reserved":false,"is_disabled":false,"rental_uris":{"android":"levelo://app?vid=485721fe-ed4c-48bb-b6fc-4d54038110f3","ios":"levelo://app?vid=485721fe-ed4c-48bb-b6fc-4d54038110f3"},"vehicle_type_id":"4","last_reported":1771493633,"current_range_meters":9200,"station_id":"ce4bhnp2rcd13ifvqgvg","pricing_plan_id":"cebpf4jnsgd1na2vs0mg"},{"bike_id":"fc1aa6b8-6e5e-467f-92e9-aae02099ae9d","system_id":"levelo_inurba_marseille","lat":43.24637,"lon":5.43143,"is_reserved":false,"is_disabled":false,"rental_uris":{"android":"levelo://app?vid=fc1aa6b8-6e5e-467f-92e9-aae02099ae9d","ios":"levelo://app?vid=fc1aa6b8-6e5e-467f-92e9-aae02099ae9d"},"vehicle_type_id":"4","last_reported":1771493633,"current_range_meters":8000,"station_id":"st_d2m6c4gdas8pm72e190g","pricing_plan_id":"cebpf4jnsgd1na2vs0mg"},{"bike_id":"247929ef-06db-4867-a845-71bf576c71e1","system_id":"levelo_inurba_marseille","lat":43.2887,"lon":5.42509,"is_reserved":false,"is_disabled":false,"rental_uris":{"android":"levelo://app?vid=247929ef-06db-4867-a845-71bf576c71e1","ios":"levelo://app?vid=247929ef-06db-4867-a845-71bf576c71e1"},"vehicle_type_id":"4","last_reported":1771493633,"current_range_meters":37600,"station_id":"st_d3b462108ojc7389ooeg","pricing_plan_id":"cebpf4jnsgd1na2vs0mg"},{"bike_id":"4585df67-5569-4771-aa03-6e87fdd568df","system_id":"levelo_inurba_marseille","lat":43.23159,"lon":5.43708,"is_reserved":false,"is_disabled":false,"rental_uris":{"android":"levelo://app?vid=4585df67-5569-4771-aa03-6e87fdd568df","ios":"levelo://app?vid=4585df67-5569-4771-aa03-6e87fdd568df"},"vehicle_type_id":"4","last_reported":1771493633,"current_range_meters":27200,"station_id":"ce4bhmp2rcd13ifvqgog","pricing_plan_id":"cebpf4jnsgd1na2vs0mg"},{"bike_id":"1bdf262b-5b53-4108-b666-339efbe4431c","system_id":"levelo_inurba_marseille","lat":43.29034,"lon":5.38124,"is_reserved":false,"is_disabled":true,"rental_uris":{"android":"levelo://app?vid=1bdf262b-5b53-4108-b666-339efbe4431c","ios":"levelo://app?vid=1bdf262b-5b53-4108-b666-339efbe4431c"},"vehicle_type_id":"4","last_reported":1771493633,"current_range_meters":34000,"station_id":"ce4bh4p2rcd13ifvqe1g","pricing_plan_id":"cebpf4jnsgd1na2vs0mg"},{"bike_id":"57723f7a-061e-46b7-a0ae-b6210e118d77","system_id":"levelo_inurba_marseille","lat":43.30878,"lon":5.36885,"is_reserved":false,"is_disabled":false,"rental_uris":{"android":"levelo://app?vid=57723f7a-061e-46b7-a0ae-b6210e118d77","ios":"levelo://app?vid=57723f7a-061e-46b7-a0ae-b6210e118d77"},"vehicle_type_id":"4","last_reported":1771493633,"current_range_meters":30400,"station_id":"ce4bgn92rcd13ifvqbvg","pricing_plan_id":"cebpf4jnsgd1na2vs0mg"},{"bike_id":"c1b26ae8-8837-4bd2-b0e2-b890b8516fff","system_id":"levelo_inurba_marseille","lat":43.3125,"lon":5.3687,"is_reserved":false,"is_disabled":false,"rental_uris":{"android":"levelo://app?vid=c1b26ae8-8837-4bd2-b0e2-b890b8516fff","ios":"levelo://app?vid=c1b26ae8-8837-4bd2-b0e2-b890b8516fff"},"vehicle_type_id":"4","last_reported":1771493633,"current_range_meters":38000,"station_id":"ce4bgl92rcd13ifvqbq0","pricing_plan_id":"cebpf4jnsgd1na2vs0mg"},{"bike_id":"10ea0070-e613-4a91-aafc-71c23d5bafe1","system_id":"levelo_inurba_marseille","lat":43.31225,"lon":5.36855,"is_reserved":false,"is_disabled":false,"rental_uris":{"android":"levelo://app?vid=10ea0070-e613-4a91-aafc-71c23d5bafe1","ios":"levelo://app?vid=10ea0070-e613-4a91-aafc-71c23d5bafe1"},"vehicle_type_id":"4","last_reported":1771493633,"current_range_meters":28400,"station_id":"ce4bgl92rcd13ifvqbq0","pricing_plan_id":"cebpf4jnsgd1na2vs0mg"},{"bike_id":"f4b72c32-b078-47bf-bd6e-2a4cf9260d45","system_id":"levelo_inurba_marseille","lat":43.28689,"lon":5.3554,"is_reserved":false,"is_disabled":true,"rental_uris":{"android":"levelo://app?vid=f4b72c32-b078-47bf-bd6e-2a4cf9260d45","ios":"levelo://app?vid=f4b72c32-b078-47bf-bd6e-2a4cf9260d45"},"vehicle_type_id":"4","last_reported":1771493633,"current_range_meters":32000,"station_id":"","pricing_plan_id":"cebpf4jnsgd1na2vs0mg"},{"bike_id":"786db946-01e6-401d-825a-5be2365421b8","system_id":"levelo_inurba_marseille","lat":43.25572,"lon":5.382264,"is_reserved":false,"is_disabled":false,"rental_uris":{"android":"levelo://app?vid=786db946-01e6-401d-825a-5be2365421b8","ios":"levelo://app?vid=786db946-01e6-401d-825a-5be2365421b8"},"vehicle_type_id":"4","last_reported":1771493633,"current_range_meters":18000,"station_id":"ce4bhih2rcd13ifvqfs0","pricing_plan_id":"cebpf4jnsgd1na2vs0mg"},{"bike_id":"cdc99c23-84d2-4e46-9c6b-c07a65ce86fb","system_id":"levelo_inurba_marseille","lat":43.27428,"lon":5.39413,"is_reserved":false,"is_disabled":false,"rental_uris":{"android":"levelo://app?vid=cdc99c23-84d2-4e46-9c6b-c07a65ce86fb","ios":"levelo://app?vid=cdc99c23-84d2-4e46-9c6b-c07a65ce86fb"},"vehicle_type_id":"4","last_reported":1771493633,"current_range_meters":12400,"station_id":"ce4bhdp2rcd13ifvqf20","pricing_plan_id":"cebpf4jnsgd1na2vs0mg"},{"bike_id":"f5d22547-d06e-4fad-85c6-2cbbdcd29ad4","system_id":"levelo_inurba_marseille","lat":43.29176,"lon":5.37223,"is_reserved":false,"is_disabled":false,"rental_uris":{"android":"levelo://app?vid=f5d22547-d06e-4fad-85c6-2cbbdcd29ad4","ios":"levelo://app?vid=f5d22547-d06e-4fad-85c6-2cbbdcd29ad4"},"vehicle_type_id":"4","last_reported":1771493633,"current_range_meters":28400,"station_id":"","pricing_plan_id":"cebpf4jnsgd1na2vs0mg"},{"bike_id":"b7832889-4ff5-4ee2-9a8d-e7dc3953a51e","system_id":"levelo_inurba_marseille","lat":43.24809,"lon":5.37441,"is_reserved":false,"is_disabled":false,"rental_uris":{"android":"levelo://app?vid=b7832889-4ff5-4ee2-9a8d-e7dc3953a51e","ios":"levelo://app?vid=b7832889-4ff5-4ee2-9a8d-e7dc3953a51e"},"vehicle_type_id":"4","last_reported":1771493633,"current_range_meters":19600,"station_id":"ce4bhgh2rcd13ifvqfb0","pricing_plan_id":"cebpf4jnsgd1na2vs0mg"},{"bike_id":"6946a672-f062-4471-84f8-45eb3b2d6e19","system_id":"levelo_inurba_marseille","lat":43.27461,"lon":5.42428,"is_reserved":false,"is_disabled":false,"rental_uris":{"android":"levelo://app?vid=6946a672-f062-4471-84f8-45eb3b2d6e19","ios":"levelo://app?vid=6946a672-f062-4471-84f8-45eb3b2d6e19"},"vehicle_type_id":"4","last_reported":1771493633,"current_range_meters":4000,"station_id":"","pricing_plan_id":"cebpf4jnsgd1na2vs0mg"},{"bike_id":"207cc079-ea04-402c-b4a5-126924b6429c","system_id":"levelo_inurba_marseille","lat":43.31241,"lon":5.40166,"is_reserved":false,"is_disabled":false,"rental_uris":{"android":"levelo://app?vid=207cc079-ea04-402c-b4a5-126924b6429c","ios":"levelo://app?vid=207cc079-ea04-402c-b4a5-126924b6429c"},"vehicle_type_id":"4","last_reported":1771493633,"current_range_meters":40000,"station_id":"ce4bh092rcd13ifvqd30","pricing_plan_id":"cebpf4jnsgd1na2vs0mg"},{"bike_id":"cbccf014-acc0-4070-921a-6336571723f4","system_id":"levelo_inurba_marseille","lat":43.2961,"lon":5.37737,"is_reserved":false,"is_disabled":false,"rental_uris":{"android":"levelo://app?vid=cbccf014-acc0-4070-921a-6336571723f4","ios":"levelo://app?vid=cbccf014-acc0-4070-921a-6336571723f4"},"vehicle_type_id":"4","last_reported":1771493633,"current_range_meters":39200,"station_id":"ce4bgi92rcd13ifvqb90","pricing_plan_id":"cebpf4jnsgd1na2vs0mg"},{"bike_id":"a2b17400-8e5c-4ea2-af80-074b6e160bbc","system_id":"levelo_inurba_marseille","lat":43.31488,"lon":5.37307,"is_reserved":false,"is_disabled":false,"rental_uris":{"android":"levelo://app?vid=a2b17400-8e5c-4ea2-af80-074b6e160bbc","ios":"levelo://app?vid=a2b17400-8e5c-4ea2-af80-074b6e160bbc"},"vehicle_type_id":"4","last_reported":1771493633,"current_range_meters":36400,"station_id":"ce4bgt12rcd13ifvqcd0","pricing_plan_id":"cebpf4jnsgd1na2vs0mg"},{"bike_id":"f7ac3962-d885-42ca-8de5-ec6efd9c2a31","system_id":"levelo_inurba_marseille","lat":43.28005,"lon":5.4002,"is_reserved":false,"is_disabled":false,"rental_uris":{"android":"levelo://app?vid=f7ac3962-d885-42ca-8de5-ec6efd9c2a31","ios":"levelo://app?vid=f7ac3962-d885-42ca-8de5-ec6efd9c2a31"},"vehicle_type_id":"4","last_reported":1771493633,"current_range_meters":8400,"station_id":"ce4bho92rcd13ifvqh4g","pricing_plan_id":"cebpf4jnsgd1na2vs0mg"},{"bike_id":"8b503d3c-4149-4f8b-aede-4fed7250a6c7","system_id":"levelo_inurba_marseille","lat":43.3047,"lon":5.3791,"is_reserved":false,"is_disabled":false,"rental_uris":{"android":"levelo://app?vid=8b503d3c-4149-4f8b-aede-4fed7250a6c7","ios":"levelo://app?vid=8b503d3c-4149-4f8b-aede-4fed7250a6c7"},"vehicle_type_id":"4","last_reported":1771493633,"current_range_meters":24800,"station_id":"ce4bgup2rcd13ifvqcn0","pricing_plan_id":"cebpf4jnsgd1na2vs0mg"},{"bike_id":"cdcd8c42-d26a-4e42-9873-59170e37aa87","system_id":"levelo_inurba_marseille","lat":43.2305,"lon":5.35498,"is_reserved":false,"is_disabled":false,"rental_uris":{"android":"levelo://app?vid=cdcd8c42-d26a-4e42-9873-59170e37aa87","ios":"levelo://app?vid=cdcd8c42-d26a-4e42-9873-59170e37aa87"},"vehicle_type_id":"4","last_reported":1771493633,"current_range_meters":39200,"station_id":"cpo3342slgdg3j2ifvpg","pricing_plan_id":"cebpf4jnsgd1na2vs0mg"},{"bike_id":"74f93e91-fd1e-46a3-af86-8c59b80fc809","system_id":"levelo_inurba_marseille","lat":43.26224,"lon":5.40469,"is_reserved":false,"is_disabled":false,"rental_uris":{"android":"levelo://app?vid=74f93e91-fd1e-46a3-af86-8c59b80fc809","ios":"levelo://app?vid=74f93e91-fd1e-46a3-af86-8c59b80fc809"},"vehicle_type_id":"4","last_reported":1771493633,"current_range_meters":27600,"station_id":"ce4bhmh2rcd13ifvqgmg","pricing_plan_id":"cebpf4jnsgd1na2vs0mg"},{"bike_id":"fad3df44-feeb-4aa5-939d-6a398ca4560c","system_id":"levelo_inurba_marseille","lat":43.26787,"lon":5.39413,"is_reserved":false,"is_disabled":false,"rental_uris":{"android":"levelo://app?vid=fad3df44-feeb-4aa5-939d-6a398ca4560c","ios":"levelo://app?vid=fad3df44-feeb-4aa5-939d-6a398ca4560c"},"vehicle_type_id":"4","last_reported":1771493633,"current_range_meters":33200,"station_id":"ce4bhh12rcd13ifvqfg0","pricing_plan_id":"cebpf4jnsgd1na2vs0mg"},{"bike_id":"15ed8152-0b9c-459b-a59e-710f2ab8dbdc","system_id":"levelo_inurba_marseille","lat":43.29064,"lon":5.37167,"is_reserved":false,"is_disabled":false,"rental_uris":{"android":"levelo://app?vid=15ed8152-0b9c-459b-a59e-710f2ab8dbdc","ios":"levelo://app?vid=15ed8152-0b9c-459b-a59e-710f2ab8dbdc"},"vehicle_type_id":"4","last_reported":1771493633,"current_range_meters":14800,"station_id":"ce4bh5p2rcd13ifvqe4g","pricing_plan_id":"cebpf4jnsgd1na2vs0mg"},{"bike_id":"0a2abdfd-1446-492e-8615-96268a59206e","system_id":"levelo_inurba_marseille","lat":43.2594,"lon":5.40902,"is_reserved":false,"is_disabled":false,"rental_uris":{"android":"levelo://app?vid=0a2abdfd-1446-492e-8615-96268a59206e","ios":"levelo://app?vid=0a2abdfd-1446-492e-8615-96268a59206e"},"vehicle_type_id":"4","last_reported":1771493633,"current_range_meters":6400,"station_id":"ce4bhm92rcd13ifvqglg","pricing_plan_id":"cebpf4jnsgd1na2vs0mg"},{"bike_id":"91f95071-cb44-4294-8d05-12a1be58ba9d","system_id":"levelo_inurba_marseille","lat":43.25134,"lon":5.40336,"is_reserved":false,"is_disabled":false,"rental_uris":{"android":"levelo://app?vid=91f95071-cb44-4294-8d05-12a1be58ba9d","ios":"levelo://app?vid=91f95071-cb44-4294-8d05-12a1be58ba9d"},"vehicle_type_id":"4","last_reported":1771493633,"current_range_meters":34800,"station_id":"ce4bhlh2rcd13ifvqgig","pricing_plan_id":"cebpf4jnsgd1na2vs0mg"},{"bike_id":"1f862ab8-d289-4aed-91d3-84c3257f3cd3","system_id":"levelo_inurba_marseille","lat":43.29338,"lon":5.3718,"is_reserved":false,"is_disabled":false,"rental_uris":{"android":"levelo://app?vid=1f862ab8-d289-4aed-91d3-84c3257f3cd3","ios":"levelo://app?vid=1f862ab8-d289-4aed-91d3-84c3257f3cd3"},"vehicle_type_id":"4","last_reported":1771493633,"current_range_meters":36800,"station_id":"ce4bgh92rcd13ifvqb40","pricing_plan_id":"cebpf4jnsgd1na2vs0mg"},{"bike_id":"ed62a73a-4bd7-49f5-ba79-79b7cfcd0252","system_id":"levelo_inurba_marseille","lat":43.28431,"lon":5.35002,"is_reserved":false,"is_disabled":true,"rental_uris":{"android":"levelo://app?vid=ed62a73a-4bd7-49f5-ba79-79b7cfcd0252","ios":"levelo://app?vid=ed62a73a-4bd7-49f5-ba79-79b7cfcd0252"},"vehicle_type_id":"4","last_reported":1771493633,"current_range_meters":27600,"station_id":"ce4bhbh2rcd13ifvqepg","pricing_plan_id":"cebpf4jnsgd1na2vs0mg"},{"bike_id":"42b6100a-41f2-4d60-944d-8dd96a15e3d1","system_id":"levelo_inurba_marseille","lat":43.31443,"lon":5.3735,"is_reserved":false,"is_disabled":false,"rental_uris":{"android":"levelo://app?vid=42b6100a-41f2-4d60-944d-8dd96a15e3d1","ios":"levelo://app?vid=42b6100a-41f2-4d60-944d-8dd96a15e3d1"},"vehicle_type_id":"4","last_reported":1771493633,"current_range_meters":36000,"station_id":"","pricing_plan_id":"cebpf4jnsgd1na2vs0mg"},{"bike_id":"64a5685e-5548-4e31-b55d-812325e7d045","system_id":"levelo_inurba_marseille","lat":43.31683,"lon":5.4048,"is_reserved":false,"is_disabled":false,"rental_uris":{"android":"levelo://app?vid=64a5685e-5548-4e31-b55d-812325e7d045","ios":"levelo://app?vid=64a5685e-5548-4e31-b55d-812325e7d045"},"vehicle_type_id":"4","last_reported":1771493633,"current_range_meters":39200,"station_id":"ce4bh012rcd13ifvqd00","pricing_plan_id":"cebpf4jnsgd1na2vs0mg"},{"bike_id":"11c6bfff-c339-43fd-bdd1-865eec75b1f4","system_id":"levelo_inurba_marseille","lat":43.2496,"lon":5.40493,"is_reserved":false,"is_disabled":false,"rental_uris":{"android":"levelo://app?vid=11c6bfff-c339-43fd-bdd1-865eec75b1f4","ios":"levelo://app?vid=11c6bfff-c339-43fd-bdd1-865eec75b1f4"},"vehicle_type_id":"4","last_reported":1771493633,"current_range_meters":30000,"station_id":"st_d2ngiaodas8pm72gd1h0","pricing_plan_id":"cebpf4jnsgd1na2vs0mg"},{"bike_id":"99b21152-e766-4b5f-b9a3-a676677d8462","system_id":"levelo_inurba_marseille","lat":43.24395,"lon":5.37045,"is_reserved":false,"is_disabled":false,"rental_uris":{"android":"levelo://app?vid=99b21152-e766-4b5f-b9a3-a676677d8462","ios":"levelo://app?vid=99b21152-e766-4b5f-b9a3-a676677d8462"},"vehicle_type_id":"4","last_reported":1771493633,"current_range_meters":25600,"station_id":"ce4bhhh2rcd13ifvqfk0","pricing_plan_id":"cebpf4jnsgd1na2vs0mg"},{"bike_id":"ed801aba-6299-4abc-846c-98c2ac128308","system_id":"levelo_inurba_marseille","lat":43.24392,"lon":5.3707,"is_reserved":false,"is_disabled":false,"rental_uris":{"android":"levelo://app?vid=ed801aba-6299-4abc-846c-98c2ac128308","ios":"levelo://app?vid=ed801aba-6299-4abc-846c-98c2ac128308"},"vehicle_type_id":"4","last_reported":1771493633,"current_range_meters":20000,"station_id":"ce4bhhh2rcd13ifvqfk0","pricing_plan_id":"cebpf4jnsgd1na2vs0mg"},{"bike_id":"bffa4dc7-de01-42d9-9578-8a9dd79b7d9d","system_id":"levelo_inurba_marseille","lat":43.30952,"lon":5.39041,"is_reserved":false,"is_disabled":false,"rental_uris":{"android":"levelo://app?vid=bffa4dc7-de01-42d9-9578-8a9dd79b7d9d","ios":"levelo://app?vid=bffa4dc7-de01-42d9-9578-8a9dd79b7d9d"},"vehicle_type_id":"4","last_reported":1771493633,"current_range_meters":20000,"station_id":"ce4bgup2rcd13ifvqco0","pricing_plan_id":"cebpf4jnsgd1na2vs0mg"},{"bike_id":"28aec728-99a3-4550-b591-e5f70c11fc16","system_id":"levelo_inurba_marseille","lat":43.28665,"lon":5.39984,"is_reserved":false,"is_disabled":false,"rental_uris":{"android":"levelo://app?vid=28aec728-99a3-4550-b591-e5f70c11fc16","ios":"levelo://app?vid=28aec728-99a3-4550-b591-e5f70c11fc16"},"vehicle_type_id":"4","last_reported":1771493633,"current_range_meters":38400,"station_id":"ce4bho92rcd13ifvqh3g","pricing_plan_id":"cebpf4jnsgd1na2vs0mg"},{"bike_id":"bcb5c2f0-34f3-4d59-a83f-d2e5fc0fddae","system_id":"levelo_inurba_marseille","lat":43.24074,"lon":5.37753,"is_reserved":false,"is_disabled":false,"rental_uris":{"android":"levelo://app?vid=bcb5c2f0-34f3-4d59-a83f-d2e5fc0fddae","ios":"levelo://app?vid=bcb5c2f0-34f3-4d59-a83f-d2e5fc0fddae"},"vehicle_type_id":"4","last_reported":1771493633,"current_range_meters":36400,"station_id":"ce4bhnp2rcd13ifvqgvg","pricing_plan_id":"cebpf4jnsgd1na2vs0mg"},{"bike_id":"e59f665b-ca8e-40ab-a2ed-9455369e7fbf","system_id":"levelo_inurba_marseille","lat":43.284726,"lon":5.484018,"is_reserved":false,"is_disabled":false,"rental_uris":{"android":"levelo://app?vid=e59f665b-ca8e-40ab-a2ed-9455369e7fbf","ios":"levelo://app?vid=e59f665b-ca8e-40ab-a2ed-9455369e7fbf"},"vehicle_type_id":"4","last_reported":1771493633,"current_range_meters":25600,"station_id":"","pricing_plan_id":"cebpf4jnsgd1na2vs0mg"},{"bike_id":"c2f7603f-62b4-4a9b-9088-a52a3dabc7aa","system_id":"levelo_inurba_marseille","lat":43.25506,"lon":5.376609,"is_reserved":false,"is_disabled":false,"rental_uris":{"android":"levelo://app?vid=c2f7603f-62b4-4a9b-9088-a52a3dabc7aa","ios":"levelo://app?vid=c2f7603f-62b4-4a9b-9088-a52a3dabc7aa"},"vehicle_type_id":"4","last_reported":1771493633,"current_range_meters":38000,"station_id":"ce4bhh12rcd13ifvqff0","pricing_plan_id":"cebpf4jnsgd1na2vs0mg"},{"bike_id":"7b8c7193-f1f2-43c9-91a4-a4cc93269862","system_id":"levelo_inurba_marseille","lat":43.29543,"lon":5.42275,"is_reserved":false,"is_disabled":false,"rental_uris":{"android":"levelo://app?vid=7b8c7193-f1f2-43c9-91a4-a4cc93269862","ios":"levelo://app?vid=7b8c7193-f1f2-43c9-91a4-a4cc93269862"},"vehicle_type_id":"4","last_reported":1771493633,"current_range_meters":39200,"station_id":"ce4bhph2rcd13ifvqhdg","pricing_plan_id":"cebpf4jnsgd1na2vs0mg"},{"bike_id":"ae1526ac-94c0-4471-b06e-92c0bff1ac42","system_id":"levelo_inurba_marseille","lat":43.280859,"lon":5.396487,"is_reserved":false,"is_disabled":false,"rental_uris":{"android":"levelo://app?vid=ae1526ac-94c0-4471-b06e-92c0bff1ac42","ios":"levelo://app?vid=ae1526ac-94c0-4471-b06e-92c0bff1ac42"},"vehicle_type_id":"4","last_reported":1771493633,"current_range_meters":22800,"station_id":"ce4bho12rcd13ifvqh2g","pricing_plan_id":"cebpf4jnsgd1na2vs0mg"},{"bike_id":"79a951dd-0c82-48f6-8786-65fa669afd4a","system_id":"levelo_inurba_marseille","lat":43.25933,"lon":5.40909,"is_reserved":false,"is_disabled":false,"rental_uris":{"android":"levelo://app?vid=79a951dd-0c82-48f6-8786-65fa669afd4a","ios":"levelo://app?vid=79a951dd-0c82-48f6-8786-65fa669afd4a"},"vehicle_type_id":"4","last_reported":1771493633,"current_range_meters":11200,"station_id":"ce4bhm92rcd13ifvqglg","pricing_plan_id":"cebpf4jnsgd1na2vs0mg"},{"bike_id":"6a073e53-b7ba-45d5-a82b-20ab8b7b8e96","system_id":"levelo_inurba_marseille","lat":43.33553,"lon":5.37475,"is_reserved":false,"is_disabled":false,"rental_uris":{"android":"levelo://app?vid=6a073e53-b7ba-45d5-a82b-20ab8b7b8e96","ios":"levelo://app?vid=6a073e53-b7ba-45d5-a82b-20ab8b7b8e96"},"vehicle_type_id":"4","last_reported":1771493633,"current_range_meters":18000,"station_id":"st_d46tts09ee8s73dlu43g","pricing_plan_id":"cebpf4jnsgd1na2vs0mg"},{"bike_id":"26102047-b65b-42a3-844a-c690a7086e50","system_id":"levelo_inurba_marseille","lat":43.28955,"lon":5.37855,"is_reserved":false,"is_disabled":false,"rental_uris":{"android":"levelo://app?vid=26102047-b65b-42a3-844a-c690a7086e50","ios":"levelo://app?vid=26102047-b65b-42a3-844a-c690a7086e50"},"vehicle_type_id":"4","last_reported":1771493633,"current_range_meters":38000,"station_id":"ce4bh9p2rcd13ifvqed0","pricing_plan_id":"cebpf4jnsgd1na2vs0mg"},{"bike_id":"27586e15-78a0-41b9-981d-e5de2751a5b3","system_id":"levelo_inurba_marseille","lat":43.30306,"lon":5.36886,"is_reserved":false,"is_disabled":false,"rental_uris":{"android":"levelo://app?vid=27586e15-78a0-41b9-981d-e5de2751a5b3","ios":"levelo://app?vid=27586e15-78a0-41b9-981d-e5de2751a5b3"},"vehicle_type_id":"4","last_reported":1771493633,"current_range_meters":16000,"station_id":"ce4bgqh2rcd13ifvqc5g","pricing_plan_id":"cebpf4jnsgd1na2vs0mg"},{"bike_id":"4e6ae03e-50eb-4e46-ad3a-b607c4b7ae2f","system_id":"levelo_inurba_marseille","lat":43.26942,"lon":5.40259,"is_reserved":false,"is_disabled":false,"rental_uris":{"android":"levelo://app?vid=4e6ae03e-50eb-4e46-ad3a-b607c4b7ae2f","ios":"levelo://app?vid=4e6ae03e-50eb-4e46-ad3a-b607c4b7ae2f"},"vehicle_type_id":"4","last_reported":1771493633,"current_range_meters":38400,"station_id":"cjm6bp8fraef2m0cb0m0","pricing_plan_id":"cebpf4jnsgd1na2vs0mg"},{"bike_id":"ef0ce076-d754-4306-9012-86f015869854","system_id":"levelo_inurba_marseille","lat":43.3055,"lon":5.36709,"is_reserved":false,"is_disabled":false,"rental_uris":{"android":"levelo://app?vid=ef0ce076-d754-4306-9012-86f015869854","ios":"levelo://app?vid=ef0ce076-d754-4306-9012-86f015869854"},"vehicle_type_id":"4","last_reported":1771493633,"current_range_meters":30400,"station_id":"ce4bgrp2rcd13ifvqc9g","pricing_plan_id":"cebpf4jnsgd1na2vs0mg"},{"bike_id":"13f19fd6-a0d1-4054-9f38-916998844fdb","system_id":"levelo_inurba_marseille","lat":43.273735,"lon":5.362646,"is_reserved":false,"is_disabled":true,"rental_uris":{"android":"levelo://app?vid=13f19fd6-a0d1-4054-9f38-916998844fdb","ios":"levelo://app?vid=13f19fd6-a0d1-4054-9f38-916998844fdb"},"vehicle_type_id":"4","last_reported":1771493633,"current_range_meters":16800,"station_id":"ce4bgj92rcd13ifvqbe0","pricing_plan_id":"cebpf4jnsgd1na2vs0mg"},{"bike_id":"986dd570-b7b7-4e72-98a6-59022f9e66f5","system_id":"levelo_inurba_marseille","lat":43.30315,"lon":5.36914,"is_reserved":false,"is_disabled":false,"rental_uris":{"android":"levelo://app?vid=986dd570-b7b7-4e72-98a6-59022f9e66f5","ios":"levelo://app?vid=986dd570-b7b7-4e72-98a6-59022f9e66f5"},"vehicle_type_id":"4","last_reported":1771493633,"current_range_meters":30400,"station_id":"ce4bgqh2rcd13ifvqc5g","pricing_plan_id":"cebpf4jnsgd1na2vs0mg"},{"bike_id":"cdedfe68-8f81-48b1-a1d4-83bdd88645c6","system_id":"levelo_inurba_marseille","lat":43.22964,"lon":5.3536,"is_reserved":false,"is_disabled":false,"rental_uris":{"android":"levelo://app?vid=cdedfe68-8f81-48b1-a1d4-83bdd88645c6","ios":"levelo://app?vid=cdedfe68-8f81-48b1-a1d4-83bdd88645c6"},"vehicle_type_id":"4","last_reported":1771493633,"current_range_meters":28800,"station_id":"cpo3532slgdg3j2ikp40","pricing_plan_id":"cebpf4jnsgd1na2vs0mg"},{"bike_id":"21f38818-1e76-4e40-9544-5aa53ee7a818","system_id":"levelo_inurba_marseille","lat":43.30966,"lon":5.39054,"is_reserved":false,"is_disabled":false,"rental_uris":{"android":"levelo://app?vid=21f38818-1e76-4e40-9544-5aa53ee7a818","ios":"levelo://app?vid=21f38818-1e76-4e40-9544-5aa53ee7a818"},"vehicle_type_id":"4","last_reported":1771493633,"current_range_meters":33600,"station_id":"ce4bgup2rcd13ifvqco0","pricing_plan_id":"cebpf4jnsgd1na2vs0mg"},{"bike_id":"ff683388-df4a-4ccb-820c-cd909e4395d0","system_id":"levelo_inurba_marseille","lat":43.28439,"lon":5.39223,"is_reserved":false,"is_disabled":false,"rental_uris":{"android":"levelo://app?vid=ff683388-df4a-4ccb-820c-cd909e4395d0","ios":"levelo://app?vid=ff683388-df4a-4ccb-820c-cd909e4395d0"},"vehicle_type_id":"4","last_reported":1771493633,"current_range_meters":10800,"station_id":"ce4bhoh2rcd13ifvqh5g","pricing_plan_id":"cebpf4jnsgd1na2vs0mg"},{"bike_id":"3336a309-b824-40ed-b52e-035197a7a433","system_id":"levelo_inurba_marseille","lat":43.2669,"lon":5.38265,"is_reserved":false,"is_disabled":false,"rental_uris":{"android":"levelo://app?vid=3336a309-b824-40ed-b52e-035197a7a433","ios":"levelo://app?vid=3336a309-b824-40ed-b52e-035197a7a433"},"vehicle_type_id":"4","last_reported":1771493633,"current_range_meters":27200,"station_id":"ce4bhg92rcd13ifvqf90","pricing_plan_id":"cebpf4jnsgd1na2vs0mg"},{"bike_id":"9c9ce17a-66e3-40be-904b-4f10fd5f4aa1","system_id":"levelo_inurba_marseille","lat":43.25892,"lon":5.39905,"is_reserved":false,"is_disabled":false,"rental_uris":{"android":"levelo://app?vid=9c9ce17a-66e3-40be-904b-4f10fd5f4aa1","ios":"levelo://app?vid=9c9ce17a-66e3-40be-904b-4f10fd5f4aa1"},"vehicle_type_id":"4","last_reported":1771493633,"current_range_meters":8800,"station_id":"ce4bhl92rcd13ifvqghg","pricing_plan_id":"cebpf4jnsgd1na2vs0mg"},{"bike_id":"12673977-5b25-450a-8cdc-00ac951258dd","system_id":"levelo_inurba_marseille","lat":43.31057,"lon":5.37198,"is_reserved":false,"is_disabled":true,"rental_uris":{"android":"levelo://app?vid=12673977-5b25-450a-8cdc-00ac951258dd","ios":"levelo://app?vid=12673977-5b25-450a-8cdc-00ac951258dd"},"vehicle_type_id":"4","last_reported":1771493633,"current_range_meters":33200,"station_id":"st_d4kl2rp97mjs73e7tdfg","pricing_plan_id":"cebpf4jnsgd1na2vs0mg"},{"bike_id":"b35d56f8-822c-44e8-8fa1-ffac8de34dbc","system_id":"levelo_inurba_marseille","lat":43.25571,"lon":5.38238,"is_reserved":false,"is_disabled":false,"rental_uris":{"android":"levelo://app?vid=b35d56f8-822c-44e8-8fa1-ffac8de34dbc","ios":"levelo://app?vid=b35d56f8-822c-44e8-8fa1-ffac8de34dbc"},"vehicle_type_id":"4","last_reported":1771493633,"current_range_meters":8000,"station_id":"ce4bhih2rcd13ifvqfs0","pricing_plan_id":"cebpf4jnsgd1na2vs0mg"},{"bike_id":"3fa1af61-87ee-45e3-bb38-f22a0844bcbe","system_id":"levelo_inurba_marseille","lat":43.28684,"lon":5.37397,"is_reserved":false,"is_disabled":false,"rental_uris":{"android":"levelo://app?vid=3fa1af61-87ee-45e3-bb38-f22a0844bcbe","ios":"levelo://app?vid=3fa1af61-87ee-45e3-bb38-f22a0844bcbe"},"vehicle_type_id":"4","last_reported":1771493633,"current_range_meters":33600,"station_id":"ce4bh3p2rcd13ifvqdq0","pricing_plan_id":"cebpf4jnsgd1na2vs0mg"},{"bike_id":"34f1c526-6dc3-477d-9649-7b65ead9429c","system_id":"levelo_inurba_marseille","lat":43.27918,"lon":5.39574,"is_reserved":false,"is_disabled":false,"rental_uris":{"android":"levelo://app?vid=34f1c526-6dc3-477d-9649-7b65ead9429c","ios":"levelo://app?vid=34f1c526-6dc3-477d-9649-7b65ead9429c"},"vehicle_type_id":"4","last_reported":1771493633,"current_range_meters":38800,"station_id":"ce4bhf92rcd13ifvqf40","pricing_plan_id":"cebpf4jnsgd1na2vs0mg"},{"bike_id":"c1305435-7ac9-4c1c-bdb9-e901200687d8","system_id":"levelo_inurba_marseille","lat":43.29288,"lon":5.38302,"is_reserved":false,"is_disabled":false,"rental_uris":{"android":"levelo://app?vid=c1305435-7ac9-4c1c-bdb9-e901200687d8","ios":"levelo://app?vid=c1305435-7ac9-4c1c-bdb9-e901200687d8"},"vehicle_type_id":"4","last_reported":1771493633,"current_range_meters":20400,"station_id":"","pricing_plan_id":"cebpf4jnsgd1na2vs0mg"},{"bike_id":"201ca36c-c632-433f-8e63-028103426023","system_id":"levelo_inurba_marseille","lat":43.284789,"lon":5.48401,"is_reserved":false,"is_disabled":false,"rental_uris":{"android":"levelo://app?vid=201ca36c-c632-433f-8e63-028103426023","ios":"levelo://app?vid=201ca36c-c632-433f-8e63-028103426023"},"vehicle_type_id":"4","last_reported":1771493633,"current_range_meters":11200,"station_id":"","pricing_plan_id":"cebpf4jnsgd1na2vs0mg"},{"bike_id":"ef70ce12-fd44-42a0-88ed-3b2ca489b7fa","system_id":"levelo_inurba_marseille","lat":43.28863,"lon":5.42524,"is_reserved":false,"is_disabled":false,"rental_uris":{"android":"levelo://app?vid=ef70ce12-fd44-42a0-88ed-3b2ca489b7fa","ios":"levelo://app?vid=ef70ce12-fd44-42a0-88ed-3b2ca489b7fa"},"vehicle_type_id":"4","last_reported":1771493633,"current_range_meters":36800,"station_id":"st_d3b462108ojc7389ooeg","pricing_plan_id":"cebpf4jnsgd1na2vs0mg"},{"bike_id":"402fb316-de29-4c6c-b0e2-48c631932a53","system_id":"levelo_inurba_marseille","lat":43.246842,"lon":5.381692,"is_reserved":false,"is_disabled":false,"rental_uris":{"android":"levelo://app?vid=402fb316-de29-4c6c-b0e2-48c631932a53","ios":"levelo://app?vid=402fb316-de29-4c6c-b0e2-48c631932a53"},"vehicle_type_id":"4","last_reported":1771493633,"current_range_meters":17600,"station_id":"ce4bhih2rcd13ifvqfr0","pricing_plan_id":"cebpf4jnsgd1na2vs0mg"},{"bike_id":"0a19b8ea-5646-43e3-9c33-b9ffd92b9fe4","system_id":"levelo_inurba_marseille","lat":43.28506,"lon":5.38437,"is_reserved":false,"is_disabled":true,"rental_uris":{"android":"levelo://app?vid=0a19b8ea-5646-43e3-9c33-b9ffd92b9fe4","ios":"levelo://app?vid=0a19b8ea-5646-43e3-9c33-b9ffd92b9fe4"},"vehicle_type_id":"4","last_reported":1771493633,"current_range_meters":18000,"station_id":"ce4bh512rcd13ifvqe3g","pricing_plan_id":"cebpf4jnsgd1na2vs0mg"},{"bike_id":"c5368870-72fb-4cb1-8bb9-bb70060012a6","system_id":"levelo_inurba_marseille","lat":43.29903,"lon":5.37475,"is_reserved":false,"is_disabled":false,"rental_uris":{"android":"levelo://app?vid=c5368870-72fb-4cb1-8bb9-bb70060012a6","ios":"levelo://app?vid=c5368870-72fb-4cb1-8bb9-bb70060012a6"},"vehicle_type_id":"4","last_reported":1771493633,"current_range_meters":23200,"station_id":"ce4bgjh2rcd13ifvqbg0","pricing_plan_id":"cebpf4jnsgd1na2vs0mg"},{"bike_id":"2869ecff-d536-4cb2-8e34-6173355891f6","system_id":"levelo_inurba_marseille","lat":43.31223,"lon":5.3688,"is_reserved":false,"is_disabled":false,"rental_uris":{"android":"levelo://app?vid=2869ecff-d536-4cb2-8e34-6173355891f6","ios":"levelo://app?vid=2869ecff-d536-4cb2-8e34-6173355891f6"},"vehicle_type_id":"4","last_reported":1771493633,"current_range_meters":19600,"station_id":"ce4bgl92rcd13ifvqbq0","pricing_plan_id":"cebpf4jnsgd1na2vs0mg"},{"bike_id":"e6dcc18a-88f9-4a06-a9ba-f44311cce2a6","system_id":"levelo_inurba_marseille","lat":43.26809,"lon":5.40254,"is_reserved":false,"is_disabled":false,"rental_uris":{"android":"levelo://app?vid=e6dcc18a-88f9-4a06-a9ba-f44311cce2a6","ios":"levelo://app?vid=e6dcc18a-88f9-4a06-a9ba-f44311cce2a6"},"vehicle_type_id":"4","last_reported":1771493633,"current_range_meters":38400,"station_id":"ce501612rcd8frsf0b60","pricing_plan_id":"cebpf4jnsgd1na2vs0mg"},{"bike_id":"e000bb1e-f3a8-4de2-85c8-210be1f34905","system_id":"levelo_inurba_marseille","lat":43.29302,"lon":5.37178,"is_reserved":false,"is_disabled":false,"rental_uris":{"android":"levelo://app?vid=e000bb1e-f3a8-4de2-85c8-210be1f34905","ios":"levelo://app?vid=e000bb1e-f3a8-4de2-85c8-210be1f34905"},"vehicle_type_id":"4","last_reported":1771493633,"current_range_meters":30800,"station_id":"ce4bgh92rcd13ifvqb40","pricing_plan_id":"cebpf4jnsgd1na2vs0mg"},{"bike_id":"5b012de4-7e8b-4538-86be-6640a0946719","system_id":"levelo_inurba_marseille","lat":43.24179,"lon":5.36427,"is_reserved":false,"is_disabled":true,"rental_uris":{"android":"levelo://app?vid=5b012de4-7e8b-4538-86be-6640a0946719","ios":"levelo://app?vid=5b012de4-7e8b-4538-86be-6640a0946719"},"vehicle_type_id":"4","last_reported":1771493633,"current_range_meters":11600,"station_id":"cpo36qri1sfpv3e86is0","pricing_plan_id":"cebpf4jnsgd1na2vs0mg"},{"bike_id":"73a0f084-2b1d-4d97-97da-f814106cb099","system_id":"levelo_inurba_marseille","lat":43.24651,"lon":5.38914,"is_reserved":false,"is_disabled":false,"rental_uris":{"android":"levelo://app?vid=73a0f084-2b1d-4d97-97da-f814106cb099","ios":"levelo://app?vid=73a0f084-2b1d-4d97-97da-f814106cb099"},"vehicle_type_id":"4","last_reported":1771493633,"current_range_meters":39200,"station_id":"ce4bhg12rcd13ifvqf60","pricing_plan_id":"cebpf4jnsgd1na2vs0mg"},{"bike_id":"4455645d-a31e-4811-bd5e-9830c8ef57b4","system_id":"levelo_inurba_marseille","lat":43.30519,"lon":5.36534,"is_reserved":false,"is_disabled":false,"rental_uris":{"android":"levelo://app?vid=4455645d-a31e-4811-bd5e-9830c8ef57b4","ios":"levelo://app?vid=4455645d-a31e-4811-bd5e-9830c8ef57b4"},"vehicle_type_id":"4","last_reported":1771493633,"current_range_meters":38000,"station_id":"","pricing_plan_id":"cebpf4jnsgd1na2vs0mg"},{"bike_id":"92e03f54-ff68-4976-808e-57c1d7f83cef","system_id":"levelo_inurba_marseille","lat":43.29676,"lon":5.37293,"is_reserved":false,"is_disabled":false,"rental_uris":{"android":"levelo://app?vid=92e03f54-ff68-4976-808e-57c1d7f83cef","ios":"levelo://app?vid=92e03f54-ff68-4976-808e-57c1d7f83cef"},"vehicle_type_id":"4","last_reported":1771493633,"current_range_meters":38000,"station_id":"ce4bgk12rcd13ifvqbj0","pricing_plan_id":"cebpf4jnsgd1na2vs0mg"},{"bike_id":"fc362516-18c9-4441-b5aa-b49f0bea7ad6","system_id":"levelo_inurba_marseille","lat":43.29821,"lon":5.37126,"is_reserved":false,"is_disabled":true,"rental_uris":{"android":"levelo://app?vid=fc362516-18c9-4441-b5aa-b49f0bea7ad6","ios":"levelo://app?vid=fc362516-18c9-4441-b5aa-b49f0bea7ad6"},"vehicle_type_id":"4","last_reported":1771493633,"current_range_meters":11200,"station_id":"ce4bgop2rcd13ifvqc1g","pricing_plan_id":"cebpf4jnsgd1na2vs0mg"},{"bike_id":"96438059-8ec7-4cad-b18f-887d9f3a4374","system_id":"levelo_inurba_marseille","lat":43.31492,"lon":5.37326,"is_reserved":false,"is_disabled":false,"rental_uris":{"android":"levelo://app?vid=96438059-8ec7-4cad-b18f-887d9f3a4374","ios":"levelo://app?vid=96438059-8ec7-4cad-b18f-887d9f3a4374"},"vehicle_type_id":"4","last_reported":1771493633,"current_range_meters":33200,"station_id":"ce4bgt12rcd13ifvqcd0","pricing_plan_id":"cebpf4jnsgd1na2vs0mg"},{"bike_id":"94d5a82d-70e8-45b8-9db8-f73537f652ed","system_id":"levelo_inurba_marseille","lat":43.290177,"lon":5.381258,"is_reserved":false,"is_disabled":true,"rental_uris":{"android":"levelo://app?vid=94d5a82d-70e8-45b8-9db8-f73537f652ed","ios":"levelo://app?vid=94d5a82d-70e8-45b8-9db8-f73537f652ed"},"vehicle_type_id":"4","last_reported":1771493633,"current_range_meters":800,"station_id":"ce4bh4p2rcd13ifvqe1g","pricing_plan_id":"cebpf4jnsgd1na2vs0mg"},{"bike_id":"dfbbfa9b-3db0-4d7e-98db-36a44416da4f","system_id":"levelo_inurba_marseille","lat":43.2848,"lon":5.38439,"is_reserved":false,"is_disabled":false,"rental_uris":{"android":"levelo://app?vid=dfbbfa9b-3db0-4d7e-98db-36a44416da4f","ios":"levelo://app?vid=dfbbfa9b-3db0-4d7e-98db-36a44416da4f"},"vehicle_type_id":"4","last_reported":1771493633,"current_range_meters":39200,"station_id":"ce4bh512rcd13ifvqe3g","pricing_plan_id":"cebpf4jnsgd1na2vs0mg"},{"bike_id":"5d548b5a-d083-456a-b004-5924aa531bf8","system_id":"levelo_inurba_marseille","lat":43.29765,"lon":5.37682,"is_reserved":false,"is_disabled":false,"rental_uris":{"android":"levelo://app?vid=5d548b5a-d083-456a-b004-5924aa531bf8","ios":"levelo://app?vid=5d548b5a-d083-456a-b004-5924aa531bf8"},"vehicle_type_id":"4","last_reported":1771493633,"current_range_meters":39200,"station_id":"ce4bgkh2rcd13ifvqbl0","pricing_plan_id":"cebpf4jnsgd1na2vs0mg"},{"bike_id":"60d19533-d916-46e5-9e83-963557cfb5f0","system_id":"levelo_inurba_marseille","lat":43.30908,"lon":5.36832,"is_reserved":false,"is_disabled":false,"rental_uris":{"android":"levelo://app?vid=60d19533-d916-46e5-9e83-963557cfb5f0","ios":"levelo://app?vid=60d19533-d916-46e5-9e83-963557cfb5f0"},"vehicle_type_id":"4","last_reported":1771493633,"current_range_meters":33200,"station_id":"ce4bgn92rcd13ifvqbvg","pricing_plan_id":"cebpf4jnsgd1na2vs0mg"},{"bike_id":"200f07f2-6ab6-46ed-9f22-639cf1d5ab95","system_id":"levelo_inurba_marseille","lat":43.27077,"lon":5.4228,"is_reserved":false,"is_disabled":false,"rental_uris":{"android":"levelo://app?vid=200f07f2-6ab6-46ed-9f22-639cf1d5ab95","ios":"levelo://app?vid=200f07f2-6ab6-46ed-9f22-639cf1d5ab95"},"vehicle_type_id":"4","last_reported":1771493633,"current_range_meters":30800,"station_id":"ce4bhk92rcd13ifvqgb0","pricing_plan_id":"cebpf4jnsgd1na2vs0mg"},{"bike_id":"a8c134fb-7dd4-48bb-8009-86b393d03db7","system_id":"levelo_inurba_marseille","lat":43.28093,"lon":5.37838,"is_reserved":false,"is_disabled":false,"rental_uris":{"android":"levelo://app?vid=a8c134fb-7dd4-48bb-8009-86b393d03db7","ios":"levelo://app?vid=a8c134fb-7dd4-48bb-8009-86b393d03db7"},"vehicle_type_id":"4","last_reported":1771493633,"current_range_meters":26000,"station_id":"ce4bha12rcd13ifvqee0","pricing_plan_id":"cebpf4jnsgd1na2vs0mg"},{"bike_id":"8a7c9b50-907a-4a33-9349-087daccce1e4","system_id":"levelo_inurba_marseille","lat":43.33161,"lon":5.37686,"is_reserved":false,"is_disabled":false,"rental_uris":{"android":"levelo://app?vid=8a7c9b50-907a-4a33-9349-087daccce1e4","ios":"levelo://app?vid=8a7c9b50-907a-4a33-9349-087daccce1e4"},"vehicle_type_id":"4","last_reported":1771493633,"current_range_meters":8000,"station_id":"st_d46cu089ee8s73dldbu0","pricing_plan_id":"cebpf4jnsgd1na2vs0mg"},{"bike_id":"8dcab344-b709-4bc9-a1f4-a0dbcd17618b","system_id":"levelo_inurba_marseille","lat":43.33748,"lon":5.37461,"is_reserved":false,"is_disabled":false,"rental_uris":{"android":"levelo://app?vid=8dcab344-b709-4bc9-a1f4-a0dbcd17618b","ios":"levelo://app?vid=8dcab344-b709-4bc9-a1f4-a0dbcd17618b"},"vehicle_type_id":"4","last_reported":1771493633,"current_range_meters":36800,"station_id":"","pricing_plan_id":"cebpf4jnsgd1na2vs0mg"},{"bike_id":"6ce8ccc5-d0ce-4665-bd1a-a4818d8a69e5","system_id":"levelo_inurba_marseille","lat":43.31365,"lon":5.36749,"is_reserved":false,"is_disabled":false,"rental_uris":{"android":"levelo://app?vid=6ce8ccc5-d0ce-4665-bd1a-a4818d8a69e5","ios":"levelo://app?vid=6ce8ccc5-d0ce-4665-bd1a-a4818d8a69e5"},"vehicle_type_id":"4","last_reported":1771493633,"current_range_meters":36400,"station_id":"ce4bgr92rcd13ifvqc6g","pricing_plan_id":"cebpf4jnsgd1na2vs0mg"},{"bike_id":"f6041667-a189-4c35-8328-024fab0e230c","system_id":"levelo_inurba_marseille","lat":43.264849,"lon":5.395627,"is_reserved":false,"is_disabled":false,"rental_uris":{"android":"levelo://app?vid=f6041667-a189-4c35-8328-024fab0e230c","ios":"levelo://app?vid=f6041667-a189-4c35-8328-024fab0e230c"},"vehicle_type_id":"4","last_reported":1771493633,"current_range_meters":30400,"station_id":"ce4bhi12rcd13ifvqfq0","pricing_plan_id":"cebpf4jnsgd1na2vs0mg"},{"bike_id":"c7d2b54a-d383-408d-9a81-b600a9105a37","system_id":"levelo_inurba_marseille","lat":43.3352,"lon":5.37447,"is_reserved":false,"is_disabled":false,"rental_uris":{"android":"levelo://app?vid=c7d2b54a-d383-408d-9a81-b600a9105a37","ios":"levelo://app?vid=c7d2b54a-d383-408d-9a81-b600a9105a37"},"vehicle_type_id":"4","last_reported":1771493633,"current_range_meters":20400,"station_id":"st_d46tts09ee8s73dlu43g","pricing_plan_id":"cebpf4jnsgd1na2vs0mg"},{"bike_id":"73d0170e-f6fe-4467-a0f3-e54fb14b4066","system_id":"levelo_inurba_marseille","lat":43.30166,"lon":5.38089,"is_reserved":false,"is_disabled":false,"rental_uris":{"android":"levelo://app?vid=73d0170e-f6fe-4467-a0f3-e54fb14b4066","ios":"levelo://app?vid=73d0170e-f6fe-4467-a0f3-e54fb14b4066"},"vehicle_type_id":"4","last_reported":1771493633,"current_range_meters":35600,"station_id":"ce4bgjp2rcd13ifvqbh0","pricing_plan_id":"cebpf4jnsgd1na2vs0mg"},{"bike_id":"653fefb1-91ea-420b-b248-bbec1ccc7e05","system_id":"levelo_inurba_marseille","lat":43.24471,"lon":5.42528,"is_reserved":false,"is_disabled":false,"rental_uris":{"android":"levelo://app?vid=653fefb1-91ea-420b-b248-bbec1ccc7e05","ios":"levelo://app?vid=653fefb1-91ea-420b-b248-bbec1ccc7e05"},"vehicle_type_id":"4","last_reported":1771493633,"current_range_meters":20000,"station_id":"st_d4a3vfp97mjs738cd8kg","pricing_plan_id":"cebpf4jnsgd1na2vs0mg"},{"bike_id":"a27ce86b-2967-4ec7-b25b-b3274df65b3a","system_id":"levelo_inurba_marseille","lat":43.24395,"lon":5.37054,"is_reserved":false,"is_disabled":false,"rental_uris":{"android":"levelo://app?vid=a27ce86b-2967-4ec7-b25b-b3274df65b3a","ios":"levelo://app?vid=a27ce86b-2967-4ec7-b25b-b3274df65b3a"},"vehicle_type_id":"4","last_reported":1771493633,"current_range_meters":34800,"station_id":"ce4bhhh2rcd13ifvqfk0","pricing_plan_id":"cebpf4jnsgd1na2vs0mg"},{"bike_id":"bfac7e3f-6c37-4065-b587-da1e87d47887","system_id":"levelo_inurba_marseille","lat":43.30126,"lon":5.3879,"is_reserved":false,"is_disabled":false,"rental_uris":{"android":"levelo://app?vid=bfac7e3f-6c37-4065-b587-da1e87d47887","ios":"levelo://app?vid=bfac7e3f-6c37-4065-b587-da1e87d47887"},"vehicle_type_id":"4","last_reported":1771493633,"current_range_meters":22800,"station_id":"ce4bghh2rcd13ifvqb60","pricing_plan_id":"cebpf4jnsgd1na2vs0mg"},{"bike_id":"5d644a18-0945-40c2-b47e-947f52b59b55","system_id":"levelo_inurba_marseille","lat":43.29178,"lon":5.37153,"is_reserved":false,"is_disabled":false,"rental_uris":{"android":"levelo://app?vid=5d644a18-0945-40c2-b47e-947f52b59b55","ios":"levelo://app?vid=5d644a18-0945-40c2-b47e-947f52b59b55"},"vehicle_type_id":"4","last_reported":1771493633,"current_range_meters":20400,"station_id":"ce4bha92rcd13ifvqeh0","pricing_plan_id":"cebpf4jnsgd1na2vs0mg"},{"bike_id":"b56380f9-a759-4bad-ae97-ee9b0c34fdbe","system_id":"levelo_inurba_marseille","lat":43.33548,"lon":5.37474,"is_reserved":false,"is_disabled":false,"rental_uris":{"android":"levelo://app?vid=b56380f9-a759-4bad-ae97-ee9b0c34fdbe","ios":"levelo://app?vid=b56380f9-a759-4bad-ae97-ee9b0c34fdbe"},"vehicle_type_id":"4","last_reported":1771493633,"current_range_meters":22000,"station_id":"st_d46tts09ee8s73dlu43g","pricing_plan_id":"cebpf4jnsgd1na2vs0mg"},{"bike_id":"e4f15f52-9f9b-46f0-9586-df31c8479f98","system_id":"levelo_inurba_marseille","lat":43.2903,"lon":5.39954,"is_reserved":false,"is_disabled":false,"rental_uris":{"android":"levelo://app?vid=e4f15f52-9f9b-46f0-9586-df31c8479f98","ios":"levelo://app?vid=e4f15f52-9f9b-46f0-9586-df31c8479f98"},"vehicle_type_id":"4","last_reported":1771493633,"current_range_meters":11600,"station_id":"ce4bh392rcd13ifvqdm0","pricing_plan_id":"cebpf4jnsgd1na2vs0mg"},{"bike_id":"e5c37de4-5b20-40fe-851e-2d0c03d75c93","system_id":"levelo_inurba_marseille","lat":43.33125,"lon":5.39271,"is_reserved":false,"is_disabled":false,"rental_uris":{"android":"levelo://app?vid=e5c37de4-5b20-40fe-851e-2d0c03d75c93","ios":"levelo://app?vid=e5c37de4-5b20-40fe-851e-2d0c03d75c93"},"vehicle_type_id":"4","last_reported":1771493633,"current_range_meters":12400,"station_id":"","pricing_plan_id":"cebpf4jnsgd1na2vs0mg"},{"bike_id":"07b0f432-5e82-4f8c-81ee-67d93dfdf4d8","system_id":"levelo_inurba_marseille","lat":43.28626,"lon":5.35104,"is_reserved":false,"is_disabled":false,"rental_uris":{"android":"levelo://app?vid=07b0f432-5e82-4f8c-81ee-67d93dfdf4d8","ios":"levelo://app?vid=07b0f432-5e82-4f8c-81ee-67d93dfdf4d8"},"vehicle_type_id":"4","last_reported":1771493633,"current_range_meters":6400,"station_id":"ce4bhch2rcd13ifvqeug","pricing_plan_id":"cebpf4jnsgd1na2vs0mg"},{"bike_id":"127677c5-4cab-4685-9cfe-a1e546a48838","system_id":"levelo_inurba_marseille","lat":43.32098,"lon":5.3678,"is_reserved":false,"is_disabled":false,"rental_uris":{"android":"levelo://app?vid=127677c5-4cab-4685-9cfe-a1e546a48838","ios":"levelo://app?vid=127677c5-4cab-4685-9cfe-a1e546a48838"},"vehicle_type_id":"4","last_reported":1771493633,"current_range_meters":16800,"station_id":"ce4bhrh2rcd13ifvqhug","pricing_plan_id":"cebpf4jnsgd1na2vs0mg"},{"bike_id":"61dce8f0-a8aa-4edf-9478-ff0fba7dec76","system_id":"levelo_inurba_marseille","lat":43.30876,"lon":5.39656,"is_reserved":false,"is_disabled":false,"rental_uris":{"android":"levelo://app?vid=61dce8f0-a8aa-4edf-9478-ff0fba7dec76","ios":"levelo://app?vid=61dce8f0-a8aa-4edf-9478-ff0fba7dec76"},"vehicle_type_id":"4","last_reported":1771493633,"current_range_meters":14000,"station_id":"ce4bh012rcd13ifvqcv0","pricing_plan_id":"cebpf4jnsgd1na2vs0mg"},{"bike_id":"921810b6-1bc3-440a-bc47-665b4a5f5a1e","system_id":"levelo_inurba_marseille","lat":43.309,"lon":5.36857,"is_reserved":false,"is_disabled":false,"rental_uris":{"android":"levelo://app?vid=921810b6-1bc3-440a-bc47-665b4a5f5a1e","ios":"levelo://app?vid=921810b6-1bc3-440a-bc47-665b4a5f5a1e"},"vehicle_type_id":"4","last_reported":1771493633,"current_range_meters":28000,"station_id":"ce4bgn92rcd13ifvqbvg","pricing_plan_id":"cebpf4jnsgd1na2vs0mg"},{"bike_id":"47788a9b-3d71-4615-adaa-2c88572889ac","system_id":"levelo_inurba_marseille","lat":43.31501,"lon":5.37331,"is_reserved":false,"is_disabled":false,"rental_uris":{"android":"levelo://app?vid=47788a9b-3d71-4615-adaa-2c88572889ac","ios":"levelo://app?vid=47788a9b-3d71-4615-adaa-2c88572889ac"},"vehicle_type_id":"4","last_reported":1771493633,"current_range_meters":32000,"station_id":"ce4bgt12rcd13ifvqcd0","pricing_plan_id":"cebpf4jnsgd1na2vs0mg"},{"bike_id":"fb4c81e1-59ab-4a96-ad75-2e8d74c036e5","system_id":"levelo_inurba_marseille","lat":43.31156,"lon":5.38584,"is_reserved":false,"is_disabled":false,"rental_uris":{"android":"levelo://app?vid=fb4c81e1-59ab-4a96-ad75-2e8d74c036e5","ios":"levelo://app?vid=fb4c81e1-59ab-4a96-ad75-2e8d74c036e5"},"vehicle_type_id":"4","last_reported":1771493633,"current_range_meters":11200,"station_id":"","pricing_plan_id":"cebpf4jnsgd1na2vs0mg"},{"bike_id":"fe61620a-8630-4808-bdbe-e17dd1aaecfb","system_id":"levelo_inurba_marseille","lat":43.24388,"lon":5.3707,"is_reserved":false,"is_disabled":false,"rental_uris":{"android":"levelo://app?vid=fe61620a-8630-4808-bdbe-e17dd1aaecfb","ios":"levelo://app?vid=fe61620a-8630-4808-bdbe-e17dd1aaecfb"},"vehicle_type_id":"4","last_reported":1771493633,"current_range_meters":35200,"station_id":"","pricing_plan_id":"cebpf4jnsgd1na2vs0mg"},{"bike_id":"1dfc9df6-efc3-44e1-bfa7-eabdccc695a9","system_id":"levelo_inurba_marseille","lat":43.33536,"lon":5.37469,"is_reserved":false,"is_disabled":false,"rental_uris":{"android":"levelo://app?vid=1dfc9df6-efc3-44e1-bfa7-eabdccc695a9","ios":"levelo://app?vid=1dfc9df6-efc3-44e1-bfa7-eabdccc695a9"},"vehicle_type_id":"4","last_reported":1771493633,"current_range_meters":10800,"station_id":"st_d46tts09ee8s73dlu43g","pricing_plan_id":"cebpf4jnsgd1na2vs0mg"},{"bike_id":"16fc34bf-65ec-4c81-ba21-ad880e0c1ac1","system_id":"levelo_inurba_marseille","lat":43.29854,"lon":5.36296,"is_reserved":false,"is_disabled":true,"rental_uris":{"android":"levelo://app?vid=16fc34bf-65ec-4c81-ba21-ad880e0c1ac1","ios":"levelo://app?vid=16fc34bf-65ec-4c81-ba21-ad880e0c1ac1"},"vehicle_type_id":"4","last_reported":1771493633,"current_range_meters":4800,"station_id":"ce4bgpp2rcd13ifvqc3g","pricing_plan_id":"cebpf4jnsgd1na2vs0mg"},{"bike_id":"feddf533-e694-4295-8a00-2ac5034dd517","system_id":"levelo_inurba_marseille","lat":43.26949,"lon":5.40297,"is_reserved":false,"is_disabled":false,"rental_uris":{"android":"levelo://app?vid=feddf533-e694-4295-8a00-2ac5034dd517","ios":"levelo://app?vid=feddf533-e694-4295-8a00-2ac5034dd517"},"vehicle_type_id":"4","last_reported":1771493633,"current_range_meters":38000,"station_id":"cjm6bp8fraef2m0cb0m0","pricing_plan_id":"cebpf4jnsgd1na2vs0mg"},{"bike_id":"14867868-6aed-41c1-9296-5792e4f862f8","system_id":"levelo_inurba_marseille","lat":43.25339,"lon":5.42178,"is_reserved":false,"is_disabled":false,"rental_uris":{"android":"levelo://app?vid=14867868-6aed-41c1-9296-5792e4f862f8","ios":"levelo://app?vid=14867868-6aed-41c1-9296-5792e4f862f8"},"vehicle_type_id":"4","last_reported":1771493633,"current_range_meters":25200,"station_id":"st_d2m65c5bi1j21697t3ng","pricing_plan_id":"cebpf4jnsgd1na2vs0mg"},{"bike_id":"baf5634a-458e-4f5a-a6f0-61ff3624b257","system_id":"levelo_inurba_marseille","lat":43.27555,"lon":5.38431,"is_reserved":false,"is_disabled":false,"rental_uris":{"android":"levelo://app?vid=baf5634a-458e-4f5a-a6f0-61ff3624b257","ios":"levelo://app?vid=baf5634a-458e-4f5a-a6f0-61ff3624b257"},"vehicle_type_id":"4","last_reported":1771493633,"current_range_meters":32800,"station_id":"ce4bhh92rcd13ifvqfi0","pricing_plan_id":"cebpf4jnsgd1na2vs0mg"},{"bike_id":"e5ddf298-59a6-48a6-9f22-1ea1820e4aeb","system_id":"levelo_inurba_marseille","lat":43.28085,"lon":5.39644,"is_reserved":false,"is_disabled":false,"rental_uris":{"android":"levelo://app?vid=e5ddf298-59a6-48a6-9f22-1ea1820e4aeb","ios":"levelo://app?vid=e5ddf298-59a6-48a6-9f22-1ea1820e4aeb"},"vehicle_type_id":"4","last_reported":1771493633,"current_range_meters":37600,"station_id":"ce4bho12rcd13ifvqh2g","pricing_plan_id":"cebpf4jnsgd1na2vs0mg"},{"bike_id":"a064d16f-bc47-4f73-afc0-71fb9fcd9d35","system_id":"levelo_inurba_marseille","lat":43.25139,"lon":5.40327,"is_reserved":false,"is_disabled":false,"rental_uris":{"android":"levelo://app?vid=a064d16f-bc47-4f73-afc0-71fb9fcd9d35","ios":"levelo://app?vid=a064d16f-bc47-4f73-afc0-71fb9fcd9d35"},"vehicle_type_id":"4","last_reported":1771493633,"current_range_meters":38000,"station_id":"ce4bhlh2rcd13ifvqgig","pricing_plan_id":"cebpf4jnsgd1na2vs0mg"},{"bike_id":"3c947e85-839e-4f06-ab6b-56b637feca9c","system_id":"levelo_inurba_marseille","lat":43.276691,"lon":5.388716,"is_reserved":false,"is_disabled":false,"rental_uris":{"android":"levelo://app?vid=3c947e85-839e-4f06-ab6b-56b637feca9c","ios":"levelo://app?vid=3c947e85-839e-4f06-ab6b-56b637feca9c"},"vehicle_type_id":"4","last_reported":1771493633,"current_range_meters":24400,"station_id":"ce4bhi12rcd13ifvqfo0","pricing_plan_id":"cebpf4jnsgd1na2vs0mg"},{"bike_id":"0a9805da-4766-4522-9e65-e3830b56acec","system_id":"levelo_inurba_marseille","lat":43.24684,"lon":5.38195,"is_reserved":false,"is_disabled":false,"rental_uris":{"android":"levelo://app?vid=0a9805da-4766-4522-9e65-e3830b56acec","ios":"levelo://app?vid=0a9805da-4766-4522-9e65-e3830b56acec"},"vehicle_type_id":"4","last_reported":1771493633,"current_range_meters":37600,"station_id":"ce4bhih2rcd13ifvqfr0","pricing_plan_id":"cebpf4jnsgd1na2vs0mg"},{"bike_id":"a390b538-2807-40e2-95f9-4ed175e72a0b","system_id":"levelo_inurba_marseille","lat":43.2495,"lon":5.4052,"is_reserved":false,"is_disabled":false,"rental_uris":{"android":"levelo://app?vid=a390b538-2807-40e2-95f9-4ed175e72a0b","ios":"levelo://app?vid=a390b538-2807-40e2-95f9-4ed175e72a0b"},"vehicle_type_id":"4","last_reported":1771493633,"current_range_meters":22800,"station_id":"st_d2ngiaodas8pm72gd1h0","pricing_plan_id":"cebpf4jnsgd1na2vs0mg"},{"bike_id":"822a37e9-cc86-4db6-b810-29ef8016af0b","system_id":"levelo_inurba_marseille","lat":43.29807,"lon":5.44064,"is_reserved":false,"is_disabled":false,"rental_uris":{"android":"levelo://app?vid=822a37e9-cc86-4db6-b810-29ef8016af0b","ios":"levelo://app?vid=822a37e9-cc86-4db6-b810-29ef8016af0b"},"vehicle_type_id":"4","last_reported":1771493633,"current_range_meters":20800,"station_id":"st_d3jp68qikq2c7381ktn0","pricing_plan_id":"cebpf4jnsgd1na2vs0mg"},{"bike_id":"3886e246-de3b-4bd8-9bb1-b4fd43c2effc","system_id":"levelo_inurba_marseille","lat":43.30588,"lon":5.37233,"is_reserved":false,"is_disabled":false,"rental_uris":{"android":"levelo://app?vid=3886e246-de3b-4bd8-9bb1-b4fd43c2effc","ios":"levelo://app?vid=3886e246-de3b-4bd8-9bb1-b4fd43c2effc"},"vehicle_type_id":"4","last_reported":1771493633,"current_range_meters":38000,"station_id":"ce4bgqh2rcd13ifvqc4g","pricing_plan_id":"cebpf4jnsgd1na2vs0mg"},{"bike_id":"03aee3db-9f4f-47df-b3ec-8d0bacddcdbc","system_id":"levelo_inurba_marseille","lat":43.27169,"lon":5.409963,"is_reserved":false,"is_disabled":false,"rental_uris":{"android":"levelo://app?vid=03aee3db-9f4f-47df-b3ec-8d0bacddcdbc","ios":"levelo://app?vid=03aee3db-9f4f-47df-b3ec-8d0bacddcdbc"},"vehicle_type_id":"4","last_reported":1771493633,"current_range_meters":34800,"station_id":"ce4bhl12rcd13ifvqgf0","pricing_plan_id":"cebpf4jnsgd1na2vs0mg"},{"bike_id":"55eb0aad-f6b5-4ef8-8c2b-ee220d251165","system_id":"levelo_inurba_marseille","lat":43.26948,"lon":5.4026,"is_reserved":false,"is_disabled":false,"rental_uris":{"android":"levelo://app?vid=55eb0aad-f6b5-4ef8-8c2b-ee220d251165","ios":"levelo://app?vid=55eb0aad-f6b5-4ef8-8c2b-ee220d251165"},"vehicle_type_id":"4","last_reported":1771493633,"current_range_meters":28800,"station_id":"cjm6bp8fraef2m0cb0m0","pricing_plan_id":"cebpf4jnsgd1na2vs0mg"},{"bike_id":"59aabee3-6211-4f8a-9630-29cde1e1b3d7","system_id":"levelo_inurba_marseille","lat":43.29541,"lon":5.37488,"is_reserved":false,"is_disabled":false,"rental_uris":{"android":"levelo://app?vid=59aabee3-6211-4f8a-9630-29cde1e1b3d7","ios":"levelo://app?vid=59aabee3-6211-4f8a-9630-29cde1e1b3d7"},"vehicle_type_id":"4","last_reported":1771493633,"current_range_meters":16800,"station_id":"ce4bgkp2rcd13ifvqbmg","pricing_plan_id":"cebpf4jnsgd1na2vs0mg"},{"bike_id":"89b3e01c-4867-4ddb-b4c3-f53bd946fe77","system_id":"levelo_inurba_marseille","lat":43.29223,"lon":5.36072,"is_reserved":false,"is_disabled":false,"rental_uris":{"android":"levelo://app?vid=89b3e01c-4867-4ddb-b4c3-f53bd946fe77","ios":"levelo://app?vid=89b3e01c-4867-4ddb-b4c3-f53bd946fe77"},"vehicle_type_id":"4","last_reported":1771493633,"current_range_meters":11200,"station_id":"ce4bhbh2rcd13ifvqeqg","pricing_plan_id":"cebpf4jnsgd1na2vs0mg"},{"bike_id":"012436c7-b0d2-44f6-9f1e-20d7a40c23a6","system_id":"levelo_inurba_marseille","lat":43.26229,"lon":5.40458,"is_reserved":false,"is_disabled":false,"rental_uris":{"android":"levelo://app?vid=012436c7-b0d2-44f6-9f1e-20d7a40c23a6","ios":"levelo://app?vid=012436c7-b0d2-44f6-9f1e-20d7a40c23a6"},"vehicle_type_id":"4","last_reported":1771493633,"current_range_meters":36000,"station_id":"ce4bhmh2rcd13ifvqgmg","pricing_plan_id":"cebpf4jnsgd1na2vs0mg"},{"bike_id":"ddb35e99-7580-4184-b1a3-39dee08fd05d","system_id":"levelo_inurba_marseille","lat":43.2959,"lon":5.4391,"is_reserved":false,"is_disabled":false,"rental_uris":{"android":"levelo://app?vid=ddb35e99-7580-4184-b1a3-39dee08fd05d","ios":"levelo://app?vid=ddb35e99-7580-4184-b1a3-39dee08fd05d"},"vehicle_type_id":"4","last_reported":1771493633,"current_range_meters":11200,"station_id":"","pricing_plan_id":"cebpf4jnsgd1na2vs0mg"},{"bike_id":"4d976bf5-f813-4b36-99cd-ae82b3487f1d","system_id":"levelo_inurba_marseille","lat":43.279945,"lon":5.416728,"is_reserved":false,"is_disabled":false,"rental_uris":{"android":"levelo://app?vid=4d976bf5-f813-4b36-99cd-ae82b3487f1d","ios":"levelo://app?vid=4d976bf5-f813-4b36-99cd-ae82b3487f1d"},"vehicle_type_id":"4","last_reported":1771493633,"current_range_meters":8000,"station_id":"ce4bho12rcd13ifvqh1g","pricing_plan_id":"cebpf4jnsgd1na2vs0mg"},{"bike_id":"85d50b90-49f9-4672-a4ac-ca1b059e2329","system_id":"levelo_inurba_marseille","lat":43.29919,"lon":5.37483,"is_reserved":false,"is_disabled":false,"rental_uris":{"android":"levelo://app?vid=85d50b90-49f9-4672-a4ac-ca1b059e2329","ios":"levelo://app?vid=85d50b90-49f9-4672-a4ac-ca1b059e2329"},"vehicle_type_id":"4","last_reported":1771493633,"current_range_meters":27200,"station_id":"ce4bgjh2rcd13ifvqbg0","pricing_plan_id":"cebpf4jnsgd1na2vs0mg"},{"bike_id":"752032d4-8f37-4b48-bcd0-c0e3e17f5646","system_id":"levelo_inurba_marseille","lat":43.28608,"lon":5.35106,"is_reserved":false,"is_disabled":false,"rental_uris":{"android":"levelo://app?vid=752032d4-8f37-4b48-bcd0-c0e3e17f5646","ios":"levelo://app?vid=752032d4-8f37-4b48-bcd0-c0e3e17f5646"},"vehicle_type_id":"4","last_reported":1771493633,"current_range_meters":29600,"station_id":"ce4bhch2rcd13ifvqeug","pricing_plan_id":"cebpf4jnsgd1na2vs0mg"},{"bike_id":"e19b4889-414f-4d16-9c91-8c493508af85","system_id":"levelo_inurba_marseille","lat":43.25933,"lon":5.40858,"is_reserved":false,"is_disabled":false,"rental_uris":{"android":"levelo://app?vid=e19b4889-414f-4d16-9c91-8c493508af85","ios":"levelo://app?vid=e19b4889-414f-4d16-9c91-8c493508af85"},"vehicle_type_id":"4","last_reported":1771493633,"current_range_meters":30000,"station_id":"ce4bhm92rcd13ifvqglg","pricing_plan_id":"cebpf4jnsgd1na2vs0mg"},{"bike_id":"e20c4760-3d10-4402-8539-0046b00120e2","system_id":"levelo_inurba_marseille","lat":43.25722,"lon":5.41124,"is_reserved":false,"is_disabled":false,"rental_uris":{"android":"levelo://app?vid=e20c4760-3d10-4402-8539-0046b00120e2","ios":"levelo://app?vid=e20c4760-3d10-4402-8539-0046b00120e2"},"vehicle_type_id":"4","last_reported":1771493633,"current_range_meters":38400,"station_id":"ce4bhkp2rcd13ifvqgd0","pricing_plan_id":"cebpf4jnsgd1na2vs0mg"},{"bike_id":"7c12a7a0-d571-4b14-a374-66210b2e0664","system_id":"levelo_inurba_marseille","lat":43.31516,"lon":5.37299,"is_reserved":false,"is_disabled":false,"rental_uris":{"android":"levelo://app?vid=7c12a7a0-d571-4b14-a374-66210b2e0664","ios":"levelo://app?vid=7c12a7a0-d571-4b14-a374-66210b2e0664"},"vehicle_type_id":"4","last_reported":1771493633,"current_range_meters":31200,"station_id":"ce4bgt12rcd13ifvqcd0","pricing_plan_id":"cebpf4jnsgd1na2vs0mg"},{"bike_id":"a99f4834-6397-4852-872f-80cdc766c1ad","system_id":"levelo_inurba_marseille","lat":43.2678,"lon":5.39429,"is_reserved":false,"is_disabled":false,"rental_uris":{"android":"levelo://app?vid=a99f4834-6397-4852-872f-80cdc766c1ad","ios":"levelo://app?vid=a99f4834-6397-4852-872f-80cdc766c1ad"},"vehicle_type_id":"4","last_reported":1771493633,"current_range_meters":38400,"station_id":"ce4bhh12rcd13ifvqfg0","pricing_plan_id":"cebpf4jnsgd1na2vs0mg"},{"bike_id":"038b1b29-ad7d-4be7-bb9a-21ae0d14a95a","system_id":"levelo_inurba_marseille","lat":43.29011,"lon":5.39994,"is_reserved":false,"is_disabled":false,"rental_uris":{"android":"levelo://app?vid=038b1b29-ad7d-4be7-bb9a-21ae0d14a95a","ios":"levelo://app?vid=038b1b29-ad7d-4be7-bb9a-21ae0d14a95a"},"vehicle_type_id":"4","last_reported":1771493633,"current_range_meters":35600,"station_id":"ce4bh392rcd13ifvqdm0","pricing_plan_id":"cebpf4jnsgd1na2vs0mg"},{"bike_id":"fe6f5b89-f23b-49b2-9ff6-1649351eda2e","system_id":"levelo_inurba_marseille","lat":43.28541,"lon":5.39491,"is_reserved":false,"is_disabled":false,"rental_uris":{"android":"levelo://app?vid=fe6f5b89-f23b-49b2-9ff6-1649351eda2e","ios":"levelo://app?vid=fe6f5b89-f23b-49b2-9ff6-1649351eda2e"},"vehicle_type_id":"4","last_reported":1771493633,"current_range_meters":23200,"station_id":"ce4bh292rcd13ifvqdg0","pricing_plan_id":"cebpf4jnsgd1na2vs0mg"},{"bike_id":"9cfcf052-d696-4bf7-8a35-27017b344ea4","system_id":"levelo_inurba_marseille","lat":43.296114,"lon":5.377306,"is_reserved":false,"is_disabled":false,"rental_uris":{"android":"levelo://app?vid=9cfcf052-d696-4bf7-8a35-27017b344ea4","ios":"levelo://app?vid=9cfcf052-d696-4bf7-8a35-27017b344ea4"},"vehicle_type_id":"4","last_reported":1771493633,"current_range_meters":4400,"station_id":"ce4bgi92rcd13ifvqb90","pricing_plan_id":"cebpf4jnsgd1na2vs0mg"},{"bike_id":"38e495d8-5a5e-48d0-96cb-ae45ae824053","system_id":"levelo_inurba_marseille","lat":43.30138,"lon":5.38092,"is_reserved":false,"is_disabled":false,"rental_uris":{"android":"levelo://app?vid=38e495d8-5a5e-48d0-96cb-ae45ae824053","ios":"levelo://app?vid=38e495d8-5a5e-48d0-96cb-ae45ae824053"},"vehicle_type_id":"4","last_reported":1771493633,"current_range_meters":38000,"station_id":"ce4bgjp2rcd13ifvqbh0","pricing_plan_id":"cebpf4jnsgd1na2vs0mg"},{"bike_id":"759f0a09-9669-46dc-9822-7ecc825b93de","system_id":"levelo_inurba_marseille","lat":43.30535,"lon":5.36533,"is_reserved":false,"is_disabled":false,"rental_uris":{"android":"levelo://app?vid=759f0a09-9669-46dc-9822-7ecc825b93de","ios":"levelo://app?vid=759f0a09-9669-46dc-9822-7ecc825b93de"},"vehicle_type_id":"4","last_reported":1771493633,"current_range_meters":36000,"station_id":"ce4bgs12rcd13ifvqcag","pricing_plan_id":"cebpf4jnsgd1na2vs0mg"},{"bike_id":"32ffec6a-477b-42f8-9e4b-439374552554","system_id":"levelo_inurba_marseille","lat":43.29295,"lon":5.37467,"is_reserved":false,"is_disabled":false,"rental_uris":{"android":"levelo://app?vid=32ffec6a-477b-42f8-9e4b-439374552554","ios":"levelo://app?vid=32ffec6a-477b-42f8-9e4b-439374552554"},"vehicle_type_id":"4","last_reported":1771493633,"current_range_meters":35200,"station_id":"ce4bgi12rcd13ifvqb70","pricing_plan_id":"cebpf4jnsgd1na2vs0mg"},{"bike_id":"52f61550-53ac-43ca-b4ac-25520a40692b","system_id":"levelo_inurba_marseille","lat":43.26228,"lon":5.40492,"is_reserved":false,"is_disabled":false,"rental_uris":{"android":"levelo://app?vid=52f61550-53ac-43ca-b4ac-25520a40692b","ios":"levelo://app?vid=52f61550-53ac-43ca-b4ac-25520a40692b"},"vehicle_type_id":"4","last_reported":1771493633,"current_range_meters":10000,"station_id":"ce4bhmh2rcd13ifvqgmg","pricing_plan_id":"cebpf4jnsgd1na2vs0mg"},{"bike_id":"84b0b670-200d-4214-99d4-bfcf30c671d6","system_id":"levelo_inurba_marseille","lat":43.27946,"lon":5.41045,"is_reserved":false,"is_disabled":false,"rental_uris":{"android":"levelo://app?vid=84b0b670-200d-4214-99d4-bfcf30c671d6","ios":"levelo://app?vid=84b0b670-200d-4214-99d4-bfcf30c671d6"},"vehicle_type_id":"4","last_reported":1771493633,"current_range_meters":14800,"station_id":"ce4bhnp2rcd13ifvqh0g","pricing_plan_id":"cebpf4jnsgd1na2vs0mg"},{"bike_id":"17f7ca05-9ff1-4847-81f4-6f637ce906bc","system_id":"levelo_inurba_marseille","lat":43.253283,"lon":5.42158,"is_reserved":false,"is_disabled":true,"rental_uris":{"android":"levelo://app?vid=17f7ca05-9ff1-4847-81f4-6f637ce906bc","ios":"levelo://app?vid=17f7ca05-9ff1-4847-81f4-6f637ce906bc"},"vehicle_type_id":"4","last_reported":1771493633,"current_range_meters":0,"station_id":"st_d2m65c5bi1j21697t3ng","pricing_plan_id":"cebpf4jnsgd1na2vs0mg"},{"bike_id":"0285cd04-0dc6-46e3-a432-3ab4cb419f63","system_id":"levelo_inurba_marseille","lat":43.29007,"lon":5.40039,"is_reserved":false,"is_disabled":false,"rental_uris":{"android":"levelo://app?vid=0285cd04-0dc6-46e3-a432-3ab4cb419f63","ios":"levelo://app?vid=0285cd04-0dc6-46e3-a432-3ab4cb419f63"},"vehicle_type_id":"4","last_reported":1771493633,"current_range_meters":38400,"station_id":"","pricing_plan_id":"cebpf4jnsgd1na2vs0mg"},{"bike_id":"90746c53-a95b-4578-9b4a-6533394b9d7d","system_id":"levelo_inurba_marseille","lat":43.30174,"lon":5.36613,"is_reserved":false,"is_disabled":false,"rental_uris":{"android":"levelo://app?vid=90746c53-a95b-4578-9b4a-6533394b9d7d","ios":"levelo://app?vid=90746c53-a95b-4578-9b4a-6533394b9d7d"},"vehicle_type_id":"4","last_reported":1771493633,"current_range_meters":27600,"station_id":"ce4bgrh2rcd13ifvqc8g","pricing_plan_id":"cebpf4jnsgd1na2vs0mg"},{"bike_id":"95ac3875-f146-4303-af46-f73fc1aee76b","system_id":"levelo_inurba_marseille","lat":43.28477,"lon":5.48398,"is_reserved":false,"is_disabled":true,"rental_uris":{"android":"levelo://app?vid=95ac3875-f146-4303-af46-f73fc1aee76b","ios":"levelo://app?vid=95ac3875-f146-4303-af46-f73fc1aee76b"},"vehicle_type_id":"4","last_reported":1771493633,"current_range_meters":1600,"station_id":"","pricing_plan_id":"cebpf4jnsgd1na2vs0mg"},{"bike_id":"3618f2db-4f56-4b38-bbb3-8ff578c5adb7","system_id":"levelo_inurba_marseille","lat":43.258183,"lon":5.394459,"is_reserved":false,"is_disabled":false,"rental_uris":{"android":"levelo://app?vid=3618f2db-4f56-4b38-bbb3-8ff578c5adb7","ios":"levelo://app?vid=3618f2db-4f56-4b38-bbb3-8ff578c5adb7"},"vehicle_type_id":"4","last_reported":1771493633,"current_range_meters":39200,"station_id":"ce4bhip2rcd13ifvqft0","pricing_plan_id":"cebpf4jnsgd1na2vs0mg"},{"bike_id":"783b5e66-d78c-4ae3-9d04-cbcffaa3b0ab","system_id":"levelo_inurba_marseille","lat":43.24402,"lon":5.37073,"is_reserved":false,"is_disabled":false,"rental_uris":{"android":"levelo://app?vid=783b5e66-d78c-4ae3-9d04-cbcffaa3b0ab","ios":"levelo://app?vid=783b5e66-d78c-4ae3-9d04-cbcffaa3b0ab"},"vehicle_type_id":"4","last_reported":1771493633,"current_range_meters":12000,"station_id":"ce4bhhh2rcd13ifvqfk0","pricing_plan_id":"cebpf4jnsgd1na2vs0mg"},{"bike_id":"d784bea9-82a5-430c-9ec4-f5350b864266","system_id":"levelo_inurba_marseille","lat":43.24068,"lon":5.37756,"is_reserved":false,"is_disabled":false,"rental_uris":{"android":"levelo://app?vid=d784bea9-82a5-430c-9ec4-f5350b864266","ios":"levelo://app?vid=d784bea9-82a5-430c-9ec4-f5350b864266"},"vehicle_type_id":"4","last_reported":1771493633,"current_range_meters":9200,"station_id":"ce4bhnp2rcd13ifvqgvg","pricing_plan_id":"cebpf4jnsgd1na2vs0mg"},{"bike_id":"6210ea03-011f-43b5-979c-84b688209c14","system_id":"levelo_inurba_marseille","lat":43.2594,"lon":5.40928,"is_reserved":false,"is_disabled":false,"rental_uris":{"android":"levelo://app?vid=6210ea03-011f-43b5-979c-84b688209c14","ios":"levelo://app?vid=6210ea03-011f-43b5-979c-84b688209c14"},"vehicle_type_id":"4","last_reported":1771493633,"current_range_meters":27600,"station_id":"ce4bhm92rcd13ifvqglg","pricing_plan_id":"cebpf4jnsgd1na2vs0mg"},{"bike_id":"ff7c6076-03ef-481d-ba9a-a74982616a5f","system_id":"levelo_inurba_marseille","lat":43.28748,"lon":5.37918,"is_reserved":false,"is_disabled":false,"rental_uris":{"android":"levelo://app?vid=ff7c6076-03ef-481d-ba9a-a74982616a5f","ios":"levelo://app?vid=ff7c6076-03ef-481d-ba9a-a74982616a5f"},"vehicle_type_id":"4","last_reported":1771493633,"current_range_meters":40000,"station_id":"ce4bh9p2rcd13ifvqec0","pricing_plan_id":"cebpf4jnsgd1na2vs0mg"},{"bike_id":"883ef81b-2398-40c3-8b0c-1943ff78bd3f","system_id":"levelo_inurba_marseille","lat":43.24691,"lon":5.38167,"is_reserved":false,"is_disabled":true,"rental_uris":{"android":"levelo://app?vid=883ef81b-2398-40c3-8b0c-1943ff78bd3f","ios":"levelo://app?vid=883ef81b-2398-40c3-8b0c-1943ff78bd3f"},"vehicle_type_id":"4","last_reported":1771493633,"current_range_meters":38400,"station_id":"ce4bhih2rcd13ifvqfr0","pricing_plan_id":"cebpf4jnsgd1na2vs0mg"},{"bike_id":"6490eec2-c2e9-42ad-aca0-95d82ccfc451","system_id":"levelo_inurba_marseille","lat":43.292357,"lon":5.360746,"is_reserved":false,"is_disabled":false,"rental_uris":{"android":"levelo://app?vid=6490eec2-c2e9-42ad-aca0-95d82ccfc451","ios":"levelo://app?vid=6490eec2-c2e9-42ad-aca0-95d82ccfc451"},"vehicle_type_id":"4","last_reported":1771493633,"current_range_meters":9200,"station_id":"ce4bhbh2rcd13ifvqeqg","pricing_plan_id":"cebpf4jnsgd1na2vs0mg"},{"bike_id":"fac37d59-7173-486d-84e4-f215994ed327","system_id":"levelo_inurba_marseille","lat":43.26202,"lon":5.37936,"is_reserved":false,"is_disabled":false,"rental_uris":{"android":"levelo://app?vid=fac37d59-7173-486d-84e4-f215994ed327","ios":"levelo://app?vid=fac37d59-7173-486d-84e4-f215994ed327"},"vehicle_type_id":"4","last_reported":1771493633,"current_range_meters":22400,"station_id":"ce4bhjp2rcd13ifvqg90","pricing_plan_id":"cebpf4jnsgd1na2vs0mg"},{"bike_id":"d2d0ab5a-7277-4ce9-a930-0ec3634ef66b","system_id":"levelo_inurba_marseille","lat":43.3017,"lon":5.37418,"is_reserved":false,"is_disabled":false,"rental_uris":{"android":"levelo://app?vid=d2d0ab5a-7277-4ce9-a930-0ec3634ef66b","ios":"levelo://app?vid=d2d0ab5a-7277-4ce9-a930-0ec3634ef66b"},"vehicle_type_id":"4","last_reported":1771493633,"current_range_meters":6400,"station_id":"ce4bgs92rcd13ifvqcc0","pricing_plan_id":"cebpf4jnsgd1na2vs0mg"},{"bike_id":"2f23e05b-5173-4376-83e2-eba7b9bdc046","system_id":"levelo_inurba_marseille","lat":43.29877,"lon":5.44092,"is_reserved":false,"is_disabled":false,"rental_uris":{"android":"levelo://app?vid=2f23e05b-5173-4376-83e2-eba7b9bdc046","ios":"levelo://app?vid=2f23e05b-5173-4376-83e2-eba7b9bdc046"},"vehicle_type_id":"4","last_reported":1771493633,"current_range_meters":24000,"station_id":"st_d3jp68qikq2c7381ktn0","pricing_plan_id":"cebpf4jnsgd1na2vs0mg"},{"bike_id":"f5a83828-f353-4692-b521-be18cc9b6b45","system_id":"levelo_inurba_marseille","lat":43.29,"lon":5.35623,"is_reserved":false,"is_disabled":false,"rental_uris":{"android":"levelo://app?vid=f5a83828-f353-4692-b521-be18cc9b6b45","ios":"levelo://app?vid=f5a83828-f353-4692-b521-be18cc9b6b45"},"vehicle_type_id":"4","last_reported":1771493633,"current_range_meters":20800,"station_id":"ce4bhb92rcd13ifvqen0","pricing_plan_id":"cebpf4jnsgd1na2vs0mg"},{"bike_id":"c4e9c7d9-9288-49ff-a36e-340fc3b93b1b","system_id":"levelo_inurba_marseille","lat":43.3047,"lon":5.37916,"is_reserved":false,"is_disabled":false,"rental_uris":{"android":"levelo://app?vid=c4e9c7d9-9288-49ff-a36e-340fc3b93b1b","ios":"levelo://app?vid=c4e9c7d9-9288-49ff-a36e-340fc3b93b1b"},"vehicle_type_id":"4","last_reported":1771493633,"current_range_meters":33600,"station_id":"ce4bgup2rcd13ifvqcn0","pricing_plan_id":"cebpf4jnsgd1na2vs0mg"},{"bike_id":"effcabf8-7167-4bc3-9f77-4c6283c842bb","system_id":"levelo_inurba_marseille","lat":43.31132,"lon":5.3775,"is_reserved":false,"is_disabled":false,"rental_uris":{"android":"levelo://app?vid=effcabf8-7167-4bc3-9f77-4c6283c842bb","ios":"levelo://app?vid=effcabf8-7167-4bc3-9f77-4c6283c842bb"},"vehicle_type_id":"4","last_reported":1771493633,"current_range_meters":39200,"station_id":"ce4bgt92rcd13ifvqcg0","pricing_plan_id":"cebpf4jnsgd1na2vs0mg"},{"bike_id":"2b2c0afe-1819-41f3-bb9e-42d4b1bf8421","system_id":"levelo_inurba_marseille","lat":43.31371,"lon":5.36728,"is_reserved":false,"is_disabled":false,"rental_uris":{"android":"levelo://app?vid=2b2c0afe-1819-41f3-bb9e-42d4b1bf8421","ios":"levelo://app?vid=2b2c0afe-1819-41f3-bb9e-42d4b1bf8421"},"vehicle_type_id":"4","last_reported":1771493633,"current_range_meters":24400,"station_id":"ce4bgr92rcd13ifvqc6g","pricing_plan_id":"cebpf4jnsgd1na2vs0mg"},{"bike_id":"ece64ef9-0444-4fc3-a916-9262a025fff3","system_id":"levelo_inurba_marseille","lat":43.29621,"lon":5.4061,"is_reserved":false,"is_disabled":false,"rental_uris":{"android":"levelo://app?vid=ece64ef9-0444-4fc3-a916-9262a025fff3","ios":"levelo://app?vid=ece64ef9-0444-4fc3-a916-9262a025fff3"},"vehicle_type_id":"4","last_reported":1771493633,"current_range_meters":20000,"station_id":"ce4bh0h2rcd13ifvqd60","pricing_plan_id":"cebpf4jnsgd1na2vs0mg"},{"bike_id":"96972ae3-d62c-4bbc-aaf5-da2b9705a126","system_id":"levelo_inurba_marseille","lat":43.29624,"lon":5.38104,"is_reserved":false,"is_disabled":false,"rental_uris":{"android":"levelo://app?vid=96972ae3-d62c-4bbc-aaf5-da2b9705a126","ios":"levelo://app?vid=96972ae3-d62c-4bbc-aaf5-da2b9705a126"},"vehicle_type_id":"4","last_reported":1771493633,"current_range_meters":35200,"station_id":"ce4bgl12rcd13ifvqbo0","pricing_plan_id":"cebpf4jnsgd1na2vs0mg"},{"bike_id":"f8df57cb-120a-4af2-869d-3dd7ec6f3729","system_id":"levelo_inurba_marseille","lat":43.298053,"lon":5.380076,"is_reserved":false,"is_disabled":false,"rental_uris":{"android":"levelo://app?vid=f8df57cb-120a-4af2-869d-3dd7ec6f3729","ios":"levelo://app?vid=f8df57cb-120a-4af2-869d-3dd7ec6f3729"},"vehicle_type_id":"4","last_reported":1771493633,"current_range_meters":26000,"station_id":"","pricing_plan_id":"cebpf4jnsgd1na2vs0mg"},{"bike_id":"c1b93aaa-3851-4141-a3a2-469a9b9eac56","system_id":"levelo_inurba_marseille","lat":43.31279,"lon":5.36871,"is_reserved":false,"is_disabled":false,"rental_uris":{"android":"levelo://app?vid=c1b93aaa-3851-4141-a3a2-469a9b9eac56","ios":"levelo://app?vid=c1b93aaa-3851-4141-a3a2-469a9b9eac56"},"vehicle_type_id":"4","last_reported":1771493633,"current_range_meters":38000,"station_id":"","pricing_plan_id":"cebpf4jnsgd1na2vs0mg"},{"bike_id":"2c2661ae-ead4-40d4-991b-9fc93c540ace","system_id":"levelo_inurba_marseille","lat":43.27507,"lon":5.42485,"is_reserved":false,"is_disabled":false,"rental_uris":{"android":"levelo://app?vid=2c2661ae-ead4-40d4-991b-9fc93c540ace","ios":"levelo://app?vid=2c2661ae-ead4-40d4-991b-9fc93c540ace"},"vehicle_type_id":"4","last_reported":1771493633,"current_range_meters":20000,"station_id":"ce4bhn92rcd13ifvqgrg","pricing_plan_id":"cebpf4jnsgd1na2vs0mg"},{"bike_id":"b33dece4-35b6-4fff-b66e-71708d37c35c","system_id":"levelo_inurba_marseille","lat":43.32485,"lon":5.36575,"is_reserved":false,"is_disabled":false,"rental_uris":{"android":"levelo://app?vid=b33dece4-35b6-4fff-b66e-71708d37c35c","ios":"levelo://app?vid=b33dece4-35b6-4fff-b66e-71708d37c35c"},"vehicle_type_id":"4","last_reported":1771493633,"current_range_meters":36000,"station_id":"ce4bhs12rcd13ifvqhvg","pricing_plan_id":"cebpf4jnsgd1na2vs0mg"},{"bike_id":"f016aa2d-f583-4649-9e1b-88e634cc37d8","system_id":"levelo_inurba_marseille","lat":43.24175,"lon":5.39728,"is_reserved":false,"is_disabled":false,"rental_uris":{"android":"levelo://app?vid=f016aa2d-f583-4649-9e1b-88e634cc37d8","ios":"levelo://app?vid=f016aa2d-f583-4649-9e1b-88e634cc37d8"},"vehicle_type_id":"4","last_reported":1771493633,"current_range_meters":30800,"station_id":"ce4bhn12rcd13ifvqgpg","pricing_plan_id":"cebpf4jnsgd1na2vs0mg"},{"bike_id":"b4310c99-a712-4ef3-a6ad-c2642579f46f","system_id":"levelo_inurba_marseille","lat":43.246331,"lon":5.382001,"is_reserved":false,"is_disabled":false,"rental_uris":{"android":"levelo://app?vid=b4310c99-a712-4ef3-a6ad-c2642579f46f","ios":"levelo://app?vid=b4310c99-a712-4ef3-a6ad-c2642579f46f"},"vehicle_type_id":"4","last_reported":1771493633,"current_range_meters":40000,"station_id":"ce4bhih2rcd13ifvqfr0","pricing_plan_id":"cebpf4jnsgd1na2vs0mg"},{"bike_id":"4998ee73-3c0d-4876-8d83-cc4a52db2d79","system_id":"levelo_inurba_marseille","lat":43.22945,"lon":5.35349,"is_reserved":false,"is_disabled":false,"rental_uris":{"android":"levelo://app?vid=4998ee73-3c0d-4876-8d83-cc4a52db2d79","ios":"levelo://app?vid=4998ee73-3c0d-4876-8d83-cc4a52db2d79"},"vehicle_type_id":"4","last_reported":1771493633,"current_range_meters":8000,"station_id":"cpo3532slgdg3j2ikp40","pricing_plan_id":"cebpf4jnsgd1na2vs0mg"},{"bike_id":"78f61b19-3c54-485c-b424-732417880797","system_id":"levelo_inurba_marseille","lat":43.27587,"lon":5.38434,"is_reserved":false,"is_disabled":false,"rental_uris":{"android":"levelo://app?vid=78f61b19-3c54-485c-b424-732417880797","ios":"levelo://app?vid=78f61b19-3c54-485c-b424-732417880797"},"vehicle_type_id":"4","last_reported":1771493633,"current_range_meters":37600,"station_id":"ce4bhh92rcd13ifvqfi0","pricing_plan_id":"cebpf4jnsgd1na2vs0mg"},{"bike_id":"c7319d3b-aaa0-4421-81a8-9a13f2d5a527","system_id":"levelo_inurba_marseille","lat":43.29061,"lon":5.42432,"is_reserved":false,"is_disabled":false,"rental_uris":{"android":"levelo://app?vid=c7319d3b-aaa0-4421-81a8-9a13f2d5a527","ios":"levelo://app?vid=c7319d3b-aaa0-4421-81a8-9a13f2d5a527"},"vehicle_type_id":"4","last_reported":1771493633,"current_range_meters":20400,"station_id":"","pricing_plan_id":"cebpf4jnsgd1na2vs0mg"},{"bike_id":"4937a537-f3f7-4999-aa8d-1a55f9c0e810","system_id":"levelo_inurba_marseille","lat":43.30567,"lon":5.36526,"is_reserved":false,"is_disabled":false,"rental_uris":{"android":"levelo://app?vid=4937a537-f3f7-4999-aa8d-1a55f9c0e810","ios":"levelo://app?vid=4937a537-f3f7-4999-aa8d-1a55f9c0e810"},"vehicle_type_id":"4","last_reported":1771493633,"current_range_meters":7200,"station_id":"ce4bgs12rcd13ifvqcag","pricing_plan_id":"cebpf4jnsgd1na2vs0mg"},{"bike_id":"598d15d7-1ad0-4425-9410-93ef2683f566","system_id":"levelo_inurba_marseille","lat":43.31269,"lon":5.37764,"is_reserved":false,"is_disabled":false,"rental_uris":{"android":"levelo://app?vid=598d15d7-1ad0-4425-9410-93ef2683f566","ios":"levelo://app?vid=598d15d7-1ad0-4425-9410-93ef2683f566"},