{"last_updated":1706429332,"ttl":30,"version":"2.2","data":{"bikes":[{"bike_id":"11bbb38f-2a8a-435c-a72b-1587cac4755b","system_id":"levelo_inurba_marseille","lat":43.312239,"lon":5.368562,"is_reserved":false,"is_disabled":false,"rental_uris":{"android":"levelo://app?vid=11bbb38f-2a8a-435c-a72b-1587cac4755b","ios":"levelo://app?vid=11bbb38f-2a8a-435c-a72b-1587cac4755b"},"vehicle_type_id":"4","last_reported":1706429332,"current_range_meters":22000,"station_id":"ce4bgl92rcd13ifvqbq0","pricing_plan_id":"free"},{"bike_id":"5fc57ca2-f1a6-4bb9-89c8-156190f0c212","system_id":"levelo_inurba_marseille","lat":43.30914,"lon":5.368431,"is_reserved":false,"is_disabled":false,"rental_uris":{"android":"levelo://app?vid=5fc57ca2-f1a6-4bb9-89c8-156190f0c212","ios":"levelo://app?vid=5fc57ca2-f1a6-4bb9-89c8-156190f0c212"},"vehicle_type_id":"4","last_reported":1706429332,"current_range_meters":25600,"station_id":"ce4bgn92rcd13ifvqbvg","pricing_plan_id":"free"},{"bike_id":"66cd4499-f625-4e57-99dc-474b013d0767","system_id":"levelo_inurba_marseille","lat":43.309076,"lon":5.368465,"is_reserved":false,"is_disabled":false,"rental_uris":{"android":"levelo://app?vid=66cd4499-f625-4e57-99dc-474b013d0767","ios":"levelo://app?vid=66cd4499-f625-4e57-99dc-474b013d0767"},"vehicle_type_id":"4","last_reported":1706429332,"current_range_meters":26400,"station_id":"ce4bgn92rcd13ifvqbvg","pricing_plan_id":"free"},{"bike_id":"be0a28db-dfa5-4db2-9442-7b4ef8682a46","system_id":"levelo_inurba_marseille","lat":43.30908,"lon":5.36853,"is_reserved":false,"is_disabled":false,"rental_uris":{"android":"levelo://app?vid=be0a28db-dfa5-4db2-9442-7b4ef8682a46","ios":"levelo://app?vid=be0a28db-dfa5-4db2-9442-7b4ef8682a46"},"vehicle_type_id":"4","last_reported":1706429332,"current_range_meters":29200,"station_id":"ce4bgn92rcd13ifvqbvg","pricing_plan_id":"free"},{"bike_id":"912f9e70-5841-422d-a830-629990968328","system_id":"levelo_inurba_marseille","lat":43.30906,"lon":5.36851,"is_reserved":false,"is_disabled":false,"rental_uris":{"android":"levelo://app?vid=912f9e70-5841-422d-a830-629990968328","ios":"levelo://app?vid=912f9e70-5841-422d-a830-629990968328"},"vehicle_type_id":"4","last_reported":1706429332,"current_range_meters":12400,"station_id":"","pricing_plan_id":"free"},{"bike_id":"9fbd1394-f62b-4f2a-b775-769726bec851","system_id":"levelo_inurba_marseille","lat":43.314811,"lon":5.373103,"is_reserved":false,"is_disabled":false,"rental_uris":{"android":"levelo://app?vid=9fbd1394-f62b-4f2a-b775-769726bec851","ios":"levelo://app?vid=9fbd1394-f62b-4f2a-b775-769726bec851"},"vehicle_type_id":"4","last_reported":1706429332,"current_range_meters":31200,"station_id":"ce4bgt12rcd13ifvqcd0","pricing_plan_id":"free"},{"bike_id":"c5070563-51ee-452b-a1d8-1f9664cbb6b9","system_id":"levelo_inurba_marseille","lat":43.314811,"lon":5.373103,"is_reserved":false,"is_disabled":false,"rental_uris":{"android":"levelo://app?vid=c5070563-51ee-452b-a1d8-1f9664cbb6b9","ios":"levelo://app?vid=c5070563-51ee-452b-a1d8-1f9664cbb6b9"},"vehicle_type_id":"4","last_reported":1706429332,"current_range_meters":31200,"station_id":"ce4bgt12rcd13ifvqcd0","pricing_plan_id":"free"},{"bike_id":"a8ab23e8-1be9-448a-90f7-58b9fadc1511","system_id":"levelo_inurba_marseille","lat":43.314811,"lon":5.373103,"is_reserved":false,"is_disabled":false,"rental_uris":{"android":"levelo://app?vid=a8ab23e8-1be9-448a-90f7-58b9fadc1511","ios":"levelo://app?vid=a8ab23e8-1be9-448a-90f7-58b9fadc1511"},"vehicle_type_id":"4","last_reported":1706429332,"current_range_meters":29600,"station_id":"ce4bgt12rcd13ifvqcd0","pricing_plan_id":"free"},{"bike_id":"0c879c7c-b478-4341-b557-d8fa9e7ce411","system_id":"levelo_inurba_marseille","lat":43.314811,"lon":5.373104,"is_reserved":false,"is_disabled":false,"rental_uris":{"android":"levelo://app?vid=0c879c7c-b478-4341-b557-d8fa9e7ce411","ios":"levelo://app?vid=0c879c7c-b478-4341-b557-d8fa9e7ce411"},"vehicle_type_id":"4","last_reported":1706429332,"current_range_meters":30800,"station_id":"ce4bgt12rcd13ifvqcd0","pricing_plan_id":"free"},{"bike_id":"8ced2901-be8f-47eb-92cd-d368d32b4755","system_id":"levelo_inurba_marseille","lat":43.314811,"lon":5.373103,"is_reserved":false,"is_disabled":false,"rental_uris":{"android":"levelo://app?vid=8ced2901-be8f-47eb-92cd-d368d32b4755","ios":"levelo://app?vid=8ced2901-be8f-47eb-92cd-d368d32b4755"},"vehicle_type_id":"4","last_reported":1706429332,"current_range_meters":31200,"station_id":"ce4bgt12rcd13ifvqcd0","pricing_plan_id":"free"},{"bike_id":"3d15222e-d116-4806-8173-ed20829aa86b","system_id":"levelo_inurba_marseille","lat":43.314811,"lon":5.373104,"is_reserved":false,"is_disabled":false,"rental_uris":{"android":"levelo://app?vid=3d15222e-d116-4806-8173-ed20829aa86b","ios":"levelo://app?vid=3d15222e-d116-4806-8173-ed20829aa86b"},"vehicle_type_id":"4","last_reported":1706429332,"current_range_meters":2800,"station_id":"ce4bgt12rcd13ifvqcd0","pricing_plan_id":"free"},{"bike_id":"0bff1dd7-d588-44f6-9d74-e9040ba27bb7","system_id":"levelo_inurba_marseille","lat":43.314811,"lon":5.373103,"is_reserved":false,"is_disabled":false,"rental_uris":{"android":"levelo://app?vid=0bff1dd7-d588-44f6-9d74-e9040ba27bb7","ios":"levelo://app?vid=0bff1dd7-d588-44f6-9d74-e9040ba27bb7"},"vehicle_type_id":"4","last_reported":1706429332,"current_range_meters":27600,"station_id":"ce4bgt12rcd13ifvqcd0","pricing_plan_id":"free"},{"bike_id":"1a3d829b-da0a-440e-bd77-4996fdba56bf","system_id":"levelo_inurba_marseille","lat":43.314811,"lon":5.373104,"is_reserved":false,"is_disabled":false,"rental_uris":{"android":"levelo://app?vid=1a3d829b-da0a-440e-bd77-4996fdba56bf","ios":"levelo://app?vid=1a3d829b-da0a-440e-bd77-4996fdba56bf"},"vehicle_type_id":"4","last_reported":1706429332,"current_range_meters":27200,"station_id":"ce4bgt12rcd13ifvqcd0","pricing_plan_id":"free"},{"bike_id":"ff6c1c25-8287-4f32-9d54-133fa7cb156b","system_id":"levelo_inurba_marseille","lat":43.309039,"lon":5.371797,"is_reserved":false,"is_disabled":false,"rental_uris":{"android":"levelo://app?vid=ff6c1c25-8287-4f32-9d54-133fa7cb156b","ios":"levelo://app?vid=ff6c1c25-8287-4f32-9d54-133fa7cb156b"},"vehicle_type_id":"4","last_reported":1706429332,"current_range_meters":28000,"station_id":"ce4bguh2rcd13ifvqckg","pricing_plan_id":"free"},{"bike_id":"210c7657-c99e-4bcb-83da-afdb8db58bf1","system_id":"levelo_inurba_marseille","lat":43.309034,"lon":5.371783,"is_reserved":false,"is_disabled":false,"rental_uris":{"android":"levelo://app?vid=210c7657-c99e-4bcb-83da-afdb8db58bf1","ios":"levelo://app?vid=210c7657-c99e-4bcb-83da-afdb8db58bf1"},"vehicle_type_id":"4","last_reported":1706429332,"current_range_meters":30800,"station_id":"ce4bguh2rcd13ifvqckg","pricing_plan_id":"free"},{"bike_id":"6869a885-283d-4ad3-a964-3f0f60ceba45","system_id":"levelo_inurba_marseille","lat":43.305368,"lon":5.367343,"is_reserved":false,"is_disabled":false,"rental_uris":{"android":"levelo://app?vid=6869a885-283d-4ad3-a964-3f0f60ceba45","ios":"levelo://app?vid=6869a885-283d-4ad3-a964-3f0f60ceba45"},"vehicle_type_id":"4","last_reported":1706429332,"current_range_meters":31200,"station_id":"ce4bgrp2rcd13ifvqc9g","pricing_plan_id":"free"},{"bike_id":"1c6978d8-14c2-46cb-87e2-775b6412cabb","system_id":"levelo_inurba_marseille","lat":43.305368,"lon":5.367343,"is_reserved":false,"is_disabled":false,"rental_uris":{"android":"levelo://app?vid=1c6978d8-14c2-46cb-87e2-775b6412cabb","ios":"levelo://app?vid=1c6978d8-14c2-46cb-87e2-775b6412cabb"},"vehicle_type_id":"4","last_reported":1706429332,"current_range_meters":19200,"station_id":"ce4bgrp2rcd13ifvqc9g","pricing_plan_id":"free"},{"bike_id":"f0eff8a3-daa1-4e80-a5a6-c979d552bccc","system_id":"levelo_inurba_marseille","lat":43.305368,"lon":5.367343,"is_reserved":false,"is_disabled":false,"rental_uris":{"android":"levelo://app?vid=f0eff8a3-daa1-4e80-a5a6-c979d552bccc","ios":"levelo://app?vid=f0eff8a3-daa1-4e80-a5a6-c979d552bccc"},"vehicle_type_id":"4","last_reported":1706429332,"current_range_meters":29200,"station_id":"ce4bgrp2rcd13ifvqc9g","pricing_plan_id":"free"},{"bike_id":"f1ca63c0-b926-4364-9a8e-cd4d66e53e60","system_id":"levelo_inurba_marseille","lat":43.305714,"lon":5.365633,"is_reserved":false,"is_disabled":false,"rental_uris":{"android":"levelo://app?vid=f1ca63c0-b926-4364-9a8e-cd4d66e53e60","ios":"levelo://app?vid=f1ca63c0-b926-4364-9a8e-cd4d66e53e60"},"vehicle_type_id":"4","last_reported":1706429332,"current_range_meters":30800,"station_id":"ce4bgs12rcd13ifvqcag","pricing_plan_id":"free"},{"bike_id":"e9452944-f418-4d6d-a4a2-5e507e92935c","system_id":"levelo_inurba_marseille","lat":43.305714,"lon":5.365633,"is_reserved":false,"is_disabled":false,"rental_uris":{"android":"levelo://app?vid=e9452944-f418-4d6d-a4a2-5e507e92935c","ios":"levelo://app?vid=e9452944-f418-4d6d-a4a2-5e507e92935c"},"vehicle_type_id":"4","last_reported":1706429332,"current_range_meters":30400,"station_id":"ce4bgs12rcd13ifvqcag","pricing_plan_id":"free"},{"bike_id":"1b2455f2-4d0c-498a-a6bb-9b578a5f77f6","system_id":"levelo_inurba_marseille","lat":43.305706,"lon":5.365654,"is_reserved":false,"is_disabled":false,"rental_uris":{"android":"levelo://app?vid=1b2455f2-4d0c-498a-a6bb-9b578a5f77f6","ios":"levelo://app?vid=1b2455f2-4d0c-498a-a6bb-9b578a5f77f6"},"vehicle_type_id":"4","last_reported":1706429332,"current_range_meters":18400,"station_id":"ce4bgs12rcd13ifvqcag","pricing_plan_id":"free"},{"bike_id":"243c1b02-09a9-44e1-9a43-15cd5253e535","system_id":"levelo_inurba_marseille","lat":43.305368,"lon":5.367343,"is_reserved":false,"is_disabled":false,"rental_uris":{"android":"levelo://app?vid=243c1b02-09a9-44e1-9a43-15cd5253e535","ios":"levelo://app?vid=243c1b02-09a9-44e1-9a43-15cd5253e535"},"vehicle_type_id":"4","last_reported":1706429332,"current_range_meters":22800,"station_id":"ce4bgrp2rcd13ifvqc9g","pricing_plan_id":"free"},{"bike_id":"7d034e6f-21a5-4e2f-bf5e-3f1ebc8c0d4a","system_id":"levelo_inurba_marseille","lat":43.311125,"lon":5.377624,"is_reserved":false,"is_disabled":false,"rental_uris":{"android":"levelo://app?vid=7d034e6f-21a5-4e2f-bf5e-3f1ebc8c0d4a","ios":"levelo://app?vid=7d034e6f-21a5-4e2f-bf5e-3f1ebc8c0d4a"},"vehicle_type_id":"4","last_reported":1706429332,"current_range_meters":11200,"station_id":"ce4bgt92rcd13ifvqcg0","pricing_plan_id":"free"},{"bike_id":"da184317-2c21-476e-b578-c9a40d3883c2","system_id":"levelo_inurba_marseille","lat":43.31118,"lon":5.37766,"is_reserved":false,"is_disabled":false,"rental_uris":{"android":"levelo://app?vid=da184317-2c21-476e-b578-c9a40d3883c2","ios":"levelo://app?vid=da184317-2c21-476e-b578-c9a40d3883c2"},"vehicle_type_id":"4","last_reported":1706429332,"current_range_meters":0,"station_id":"ce4bgt92rcd13ifvqcg0","pricing_plan_id":"free"},{"bike_id":"bff2f768-032b-40b3-bc87-f4d05864a143","system_id":"levelo_inurba_marseille","lat":43.307945,"lon":5.376487,"is_reserved":false,"is_disabled":false,"rental_uris":{"android":"levelo://app?vid=bff2f768-032b-40b3-bc87-f4d05864a143","ios":"levelo://app?vid=bff2f768-032b-40b3-bc87-f4d05864a143"},"vehicle_type_id":"4","last_reported":1706429332,"current_range_meters":24800,"station_id":"ce4bgv92rcd13ifvqcq0","pricing_plan_id":"free"},{"bike_id":"d3314d46-374b-47d7-a330-fbb85ff3b132","system_id":"levelo_inurba_marseille","lat":43.307945,"lon":5.376487,"is_reserved":false,"is_disabled":false,"rental_uris":{"android":"levelo://app?vid=d3314d46-374b-47d7-a330-fbb85ff3b132","ios":"levelo://app?vid=d3314d46-374b-47d7-a330-fbb85ff3b132"},"vehicle_type_id":"4","last_reported":1706429332,"current_range_meters":27600,"station_id":"ce4bgv92rcd13ifvqcq0","pricing_plan_id":"free"},{"bike_id":"f9a95911-3d3c-4470-a975-7971158cc078","system_id":"levelo_inurba_marseille","lat":43.30791,"lon":5.37651,"is_reserved":false,"is_disabled":false,"rental_uris":{"android":"levelo://app?vid=f9a95911-3d3c-4470-a975-7971158cc078","ios":"levelo://app?vid=f9a95911-3d3c-4470-a975-7971158cc078"},"vehicle_type_id":"4","last_reported":1706429332,"current_range_meters":20400,"station_id":"ce4bgv92rcd13ifvqcq0","pricing_plan_id":"free"},{"bike_id":"386f9084-6bdf-4086-9339-59c7928794bf","system_id":"levelo_inurba_marseille","lat":43.307945,"lon":5.376487,"is_reserved":false,"is_disabled":false,"rental_uris":{"android":"levelo://app?vid=386f9084-6bdf-4086-9339-59c7928794bf","ios":"levelo://app?vid=386f9084-6bdf-4086-9339-59c7928794bf"},"vehicle_type_id":"4","last_reported":1706429332,"current_range_meters":15200,"station_id":"ce4bgv92rcd13ifvqcq0","pricing_plan_id":"free"},{"bike_id":"b642d500-d3b2-4731-83ea-2f2dc0895fe9","system_id":"levelo_inurba_marseille","lat":43.307842,"lon":5.376527,"is_reserved":false,"is_disabled":false,"rental_uris":{"android":"levelo://app?vid=b642d500-d3b2-4731-83ea-2f2dc0895fe9","ios":"levelo://app?vid=b642d500-d3b2-4731-83ea-2f2dc0895fe9"},"vehicle_type_id":"4","last_reported":1706429332,"current_range_meters":31200,"station_id":"ce4bgv92rcd13ifvqcq0","pricing_plan_id":"free"},{"bike_id":"73645f36-08d9-44f6-8b3c-dd0fe7df04dc","system_id":"levelo_inurba_marseille","lat":43.307945,"lon":5.376487,"is_reserved":false,"is_disabled":false,"rental_uris":{"android":"levelo://app?vid=73645f36-08d9-44f6-8b3c-dd0fe7df04dc","ios":"levelo://app?vid=73645f36-08d9-44f6-8b3c-dd0fe7df04dc"},"vehicle_type_id":"4","last_reported":1706429332,"current_range_meters":30000,"station_id":"ce4bgv92rcd13ifvqcq0","pricing_plan_id":"free"},{"bike_id":"4805029b-b495-4c2a-9699-25b9c84d94f3","system_id":"levelo_inurba_marseille","lat":43.317075,"lon":5.377367,"is_reserved":false,"is_disabled":false,"rental_uris":{"android":"levelo://app?vid=4805029b-b495-4c2a-9699-25b9c84d94f3","ios":"levelo://app?vid=4805029b-b495-4c2a-9699-25b9c84d94f3"},"vehicle_type_id":"4","last_reported":1706429332,"current_range_meters":24400,"station_id":"ce4bgth2rcd13ifvqch0","pricing_plan_id":"free"},{"bike_id":"bf70306f-e475-47ca-8724-a7e42b25d923","system_id":"levelo_inurba_marseille","lat":43.317075,"lon":5.377367,"is_reserved":false,"is_disabled":false,"rental_uris":{"android":"levelo://app?vid=bf70306f-e475-47ca-8724-a7e42b25d923","ios":"levelo://app?vid=bf70306f-e475-47ca-8724-a7e42b25d923"},"vehicle_type_id":"4","last_reported":1706429332,"current_range_meters":31200,"station_id":"ce4bgth2rcd13ifvqch0","pricing_plan_id":"free"},{"bike_id":"f0c31732-301a-4d0f-9fd3-25ad0ecb4b3c","system_id":"levelo_inurba_marseille","lat":43.317075,"lon":5.377367,"is_reserved":false,"is_disabled":false,"rental_uris":{"android":"levelo://app?vid=f0c31732-301a-4d0f-9fd3-25ad0ecb4b3c","ios":"levelo://app?vid=f0c31732-301a-4d0f-9fd3-25ad0ecb4b3c"},"vehicle_type_id":"4","last_reported":1706429332,"current_range_meters":10400,"station_id":"ce4bgth2rcd13ifvqch0","pricing_plan_id":"free"},{"bike_id":"e6c874a7-4c53-46c7-b3b9-101410bd4b5b","system_id":"levelo_inurba_marseille","lat":43.317075,"lon":5.377367,"is_reserved":false,"is_disabled":false,"rental_uris":{"android":"levelo://app?vid=e6c874a7-4c53-46c7-b3b9-101410bd4b5b","ios":"levelo://app?vid=e6c874a7-4c53-46c7-b3b9-101410bd4b5b"},"vehicle_type_id":"4","last_reported":1706429332,"current_range_meters":26800,"station_id":"ce4bgth2rcd13ifvqch0","pricing_plan_id":"free"},{"bike_id":"6fff0b7d-2514-4e0c-a138-b6e9cb85be95","system_id":"levelo_inurba_marseille","lat":43.317075,"lon":5.377367,"is_reserved":false,"is_disabled":false,"rental_uris":{"android":"levelo://app?vid=6fff0b7d-2514-4e0c-a138-b6e9cb85be95","ios":"levelo://app?vid=6fff0b7d-2514-4e0c-a138-b6e9cb85be95"},"vehicle_type_id":"4","last_reported":1706429332,"current_range_meters":31600,"station_id":"ce4bgth2rcd13ifvqch0","pricing_plan_id":"free"},{"bike_id":"b83daeb9-a39c-4884-86e2-16a37c651f7f","system_id":"levelo_inurba_marseille","lat":43.320057,"lon":5.376209,"is_reserved":false,"is_disabled":false,"rental_uris":{"android":"levelo://app?vid=b83daeb9-a39c-4884-86e2-16a37c651f7f","ios":"levelo://app?vid=b83daeb9-a39c-4884-86e2-16a37c651f7f"},"vehicle_type_id":"4","last_reported":1706429332,"current_range_meters":7200,"station_id":"","pricing_plan_id":"free"},{"bike_id":"2b9973b9-e21f-458a-9e13-6cc909633bbf","system_id":"levelo_inurba_marseille","lat":43.315358,"lon":5.380335,"is_reserved":false,"is_disabled":false,"rental_uris":{"android":"levelo://app?vid=2b9973b9-e21f-458a-9e13-6cc909633bbf","ios":"levelo://app?vid=2b9973b9-e21f-458a-9e13-6cc909633bbf"},"vehicle_type_id":"4","last_reported":1706429332,"current_range_meters":0,"station_id":"ce4bhsp2rcd13ifvqi50","pricing_plan_id":"free"},{"bike_id":"e9825917-ffb0-4509-a170-3d6724afb3bd","system_id":"levelo_inurba_marseille","lat":43.308012,"lon":5.381511,"is_reserved":false,"is_disabled":false,"rental_uris":{"android":"levelo://app?vid=e9825917-ffb0-4509-a170-3d6724afb3bd","ios":"levelo://app?vid=e9825917-ffb0-4509-a170-3d6724afb3bd"},"vehicle_type_id":"4","last_reported":1706429332,"current_range_meters":26400,"station_id":"ce4bgt12rcd13ifvqce0","pricing_plan_id":"free"},{"bike_id":"004836f6-949a-4c55-84e8-4371cde51b9e","system_id":"levelo_inurba_marseille","lat":43.308012,"lon":5.381511,"is_reserved":false,"is_disabled":false,"rental_uris":{"android":"levelo://app?vid=004836f6-949a-4c55-84e8-4371cde51b9e","ios":"levelo://app?vid=004836f6-949a-4c55-84e8-4371cde51b9e"},"vehicle_type_id":"4","last_reported":1706429332,"current_range_meters":27200,"station_id":"ce4bgt12rcd13ifvqce0","pricing_plan_id":"free"},{"bike_id":"aa352b78-54c0-47dc-9f4f-44a863055744","system_id":"levelo_inurba_marseille","lat":43.304606,"lon":5.379026,"is_reserved":false,"is_disabled":false,"rental_uris":{"android":"levelo://app?vid=aa352b78-54c0-47dc-9f4f-44a863055744","ios":"levelo://app?vid=aa352b78-54c0-47dc-9f4f-44a863055744"},"vehicle_type_id":"4","last_reported":1706429332,"current_range_meters":31200,"station_id":"ce4bgup2rcd13ifvqcn0","pricing_plan_id":"free"},{"bike_id":"2590b3da-ae4e-43f5-b4ed-e7d80b82268e","system_id":"levelo_inurba_marseille","lat":43.304606,"lon":5.379026,"is_reserved":false,"is_disabled":false,"rental_uris":{"android":"levelo://app?vid=2590b3da-ae4e-43f5-b4ed-e7d80b82268e","ios":"levelo://app?vid=2590b3da-ae4e-43f5-b4ed-e7d80b82268e"},"vehicle_type_id":"4","last_reported":1706429332,"current_range_meters":31200,"station_id":"ce4bgup2rcd13ifvqcn0","pricing_plan_id":"free"},{"bike_id":"3205b3a8-8a8e-48a9-b08c-c8635c523e24","system_id":"levelo_inurba_marseille","lat":43.304606,"lon":5.379026,"is_reserved":false,"is_disabled":false,"rental_uris":{"android":"levelo://app?vid=3205b3a8-8a8e-48a9-b08c-c8635c523e24","ios":"levelo://app?vid=3205b3a8-8a8e-48a9-b08c-c8635c523e24"},"vehicle_type_id":"4","last_reported":1706429332,"current_range_meters":30400,"station_id":"ce4bgup2rcd13ifvqcn0","pricing_plan_id":"free"},{"bike_id":"31358974-a289-452d-b8d4-453a1d490f6c","system_id":"levelo_inurba_marseille","lat":43.304606,"lon":5.379026,"is_reserved":false,"is_disabled":false,"rental_uris":{"android":"levelo://app?vid=31358974-a289-452d-b8d4-453a1d490f6c","ios":"levelo://app?vid=31358974-a289-452d-b8d4-453a1d490f6c"},"vehicle_type_id":"4","last_reported":1706429332,"current_range_meters":23600,"station_id":"ce4bgup2rcd13ifvqcn0","pricing_plan_id":"free"},{"bike_id":"ce0cbfbc-2210-4d3a-8276-bfe939d0c49a","system_id":"levelo_inurba_marseille","lat":43.304606,"lon":5.379026,"is_reserved":false,"is_disabled":false,"rental_uris":{"android":"levelo://app?vid=ce0cbfbc-2210-4d3a-8276-bfe939d0c49a","ios":"levelo://app?vid=ce0cbfbc-2210-4d3a-8276-bfe939d0c49a"},"vehicle_type_id":"4","last_reported":1706429332,"current_range_meters":24000,"station_id":"ce4bgup2rcd13ifvqcn0","pricing_plan_id":"free"},{"bike_id":"b7a5f1e3-d531-4c89-a5c4-ceab573de39f","system_id":"levelo_inurba_marseille","lat":43.304606,"lon":5.379026,"is_reserved":false,"is_disabled":false,"rental_uris":{"android":"levelo://app?vid=b7a5f1e3-d531-4c89-a5c4-ceab573de39f","ios":"levelo://app?vid=b7a5f1e3-d531-4c89-a5c4-ceab573de39f"},"vehicle_type_id":"4","last_reported":1706429332,"current_range_meters":22000,"station_id":"ce4bgup2rcd13ifvqcn0","pricing_plan_id":"free"},{"bike_id":"9a36931a-84ae-49f2-bfeb-bdb7581f69df","system_id":"levelo_inurba_marseille","lat":43.304606,"lon":5.379026,"is_reserved":false,"is_disabled":false,"rental_uris":{"android":"levelo://app?vid=9a36931a-84ae-49f2-bfeb-bdb7581f69df","ios":"levelo://app?vid=9a36931a-84ae-49f2-bfeb-bdb7581f69df"},"vehicle_type_id":"4","last_reported":1706429332,"current_range_meters":29200,"station_id":"ce4bgup2rcd13ifvqcn0","pricing_plan_id":"free"},{"bike_id":"000b989e-589d-4428-ae9e-c9431c15a250","system_id":"levelo_inurba_marseille","lat":43.304606,"lon":5.379026,"is_reserved":false,"is_disabled":false,"rental_uris":{"android":"levelo://app?vid=000b989e-589d-4428-ae9e-c9431c15a250","ios":"levelo://app?vid=000b989e-589d-4428-ae9e-c9431c15a250"},"vehicle_type_id":"4","last_reported":1706429332,"current_range_meters":19200,"station_id":"ce4bgup2rcd13ifvqcn0","pricing_plan_id":"free"},{"bike_id":"50a05534-3e17-4371-ab59-16e5e8718f5d","system_id":"levelo_inurba_marseille","lat":43.324771,"lon":5.36557,"is_reserved":false,"is_disabled":false,"rental_uris":{"android":"levelo://app?vid=50a05534-3e17-4371-ab59-16e5e8718f5d","ios":"levelo://app?vid=50a05534-3e17-4371-ab59-16e5e8718f5d"},"vehicle_type_id":"4","last_reported":1706429332,"current_range_meters":29600,"station_id":"ce4bhs12rcd13ifvqhvg","pricing_plan_id":"free"},{"bike_id":"dc00bdf8-dc57-4b02-8d44-8ea4906debe3","system_id":"levelo_inurba_marseille","lat":43.324771,"lon":5.36557,"is_reserved":false,"is_disabled":false,"rental_uris":{"android":"levelo://app?vid=dc00bdf8-dc57-4b02-8d44-8ea4906debe3","ios":"levelo://app?vid=dc00bdf8-dc57-4b02-8d44-8ea4906debe3"},"vehicle_type_id":"4","last_reported":1706429332,"current_range_meters":18800,"station_id":"ce4bhs12rcd13ifvqhvg","pricing_plan_id":"free"},{"bike_id":"c2c2cbc0-8eca-4dea-88e3-e6303f53b394","system_id":"levelo_inurba_marseille","lat":43.324771,"lon":5.36557,"is_reserved":false,"is_disabled":false,"rental_uris":{"android":"levelo://app?vid=c2c2cbc0-8eca-4dea-88e3-e6303f53b394","ios":"levelo://app?vid=c2c2cbc0-8eca-4dea-88e3-e6303f53b394"},"vehicle_type_id":"4","last_reported":1706429332,"current_range_meters":28000,"station_id":"ce4bhs12rcd13ifvqhvg","pricing_plan_id":"free"},{"bike_id":"087206d0-416b-43dd-a271-4d1d50efa995","system_id":"levelo_inurba_marseille","lat":43.302784,"lon":5.377158,"is_reserved":false,"is_disabled":false,"rental_uris":{"android":"levelo://app?vid=087206d0-416b-43dd-a271-4d1d50efa995","ios":"levelo://app?vid=087206d0-416b-43dd-a271-4d1d50efa995"},"vehicle_type_id":"4","last_reported":1706429332,"current_range_meters":31200,"station_id":"ce4bguh2rcd13ifvqcj0","pricing_plan_id":"free"},{"bike_id":"30a02579-630f-400c-86e8-710edbd1d15a","system_id":"levelo_inurba_marseille","lat":43.302784,"lon":5.377158,"is_reserved":false,"is_disabled":false,"rental_uris":{"android":"levelo://app?vid=30a02579-630f-400c-86e8-710edbd1d15a","ios":"levelo://app?vid=30a02579-630f-400c-86e8-710edbd1d15a"},"vehicle_type_id":"4","last_reported":1706429332,"current_range_meters":20000,"station_id":"ce4bguh2rcd13ifvqcj0","pricing_plan_id":"free"},{"bike_id":"d1379e4f-9f76-496d-aef7-4d8e0817a0bd","system_id":"levelo_inurba_marseille","lat":43.302784,"lon":5.377158,"is_reserved":false,"is_disabled":false,"rental_uris":{"android":"levelo://app?vid=d1379e4f-9f76-496d-aef7-4d8e0817a0bd","ios":"levelo://app?vid=d1379e4f-9f76-496d-aef7-4d8e0817a0bd"},"vehicle_type_id":"4","last_reported":1706429332,"current_range_meters":22000,"station_id":"ce4bguh2rcd13ifvqcj0","pricing_plan_id":"free"},{"bike_id":"58d76f54-546c-45b2-8ea3-9d6f736e7bb6","system_id":"levelo_inurba_marseille","lat":43.302784,"lon":5.377158,"is_reserved":false,"is_disabled":false,"rental_uris":{"android":"levelo://app?vid=58d76f54-546c-45b2-8ea3-9d6f736e7bb6","ios":"levelo://app?vid=58d76f54-546c-45b2-8ea3-9d6f736e7bb6"},"vehicle_type_id":"4","last_reported":1706429332,"current_range_meters":30000,"station_id":"ce4bguh2rcd13ifvqcj0","pricing_plan_id":"free"},{"bike_id":"b0f8ebc1-9e0b-45b4-bac3-f82562e31a7b","system_id":"levelo_inurba_marseille","lat":43.302784,"lon":5.377158,"is_reserved":false,"is_disabled":false,"rental_uris":{"android":"levelo://app?vid=b0f8ebc1-9e0b-45b4-bac3-f82562e31a7b","ios":"levelo://app?vid=b0f8ebc1-9e0b-45b4-bac3-f82562e31a7b"},"vehicle_type_id":"4","last_reported":1706429332,"current_range_meters":29600,"station_id":"ce4bguh2rcd13ifvqcj0","pricing_plan_id":"free"},{"bike_id":"b8efdc1d-d057-4584-93f1-69a0ae0722c7","system_id":"levelo_inurba_marseille","lat":43.302784,"lon":5.377158,"is_reserved":false,"is_disabled":false,"rental_uris":{"android":"levelo://app?vid=b8efdc1d-d057-4584-93f1-69a0ae0722c7","ios":"levelo://app?vid=b8efdc1d-d057-4584-93f1-69a0ae0722c7"},"vehicle_type_id":"4","last_reported":1706429332,"current_range_meters":29600,"station_id":"ce4bguh2rcd13ifvqcj0","pricing_plan_id":"free"},{"bike_id":"6c121b79-46d9-4eb0-b3b6-ae9fe8e5830e","system_id":"levelo_inurba_marseille","lat":43.319935,"lon":5.381699,"is_reserved":false,"is_disabled":false,"rental_uris":{"android":"levelo://app?vid=6c121b79-46d9-4eb0-b3b6-ae9fe8e5830e","ios":"levelo://app?vid=6c121b79-46d9-4eb0-b3b6-ae9fe8e5830e"},"vehicle_type_id":"4","last_reported":1706429332,"current_range_meters":5200,"station_id":"ce4bhr12rcd13ifvqhpg","pricing_plan_id":"free"},{"bike_id":"f69dc40f-1430-4690-92a8-65e4a969ee00","system_id":"levelo_inurba_marseille","lat":43.313571,"lon":5.384829,"is_reserved":false,"is_disabled":false,"rental_uris":{"android":"levelo://app?vid=f69dc40f-1430-4690-92a8-65e4a969ee00","ios":"levelo://app?vid=f69dc40f-1430-4690-92a8-65e4a969ee00"},"vehicle_type_id":"4","last_reported":1706429332,"current_range_meters":25200,"station_id":"ce4bgt92rcd13ifvqcf0","pricing_plan_id":"free"},{"bike_id":"6d53cb78-732a-4817-b125-c25367a862d1","system_id":"levelo_inurba_marseille","lat":43.299222,"lon":5.365554,"is_reserved":false,"is_disabled":false,"rental_uris":{"android":"levelo://app?vid=6d53cb78-732a-4817-b125-c25367a862d1","ios":"levelo://app?vid=6d53cb78-732a-4817-b125-c25367a862d1"},"vehicle_type_id":"4","last_reported":1706429332,"current_range_meters":30000,"station_id":"ce4bgm92rcd13ifvqbr0","pricing_plan_id":"free"},{"bike_id":"9897841f-190c-4366-9d47-9f63ede114a4","system_id":"levelo_inurba_marseille","lat":43.299222,"lon":5.365554,"is_reserved":false,"is_disabled":false,"rental_uris":{"android":"levelo://app?vid=9897841f-190c-4366-9d47-9f63ede114a4","ios":"levelo://app?vid=9897841f-190c-4366-9d47-9f63ede114a4"},"vehicle_type_id":"4","last_reported":1706429332,"current_range_meters":30000,"station_id":"ce4bgm92rcd13ifvqbr0","pricing_plan_id":"free"},{"bike_id":"37615f18-6ae7-4d9b-9594-bfc7f75f52f8","system_id":"levelo_inurba_marseille","lat":43.311722,"lon":5.387247,"is_reserved":false,"is_disabled":false,"rental_uris":{"android":"levelo://app?vid=37615f18-6ae7-4d9b-9594-bfc7f75f52f8","ios":"levelo://app?vid=37615f18-6ae7-4d9b-9594-bfc7f75f52f8"},"vehicle_type_id":"4","last_reported":1706429332,"current_range_meters":27200,"station_id":"ce4bgv12rcd13ifvqcp0","pricing_plan_id":"free"},{"bike_id":"5ee7305d-fc16-42f6-9d08-f9216f0c8b44","system_id":"levelo_inurba_marseille","lat":43.297794,"lon":5.370888,"is_reserved":false,"is_disabled":false,"rental_uris":{"android":"levelo://app?vid=5ee7305d-fc16-42f6-9d08-f9216f0c8b44","ios":"levelo://app?vid=5ee7305d-fc16-42f6-9d08-f9216f0c8b44"},"vehicle_type_id":"4","last_reported":1706429332,"current_range_meters":31200,"station_id":"ce4bgop2rcd13ifvqc1g","pricing_plan_id":"free"},{"bike_id":"df180580-25d4-4146-8ac2-dcf2054bb7a3","system_id":"levelo_inurba_marseille","lat":43.29784,"lon":5.37095,"is_reserved":false,"is_disabled":false,"rental_uris":{"android":"levelo://app?vid=df180580-25d4-4146-8ac2-dcf2054bb7a3","ios":"levelo://app?vid=df180580-25d4-4146-8ac2-dcf2054bb7a3"},"vehicle_type_id":"4","last_reported":1706429332,"current_range_meters":8400,"station_id":"ce4bgop2rcd13ifvqc1g","pricing_plan_id":"free"},{"bike_id":"426beca3-cd26-43dd-b0d9-69caf75f2329","system_id":"levelo_inurba_marseille","lat":43.29783,"lon":5.37094,"is_reserved":false,"is_disabled":false,"rental_uris":{"android":"levelo://app?vid=426beca3-cd26-43dd-b0d9-69caf75f2329","ios":"levelo://app?vid=426beca3-cd26-43dd-b0d9-69caf75f2329"},"vehicle_type_id":"4","last_reported":1706429332,"current_range_meters":30400,"station_id":"ce4bgop2rcd13ifvqc1g","pricing_plan_id":"free"},{"bike_id":"a3b74381-0d58-448f-9a1c-2f1261e3769d","system_id":"levelo_inurba_marseille","lat":43.322872,"lon":5.382756,"is_reserved":false,"is_disabled":false,"rental_uris":{"android":"levelo://app?vid=a3b74381-0d58-448f-9a1c-2f1261e3769d","ios":"levelo://app?vid=a3b74381-0d58-448f-9a1c-2f1261e3769d"},"vehicle_type_id":"4","last_reported":1706429332,"current_range_meters":31200,"station_id":"ce4bhr12rcd13ifvqhqg","pricing_plan_id":"free"},{"bike_id":"965a5dab-e227-4efc-b518-9780186a9de9","system_id":"levelo_inurba_marseille","lat":43.322872,"lon":5.382756,"is_reserved":false,"is_disabled":false,"rental_uris":{"android":"levelo://app?vid=965a5dab-e227-4efc-b518-9780186a9de9","ios":"levelo://app?vid=965a5dab-e227-4efc-b518-9780186a9de9"},"vehicle_type_id":"4","last_reported":1706429332,"current_range_meters":27600,"station_id":"ce4bhr12rcd13ifvqhqg","pricing_plan_id":"free"},{"bike_id":"ab98e573-92e3-4c87-b938-e8306447ae15","system_id":"levelo_inurba_marseille","lat":43.322872,"lon":5.382756,"is_reserved":false,"is_disabled":false,"rental_uris":{"android":"levelo://app?vid=ab98e573-92e3-4c87-b938-e8306447ae15","ios":"levelo://app?vid=ab98e573-92e3-4c87-b938-e8306447ae15"},"vehicle_type_id":"4","last_reported":1706429332,"current_range_meters":30800,"station_id":"ce4bhr12rcd13ifvqhqg","pricing_plan_id":"free"},{"bike_id":"9c4d9993-7f7a-4f86-9392-50f8b41cf1ca","system_id":"levelo_inurba_marseille","lat":43.322872,"lon":5.382756,"is_reserved":false,"is_disabled":false,"rental_uris":{"android":"levelo://app?vid=9c4d9993-7f7a-4f86-9392-50f8b41cf1ca","ios":"levelo://app?vid=9c4d9993-7f7a-4f86-9392-50f8b41cf1ca"},"vehicle_type_id":"4","last_reported":1706429332,"current_range_meters":27600,"station_id":"ce4bhr12rcd13ifvqhqg","pricing_plan_id":"free"},{"bike_id":"554021c6-8238-427e-a829-d0f45508f2ea","system_id":"levelo_inurba_marseille","lat":43.32826,"lon":5.36688,"is_reserved":false,"is_disabled":false,"rental_uris":{"android":"levelo://app?vid=554021c6-8238-427e-a829-d0f45508f2ea","ios":"levelo://app?vid=554021c6-8238-427e-a829-d0f45508f2ea"},"vehicle_type_id":"4","last_reported":1706429332,"current_range_meters":21600,"station_id":"ce4bhs92rcd13ifvqi0g","pricing_plan_id":"free"},{"bike_id":"12edd8fe-ac42-424b-86a0-ddbc64b4f114","system_id":"levelo_inurba_marseille","lat":43.328371,"lon":5.366909,"is_reserved":false,"is_disabled":false,"rental_uris":{"android":"levelo://app?vid=12edd8fe-ac42-424b-86a0-ddbc64b4f114","ios":"levelo://app?vid=12edd8fe-ac42-424b-86a0-ddbc64b4f114"},"vehicle_type_id":"4","last_reported":1706429332,"current_range_meters":14400,"station_id":"ce4bhs92rcd13ifvqi0g","pricing_plan_id":"free"},{"bike_id":"af1c8fc0-8183-4d68-848c-9159b1d2bf45","system_id":"levelo_inurba_marseille","lat":43.328371,"lon":5.366909,"is_reserved":false,"is_disabled":false,"rental_uris":{"android":"levelo://app?vid=af1c8fc0-8183-4d68-848c-9159b1d2bf45","ios":"levelo://app?vid=af1c8fc0-8183-4d68-848c-9159b1d2bf45"},"vehicle_type_id":"4","last_reported":1706429332,"current_range_meters":11200,"station_id":"ce4bhs92rcd13ifvqi0g","pricing_plan_id":"free"},{"bike_id":"0f7b98a3-6434-4866-adac-ccd99f91e009","system_id":"levelo_inurba_marseille","lat":43.32832,"lon":5.36676,"is_reserved":false,"is_disabled":false,"rental_uris":{"android":"levelo://app?vid=0f7b98a3-6434-4866-adac-ccd99f91e009","ios":"levelo://app?vid=0f7b98a3-6434-4866-adac-ccd99f91e009"},"vehicle_type_id":"4","last_reported":1706429332,"current_range_meters":0,"station_id":"ce4bhs92rcd13ifvqi0g","pricing_plan_id":"free"},{"bike_id":"efac0b77-5722-4ef0-af1d-2181097e37db","system_id":"levelo_inurba_marseille","lat":43.297163,"lon":5.365866,"is_reserved":false,"is_disabled":false,"rental_uris":{"android":"levelo://app?vid=efac0b77-5722-4ef0-af1d-2181097e37db","ios":"levelo://app?vid=efac0b77-5722-4ef0-af1d-2181097e37db"},"vehicle_type_id":"4","last_reported":1706429332,"current_range_meters":28800,"station_id":"ce4bgn12rcd13ifvqbt0","pricing_plan_id":"free"},{"bike_id":"6357d08b-4852-45a6-8953-65d92c379ab0","system_id":"levelo_inurba_marseille","lat":43.29573,"lon":5.367355,"is_reserved":false,"is_disabled":false,"rental_uris":{"android":"levelo://app?vid=6357d08b-4852-45a6-8953-65d92c379ab0","ios":"levelo://app?vid=6357d08b-4852-45a6-8953-65d92c379ab0"},"vehicle_type_id":"4","last_reported":1706429332,"current_range_meters":18800,"station_id":"ce4bgph2rcd13ifvqc2g","pricing_plan_id":"free"},{"bike_id":"d4cefd9c-5ad3-4775-85b4-10b93ad2cad6","system_id":"levelo_inurba_marseille","lat":43.296921,"lon":5.376579,"is_reserved":false,"is_disabled":false,"rental_uris":{"android":"levelo://app?vid=d4cefd9c-5ad3-4775-85b4-10b93ad2cad6","ios":"levelo://app?vid=d4cefd9c-5ad3-4775-85b4-10b93ad2cad6"},"vehicle_type_id":"4","last_reported":1706429332,"current_range_meters":25600,"station_id":"ce4bgkh2rcd13ifvqbl0","pricing_plan_id":"free"},{"bike_id":"82c5805b-7e17-4f8c-95cd-b416177fb43f","system_id":"levelo_inurba_marseille","lat":43.296935,"lon":5.376544,"is_reserved":false,"is_disabled":false,"rental_uris":{"android":"levelo://app?vid=82c5805b-7e17-4f8c-95cd-b416177fb43f","ios":"levelo://app?vid=82c5805b-7e17-4f8c-95cd-b416177fb43f"},"vehicle_type_id":"4","last_reported":1706429332,"current_range_meters":26000,"station_id":"ce4bgkh2rcd13ifvqbl0","pricing_plan_id":"free"},{"bike_id":"9d6e93d9-33a6-414f-8f86-b10426802c4b","system_id":"levelo_inurba_marseille","lat":43.309589,"lon":5.390258,"is_reserved":false,"is_disabled":false,"rental_uris":{"android":"levelo://app?vid=9d6e93d9-33a6-414f-8f86-b10426802c4b","ios":"levelo://app?vid=9d6e93d9-33a6-414f-8f86-b10426802c4b"},"vehicle_type_id":"4","last_reported":1706429332,"current_range_meters":31200,"station_id":"ce4bgup2rcd13ifvqco0","pricing_plan_id":"free"},{"bike_id":"ea347f58-d9f1-491b-86ae-f4efd937fdd3","system_id":"levelo_inurba_marseille","lat":43.309589,"lon":5.390258,"is_reserved":false,"is_disabled":false,"rental_uris":{"android":"levelo://app?vid=ea347f58-d9f1-491b-86ae-f4efd937fdd3","ios":"levelo://app?vid=ea347f58-d9f1-491b-86ae-f4efd937fdd3"},"vehicle_type_id":"4","last_reported":1706429332,"current_range_meters":25200,"station_id":"ce4bgup2rcd13ifvqco0","pricing_plan_id":"free"},{"bike_id":"72b4d4fe-b43e-4707-9a68-4ca197514857","system_id":"levelo_inurba_marseille","lat":43.295747,"lon":5.375031,"is_reserved":false,"is_disabled":false,"rental_uris":{"android":"levelo://app?vid=72b4d4fe-b43e-4707-9a68-4ca197514857","ios":"levelo://app?vid=72b4d4fe-b43e-4707-9a68-4ca197514857"},"vehicle_type_id":"4","last_reported":1706429332,"current_range_meters":30400,"station_id":"ce4bgh92rcd13ifvqb50","pricing_plan_id":"free"},{"bike_id":"87f765a3-7a77-4751-be49-64b3a4a4bd4e","system_id":"levelo_inurba_marseille","lat":43.295748,"lon":5.37522,"is_reserved":false,"is_disabled":false,"rental_uris":{"android":"levelo://app?vid=87f765a3-7a77-4751-be49-64b3a4a4bd4e","ios":"levelo://app?vid=87f765a3-7a77-4751-be49-64b3a4a4bd4e"},"vehicle_type_id":"4","last_reported":1706429332,"current_range_meters":27200,"station_id":"ce4bgh92rcd13ifvqb50","pricing_plan_id":"free"},{"bike_id":"e0c037e6-80af-4c67-89c3-86642ddeb18c","system_id":"levelo_inurba_marseille","lat":43.295748,"lon":5.37522,"is_reserved":false,"is_disabled":false,"rental_uris":{"android":"levelo://app?vid=e0c037e6-80af-4c67-89c3-86642ddeb18c","ios":"levelo://app?vid=e0c037e6-80af-4c67-89c3-86642ddeb18c"},"vehicle_type_id":"4","last_reported":1706429332,"current_range_meters":24800,"station_id":"ce4bgh92rcd13ifvqb50","pricing_plan_id":"free"},{"bike_id":"46151e91-5dbb-43c7-a01b-8b711f395145","system_id":"levelo_inurba_marseille","lat":43.29571,"lon":5.37501,"is_reserved":false,"is_disabled":false,"rental_uris":{"android":"levelo://app?vid=46151e91-5dbb-43c7-a01b-8b711f395145","ios":"levelo://app?vid=46151e91-5dbb-43c7-a01b-8b711f395145"},"vehicle_type_id":"4","last_reported":1706429332,"current_range_meters":31600,"station_id":"ce4bgh92rcd13ifvqb50","pricing_plan_id":"free"},{"bike_id":"753d58e3-d2b7-4cc1-9add-99189ec3fb22","system_id":"levelo_inurba_marseille","lat":43.304274,"lon":5.388873,"is_reserved":false,"is_disabled":false,"rental_uris":{"android":"levelo://app?vid=753d58e3-d2b7-4cc1-9add-99189ec3fb22","ios":"levelo://app?vid=753d58e3-d2b7-4cc1-9add-99189ec3fb22"},"vehicle_type_id":"4","last_reported":1706429332,"current_range_meters":25200,"station_id":"ce4bgk12rcd13ifvqbi0","pricing_plan_id":"free"},{"bike_id":"7bfc50ac-4177-446a-81b0-158a8fb99d5a","system_id":"levelo_inurba_marseille","lat":43.295748,"lon":5.37522,"is_reserved":false,"is_disabled":false,"rental_uris":{"android":"levelo://app?vid=7bfc50ac-4177-446a-81b0-158a8fb99d5a","ios":"levelo://app?vid=7bfc50ac-4177-446a-81b0-158a8fb99d5a"},"vehicle_type_id":"4","last_reported":1706429332,"current_range_meters":30000,"station_id":"ce4bgh92rcd13ifvqb50","pricing_plan_id":"free"},{"bike_id":"6c1704b0-3d7d-4e78-a97a-6bea60c060a8","system_id":"levelo_inurba_marseille","lat":43.304278,"lon":5.388868,"is_reserved":false,"is_disabled":false,"rental_uris":{"android":"levelo://app?vid=6c1704b0-3d7d-4e78-a97a-6bea60c060a8","ios":"levelo://app?vid=6c1704b0-3d7d-4e78-a97a-6bea60c060a8"},"vehicle_type_id":"4","last_reported":1706429332,"current_range_meters":19200,"station_id":"ce4bgk12rcd13ifvqbi0","pricing_plan_id":"free"},{"bike_id":"04f072f6-0e62-44f1-b576-9322a3c85cd8","system_id":"levelo_inurba_marseille","lat":43.295748,"lon":5.37522,"is_reserved":false,"is_disabled":false,"rental_uris":{"android":"levelo://app?vid=04f072f6-0e62-44f1-b576-9322a3c85cd8","ios":"levelo://app?vid=04f072f6-0e62-44f1-b576-9322a3c85cd8"},"vehicle_type_id":"4","last_reported":1706429332,"current_range_meters":26000,"station_id":"ce4bgh92rcd13ifvqb50","pricing_plan_id":"free"},{"bike_id":"4ac0d675-613c-46d9-a312-3fa822003d04","system_id":"levelo_inurba_marseille","lat":43.295681,"lon":5.375209,"is_reserved":false,"is_disabled":false,"rental_uris":{"android":"levelo://app?vid=4ac0d675-613c-46d9-a312-3fa822003d04","ios":"levelo://app?vid=4ac0d675-613c-46d9-a312-3fa822003d04"},"vehicle_type_id":"4","last_reported":1706429332,"current_range_meters":26400,"station_id":"ce4bgh92rcd13ifvqb50","pricing_plan_id":"free"},{"bike_id":"a47d1ee8-390c-4563-a09c-7f3d9d28a45e","system_id":"levelo_inurba_marseille","lat":43.304278,"lon":5.388868,"is_reserved":false,"is_disabled":false,"rental_uris":{"android":"levelo://app?vid=a47d1ee8-390c-4563-a09c-7f3d9d28a45e","ios":"levelo://app?vid=a47d1ee8-390c-4563-a09c-7f3d9d28a45e"},"vehicle_type_id":"4","last_reported":1706429332,"current_range_meters":24400,"station_id":"ce4bgk12rcd13ifvqbi0","pricing_plan_id":"free"},{"bike_id":"862c83b3-6aa4-495d-a677-6580b16334a1","system_id":"levelo_inurba_marseille","lat":43.296263,"lon":5.377094,"is_reserved":false,"is_disabled":false,"rental_uris":{"android":"levelo://app?vid=862c83b3-6aa4-495d-a677-6580b16334a1","ios":"levelo://app?vid=862c83b3-6aa4-495d-a677-6580b16334a1"},"vehicle_type_id":"4","last_reported":1706429332,"current_range_meters":30000,"station_id":"ce4bgi92rcd13ifvqb90","pricing_plan_id":"free"},{"bike_id":"01e10cf1-4d7a-48dc-8cef-ebfa41f59949","system_id":"levelo_inurba_marseille","lat":43.296,"lon":5.37717,"is_reserved":false,"is_disabled":false,"rental_uris":{"android":"levelo://app?vid=01e10cf1-4d7a-48dc-8cef-ebfa41f59949","ios":"levelo://app?vid=01e10cf1-4d7a-48dc-8cef-ebfa41f59949"},"vehicle_type_id":"4","last_reported":1706429332,"current_range_meters":28800,"station_id":"ce4bgi92rcd13ifvqb90","pricing_plan_id":"free"},{"bike_id":"759b3796-4aef-4838-9d28-b0b93b327b9b","system_id":"levelo_inurba_marseille","lat":43.295279,"lon":5.375048,"is_reserved":false,"is_disabled":false,"rental_uris":{"android":"levelo://app?vid=759b3796-4aef-4838-9d28-b0b93b327b9b","ios":"levelo://app?vid=759b3796-4aef-4838-9d28-b0b93b327b9b"},"vehicle_type_id":"4","last_reported":1706429332,"current_range_meters":30000,"station_id":"ce4bgkp2rcd13ifvqbmg","pricing_plan_id":"free"},{"bike_id":"a24966b7-32af-4f54-8f75-0b61db8686c5","system_id":"levelo_inurba_marseille","lat":43.29532,"lon":5.374864,"is_reserved":false,"is_disabled":false,"rental_uris":{"android":"levelo://app?vid=a24966b7-32af-4f54-8f75-0b61db8686c5","ios":"levelo://app?vid=a24966b7-32af-4f54-8f75-0b61db8686c5"},"vehicle_type_id":"4","last_reported":1706429332,"current_range_meters":28400,"station_id":"ce4bgkp2rcd13ifvqbmg","pricing_plan_id":"free"},{"bike_id":"2c560580-afd0-4186-8e38-455753a90023","system_id":"levelo_inurba_marseille","lat":43.299707,"lon":5.384859,"is_reserved":false,"is_disabled":false,"rental_uris":{"android":"levelo://app?vid=2c560580-afd0-4186-8e38-455753a90023","ios":"levelo://app?vid=2c560580-afd0-4186-8e38-455753a90023"},"vehicle_type_id":"4","last_reported":1706429332,"current_range_meters":20800,"station_id":"ce4bgj92rcd13ifvqbd0","pricing_plan_id":"free"},{"bike_id":"553de4b6-bfc8-4874-840a-6d67d95f163a","system_id":"levelo_inurba_marseille","lat":43.29522,"lon":5.37484,"is_reserved":false,"is_disabled":false,"rental_uris":{"android":"levelo://app?vid=553de4b6-bfc8-4874-840a-6d67d95f163a","ios":"levelo://app?vid=553de4b6-bfc8-4874-840a-6d67d95f163a"},"vehicle_type_id":"4","last_reported":1706429332,"current_range_meters":28800,"station_id":"ce4bgkp2rcd13ifvqbmg","pricing_plan_id":"free"},{"bike_id":"db6fa813-b5cd-4dd0-acf7-c56362f55820","system_id":"levelo_inurba_marseille","lat":43.299721,"lon":5.384893,"is_reserved":false,"is_disabled":false,"rental_uris":{"android":"levelo://app?vid=db6fa813-b5cd-4dd0-acf7-c56362f55820","ios":"levelo://app?vid=db6fa813-b5cd-4dd0-acf7-c56362f55820"},"vehicle_type_id":"4","last_reported":1706429332,"current_range_meters":31200,"station_id":"ce4bgj92rcd13ifvqbd0","pricing_plan_id":"free"},{"bike_id":"bbb05f97-1211-405b-810f-050e1d3ed8f7","system_id":"levelo_inurba_marseille","lat":43.29977,"lon":5.38496,"is_reserved":false,"is_disabled":false,"rental_uris":{"android":"levelo://app?vid=bbb05f97-1211-405b-810f-050e1d3ed8f7","ios":"levelo://app?vid=bbb05f97-1211-405b-810f-050e1d3ed8f7"},"vehicle_type_id":"4","last_reported":1706429332,"current_range_meters":31200,"station_id":"ce4bgj92rcd13ifvqbd0","pricing_plan_id":"free"},{"bike_id":"69545208-a477-4259-aa34-52ff859f1cec","system_id":"levelo_inurba_marseille","lat":43.295279,"lon":5.375048,"is_reserved":false,"is_disabled":false,"rental_uris":{"android":"levelo://app?vid=69545208-a477-4259-aa34-52ff859f1cec","ios":"levelo://app?vid=69545208-a477-4259-aa34-52ff859f1cec"},"vehicle_type_id":"4","last_reported":1706429332,"current_range_meters":28800,"station_id":"ce4bgkp2rcd13ifvqbmg","pricing_plan_id":"free"},{"bike_id":"311f2bb5-da85-44fc-915b-153e21fa0c75","system_id":"levelo_inurba_marseille","lat":43.32367,"lon":5.388836,"is_reserved":false,"is_disabled":false,"rental_uris":{"android":"levelo://app?vid=311f2bb5-da85-44fc-915b-153e21fa0c75","ios":"levelo://app?vid=311f2bb5-da85-44fc-915b-153e21fa0c75"},"vehicle_type_id":"4","last_reported":1706429332,"current_range_meters":400,"station_id":"ce4bhqp2rcd13ifvqhog","pricing_plan_id":"free"},{"bike_id":"36fdf3a9-6637-4abe-9106-b80fdb7b6025","system_id":"levelo_inurba_marseille","lat":43.32367,"lon":5.388836,"is_reserved":false,"is_disabled":false,"rental_uris":{"android":"levelo://app?vid=36fdf3a9-6637-4abe-9106-b80fdb7b6025","ios":"levelo://app?vid=36fdf3a9-6637-4abe-9106-b80fdb7b6025"},"vehicle_type_id":"4","last_reported":1706429332,"current_range_meters":14400,"station_id":"ce4bhqp2rcd13ifvqhog","pricing_plan_id":"free"},{"bike_id":"8a33758a-88df-484d-be96-917dfb2f5d96","system_id":"levelo_inurba_marseille","lat":43.32368,"lon":5.3889,"is_reserved":false,"is_disabled":false,"rental_uris":{"android":"levelo://app?vid=8a33758a-88df-484d-be96-917dfb2f5d96","ios":"levelo://app?vid=8a33758a-88df-484d-be96-917dfb2f5d96"},"vehicle_type_id":"4","last_reported":1706429332,"current_range_meters":22800,"station_id":"ce4bhqp2rcd13ifvqhog","pricing_plan_id":"free"},{"bike_id":"f9adda3e-87ed-48b1-bbe3-03cd0959320c","system_id":"levelo_inurba_marseille","lat":43.29602,"lon":5.381084,"is_reserved":false,"is_disabled":false,"rental_uris":{"android":"levelo://app?vid=f9adda3e-87ed-48b1-bbe3-03cd0959320c","ios":"levelo://app?vid=f9adda3e-87ed-48b1-bbe3-03cd0959320c"},"vehicle_type_id":"4","last_reported":1706429332,"current_range_meters":10000,"station_id":"ce4bgl12rcd13ifvqbo0","pricing_plan_id":"free"},{"bike_id":"c8ae1907-f9a0-4719-be8d-94c701f5c7e9","system_id":"levelo_inurba_marseille","lat":43.29585,"lon":5.38108,"is_reserved":false,"is_disabled":false,"rental_uris":{"android":"levelo://app?vid=c8ae1907-f9a0-4719-be8d-94c701f5c7e9","ios":"levelo://app?vid=c8ae1907-f9a0-4719-be8d-94c701f5c7e9"},"vehicle_type_id":"4","last_reported":1706429332,"current_range_meters":31200,"station_id":"ce4bgl12rcd13ifvqbo0","pricing_plan_id":"free"},{"bike_id":"59ee600b-5041-4f04-a3bd-1eb24adca31c","system_id":"levelo_inurba_marseille","lat":43.29311,"lon":5.37169,"is_reserved":false,"is_disabled":false,"rental_uris":{"android":"levelo://app?vid=59ee600b-5041-4f04-a3bd-1eb24adca31c","ios":"levelo://app?vid=59ee600b-5041-4f04-a3bd-1eb24adca31c"},"vehicle_type_id":"4","last_reported":1706429332,"current_range_meters":31200,"station_id":"ce4bgh92rcd13ifvqb40","pricing_plan_id":"free"},{"bike_id":"83b178b2-6a2e-402c-b789-02d6d850e177","system_id":"levelo_inurba_marseille","lat":43.292749,"lon":5.368402,"is_reserved":false,"is_disabled":false,"rental_uris":{"android":"levelo://app?vid=83b178b2-6a2e-402c-b789-02d6d850e177","ios":"levelo://app?vid=83b178b2-6a2e-402c-b789-02d6d850e177"},"vehicle_type_id":"4","last_reported":1706429332,"current_range_meters":22000,"station_id":"ce4bhbp2rcd13ifvqesg","pricing_plan_id":"free"},{"bike_id":"acbcc7c8-da48-4aee-a34f-69770306ea66","system_id":"levelo_inurba_marseille","lat":43.293259,"lon":5.371586,"is_reserved":false,"is_disabled":false,"rental_uris":{"android":"levelo://app?vid=acbcc7c8-da48-4aee-a34f-69770306ea66","ios":"levelo://app?vid=acbcc7c8-da48-4aee-a34f-69770306ea66"},"vehicle_type_id":"4","last_reported":1706429332,"current_range_meters":31200,"station_id":"ce4bgh92rcd13ifvqb40","pricing_plan_id":"free"},{"bike_id":"a3377912-dc89-42ab-9b7d-708b626b9334","system_id":"levelo_inurba_marseille","lat":43.29307,"lon":5.371786,"is_reserved":false,"is_disabled":false,"rental_uris":{"android":"levelo://app?vid=a3377912-dc89-42ab-9b7d-708b626b9334","ios":"levelo://app?vid=a3377912-dc89-42ab-9b7d-708b626b9334"},"vehicle_type_id":"4","last_reported":1706429332,"current_range_meters":31200,"station_id":"ce4bgh92rcd13ifvqb40","pricing_plan_id":"free"},{"bike_id":"0ac52db8-a3b6-4597-b7a5-33ec0686005e","system_id":"levelo_inurba_marseille","lat":43.293259,"lon":5.371586,"is_reserved":false,"is_disabled":false,"rental_uris":{"android":"levelo://app?vid=0ac52db8-a3b6-4597-b7a5-33ec0686005e","ios":"levelo://app?vid=0ac52db8-a3b6-4597-b7a5-33ec0686005e"},"vehicle_type_id":"4","last_reported":1706429332,"current_range_meters":26800,"station_id":"ce4bgh92rcd13ifvqb40","pricing_plan_id":"free"},{"bike_id":"bb824c7d-19d4-4d7c-96d6-48382a285396","system_id":"levelo_inurba_marseille","lat":43.29277,"lon":5.36845,"is_reserved":false,"is_disabled":false,"rental_uris":{"android":"levelo://app?vid=bb824c7d-19d4-4d7c-96d6-48382a285396","ios":"levelo://app?vid=bb824c7d-19d4-4d7c-96d6-48382a285396"},"vehicle_type_id":"4","last_reported":1706429332,"current_range_meters":27200,"station_id":"ce4bhbp2rcd13ifvqesg","pricing_plan_id":"free"},{"bike_id":"36472371-0268-414b-9cb8-b1ef3e138908","system_id":"levelo_inurba_marseille","lat":43.292749,"lon":5.368402,"is_reserved":false,"is_disabled":false,"rental_uris":{"android":"levelo://app?vid=36472371-0268-414b-9cb8-b1ef3e138908","ios":"levelo://app?vid=36472371-0268-414b-9cb8-b1ef3e138908"},"vehicle_type_id":"4","last_reported":1706429332,"current_range_meters":10800,"station_id":"ce4bhbp2rcd13ifvqesg","pricing_plan_id":"free"},{"bike_id":"d5f4b731-261b-4935-b6d6-3fd7bf4195ec","system_id":"levelo_inurba_marseille","lat":43.292749,"lon":5.368402,"is_reserved":false,"is_disabled":false,"rental_uris":{"android":"levelo://app?vid=d5f4b731-261b-4935-b6d6-3fd7bf4195ec","ios":"levelo://app?vid=d5f4b731-261b-4935-b6d6-3fd7bf4195ec"},"vehicle_type_id":"4","last_reported":1706429332,"current_range_meters":13200,"station_id":"ce4bhbp2rcd13ifvqesg","pricing_plan_id":"free"},{"bike_id":"014ab2a2-dba5-4b46-be9f-410f6edc0d41","system_id":"levelo_inurba_marseille","lat":43.29275,"lon":5.36849,"is_reserved":false,"is_disabled":false,"rental_uris":{"android":"levelo://app?vid=014ab2a2-dba5-4b46-be9f-410f6edc0d41","ios":"levelo://app?vid=014ab2a2-dba5-4b46-be9f-410f6edc0d41"},"vehicle_type_id":"4","last_reported":1706429332,"current_range_meters":27200,"station_id":"ce4bhbp2rcd13ifvqesg","pricing_plan_id":"free"},{"bike_id":"b5464451-4d67-4d10-9fee-5d8424e84241","system_id":"levelo_inurba_marseille","lat":43.292749,"lon":5.368402,"is_reserved":false,"is_disabled":false,"rental_uris":{"android":"levelo://app?vid=b5464451-4d67-4d10-9fee-5d8424e84241","ios":"levelo://app?vid=b5464451-4d67-4d10-9fee-5d8424e84241"},"vehicle_type_id":"4","last_reported":1706429332,"current_range_meters":26000,"station_id":"ce4bhbp2rcd13ifvqesg","pricing_plan_id":"free"},{"bike_id":"674ec721-013b-448c-8dc4-63e094dcd879","system_id":"levelo_inurba_marseille","lat":43.29271,"lon":5.36849,"is_reserved":false,"is_disabled":false,"rental_uris":{"android":"levelo://app?vid=674ec721-013b-448c-8dc4-63e094dcd879","ios":"levelo://app?vid=674ec721-013b-448c-8dc4-63e094dcd879"},"vehicle_type_id":"4","last_reported":1706429332,"current_range_meters":28800,"station_id":"ce4bhbp2rcd13ifvqesg","pricing_plan_id":"free"},{"bike_id":"80906e2a-12d7-4d68-9425-b5f85c940c89","system_id":"levelo_inurba_marseille","lat":43.292749,"lon":5.368402,"is_reserved":false,"is_disabled":false,"rental_uris":{"android":"levelo://app?vid=80906e2a-12d7-4d68-9425-b5f85c940c89","ios":"levelo://app?vid=80906e2a-12d7-4d68-9425-b5f85c940c89"},"vehicle_type_id":"4","last_reported":1706429332,"current_range_meters":22800,"station_id":"ce4bhbp2rcd13ifvqesg","pricing_plan_id":"free"},{"bike_id":"66e06646-18dc-444c-8a40-ae3c3c21b6ce","system_id":"levelo_inurba_marseille","lat":43.292684,"lon":5.368534,"is_reserved":false,"is_disabled":false,"rental_uris":{"android":"levelo://app?vid=66e06646-18dc-444c-8a40-ae3c3c21b6ce","ios":"levelo://app?vid=66e06646-18dc-444c-8a40-ae3c3c21b6ce"},"vehicle_type_id":"4","last_reported":1706429332,"current_range_meters":28400,"station_id":"ce4bhbp2rcd13ifvqesg","pricing_plan_id":"free"},{"bike_id":"a009188d-a390-4bb8-b6f1-1c68dae1ddde","system_id":"levelo_inurba_marseille","lat":43.293009,"lon":5.374584,"is_reserved":false,"is_disabled":false,"rental_uris":{"android":"levelo://app?vid=a009188d-a390-4bb8-b6f1-1c68dae1ddde","ios":"levelo://app?vid=a009188d-a390-4bb8-b6f1-1c68dae1ddde"},"vehicle_type_id":"4","last_reported":1706429332,"current_range_meters":26000,"station_id":"ce4bgi12rcd13ifvqb70","pricing_plan_id":"free"},{"bike_id":"dde2a6b1-20a6-4ebe-8f1a-6ec2dd352733","system_id":"levelo_inurba_marseille","lat":43.293009,"lon":5.374584,"is_reserved":false,"is_disabled":false,"rental_uris":{"android":"levelo://app?vid=dde2a6b1-20a6-4ebe-8f1a-6ec2dd352733","ios":"levelo://app?vid=dde2a6b1-20a6-4ebe-8f1a-6ec2dd352733"},"vehicle_type_id":"4","last_reported":1706429332,"current_range_meters":31200,"station_id":"ce4bgi12rcd13ifvqb70","pricing_plan_id":"free"},{"bike_id":"f0cbf083-a6f1-422c-a39d-7a04b6ef537b","system_id":"levelo_inurba_marseille","lat":43.293009,"lon":5.374584,"is_reserved":false,"is_disabled":false,"rental_uris":{"android":"levelo://app?vid=f0cbf083-a6f1-422c-a39d-7a04b6ef537b","ios":"levelo://app?vid=f0cbf083-a6f1-422c-a39d-7a04b6ef537b"},"vehicle_type_id":"4","last_reported":1706429332,"current_range_meters":31200,"station_id":"ce4bgi12rcd13ifvqb70","pricing_plan_id":"free"},{"bike_id":"a1bf7d53-eb6f-4876-bd6f-c938317e3863","system_id":"levelo_inurba_marseille","lat":43.293009,"lon":5.374584,"is_reserved":false,"is_disabled":false,"rental_uris":{"android":"levelo://app?vid=a1bf7d53-eb6f-4876-bd6f-c938317e3863","ios":"levelo://app?vid=a1bf7d53-eb6f-4876-bd6f-c938317e3863"},"vehicle_type_id":"4","last_reported":1706429332,"current_range_meters":11200,"station_id":"ce4bgi12rcd13ifvqb70","pricing_plan_id":"free"},{"bike_id":"d0626790-003f-4db9-b746-1f5eaadfdf39","system_id":"levelo_inurba_marseille","lat":43.303002,"lon":5.392142,"is_reserved":false,"is_disabled":false,"rental_uris":{"android":"levelo://app?vid=d0626790-003f-4db9-b746-1f5eaadfdf39","ios":"levelo://app?vid=d0626790-003f-4db9-b746-1f5eaadfdf39"},"vehicle_type_id":"4","last_reported":1706429332,"current_range_meters":24000,"station_id":"ce4bgkh2rcd13ifvqbk0","pricing_plan_id":"free"},{"bike_id":"58fdaf7f-f194-4a6e-adad-6fbb359797bc","system_id":"levelo_inurba_marseille","lat":43.293736,"lon":5.378489,"is_reserved":false,"is_disabled":false,"rental_uris":{"android":"levelo://app?vid=58fdaf7f-f194-4a6e-adad-6fbb359797bc","ios":"levelo://app?vid=58fdaf7f-f194-4a6e-adad-6fbb359797bc"},"vehicle_type_id":"4","last_reported":1706429332,"current_range_meters":0,"station_id":"ce4bgjh2rcd13ifvqbf0","pricing_plan_id":"free"},{"bike_id":"8cc70635-7b78-4cdf-87a8-f8a6d0f92be6","system_id":"levelo_inurba_marseille","lat":43.300852,"lon":5.390859,"is_reserved":false,"is_disabled":false,"rental_uris":{"android":"levelo://app?vid=8cc70635-7b78-4cdf-87a8-f8a6d0f92be6","ios":"levelo://app?vid=8cc70635-7b78-4cdf-87a8-f8a6d0f92be6"},"vehicle_type_id":"4","last_reported":1706429332,"current_range_meters":28800,"station_id":"ce4bh192rcd13ifvqdb0","pricing_plan_id":"free"},{"bike_id":"014dd7df-1cf7-4e4d-bd9e-ac3666fa5c08","system_id":"levelo_inurba_marseille","lat":43.292311,"lon":5.360731,"is_reserved":false,"is_disabled":false,"rental_uris":{"android":"levelo://app?vid=014dd7df-1cf7-4e4d-bd9e-ac3666fa5c08","ios":"levelo://app?vid=014dd7df-1cf7-4e4d-bd9e-ac3666fa5c08"},"vehicle_type_id":"4","last_reported":1706429332,"current_range_meters":31200,"station_id":"ce4bhbh2rcd13ifvqeqg","pricing_plan_id":"free"},{"bike_id":"b7104123-ea31-44a3-aec1-a030c06649ac","system_id":"levelo_inurba_marseille","lat":43.292311,"lon":5.360731,"is_reserved":false,"is_disabled":false,"rental_uris":{"android":"levelo://app?vid=b7104123-ea31-44a3-aec1-a030c06649ac","ios":"levelo://app?vid=b7104123-ea31-44a3-aec1-a030c06649ac"},"vehicle_type_id":"4","last_reported":1706429332,"current_range_meters":2400,"station_id":"ce4bhbh2rcd13ifvqeqg","pricing_plan_id":"free"},{"bike_id":"0a2dadc7-d8a0-4054-a632-6a5267874e41","system_id":"levelo_inurba_marseille","lat":43.292311,"lon":5.360731,"is_reserved":false,"is_disabled":false,"rental_uris":{"android":"levelo://app?vid=0a2dadc7-d8a0-4054-a632-6a5267874e41","ios":"levelo://app?vid=0a2dadc7-d8a0-4054-a632-6a5267874e41"},"vehicle_type_id":"4","last_reported":1706429332,"current_range_meters":30000,"station_id":"ce4bhbh2rcd13ifvqeqg","pricing_plan_id":"free"},{"bike_id":"209317a6-aa9e-4020-9178-28279516f9fd","system_id":"levelo_inurba_marseille","lat":43.292311,"lon":5.360731,"is_reserved":false,"is_disabled":false,"rental_uris":{"android":"levelo://app?vid=209317a6-aa9e-4020-9178-28279516f9fd","ios":"levelo://app?vid=209317a6-aa9e-4020-9178-28279516f9fd"},"vehicle_type_id":"4","last_reported":1706429332,"current_range_meters":24000,"station_id":"ce4bhbh2rcd13ifvqeqg","pricing_plan_id":"free"},{"bike_id":"8e967eb1-cdc3-4cbf-8d3a-18684bae0171","system_id":"levelo_inurba_marseille","lat":43.292203,"lon":5.36052,"is_reserved":false,"is_disabled":false,"rental_uris":{"android":"levelo://app?vid=8e967eb1-cdc3-4cbf-8d3a-18684bae0171","ios":"levelo://app?vid=8e967eb1-cdc3-4cbf-8d3a-18684bae0171"},"vehicle_type_id":"4","last_reported":1706429332,"current_range_meters":4000,"station_id":"ce4bhbh2rcd13ifvqeqg","pricing_plan_id":"free"},{"bike_id":"5b2924d1-6b8f-4dfe-9024-606cc9a16c4e","system_id":"levelo_inurba_marseille","lat":43.298764,"lon":5.388973,"is_reserved":false,"is_disabled":false,"rental_uris":{"android":"levelo://app?vid=5b2924d1-6b8f-4dfe-9024-606cc9a16c4e","ios":"levelo://app?vid=5b2924d1-6b8f-4dfe-9024-606cc9a16c4e"},"vehicle_type_id":"4","last_reported":1706429332,"current_range_meters":31200,"station_id":"ce4bh392rcd13ifvqdl0","pricing_plan_id":"free"},{"bike_id":"7338dbc8-faa4-4dfb-a645-cff0a768b727","system_id":"levelo_inurba_marseille","lat":43.298764,"lon":5.388973,"is_reserved":false,"is_disabled":false,"rental_uris":{"android":"levelo://app?vid=7338dbc8-faa4-4dfb-a645-cff0a768b727","ios":"levelo://app?vid=7338dbc8-faa4-4dfb-a645-cff0a768b727"},"vehicle_type_id":"4","last_reported":1706429332,"current_range_meters":30000,"station_id":"ce4bh392rcd13ifvqdl0","pricing_plan_id":"free"},{"bike_id":"2375ae9f-20ab-4fc5-ac2d-c8ce4f62587f","system_id":"levelo_inurba_marseille","lat":43.291671,"lon":5.371575,"is_reserved":false,"is_disabled":false,"rental_uris":{"android":"levelo://app?vid=2375ae9f-20ab-4fc5-ac2d-c8ce4f62587f","ios":"levelo://app?vid=2375ae9f-20ab-4fc5-ac2d-c8ce4f62587f"},"vehicle_type_id":"4","last_reported":1706429332,"current_range_meters":25200,"station_id":"ce4bha92rcd13ifvqeh0","pricing_plan_id":"free"},{"bike_id":"88c710e9-540e-4977-a5d6-7fe4c3904e0b","system_id":"levelo_inurba_marseille","lat":43.291994,"lon":5.357886,"is_reserved":false,"is_disabled":false,"rental_uris":{"android":"levelo://app?vid=88c710e9-540e-4977-a5d6-7fe4c3904e0b","ios":"levelo://app?vid=88c710e9-540e-4977-a5d6-7fe4c3904e0b"},"vehicle_type_id":"4","last_reported":1706429332,"current_range_meters":29200,"station_id":"ce4bhb12rcd13ifvqel0","pricing_plan_id":"free"},{"bike_id":"841a47e1-89ae-4544-a907-6b7c3ab89792","system_id":"levelo_inurba_marseille","lat":43.309047,"lon":5.396551,"is_reserved":false,"is_disabled":false,"rental_uris":{"android":"levelo://app?vid=841a47e1-89ae-4544-a907-6b7c3ab89792","ios":"levelo://app?vid=841a47e1-89ae-4544-a907-6b7c3ab89792"},"vehicle_type_id":"4","last_reported":1706429332,"current_range_meters":31200,"station_id":"ce4bh012rcd13ifvqcv0","pricing_plan_id":"free"},{"bike_id":"fc08cf01-4e65-4878-97af-4b5b12bc3e46","system_id":"levelo_inurba_marseille","lat":43.309038,"lon":5.396546,"is_reserved":false,"is_disabled":false,"rental_uris":{"android":"levelo://app?vid=fc08cf01-4e65-4878-97af-4b5b12bc3e46","ios":"levelo://app?vid=fc08cf01-4e65-4878-97af-4b5b12bc3e46"},"vehicle_type_id":"4","last_reported":1706429332,"current_range_meters":6400,"station_id":"ce4bh012rcd13ifvqcv0","pricing_plan_id":"free"},{"bike_id":"72835a8a-956d-445c-9582-d2c073503449","system_id":"levelo_inurba_marseille","lat":43.291994,"lon":5.357886,"is_reserved":false,"is_disabled":false,"rental_uris":{"android":"levelo://app?vid=72835a8a-956d-445c-9582-d2c073503449","ios":"levelo://app?vid=72835a8a-956d-445c-9582-d2c073503449"},"vehicle_type_id":"4","last_reported":1706429332,"current_range_meters":30000,"station_id":"ce4bhb12rcd13ifvqel0","pricing_plan_id":"free"},{"bike_id":"1c2f4dfb-e9af-4d96-9753-6f479653e589","system_id":"levelo_inurba_marseille","lat":43.313291,"lon":5.396838,"is_reserved":false,"is_disabled":false,"rental_uris":{"android":"levelo://app?vid=1c2f4dfb-e9af-4d96-9753-6f479653e589","ios":"levelo://app?vid=1c2f4dfb-e9af-4d96-9753-6f479653e589"},"vehicle_type_id":"4","last_reported":1706429332,"current_range_meters":31200,"station_id":"ce4bgvp2rcd13ifvqcu0","pricing_plan_id":"free"},{"bike_id":"df4b9df1-5216-4645-a198-552ee6e763d1","system_id":"levelo_inurba_marseille","lat":43.309047,"lon":5.396551,"is_reserved":false,"is_disabled":false,"rental_uris":{"android":"levelo://app?vid=df4b9df1-5216-4645-a198-552ee6e763d1","ios":"levelo://app?vid=df4b9df1-5216-4645-a198-552ee6e763d1"},"vehicle_type_id":"4","last_reported":1706429332,"current_range_meters":18000,"station_id":"ce4bh012rcd13ifvqcv0","pricing_plan_id":"free"},{"bike_id":"b28e11c3-f4fb-4688-9428-99a3a01b5406","system_id":"levelo_inurba_marseille","lat":43.309038,"lon":5.396546,"is_reserved":false,"is_disabled":false,"rental_uris":{"android":"levelo://app?vid=b28e11c3-f4fb-4688-9428-99a3a01b5406","ios":"levelo://app?vid=b28e11c3-f4fb-4688-9428-99a3a01b5406"},"vehicle_type_id":"4","last_reported":1706429332,"current_range_meters":31600,"station_id":"ce4bh012rcd13ifvqcv0","pricing_plan_id":"free"},{"bike_id":"350b1c12-f01b-4e76-b7e5-c2b800e68838","system_id":"levelo_inurba_marseille","lat":43.313291,"lon":5.396838,"is_reserved":false,"is_disabled":false,"rental_uris":{"android":"levelo://app?vid=350b1c12-f01b-4e76-b7e5-c2b800e68838","ios":"levelo://app?vid=350b1c12-f01b-4e76-b7e5-c2b800e68838"},"vehicle_type_id":"4","last_reported":1706429332,"current_range_meters":26400,"station_id":"ce4bgvp2rcd13ifvqcu0","pricing_plan_id":"free"},{"bike_id":"8a5ef749-d5e1-4777-9ec6-e172c7840457","system_id":"levelo_inurba_marseille","lat":43.313291,"lon":5.396838,"is_reserved":false,"is_disabled":false,"rental_uris":{"android":"levelo://app?vid=8a5ef749-d5e1-4777-9ec6-e172c7840457","ios":"levelo://app?vid=8a5ef749-d5e1-4777-9ec6-e172c7840457"},"vehicle_type_id":"4","last_reported":1706429332,"current_range_meters":30000,"station_id":"ce4bgvp2rcd13ifvqcu0","pricing_plan_id":"free"},{"bike_id":"a88689e1-95a0-4eb8-b251-c12990de72d3","system_id":"levelo_inurba_marseille","lat":43.309038,"lon":5.396546,"is_reserved":false,"is_disabled":false,"rental_uris":{"android":"levelo://app?vid=a88689e1-95a0-4eb8-b251-c12990de72d3","ios":"levelo://app?vid=a88689e1-95a0-4eb8-b251-c12990de72d3"},"vehicle_type_id":"4","last_reported":1706429332,"current_range_meters":15600,"station_id":"ce4bh012rcd13ifvqcv0","pricing_plan_id":"free"},{"bike_id":"cb9a47c8-347a-4baa-a672-27468abb3ef5","system_id":"levelo_inurba_marseille","lat":43.29529,"lon":5.385581,"is_reserved":false,"is_disabled":false,"rental_uris":{"android":"levelo://app?vid=cb9a47c8-347a-4baa-a672-27468abb3ef5","ios":"levelo://app?vid=cb9a47c8-347a-4baa-a672-27468abb3ef5"},"vehicle_type_id":"4","last_reported":1706429332,"current_range_meters":14000,"station_id":"ce4bgih2rcd13ifvqba0","pricing_plan_id":"free"},{"bike_id":"32d07780-9ec3-4701-8326-cf2536084a3d","system_id":"levelo_inurba_marseille","lat":43.29529,"lon":5.385581,"is_reserved":false,"is_disabled":false,"rental_uris":{"android":"levelo://app?vid=32d07780-9ec3-4701-8326-cf2536084a3d","ios":"levelo://app?vid=32d07780-9ec3-4701-8326-cf2536084a3d"},"vehicle_type_id":"4","last_reported":1706429332,"current_range_meters":6400,"station_id":"ce4bgih2rcd13ifvqba0","pricing_plan_id":"free"},{"bike_id":"0e592a1b-7cb4-432b-aa98-c81569a21de2","system_id":"levelo_inurba_marseille","lat":43.29068,"lon":5.37168,"is_reserved":false,"is_disabled":false,"rental_uris":{"android":"levelo://app?vid=0e592a1b-7cb4-432b-aa98-c81569a21de2","ios":"levelo://app?vid=0e592a1b-7cb4-432b-aa98-c81569a21de2"},"vehicle_type_id":"4","last_reported":1706429332,"current_range_meters":28800,"station_id":"ce4bh5p2rcd13ifvqe4g","pricing_plan_id":"free"},{"bike_id":"d6ee3496-cb71-4434-bfd0-f5550e0089f1","system_id":"levelo_inurba_marseille","lat":43.302008,"lon":5.394694,"is_reserved":false,"is_disabled":false,"rental_uris":{"android":"levelo://app?vid=d6ee3496-cb71-4434-bfd0-f5550e0089f1","ios":"levelo://app?vid=d6ee3496-cb71-4434-bfd0-f5550e0089f1"},"vehicle_type_id":"4","last_reported":1706429332,"current_range_meters":30400,"station_id":"ce4bh0p2rcd13ifvqd70","pricing_plan_id":"free"},{"bike_id":"bff8cc3b-1101-4eb0-ab4d-018ab7f89816","system_id":"levelo_inurba_marseille","lat":43.302008,"lon":5.394694,"is_reserved":false,"is_disabled":false,"rental_uris":{"android":"levelo://app?vid=bff8cc3b-1101-4eb0-ab4d-018ab7f89816","ios":"levelo://app?vid=bff8cc3b-1101-4eb0-ab4d-018ab7f89816"},"vehicle_type_id":"4","last_reported":1706429332,"current_range_meters":31200,"station_id":"ce4bh0p2rcd13ifvqd70","pricing_plan_id":"free"},{"bike_id":"f7ee8f29-f6e4-4ae8-8aa5-c5379c233935","system_id":"levelo_inurba_marseille","lat":43.290631,"lon":5.359244,"is_reserved":false,"is_disabled":false,"rental_uris":{"android":"levelo://app?vid=f7ee8f29-f6e4-4ae8-8aa5-c5379c233935","ios":"levelo://app?vid=f7ee8f29-f6e4-4ae8-8aa5-c5379c233935"},"vehicle_type_id":"4","last_reported":1706429332,"current_range_meters":30000,"station_id":"ce4bha92rcd13ifvqeg0","pricing_plan_id":"free"},{"bike_id":"a7d85f0f-61ee-4761-a65e-c26e4b7cb4e7","system_id":"levelo_inurba_marseille","lat":43.290441,"lon":5.359123,"is_reserved":false,"is_disabled":false,"rental_uris":{"android":"levelo://app?vid=a7d85f0f-61ee-4761-a65e-c26e4b7cb4e7","ios":"levelo://app?vid=a7d85f0f-61ee-4761-a65e-c26e4b7cb4e7"},"vehicle_type_id":"4","last_reported":1706429332,"current_range_meters":26400,"station_id":"","pricing_plan_id":"free"},{"bike_id":"66a0d2b5-674a-4cd8-ae7e-694762d2f48b","system_id":"levelo_inurba_marseille","lat":43.294153,"lon":5.386305,"is_reserved":false,"is_disabled":false,"rental_uris":{"android":"levelo://app?vid=66a0d2b5-674a-4cd8-ae7e-694762d2f48b","ios":"levelo://app?vid=66a0d2b5-674a-4cd8-ae7e-694762d2f48b"},"vehicle_type_id":"4","last_reported":1706429332,"current_range_meters":27600,"station_id":"ce4bh2h2rcd13ifvqdh0","pricing_plan_id":"free"},{"bike_id":"4f27647b-aea1-4dbc-858d-d4e20c4d6f25","system_id":"levelo_inurba_marseille","lat":43.290104,"lon":5.356111,"is_reserved":false,"is_disabled":false,"rental_uris":{"android":"levelo://app?vid=4f27647b-aea1-4dbc-858d-d4e20c4d6f25","ios":"levelo://app?vid=4f27647b-aea1-4dbc-858d-d4e20c4d6f25"},"vehicle_type_id":"4","last_reported":1706429332,"current_range_meters":27600,"station_id":"ce4bhb92rcd13ifvqen0","pricing_plan_id":"free"},{"bike_id":"cb9037ea-a8d5-4402-8eec-affe7e4f3eaf","system_id":"levelo_inurba_marseille","lat":43.290104,"lon":5.356111,"is_reserved":false,"is_disabled":false,"rental_uris":{"android":"levelo://app?vid=cb9037ea-a8d5-4402-8eec-affe7e4f3eaf","ios":"levelo://app?vid=cb9037ea-a8d5-4402-8eec-affe7e4f3eaf"},"vehicle_type_id":"4","last_reported":1706429332,"current_range_meters":22000,"station_id":"ce4bhb92rcd13ifvqen0","pricing_plan_id":"free"},{"bike_id":"59e02cdd-baf5-40b9-aa17-f77e9d38b52a","system_id":"levelo_inurba_marseille","lat":43.297913,"lon":5.393416,"is_reserved":false,"is_disabled":false,"rental_uris":{"android":"levelo://app?vid=59e02cdd-baf5-40b9-aa17-f77e9d38b52a","ios":"levelo://app?vid=59e02cdd-baf5-40b9-aa17-f77e9d38b52a"},"vehicle_type_id":"4","last_reported":1706429332,"current_range_meters":30800,"station_id":"chh1huq6cuj3fo74tm60","pricing_plan_id":"free"},{"bike_id":"5a51bf89-8e2f-481e-b310-6eca00de6f35","system_id":"levelo_inurba_marseille","lat":43.297873,"lon":5.393382,"is_reserved":false,"is_disabled":false,"rental_uris":{"android":"levelo://app?vid=5a51bf89-8e2f-481e-b310-6eca00de6f35","ios":"levelo://app?vid=5a51bf89-8e2f-481e-b310-6eca00de6f35"},"vehicle_type_id":"4","last_reported":1706429332,"current_range_meters":24000,"station_id":"chh1huq6cuj3fo74tm60","pricing_plan_id":"free"},{"bike_id":"11c8248a-3cb6-4dd0-b765-6cf16513f782","system_id":"levelo_inurba_marseille","lat":43.289741,"lon":5.378306,"is_reserved":false,"is_disabled":false,"rental_uris":{"android":"levelo://app?vid=11c8248a-3cb6-4dd0-b765-6cf16513f782","ios":"levelo://app?vid=11c8248a-3cb6-4dd0-b765-6cf16513f782"},"vehicle_type_id":"4","last_reported":1706429332,"current_range_meters":27600,"station_id":"ce4bh9p2rcd13ifvqed0","pricing_plan_id":"free"},{"bike_id":"1f004bc9-8145-41f4-a9a4-3f70faee6854","system_id":"levelo_inurba_marseille","lat":43.330442,"lon":5.389148,"is_reserved":false,"is_disabled":false,"rental_uris":{"android":"levelo://app?vid=1f004bc9-8145-41f4-a9a4-3f70faee6854","ios":"levelo://app?vid=1f004bc9-8145-41f4-a9a4-3f70faee6854"},"vehicle_type_id":"4","last_reported":1706429332,"current_range_meters":14000,"station_id":"ce4bhr92rcd13ifvqhrg","pricing_plan_id":"free"},{"bike_id":"481dad6f-9967-4f6f-97c2-139abd002c75","system_id":"levelo_inurba_marseille","lat":43.330442,"lon":5.389148,"is_reserved":false,"is_disabled":false,"rental_uris":{"android":"levelo://app?vid=481dad6f-9967-4f6f-97c2-139abd002c75","ios":"levelo://app?vid=481dad6f-9967-4f6f-97c2-139abd002c75"},"vehicle_type_id":"4","last_reported":1706429332,"current_range_meters":2800,"station_id":"ce4bhr92rcd13ifvqhrg","pricing_plan_id":"free"},{"bike_id":"a4d2fef4-4bf8-4ec7-8d28-ab96e9cd4504","system_id":"levelo_inurba_marseille","lat":43.28856,"lon":5.358371,"is_reserved":false,"is_disabled":false,"rental_uris":{"android":"levelo://app?vid=a4d2fef4-4bf8-4ec7-8d28-ab96e9cd4504","ios":"levelo://app?vid=a4d2fef4-4bf8-4ec7-8d28-ab96e9cd4504"},"vehicle_type_id":"4","last_reported":1706429332,"current_range_meters":26800,"station_id":"ce4bhb12rcd13ifvqem0","pricing_plan_id":"free"},{"bike_id":"957fe3b9-0ff9-414e-8ce3-8172c7f79bbb","system_id":"levelo_inurba_marseille","lat":43.28856,"lon":5.358371,"is_reserved":false,"is_disabled":false,"rental_uris":{"android":"levelo://app?vid=957fe3b9-0ff9-414e-8ce3-8172c7f79bbb","ios":"levelo://app?vid=957fe3b9-0ff9-414e-8ce3-8172c7f79bbb"},"vehicle_type_id":"4","last_reported":1706429332,"current_range_meters":20000,"station_id":"ce4bhb12rcd13ifvqem0","pricing_plan_id":"free"},{"bike_id":"d17a2a71-24a2-4090-bfe4-0a93d917c57c","system_id":"levelo_inurba_marseille","lat":43.309371,"lon":5.401449,"is_reserved":false,"is_disabled":false,"rental_uris":{"android":"levelo://app?vid=d17a2a71-24a2-4090-bfe4-0a93d917c57c","ios":"levelo://app?vid=d17a2a71-24a2-4090-bfe4-0a93d917c57c"},"vehicle_type_id":"4","last_reported":1706429332,"current_range_meters":4400,"station_id":"ce4bgvp2rcd13ifvqct0","pricing_plan_id":"free"},{"bike_id":"a563cdbf-78b8-441c-8dce-8da1c3325b92","system_id":"levelo_inurba_marseille","lat":43.337558,"lon":5.374504,"is_reserved":false,"is_disabled":false,"rental_uris":{"android":"levelo://app?vid=a563cdbf-78b8-441c-8dce-8da1c3325b92","ios":"levelo://app?vid=a563cdbf-78b8-441c-8dce-8da1c3325b92"},"vehicle_type_id":"4","last_reported":1706429332,"current_range_meters":20800,"station_id":"","pricing_plan_id":"free"},{"bike_id":"c138c08b-ac5f-4b47-b873-0efc7215c2e5","system_id":"levelo_inurba_marseille","lat":43.306412,"lon":5.401035,"is_reserved":false,"is_disabled":false,"rental_uris":{"android":"levelo://app?vid=c138c08b-ac5f-4b47-b873-0efc7215c2e5","ios":"levelo://app?vid=c138c08b-ac5f-4b47-b873-0efc7215c2e5"},"vehicle_type_id":"4","last_reported":1706429332,"current_range_meters":23600,"station_id":"ce4bh112rcd13ifvqda0","pricing_plan_id":"free"},{"bike_id":"b7f12eab-e0a6-499e-87ec-2b4381c4602a","system_id":"levelo_inurba_marseille","lat":43.337597,"lon":5.37456,"is_reserved":false,"is_disabled":false,"rental_uris":{"android":"levelo://app?vid=b7f12eab-e0a6-499e-87ec-2b4381c4602a","ios":"levelo://app?vid=b7f12eab-e0a6-499e-87ec-2b4381c4602a"},"vehicle_type_id":"4","last_reported":1706429332,"current_range_meters":24000,"station_id":"","pricing_plan_id":"free"},{"bike_id":"3738ea2a-e606-479a-b7a0-579aa97e4ded","system_id":"levelo_inurba_marseille","lat":43.337639,"lon":5.374439,"is_reserved":false,"is_disabled":false,"rental_uris":{"android":"levelo://app?vid=3738ea2a-e606-479a-b7a0-579aa97e4ded","ios":"levelo://app?vid=3738ea2a-e606-479a-b7a0-579aa97e4ded"},"vehicle_type_id":"4","last_reported":1706429332,"current_range_meters":30000,"station_id":"ce4rr2p2rcd13i802rgg","pricing_plan_id":"free"},{"bike_id":"6a4cda04-8a10-4b2c-89d8-c6fab204537e","system_id":"levelo_inurba_marseille","lat":43.300592,"lon":5.397726,"is_reserved":false,"is_disabled":false,"rental_uris":{"android":"levelo://app?vid=6a4cda04-8a10-4b2c-89d8-c6fab204537e","ios":"levelo://app?vid=6a4cda04-8a10-4b2c-89d8-c6fab204537e"},"vehicle_type_id":"4","last_reported":1706429332,"current_range_meters":15600,"station_id":"","pricing_plan_id":"free"},{"bike_id":"2fe24097-b1c2-4583-ba1f-cf8501171a4c","system_id":"levelo_inurba_marseille","lat":43.337574,"lon":5.374904,"is_reserved":false,"is_disabled":false,"rental_uris":{"android":"levelo://app?vid=2fe24097-b1c2-4583-ba1f-cf8501171a4c","ios":"levelo://app?vid=2fe24097-b1c2-4583-ba1f-cf8501171a4c"},"vehicle_type_id":"4","last_reported":1706429332,"current_range_meters":12800,"station_id":"","pricing_plan_id":"free"},{"bike_id":"b7d3b81d-d85a-44b5-a0c7-8f9c9f74639e","system_id":"levelo_inurba_marseille","lat":43.33765,"lon":5.374672,"is_reserved":false,"is_disabled":false,"rental_uris":{"android":"levelo://app?vid=b7d3b81d-d85a-44b5-a0c7-8f9c9f74639e","ios":"levelo://app?vid=b7d3b81d-d85a-44b5-a0c7-8f9c9f74639e"},"vehicle_type_id":"4","last_reported":1706429332,"current_range_meters":27600,"station_id":"","pricing_plan_id":"free"},{"bike_id":"1facbbf3-baac-42f8-85eb-cb1e36f3e4b9","system_id":"levelo_inurba_marseille","lat":43.337623,"lon":5.374899,"is_reserved":false,"is_disabled":false,"rental_uris":{"android":"levelo://app?vid=1facbbf3-baac-42f8-85eb-cb1e36f3e4b9","ios":"levelo://app?vid=1facbbf3-baac-42f8-85eb-cb1e36f3e4b9"},"vehicle_type_id":"4","last_reported":1706429332,"current_range_meters":15200,"station_id":"","pricing_plan_id":"free"},{"bike_id":"d958988a-a73d-4a13-9b46-05e41e041590","system_id":"levelo_inurba_marseille","lat":43.298681,"lon":5.397225,"is_reserved":false,"is_disabled":false,"rental_uris":{"android":"levelo://app?vid=d958988a-a73d-4a13-9b46-05e41e041590","ios":"levelo://app?vid=d958988a-a73d-4a13-9b46-05e41e041590"},"vehicle_type_id":"4","last_reported":1706429332,"current_range_meters":24800,"station_id":"ce4bh0h2rcd13ifvqd50","pricing_plan_id":"free"},{"bike_id":"8d11c616-7e1e-4d54-ad7a-f4c68eeceb4c","system_id":"levelo_inurba_marseille","lat":43.298681,"lon":5.397225,"is_reserved":false,"is_disabled":false,"rental_uris":{"android":"levelo://app?vid=8d11c616-7e1e-4d54-ad7a-f4c68eeceb4c","ios":"levelo://app?vid=8d11c616-7e1e-4d54-ad7a-f4c68eeceb4c"},"vehicle_type_id":"4","last_reported":1706429332,"current_range_meters":28400,"station_id":"ce4bh0h2rcd13ifvqd50","pricing_plan_id":"free"},{"bike_id":"2c32b177-8f00-4e76-b35b-731e427d935f","system_id":"levelo_inurba_marseille","lat":43.286961,"lon":5.373785,"is_reserved":false,"is_disabled":false,"rental_uris":{"android":"levelo://app?vid=2c32b177-8f00-4e76-b35b-731e427d935f","ios":"levelo://app?vid=2c32b177-8f00-4e76-b35b-731e427d935f"},"vehicle_type_id":"4","last_reported":1706429332,"current_range_meters":31200,"station_id":"ce4bh3p2rcd13ifvqdq0","pricing_plan_id":"free"},{"bike_id":"84a62e03-5e21-43f6-af3e-473d82a55d39","system_id":"levelo_inurba_marseille","lat":43.286961,"lon":5.373785,"is_reserved":false,"is_disabled":false,"rental_uris":{"android":"levelo://app?vid=84a62e03-5e21-43f6-af3e-473d82a55d39","ios":"levelo://app?vid=84a62e03-5e21-43f6-af3e-473d82a55d39"},"vehicle_type_id":"4","last_reported":1706429332,"current_range_meters":13600,"station_id":"ce4bh3p2rcd13ifvqdq0","pricing_plan_id":"free"},{"bike_id":"bf5ed679-b959-45c4-8b0d-aa289cb6ba73","system_id":"levelo_inurba_marseille","lat":43.286591,"lon":5.363346,"is_reserved":false,"is_disabled":false,"rental_uris":{"android":"levelo://app?vid=bf5ed679-b959-45c4-8b0d-aa289cb6ba73","ios":"levelo://app?vid=bf5ed679-b959-45c4-8b0d-aa289cb6ba73"},"vehicle_type_id":"4","last_reported":1706429332,"current_range_meters":6000,"station_id":"ce4bhah2rcd13ifvqej0","pricing_plan_id":"free"},{"bike_id":"67d5f75c-7186-4ece-b882-093168f42979","system_id":"levelo_inurba_marseille","lat":43.286961,"lon":5.373785,"is_reserved":false,"is_disabled":false,"rental_uris":{"android":"levelo://app?vid=67d5f75c-7186-4ece-b882-093168f42979","ios":"levelo://app?vid=67d5f75c-7186-4ece-b882-093168f42979"},"vehicle_type_id":"4","last_reported":1706429332,"current_range_meters":30000,"station_id":"ce4bh3p2rcd13ifvqdq0","pricing_plan_id":"free"},{"bike_id":"78342988-3ec7-4651-adab-04f5c4da5dcc","system_id":"levelo_inurba_marseille","lat":43.286961,"lon":5.373785,"is_reserved":false,"is_disabled":false,"rental_uris":{"android":"levelo://app?vid=78342988-3ec7-4651-adab-04f5c4da5dcc","ios":"levelo://app?vid=78342988-3ec7-4651-adab-04f5c4da5dcc"},"vehicle_type_id":"4","last_reported":1706429332,"current_range_meters":20800,"station_id":"ce4bh3p2rcd13ifvqdq0","pricing_plan_id":"free"},{"bike_id":"00823c03-4d62-4272-8aed-f2262a80d67a","system_id":"levelo_inurba_marseille","lat":43.286961,"lon":5.373785,"is_reserved":false,"is_disabled":false,"rental_uris":{"android":"levelo://app?vid=00823c03-4d62-4272-8aed-f2262a80d67a","ios":"levelo://app?vid=00823c03-4d62-4272-8aed-f2262a80d67a"},"vehicle_type_id":"4","last_reported":1706429332,"current_range_meters":27600,"station_id":"ce4bh3p2rcd13ifvqdq0","pricing_plan_id":"free"},{"bike_id":"b6b84edb-32bc-4f25-82c1-fabdd20a440d","system_id":"levelo_inurba_marseille","lat":43.289307,"lon":5.38406,"is_reserved":false,"is_disabled":false,"rental_uris":{"android":"levelo://app?vid=b6b84edb-32bc-4f25-82c1-fabdd20a440d","ios":"levelo://app?vid=b6b84edb-32bc-4f25-82c1-fabdd20a440d"},"vehicle_type_id":"4","last_reported":1706429332,"current_range_meters":25600,"station_id":"ce4bh612rcd13ifvqe6g","pricing_plan_id":"free"},{"bike_id":"b6efea62-59c8-46ec-bd84-c53d33bf267d","system_id":"levelo_inurba_marseille","lat":43.290345,"lon":5.38646,"is_reserved":false,"is_disabled":false,"rental_uris":{"android":"levelo://app?vid=b6efea62-59c8-46ec-bd84-c53d33bf267d","ios":"levelo://app?vid=b6efea62-59c8-46ec-bd84-c53d33bf267d"},"vehicle_type_id":"4","last_reported":1706429332,"current_range_meters":27600,"station_id":"ce4bh4p2rcd13ifvqe0g","pricing_plan_id":"free"},{"bike_id":"183bb1c1-398f-466c-b05d-327ac4efc436","system_id":"levelo_inurba_marseille","lat":43.302511,"lon":5.400653,"is_reserved":false,"is_disabled":false,"rental_uris":{"android":"levelo://app?vid=183bb1c1-398f-466c-b05d-327ac4efc436","ios":"levelo://app?vid=183bb1c1-398f-466c-b05d-327ac4efc436"},"vehicle_type_id":"4","last_reported":1706429332,"current_range_meters":12000,"station_id":"ce4bgth2rcd13ifvqch0","pricing_plan_id":"free"},{"bike_id":"03447749-0c25-43f9-b101-2dd420e40b4a","system_id":"levelo_inurba_marseille","lat":43.286039,"lon":5.370681,"is_reserved":false,"is_disabled":false,"rental_uris":{"android":"levelo://app?vid=03447749-0c25-43f9-b101-2dd420e40b4a","ios":"levelo://app?vid=03447749-0c25-43f9-b101-2dd420e40b4a"},"vehicle_type_id":"4","last_reported":1706429332,"current_range_meters":7200,"station_id":"ce4bht12rcd13ifvqi60","pricing_plan_id":"free"},{"bike_id":"b629200a-a7cd-40bc-ba12-13f5aff96d13","system_id":"levelo_inurba_marseille","lat":43.286039,"lon":5.370681,"is_reserved":false,"is_disabled":false,"rental_uris":{"android":"levelo://app?vid=b629200a-a7cd-40bc-ba12-13f5aff96d13","ios":"levelo://app?vid=b629200a-a7cd-40bc-ba12-13f5aff96d13"},"vehicle_type_id":"4","last_reported":1706429332,"current_range_meters":10000,"station_id":"ce4bht12rcd13ifvqi60","pricing_plan_id":"free"},{"bike_id":"5bf6295b-4225-468b-9dae-72e8651e1f68","system_id":"levelo_inurba_marseille","lat":43.28469,"lon":5.35885,"is_reserved":false,"is_disabled":false,"rental_uris":{"android":"levelo://app?vid=5bf6295b-4225-468b-9dae-72e8651e1f68","ios":"levelo://app?vid=5bf6295b-4225-468b-9dae-72e8651e1f68"},"vehicle_type_id":"4","last_reported":1706429332,"current_range_meters":26000,"station_id":"ce4bhah2rcd13ifvqei0","pricing_plan_id":"free"},{"bike_id":"088b7001-e73a-4dd9-8a1d-b0d90fa31ea9","system_id":"levelo_inurba_marseille","lat":43.28459,"lon":5.35893,"is_reserved":false,"is_disabled":false,"rental_uris":{"android":"levelo://app?vid=088b7001-e73a-4dd9-8a1d-b0d90fa31ea9","ios":"levelo://app?vid=088b7001-e73a-4dd9-8a1d-b0d90fa31ea9"},"vehicle_type_id":"4","last_reported":1706429332,"current_range_meters":26000,"station_id":"ce4bhah2rcd13ifvqei0","pricing_plan_id":"free"},{"bike_id":"8e475eb0-4e0b-4679-96bd-7cdf870caeda","system_id":"levelo_inurba_marseille","lat":43.284594,"lon":5.35889,"is_reserved":false,"is_disabled":false,"rental_uris":{"android":"levelo://app?vid=8e475eb0-4e0b-4679-96bd-7cdf870caeda","ios":"levelo://app?vid=8e475eb0-4e0b-4679-96bd-7cdf870caeda"},"vehicle_type_id":"4","last_reported":1706429332,"current_range_meters":31200,"station_id":"ce4bhah2rcd13ifvqei0","pricing_plan_id":"free"},{"bike_id":"ec0bf64a-ba42-4917-8dc9-48d93eaba98c","system_id":"levelo_inurba_marseille","lat":43.285848,"lon":5.350787,"is_reserved":false,"is_disabled":false,"rental_uris":{"android":"levelo://app?vid=ec0bf64a-ba42-4917-8dc9-48d93eaba98c","ios":"levelo://app?vid=ec0bf64a-ba42-4917-8dc9-48d93eaba98c"},"vehicle_type_id":"4","last_reported":1706429332,"current_range_meters":28800,"station_id":"ce4bhch2rcd13ifvqeug","pricing_plan_id":"free"},{"bike_id":"84939456-6752-47ce-b628-fed93bcd290d","system_id":"levelo_inurba_marseille","lat":43.28616,"lon":5.35098,"is_reserved":false,"is_disabled":false,"rental_uris":{"android":"levelo://app?vid=84939456-6752-47ce-b628-fed93bcd290d","ios":"levelo://app?vid=84939456-6752-47ce-b628-fed93bcd290d"},"vehicle_type_id":"4","last_reported":1706429332,"current_range_meters":28800,"station_id":"ce4bhch2rcd13ifvqeug","pricing_plan_id":"free"},{"bike_id":"78b04be9-ed77-4351-90cc-031c63acfb01","system_id":"levelo_inurba_marseille","lat":43.285856,"lon":5.350771,"is_reserved":false,"is_disabled":false,"rental_uris":{"android":"levelo://app?vid=78b04be9-ed77-4351-90cc-031c63acfb01","ios":"levelo://app?vid=78b04be9-ed77-4351-90cc-031c63acfb01"},"vehicle_type_id":"4","last_reported":1706429332,"current_range_meters":19200,"station_id":"ce4bhch2rcd13ifvqeug","pricing_plan_id":"free"},{"bike_id":"247bcd42-ab23-4075-ad15-575eb629884e","system_id":"levelo_inurba_marseille","lat":43.286595,"lon":5.386795,"is_reserved":false,"is_disabled":false,"rental_uris":{"android":"levelo://app?vid=247bcd42-ab23-4075-ad15-575eb629884e","ios":"levelo://app?vid=247bcd42-ab23-4075-ad15-575eb629884e"},"vehicle_type_id":"4","last_reported":1706429332,"current_range_meters":0,"station_id":"ce4bh492rcd13ifvqdug","pricing_plan_id":"free"},{"bike_id":"b29b4b3a-7a43-4939-bb05-5f4f2fe881f9","system_id":"levelo_inurba_marseille","lat":43.319179,"lon":5.407725,"is_reserved":false,"is_disabled":false,"rental_uris":{"android":"levelo://app?vid=b29b4b3a-7a43-4939-bb05-5f4f2fe881f9","ios":"levelo://app?vid=b29b4b3a-7a43-4939-bb05-5f4f2fe881f9"},"vehicle_type_id":"4","last_reported":1706429332,"current_range_meters":31200,"station_id":"ce4bhq12rcd13ifvqhig","pricing_plan_id":"free"},{"bike_id":"77308e31-fc80-4c42-923c-57fc362eb70a","system_id":"levelo_inurba_marseille","lat":43.319179,"lon":5.407725,"is_reserved":false,"is_disabled":false,"rental_uris":{"android":"levelo://app?vid=77308e31-fc80-4c42-923c-57fc362eb70a","ios":"levelo://app?vid=77308e31-fc80-4c42-923c-57fc362eb70a"},"vehicle_type_id":"4","last_reported":1706429332,"current_range_meters":28000,"station_id":"ce4bhq12rcd13ifvqhig","pricing_plan_id":"free"},{"bike_id":"40975b42-2dae-4c78-9990-d091247266be","system_id":"levelo_inurba_marseille","lat":43.319179,"lon":5.407725,"is_reserved":false,"is_disabled":false,"rental_uris":{"android":"levelo://app?vid=40975b42-2dae-4c78-9990-d091247266be","ios":"levelo://app?vid=40975b42-2dae-4c78-9990-d091247266be"},"vehicle_type_id":"4","last_reported":1706429332,"current_range_meters":24800,"station_id":"ce4bhq12rcd13ifvqhig","pricing_plan_id":"free"},{"bike_id":"e63b7e05-da47-404b-a3ca-035d8af322bb","system_id":"levelo_inurba_marseille","lat":43.319179,"lon":5.407725,"is_reserved":false,"is_disabled":false,"rental_uris":{"android":"levelo://app?vid=e63b7e05-da47-404b-a3ca-035d8af322bb","ios":"levelo://app?vid=e63b7e05-da47-404b-a3ca-035d8af322bb"},"vehicle_type_id":"4","last_reported":1706429332,"current_range_meters":31200,"station_id":"ce4bhq12rcd13ifvqhig","pricing_plan_id":"free"},{"bike_id":"2b5f4982-548b-4158-a72b-a9e801ba15e5","system_id":"levelo_inurba_marseille","lat":43.323464,"lon":5.406297,"is_reserved":false,"is_disabled":false,"rental_uris":{"android":"levelo://app?vid=2b5f4982-548b-4158-a72b-a9e801ba15e5","ios":"levelo://app?vid=2b5f4982-548b-4158-a72b-a9e801ba15e5"},"vehicle_type_id":"4","last_reported":1706429332,"current_range_meters":31600,"station_id":"ce4bhq92rcd13ifvqhjg","pricing_plan_id":"free"},{"bike_id":"3c982f92-c162-4958-96ed-bd3ab8ee1412","system_id":"levelo_inurba_marseille","lat":43.323464,"lon":5.406297,"is_reserved":false,"is_disabled":false,"rental_uris":{"android":"levelo://app?vid=3c982f92-c162-4958-96ed-bd3ab8ee1412","ios":"levelo://app?vid=3c982f92-c162-4958-96ed-bd3ab8ee1412"},"vehicle_type_id":"4","last_reported":1706429332,"current_range_meters":25600,"station_id":"ce4bhq92rcd13ifvqhjg","pricing_plan_id":"free"},{"bike_id":"49927298-0456-42e8-8955-c51541c9e6dc","system_id":"levelo_inurba_marseille","lat":43.323464,"lon":5.406297,"is_reserved":false,"is_disabled":false,"rental_uris":{"android":"levelo://app?vid=49927298-0456-42e8-8955-c51541c9e6dc","ios":"levelo://app?vid=49927298-0456-42e8-8955-c51541c9e6dc"},"vehicle_type_id":"4","last_reported":1706429332,"current_range_meters":23600,"station_id":"ce4bhq92rcd13ifvqhjg","pricing_plan_id":"free"},{"bike_id":"2bb38835-1a5e-4d01-8935-6396d43e5266","system_id":"levelo_inurba_marseille","lat":43.337168,"lon":5.391825,"is_reserved":false,"is_disabled":false,"rental_uris":{"android":"levelo://app?vid=2bb38835-1a5e-4d01-8935-6396d43e5266","ios":"levelo://app?vid=2bb38835-1a5e-4d01-8935-6396d43e5266"},"vehicle_type_id":"4","last_reported":1706429332,"current_range_meters":23200,"station_id":"ce4bhr92rcd13ifvqhsg","pricing_plan_id":"free"},{"bike_id":"127867e1-5339-4e5e-b5b9-259fd727bf31","system_id":"levelo_inurba_marseille","lat":43.297946,"lon":5.404063,"is_reserved":false,"is_disabled":false,"rental_uris":{"android":"levelo://app?vid=127867e1-5339-4e5e-b5b9-259fd727bf31","ios":"levelo://app?vid=127867e1-5339-4e5e-b5b9-259fd727bf31"},"vehicle_type_id":"4","last_reported":1706429332,"current_range_meters":21200,"station_id":"ce4bh112rcd13ifvqd90","pricing_plan_id":"free"},{"bike_id":"969f551f-eeaa-46a7-a414-2c0561193c66","system_id":"levelo_inurba_marseille","lat":43.28352,"lon":5.381027,"is_reserved":false,"is_disabled":false,"rental_uris":{"android":"levelo://app?vid=969f551f-eeaa-46a7-a414-2c0561193c66","ios":"levelo://app?vid=969f551f-eeaa-46a7-a414-2c0561193c66"},"vehicle_type_id":"4","last_reported":1706429332,"current_range_meters":2000,"station_id":"ce4bh412rcd13ifvqdr0","pricing_plan_id":"free"},{"bike_id":"5bfa4ac2-9603-4ea9-bd8f-9e9f40018fbe","system_id":"levelo_inurba_marseille","lat":43.284217,"lon":5.349697,"is_reserved":false,"is_disabled":false,"rental_uris":{"android":"levelo://app?vid=5bfa4ac2-9603-4ea9-bd8f-9e9f40018fbe","ios":"levelo://app?vid=5bfa4ac2-9603-4ea9-bd8f-9e9f40018fbe"},"vehicle_type_id":"4","last_reported":1706429332,"current_range_meters":18800,"station_id":"ce4bhbh2rcd13ifvqepg","pricing_plan_id":"free"},{"bike_id":"4de18cd9-ad60-4d61-924f-6142e63f1a0a","system_id":"levelo_inurba_marseille","lat":43.28422,"lon":5.34985,"is_reserved":false,"is_disabled":false,"rental_uris":{"android":"levelo://app?vid=4de18cd9-ad60-4d61-924f-6142e63f1a0a","ios":"levelo://app?vid=4de18cd9-ad60-4d61-924f-6142e63f1a0a"},"vehicle_type_id":"4","last_reported":1706429332,"current_range_meters":29600,"station_id":"ce4bhbh2rcd13ifvqepg","pricing_plan_id":"free"},{"bike_id":"07afa4d3-71d4-4c6c-ab84-e801d481ffea","system_id":"levelo_inurba_marseille","lat":43.2842,"lon":5.34986,"is_reserved":false,"is_disabled":false,"rental_uris":{"android":"levelo://app?vid=07afa4d3-71d4-4c6c-ab84-e801d481ffea","ios":"levelo://app?vid=07afa4d3-71d4-4c6c-ab84-e801d481ffea"},"vehicle_type_id":"4","last_reported":1706429332,"current_range_meters":26400,"station_id":"ce4bhbh2rcd13ifvqepg","pricing_plan_id":"free"},{"bike_id":"190f043b-27ef-4c26-adf1-e87975c28a49","system_id":"levelo_inurba_marseille","lat":43.284217,"lon":5.349697,"is_reserved":false,"is_disabled":false,"rental_uris":{"android":"levelo://app?vid=190f043b-27ef-4c26-adf1-e87975c28a49","ios":"levelo://app?vid=190f043b-27ef-4c26-adf1-e87975c28a49"},"vehicle_type_id":"4","last_reported":1706429332,"current_range_meters":29600,"station_id":"ce4bhbh2rcd13ifvqepg","pricing_plan_id":"free"},{"bike_id":"98196967-69eb-4cd3-b360-adbc5694d9b6","system_id":"levelo_inurba_marseille","lat":43.28954,"lon":5.39639,"is_reserved":false,"is_disabled":false,"rental_uris":{"android":"levelo://app?vid=98196967-69eb-4cd3-b360-adbc5694d9b6","ios":"levelo://app?vid=98196967-69eb-4cd3-b360-adbc5694d9b6"},"vehicle_type_id":"4","last_reported":1706429332,"current_range_meters":30000,"station_id":"ce4bh3h2rcd13ifvqdn0","pricing_plan_id":"free"},{"bike_id":"9c3c499f-dc58-42d6-bced-760c50755bec","system_id":"levelo_inurba_marseille","lat":43.289363,"lon":5.396322,"is_reserved":false,"is_disabled":false,"rental_uris":{"android":"levelo://app?vid=9c3c499f-dc58-42d6-bced-760c50755bec","ios":"levelo://app?vid=9c3c499f-dc58-42d6-bced-760c50755bec"},"vehicle_type_id":"4","last_reported":1706429332,"current_range_meters":26000,"station_id":"ce4bh3h2rcd13ifvqdn0","pricing_plan_id":"free"},{"bike_id":"b41bcd76-cb12-4b33-95cd-9444d1e23578","system_id":"levelo_inurba_marseille","lat":43.293556,"lon":5.401561,"is_reserved":false,"is_disabled":false,"rental_uris":{"android":"levelo://app?vid=b41bcd76-cb12-4b33-95cd-9444d1e23578","ios":"levelo://app?vid=b41bcd76-cb12-4b33-95cd-9444d1e23578"},"vehicle_type_id":"4","last_reported":1706429332,"current_range_meters":6800,"station_id":"","pricing_plan_id":"free"},{"bike_id":"36920571-c982-4ec5-9b6c-71bce1b7bdf7","system_id":"levelo_inurba_marseille","lat":43.292724,"lon":5.401131,"is_reserved":false,"is_disabled":false,"rental_uris":{"android":"levelo://app?vid=36920571-c982-4ec5-9b6c-71bce1b7bdf7","ios":"levelo://app?vid=36920571-c982-4ec5-9b6c-71bce1b7bdf7"},"vehicle_type_id":"4","last_reported":1706429332,"current_range_meters":19600,"station_id":"ce4bh312rcd13ifvqdk0","pricing_plan_id":"free"},{"bike_id":"703947fe-e861-4918-b06f-77e519821e15","system_id":"levelo_inurba_marseille","lat":43.2927,"lon":5.40117,"is_reserved":false,"is_disabled":false,"rental_uris":{"android":"levelo://app?vid=703947fe-e861-4918-b06f-77e519821e15","ios":"levelo://app?vid=703947fe-e861-4918-b06f-77e519821e15"},"vehicle_type_id":"4","last_reported":1706429332,"current_range_meters":20800,"station_id":"ce4bh312rcd13ifvqdk0","pricing_plan_id":"free"},{"bike_id":"8260046f-2529-4645-b9a6-53220628a170","system_id":"levelo_inurba_marseille","lat":43.282742,"lon":5.350729,"is_reserved":false,"is_disabled":false,"rental_uris":{"android":"levelo://app?vid=8260046f-2529-4645-b9a6-53220628a170","ios":"levelo://app?vid=8260046f-2529-4645-b9a6-53220628a170"},"vehicle_type_id":"4","last_reported":1706429332,"current_range_meters":31200,"station_id":"ce4bhbp2rcd13ifvqerg","pricing_plan_id":"free"},{"bike_id":"cb7fd5f1-c72b-4c81-a870-c56a0d2db6bc","system_id":"levelo_inurba_marseille","lat":43.28273,"lon":5.35057,"is_reserved":false,"is_disabled":false,"rental_uris":{"android":"levelo://app?vid=cb7fd5f1-c72b-4c81-a870-c56a0d2db6bc","ios":"levelo://app?vid=cb7fd5f1-c72b-4c81-a870-c56a0d2db6bc"},"vehicle_type_id":"4","last_reported":1706429332,"current_range_meters":2800,"station_id":"ce4bhbp2rcd13ifvqerg","pricing_plan_id":"free"},{"bike_id":"8dd1be73-8e71-4300-86a4-d1e4a4ec10db","system_id":"levelo_inurba_marseille","lat":43.282673,"lon":5.35072,"is_reserved":false,"is_disabled":false,"rental_uris":{"android":"levelo://app?vid=8dd1be73-8e71-4300-86a4-d1e4a4ec10db","ios":"levelo://app?vid=8dd1be73-8e71-4300-86a4-d1e4a4ec10db"},"vehicle_type_id":"4","last_reported":1706429332,"current_range_meters":0,"station_id":"ce4bhbp2rcd13ifvqerg","pricing_plan_id":"free"},{"bike_id":"dbcbdc85-7314-434b-b401-5af51a5aaa59","system_id":"levelo_inurba_marseille","lat":43.282754,"lon":5.350519,"is_reserved":false,"is_disabled":false,"rental_uris":{"android":"levelo://app?vid=dbcbdc85-7314-434b-b401-5af51a5aaa59","ios":"levelo://app?vid=dbcbdc85-7314-434b-b401-5af51a5aaa59"},"vehicle_type_id":"4","last_reported":1706429332,"current_range_meters":26400,"station_id":"ce4bhbp2rcd13ifvqerg","pricing_plan_id":"free"},{"bike_id":"a943c6f2-e628-41f0-aff9-258cc2a68e1a","system_id":"levelo_inurba_marseille","lat":43.282754,"lon":5.350519,"is_reserved":false,"is_disabled":false,"rental_uris":{"android":"levelo://app?vid=a943c6f2-e628-41f0-aff9-258cc2a68e1a","ios":"levelo://app?vid=a943c6f2-e628-41f0-aff9-258cc2a68e1a"},"vehicle_type_id":"4","last_reported":1706429332,"current_range_meters":23200,"station_id":"ce4bhbp2rcd13ifvqerg","pricing_plan_id":"free"},{"bike_id":"e7f2d7ab-e4f7-4dee-9a01-d6aec2a14127","system_id":"levelo_inurba_marseille","lat":43.282754,"lon":5.350519,"is_reserved":false,"is_disabled":false,"rental_uris":{"android":"levelo://app?vid=e7f2d7ab-e4f7-4dee-9a01-d6aec2a14127","ios":"levelo://app?vid=e7f2d7ab-e4f7-4dee-9a01-d6aec2a14127"},"vehicle_type_id":"4","last_reported":1706429332,"current_range_meters":27200,"station_id":"ce4bhbp2rcd13ifvqerg","pricing_plan_id":"free"},{"bike_id":"7d2ceae5-44cb-4d40-bf09-209268de9a57","system_id":"levelo_inurba_marseille","lat":43.28039,"lon":5.369297,"is_reserved":false,"is_disabled":false,"rental_uris":{"android":"levelo://app?vid=7d2ceae5-44cb-4d40-bf09-209268de9a57","ios":"levelo://app?vid=7d2ceae5-44cb-4d40-bf09-209268de9a57"},"vehicle_type_id":"4","last_reported":1706429332,"current_range_meters":28000,"station_id":"ce4bha12rcd13ifvqef0","pricing_plan_id":"free"},{"bike_id":"a4dee076-d77d-4907-b73b-8abb8cf21261","system_id":"levelo_inurba_marseille","lat":43.28039,"lon":5.369297,"is_reserved":false,"is_disabled":false,"rental_uris":{"android":"levelo://app?vid=a4dee076-d77d-4907-b73b-8abb8cf21261","ios":"levelo://app?vid=a4dee076-d77d-4907-b73b-8abb8cf21261"},"vehicle_type_id":"4","last_reported":1706429332,"current_range_meters":25600,"station_id":"ce4bha12rcd13ifvqef0","pricing_plan_id":"free"},{"bike_id":"5c91d4cd-cacb-4112-8e26-9288e7567cdc","system_id":"levelo_inurba_marseille","lat":43.28039,"lon":5.369297,"is_reserved":false,"is_disabled":false,"rental_uris":{"android":"levelo://app?vid=5c91d4cd-cacb-4112-8e26-9288e7567cdc","ios":"levelo://app?vid=5c91d4cd-cacb-4112-8e26-9288e7567cdc"},"vehicle_type_id":"4","last_reported":1706429332,"current_range_meters":30400,"station_id":"ce4bha12rcd13ifvqef0","pricing_plan_id":"free"},{"bike_id":"7d56b545-ea86-423c-9c7b-f611e297116c","system_id":"levelo_inurba_marseille","lat":43.280382,"lon":5.369291,"is_reserved":false,"is_disabled":false,"rental_uris":{"android":"levelo://app?vid=7d56b545-ea86-423c-9c7b-f611e297116c","ios":"levelo://app?vid=7d56b545-ea86-423c-9c7b-f611e297116c"},"vehicle_type_id":"4","last_reported":1706429332,"current_range_meters":31200,"station_id":"ce4bha12rcd13ifvqef0","pricing_plan_id":"free"},{"bike_id":"9b4a9518-965f-4ef4-bcae-b9ba5a2be020","system_id":"levelo_inurba_marseille","lat":43.280382,"lon":5.369291,"is_reserved":false,"is_disabled":false,"rental_uris":{"android":"levelo://app?vid=9b4a9518-965f-4ef4-bcae-b9ba5a2be020","ios":"levelo://app?vid=9b4a9518-965f-4ef4-bcae-b9ba5a2be020"},"vehicle_type_id":"4","last_reported":1706429332,"current_range_meters":29600,"station_id":"ce4bha12rcd13ifvqef0","pricing_plan_id":"free"},{"bike_id":"a2fd409c-99ce-4249-8d63-fdea0254a9c9","system_id":"levelo_inurba_marseille","lat":43.28039,"lon":5.369297,"is_reserved":false,"is_disabled":false,"rental_uris":{"android":"levelo://app?vid=a2fd409c-99ce-4249-8d63-fdea0254a9c9","ios":"levelo://app?vid=a2fd409c-99ce-4249-8d63-fdea0254a9c9"},"vehicle_type_id":"4","last_reported":1706429332,"current_range_meters":24000,"station_id":"ce4bha12rcd13ifvqef0","pricing_plan_id":"free"},{"bike_id":"cd69d4c5-1bb6-4c96-89b2-e235f7c4e34c","system_id":"levelo_inurba_marseille","lat":43.29041,"lon":5.399634,"is_reserved":false,"is_disabled":false,"rental_uris":{"android":"levelo://app?vid=cd69d4c5-1bb6-4c96-89b2-e235f7c4e34c","ios":"levelo://app?vid=cd69d4c5-1bb6-4c96-89b2-e235f7c4e34c"},"vehicle_type_id":"4","last_reported":1706429332,"current_range_meters":24400,"station_id":"ce4bh392rcd13ifvqdm0","pricing_plan_id":"free"},{"bike_id":"3294452e-0f26-4222-8a33-6dd1fbe3c054","system_id":"levelo_inurba_marseille","lat":43.29041,"lon":5.399634,"is_reserved":false,"is_disabled":false,"rental_uris":{"android":"levelo://app?vid=3294452e-0f26-4222-8a33-6dd1fbe3c054","ios":"levelo://app?vid=3294452e-0f26-4222-8a33-6dd1fbe3c054"},"vehicle_type_id":"4","last_reported":1706429332,"current_range_meters":6000,"station_id":"ce4bh392rcd13ifvqdm0","pricing_plan_id":"free"},{"bike_id":"9eb6a640-a2d2-4e72-a5e3-980f0c374065","system_id":"levelo_inurba_marseille","lat":43.281044,"lon":5.378308,"is_reserved":false,"is_disabled":false,"rental_uris":{"android":"levelo://app?vid=9eb6a640-a2d2-4e72-a5e3-980f0c374065","ios":"levelo://app?vid=9eb6a640-a2d2-4e72-a5e3-980f0c374065"},"vehicle_type_id":"4","last_reported":1706429332,"current_range_meters":16000,"station_id":"ce4bha12rcd13ifvqee0","pricing_plan_id":"free"},{"bike_id":"981c25a4-e192-41dc-a0f6-e62fc0686f98","system_id":"levelo_inurba_marseille","lat":43.296263,"lon":5.40601,"is_reserved":false,"is_disabled":false,"rental_uris":{"android":"levelo://app?vid=981c25a4-e192-41dc-a0f6-e62fc0686f98","ios":"levelo://app?vid=981c25a4-e192-41dc-a0f6-e62fc0686f98"},"vehicle_type_id":"4","last_reported":1706429332,"current_range_meters":24800,"station_id":"ce4bh0h2rcd13ifvqd60","pricing_plan_id":"free"},{"bike_id":"801e1043-76ab-4b1e-bddd-25df1d3c2299","system_id":"levelo_inurba_marseille","lat":43.284462,"lon":5.392121,"is_reserved":false,"is_disabled":false,"rental_uris":{"android":"levelo://app?vid=801e1043-76ab-4b1e-bddd-25df1d3c2299","ios":"levelo://app?vid=801e1043-76ab-4b1e-bddd-25df1d3c2299"},"vehicle_type_id":"4","last_reported":1706429332,"current_range_meters":31200,"station_id":"ce4bhoh2rcd13ifvqh5g","pricing_plan_id":"free"},{"bike_id":"a1b26858-20ec-4cc9-bb33-33cb12a70a54","system_id":"levelo_inurba_marseille","lat":43.284462,"lon":5.392121,"is_reserved":false,"is_disabled":false,"rental_uris":{"android":"levelo://app?vid=a1b26858-20ec-4cc9-bb33-33cb12a70a54","ios":"levelo://app?vid=a1b26858-20ec-4cc9-bb33-33cb12a70a54"},"vehicle_type_id":"4","last_reported":1706429332,"current_range_meters":24800,"station_id":"ce4bhoh2rcd13ifvqh5g","pricing_plan_id":"free"},{"bike_id":"85283570-766e-4f09-b6d7-924805593782","system_id":"levelo_inurba_marseille","lat":43.284462,"lon":5.392121,"is_reserved":false,"is_disabled":false,"rental_uris":{"android":"levelo://app?vid=85283570-766e-4f09-b6d7-924805593782","ios":"levelo://app?vid=85283570-766e-4f09-b6d7-924805593782"},"vehicle_type_id":"4","last_reported":1706429332,"current_range_meters":24800,"station_id":"ce4bhoh2rcd13ifvqh5g","pricing_plan_id":"free"},{"bike_id":"ebd50005-3faa-4b4c-bc65-0c0a5a2afc4f","system_id":"levelo_inurba_marseille","lat":43.28573,"lon":5.394992,"is_reserved":false,"is_disabled":false,"rental_uris":{"android":"levelo://app?vid=ebd50005-3faa-4b4c-bc65-0c0a5a2afc4f","ios":"levelo://app?vid=ebd50005-3faa-4b4c-bc65-0c0a5a2afc4f"},"vehicle_type_id":"4","last_reported":1706429332,"current_range_meters":30000,"station_id":"ce4bh292rcd13ifvqdg0","pricing_plan_id":"free"},{"bike_id":"046406e2-3124-4f65-a46c-e831ec439c33","system_id":"levelo_inurba_marseille","lat":43.326605,"lon":5.409903,"is_reserved":false,"is_disabled":false,"rental_uris":{"android":"levelo://app?vid=046406e2-3124-4f65-a46c-e831ec439c33","ios":"levelo://app?vid=046406e2-3124-4f65-a46c-e831ec439c33"},"vehicle_type_id":"4","last_reported":1706429332,"current_range_meters":30400,"station_id":"ce4bhpp2rcd13ifvqhgg","pricing_plan_id":"free"},