{"last_updated":1706997963,"ttl":30,"version":"2.2","data":{"bikes":[{"bike_id":"7c61b6ce-26fb-4d2e-951a-129c58c3dc01","system_id":"levelo_inurba_marseille","lat":43.312239,"lon":5.368562,"is_reserved":false,"is_disabled":false,"rental_uris":{"android":"levelo://app?vid=7c61b6ce-26fb-4d2e-951a-129c58c3dc01","ios":"levelo://app?vid=7c61b6ce-26fb-4d2e-951a-129c58c3dc01"},"vehicle_type_id":"4","last_reported":1706997963,"current_range_meters":20000,"station_id":"ce4bgl92rcd13ifvqbq0","pricing_plan_id":"free"},{"bike_id":"794088ab-8086-468a-a2b0-aee0e14e1ec2","system_id":"levelo_inurba_marseille","lat":43.312239,"lon":5.368562,"is_reserved":false,"is_disabled":false,"rental_uris":{"android":"levelo://app?vid=794088ab-8086-468a-a2b0-aee0e14e1ec2","ios":"levelo://app?vid=794088ab-8086-468a-a2b0-aee0e14e1ec2"},"vehicle_type_id":"4","last_reported":1706997963,"current_range_meters":20000,"station_id":"ce4bgl92rcd13ifvqbq0","pricing_plan_id":"free"},{"bike_id":"7e0a838d-7791-457e-86d0-530999bbeddc","system_id":"levelo_inurba_marseille","lat":43.312239,"lon":5.368562,"is_reserved":false,"is_disabled":false,"rental_uris":{"android":"levelo://app?vid=7e0a838d-7791-457e-86d0-530999bbeddc","ios":"levelo://app?vid=7e0a838d-7791-457e-86d0-530999bbeddc"},"vehicle_type_id":"4","last_reported":1706997963,"current_range_meters":28800,"station_id":"ce4bgl92rcd13ifvqbq0","pricing_plan_id":"free"},{"bike_id":"0a862f90-63a5-4135-9642-e6ec439f385e","system_id":"levelo_inurba_marseille","lat":43.312239,"lon":5.368562,"is_reserved":false,"is_disabled":false,"rental_uris":{"android":"levelo://app?vid=0a862f90-63a5-4135-9642-e6ec439f385e","ios":"levelo://app?vid=0a862f90-63a5-4135-9642-e6ec439f385e"},"vehicle_type_id":"4","last_reported":1706997963,"current_range_meters":27200,"station_id":"ce4bgl92rcd13ifvqbq0","pricing_plan_id":"free"},{"bike_id":"a45ccb6e-14a8-4551-83c0-4546ad45f174","system_id":"levelo_inurba_marseille","lat":43.312239,"lon":5.368562,"is_reserved":false,"is_disabled":false,"rental_uris":{"android":"levelo://app?vid=a45ccb6e-14a8-4551-83c0-4546ad45f174","ios":"levelo://app?vid=a45ccb6e-14a8-4551-83c0-4546ad45f174"},"vehicle_type_id":"4","last_reported":1706997963,"current_range_meters":22400,"station_id":"ce4bgl92rcd13ifvqbq0","pricing_plan_id":"free"},{"bike_id":"4873aa38-1e51-4e14-a232-e664926ce1b8","system_id":"levelo_inurba_marseille","lat":43.31226,"lon":5.36852,"is_reserved":false,"is_disabled":false,"rental_uris":{"android":"levelo://app?vid=4873aa38-1e51-4e14-a232-e664926ce1b8","ios":"levelo://app?vid=4873aa38-1e51-4e14-a232-e664926ce1b8"},"vehicle_type_id":"4","last_reported":1706997963,"current_range_meters":12000,"station_id":"ce4bgl92rcd13ifvqbq0","pricing_plan_id":"free"},{"bike_id":"d95e2387-434c-4b69-8908-9707087feaf0","system_id":"levelo_inurba_marseille","lat":43.312239,"lon":5.368562,"is_reserved":false,"is_disabled":false,"rental_uris":{"android":"levelo://app?vid=d95e2387-434c-4b69-8908-9707087feaf0","ios":"levelo://app?vid=d95e2387-434c-4b69-8908-9707087feaf0"},"vehicle_type_id":"4","last_reported":1706997963,"current_range_meters":2000,"station_id":"ce4bgl92rcd13ifvqbq0","pricing_plan_id":"free"},{"bike_id":"d7913f23-c50f-4172-ac30-15c1c1e3d61d","system_id":"levelo_inurba_marseille","lat":43.312239,"lon":5.368562,"is_reserved":false,"is_disabled":false,"rental_uris":{"android":"levelo://app?vid=d7913f23-c50f-4172-ac30-15c1c1e3d61d","ios":"levelo://app?vid=d7913f23-c50f-4172-ac30-15c1c1e3d61d"},"vehicle_type_id":"4","last_reported":1706997963,"current_range_meters":5200,"station_id":"ce4bgl92rcd13ifvqbq0","pricing_plan_id":"free"},{"bike_id":"3eaf1c73-7384-4ba4-8c3f-36e876a517b8","system_id":"levelo_inurba_marseille","lat":43.309076,"lon":5.368465,"is_reserved":false,"is_disabled":false,"rental_uris":{"android":"levelo://app?vid=3eaf1c73-7384-4ba4-8c3f-36e876a517b8","ios":"levelo://app?vid=3eaf1c73-7384-4ba4-8c3f-36e876a517b8"},"vehicle_type_id":"4","last_reported":1706997963,"current_range_meters":0,"station_id":"ce4bgn92rcd13ifvqbvg","pricing_plan_id":"free"},{"bike_id":"d2be7cfc-cbe4-40df-b202-480ca2ed1165","system_id":"levelo_inurba_marseille","lat":43.314811,"lon":5.373103,"is_reserved":false,"is_disabled":false,"rental_uris":{"android":"levelo://app?vid=d2be7cfc-cbe4-40df-b202-480ca2ed1165","ios":"levelo://app?vid=d2be7cfc-cbe4-40df-b202-480ca2ed1165"},"vehicle_type_id":"4","last_reported":1706997963,"current_range_meters":24000,"station_id":"ce4bgt12rcd13ifvqcd0","pricing_plan_id":"free"},{"bike_id":"f63bbaee-83e5-4568-a683-9a95c013eb55","system_id":"levelo_inurba_marseille","lat":43.314811,"lon":5.373104,"is_reserved":false,"is_disabled":false,"rental_uris":{"android":"levelo://app?vid=f63bbaee-83e5-4568-a683-9a95c013eb55","ios":"levelo://app?vid=f63bbaee-83e5-4568-a683-9a95c013eb55"},"vehicle_type_id":"4","last_reported":1706997963,"current_range_meters":8800,"station_id":"ce4bgt12rcd13ifvqcd0","pricing_plan_id":"free"},{"bike_id":"5e22cb5d-f475-4791-8b93-155199aa939f","system_id":"levelo_inurba_marseille","lat":43.314811,"lon":5.373104,"is_reserved":false,"is_disabled":false,"rental_uris":{"android":"levelo://app?vid=5e22cb5d-f475-4791-8b93-155199aa939f","ios":"levelo://app?vid=5e22cb5d-f475-4791-8b93-155199aa939f"},"vehicle_type_id":"4","last_reported":1706997963,"current_range_meters":14000,"station_id":"ce4bgt12rcd13ifvqcd0","pricing_plan_id":"free"},{"bike_id":"217ff296-865e-4220-8081-9c4be12fc8e6","system_id":"levelo_inurba_marseille","lat":43.30537,"lon":5.367345,"is_reserved":false,"is_disabled":false,"rental_uris":{"android":"levelo://app?vid=217ff296-865e-4220-8081-9c4be12fc8e6","ios":"levelo://app?vid=217ff296-865e-4220-8081-9c4be12fc8e6"},"vehicle_type_id":"4","last_reported":1706997963,"current_range_meters":6800,"station_id":"ce4bgrp2rcd13ifvqc9g","pricing_plan_id":"free"},{"bike_id":"61530c91-0053-4aae-9ed1-6d7f39301cc9","system_id":"levelo_inurba_marseille","lat":43.305368,"lon":5.367343,"is_reserved":false,"is_disabled":false,"rental_uris":{"android":"levelo://app?vid=61530c91-0053-4aae-9ed1-6d7f39301cc9","ios":"levelo://app?vid=61530c91-0053-4aae-9ed1-6d7f39301cc9"},"vehicle_type_id":"4","last_reported":1706997963,"current_range_meters":1200,"station_id":"ce4bgrp2rcd13ifvqc9g","pricing_plan_id":"free"},{"bike_id":"0a753191-8850-4ae6-b333-5199e5a4b05d","system_id":"levelo_inurba_marseille","lat":43.305712,"lon":5.365641,"is_reserved":false,"is_disabled":false,"rental_uris":{"android":"levelo://app?vid=0a753191-8850-4ae6-b333-5199e5a4b05d","ios":"levelo://app?vid=0a753191-8850-4ae6-b333-5199e5a4b05d"},"vehicle_type_id":"4","last_reported":1706997963,"current_range_meters":400,"station_id":"ce4bgs12rcd13ifvqcag","pricing_plan_id":"free"},{"bike_id":"68725e12-6819-4f27-b1b5-57ca42ff8d09","system_id":"levelo_inurba_marseille","lat":43.305712,"lon":5.365641,"is_reserved":false,"is_disabled":false,"rental_uris":{"android":"levelo://app?vid=68725e12-6819-4f27-b1b5-57ca42ff8d09","ios":"levelo://app?vid=68725e12-6819-4f27-b1b5-57ca42ff8d09"},"vehicle_type_id":"4","last_reported":1706997963,"current_range_meters":2400,"station_id":"ce4bgs12rcd13ifvqcag","pricing_plan_id":"free"},{"bike_id":"d411d7d3-b2d2-4790-82d0-ec8f67b1a98b","system_id":"levelo_inurba_marseille","lat":43.305368,"lon":5.367343,"is_reserved":false,"is_disabled":false,"rental_uris":{"android":"levelo://app?vid=d411d7d3-b2d2-4790-82d0-ec8f67b1a98b","ios":"levelo://app?vid=d411d7d3-b2d2-4790-82d0-ec8f67b1a98b"},"vehicle_type_id":"4","last_reported":1706997963,"current_range_meters":23600,"station_id":"ce4bgrp2rcd13ifvqc9g","pricing_plan_id":"free"},{"bike_id":"b9276786-ce20-402b-9a54-e69e0dd37b93","system_id":"levelo_inurba_marseille","lat":43.30537,"lon":5.367345,"is_reserved":false,"is_disabled":false,"rental_uris":{"android":"levelo://app?vid=b9276786-ce20-402b-9a54-e69e0dd37b93","ios":"levelo://app?vid=b9276786-ce20-402b-9a54-e69e0dd37b93"},"vehicle_type_id":"4","last_reported":1706997963,"current_range_meters":3200,"station_id":"ce4bgrp2rcd13ifvqc9g","pricing_plan_id":"free"},{"bike_id":"d63907d1-0397-4c16-a8f6-cae2b7e26716","system_id":"levelo_inurba_marseille","lat":43.305706,"lon":5.365654,"is_reserved":false,"is_disabled":false,"rental_uris":{"android":"levelo://app?vid=d63907d1-0397-4c16-a8f6-cae2b7e26716","ios":"levelo://app?vid=d63907d1-0397-4c16-a8f6-cae2b7e26716"},"vehicle_type_id":"4","last_reported":1706997963,"current_range_meters":30400,"station_id":"ce4bgs12rcd13ifvqcag","pricing_plan_id":"free"},{"bike_id":"c10c6754-bcff-411c-b800-a7c2f74bccc7","system_id":"levelo_inurba_marseille","lat":43.305989,"lon":5.37225,"is_reserved":false,"is_disabled":false,"rental_uris":{"android":"levelo://app?vid=c10c6754-bcff-411c-b800-a7c2f74bccc7","ios":"levelo://app?vid=c10c6754-bcff-411c-b800-a7c2f74bccc7"},"vehicle_type_id":"4","last_reported":1706997963,"current_range_meters":29200,"station_id":"ce4bgqh2rcd13ifvqc4g","pricing_plan_id":"free"},{"bike_id":"c1b194bc-d597-4a1e-9e03-ca63c6b8e4cc","system_id":"levelo_inurba_marseille","lat":43.30595,"lon":5.37212,"is_reserved":false,"is_disabled":false,"rental_uris":{"android":"levelo://app?vid=c1b194bc-d597-4a1e-9e03-ca63c6b8e4cc","ios":"levelo://app?vid=c1b194bc-d597-4a1e-9e03-ca63c6b8e4cc"},"vehicle_type_id":"4","last_reported":1706997963,"current_range_meters":0,"station_id":"ce4bgqh2rcd13ifvqc4g","pricing_plan_id":"free"},{"bike_id":"9f8f8c4c-ba49-4e33-b8a5-887f32b8a5e2","system_id":"levelo_inurba_marseille","lat":43.311131,"lon":5.377651,"is_reserved":false,"is_disabled":false,"rental_uris":{"android":"levelo://app?vid=9f8f8c4c-ba49-4e33-b8a5-887f32b8a5e2","ios":"levelo://app?vid=9f8f8c4c-ba49-4e33-b8a5-887f32b8a5e2"},"vehicle_type_id":"4","last_reported":1706997963,"current_range_meters":0,"station_id":"ce4bgt92rcd13ifvqcg0","pricing_plan_id":"free"},{"bike_id":"923dae49-7366-4091-81d1-01fd642e6bef","system_id":"levelo_inurba_marseille","lat":43.311131,"lon":5.377651,"is_reserved":false,"is_disabled":false,"rental_uris":{"android":"levelo://app?vid=923dae49-7366-4091-81d1-01fd642e6bef","ios":"levelo://app?vid=923dae49-7366-4091-81d1-01fd642e6bef"},"vehicle_type_id":"4","last_reported":1706997963,"current_range_meters":12400,"station_id":"ce4bgt92rcd13ifvqcg0","pricing_plan_id":"free"},{"bike_id":"5b1a5c18-bb7b-4173-a5ef-a952504b3a24","system_id":"levelo_inurba_marseille","lat":43.307945,"lon":5.376487,"is_reserved":false,"is_disabled":false,"rental_uris":{"android":"levelo://app?vid=5b1a5c18-bb7b-4173-a5ef-a952504b3a24","ios":"levelo://app?vid=5b1a5c18-bb7b-4173-a5ef-a952504b3a24"},"vehicle_type_id":"4","last_reported":1706997963,"current_range_meters":4000,"station_id":"ce4bgv92rcd13ifvqcq0","pricing_plan_id":"free"},{"bike_id":"4ef6d16a-0b3e-4b3c-8c9e-4f71a768c811","system_id":"levelo_inurba_marseille","lat":43.307945,"lon":5.376487,"is_reserved":false,"is_disabled":false,"rental_uris":{"android":"levelo://app?vid=4ef6d16a-0b3e-4b3c-8c9e-4f71a768c811","ios":"levelo://app?vid=4ef6d16a-0b3e-4b3c-8c9e-4f71a768c811"},"vehicle_type_id":"4","last_reported":1706997963,"current_range_meters":28000,"station_id":"ce4bgv92rcd13ifvqcq0","pricing_plan_id":"free"},{"bike_id":"1bb385ed-7288-49d1-ae9d-c67c55d42f5b","system_id":"levelo_inurba_marseille","lat":43.307945,"lon":5.376487,"is_reserved":false,"is_disabled":false,"rental_uris":{"android":"levelo://app?vid=1bb385ed-7288-49d1-ae9d-c67c55d42f5b","ios":"levelo://app?vid=1bb385ed-7288-49d1-ae9d-c67c55d42f5b"},"vehicle_type_id":"4","last_reported":1706997963,"current_range_meters":20400,"station_id":"ce4bgv92rcd13ifvqcq0","pricing_plan_id":"free"},{"bike_id":"dd568113-7769-4776-9bbd-935605093b73","system_id":"levelo_inurba_marseille","lat":43.30782,"lon":5.37652,"is_reserved":false,"is_disabled":false,"rental_uris":{"android":"levelo://app?vid=dd568113-7769-4776-9bbd-935605093b73","ios":"levelo://app?vid=dd568113-7769-4776-9bbd-935605093b73"},"vehicle_type_id":"4","last_reported":1706997963,"current_range_meters":4000,"station_id":"ce4bgv92rcd13ifvqcq0","pricing_plan_id":"free"},{"bike_id":"5350492e-9a31-4cc2-9dd3-24bb9c6e20c8","system_id":"levelo_inurba_marseille","lat":43.316964,"lon":5.37752,"is_reserved":false,"is_disabled":false,"rental_uris":{"android":"levelo://app?vid=5350492e-9a31-4cc2-9dd3-24bb9c6e20c8","ios":"levelo://app?vid=5350492e-9a31-4cc2-9dd3-24bb9c6e20c8"},"vehicle_type_id":"4","last_reported":1706997963,"current_range_meters":0,"station_id":"ce4bgth2rcd13ifvqch0","pricing_plan_id":"free"},{"bike_id":"7990937b-7025-4041-ae07-d0d631c4b855","system_id":"levelo_inurba_marseille","lat":43.317096,"lon":5.37743,"is_reserved":false,"is_disabled":false,"rental_uris":{"android":"levelo://app?vid=7990937b-7025-4041-ae07-d0d631c4b855","ios":"levelo://app?vid=7990937b-7025-4041-ae07-d0d631c4b855"},"vehicle_type_id":"4","last_reported":1706997963,"current_range_meters":0,"station_id":"ce4bgth2rcd13ifvqch0","pricing_plan_id":"free"},{"bike_id":"99bfa85a-611a-4927-a3f1-11966d02b1be","system_id":"levelo_inurba_marseille","lat":43.317075,"lon":5.377367,"is_reserved":false,"is_disabled":false,"rental_uris":{"android":"levelo://app?vid=99bfa85a-611a-4927-a3f1-11966d02b1be","ios":"levelo://app?vid=99bfa85a-611a-4927-a3f1-11966d02b1be"},"vehicle_type_id":"4","last_reported":1706997963,"current_range_meters":22000,"station_id":"ce4bgth2rcd13ifvqch0","pricing_plan_id":"free"},{"bike_id":"830bf01c-f742-40ba-a825-a8e35c30e090","system_id":"levelo_inurba_marseille","lat":43.30304,"lon":5.368987,"is_reserved":false,"is_disabled":false,"rental_uris":{"android":"levelo://app?vid=830bf01c-f742-40ba-a825-a8e35c30e090","ios":"levelo://app?vid=830bf01c-f742-40ba-a825-a8e35c30e090"},"vehicle_type_id":"4","last_reported":1706997963,"current_range_meters":14800,"station_id":"ce4bgqh2rcd13ifvqc5g","pricing_plan_id":"free"},{"bike_id":"d26371b5-2ae4-44cc-9101-a1b52894f775","system_id":"levelo_inurba_marseille","lat":43.30304,"lon":5.368987,"is_reserved":false,"is_disabled":false,"rental_uris":{"android":"levelo://app?vid=d26371b5-2ae4-44cc-9101-a1b52894f775","ios":"levelo://app?vid=d26371b5-2ae4-44cc-9101-a1b52894f775"},"vehicle_type_id":"4","last_reported":1706997963,"current_range_meters":15600,"station_id":"ce4bgqh2rcd13ifvqc5g","pricing_plan_id":"free"},{"bike_id":"b3fdee80-37a0-47bb-b8ca-a3c133c6ab3b","system_id":"levelo_inurba_marseille","lat":43.30304,"lon":5.368987,"is_reserved":false,"is_disabled":false,"rental_uris":{"android":"levelo://app?vid=b3fdee80-37a0-47bb-b8ca-a3c133c6ab3b","ios":"levelo://app?vid=b3fdee80-37a0-47bb-b8ca-a3c133c6ab3b"},"vehicle_type_id":"4","last_reported":1706997963,"current_range_meters":14000,"station_id":"ce4bgqh2rcd13ifvqc5g","pricing_plan_id":"free"},{"bike_id":"adcad12f-a841-49e7-8325-aefff59fe17a","system_id":"levelo_inurba_marseille","lat":43.315293,"lon":5.380349,"is_reserved":false,"is_disabled":false,"rental_uris":{"android":"levelo://app?vid=adcad12f-a841-49e7-8325-aefff59fe17a","ios":"levelo://app?vid=adcad12f-a841-49e7-8325-aefff59fe17a"},"vehicle_type_id":"4","last_reported":1706997963,"current_range_meters":23600,"station_id":"ce4bhsp2rcd13ifvqi50","pricing_plan_id":"free"},{"bike_id":"e1d71705-c7b3-46f2-8728-10e9a8b57101","system_id":"levelo_inurba_marseille","lat":43.30198,"lon":5.36624,"is_reserved":false,"is_disabled":false,"rental_uris":{"android":"levelo://app?vid=e1d71705-c7b3-46f2-8728-10e9a8b57101","ios":"levelo://app?vid=e1d71705-c7b3-46f2-8728-10e9a8b57101"},"vehicle_type_id":"4","last_reported":1706997963,"current_range_meters":5600,"station_id":"ce4bgrh2rcd13ifvqc8g","pricing_plan_id":"free"},{"bike_id":"4e849d44-950a-4b2c-8153-b70003171aba","system_id":"levelo_inurba_marseille","lat":43.30198,"lon":5.36618,"is_reserved":false,"is_disabled":false,"rental_uris":{"android":"levelo://app?vid=4e849d44-950a-4b2c-8153-b70003171aba","ios":"levelo://app?vid=4e849d44-950a-4b2c-8153-b70003171aba"},"vehicle_type_id":"4","last_reported":1706997963,"current_range_meters":12000,"station_id":"ce4bgrh2rcd13ifvqc8g","pricing_plan_id":"free"},{"bike_id":"60f2122f-510e-41c0-b632-b1e3ca9d2267","system_id":"levelo_inurba_marseille","lat":43.301935,"lon":5.366143,"is_reserved":false,"is_disabled":false,"rental_uris":{"android":"levelo://app?vid=60f2122f-510e-41c0-b632-b1e3ca9d2267","ios":"levelo://app?vid=60f2122f-510e-41c0-b632-b1e3ca9d2267"},"vehicle_type_id":"4","last_reported":1706997963,"current_range_meters":7200,"station_id":"ce4bgrh2rcd13ifvqc8g","pricing_plan_id":"free"},{"bike_id":"735c50ad-d80a-4ca6-88c3-abdb3c3fced6","system_id":"levelo_inurba_marseille","lat":43.301939,"lon":5.366286,"is_reserved":false,"is_disabled":false,"rental_uris":{"android":"levelo://app?vid=735c50ad-d80a-4ca6-88c3-abdb3c3fced6","ios":"levelo://app?vid=735c50ad-d80a-4ca6-88c3-abdb3c3fced6"},"vehicle_type_id":"4","last_reported":1706997963,"current_range_meters":6400,"station_id":"ce4bgrh2rcd13ifvqc8g","pricing_plan_id":"free"},{"bike_id":"85b3887b-a606-409c-a4e1-4b7556ee044e","system_id":"levelo_inurba_marseille","lat":43.301939,"lon":5.366286,"is_reserved":false,"is_disabled":false,"rental_uris":{"android":"levelo://app?vid=85b3887b-a606-409c-a4e1-4b7556ee044e","ios":"levelo://app?vid=85b3887b-a606-409c-a4e1-4b7556ee044e"},"vehicle_type_id":"4","last_reported":1706997963,"current_range_meters":32000,"station_id":"ce4bgrh2rcd13ifvqc8g","pricing_plan_id":"free"},{"bike_id":"4e3d8c90-d2d2-4908-a171-3f808b75e843","system_id":"levelo_inurba_marseille","lat":43.301939,"lon":5.366286,"is_reserved":false,"is_disabled":false,"rental_uris":{"android":"levelo://app?vid=4e3d8c90-d2d2-4908-a171-3f808b75e843","ios":"levelo://app?vid=4e3d8c90-d2d2-4908-a171-3f808b75e843"},"vehicle_type_id":"4","last_reported":1706997963,"current_range_meters":31200,"station_id":"ce4bgrh2rcd13ifvqc8g","pricing_plan_id":"free"},{"bike_id":"532654a0-4b95-48cc-b919-8bc35c0e2009","system_id":"levelo_inurba_marseille","lat":43.301833,"lon":5.366302,"is_reserved":false,"is_disabled":false,"rental_uris":{"android":"levelo://app?vid=532654a0-4b95-48cc-b919-8bc35c0e2009","ios":"levelo://app?vid=532654a0-4b95-48cc-b919-8bc35c0e2009"},"vehicle_type_id":"4","last_reported":1706997963,"current_range_meters":31200,"station_id":"ce4bgrh2rcd13ifvqc8g","pricing_plan_id":"free"},{"bike_id":"3afd96f5-310f-4873-bc5f-83651d54c8df","system_id":"levelo_inurba_marseille","lat":43.32481,"lon":5.36571,"is_reserved":false,"is_disabled":false,"rental_uris":{"android":"levelo://app?vid=3afd96f5-310f-4873-bc5f-83651d54c8df","ios":"levelo://app?vid=3afd96f5-310f-4873-bc5f-83651d54c8df"},"vehicle_type_id":"4","last_reported":1706997963,"current_range_meters":20000,"station_id":"ce4bhs12rcd13ifvqhvg","pricing_plan_id":"free"},{"bike_id":"e3d3782c-aad7-4ee4-839c-29342838b574","system_id":"levelo_inurba_marseille","lat":43.324771,"lon":5.36557,"is_reserved":false,"is_disabled":false,"rental_uris":{"android":"levelo://app?vid=e3d3782c-aad7-4ee4-839c-29342838b574","ios":"levelo://app?vid=e3d3782c-aad7-4ee4-839c-29342838b574"},"vehicle_type_id":"4","last_reported":1706997963,"current_range_meters":14800,"station_id":"ce4bhs12rcd13ifvqhvg","pricing_plan_id":"free"},{"bike_id":"62d73b02-0263-4d82-b3a3-8cd251bf0bf4","system_id":"levelo_inurba_marseille","lat":43.310777,"lon":5.38367,"is_reserved":false,"is_disabled":false,"rental_uris":{"android":"levelo://app?vid=62d73b02-0263-4d82-b3a3-8cd251bf0bf4","ios":"levelo://app?vid=62d73b02-0263-4d82-b3a3-8cd251bf0bf4"},"vehicle_type_id":"4","last_reported":1706997963,"current_range_meters":0,"station_id":"ce4bgv92rcd13ifvqcr0","pricing_plan_id":"free"},{"bike_id":"317a8cc9-23f4-46d6-952a-c47f561349d0","system_id":"levelo_inurba_marseille","lat":43.301429,"lon":5.37413,"is_reserved":false,"is_disabled":false,"rental_uris":{"android":"levelo://app?vid=317a8cc9-23f4-46d6-952a-c47f561349d0","ios":"levelo://app?vid=317a8cc9-23f4-46d6-952a-c47f561349d0"},"vehicle_type_id":"4","last_reported":1706997963,"current_range_meters":19200,"station_id":"ce4bgs92rcd13ifvqcc0","pricing_plan_id":"free"},{"bike_id":"8a01fddf-0069-40ff-ae8a-c7aa897218e9","system_id":"levelo_inurba_marseille","lat":43.30143,"lon":5.37413,"is_reserved":false,"is_disabled":false,"rental_uris":{"android":"levelo://app?vid=8a01fddf-0069-40ff-ae8a-c7aa897218e9","ios":"levelo://app?vid=8a01fddf-0069-40ff-ae8a-c7aa897218e9"},"vehicle_type_id":"4","last_reported":1706997963,"current_range_meters":9200,"station_id":"ce4bgs92rcd13ifvqcc0","pricing_plan_id":"free"},{"bike_id":"58f6962a-4afe-4053-b5a4-f736e3070019","system_id":"levelo_inurba_marseille","lat":43.301429,"lon":5.37413,"is_reserved":false,"is_disabled":false,"rental_uris":{"android":"levelo://app?vid=58f6962a-4afe-4053-b5a4-f736e3070019","ios":"levelo://app?vid=58f6962a-4afe-4053-b5a4-f736e3070019"},"vehicle_type_id":"4","last_reported":1706997963,"current_range_meters":26800,"station_id":"ce4bgs92rcd13ifvqcc0","pricing_plan_id":"free"},{"bike_id":"3c58f41d-9a7a-4d49-8cec-b2ba77af198c","system_id":"levelo_inurba_marseille","lat":43.319935,"lon":5.381699,"is_reserved":false,"is_disabled":false,"rental_uris":{"android":"levelo://app?vid=3c58f41d-9a7a-4d49-8cec-b2ba77af198c","ios":"levelo://app?vid=3c58f41d-9a7a-4d49-8cec-b2ba77af198c"},"vehicle_type_id":"4","last_reported":1706997963,"current_range_meters":0,"station_id":"ce4bhr12rcd13ifvqhpg","pricing_plan_id":"free"},{"bike_id":"14ef27a6-2e11-4a1f-b9a3-821757228cf4","system_id":"levelo_inurba_marseille","lat":43.319935,"lon":5.381699,"is_reserved":false,"is_disabled":false,"rental_uris":{"android":"levelo://app?vid=14ef27a6-2e11-4a1f-b9a3-821757228cf4","ios":"levelo://app?vid=14ef27a6-2e11-4a1f-b9a3-821757228cf4"},"vehicle_type_id":"4","last_reported":1706997963,"current_range_meters":22000,"station_id":"ce4bhr12rcd13ifvqhpg","pricing_plan_id":"free"},{"bike_id":"245843ad-bfeb-465e-a2d5-e97ffa7d3f53","system_id":"levelo_inurba_marseille","lat":43.31369,"lon":5.3847,"is_reserved":false,"is_disabled":false,"rental_uris":{"android":"levelo://app?vid=245843ad-bfeb-465e-a2d5-e97ffa7d3f53","ios":"levelo://app?vid=245843ad-bfeb-465e-a2d5-e97ffa7d3f53"},"vehicle_type_id":"4","last_reported":1706997963,"current_range_meters":28000,"station_id":"ce4bgt92rcd13ifvqcf0","pricing_plan_id":"free"},{"bike_id":"1d6a0107-7b00-4866-b540-38c194d7fa02","system_id":"levelo_inurba_marseille","lat":43.313571,"lon":5.384829,"is_reserved":false,"is_disabled":false,"rental_uris":{"android":"levelo://app?vid=1d6a0107-7b00-4866-b540-38c194d7fa02","ios":"levelo://app?vid=1d6a0107-7b00-4866-b540-38c194d7fa02"},"vehicle_type_id":"4","last_reported":1706997963,"current_range_meters":17200,"station_id":"ce4bgt92rcd13ifvqcf0","pricing_plan_id":"free"},{"bike_id":"a5a725cd-a67b-4628-9ca8-9e294bd635a7","system_id":"levelo_inurba_marseille","lat":43.313571,"lon":5.384829,"is_reserved":false,"is_disabled":false,"rental_uris":{"android":"levelo://app?vid=a5a725cd-a67b-4628-9ca8-9e294bd635a7","ios":"levelo://app?vid=a5a725cd-a67b-4628-9ca8-9e294bd635a7"},"vehicle_type_id":"4","last_reported":1706997963,"current_range_meters":7200,"station_id":"ce4bgt92rcd13ifvqcf0","pricing_plan_id":"free"},{"bike_id":"04d8e762-018f-47f4-8c0f-b4d5f83477bf","system_id":"levelo_inurba_marseille","lat":43.313571,"lon":5.384829,"is_reserved":false,"is_disabled":false,"rental_uris":{"android":"levelo://app?vid=04d8e762-018f-47f4-8c0f-b4d5f83477bf","ios":"levelo://app?vid=04d8e762-018f-47f4-8c0f-b4d5f83477bf"},"vehicle_type_id":"4","last_reported":1706997963,"current_range_meters":17200,"station_id":"ce4bgt92rcd13ifvqcf0","pricing_plan_id":"free"},{"bike_id":"06391db0-a60a-4b0d-b11f-b43df45ffd73","system_id":"levelo_inurba_marseille","lat":43.313571,"lon":5.384829,"is_reserved":false,"is_disabled":false,"rental_uris":{"android":"levelo://app?vid=06391db0-a60a-4b0d-b11f-b43df45ffd73","ios":"levelo://app?vid=06391db0-a60a-4b0d-b11f-b43df45ffd73"},"vehicle_type_id":"4","last_reported":1706997963,"current_range_meters":10000,"station_id":"ce4bgt92rcd13ifvqcf0","pricing_plan_id":"free"},{"bike_id":"661461d7-eb6d-45a0-a026-7ec1903cd028","system_id":"levelo_inurba_marseille","lat":43.313571,"lon":5.384829,"is_reserved":false,"is_disabled":false,"rental_uris":{"android":"levelo://app?vid=661461d7-eb6d-45a0-a026-7ec1903cd028","ios":"levelo://app?vid=661461d7-eb6d-45a0-a026-7ec1903cd028"},"vehicle_type_id":"4","last_reported":1706997963,"current_range_meters":31200,"station_id":"ce4bgt92rcd13ifvqcf0","pricing_plan_id":"free"},{"bike_id":"66db58e9-b0d4-4e9d-9cd1-c80ea0c7f267","system_id":"levelo_inurba_marseille","lat":43.31371,"lon":5.38492,"is_reserved":false,"is_disabled":false,"rental_uris":{"android":"levelo://app?vid=66db58e9-b0d4-4e9d-9cd1-c80ea0c7f267","ios":"levelo://app?vid=66db58e9-b0d4-4e9d-9cd1-c80ea0c7f267"},"vehicle_type_id":"4","last_reported":1706997963,"current_range_meters":19200,"station_id":"ce4bgt92rcd13ifvqcf0","pricing_plan_id":"free"},{"bike_id":"ca0c5030-70d0-43db-aed9-13e4b8bf6323","system_id":"levelo_inurba_marseille","lat":43.313571,"lon":5.384829,"is_reserved":false,"is_disabled":false,"rental_uris":{"android":"levelo://app?vid=ca0c5030-70d0-43db-aed9-13e4b8bf6323","ios":"levelo://app?vid=ca0c5030-70d0-43db-aed9-13e4b8bf6323"},"vehicle_type_id":"4","last_reported":1706997963,"current_range_meters":19600,"station_id":"ce4bgt92rcd13ifvqcf0","pricing_plan_id":"free"},{"bike_id":"93d50297-eef9-4bd2-94f7-0f2a07284133","system_id":"levelo_inurba_marseille","lat":43.299222,"lon":5.365554,"is_reserved":false,"is_disabled":false,"rental_uris":{"android":"levelo://app?vid=93d50297-eef9-4bd2-94f7-0f2a07284133","ios":"levelo://app?vid=93d50297-eef9-4bd2-94f7-0f2a07284133"},"vehicle_type_id":"4","last_reported":1706997963,"current_range_meters":6000,"station_id":"ce4bgm92rcd13ifvqbr0","pricing_plan_id":"free"},{"bike_id":"4328fd2d-9c51-4873-9650-e98bccac7e18","system_id":"levelo_inurba_marseille","lat":43.299222,"lon":5.365554,"is_reserved":false,"is_disabled":false,"rental_uris":{"android":"levelo://app?vid=4328fd2d-9c51-4873-9650-e98bccac7e18","ios":"levelo://app?vid=4328fd2d-9c51-4873-9650-e98bccac7e18"},"vehicle_type_id":"4","last_reported":1706997963,"current_range_meters":14800,"station_id":"ce4bgm92rcd13ifvqbr0","pricing_plan_id":"free"},{"bike_id":"eccf5b58-ac35-4f1a-a04c-4543d1febf39","system_id":"levelo_inurba_marseille","lat":43.305364,"lon":5.384119,"is_reserved":false,"is_disabled":false,"rental_uris":{"android":"levelo://app?vid=eccf5b58-ac35-4f1a-a04c-4543d1febf39","ios":"levelo://app?vid=eccf5b58-ac35-4f1a-a04c-4543d1febf39"},"vehicle_type_id":"4","last_reported":1706997963,"current_range_meters":5600,"station_id":"ce4bgg92rcd13ifvqb30","pricing_plan_id":"free"},{"bike_id":"e6f88ff6-8907-41f0-86a3-564ce6281ece","system_id":"levelo_inurba_marseille","lat":43.305364,"lon":5.384119,"is_reserved":false,"is_disabled":false,"rental_uris":{"android":"levelo://app?vid=e6f88ff6-8907-41f0-86a3-564ce6281ece","ios":"levelo://app?vid=e6f88ff6-8907-41f0-86a3-564ce6281ece"},"vehicle_type_id":"4","last_reported":1706997963,"current_range_meters":31600,"station_id":"ce4bgg92rcd13ifvqb30","pricing_plan_id":"free"},{"bike_id":"235df2d7-87bf-4971-94de-e10700107448","system_id":"levelo_inurba_marseille","lat":43.305364,"lon":5.384119,"is_reserved":false,"is_disabled":false,"rental_uris":{"android":"levelo://app?vid=235df2d7-87bf-4971-94de-e10700107448","ios":"levelo://app?vid=235df2d7-87bf-4971-94de-e10700107448"},"vehicle_type_id":"4","last_reported":1706997963,"current_range_meters":4400,"station_id":"ce4bgg92rcd13ifvqb30","pricing_plan_id":"free"},{"bike_id":"1c0ee3ec-24c7-4c1c-a687-d92aa435bf2b","system_id":"levelo_inurba_marseille","lat":43.29922,"lon":5.37473,"is_reserved":false,"is_disabled":false,"rental_uris":{"android":"levelo://app?vid=1c0ee3ec-24c7-4c1c-a687-d92aa435bf2b","ios":"levelo://app?vid=1c0ee3ec-24c7-4c1c-a687-d92aa435bf2b"},"vehicle_type_id":"4","last_reported":1706997963,"current_range_meters":6400,"station_id":"ce4bgjh2rcd13ifvqbg0","pricing_plan_id":"free"},{"bike_id":"1eeed3ec-ee0c-4b35-bd80-fbb0c5c60a1e","system_id":"levelo_inurba_marseille","lat":43.311722,"lon":5.387247,"is_reserved":false,"is_disabled":false,"rental_uris":{"android":"levelo://app?vid=1eeed3ec-ee0c-4b35-bd80-fbb0c5c60a1e","ios":"levelo://app?vid=1eeed3ec-ee0c-4b35-bd80-fbb0c5c60a1e"},"vehicle_type_id":"4","last_reported":1706997963,"current_range_meters":24400,"station_id":"ce4bgv12rcd13ifvqcp0","pricing_plan_id":"free"},{"bike_id":"e6fcc903-8abe-4b43-af7c-0978bdc00112","system_id":"levelo_inurba_marseille","lat":43.311722,"lon":5.387247,"is_reserved":false,"is_disabled":false,"rental_uris":{"android":"levelo://app?vid=e6fcc903-8abe-4b43-af7c-0978bdc00112","ios":"levelo://app?vid=e6fcc903-8abe-4b43-af7c-0978bdc00112"},"vehicle_type_id":"4","last_reported":1706997963,"current_range_meters":28000,"station_id":"ce4bgv12rcd13ifvqcp0","pricing_plan_id":"free"},{"bike_id":"b5328ea9-154c-4016-a636-b0962a42f351","system_id":"levelo_inurba_marseille","lat":43.29913,"lon":5.374737,"is_reserved":false,"is_disabled":false,"rental_uris":{"android":"levelo://app?vid=b5328ea9-154c-4016-a636-b0962a42f351","ios":"levelo://app?vid=b5328ea9-154c-4016-a636-b0962a42f351"},"vehicle_type_id":"4","last_reported":1706997963,"current_range_meters":0,"station_id":"ce4bgjh2rcd13ifvqbg0","pricing_plan_id":"free"},{"bike_id":"09010240-320e-4a23-85e5-38e922a4790e","system_id":"levelo_inurba_marseille","lat":43.311722,"lon":5.387247,"is_reserved":false,"is_disabled":false,"rental_uris":{"android":"levelo://app?vid=09010240-320e-4a23-85e5-38e922a4790e","ios":"levelo://app?vid=09010240-320e-4a23-85e5-38e922a4790e"},"vehicle_type_id":"4","last_reported":1706997963,"current_range_meters":24000,"station_id":"ce4bgv12rcd13ifvqcp0","pricing_plan_id":"free"},{"bike_id":"216b855f-e444-42bd-9d2d-29b07dc056b3","system_id":"levelo_inurba_marseille","lat":43.311722,"lon":5.387247,"is_reserved":false,"is_disabled":false,"rental_uris":{"android":"levelo://app?vid=216b855f-e444-42bd-9d2d-29b07dc056b3","ios":"levelo://app?vid=216b855f-e444-42bd-9d2d-29b07dc056b3"},"vehicle_type_id":"4","last_reported":1706997963,"current_range_meters":21600,"station_id":"ce4bgv12rcd13ifvqcp0","pricing_plan_id":"free"},{"bike_id":"2a349993-a2ba-453e-98f3-13acbad55637","system_id":"levelo_inurba_marseille","lat":43.311722,"lon":5.387247,"is_reserved":false,"is_disabled":false,"rental_uris":{"android":"levelo://app?vid=2a349993-a2ba-453e-98f3-13acbad55637","ios":"levelo://app?vid=2a349993-a2ba-453e-98f3-13acbad55637"},"vehicle_type_id":"4","last_reported":1706997963,"current_range_meters":3200,"station_id":"ce4bgv12rcd13ifvqcp0","pricing_plan_id":"free"},{"bike_id":"6fb6c590-012d-4557-8da6-153a5ac38e80","system_id":"levelo_inurba_marseille","lat":43.311722,"lon":5.387247,"is_reserved":false,"is_disabled":false,"rental_uris":{"android":"levelo://app?vid=6fb6c590-012d-4557-8da6-153a5ac38e80","ios":"levelo://app?vid=6fb6c590-012d-4557-8da6-153a5ac38e80"},"vehicle_type_id":"4","last_reported":1706997963,"current_range_meters":12800,"station_id":"ce4bgv12rcd13ifvqcp0","pricing_plan_id":"free"},{"bike_id":"d3067c66-e7e2-46f1-8f0d-eabc61ae0d41","system_id":"levelo_inurba_marseille","lat":43.322892,"lon":5.382658,"is_reserved":false,"is_disabled":false,"rental_uris":{"android":"levelo://app?vid=d3067c66-e7e2-46f1-8f0d-eabc61ae0d41","ios":"levelo://app?vid=d3067c66-e7e2-46f1-8f0d-eabc61ae0d41"},"vehicle_type_id":"4","last_reported":1706997963,"current_range_meters":6800,"station_id":"ce4bhr12rcd13ifvqhqg","pricing_plan_id":"free"},{"bike_id":"8b023912-5267-4e1c-a403-4d70b425cebe","system_id":"levelo_inurba_marseille","lat":43.32287,"lon":5.38277,"is_reserved":false,"is_disabled":false,"rental_uris":{"android":"levelo://app?vid=8b023912-5267-4e1c-a403-4d70b425cebe","ios":"levelo://app?vid=8b023912-5267-4e1c-a403-4d70b425cebe"},"vehicle_type_id":"4","last_reported":1706997963,"current_range_meters":31200,"station_id":"ce4bhr12rcd13ifvqhqg","pricing_plan_id":"free"},{"bike_id":"dec8b008-992e-4c64-b540-1c9b2b5e6fc3","system_id":"levelo_inurba_marseille","lat":43.32294,"lon":5.38284,"is_reserved":false,"is_disabled":false,"rental_uris":{"android":"levelo://app?vid=dec8b008-992e-4c64-b540-1c9b2b5e6fc3","ios":"levelo://app?vid=dec8b008-992e-4c64-b540-1c9b2b5e6fc3"},"vehicle_type_id":"4","last_reported":1706997963,"current_range_meters":4800,"station_id":"ce4bhr12rcd13ifvqhqg","pricing_plan_id":"free"},{"bike_id":"1900e2ea-9239-49b1-933e-57903fa99707","system_id":"levelo_inurba_marseille","lat":43.32826,"lon":5.36695,"is_reserved":false,"is_disabled":false,"rental_uris":{"android":"levelo://app?vid=1900e2ea-9239-49b1-933e-57903fa99707","ios":"levelo://app?vid=1900e2ea-9239-49b1-933e-57903fa99707"},"vehicle_type_id":"4","last_reported":1706997963,"current_range_meters":13200,"station_id":"ce4bhs92rcd13ifvqi0g","pricing_plan_id":"free"},{"bike_id":"107712ff-eb45-4233-82fe-b868c05aeb11","system_id":"levelo_inurba_marseille","lat":43.328371,"lon":5.366909,"is_reserved":false,"is_disabled":false,"rental_uris":{"android":"levelo://app?vid=107712ff-eb45-4233-82fe-b868c05aeb11","ios":"levelo://app?vid=107712ff-eb45-4233-82fe-b868c05aeb11"},"vehicle_type_id":"4","last_reported":1706997963,"current_range_meters":5600,"station_id":"ce4bhs92rcd13ifvqi0g","pricing_plan_id":"free"},{"bike_id":"6af1898a-f885-4ec0-ab51-15ebeeb63a8c","system_id":"levelo_inurba_marseille","lat":43.328371,"lon":5.366909,"is_reserved":false,"is_disabled":false,"rental_uris":{"android":"levelo://app?vid=6af1898a-f885-4ec0-ab51-15ebeeb63a8c","ios":"levelo://app?vid=6af1898a-f885-4ec0-ab51-15ebeeb63a8c"},"vehicle_type_id":"4","last_reported":1706997963,"current_range_meters":4000,"station_id":"ce4bhs92rcd13ifvqi0g","pricing_plan_id":"free"},{"bike_id":"757c94ef-0260-4e65-8f42-9a2ff02436ff","system_id":"levelo_inurba_marseille","lat":43.32832,"lon":5.36672,"is_reserved":false,"is_disabled":false,"rental_uris":{"android":"levelo://app?vid=757c94ef-0260-4e65-8f42-9a2ff02436ff","ios":"levelo://app?vid=757c94ef-0260-4e65-8f42-9a2ff02436ff"},"vehicle_type_id":"4","last_reported":1706997963,"current_range_meters":0,"station_id":"ce4bhs92rcd13ifvqi0g","pricing_plan_id":"free"},{"bike_id":"593c9f7d-3d63-4ec9-9958-231e9b5ed52d","system_id":"levelo_inurba_marseille","lat":43.297163,"lon":5.365866,"is_reserved":false,"is_disabled":false,"rental_uris":{"android":"levelo://app?vid=593c9f7d-3d63-4ec9-9958-231e9b5ed52d","ios":"levelo://app?vid=593c9f7d-3d63-4ec9-9958-231e9b5ed52d"},"vehicle_type_id":"4","last_reported":1706997963,"current_range_meters":5600,"station_id":"ce4bgn12rcd13ifvqbt0","pricing_plan_id":"free"},{"bike_id":"78cda35d-81b2-4ee9-a755-e9f53002e551","system_id":"levelo_inurba_marseille","lat":43.297093,"lon":5.36603,"is_reserved":false,"is_disabled":false,"rental_uris":{"android":"levelo://app?vid=78cda35d-81b2-4ee9-a755-e9f53002e551","ios":"levelo://app?vid=78cda35d-81b2-4ee9-a755-e9f53002e551"},"vehicle_type_id":"4","last_reported":1706997963,"current_range_meters":2400,"station_id":"","pricing_plan_id":"free"},{"bike_id":"4c60f124-983d-4709-a95c-31ae5c64ae30","system_id":"levelo_inurba_marseille","lat":43.32841,"lon":5.36675,"is_reserved":false,"is_disabled":false,"rental_uris":{"android":"levelo://app?vid=4c60f124-983d-4709-a95c-31ae5c64ae30","ios":"levelo://app?vid=4c60f124-983d-4709-a95c-31ae5c64ae30"},"vehicle_type_id":"4","last_reported":1706997963,"current_range_meters":0,"station_id":"ce4bhs92rcd13ifvqi0g","pricing_plan_id":"free"},{"bike_id":"f2f5b970-4931-4a7c-a80d-5a601813f70f","system_id":"levelo_inurba_marseille","lat":43.2968,"lon":5.37291,"is_reserved":false,"is_disabled":false,"rental_uris":{"android":"levelo://app?vid=f2f5b970-4931-4a7c-a80d-5a601813f70f","ios":"levelo://app?vid=f2f5b970-4931-4a7c-a80d-5a601813f70f"},"vehicle_type_id":"4","last_reported":1706997963,"current_range_meters":0,"station_id":"ce4bgk12rcd13ifvqbj0","pricing_plan_id":"free"},{"bike_id":"a43029a4-6bf7-48a1-93fb-f538a9716136","system_id":"levelo_inurba_marseille","lat":43.2968,"lon":5.37291,"is_reserved":false,"is_disabled":false,"rental_uris":{"android":"levelo://app?vid=a43029a4-6bf7-48a1-93fb-f538a9716136","ios":"levelo://app?vid=a43029a4-6bf7-48a1-93fb-f538a9716136"},"vehicle_type_id":"4","last_reported":1706997963,"current_range_meters":23600,"station_id":"ce4bgk12rcd13ifvqbj0","pricing_plan_id":"free"},{"bike_id":"cf1c4ed4-2b53-4719-9d69-b44bdf3f79d5","system_id":"levelo_inurba_marseille","lat":43.2968,"lon":5.37291,"is_reserved":false,"is_disabled":false,"rental_uris":{"android":"levelo://app?vid=cf1c4ed4-2b53-4719-9d69-b44bdf3f79d5","ios":"levelo://app?vid=cf1c4ed4-2b53-4719-9d69-b44bdf3f79d5"},"vehicle_type_id":"4","last_reported":1706997963,"current_range_meters":19600,"station_id":"ce4bgk12rcd13ifvqbj0","pricing_plan_id":"free"},{"bike_id":"d01b675e-f3c0-44ef-863f-e538d9571613","system_id":"levelo_inurba_marseille","lat":43.29573,"lon":5.367355,"is_reserved":false,"is_disabled":false,"rental_uris":{"android":"levelo://app?vid=d01b675e-f3c0-44ef-863f-e538d9571613","ios":"levelo://app?vid=d01b675e-f3c0-44ef-863f-e538d9571613"},"vehicle_type_id":"4","last_reported":1706997963,"current_range_meters":15200,"station_id":"ce4bgph2rcd13ifvqc2g","pricing_plan_id":"free"},{"bike_id":"a714b53e-9806-4833-b171-edd8e87daf6c","system_id":"levelo_inurba_marseille","lat":43.297247,"lon":5.376905,"is_reserved":false,"is_disabled":false,"rental_uris":{"android":"levelo://app?vid=a714b53e-9806-4833-b171-edd8e87daf6c","ios":"levelo://app?vid=a714b53e-9806-4833-b171-edd8e87daf6c"},"vehicle_type_id":"4","last_reported":1706997963,"current_range_meters":0,"station_id":"ce4bgkh2rcd13ifvqbl0","pricing_plan_id":"free"},{"bike_id":"dbf2c003-e5f0-4746-9b7d-de518e449385","system_id":"levelo_inurba_marseille","lat":43.296921,"lon":5.376579,"is_reserved":false,"is_disabled":false,"rental_uris":{"android":"levelo://app?vid=dbf2c003-e5f0-4746-9b7d-de518e449385","ios":"levelo://app?vid=dbf2c003-e5f0-4746-9b7d-de518e449385"},"vehicle_type_id":"4","last_reported":1706997963,"current_range_meters":21200,"station_id":"ce4bgkh2rcd13ifvqbl0","pricing_plan_id":"free"},{"bike_id":"e71dbeb2-bdcd-41a9-9e92-b0477debf34d","system_id":"levelo_inurba_marseille","lat":43.296503,"lon":5.374737,"is_reserved":false,"is_disabled":false,"rental_uris":{"android":"levelo://app?vid=e71dbeb2-bdcd-41a9-9e92-b0477debf34d","ios":"levelo://app?vid=e71dbeb2-bdcd-41a9-9e92-b0477debf34d"},"vehicle_type_id":"4","last_reported":1706997963,"current_range_meters":15600,"station_id":"","pricing_plan_id":"free"},{"bike_id":"82a8814d-f796-4525-b7f4-1bad13105b2b","system_id":"levelo_inurba_marseille","lat":43.309589,"lon":5.390258,"is_reserved":false,"is_disabled":false,"rental_uris":{"android":"levelo://app?vid=82a8814d-f796-4525-b7f4-1bad13105b2b","ios":"levelo://app?vid=82a8814d-f796-4525-b7f4-1bad13105b2b"},"vehicle_type_id":"4","last_reported":1706997963,"current_range_meters":25600,"station_id":"ce4bgup2rcd13ifvqco0","pricing_plan_id":"free"},{"bike_id":"85b77fa4-36c1-48b9-bae4-74fbfc2c9e15","system_id":"levelo_inurba_marseille","lat":43.309589,"lon":5.390258,"is_reserved":false,"is_disabled":false,"rental_uris":{"android":"levelo://app?vid=85b77fa4-36c1-48b9-bae4-74fbfc2c9e15","ios":"levelo://app?vid=85b77fa4-36c1-48b9-bae4-74fbfc2c9e15"},"vehicle_type_id":"4","last_reported":1706997963,"current_range_meters":24400,"station_id":"ce4bgup2rcd13ifvqco0","pricing_plan_id":"free"},{"bike_id":"c8bcc308-97c3-45bd-981c-22c103baca16","system_id":"levelo_inurba_marseille","lat":43.309589,"lon":5.390258,"is_reserved":false,"is_disabled":false,"rental_uris":{"android":"levelo://app?vid=c8bcc308-97c3-45bd-981c-22c103baca16","ios":"levelo://app?vid=c8bcc308-97c3-45bd-981c-22c103baca16"},"vehicle_type_id":"4","last_reported":1706997963,"current_range_meters":30400,"station_id":"ce4bgup2rcd13ifvqco0","pricing_plan_id":"free"},{"bike_id":"e27ae72c-d6ae-4c3b-8805-96601f5fcb5c","system_id":"levelo_inurba_marseille","lat":43.30955,"lon":5.39035,"is_reserved":false,"is_disabled":false,"rental_uris":{"android":"levelo://app?vid=e27ae72c-d6ae-4c3b-8805-96601f5fcb5c","ios":"levelo://app?vid=e27ae72c-d6ae-4c3b-8805-96601f5fcb5c"},"vehicle_type_id":"4","last_reported":1706997963,"current_range_meters":0,"station_id":"ce4bgup2rcd13ifvqco0","pricing_plan_id":"free"},{"bike_id":"f8c642ce-c26d-4312-a4f6-6dc2fd17d4ce","system_id":"levelo_inurba_marseille","lat":43.317557,"lon":5.390173,"is_reserved":false,"is_disabled":false,"rental_uris":{"android":"levelo://app?vid=f8c642ce-c26d-4312-a4f6-6dc2fd17d4ce","ios":"levelo://app?vid=f8c642ce-c26d-4312-a4f6-6dc2fd17d4ce"},"vehicle_type_id":"4","last_reported":1706997963,"current_range_meters":0,"station_id":"ce4bhqp2rcd13ifvqhng","pricing_plan_id":"free"},{"bike_id":"0b49491c-81b8-4ed9-9fa4-1ac082e034fe","system_id":"levelo_inurba_marseille","lat":43.317557,"lon":5.390173,"is_reserved":false,"is_disabled":false,"rental_uris":{"android":"levelo://app?vid=0b49491c-81b8-4ed9-9fa4-1ac082e034fe","ios":"levelo://app?vid=0b49491c-81b8-4ed9-9fa4-1ac082e034fe"},"vehicle_type_id":"4","last_reported":1706997963,"current_range_meters":31600,"station_id":"ce4bhqp2rcd13ifvqhng","pricing_plan_id":"free"},{"bike_id":"86eba5ee-3f3e-465e-879d-a26eca611b6f","system_id":"levelo_inurba_marseille","lat":43.31825,"lon":5.39018,"is_reserved":false,"is_disabled":false,"rental_uris":{"android":"levelo://app?vid=86eba5ee-3f3e-465e-879d-a26eca611b6f","ios":"levelo://app?vid=86eba5ee-3f3e-465e-879d-a26eca611b6f"},"vehicle_type_id":"4","last_reported":1706997963,"current_range_meters":20000,"station_id":"","pricing_plan_id":"free"},{"bike_id":"79418f0c-d439-4489-8160-befba284bf04","system_id":"levelo_inurba_marseille","lat":43.298037,"lon":5.381066,"is_reserved":false,"is_disabled":false,"rental_uris":{"android":"levelo://app?vid=79418f0c-d439-4489-8160-befba284bf04","ios":"levelo://app?vid=79418f0c-d439-4489-8160-befba284bf04"},"vehicle_type_id":"4","last_reported":1706997963,"current_range_meters":16000,"station_id":"ce4bgip2rcd13ifvqbb0","pricing_plan_id":"free"},{"bike_id":"aa3faadc-420c-43a9-8a9a-8c812f70953c","system_id":"levelo_inurba_marseille","lat":43.304274,"lon":5.388873,"is_reserved":false,"is_disabled":false,"rental_uris":{"android":"levelo://app?vid=aa3faadc-420c-43a9-8a9a-8c812f70953c","ios":"levelo://app?vid=aa3faadc-420c-43a9-8a9a-8c812f70953c"},"vehicle_type_id":"4","last_reported":1706997963,"current_range_meters":9200,"station_id":"ce4bgk12rcd13ifvqbi0","pricing_plan_id":"free"},{"bike_id":"7accbef1-1e0a-42cb-b534-e95b32c40bbf","system_id":"levelo_inurba_marseille","lat":43.304274,"lon":5.388873,"is_reserved":false,"is_disabled":false,"rental_uris":{"android":"levelo://app?vid=7accbef1-1e0a-42cb-b534-e95b32c40bbf","ios":"levelo://app?vid=7accbef1-1e0a-42cb-b534-e95b32c40bbf"},"vehicle_type_id":"4","last_reported":1706997963,"current_range_meters":27600,"station_id":"ce4bgk12rcd13ifvqbi0","pricing_plan_id":"free"},{"bike_id":"bbe2d525-da08-4909-b065-ed8fe049f231","system_id":"levelo_inurba_marseille","lat":43.30438,"lon":5.38889,"is_reserved":false,"is_disabled":false,"rental_uris":{"android":"levelo://app?vid=bbe2d525-da08-4909-b065-ed8fe049f231","ios":"levelo://app?vid=bbe2d525-da08-4909-b065-ed8fe049f231"},"vehicle_type_id":"4","last_reported":1706997963,"current_range_meters":11600,"station_id":"ce4bgk12rcd13ifvqbi0","pricing_plan_id":"free"},{"bike_id":"bf6cb17b-c68d-4463-8517-ac0b6075e752","system_id":"levelo_inurba_marseille","lat":43.304274,"lon":5.388873,"is_reserved":false,"is_disabled":false,"rental_uris":{"android":"levelo://app?vid=bf6cb17b-c68d-4463-8517-ac0b6075e752","ios":"levelo://app?vid=bf6cb17b-c68d-4463-8517-ac0b6075e752"},"vehicle_type_id":"4","last_reported":1706997963,"current_range_meters":7200,"station_id":"ce4bgk12rcd13ifvqbi0","pricing_plan_id":"free"},{"bike_id":"ec317815-3fb8-40a1-abec-cc0abf2ea51e","system_id":"levelo_inurba_marseille","lat":43.304318,"lon":5.388882,"is_reserved":false,"is_disabled":false,"rental_uris":{"android":"levelo://app?vid=ec317815-3fb8-40a1-abec-cc0abf2ea51e","ios":"levelo://app?vid=ec317815-3fb8-40a1-abec-cc0abf2ea51e"},"vehicle_type_id":"4","last_reported":1706997963,"current_range_meters":4800,"station_id":"ce4bgk12rcd13ifvqbi0","pricing_plan_id":"free"},{"bike_id":"90eda1a4-bd19-44b5-850a-a9248039c6ae","system_id":"levelo_inurba_marseille","lat":43.30419,"lon":5.38897,"is_reserved":false,"is_disabled":false,"rental_uris":{"android":"levelo://app?vid=90eda1a4-bd19-44b5-850a-a9248039c6ae","ios":"levelo://app?vid=90eda1a4-bd19-44b5-850a-a9248039c6ae"},"vehicle_type_id":"4","last_reported":1706997963,"current_range_meters":0,"station_id":"ce4bgk12rcd13ifvqbi0","pricing_plan_id":"free"},{"bike_id":"4cf20cfa-11d4-4bcd-8934-7965b4844f42","system_id":"levelo_inurba_marseille","lat":43.296263,"lon":5.377094,"is_reserved":false,"is_disabled":false,"rental_uris":{"android":"levelo://app?vid=4cf20cfa-11d4-4bcd-8934-7965b4844f42","ios":"levelo://app?vid=4cf20cfa-11d4-4bcd-8934-7965b4844f42"},"vehicle_type_id":"4","last_reported":1706997963,"current_range_meters":17200,"station_id":"ce4bgi92rcd13ifvqb90","pricing_plan_id":"free"},{"bike_id":"aad92589-7a6c-4841-b2b8-d489973c7f61","system_id":"levelo_inurba_marseille","lat":43.309589,"lon":5.390258,"is_reserved":false,"is_disabled":false,"rental_uris":{"android":"levelo://app?vid=aad92589-7a6c-4841-b2b8-d489973c7f61","ios":"levelo://app?vid=aad92589-7a6c-4841-b2b8-d489973c7f61"},"vehicle_type_id":"4","last_reported":1706997963,"current_range_meters":13200,"station_id":"ce4bgup2rcd13ifvqco0","pricing_plan_id":"free"},{"bike_id":"96a04b4e-5be1-4b34-98d8-a58979be13e2","system_id":"levelo_inurba_marseille","lat":43.295366,"lon":5.374981,"is_reserved":false,"is_disabled":false,"rental_uris":{"android":"levelo://app?vid=96a04b4e-5be1-4b34-98d8-a58979be13e2","ios":"levelo://app?vid=96a04b4e-5be1-4b34-98d8-a58979be13e2"},"vehicle_type_id":"4","last_reported":1706997963,"current_range_meters":0,"station_id":"ce4bgkp2rcd13ifvqbmg","pricing_plan_id":"free"},{"bike_id":"8bfb5949-ece7-435a-9502-2ab6acb68876","system_id":"levelo_inurba_marseille","lat":43.299717,"lon":5.384845,"is_reserved":false,"is_disabled":false,"rental_uris":{"android":"levelo://app?vid=8bfb5949-ece7-435a-9502-2ab6acb68876","ios":"levelo://app?vid=8bfb5949-ece7-435a-9502-2ab6acb68876"},"vehicle_type_id":"4","last_reported":1706997963,"current_range_meters":6400,"station_id":"ce4bgj92rcd13ifvqbd0","pricing_plan_id":"free"},{"bike_id":"728ca45e-df3a-4212-8c3e-a2cbcf88db5f","system_id":"levelo_inurba_marseille","lat":43.29523,"lon":5.37499,"is_reserved":false,"is_disabled":false,"rental_uris":{"android":"levelo://app?vid=728ca45e-df3a-4212-8c3e-a2cbcf88db5f","ios":"levelo://app?vid=728ca45e-df3a-4212-8c3e-a2cbcf88db5f"},"vehicle_type_id":"4","last_reported":1706997963,"current_range_meters":15600,"station_id":"ce4bgkp2rcd13ifvqbmg","pricing_plan_id":"free"},{"bike_id":"c6478534-8a92-48aa-87e2-bf565bc04fb6","system_id":"levelo_inurba_marseille","lat":43.32367,"lon":5.388836,"is_reserved":false,"is_disabled":false,"rental_uris":{"android":"levelo://app?vid=c6478534-8a92-48aa-87e2-bf565bc04fb6","ios":"levelo://app?vid=c6478534-8a92-48aa-87e2-bf565bc04fb6"},"vehicle_type_id":"4","last_reported":1706997963,"current_range_meters":5600,"station_id":"ce4bhqp2rcd13ifvqhog","pricing_plan_id":"free"},{"bike_id":"02e5c3ba-d57f-45cd-83a5-34e8a95ace48","system_id":"levelo_inurba_marseille","lat":43.32367,"lon":5.388836,"is_reserved":false,"is_disabled":false,"rental_uris":{"android":"levelo://app?vid=02e5c3ba-d57f-45cd-83a5-34e8a95ace48","ios":"levelo://app?vid=02e5c3ba-d57f-45cd-83a5-34e8a95ace48"},"vehicle_type_id":"4","last_reported":1706997963,"current_range_meters":14000,"station_id":"ce4bhqp2rcd13ifvqhog","pricing_plan_id":"free"},{"bike_id":"cee66d04-5de1-4164-8450-732819dac0ea","system_id":"levelo_inurba_marseille","lat":43.32362,"lon":5.38883,"is_reserved":false,"is_disabled":false,"rental_uris":{"android":"levelo://app?vid=cee66d04-5de1-4164-8450-732819dac0ea","ios":"levelo://app?vid=cee66d04-5de1-4164-8450-732819dac0ea"},"vehicle_type_id":"4","last_reported":1706997963,"current_range_meters":800,"station_id":"ce4bhqp2rcd13ifvqhog","pricing_plan_id":"free"},{"bike_id":"62a9b393-09b1-4b3b-91a3-6352eceb9b04","system_id":"levelo_inurba_marseille","lat":43.32367,"lon":5.388836,"is_reserved":false,"is_disabled":false,"rental_uris":{"android":"levelo://app?vid=62a9b393-09b1-4b3b-91a3-6352eceb9b04","ios":"levelo://app?vid=62a9b393-09b1-4b3b-91a3-6352eceb9b04"},"vehicle_type_id":"4","last_reported":1706997963,"current_range_meters":7600,"station_id":"ce4bhqp2rcd13ifvqhog","pricing_plan_id":"free"},{"bike_id":"5301d215-ac37-4c0b-8c85-e55b2e7ac30e","system_id":"levelo_inurba_marseille","lat":43.32367,"lon":5.38883,"is_reserved":false,"is_disabled":false,"rental_uris":{"android":"levelo://app?vid=5301d215-ac37-4c0b-8c85-e55b2e7ac30e","ios":"levelo://app?vid=5301d215-ac37-4c0b-8c85-e55b2e7ac30e"},"vehicle_type_id":"4","last_reported":1706997963,"current_range_meters":18400,"station_id":"ce4bhqp2rcd13ifvqhog","pricing_plan_id":"free"},{"bike_id":"75ed1df4-b7df-4e88-9e9a-696a19f1762a","system_id":"levelo_inurba_marseille","lat":43.32364,"lon":5.38888,"is_reserved":false,"is_disabled":false,"rental_uris":{"android":"levelo://app?vid=75ed1df4-b7df-4e88-9e9a-696a19f1762a","ios":"levelo://app?vid=75ed1df4-b7df-4e88-9e9a-696a19f1762a"},"vehicle_type_id":"4","last_reported":1706997963,"current_range_meters":8800,"station_id":"ce4bhqp2rcd13ifvqhog","pricing_plan_id":"free"},{"bike_id":"6ddd6644-0475-4d38-97ea-3c5cc97bcc31","system_id":"levelo_inurba_marseille","lat":43.32367,"lon":5.388836,"is_reserved":false,"is_disabled":false,"rental_uris":{"android":"levelo://app?vid=6ddd6644-0475-4d38-97ea-3c5cc97bcc31","ios":"levelo://app?vid=6ddd6644-0475-4d38-97ea-3c5cc97bcc31"},"vehicle_type_id":"4","last_reported":1706997963,"current_range_meters":12000,"station_id":"ce4bhqp2rcd13ifvqhog","pricing_plan_id":"free"},{"bike_id":"86690f2d-bc79-4602-9fc0-888cbe1590d1","system_id":"levelo_inurba_marseille","lat":43.32369,"lon":5.38886,"is_reserved":false,"is_disabled":false,"rental_uris":{"android":"levelo://app?vid=86690f2d-bc79-4602-9fc0-888cbe1590d1","ios":"levelo://app?vid=86690f2d-bc79-4602-9fc0-888cbe1590d1"},"vehicle_type_id":"4","last_reported":1706997963,"current_range_meters":21200,"station_id":"ce4bhqp2rcd13ifvqhog","pricing_plan_id":"free"},{"bike_id":"c25fc67a-bf97-4f21-9916-d0fe78b3e657","system_id":"levelo_inurba_marseille","lat":43.32371,"lon":5.38886,"is_reserved":false,"is_disabled":false,"rental_uris":{"android":"levelo://app?vid=c25fc67a-bf97-4f21-9916-d0fe78b3e657","ios":"levelo://app?vid=c25fc67a-bf97-4f21-9916-d0fe78b3e657"},"vehicle_type_id":"4","last_reported":1706997963,"current_range_meters":23600,"station_id":"ce4bhqp2rcd13ifvqhog","pricing_plan_id":"free"},{"bike_id":"9b081c91-637e-47ff-a6d8-ba13bb5f1be4","system_id":"levelo_inurba_marseille","lat":43.32367,"lon":5.388836,"is_reserved":false,"is_disabled":false,"rental_uris":{"android":"levelo://app?vid=9b081c91-637e-47ff-a6d8-ba13bb5f1be4","ios":"levelo://app?vid=9b081c91-637e-47ff-a6d8-ba13bb5f1be4"},"vehicle_type_id":"4","last_reported":1706997963,"current_range_meters":30000,"station_id":"ce4bhqp2rcd13ifvqhog","pricing_plan_id":"free"},{"bike_id":"93f63e7d-522b-44f4-9164-c85a54337842","system_id":"levelo_inurba_marseille","lat":43.2961,"lon":5.38105,"is_reserved":false,"is_disabled":false,"rental_uris":{"android":"levelo://app?vid=93f63e7d-522b-44f4-9164-c85a54337842","ios":"levelo://app?vid=93f63e7d-522b-44f4-9164-c85a54337842"},"vehicle_type_id":"4","last_reported":1706997963,"current_range_meters":8400,"station_id":"ce4bgl12rcd13ifvqbo0","pricing_plan_id":"free"},{"bike_id":"f68810b3-adcc-42d1-a1a3-cd75400b0857","system_id":"levelo_inurba_marseille","lat":43.29602,"lon":5.381084,"is_reserved":false,"is_disabled":false,"rental_uris":{"android":"levelo://app?vid=f68810b3-adcc-42d1-a1a3-cd75400b0857","ios":"levelo://app?vid=f68810b3-adcc-42d1-a1a3-cd75400b0857"},"vehicle_type_id":"4","last_reported":1706997963,"current_range_meters":3600,"station_id":"ce4bgl12rcd13ifvqbo0","pricing_plan_id":"free"},{"bike_id":"20071613-30c5-4b0d-b994-0116ed78292f","system_id":"levelo_inurba_marseille","lat":43.296169,"lon":5.381288,"is_reserved":false,"is_disabled":false,"rental_uris":{"android":"levelo://app?vid=20071613-30c5-4b0d-b994-0116ed78292f","ios":"levelo://app?vid=20071613-30c5-4b0d-b994-0116ed78292f"},"vehicle_type_id":"4","last_reported":1706997963,"current_range_meters":0,"station_id":"ce4bgl12rcd13ifvqbo0","pricing_plan_id":"free"},{"bike_id":"d317bed4-9b6c-4650-ad43-df329629272b","system_id":"levelo_inurba_marseille","lat":43.295995,"lon":5.38091,"is_reserved":false,"is_disabled":false,"rental_uris":{"android":"levelo://app?vid=d317bed4-9b6c-4650-ad43-df329629272b","ios":"levelo://app?vid=d317bed4-9b6c-4650-ad43-df329629272b"},"vehicle_type_id":"4","last_reported":1706997963,"current_range_meters":2800,"station_id":"ce4bgl12rcd13ifvqbo0","pricing_plan_id":"free"},{"bike_id":"0d5e9b41-dd05-4089-9fe8-0d2e1981e447","system_id":"levelo_inurba_marseille","lat":43.29594,"lon":5.3808,"is_reserved":false,"is_disabled":false,"rental_uris":{"android":"levelo://app?vid=0d5e9b41-dd05-4089-9fe8-0d2e1981e447","ios":"levelo://app?vid=0d5e9b41-dd05-4089-9fe8-0d2e1981e447"},"vehicle_type_id":"4","last_reported":1706997963,"current_range_meters":4800,"station_id":"ce4bgl12rcd13ifvqbo0","pricing_plan_id":"free"},{"bike_id":"696f342c-cb2a-4ba0-a210-7728cf466460","system_id":"levelo_inurba_marseille","lat":43.29602,"lon":5.38103,"is_reserved":false,"is_disabled":false,"rental_uris":{"android":"levelo://app?vid=696f342c-cb2a-4ba0-a210-7728cf466460","ios":"levelo://app?vid=696f342c-cb2a-4ba0-a210-7728cf466460"},"vehicle_type_id":"4","last_reported":1706997963,"current_range_meters":0,"station_id":"","pricing_plan_id":"free"},{"bike_id":"3b4bb7ad-65ca-415d-a4f8-2f47fcfb565d","system_id":"levelo_inurba_marseille","lat":43.292749,"lon":5.368402,"is_reserved":false,"is_disabled":false,"rental_uris":{"android":"levelo://app?vid=3b4bb7ad-65ca-415d-a4f8-2f47fcfb565d","ios":"levelo://app?vid=3b4bb7ad-65ca-415d-a4f8-2f47fcfb565d"},"vehicle_type_id":"4","last_reported":1706997963,"current_range_meters":11200,"station_id":"ce4bhbp2rcd13ifvqesg","pricing_plan_id":"free"},{"bike_id":"ff1a8185-0f36-4357-9133-18e4ef18af36","system_id":"levelo_inurba_marseille","lat":43.2928,"lon":5.36838,"is_reserved":false,"is_disabled":false,"rental_uris":{"android":"levelo://app?vid=ff1a8185-0f36-4357-9133-18e4ef18af36","ios":"levelo://app?vid=ff1a8185-0f36-4357-9133-18e4ef18af36"},"vehicle_type_id":"4","last_reported":1706997963,"current_range_meters":28800,"station_id":"ce4bhbp2rcd13ifvqesg","pricing_plan_id":"free"},{"bike_id":"c66b07cd-dd48-4a2a-913e-08cdb77474a1","system_id":"levelo_inurba_marseille","lat":43.29268,"lon":5.36842,"is_reserved":false,"is_disabled":false,"rental_uris":{"android":"levelo://app?vid=c66b07cd-dd48-4a2a-913e-08cdb77474a1","ios":"levelo://app?vid=c66b07cd-dd48-4a2a-913e-08cdb77474a1"},"vehicle_type_id":"4","last_reported":1706997963,"current_range_meters":28000,"station_id":"ce4bhbp2rcd13ifvqesg","pricing_plan_id":"free"},{"bike_id":"a5fe5087-d221-4814-84af-d60a17492723","system_id":"levelo_inurba_marseille","lat":43.305994,"lon":5.393687,"is_reserved":false,"is_disabled":false,"rental_uris":{"android":"levelo://app?vid=a5fe5087-d221-4814-84af-d60a17492723","ios":"levelo://app?vid=a5fe5087-d221-4814-84af-d60a17492723"},"vehicle_type_id":"4","last_reported":1706997963,"current_range_meters":6400,"station_id":"ce4bh0p2rcd13ifvqd80","pricing_plan_id":"free"},{"bike_id":"fa328822-48f6-4f94-943c-09beb1b6b590","system_id":"levelo_inurba_marseille","lat":43.305994,"lon":5.393687,"is_reserved":false,"is_disabled":false,"rental_uris":{"android":"levelo://app?vid=fa328822-48f6-4f94-943c-09beb1b6b590","ios":"levelo://app?vid=fa328822-48f6-4f94-943c-09beb1b6b590"},"vehicle_type_id":"4","last_reported":1706997963,"current_range_meters":12800,"station_id":"ce4bh0p2rcd13ifvqd80","pricing_plan_id":"free"},{"bike_id":"96cccf2d-f550-44c7-856b-89a6fd93b509","system_id":"levelo_inurba_marseille","lat":43.305994,"lon":5.393687,"is_reserved":false,"is_disabled":false,"rental_uris":{"android":"levelo://app?vid=96cccf2d-f550-44c7-856b-89a6fd93b509","ios":"levelo://app?vid=96cccf2d-f550-44c7-856b-89a6fd93b509"},"vehicle_type_id":"4","last_reported":1706997963,"current_range_meters":14400,"station_id":"ce4bh0p2rcd13ifvqd80","pricing_plan_id":"free"},{"bike_id":"7965568b-9177-47cb-92f7-c659ca55bbe1","system_id":"levelo_inurba_marseille","lat":43.2936,"lon":5.37835,"is_reserved":false,"is_disabled":false,"rental_uris":{"android":"levelo://app?vid=7965568b-9177-47cb-92f7-c659ca55bbe1","ios":"levelo://app?vid=7965568b-9177-47cb-92f7-c659ca55bbe1"},"vehicle_type_id":"4","last_reported":1706997963,"current_range_meters":0,"station_id":"ce4bgjh2rcd13ifvqbf0","pricing_plan_id":"free"},{"bike_id":"6411e2a1-5e99-4bb2-80ac-55c2d22a71be","system_id":"levelo_inurba_marseille","lat":43.30085,"lon":5.390856,"is_reserved":false,"is_disabled":false,"rental_uris":{"android":"levelo://app?vid=6411e2a1-5e99-4bb2-80ac-55c2d22a71be","ios":"levelo://app?vid=6411e2a1-5e99-4bb2-80ac-55c2d22a71be"},"vehicle_type_id":"4","last_reported":1706997963,"current_range_meters":6800,"station_id":"ce4bh192rcd13ifvqdb0","pricing_plan_id":"free"},{"bike_id":"48f454d2-8f9c-41d9-9e3e-537652dc7dca","system_id":"levelo_inurba_marseille","lat":43.30085,"lon":5.390856,"is_reserved":false,"is_disabled":false,"rental_uris":{"android":"levelo://app?vid=48f454d2-8f9c-41d9-9e3e-537652dc7dca","ios":"levelo://app?vid=48f454d2-8f9c-41d9-9e3e-537652dc7dca"},"vehicle_type_id":"4","last_reported":1706997963,"current_range_meters":27200,"station_id":"ce4bh192rcd13ifvqdb0","pricing_plan_id":"free"},{"bike_id":"f20ebac8-851c-4e23-93e7-e3113c7f799a","system_id":"levelo_inurba_marseille","lat":43.293009,"lon":5.374584,"is_reserved":false,"is_disabled":false,"rental_uris":{"android":"levelo://app?vid=f20ebac8-851c-4e23-93e7-e3113c7f799a","ios":"levelo://app?vid=f20ebac8-851c-4e23-93e7-e3113c7f799a"},"vehicle_type_id":"4","last_reported":1706997963,"current_range_meters":11200,"station_id":"ce4bgi12rcd13ifvqb70","pricing_plan_id":"free"},{"bike_id":"95e75154-bb11-4fe7-a421-5a0718287c4b","system_id":"levelo_inurba_marseille","lat":43.293009,"lon":5.374584,"is_reserved":false,"is_disabled":false,"rental_uris":{"android":"levelo://app?vid=95e75154-bb11-4fe7-a421-5a0718287c4b","ios":"levelo://app?vid=95e75154-bb11-4fe7-a421-5a0718287c4b"},"vehicle_type_id":"4","last_reported":1706997963,"current_range_meters":14000,"station_id":"ce4bgi12rcd13ifvqb70","pricing_plan_id":"free"},{"bike_id":"bcc77671-a74a-432e-8d9a-477e0ddd5ea7","system_id":"levelo_inurba_marseille","lat":43.298764,"lon":5.388973,"is_reserved":false,"is_disabled":false,"rental_uris":{"android":"levelo://app?vid=bcc77671-a74a-432e-8d9a-477e0ddd5ea7","ios":"levelo://app?vid=bcc77671-a74a-432e-8d9a-477e0ddd5ea7"},"vehicle_type_id":"4","last_reported":1706997963,"current_range_meters":26000,"station_id":"ce4bh392rcd13ifvqdl0","pricing_plan_id":"free"},{"bike_id":"0f351be3-93b4-43d0-9b21-4cfd1e807f6e","system_id":"levelo_inurba_marseille","lat":43.298764,"lon":5.388973,"is_reserved":false,"is_disabled":false,"rental_uris":{"android":"levelo://app?vid=0f351be3-93b4-43d0-9b21-4cfd1e807f6e","ios":"levelo://app?vid=0f351be3-93b4-43d0-9b21-4cfd1e807f6e"},"vehicle_type_id":"4","last_reported":1706997963,"current_range_meters":12000,"station_id":"ce4bh392rcd13ifvqdl0","pricing_plan_id":"free"},{"bike_id":"2ac0563c-d6a3-4532-93e0-8237924b7a93","system_id":"levelo_inurba_marseille","lat":43.298764,"lon":5.388973,"is_reserved":false,"is_disabled":false,"rental_uris":{"android":"levelo://app?vid=2ac0563c-d6a3-4532-93e0-8237924b7a93","ios":"levelo://app?vid=2ac0563c-d6a3-4532-93e0-8237924b7a93"},"vehicle_type_id":"4","last_reported":1706997963,"current_range_meters":19600,"station_id":"ce4bh392rcd13ifvqdl0","pricing_plan_id":"free"},{"bike_id":"d183db44-9f43-496d-aa54-b74013ce8803","system_id":"levelo_inurba_marseille","lat":43.298764,"lon":5.388973,"is_reserved":false,"is_disabled":false,"rental_uris":{"android":"levelo://app?vid=d183db44-9f43-496d-aa54-b74013ce8803","ios":"levelo://app?vid=d183db44-9f43-496d-aa54-b74013ce8803"},"vehicle_type_id":"4","last_reported":1706997963,"current_range_meters":21600,"station_id":"ce4bh392rcd13ifvqdl0","pricing_plan_id":"free"},{"bike_id":"4bf5c4a0-fdd3-4026-b813-76742d207b06","system_id":"levelo_inurba_marseille","lat":43.298764,"lon":5.388973,"is_reserved":false,"is_disabled":false,"rental_uris":{"android":"levelo://app?vid=4bf5c4a0-fdd3-4026-b813-76742d207b06","ios":"levelo://app?vid=4bf5c4a0-fdd3-4026-b813-76742d207b06"},"vehicle_type_id":"4","last_reported":1706997963,"current_range_meters":2800,"station_id":"ce4bh392rcd13ifvqdl0","pricing_plan_id":"free"},{"bike_id":"fa4d3da2-6a16-4791-9fa7-756dcde6677b","system_id":"levelo_inurba_marseille","lat":43.291675,"lon":5.371583,"is_reserved":false,"is_disabled":false,"rental_uris":{"android":"levelo://app?vid=fa4d3da2-6a16-4791-9fa7-756dcde6677b","ios":"levelo://app?vid=fa4d3da2-6a16-4791-9fa7-756dcde6677b"},"vehicle_type_id":"4","last_reported":1706997963,"current_range_meters":27600,"station_id":"ce4bha92rcd13ifvqeh0","pricing_plan_id":"free"},{"bike_id":"4c8982e9-a056-466d-b0fe-bf3661d7ce7c","system_id":"levelo_inurba_marseille","lat":43.2936,"lon":5.37835,"is_reserved":false,"is_disabled":false,"rental_uris":{"android":"levelo://app?vid=4c8982e9-a056-466d-b0fe-bf3661d7ce7c","ios":"levelo://app?vid=4c8982e9-a056-466d-b0fe-bf3661d7ce7c"},"vehicle_type_id":"4","last_reported":1706997963,"current_range_meters":23600,"station_id":"ce4bgjh2rcd13ifvqbf0","pricing_plan_id":"free"},{"bike_id":"214234cd-2cee-479b-8515-9921e876e5ce","system_id":"levelo_inurba_marseille","lat":43.291994,"lon":5.357886,"is_reserved":false,"is_disabled":false,"rental_uris":{"android":"levelo://app?vid=214234cd-2cee-479b-8515-9921e876e5ce","ios":"levelo://app?vid=214234cd-2cee-479b-8515-9921e876e5ce"},"vehicle_type_id":"4","last_reported":1706997963,"current_range_meters":16400,"station_id":"ce4bhb12rcd13ifvqel0","pricing_plan_id":"free"},{"bike_id":"09f74dfb-6171-4296-997d-df467c54af6d","system_id":"levelo_inurba_marseille","lat":43.29541,"lon":5.38544,"is_reserved":false,"is_disabled":false,"rental_uris":{"android":"levelo://app?vid=09f74dfb-6171-4296-997d-df467c54af6d","ios":"levelo://app?vid=09f74dfb-6171-4296-997d-df467c54af6d"},"vehicle_type_id":"4","last_reported":1706997963,"current_range_meters":4000,"station_id":"ce4bgih2rcd13ifvqba0","pricing_plan_id":"free"},{"bike_id":"48058b2d-e24c-4f02-96fa-e87be131f5c1","system_id":"levelo_inurba_marseille","lat":43.29529,"lon":5.385581,"is_reserved":false,"is_disabled":false,"rental_uris":{"android":"levelo://app?vid=48058b2d-e24c-4f02-96fa-e87be131f5c1","ios":"levelo://app?vid=48058b2d-e24c-4f02-96fa-e87be131f5c1"},"vehicle_type_id":"4","last_reported":1706997963,"current_range_meters":0,"station_id":"ce4bgih2rcd13ifvqba0","pricing_plan_id":"free"},{"bike_id":"7a8390f0-53de-458f-8f00-2db9ea67597d","system_id":"levelo_inurba_marseille","lat":43.29538,"lon":5.38542,"is_reserved":false,"is_disabled":false,"rental_uris":{"android":"levelo://app?vid=7a8390f0-53de-458f-8f00-2db9ea67597d","ios":"levelo://app?vid=7a8390f0-53de-458f-8f00-2db9ea67597d"},"vehicle_type_id":"4","last_reported":1706997963,"current_range_meters":0,"station_id":"ce4bgih2rcd13ifvqba0","pricing_plan_id":"free"},{"bike_id":"a74bd65e-c6eb-45e6-afa4-6b8187ce442d","system_id":"levelo_inurba_marseille","lat":43.29529,"lon":5.385581,"is_reserved":false,"is_disabled":false,"rental_uris":{"android":"levelo://app?vid=a74bd65e-c6eb-45e6-afa4-6b8187ce442d","ios":"levelo://app?vid=a74bd65e-c6eb-45e6-afa4-6b8187ce442d"},"vehicle_type_id":"4","last_reported":1706997963,"current_range_meters":5600,"station_id":"ce4bgih2rcd13ifvqba0","pricing_plan_id":"free"},{"bike_id":"31721019-c595-405f-84a5-8c32dfbedc9f","system_id":"levelo_inurba_marseille","lat":43.29536,"lon":5.3854,"is_reserved":false,"is_disabled":false,"rental_uris":{"android":"levelo://app?vid=31721019-c595-405f-84a5-8c32dfbedc9f","ios":"levelo://app?vid=31721019-c595-405f-84a5-8c32dfbedc9f"},"vehicle_type_id":"4","last_reported":1706997963,"current_range_meters":20800,"station_id":"ce4bgih2rcd13ifvqba0","pricing_plan_id":"free"},{"bike_id":"d0912c8c-fc4a-44f6-b3b0-e65ebb7d30f0","system_id":"levelo_inurba_marseille","lat":43.29529,"lon":5.385581,"is_reserved":false,"is_disabled":false,"rental_uris":{"android":"levelo://app?vid=d0912c8c-fc4a-44f6-b3b0-e65ebb7d30f0","ios":"levelo://app?vid=d0912c8c-fc4a-44f6-b3b0-e65ebb7d30f0"},"vehicle_type_id":"4","last_reported":1706997963,"current_range_meters":11600,"station_id":"ce4bgih2rcd13ifvqba0","pricing_plan_id":"free"},{"bike_id":"fc3c01cd-97d5-4f98-a9ff-8e7f652cdec7","system_id":"levelo_inurba_marseille","lat":43.29529,"lon":5.385581,"is_reserved":false,"is_disabled":false,"rental_uris":{"android":"levelo://app?vid=fc3c01cd-97d5-4f98-a9ff-8e7f652cdec7","ios":"levelo://app?vid=fc3c01cd-97d5-4f98-a9ff-8e7f652cdec7"},"vehicle_type_id":"4","last_reported":1706997963,"current_range_meters":21200,"station_id":"ce4bgih2rcd13ifvqba0","pricing_plan_id":"free"},{"bike_id":"7e987ce9-71c9-41a7-abe5-96e8ea03a8fa","system_id":"levelo_inurba_marseille","lat":43.29536,"lon":5.38543,"is_reserved":false,"is_disabled":false,"rental_uris":{"android":"levelo://app?vid=7e987ce9-71c9-41a7-abe5-96e8ea03a8fa","ios":"levelo://app?vid=7e987ce9-71c9-41a7-abe5-96e8ea03a8fa"},"vehicle_type_id":"4","last_reported":1706997963,"current_range_meters":1200,"station_id":"ce4bgih2rcd13ifvqba0","pricing_plan_id":"free"},{"bike_id":"ab8ddc13-55d8-4d59-8a4c-f3ea04742a12","system_id":"levelo_inurba_marseille","lat":43.29529,"lon":5.385581,"is_reserved":false,"is_disabled":false,"rental_uris":{"android":"levelo://app?vid=ab8ddc13-55d8-4d59-8a4c-f3ea04742a12","ios":"levelo://app?vid=ab8ddc13-55d8-4d59-8a4c-f3ea04742a12"},"vehicle_type_id":"4","last_reported":1706997963,"current_range_meters":0,"station_id":"ce4bgih2rcd13ifvqba0","pricing_plan_id":"free"},{"bike_id":"4924b347-f490-4fcd-8309-f9b3554c7e46","system_id":"levelo_inurba_marseille","lat":43.29529,"lon":5.385581,"is_reserved":false,"is_disabled":false,"rental_uris":{"android":"levelo://app?vid=4924b347-f490-4fcd-8309-f9b3554c7e46","ios":"levelo://app?vid=4924b347-f490-4fcd-8309-f9b3554c7e46"},"vehicle_type_id":"4","last_reported":1706997963,"current_range_meters":17200,"station_id":"ce4bgih2rcd13ifvqba0","pricing_plan_id":"free"},{"bike_id":"7343c16a-fe69-4304-a61c-787ef2101b73","system_id":"levelo_inurba_marseille","lat":43.29537,"lon":5.38547,"is_reserved":false,"is_disabled":false,"rental_uris":{"android":"levelo://app?vid=7343c16a-fe69-4304-a61c-787ef2101b73","ios":"levelo://app?vid=7343c16a-fe69-4304-a61c-787ef2101b73"},"vehicle_type_id":"4","last_reported":1706997963,"current_range_meters":0,"station_id":"ce4bgih2rcd13ifvqba0","pricing_plan_id":"free"},{"bike_id":"176d7b75-3970-4429-9d06-3be7dccaf730","system_id":"levelo_inurba_marseille","lat":43.29529,"lon":5.385581,"is_reserved":false,"is_disabled":false,"rental_uris":{"android":"levelo://app?vid=176d7b75-3970-4429-9d06-3be7dccaf730","ios":"levelo://app?vid=176d7b75-3970-4429-9d06-3be7dccaf730"},"vehicle_type_id":"4","last_reported":1706997963,"current_range_meters":400,"station_id":"ce4bgih2rcd13ifvqba0","pricing_plan_id":"free"},{"bike_id":"89c02aec-6259-4c1c-a08e-2fa151b567ae","system_id":"levelo_inurba_marseille","lat":43.29529,"lon":5.385581,"is_reserved":false,"is_disabled":false,"rental_uris":{"android":"levelo://app?vid=89c02aec-6259-4c1c-a08e-2fa151b567ae","ios":"levelo://app?vid=89c02aec-6259-4c1c-a08e-2fa151b567ae"},"vehicle_type_id":"4","last_reported":1706997963,"current_range_meters":2400,"station_id":"ce4bgih2rcd13ifvqba0","pricing_plan_id":"free"},{"bike_id":"c91c854b-24b3-4a41-81e6-9f4dc4b86d99","system_id":"levelo_inurba_marseille","lat":43.29529,"lon":5.385581,"is_reserved":false,"is_disabled":false,"rental_uris":{"android":"levelo://app?vid=c91c854b-24b3-4a41-81e6-9f4dc4b86d99","ios":"levelo://app?vid=c91c854b-24b3-4a41-81e6-9f4dc4b86d99"},"vehicle_type_id":"4","last_reported":1706997963,"current_range_meters":12400,"station_id":"ce4bgih2rcd13ifvqba0","pricing_plan_id":"free"},{"bike_id":"6cce6688-9dd6-4cf2-b1af-8fc6d5b49277","system_id":"levelo_inurba_marseille","lat":43.29529,"lon":5.385581,"is_reserved":false,"is_disabled":false,"rental_uris":{"android":"levelo://app?vid=6cce6688-9dd6-4cf2-b1af-8fc6d5b49277","ios":"levelo://app?vid=6cce6688-9dd6-4cf2-b1af-8fc6d5b49277"},"vehicle_type_id":"4","last_reported":1706997963,"current_range_meters":25600,"station_id":"ce4bgih2rcd13ifvqba0","pricing_plan_id":"free"},{"bike_id":"491d2eb9-8a1a-4c14-97d8-2f386f843838","system_id":"levelo_inurba_marseille","lat":43.29536,"lon":5.38549,"is_reserved":false,"is_disabled":false,"rental_uris":{"android":"levelo://app?vid=491d2eb9-8a1a-4c14-97d8-2f386f843838","ios":"levelo://app?vid=491d2eb9-8a1a-4c14-97d8-2f386f843838"},"vehicle_type_id":"4","last_reported":1706997963,"current_range_meters":14800,"station_id":"ce4bgih2rcd13ifvqba0","pricing_plan_id":"free"},{"bike_id":"a99648ad-b555-4a3c-9e95-1d1a1ee13292","system_id":"levelo_inurba_marseille","lat":43.29529,"lon":5.385581,"is_reserved":false,"is_disabled":false,"rental_uris":{"android":"levelo://app?vid=a99648ad-b555-4a3c-9e95-1d1a1ee13292","ios":"levelo://app?vid=a99648ad-b555-4a3c-9e95-1d1a1ee13292"},"vehicle_type_id":"4","last_reported":1706997963,"current_range_meters":7600,"station_id":"ce4bgih2rcd13ifvqba0","pricing_plan_id":"free"},{"bike_id":"b419e424-22b8-44a1-be74-4eea51d4beef","system_id":"levelo_inurba_marseille","lat":43.29529,"lon":5.385581,"is_reserved":false,"is_disabled":false,"rental_uris":{"android":"levelo://app?vid=b419e424-22b8-44a1-be74-4eea51d4beef","ios":"levelo://app?vid=b419e424-22b8-44a1-be74-4eea51d4beef"},"vehicle_type_id":"4","last_reported":1706997963,"current_range_meters":12800,"station_id":"ce4bgih2rcd13ifvqba0","pricing_plan_id":"free"},{"bike_id":"283917dc-24b1-4590-889d-489b3433ba59","system_id":"levelo_inurba_marseille","lat":43.29529,"lon":5.385581,"is_reserved":false,"is_disabled":false,"rental_uris":{"android":"levelo://app?vid=283917dc-24b1-4590-889d-489b3433ba59","ios":"levelo://app?vid=283917dc-24b1-4590-889d-489b3433ba59"},"vehicle_type_id":"4","last_reported":1706997963,"current_range_meters":2400,"station_id":"ce4bgih2rcd13ifvqba0","pricing_plan_id":"free"},{"bike_id":"217a026b-0c34-4cf0-ac7f-9e8b49162349","system_id":"levelo_inurba_marseille","lat":43.29529,"lon":5.385581,"is_reserved":false,"is_disabled":false,"rental_uris":{"android":"levelo://app?vid=217a026b-0c34-4cf0-ac7f-9e8b49162349","ios":"levelo://app?vid=217a026b-0c34-4cf0-ac7f-9e8b49162349"},"vehicle_type_id":"4","last_reported":1706997963,"current_range_meters":0,"station_id":"ce4bgih2rcd13ifvqba0","pricing_plan_id":"free"},{"bike_id":"a1a9a077-3678-4c11-a2ce-095917fb7f22","system_id":"levelo_inurba_marseille","lat":43.29529,"lon":5.385581,"is_reserved":false,"is_disabled":false,"rental_uris":{"android":"levelo://app?vid=a1a9a077-3678-4c11-a2ce-095917fb7f22","ios":"levelo://app?vid=a1a9a077-3678-4c11-a2ce-095917fb7f22"},"vehicle_type_id":"4","last_reported":1706997963,"current_range_meters":20400,"station_id":"ce4bgih2rcd13ifvqba0","pricing_plan_id":"free"},{"bike_id":"07e76bd0-05a4-4ac7-91ce-a5223c00e267","system_id":"levelo_inurba_marseille","lat":43.29529,"lon":5.385581,"is_reserved":false,"is_disabled":false,"rental_uris":{"android":"levelo://app?vid=07e76bd0-05a4-4ac7-91ce-a5223c00e267","ios":"levelo://app?vid=07e76bd0-05a4-4ac7-91ce-a5223c00e267"},"vehicle_type_id":"4","last_reported":1706997963,"current_range_meters":31200,"station_id":"ce4bgih2rcd13ifvqba0","pricing_plan_id":"free"},{"bike_id":"3e51ca5f-6608-4afe-b515-f0905a7f7729","system_id":"levelo_inurba_marseille","lat":43.302008,"lon":5.394694,"is_reserved":false,"is_disabled":false,"rental_uris":{"android":"levelo://app?vid=3e51ca5f-6608-4afe-b515-f0905a7f7729","ios":"levelo://app?vid=3e51ca5f-6608-4afe-b515-f0905a7f7729"},"vehicle_type_id":"4","last_reported":1706997963,"current_range_meters":0,"station_id":"ce4bh0p2rcd13ifvqd70","pricing_plan_id":"free"},{"bike_id":"c4798468-a078-4c17-a145-95c8a6977241","system_id":"levelo_inurba_marseille","lat":43.290631,"lon":5.359244,"is_reserved":false,"is_disabled":false,"rental_uris":{"android":"levelo://app?vid=c4798468-a078-4c17-a145-95c8a6977241","ios":"levelo://app?vid=c4798468-a078-4c17-a145-95c8a6977241"},"vehicle_type_id":"4","last_reported":1706997963,"current_range_meters":27600,"station_id":"ce4bha92rcd13ifvqeg0","pricing_plan_id":"free"},{"bike_id":"7c755874-04f4-49a7-881c-3dccfea2f0df","system_id":"levelo_inurba_marseille","lat":43.290441,"lon":5.359123,"is_reserved":false,"is_disabled":false,"rental_uris":{"android":"levelo://app?vid=7c755874-04f4-49a7-881c-3dccfea2f0df","ios":"levelo://app?vid=7c755874-04f4-49a7-881c-3dccfea2f0df"},"vehicle_type_id":"4","last_reported":1706997963,"current_range_meters":1200,"station_id":"","pricing_plan_id":"free"},{"bike_id":"8243b683-e2bf-4de0-8f7e-ad7e6c26283d","system_id":"levelo_inurba_marseille","lat":43.29426,"lon":5.38616,"is_reserved":false,"is_disabled":false,"rental_uris":{"android":"levelo://app?vid=8243b683-e2bf-4de0-8f7e-ad7e6c26283d","ios":"levelo://app?vid=8243b683-e2bf-4de0-8f7e-ad7e6c26283d"},"vehicle_type_id":"4","last_reported":1706997963,"current_range_meters":4000,"station_id":"ce4bh2h2rcd13ifvqdh0","pricing_plan_id":"free"},{"bike_id":"02619e82-59a5-440a-83ee-1c06d9047ec5","system_id":"levelo_inurba_marseille","lat":43.29424,"lon":5.38619,"is_reserved":false,"is_disabled":false,"rental_uris":{"android":"levelo://app?vid=02619e82-59a5-440a-83ee-1c06d9047ec5","ios":"levelo://app?vid=02619e82-59a5-440a-83ee-1c06d9047ec5"},"vehicle_type_id":"4","last_reported":1706997963,"current_range_meters":0,"station_id":"ce4bh2h2rcd13ifvqdh0","pricing_plan_id":"free"},{"bike_id":"43704f6d-499f-4dee-8f86-6b15f055911d","system_id":"levelo_inurba_marseille","lat":43.29424,"lon":5.38623,"is_reserved":false,"is_disabled":false,"rental_uris":{"android":"levelo://app?vid=43704f6d-499f-4dee-8f86-6b15f055911d","ios":"levelo://app?vid=43704f6d-499f-4dee-8f86-6b15f055911d"},"vehicle_type_id":"4","last_reported":1706997963,"current_range_meters":20000,"station_id":"ce4bh2h2rcd13ifvqdh0","pricing_plan_id":"free"},{"bike_id":"11ecb67c-4b56-4de9-b528-dd5fefbbb200","system_id":"levelo_inurba_marseille","lat":43.290319,"lon":5.375732,"is_reserved":false,"is_disabled":false,"rental_uris":{"android":"levelo://app?vid=11ecb67c-4b56-4de9-b528-dd5fefbbb200","ios":"levelo://app?vid=11ecb67c-4b56-4de9-b528-dd5fefbbb200"},"vehicle_type_id":"4","last_reported":1706997963,"current_range_meters":20800,"station_id":"ce4bh692rcd13ifvqe90","pricing_plan_id":"free"},{"bike_id":"a5d7f20e-b866-4bb9-b748-4fe2c6894598","system_id":"levelo_inurba_marseille","lat":43.29422,"lon":5.38622,"is_reserved":false,"is_disabled":false,"rental_uris":{"android":"levelo://app?vid=a5d7f20e-b866-4bb9-b748-4fe2c6894598","ios":"levelo://app?vid=a5d7f20e-b866-4bb9-b748-4fe2c6894598"},"vehicle_type_id":"4","last_reported":1706997963,"current_range_meters":0,"station_id":"ce4bh2h2rcd13ifvqdh0","pricing_plan_id":"free"},{"bike_id":"1ef796cc-5886-4f6d-9af8-5c6417fcf41e","system_id":"levelo_inurba_marseille","lat":43.294204,"lon":5.38623,"is_reserved":false,"is_disabled":false,"rental_uris":{"android":"levelo://app?vid=1ef796cc-5886-4f6d-9af8-5c6417fcf41e","ios":"levelo://app?vid=1ef796cc-5886-4f6d-9af8-5c6417fcf41e"},"vehicle_type_id":"4","last_reported":1706997963,"current_range_meters":26800,"station_id":"ce4bh2h2rcd13ifvqdh0","pricing_plan_id":"free"},{"bike_id":"5487031a-2a84-46e0-b610-f4bfd6922271","system_id":"levelo_inurba_marseille","lat":43.294207,"lon":5.386243,"is_reserved":false,"is_disabled":false,"rental_uris":{"android":"levelo://app?vid=5487031a-2a84-46e0-b610-f4bfd6922271","ios":"levelo://app?vid=5487031a-2a84-46e0-b610-f4bfd6922271"},"vehicle_type_id":"4","last_reported":1706997963,"current_range_meters":14000,"station_id":"ce4bh2h2rcd13ifvqdh0","pricing_plan_id":"free"},{"bike_id":"2e0ca400-2d0c-4bbf-95b6-9290c083d3c1","system_id":"levelo_inurba_marseille","lat":43.29417,"lon":5.38623,"is_reserved":false,"is_disabled":false,"rental_uris":{"android":"levelo://app?vid=2e0ca400-2d0c-4bbf-95b6-9290c083d3c1","ios":"levelo://app?vid=2e0ca400-2d0c-4bbf-95b6-9290c083d3c1"},"vehicle_type_id":"4","last_reported":1706997963,"current_range_meters":15200,"station_id":"ce4bh2h2rcd13ifvqdh0","pricing_plan_id":"free"},{"bike_id":"1a02061d-9da2-41db-947a-db71348b5675","system_id":"levelo_inurba_marseille","lat":43.29414,"lon":5.38618,"is_reserved":false,"is_disabled":false,"rental_uris":{"android":"levelo://app?vid=1a02061d-9da2-41db-947a-db71348b5675","ios":"levelo://app?vid=1a02061d-9da2-41db-947a-db71348b5675"},"vehicle_type_id":"4","last_reported":1706997963,"current_range_meters":15200,"station_id":"ce4bh2h2rcd13ifvqdh0","pricing_plan_id":"free"},{"bike_id":"863a5b73-7807-4715-b64d-9b8a4129b17c","system_id":"levelo_inurba_marseille","lat":43.294162,"lon":5.386292,"is_reserved":false,"is_disabled":false,"rental_uris":{"android":"levelo://app?vid=863a5b73-7807-4715-b64d-9b8a4129b17c","ios":"levelo://app?vid=863a5b73-7807-4715-b64d-9b8a4129b17c"},"vehicle_type_id":"4","last_reported":1706997963,"current_range_meters":24400,"station_id":"ce4bh2h2rcd13ifvqdh0","pricing_plan_id":"free"},{"bike_id":"a05ed984-489a-47db-82d1-e1760450fef8","system_id":"levelo_inurba_marseille","lat":43.294162,"lon":5.386292,"is_reserved":false,"is_disabled":false,"rental_uris":{"android":"levelo://app?vid=a05ed984-489a-47db-82d1-e1760450fef8","ios":"levelo://app?vid=a05ed984-489a-47db-82d1-e1760450fef8"},"vehicle_type_id":"4","last_reported":1706997963,"current_range_meters":9600,"station_id":"ce4bh2h2rcd13ifvqdh0","pricing_plan_id":"free"},{"bike_id":"d556edd6-5587-49db-b685-fc507ea152d1","system_id":"levelo_inurba_marseille","lat":43.294162,"lon":5.386292,"is_reserved":false,"is_disabled":false,"rental_uris":{"android":"levelo://app?vid=d556edd6-5587-49db-b685-fc507ea152d1","ios":"levelo://app?vid=d556edd6-5587-49db-b685-fc507ea152d1"},"vehicle_type_id":"4","last_reported":1706997963,"current_range_meters":8000,"station_id":"ce4bh2h2rcd13ifvqdh0","pricing_plan_id":"free"},{"bike_id":"800b42e1-15d9-4eef-8909-64810a16d3d5","system_id":"levelo_inurba_marseille","lat":43.289184,"lon":5.366408,"is_reserved":false,"is_disabled":false,"rental_uris":{"android":"levelo://app?vid=800b42e1-15d9-4eef-8909-64810a16d3d5","ios":"levelo://app?vid=800b42e1-15d9-4eef-8909-64810a16d3d5"},"vehicle_type_id":"4","last_reported":1706997963,"current_range_meters":25600,"station_id":"ce4bhap2rcd13ifvqek0","pricing_plan_id":"free"},{"bike_id":"90615a0e-770e-4983-8ffd-cacdd2df2ec2","system_id":"levelo_inurba_marseille","lat":43.289468,"lon":5.363719,"is_reserved":false,"is_disabled":false,"rental_uris":{"android":"levelo://app?vid=90615a0e-770e-4983-8ffd-cacdd2df2ec2","ios":"levelo://app?vid=90615a0e-770e-4983-8ffd-cacdd2df2ec2"},"vehicle_type_id":"4","last_reported":1706997963,"current_range_meters":0,"station_id":"ce4bhc92rcd13ifvqetg","pricing_plan_id":"free"},{"bike_id":"a00d6ae0-9b9f-45ca-904c-babee07ef755","system_id":"levelo_inurba_marseille","lat":43.29272,"lon":5.38437,"is_reserved":false,"is_disabled":false,"rental_uris":{"android":"levelo://app?vid=a00d6ae0-9b9f-45ca-904c-babee07ef755","ios":"levelo://app?vid=a00d6ae0-9b9f-45ca-904c-babee07ef755"},"vehicle_type_id":"4","last_reported":1706997963,"current_range_meters":18000,"station_id":"ce4bh692rcd13ifvqea0","pricing_plan_id":"free"},{"bike_id":"70c62f34-e180-4888-8470-506a8bd331c8","system_id":"levelo_inurba_marseille","lat":43.29273,"lon":5.38442,"is_reserved":false,"is_disabled":false,"rental_uris":{"android":"levelo://app?vid=70c62f34-e180-4888-8470-506a8bd331c8","ios":"levelo://app?vid=70c62f34-e180-4888-8470-506a8bd331c8"},"vehicle_type_id":"4","last_reported":1706997963,"current_range_meters":0,"station_id":"ce4bh692rcd13ifvqea0","pricing_plan_id":"free"},{"bike_id":"d85ba24f-516a-416f-a56d-892dde8873e1","system_id":"levelo_inurba_marseille","lat":43.29262,"lon":5.38423,"is_reserved":false,"is_disabled":false,"rental_uris":{"android":"levelo://app?vid=d85ba24f-516a-416f-a56d-892dde8873e1","ios":"levelo://app?vid=d85ba24f-516a-416f-a56d-892dde8873e1"},"vehicle_type_id":"4","last_reported":1706997963,"current_range_meters":9200,"station_id":"ce4bh692rcd13ifvqea0","pricing_plan_id":"free"},{"bike_id":"72ae8e4d-e832-4ee3-99f5-f9f32284e4c0","system_id":"levelo_inurba_marseille","lat":43.292697,"lon":5.38441,"is_reserved":false,"is_disabled":false,"rental_uris":{"android":"levelo://app?vid=72ae8e4d-e832-4ee3-99f5-f9f32284e4c0","ios":"levelo://app?vid=72ae8e4d-e832-4ee3-99f5-f9f32284e4c0"},"vehicle_type_id":"4","last_reported":1706997963,"current_range_meters":15200,"station_id":"ce4bh692rcd13ifvqea0","pricing_plan_id":"free"},{"bike_id":"22ab2ae5-b3f8-408d-9819-aa1f34eaeaf7","system_id":"levelo_inurba_marseille","lat":43.2927,"lon":5.38442,"is_reserved":false,"is_disabled":false,"rental_uris":{"android":"levelo://app?vid=22ab2ae5-b3f8-408d-9819-aa1f34eaeaf7","ios":"levelo://app?vid=22ab2ae5-b3f8-408d-9819-aa1f34eaeaf7"},"vehicle_type_id":"4","last_reported":1706997963,"current_range_meters":30000,"station_id":"ce4bh692rcd13ifvqea0","pricing_plan_id":"free"},{"bike_id":"44a09c7f-81c9-418b-8cdf-26fd223a512c","system_id":"levelo_inurba_marseille","lat":43.29268,"lon":5.38439,"is_reserved":false,"is_disabled":false,"rental_uris":{"android":"levelo://app?vid=44a09c7f-81c9-418b-8cdf-26fd223a512c","ios":"levelo://app?vid=44a09c7f-81c9-418b-8cdf-26fd223a512c"},"vehicle_type_id":"4","last_reported":1706997963,"current_range_meters":4400,"station_id":"ce4bh692rcd13ifvqea0","pricing_plan_id":"free"},{"bike_id":"b4c77068-70e2-493e-96b9-941294635679","system_id":"levelo_inurba_marseille","lat":43.29267,"lon":5.38438,"is_reserved":false,"is_disabled":false,"rental_uris":{"android":"levelo://app?vid=b4c77068-70e2-493e-96b9-941294635679","ios":"levelo://app?vid=b4c77068-70e2-493e-96b9-941294635679"},"vehicle_type_id":"4","last_reported":1706997963,"current_range_meters":0,"station_id":"ce4bh692rcd13ifvqea0","pricing_plan_id":"free"},{"bike_id":"fcb3f6b4-6384-4aeb-abe6-befa04f95874","system_id":"levelo_inurba_marseille","lat":43.29267,"lon":5.3844,"is_reserved":false,"is_disabled":false,"rental_uris":{"android":"levelo://app?vid=fcb3f6b4-6384-4aeb-abe6-befa04f95874","ios":"levelo://app?vid=fcb3f6b4-6384-4aeb-abe6-befa04f95874"},"vehicle_type_id":"4","last_reported":1706997963,"current_range_meters":18000,"station_id":"ce4bh692rcd13ifvqea0","pricing_plan_id":"free"},{"bike_id":"d9bf2a45-4eea-46cb-ba90-89d977e571aa","system_id":"levelo_inurba_marseille","lat":43.292642,"lon":5.384254,"is_reserved":false,"is_disabled":false,"rental_uris":{"android":"levelo://app?vid=d9bf2a45-4eea-46cb-ba90-89d977e571aa","ios":"levelo://app?vid=d9bf2a45-4eea-46cb-ba90-89d977e571aa"},"vehicle_type_id":"4","last_reported":1706997963,"current_range_meters":22800,"station_id":"ce4bh692rcd13ifvqea0","pricing_plan_id":"free"},{"bike_id":"3ec79603-f20c-4f51-a833-f132ef4b68d1","system_id":"levelo_inurba_marseille","lat":43.292709,"lon":5.384512,"is_reserved":false,"is_disabled":false,"rental_uris":{"android":"levelo://app?vid=3ec79603-f20c-4f51-a833-f132ef4b68d1","ios":"levelo://app?vid=3ec79603-f20c-4f51-a833-f132ef4b68d1"},"vehicle_type_id":"4","last_reported":1706997963,"current_range_meters":4400,"station_id":"ce4bh692rcd13ifvqea0","pricing_plan_id":"free"},{"bike_id":"d58c80d0-1ba8-45e2-ac7f-27bc719c3e32","system_id":"levelo_inurba_marseille","lat":43.292684,"lon":5.384464,"is_reserved":false,"is_disabled":false,"rental_uris":{"android":"levelo://app?vid=d58c80d0-1ba8-45e2-ac7f-27bc719c3e32","ios":"levelo://app?vid=d58c80d0-1ba8-45e2-ac7f-27bc719c3e32"},"vehicle_type_id":"4","last_reported":1706997963,"current_range_meters":5600,"station_id":"ce4bh692rcd13ifvqea0","pricing_plan_id":"free"},{"bike_id":"1778be2b-8f20-42ef-9405-e58352a993f8","system_id":"levelo_inurba_marseille","lat":43.29263,"lon":5.38438,"is_reserved":false,"is_disabled":false,"rental_uris":{"android":"levelo://app?vid=1778be2b-8f20-42ef-9405-e58352a993f8","ios":"levelo://app?vid=1778be2b-8f20-42ef-9405-e58352a993f8"},"vehicle_type_id":"4","last_reported":1706997963,"current_range_meters":31200,"station_id":"ce4bh692rcd13ifvqea0","pricing_plan_id":"free"},{"bike_id":"0d7ac06f-87bd-4dc9-92a1-01574d6eeba3","system_id":"levelo_inurba_marseille","lat":43.292655,"lon":5.38446,"is_reserved":false,"is_disabled":false,"rental_uris":{"android":"levelo://app?vid=0d7ac06f-87bd-4dc9-92a1-01574d6eeba3","ios":"levelo://app?vid=0d7ac06f-87bd-4dc9-92a1-01574d6eeba3"},"vehicle_type_id":"4","last_reported":1706997963,"current_range_meters":2800,"station_id":"ce4bh692rcd13ifvqea0","pricing_plan_id":"free"},{"bike_id":"066862ef-ec48-469d-a3d1-76111dc51716","system_id":"levelo_inurba_marseille","lat":43.292651,"lon":5.384453,"is_reserved":false,"is_disabled":false,"rental_uris":{"android":"levelo://app?vid=066862ef-ec48-469d-a3d1-76111dc51716","ios":"levelo://app?vid=066862ef-ec48-469d-a3d1-76111dc51716"},"vehicle_type_id":"4","last_reported":1706997963,"current_range_meters":15200,"station_id":"ce4bh692rcd13ifvqea0","pricing_plan_id":"free"},{"bike_id":"bc502e62-2d7d-4c4b-a3a9-36d44edb3f67","system_id":"levelo_inurba_marseille","lat":43.292676,"lon":5.384508,"is_reserved":false,"is_disabled":false,"rental_uris":{"android":"levelo://app?vid=bc502e62-2d7d-4c4b-a3a9-36d44edb3f67","ios":"levelo://app?vid=bc502e62-2d7d-4c4b-a3a9-36d44edb3f67"},"vehicle_type_id":"4","last_reported":1706997963,"current_range_meters":19600,"station_id":"ce4bh692rcd13ifvqea0","pricing_plan_id":"free"},{"bike_id":"d2a9d9be-9f41-4714-b4eb-03d44fda09ac","system_id":"levelo_inurba_marseille","lat":43.292627,"lon":5.384418,"is_reserved":false,"is_disabled":false,"rental_uris":{"android":"levelo://app?vid=d2a9d9be-9f41-4714-b4eb-03d44fda09ac","ios":"levelo://app?vid=d2a9d9be-9f41-4714-b4eb-03d44fda09ac"},"vehicle_type_id":"4","last_reported":1706997963,"current_range_meters":26400,"station_id":"ce4bh692rcd13ifvqea0","pricing_plan_id":"free"},{"bike_id":"f4774de7-5110-46b9-b955-161396a0e5a8","system_id":"levelo_inurba_marseille","lat":43.29259,"lon":5.38434,"is_reserved":false,"is_disabled":false,"rental_uris":{"android":"levelo://app?vid=f4774de7-5110-46b9-b955-161396a0e5a8","ios":"levelo://app?vid=f4774de7-5110-46b9-b955-161396a0e5a8"},"vehicle_type_id":"4","last_reported":1706997963,"current_range_meters":16800,"station_id":"ce4bh692rcd13ifvqea0","pricing_plan_id":"free"},{"bike_id":"40b4fb63-95b1-439d-b965-b05f612ee7aa","system_id":"levelo_inurba_marseille","lat":43.292642,"lon":5.384254,"is_reserved":false,"is_disabled":false,"rental_uris":{"android":"levelo://app?vid=40b4fb63-95b1-439d-b965-b05f612ee7aa","ios":"levelo://app?vid=40b4fb63-95b1-439d-b965-b05f612ee7aa"},"vehicle_type_id":"4","last_reported":1706997963,"current_range_meters":18800,"station_id":"ce4bh692rcd13ifvqea0","pricing_plan_id":"free"},{"bike_id":"06824ab9-6011-449a-8c6b-6d4569ca9bf3","system_id":"levelo_inurba_marseille","lat":43.292635,"lon":5.384459,"is_reserved":false,"is_disabled":false,"rental_uris":{"android":"levelo://app?vid=06824ab9-6011-449a-8c6b-6d4569ca9bf3","ios":"levelo://app?vid=06824ab9-6011-449a-8c6b-6d4569ca9bf3"},"vehicle_type_id":"4","last_reported":1706997963,"current_range_meters":12800,"station_id":"ce4bh692rcd13ifvqea0","pricing_plan_id":"free"},{"bike_id":"25baae67-9728-46a3-b27a-9efd2cb85ef9","system_id":"levelo_inurba_marseille","lat":43.29264,"lon":5.38447,"is_reserved":false,"is_disabled":false,"rental_uris":{"android":"levelo://app?vid=25baae67-9728-46a3-b27a-9efd2cb85ef9","ios":"levelo://app?vid=25baae67-9728-46a3-b27a-9efd2cb85ef9"},"vehicle_type_id":"4","last_reported":1706997963,"current_range_meters":10400,"station_id":"ce4bh692rcd13ifvqea0","pricing_plan_id":"free"},{"bike_id":"d168060f-0721-40c3-bdc0-43cfc37e2fb3","system_id":"levelo_inurba_marseille","lat":43.292644,"lon":5.384257,"is_reserved":false,"is_disabled":false,"rental_uris":{"android":"levelo://app?vid=d168060f-0721-40c3-bdc0-43cfc37e2fb3","ios":"levelo://app?vid=d168060f-0721-40c3-bdc0-43cfc37e2fb3"},"vehicle_type_id":"4","last_reported":1706997963,"current_range_meters":26800,"station_id":"ce4bh692rcd13ifvqea0","pricing_plan_id":"free"},{"bike_id":"ba694e77-02f9-4d1f-94bf-47fba4c5db3b","system_id":"levelo_inurba_marseille","lat":43.292582,"lon":5.384396,"is_reserved":false,"is_disabled":false,"rental_uris":{"android":"levelo://app?vid=ba694e77-02f9-4d1f-94bf-47fba4c5db3b","ios":"levelo://app?vid=ba694e77-02f9-4d1f-94bf-47fba4c5db3b"},"vehicle_type_id":"4","last_reported":1706997963,"current_range_meters":31200,"station_id":"ce4bh692rcd13ifvqea0","pricing_plan_id":"free"},{"bike_id":"b12d8d0d-32cb-4cfa-b91d-c89571a8b43e","system_id":"levelo_inurba_marseille","lat":43.29256,"lon":5.38455,"is_reserved":false,"is_disabled":false,"rental_uris":{"android":"levelo://app?vid=b12d8d0d-32cb-4cfa-b91d-c89571a8b43e","ios":"levelo://app?vid=b12d8d0d-32cb-4cfa-b91d-c89571a8b43e"},"vehicle_type_id":"4","last_reported":1706997963,"current_range_meters":30800,"station_id":"ce4bh692rcd13ifvqea0","pricing_plan_id":"free"},{"bike_id":"57d1408c-9314-4969-ab4b-64cf2bcb8dda","system_id":"levelo_inurba_marseille","lat":43.29007,"lon":5.35609,"is_reserved":false,"is_disabled":false,"rental_uris":{"android":"levelo://app?vid=57d1408c-9314-4969-ab4b-64cf2bcb8dda","ios":"levelo://app?vid=57d1408c-9314-4969-ab4b-64cf2bcb8dda"},"vehicle_type_id":"4","last_reported":1706997963,"current_range_meters":4000,"station_id":"ce4bhb92rcd13ifvqen0","pricing_plan_id":"free"},{"bike_id":"989355a4-200c-435d-8d57-ce518135c4e5","system_id":"levelo_inurba_marseille","lat":43.295169,"lon":5.390426,"is_reserved":false,"is_disabled":false,"rental_uris":{"android":"levelo://app?vid=989355a4-200c-435d-8d57-ce518135c4e5","ios":"levelo://app?vid=989355a4-200c-435d-8d57-ce518135c4e5"},"vehicle_type_id":"4","last_reported":1706997963,"current_range_meters":18000,"station_id":"ce4bh3p2rcd13ifvqdp0","pricing_plan_id":"free"},{"bike_id":"b2ad9a2f-b3b9-41e6-a4dc-0b0347eec2c5","system_id":"levelo_inurba_marseille","lat":43.330442,"lon":5.389148,"is_reserved":false,"is_disabled":false,"rental_uris":{"android":"levelo://app?vid=b2ad9a2f-b3b9-41e6-a4dc-0b0347eec2c5","ios":"levelo://app?vid=b2ad9a2f-b3b9-41e6-a4dc-0b0347eec2c5"},"vehicle_type_id":"4","last_reported":1706997963,"current_range_meters":0,"station_id":"ce4bhr92rcd13ifvqhrg","pricing_plan_id":"free"},{"bike_id":"d16c55f2-0c91-4633-8dca-be9564af9c56","system_id":"levelo_inurba_marseille","lat":43.295169,"lon":5.390426,"is_reserved":false,"is_disabled":false,"rental_uris":{"android":"levelo://app?vid=d16c55f2-0c91-4633-8dca-be9564af9c56","ios":"levelo://app?vid=d16c55f2-0c91-4633-8dca-be9564af9c56"},"vehicle_type_id":"4","last_reported":1706997963,"current_range_meters":4800,"station_id":"ce4bh3p2rcd13ifvqdp0","pricing_plan_id":"free"},{"bike_id":"716bc777-24c0-49b4-bbdd-34a004e99eb0","system_id":"levelo_inurba_marseille","lat":43.330442,"lon":5.389148,"is_reserved":false,"is_disabled":false,"rental_uris":{"android":"levelo://app?vid=716bc777-24c0-49b4-bbdd-34a004e99eb0","ios":"levelo://app?vid=716bc777-24c0-49b4-bbdd-34a004e99eb0"},"vehicle_type_id":"4","last_reported":1706997963,"current_range_meters":9600,"station_id":"ce4bhr92rcd13ifvqhrg","pricing_plan_id":"free"},{"bike_id":"0a9bfce5-f889-443b-a848-9888cf4483af","system_id":"levelo_inurba_marseille","lat":43.330442,"lon":5.389148,"is_reserved":false,"is_disabled":false,"rental_uris":{"android":"levelo://app?vid=0a9bfce5-f889-443b-a848-9888cf4483af","ios":"levelo://app?vid=0a9bfce5-f889-443b-a848-9888cf4483af"},"vehicle_type_id":"4","last_reported":1706997963,"current_range_meters":16000,"station_id":"ce4bhr92rcd13ifvqhrg","pricing_plan_id":"free"},{"bike_id":"88b0225c-76da-48b8-bf84-83a6a038e058","system_id":"levelo_inurba_marseille","lat":43.29563,"lon":5.39202,"is_reserved":false,"is_disabled":false,"rental_uris":{"android":"levelo://app?vid=88b0225c-76da-48b8-bf84-83a6a038e058","ios":"levelo://app?vid=88b0225c-76da-48b8-bf84-83a6a038e058"},"vehicle_type_id":"4","last_reported":1706997963,"current_range_meters":800,"station_id":"","pricing_plan_id":"free"},{"bike_id":"c6776248-4950-445f-9307-ae6dd6fb03af","system_id":"levelo_inurba_marseille","lat":43.33738,"lon":5.37457,"is_reserved":false,"is_disabled":false,"rental_uris":{"android":"levelo://app?vid=c6776248-4950-445f-9307-ae6dd6fb03af","ios":"levelo://app?vid=c6776248-4950-445f-9307-ae6dd6fb03af"},"vehicle_type_id":"4","last_reported":1706997963,"current_range_meters":27600,"station_id":"","pricing_plan_id":"free"},{"bike_id":"1a7b1015-1be8-4cfd-bd06-d5858932e1ba","system_id":"levelo_inurba_marseille","lat":43.312609,"lon":5.401662,"is_reserved":false,"is_disabled":false,"rental_uris":{"android":"levelo://app?vid=1a7b1015-1be8-4cfd-bd06-d5858932e1ba","ios":"levelo://app?vid=1a7b1015-1be8-4cfd-bd06-d5858932e1ba"},"vehicle_type_id":"4","last_reported":1706997963,"current_range_meters":9600,"station_id":"ce4bh092rcd13ifvqd30","pricing_plan_id":"free"},{"bike_id":"9b58085e-d8aa-4b76-81bc-64bc17e480aa","system_id":"levelo_inurba_marseille","lat":43.30642,"lon":5.401031,"is_reserved":false,"is_disabled":false,"rental_uris":{"android":"levelo://app?vid=9b58085e-d8aa-4b76-81bc-64bc17e480aa","ios":"levelo://app?vid=9b58085e-d8aa-4b76-81bc-64bc17e480aa"},"vehicle_type_id":"4","last_reported":1706997963,"current_range_meters":14000,"station_id":"ce4bh112rcd13ifvqda0","pricing_plan_id":"free"},{"bike_id":"5ed88ba3-ac2e-4402-81bb-9696c93e0b29","system_id":"levelo_inurba_marseille","lat":43.306412,"lon":5.401035,"is_reserved":false,"is_disabled":false,"rental_uris":{"android":"levelo://app?vid=5ed88ba3-ac2e-4402-81bb-9696c93e0b29","ios":"levelo://app?vid=5ed88ba3-ac2e-4402-81bb-9696c93e0b29"},"vehicle_type_id":"4","last_reported":1706997963,"current_range_meters":12400,"station_id":"ce4bh112rcd13ifvqda0","pricing_plan_id":"free"},{"bike_id":"bce60222-454e-4d3c-ac32-e076b49d1272","system_id":"levelo_inurba_marseille","lat":43.30642,"lon":5.401031,"is_reserved":false,"is_disabled":false,"rental_uris":{"android":"levelo://app?vid=bce60222-454e-4d3c-ac32-e076b49d1272","ios":"levelo://app?vid=bce60222-454e-4d3c-ac32-e076b49d1272"},"vehicle_type_id":"4","last_reported":1706997963,"current_range_meters":3200,"station_id":"ce4bh112rcd13ifvqda0","pricing_plan_id":"free"},{"bike_id":"6bc5f068-8d73-472a-bdfc-829e02abf9c0","system_id":"levelo_inurba_marseille","lat":43.30642,"lon":5.401031,"is_reserved":false,"is_disabled":false,"rental_uris":{"android":"levelo://app?vid=6bc5f068-8d73-472a-bdfc-829e02abf9c0","ios":"levelo://app?vid=6bc5f068-8d73-472a-bdfc-829e02abf9c0"},"vehicle_type_id":"4","last_reported":1706997963,"current_range_meters":26000,"station_id":"ce4bh112rcd13ifvqda0","pricing_plan_id":"free"},{"bike_id":"660c64cf-e348-4dee-b388-1eeadac9f2a7","system_id":"levelo_inurba_marseille","lat":43.30642,"lon":5.401031,"is_reserved":false,"is_disabled":false,"rental_uris":{"android":"levelo://app?vid=660c64cf-e348-4dee-b388-1eeadac9f2a7","ios":"levelo://app?vid=660c64cf-e348-4dee-b388-1eeadac9f2a7"},"vehicle_type_id":"4","last_reported":1706997963,"current_range_meters":0,"station_id":"ce4bh112rcd13ifvqda0","pricing_plan_id":"free"},{"bike_id":"1f2f1fc7-de9a-45d7-bdeb-95bd33b08aca","system_id":"levelo_inurba_marseille","lat":43.301373,"lon":5.398422,"is_reserved":false,"is_disabled":false,"rental_uris":{"android":"levelo://app?vid=1f2f1fc7-de9a-45d7-bdeb-95bd33b08aca","ios":"levelo://app?vid=1f2f1fc7-de9a-45d7-bdeb-95bd33b08aca"},"vehicle_type_id":"4","last_reported":1706997963,"current_range_meters":16400,"station_id":"","pricing_plan_id":"free"},{"bike_id":"b5c8cd35-34dd-45ee-b3e7-3050ef3cbe6a","system_id":"levelo_inurba_marseille","lat":43.337673,"lon":5.374918,"is_reserved":false,"is_disabled":false,"rental_uris":{"android":"levelo://app?vid=b5c8cd35-34dd-45ee-b3e7-3050ef3cbe6a","ios":"levelo://app?vid=b5c8cd35-34dd-45ee-b3e7-3050ef3cbe6a"},"vehicle_type_id":"4","last_reported":1706997963,"current_range_meters":14800,"station_id":"","pricing_plan_id":"free"},{"bike_id":"53d6db98-606f-4676-ab77-675a4a2b6425","system_id":"levelo_inurba_marseille","lat":43.301117,"lon":5.398795,"is_reserved":false,"is_disabled":false,"rental_uris":{"android":"levelo://app?vid=53d6db98-606f-4676-ab77-675a4a2b6425","ios":"levelo://app?vid=53d6db98-606f-4676-ab77-675a4a2b6425"},"vehicle_type_id":"4","last_reported":1706997963,"current_range_meters":26400,"station_id":"ce4bh0h2rcd13ifvqd40","pricing_plan_id":"free"},{"bike_id":"dcb9b42b-4433-4274-afa2-af0603c37795","system_id":"levelo_inurba_marseille","lat":43.301117,"lon":5.398795,"is_reserved":false,"is_disabled":false,"rental_uris":{"android":"levelo://app?vid=dcb9b42b-4433-4274-afa2-af0603c37795","ios":"levelo://app?vid=dcb9b42b-4433-4274-afa2-af0603c37795"},"vehicle_type_id":"4","last_reported":1706997963,"current_range_meters":2000,"station_id":"ce4bh0h2rcd13ifvqd40","pricing_plan_id":"free"},{"bike_id":"2513d9be-aa10-45e8-84cd-6e64ac968ca3","system_id":"levelo_inurba_marseille","lat":43.286591,"lon":5.363346,"is_reserved":false,"is_disabled":false,"rental_uris":{"android":"levelo://app?vid=2513d9be-aa10-45e8-84cd-6e64ac968ca3","ios":"levelo://app?vid=2513d9be-aa10-45e8-84cd-6e64ac968ca3"},"vehicle_type_id":"4","last_reported":1706997963,"current_range_meters":13600,"station_id":"ce4bhah2rcd13ifvqej0","pricing_plan_id":"free"},{"bike_id":"89be5836-b8de-459a-9f3b-d70c69041cd8","system_id":"levelo_inurba_marseille","lat":43.286593,"lon":5.363346,"is_reserved":false,"is_disabled":false,"rental_uris":{"android":"levelo://app?vid=89be5836-b8de-459a-9f3b-d70c69041cd8","ios":"levelo://app?vid=89be5836-b8de-459a-9f3b-d70c69041cd8"},"vehicle_type_id":"4","last_reported":1706997963,"current_range_meters":14000,"station_id":"ce4bhah2rcd13ifvqej0","pricing_plan_id":"free"},{"bike_id":"076b9d2e-7eb5-4874-b615-350e447ba93a","system_id":"levelo_inurba_marseille","lat":43.286961,"lon":5.373785,"is_reserved":false,"is_disabled":false,"rental_uris":{"android":"levelo://app?vid=076b9d2e-7eb5-4874-b615-350e447ba93a","ios":"levelo://app?vid=076b9d2e-7eb5-4874-b615-350e447ba93a"},"vehicle_type_id":"4","last_reported":1706997963,"current_range_meters":13600,"station_id":"ce4bh3p2rcd13ifvqdq0","pricing_plan_id":"free"},{"bike_id":"d6c4b413-1338-4bbe-85ce-56771682103f","system_id":"levelo_inurba_marseille","lat":43.286961,"lon":5.373785,"is_reserved":false,"is_disabled":false,"rental_uris":{"android":"levelo://app?vid=d6c4b413-1338-4bbe-85ce-56771682103f","ios":"levelo://app?vid=d6c4b413-1338-4bbe-85ce-56771682103f"},"vehicle_type_id":"4","last_reported":1706997963,"current_range_meters":23600,"station_id":"ce4bh3p2rcd13ifvqdq0","pricing_plan_id":"free"},{"bike_id":"9206a2e3-1330-4849-a25d-5eaeb2f32892","system_id":"levelo_inurba_marseille","lat":43.286961,"lon":5.373785,"is_reserved":false,"is_disabled":false,"rental_uris":{"android":"levelo://app?vid=9206a2e3-1330-4849-a25d-5eaeb2f32892","ios":"levelo://app?vid=9206a2e3-1330-4849-a25d-5eaeb2f32892"},"vehicle_type_id":"4","last_reported":1706997963,"current_range_meters":0,"station_id":"ce4bh3p2rcd13ifvqdq0","pricing_plan_id":"free"},{"bike_id":"e97eaa03-56db-480f-bd5b-a81e38c81816","system_id":"levelo_inurba_marseille","lat":43.295194,"lon":5.39397,"is_reserved":false,"is_disabled":false,"rental_uris":{"android":"levelo://app?vid=e97eaa03-56db-480f-bd5b-a81e38c81816","ios":"levelo://app?vid=e97eaa03-56db-480f-bd5b-a81e38c81816"},