{"last_updated":1747916446,"ttl":60,"version":"2.2","data":{"bikes":[{"bike_id":"c0b9fd4f-e181-46ce-b0bf-f5119973334f","system_id":"levelo_inurba_marseille","lat":43.33771,"lon":5.37424,"is_reserved":false,"is_disabled":true,"rental_uris":{"android":"levelo://app?vid=c0b9fd4f-e181-46ce-b0bf-f5119973334f","ios":"levelo://app?vid=c0b9fd4f-e181-46ce-b0bf-f5119973334f"},"vehicle_type_id":"4","last_reported":1747916446,"current_range_meters":0,"station_id":"","pricing_plan_id":"cebpf4jnsgd1na2vs0mg"},{"bike_id":"99f73d8c-ff21-451c-8082-80384eaeabfc","system_id":"levelo_inurba_marseille","lat":43.305583,"lon":5.401625,"is_reserved":false,"is_disabled":true,"rental_uris":{"android":"levelo://app?vid=99f73d8c-ff21-451c-8082-80384eaeabfc","ios":"levelo://app?vid=99f73d8c-ff21-451c-8082-80384eaeabfc"},"vehicle_type_id":"4","last_reported":1747916446,"current_range_meters":0,"station_id":"","pricing_plan_id":"cebpf4jnsgd1na2vs0mg"},{"bike_id":"c306fa7d-481e-4ae3-9585-ff4c1f5ddcb9","system_id":"levelo_inurba_marseille","lat":43.34985,"lon":5.37947,"is_reserved":false,"is_disabled":true,"rental_uris":{"android":"levelo://app?vid=c306fa7d-481e-4ae3-9585-ff4c1f5ddcb9","ios":"levelo://app?vid=c306fa7d-481e-4ae3-9585-ff4c1f5ddcb9"},"vehicle_type_id":"4","last_reported":1747916446,"current_range_meters":0,"station_id":"","pricing_plan_id":"cebpf4jnsgd1na2vs0mg"},{"bike_id":"c2b4a03e-0b64-4ca0-8ea3-612bc6668100","system_id":"levelo_inurba_marseille","lat":43.31404,"lon":5.37565,"is_reserved":false,"is_disabled":true,"rental_uris":{"android":"levelo://app?vid=c2b4a03e-0b64-4ca0-8ea3-612bc6668100","ios":"levelo://app?vid=c2b4a03e-0b64-4ca0-8ea3-612bc6668100"},"vehicle_type_id":"4","last_reported":1747916446,"current_range_meters":0,"station_id":"","pricing_plan_id":"cebpf4jnsgd1na2vs0mg"},{"bike_id":"8f0f531d-6a65-4647-8a6f-baa3d982f42f","system_id":"levelo_inurba_marseille","lat":43.28116,"lon":5.42564,"is_reserved":false,"is_disabled":true,"rental_uris":{"android":"levelo://app?vid=8f0f531d-6a65-4647-8a6f-baa3d982f42f","ios":"levelo://app?vid=8f0f531d-6a65-4647-8a6f-baa3d982f42f"},"vehicle_type_id":"4","last_reported":1747916446,"current_range_meters":0,"station_id":"","pricing_plan_id":"cebpf4jnsgd1na2vs0mg"},{"bike_id":"b8530293-f35c-4cb4-885f-720c113d23a6","system_id":"levelo_inurba_marseille","lat":43.25019,"lon":5.39621,"is_reserved":false,"is_disabled":true,"rental_uris":{"android":"levelo://app?vid=b8530293-f35c-4cb4-885f-720c113d23a6","ios":"levelo://app?vid=b8530293-f35c-4cb4-885f-720c113d23a6"},"vehicle_type_id":"4","last_reported":1747916446,"current_range_meters":0,"station_id":"","pricing_plan_id":"cebpf4jnsgd1na2vs0mg"},{"bike_id":"e9dd3aa4-b5e7-4480-926d-d7f537719bfa","system_id":"levelo_inurba_marseille","lat":43.230331,"lon":5.401847,"is_reserved":false,"is_disabled":true,"rental_uris":{"android":"levelo://app?vid=e9dd3aa4-b5e7-4480-926d-d7f537719bfa","ios":"levelo://app?vid=e9dd3aa4-b5e7-4480-926d-d7f537719bfa"},"vehicle_type_id":"4","last_reported":1747916446,"current_range_meters":0,"station_id":"","pricing_plan_id":"cebpf4jnsgd1na2vs0mg"},{"bike_id":"14603e41-b2dd-4757-a53c-2e366aa4f983","system_id":"levelo_inurba_marseille","lat":43.26992,"lon":5.4283,"is_reserved":false,"is_disabled":true,"rental_uris":{"android":"levelo://app?vid=14603e41-b2dd-4757-a53c-2e366aa4f983","ios":"levelo://app?vid=14603e41-b2dd-4757-a53c-2e366aa4f983"},"vehicle_type_id":"4","last_reported":1747916446,"current_range_meters":0,"station_id":"","pricing_plan_id":"cebpf4jnsgd1na2vs0mg"},{"bike_id":"5451032d-0e04-497e-8eae-dbd7b252321f","system_id":"levelo_inurba_marseille","lat":43.30143,"lon":5.38789,"is_reserved":false,"is_disabled":true,"rental_uris":{"android":"levelo://app?vid=5451032d-0e04-497e-8eae-dbd7b252321f","ios":"levelo://app?vid=5451032d-0e04-497e-8eae-dbd7b252321f"},"vehicle_type_id":"4","last_reported":1747916446,"current_range_meters":0,"station_id":"ce4bghh2rcd13ifvqb60","pricing_plan_id":"cebpf4jnsgd1na2vs0mg"},{"bike_id":"2358dee4-ecc8-4844-a4e6-bf60e5b7de55","system_id":"levelo_inurba_marseille","lat":43.298,"lon":5.3809,"is_reserved":false,"is_disabled":true,"rental_uris":{"android":"levelo://app?vid=2358dee4-ecc8-4844-a4e6-bf60e5b7de55","ios":"levelo://app?vid=2358dee4-ecc8-4844-a4e6-bf60e5b7de55"},"vehicle_type_id":"4","last_reported":1747916446,"current_range_meters":0,"station_id":"ce4bgip2rcd13ifvqbb0","pricing_plan_id":"cebpf4jnsgd1na2vs0mg"},{"bike_id":"2cda4bea-f437-4cfb-b1b5-a7ce9d6c28bc","system_id":"levelo_inurba_marseille","lat":43.301457,"lon":5.37407,"is_reserved":false,"is_disabled":true,"rental_uris":{"android":"levelo://app?vid=2cda4bea-f437-4cfb-b1b5-a7ce9d6c28bc","ios":"levelo://app?vid=2cda4bea-f437-4cfb-b1b5-a7ce9d6c28bc"},"vehicle_type_id":"4","last_reported":1747916446,"current_range_meters":0,"station_id":"ce4bgs92rcd13ifvqcc0","pricing_plan_id":"cebpf4jnsgd1na2vs0mg"},{"bike_id":"e5301a4d-6e05-4822-a082-0666c1ca4b81","system_id":"levelo_inurba_marseille","lat":43.30463,"lon":5.37907,"is_reserved":false,"is_disabled":true,"rental_uris":{"android":"levelo://app?vid=e5301a4d-6e05-4822-a082-0666c1ca4b81","ios":"levelo://app?vid=e5301a4d-6e05-4822-a082-0666c1ca4b81"},"vehicle_type_id":"4","last_reported":1747916446,"current_range_meters":0,"station_id":"ce4bgup2rcd13ifvqcn0","pricing_plan_id":"cebpf4jnsgd1na2vs0mg"},{"bike_id":"03ce9bd8-86f0-4857-a59a-527f6cbeef00","system_id":"levelo_inurba_marseille","lat":43.30471,"lon":5.37905,"is_reserved":false,"is_disabled":true,"rental_uris":{"android":"levelo://app?vid=03ce9bd8-86f0-4857-a59a-527f6cbeef00","ios":"levelo://app?vid=03ce9bd8-86f0-4857-a59a-527f6cbeef00"},"vehicle_type_id":"4","last_reported":1747916446,"current_range_meters":0,"station_id":"ce4bgup2rcd13ifvqcn0","pricing_plan_id":"cebpf4jnsgd1na2vs0mg"},{"bike_id":"cc8aff25-987d-4616-91b2-1030fa1fcc9e","system_id":"levelo_inurba_marseille","lat":43.30081,"lon":5.39078,"is_reserved":false,"is_disabled":true,"rental_uris":{"android":"levelo://app?vid=cc8aff25-987d-4616-91b2-1030fa1fcc9e","ios":"levelo://app?vid=cc8aff25-987d-4616-91b2-1030fa1fcc9e"},"vehicle_type_id":"4","last_reported":1747916446,"current_range_meters":0,"station_id":"ce4bh192rcd13ifvqdb0","pricing_plan_id":"cebpf4jnsgd1na2vs0mg"},{"bike_id":"c3067668-6d9b-4f3f-a6fe-67f8f193d20d","system_id":"levelo_inurba_marseille","lat":43.28373,"lon":5.38642,"is_reserved":false,"is_disabled":true,"rental_uris":{"android":"levelo://app?vid=c3067668-6d9b-4f3f-a6fe-67f8f193d20d","ios":"levelo://app?vid=c3067668-6d9b-4f3f-a6fe-67f8f193d20d"},"vehicle_type_id":"4","last_reported":1747916446,"current_range_meters":0,"station_id":"ce4bh492rcd13ifvqdvg","pricing_plan_id":"cebpf4jnsgd1na2vs0mg"},{"bike_id":"28f5641c-3b88-45e6-8a4e-c4db2aff452a","system_id":"levelo_inurba_marseille","lat":43.2803,"lon":5.36939,"is_reserved":false,"is_disabled":true,"rental_uris":{"android":"levelo://app?vid=28f5641c-3b88-45e6-8a4e-c4db2aff452a","ios":"levelo://app?vid=28f5641c-3b88-45e6-8a4e-c4db2aff452a"},"vehicle_type_id":"4","last_reported":1747916446,"current_range_meters":0,"station_id":"ce4bha12rcd13ifvqef0","pricing_plan_id":"cebpf4jnsgd1na2vs0mg"},{"bike_id":"492b3e01-94b4-479c-9fcc-068974b23c2d","system_id":"levelo_inurba_marseille","lat":43.25581,"lon":5.38229,"is_reserved":false,"is_disabled":true,"rental_uris":{"android":"levelo://app?vid=492b3e01-94b4-479c-9fcc-068974b23c2d","ios":"levelo://app?vid=492b3e01-94b4-479c-9fcc-068974b23c2d"},"vehicle_type_id":"4","last_reported":1747916446,"current_range_meters":0,"station_id":"ce4bhih2rcd13ifvqfs0","pricing_plan_id":"cebpf4jnsgd1na2vs0mg"},{"bike_id":"6370a696-239f-4994-b8e2-75747d97f22b","system_id":"levelo_inurba_marseille","lat":43.25088,"lon":5.39533,"is_reserved":false,"is_disabled":true,"rental_uris":{"android":"levelo://app?vid=6370a696-239f-4994-b8e2-75747d97f22b","ios":"levelo://app?vid=6370a696-239f-4994-b8e2-75747d97f22b"},"vehicle_type_id":"4","last_reported":1747916446,"current_range_meters":0,"station_id":"ce4bhm12rcd13ifvqgkg","pricing_plan_id":"cebpf4jnsgd1na2vs0mg"},{"bike_id":"70c5c5ad-5e66-4a49-9450-c4d67d96b788","system_id":"levelo_inurba_marseille","lat":43.27096,"lon":5.42704,"is_reserved":false,"is_disabled":true,"rental_uris":{"android":"levelo://app?vid=70c5c5ad-5e66-4a49-9450-c4d67d96b788","ios":"levelo://app?vid=70c5c5ad-5e66-4a49-9450-c4d67d96b788"},"vehicle_type_id":"4","last_reported":1747916446,"current_range_meters":400,"station_id":"","pricing_plan_id":"cebpf4jnsgd1na2vs0mg"},{"bike_id":"0d7de895-6860-4e91-86f1-3448171244a6","system_id":"levelo_inurba_marseille","lat":43.3172,"lon":5.40438,"is_reserved":false,"is_disabled":true,"rental_uris":{"android":"levelo://app?vid=0d7de895-6860-4e91-86f1-3448171244a6","ios":"levelo://app?vid=0d7de895-6860-4e91-86f1-3448171244a6"},"vehicle_type_id":"4","last_reported":1747916446,"current_range_meters":400,"station_id":"ce4bh012rcd13ifvqd00","pricing_plan_id":"cebpf4jnsgd1na2vs0mg"},{"bike_id":"56ae3812-e361-4564-b157-4dc0683e3b6f","system_id":"levelo_inurba_marseille","lat":43.26563,"lon":5.39006,"is_reserved":false,"is_disabled":true,"rental_uris":{"android":"levelo://app?vid=56ae3812-e361-4564-b157-4dc0683e3b6f","ios":"levelo://app?vid=56ae3812-e361-4564-b157-4dc0683e3b6f"},"vehicle_type_id":"4","last_reported":1747916446,"current_range_meters":400,"station_id":"ce4bhe12rcd13ifvqf30","pricing_plan_id":"cebpf4jnsgd1na2vs0mg"},{"bike_id":"2e826d5d-5d25-4993-854a-107b67a93705","system_id":"levelo_inurba_marseille","lat":43.33603,"lon":5.41018,"is_reserved":false,"is_disabled":true,"rental_uris":{"android":"levelo://app?vid=2e826d5d-5d25-4993-854a-107b67a93705","ios":"levelo://app?vid=2e826d5d-5d25-4993-854a-107b67a93705"},"vehicle_type_id":"4","last_reported":1747916446,"current_range_meters":400,"station_id":"ce4bhqh2rcd13ifvqhmg","pricing_plan_id":"cebpf4jnsgd1na2vs0mg"},{"bike_id":"a90f8e9a-f6e2-4b3d-9d6c-5156fa8f0a33","system_id":"levelo_inurba_marseille","lat":43.23199,"lon":5.35554,"is_reserved":false,"is_disabled":true,"rental_uris":{"android":"levelo://app?vid=a90f8e9a-f6e2-4b3d-9d6c-5156fa8f0a33","ios":"levelo://app?vid=a90f8e9a-f6e2-4b3d-9d6c-5156fa8f0a33"},"vehicle_type_id":"4","last_reported":1747916446,"current_range_meters":800,"station_id":"ce4bhu92rcd13ifvqi70","pricing_plan_id":"cebpf4jnsgd1na2vs0mg"},{"bike_id":"15dcdbbd-a41e-43eb-9ed6-26ec15ce7a50","system_id":"levelo_inurba_marseille","lat":43.21411,"lon":5.34113,"is_reserved":false,"is_disabled":true,"rental_uris":{"android":"levelo://app?vid=15dcdbbd-a41e-43eb-9ed6-26ec15ce7a50","ios":"levelo://app?vid=15dcdbbd-a41e-43eb-9ed6-26ec15ce7a50"},"vehicle_type_id":"4","last_reported":1747916446,"current_range_meters":1200,"station_id":"","pricing_plan_id":"cebpf4jnsgd1na2vs0mg"},{"bike_id":"5a1656e4-66b8-490a-a1aa-627f3eb08ed7","system_id":"levelo_inurba_marseille","lat":43.284683,"lon":5.385593,"is_reserved":false,"is_disabled":true,"rental_uris":{"android":"levelo://app?vid=5a1656e4-66b8-490a-a1aa-627f3eb08ed7","ios":"levelo://app?vid=5a1656e4-66b8-490a-a1aa-627f3eb08ed7"},"vehicle_type_id":"4","last_reported":1747916446,"current_range_meters":1200,"station_id":"ce4bh8p2rcd13ifvqeb0","pricing_plan_id":"cebpf4jnsgd1na2vs0mg"},{"bike_id":"5f4d1600-8297-417c-be77-9edd3ef59a7b","system_id":"levelo_inurba_marseille","lat":43.28932,"lon":5.36648,"is_reserved":false,"is_disabled":true,"rental_uris":{"android":"levelo://app?vid=5f4d1600-8297-417c-be77-9edd3ef59a7b","ios":"levelo://app?vid=5f4d1600-8297-417c-be77-9edd3ef59a7b"},"vehicle_type_id":"4","last_reported":1747916446,"current_range_meters":1200,"station_id":"ce4bhap2rcd13ifvqek0","pricing_plan_id":"cebpf4jnsgd1na2vs0mg"},{"bike_id":"93d57386-132b-4c4e-9e4f-544682924965","system_id":"levelo_inurba_marseille","lat":43.26804,"lon":5.39431,"is_reserved":false,"is_disabled":true,"rental_uris":{"android":"levelo://app?vid=93d57386-132b-4c4e-9e4f-544682924965","ios":"levelo://app?vid=93d57386-132b-4c4e-9e4f-544682924965"},"vehicle_type_id":"4","last_reported":1747916446,"current_range_meters":1200,"station_id":"ce4bhh12rcd13ifvqfg0","pricing_plan_id":"cebpf4jnsgd1na2vs0mg"},{"bike_id":"b39b5564-25b6-482c-a8ed-75595ba2f676","system_id":"levelo_inurba_marseille","lat":43.270694,"lon":5.422804,"is_reserved":false,"is_disabled":true,"rental_uris":{"android":"levelo://app?vid=b39b5564-25b6-482c-a8ed-75595ba2f676","ios":"levelo://app?vid=b39b5564-25b6-482c-a8ed-75595ba2f676"},"vehicle_type_id":"4","last_reported":1747916446,"current_range_meters":1200,"station_id":"ce4bhk92rcd13ifvqgb0","pricing_plan_id":"cebpf4jnsgd1na2vs0mg"},{"bike_id":"bea239ec-65a6-40ae-80b8-fb67e616d573","system_id":"levelo_inurba_marseille","lat":43.274059,"lon":5.407454,"is_reserved":false,"is_disabled":true,"rental_uris":{"android":"levelo://app?vid=bea239ec-65a6-40ae-80b8-fb67e616d573","ios":"levelo://app?vid=bea239ec-65a6-40ae-80b8-fb67e616d573"},"vehicle_type_id":"4","last_reported":1747916446,"current_range_meters":1600,"station_id":"","pricing_plan_id":"cebpf4jnsgd1na2vs0mg"},{"bike_id":"5281ff50-15a3-4882-a775-51088d6a98cc","system_id":"levelo_inurba_marseille","lat":43.3151,"lon":5.37241,"is_reserved":false,"is_disabled":true,"rental_uris":{"android":"levelo://app?vid=5281ff50-15a3-4882-a775-51088d6a98cc","ios":"levelo://app?vid=5281ff50-15a3-4882-a775-51088d6a98cc"},"vehicle_type_id":"4","last_reported":1747916446,"current_range_meters":1600,"station_id":"","pricing_plan_id":"cebpf4jnsgd1na2vs0mg"},{"bike_id":"aac046a4-aae7-41ff-a636-150e84d49f1c","system_id":"levelo_inurba_marseille","lat":43.30922,"lon":5.40154,"is_reserved":false,"is_disabled":true,"rental_uris":{"android":"levelo://app?vid=aac046a4-aae7-41ff-a636-150e84d49f1c","ios":"levelo://app?vid=aac046a4-aae7-41ff-a636-150e84d49f1c"},"vehicle_type_id":"4","last_reported":1747916446,"current_range_meters":1600,"station_id":"ce4bgvp2rcd13ifvqct0","pricing_plan_id":"cebpf4jnsgd1na2vs0mg"},{"bike_id":"d4ae9805-9e53-442a-83eb-1bc2e46c2c45","system_id":"levelo_inurba_marseille","lat":43.28698,"lon":5.373816,"is_reserved":false,"is_disabled":true,"rental_uris":{"android":"levelo://app?vid=d4ae9805-9e53-442a-83eb-1bc2e46c2c45","ios":"levelo://app?vid=d4ae9805-9e53-442a-83eb-1bc2e46c2c45"},"vehicle_type_id":"4","last_reported":1747916446,"current_range_meters":1600,"station_id":"ce4bh3p2rcd13ifvqdq0","pricing_plan_id":"cebpf4jnsgd1na2vs0mg"},{"bike_id":"68ab961e-728f-4b98-bfac-72596716cc63","system_id":"levelo_inurba_marseille","lat":43.28466,"lon":5.35886,"is_reserved":false,"is_disabled":true,"rental_uris":{"android":"levelo://app?vid=68ab961e-728f-4b98-bfac-72596716cc63","ios":"levelo://app?vid=68ab961e-728f-4b98-bfac-72596716cc63"},"vehicle_type_id":"4","last_reported":1747916446,"current_range_meters":1600,"station_id":"ce4bhah2rcd13ifvqei0","pricing_plan_id":"cebpf4jnsgd1na2vs0mg"},{"bike_id":"a443991b-cdea-4422-a0c2-351ea92aca3e","system_id":"levelo_inurba_marseille","lat":43.284627,"lon":5.358842,"is_reserved":false,"is_disabled":true,"rental_uris":{"android":"levelo://app?vid=a443991b-cdea-4422-a0c2-351ea92aca3e","ios":"levelo://app?vid=a443991b-cdea-4422-a0c2-351ea92aca3e"},"vehicle_type_id":"4","last_reported":1747916446,"current_range_meters":1600,"station_id":"ce4bhah2rcd13ifvqei0","pricing_plan_id":"cebpf4jnsgd1na2vs0mg"},{"bike_id":"29397ad3-53c5-4162-982a-9b44bf6e9347","system_id":"levelo_inurba_marseille","lat":43.30302,"lon":5.3921,"is_reserved":false,"is_disabled":true,"rental_uris":{"android":"levelo://app?vid=29397ad3-53c5-4162-982a-9b44bf6e9347","ios":"levelo://app?vid=29397ad3-53c5-4162-982a-9b44bf6e9347"},"vehicle_type_id":"4","last_reported":1747916446,"current_range_meters":2000,"station_id":"ce4bgkh2rcd13ifvqbk0","pricing_plan_id":"cebpf4jnsgd1na2vs0mg"},{"bike_id":"94deffea-6ae7-46c4-84c3-c2d77df0befb","system_id":"levelo_inurba_marseille","lat":43.31721,"lon":5.40443,"is_reserved":false,"is_disabled":true,"rental_uris":{"android":"levelo://app?vid=94deffea-6ae7-46c4-84c3-c2d77df0befb","ios":"levelo://app?vid=94deffea-6ae7-46c4-84c3-c2d77df0befb"},"vehicle_type_id":"4","last_reported":1747916446,"current_range_meters":2000,"station_id":"ce4bh012rcd13ifvqd00","pricing_plan_id":"cebpf4jnsgd1na2vs0mg"},{"bike_id":"addacb63-eaa1-4b88-b2d5-f495030c26ce","system_id":"levelo_inurba_marseille","lat":43.23143,"lon":5.43731,"is_reserved":false,"is_disabled":true,"rental_uris":{"android":"levelo://app?vid=addacb63-eaa1-4b88-b2d5-f495030c26ce","ios":"levelo://app?vid=addacb63-eaa1-4b88-b2d5-f495030c26ce"},"vehicle_type_id":"4","last_reported":1747916446,"current_range_meters":2000,"station_id":"ce4bhmp2rcd13ifvqgog","pricing_plan_id":"cebpf4jnsgd1na2vs0mg"},{"bike_id":"c889bad7-bbd2-4ef1-9cce-7a8d890ff30b","system_id":"levelo_inurba_marseille","lat":43.231966,"lon":5.355563,"is_reserved":false,"is_disabled":true,"rental_uris":{"android":"levelo://app?vid=c889bad7-bbd2-4ef1-9cce-7a8d890ff30b","ios":"levelo://app?vid=c889bad7-bbd2-4ef1-9cce-7a8d890ff30b"},"vehicle_type_id":"4","last_reported":1747916446,"current_range_meters":2000,"station_id":"ce4bhu92rcd13ifvqi70","pricing_plan_id":"cebpf4jnsgd1na2vs0mg"},{"bike_id":"5c68561c-28de-40ad-a285-2f59f9116211","system_id":"levelo_inurba_marseille","lat":43.33616,"lon":5.40942,"is_reserved":false,"is_disabled":false,"rental_uris":{"android":"levelo://app?vid=5c68561c-28de-40ad-a285-2f59f9116211","ios":"levelo://app?vid=5c68561c-28de-40ad-a285-2f59f9116211"},"vehicle_type_id":"4","last_reported":1747916446,"current_range_meters":2800,"station_id":"","pricing_plan_id":"cebpf4jnsgd1na2vs0mg"},{"bike_id":"b6320ce1-ce47-4983-b316-3777151cee00","system_id":"levelo_inurba_marseille","lat":43.295245,"lon":5.394049,"is_reserved":false,"is_disabled":false,"rental_uris":{"android":"levelo://app?vid=b6320ce1-ce47-4983-b316-3777151cee00","ios":"levelo://app?vid=b6320ce1-ce47-4983-b316-3777151cee00"},"vehicle_type_id":"4","last_reported":1747916446,"current_range_meters":2800,"station_id":"","pricing_plan_id":"cebpf4jnsgd1na2vs0mg"},{"bike_id":"f59358dd-8069-4dd4-b094-3ee016c20e17","system_id":"levelo_inurba_marseille","lat":43.302,"lon":5.36631,"is_reserved":false,"is_disabled":false,"rental_uris":{"android":"levelo://app?vid=f59358dd-8069-4dd4-b094-3ee016c20e17","ios":"levelo://app?vid=f59358dd-8069-4dd4-b094-3ee016c20e17"},"vehicle_type_id":"4","last_reported":1747916446,"current_range_meters":2800,"station_id":"ce4bgrh2rcd13ifvqc8g","pricing_plan_id":"cebpf4jnsgd1na2vs0mg"},{"bike_id":"ca1ef42c-a88e-4a5c-bdc1-61570156b583","system_id":"levelo_inurba_marseille","lat":43.23152,"lon":5.43714,"is_reserved":false,"is_disabled":true,"rental_uris":{"android":"levelo://app?vid=ca1ef42c-a88e-4a5c-bdc1-61570156b583","ios":"levelo://app?vid=ca1ef42c-a88e-4a5c-bdc1-61570156b583"},"vehicle_type_id":"4","last_reported":1747916446,"current_range_meters":2800,"station_id":"ce4bhmp2rcd13ifvqgog","pricing_plan_id":"cebpf4jnsgd1na2vs0mg"},{"bike_id":"1b55dacb-c3d4-4781-ba10-3232f98bf9ae","system_id":"levelo_inurba_marseille","lat":43.336125,"lon":5.410384,"is_reserved":false,"is_disabled":false,"rental_uris":{"android":"levelo://app?vid=1b55dacb-c3d4-4781-ba10-3232f98bf9ae","ios":"levelo://app?vid=1b55dacb-c3d4-4781-ba10-3232f98bf9ae"},"vehicle_type_id":"4","last_reported":1747916446,"current_range_meters":2800,"station_id":"ce4bhqh2rcd13ifvqhmg","pricing_plan_id":"cebpf4jnsgd1na2vs0mg"},{"bike_id":"c883606a-a070-4242-b1b1-39d68ef71e2d","system_id":"levelo_inurba_marseille","lat":43.21752,"lon":5.34602,"is_reserved":false,"is_disabled":false,"rental_uris":{"android":"levelo://app?vid=c883606a-a070-4242-b1b1-39d68ef71e2d","ios":"levelo://app?vid=c883606a-a070-4242-b1b1-39d68ef71e2d"},"vehicle_type_id":"4","last_reported":1747916446,"current_range_meters":2800,"station_id":"st_cvj6r9ubvosntc0bgbag","pricing_plan_id":"cebpf4jnsgd1na2vs0mg"},{"bike_id":"4f06e6a2-859f-4238-8e19-842a91f675ef","system_id":"levelo_inurba_marseille","lat":43.28675,"lon":5.36353,"is_reserved":false,"is_disabled":false,"rental_uris":{"android":"levelo://app?vid=4f06e6a2-859f-4238-8e19-842a91f675ef","ios":"levelo://app?vid=4f06e6a2-859f-4238-8e19-842a91f675ef"},"vehicle_type_id":"4","last_reported":1747916446,"current_range_meters":3200,"station_id":"ce4bhah2rcd13ifvqej0","pricing_plan_id":"cebpf4jnsgd1na2vs0mg"},{"bike_id":"aaa6f3f5-67b4-4ad0-a92e-c4cf164d36c4","system_id":"levelo_inurba_marseille","lat":43.251232,"lon":5.403192,"is_reserved":false,"is_disabled":false,"rental_uris":{"android":"levelo://app?vid=aaa6f3f5-67b4-4ad0-a92e-c4cf164d36c4","ios":"levelo://app?vid=aaa6f3f5-67b4-4ad0-a92e-c4cf164d36c4"},"vehicle_type_id":"4","last_reported":1747916446,"current_range_meters":3200,"station_id":"ce4bhlh2rcd13ifvqgig","pricing_plan_id":"cebpf4jnsgd1na2vs0mg"},{"bike_id":"4f7b1d74-7772-4501-9555-c946637f63aa","system_id":"levelo_inurba_marseille","lat":43.2623,"lon":5.40449,"is_reserved":false,"is_disabled":false,"rental_uris":{"android":"levelo://app?vid=4f7b1d74-7772-4501-9555-c946637f63aa","ios":"levelo://app?vid=4f7b1d74-7772-4501-9555-c946637f63aa"},"vehicle_type_id":"4","last_reported":1747916446,"current_range_meters":3200,"station_id":"ce4bhmh2rcd13ifvqgmg","pricing_plan_id":"cebpf4jnsgd1na2vs0mg"},{"bike_id":"8e1b2c24-993d-4371-ad7b-064f0f55763e","system_id":"levelo_inurba_marseille","lat":43.28157,"lon":5.42644,"is_reserved":false,"is_disabled":false,"rental_uris":{"android":"levelo://app?vid=8e1b2c24-993d-4371-ad7b-064f0f55763e","ios":"levelo://app?vid=8e1b2c24-993d-4371-ad7b-064f0f55763e"},"vehicle_type_id":"4","last_reported":1747916446,"current_range_meters":3200,"station_id":"ce4bhnh2rcd13ifvqgug","pricing_plan_id":"cebpf4jnsgd1na2vs0mg"},{"bike_id":"b8b511c7-6f48-45be-97af-1e0036b54cc5","system_id":"levelo_inurba_marseille","lat":43.27371,"lon":5.42401,"is_reserved":false,"is_disabled":false,"rental_uris":{"android":"levelo://app?vid=b8b511c7-6f48-45be-97af-1e0036b54cc5","ios":"levelo://app?vid=b8b511c7-6f48-45be-97af-1e0036b54cc5"},"vehicle_type_id":"4","last_reported":1747916446,"current_range_meters":3600,"station_id":"","pricing_plan_id":"cebpf4jnsgd1na2vs0mg"},{"bike_id":"b67cd667-2e14-4aa8-9209-a6ac800a52d7","system_id":"levelo_inurba_marseille","lat":43.28568,"lon":5.39496,"is_reserved":false,"is_disabled":false,"rental_uris":{"android":"levelo://app?vid=b67cd667-2e14-4aa8-9209-a6ac800a52d7","ios":"levelo://app?vid=b67cd667-2e14-4aa8-9209-a6ac800a52d7"},"vehicle_type_id":"4","last_reported":1747916446,"current_range_meters":3600,"station_id":"ce4bh292rcd13ifvqdg0","pricing_plan_id":"cebpf4jnsgd1na2vs0mg"},{"bike_id":"e8162579-a5ad-485f-ad83-fec8a2ebe7e1","system_id":"levelo_inurba_marseille","lat":43.26826,"lon":5.39099,"is_reserved":false,"is_disabled":false,"rental_uris":{"android":"levelo://app?vid=e8162579-a5ad-485f-ad83-fec8a2ebe7e1","ios":"levelo://app?vid=e8162579-a5ad-485f-ad83-fec8a2ebe7e1"},"vehicle_type_id":"4","last_reported":1747916446,"current_range_meters":4000,"station_id":"","pricing_plan_id":"cebpf4jnsgd1na2vs0mg"},{"bike_id":"3552fbf2-b43a-446f-93f5-d695fc251b73","system_id":"levelo_inurba_marseille","lat":43.25256,"lon":5.374836,"is_reserved":false,"is_disabled":false,"rental_uris":{"android":"levelo://app?vid=3552fbf2-b43a-446f-93f5-d695fc251b73","ios":"levelo://app?vid=3552fbf2-b43a-446f-93f5-d695fc251b73"},"vehicle_type_id":"4","last_reported":1747916446,"current_range_meters":4000,"station_id":"","pricing_plan_id":"cebpf4jnsgd1na2vs0mg"},{"bike_id":"1c1dc960-9be2-4f0c-9e1e-b4ca0afbf496","system_id":"levelo_inurba_marseille","lat":43.25119,"lon":5.40327,"is_reserved":false,"is_disabled":false,"rental_uris":{"android":"levelo://app?vid=1c1dc960-9be2-4f0c-9e1e-b4ca0afbf496","ios":"levelo://app?vid=1c1dc960-9be2-4f0c-9e1e-b4ca0afbf496"},"vehicle_type_id":"4","last_reported":1747916446,"current_range_meters":4000,"station_id":"ce4bhlh2rcd13ifvqgig","pricing_plan_id":"cebpf4jnsgd1na2vs0mg"},{"bike_id":"1ff4dd87-bf56-4ab1-8365-aad71fcb827c","system_id":"levelo_inurba_marseille","lat":43.32678,"lon":5.42543,"is_reserved":false,"is_disabled":false,"rental_uris":{"android":"levelo://app?vid=1ff4dd87-bf56-4ab1-8365-aad71fcb827c","ios":"levelo://app?vid=1ff4dd87-bf56-4ab1-8365-aad71fcb827c"},"vehicle_type_id":"4","last_reported":1747916446,"current_range_meters":4400,"station_id":"","pricing_plan_id":"cebpf4jnsgd1na2vs0mg"},{"bike_id":"87b77e4c-ea88-4586-b697-0909bd9b1ce9","system_id":"levelo_inurba_marseille","lat":43.29621,"lon":5.37155,"is_reserved":false,"is_disabled":false,"rental_uris":{"android":"levelo://app?vid=87b77e4c-ea88-4586-b697-0909bd9b1ce9","ios":"levelo://app?vid=87b77e4c-ea88-4586-b697-0909bd9b1ce9"},"vehicle_type_id":"4","last_reported":1747916446,"current_range_meters":4400,"station_id":"ce4bgnh2rcd13ifvqc0g","pricing_plan_id":"cebpf4jnsgd1na2vs0mg"},{"bike_id":"b50ee262-1a29-46f7-8630-5803d1c9ad53","system_id":"levelo_inurba_marseille","lat":43.29842,"lon":5.36265,"is_reserved":false,"is_disabled":false,"rental_uris":{"android":"levelo://app?vid=b50ee262-1a29-46f7-8630-5803d1c9ad53","ios":"levelo://app?vid=b50ee262-1a29-46f7-8630-5803d1c9ad53"},"vehicle_type_id":"4","last_reported":1747916446,"current_range_meters":4400,"station_id":"ce4bgpp2rcd13ifvqc3g","pricing_plan_id":"cebpf4jnsgd1na2vs0mg"},{"bike_id":"4e600890-7a0a-4504-89a8-047524a1f649","system_id":"levelo_inurba_marseille","lat":43.30281,"lon":5.37678,"is_reserved":false,"is_disabled":false,"rental_uris":{"android":"levelo://app?vid=4e600890-7a0a-4504-89a8-047524a1f649","ios":"levelo://app?vid=4e600890-7a0a-4504-89a8-047524a1f649"},"vehicle_type_id":"4","last_reported":1747916446,"current_range_meters":4400,"station_id":"ce4bguh2rcd13ifvqcj0","pricing_plan_id":"cebpf4jnsgd1na2vs0mg"},{"bike_id":"7b19ae3d-375f-484a-ac22-3d52f30e632f","system_id":"levelo_inurba_marseille","lat":43.23195,"lon":5.39981,"is_reserved":false,"is_disabled":false,"rental_uris":{"android":"levelo://app?vid=7b19ae3d-375f-484a-ac22-3d52f30e632f","ios":"levelo://app?vid=7b19ae3d-375f-484a-ac22-3d52f30e632f"},"vehicle_type_id":"4","last_reported":1747916446,"current_range_meters":4400,"station_id":"ce4bhn12rcd13ifvqgqg","pricing_plan_id":"cebpf4jnsgd1na2vs0mg"},{"bike_id":"82d9224e-c124-406b-bd49-1d2e39a4165e","system_id":"levelo_inurba_marseille","lat":43.231793,"lon":5.399817,"is_reserved":false,"is_disabled":false,"rental_uris":{"android":"levelo://app?vid=82d9224e-c124-406b-bd49-1d2e39a4165e","ios":"levelo://app?vid=82d9224e-c124-406b-bd49-1d2e39a4165e"},"vehicle_type_id":"4","last_reported":1747916446,"current_range_meters":5600,"station_id":"","pricing_plan_id":"cebpf4jnsgd1na2vs0mg"},{"bike_id":"4f891411-1116-4ca4-a1e7-0372793ee4c8","system_id":"levelo_inurba_marseille","lat":43.29571,"lon":5.37496,"is_reserved":false,"is_disabled":false,"rental_uris":{"android":"levelo://app?vid=4f891411-1116-4ca4-a1e7-0372793ee4c8","ios":"levelo://app?vid=4f891411-1116-4ca4-a1e7-0372793ee4c8"},"vehicle_type_id":"4","last_reported":1747916446,"current_range_meters":5600,"station_id":"ce4bgh92rcd13ifvqb50","pricing_plan_id":"cebpf4jnsgd1na2vs0mg"},{"bike_id":"82ee2e57-c39d-41b7-8cf8-734b1b26e3ae","system_id":"levelo_inurba_marseille","lat":43.29566,"lon":5.37481,"is_reserved":false,"is_disabled":false,"rental_uris":{"android":"levelo://app?vid=82ee2e57-c39d-41b7-8cf8-734b1b26e3ae","ios":"levelo://app?vid=82ee2e57-c39d-41b7-8cf8-734b1b26e3ae"},"vehicle_type_id":"4","last_reported":1747916446,"current_range_meters":5600,"station_id":"ce4bgh92rcd13ifvqb50","pricing_plan_id":"cebpf4jnsgd1na2vs0mg"},{"bike_id":"516c5b35-7af5-40a7-a7cf-4da862710625","system_id":"levelo_inurba_marseille","lat":43.336105,"lon":5.410369,"is_reserved":false,"is_disabled":false,"rental_uris":{"android":"levelo://app?vid=516c5b35-7af5-40a7-a7cf-4da862710625","ios":"levelo://app?vid=516c5b35-7af5-40a7-a7cf-4da862710625"},"vehicle_type_id":"4","last_reported":1747916446,"current_range_meters":6000,"station_id":"ce4bhqh2rcd13ifvqhmg","pricing_plan_id":"cebpf4jnsgd1na2vs0mg"},{"bike_id":"47c68b3e-66f9-4e8c-9820-ab039038b62e","system_id":"levelo_inurba_marseille","lat":43.267807,"lon":5.3942,"is_reserved":false,"is_disabled":false,"rental_uris":{"android":"levelo://app?vid=47c68b3e-66f9-4e8c-9820-ab039038b62e","ios":"levelo://app?vid=47c68b3e-66f9-4e8c-9820-ab039038b62e"},"vehicle_type_id":"4","last_reported":1747916446,"current_range_meters":6400,"station_id":"","pricing_plan_id":"cebpf4jnsgd1na2vs0mg"},{"bike_id":"df106770-a124-4ecf-95cd-288da587773b","system_id":"levelo_inurba_marseille","lat":43.28641,"lon":5.38295,"is_reserved":false,"is_disabled":false,"rental_uris":{"android":"levelo://app?vid=df106770-a124-4ecf-95cd-288da587773b","ios":"levelo://app?vid=df106770-a124-4ecf-95cd-288da587773b"},"vehicle_type_id":"4","last_reported":1747916446,"current_range_meters":6400,"station_id":"","pricing_plan_id":"cebpf4jnsgd1na2vs0mg"},{"bike_id":"1b762b5a-5144-4532-8c85-fbeeb93e497b","system_id":"levelo_inurba_marseille","lat":43.29579,"lon":5.36734,"is_reserved":false,"is_disabled":false,"rental_uris":{"android":"levelo://app?vid=1b762b5a-5144-4532-8c85-fbeeb93e497b","ios":"levelo://app?vid=1b762b5a-5144-4532-8c85-fbeeb93e497b"},"vehicle_type_id":"4","last_reported":1747916446,"current_range_meters":6400,"station_id":"ce4bgph2rcd13ifvqc2g","pricing_plan_id":"cebpf4jnsgd1na2vs0mg"},{"bike_id":"9e0ad309-7ae7-4cd8-86a5-3aa1225dc34f","system_id":"levelo_inurba_marseille","lat":43.26251,"lon":5.374231,"is_reserved":false,"is_disabled":false,"rental_uris":{"android":"levelo://app?vid=9e0ad309-7ae7-4cd8-86a5-3aa1225dc34f","ios":"levelo://app?vid=9e0ad309-7ae7-4cd8-86a5-3aa1225dc34f"},"vehicle_type_id":"4","last_reported":1747916446,"current_range_meters":6800,"station_id":"","pricing_plan_id":"cebpf4jnsgd1na2vs0mg"},{"bike_id":"c172b8b2-6068-4ecd-9788-1fbcc3584e8e","system_id":"levelo_inurba_marseille","lat":43.28209,"lon":5.3906,"is_reserved":false,"is_disabled":false,"rental_uris":{"android":"levelo://app?vid=c172b8b2-6068-4ecd-9788-1fbcc3584e8e","ios":"levelo://app?vid=c172b8b2-6068-4ecd-9788-1fbcc3584e8e"},"vehicle_type_id":"4","last_reported":1747916446,"current_range_meters":6800,"station_id":"","pricing_plan_id":"cebpf4jnsgd1na2vs0mg"},{"bike_id":"50d458b1-fac6-4eeb-9dd0-79e8eefe4dda","system_id":"levelo_inurba_marseille","lat":43.30138,"lon":5.38772,"is_reserved":false,"is_disabled":false,"rental_uris":{"android":"levelo://app?vid=50d458b1-fac6-4eeb-9dd0-79e8eefe4dda","ios":"levelo://app?vid=50d458b1-fac6-4eeb-9dd0-79e8eefe4dda"},"vehicle_type_id":"4","last_reported":1747916446,"current_range_meters":6800,"station_id":"ce4bghh2rcd13ifvqb60","pricing_plan_id":"cebpf4jnsgd1na2vs0mg"},{"bike_id":"6278ff59-c907-46d5-8777-526be89cd595","system_id":"levelo_inurba_marseille","lat":43.296,"lon":5.38085,"is_reserved":false,"is_disabled":false,"rental_uris":{"android":"levelo://app?vid=6278ff59-c907-46d5-8777-526be89cd595","ios":"levelo://app?vid=6278ff59-c907-46d5-8777-526be89cd595"},"vehicle_type_id":"4","last_reported":1747916446,"current_range_meters":6800,"station_id":"ce4bgl12rcd13ifvqbo0","pricing_plan_id":"cebpf4jnsgd1na2vs0mg"},{"bike_id":"7bdff893-0314-4aa0-90ca-ef7d39aeb30d","system_id":"levelo_inurba_marseille","lat":43.298285,"lon":5.362777,"is_reserved":false,"is_disabled":false,"rental_uris":{"android":"levelo://app?vid=7bdff893-0314-4aa0-90ca-ef7d39aeb30d","ios":"levelo://app?vid=7bdff893-0314-4aa0-90ca-ef7d39aeb30d"},"vehicle_type_id":"4","last_reported":1747916446,"current_range_meters":6800,"station_id":"ce4bgpp2rcd13ifvqc3g","pricing_plan_id":"cebpf4jnsgd1na2vs0mg"},{"bike_id":"a2cf77dd-d42f-4f4b-a0f2-dccc0717a3af","system_id":"levelo_inurba_marseille","lat":43.24808,"lon":5.37464,"is_reserved":false,"is_disabled":false,"rental_uris":{"android":"levelo://app?vid=a2cf77dd-d42f-4f4b-a0f2-dccc0717a3af","ios":"levelo://app?vid=a2cf77dd-d42f-4f4b-a0f2-dccc0717a3af"},"vehicle_type_id":"4","last_reported":1747916446,"current_range_meters":6800,"station_id":"ce4bhgh2rcd13ifvqfb0","pricing_plan_id":"cebpf4jnsgd1na2vs0mg"},{"bike_id":"87c37c14-8780-451e-bf3f-8825721121e6","system_id":"levelo_inurba_marseille","lat":43.26959,"lon":5.38627,"is_reserved":false,"is_disabled":false,"rental_uris":{"android":"levelo://app?vid=87c37c14-8780-451e-bf3f-8825721121e6","ios":"levelo://app?vid=87c37c14-8780-451e-bf3f-8825721121e6"},"vehicle_type_id":"4","last_reported":1747916446,"current_range_meters":6800,"station_id":"ce4bhh92rcd13ifvqfh0","pricing_plan_id":"cebpf4jnsgd1na2vs0mg"},{"bike_id":"8ea6434c-dc18-4de8-9a6c-f543a6df71a8","system_id":"levelo_inurba_marseille","lat":43.23157,"lon":5.43714,"is_reserved":false,"is_disabled":false,"rental_uris":{"android":"levelo://app?vid=8ea6434c-dc18-4de8-9a6c-f543a6df71a8","ios":"levelo://app?vid=8ea6434c-dc18-4de8-9a6c-f543a6df71a8"},"vehicle_type_id":"4","last_reported":1747916446,"current_range_meters":6800,"station_id":"ce4bhmp2rcd13ifvqgog","pricing_plan_id":"cebpf4jnsgd1na2vs0mg"},{"bike_id":"a965f51f-aafb-4afe-bfe3-121b43346203","system_id":"levelo_inurba_marseille","lat":43.27999,"lon":5.40014,"is_reserved":false,"is_disabled":false,"rental_uris":{"android":"levelo://app?vid=a965f51f-aafb-4afe-bfe3-121b43346203","ios":"levelo://app?vid=a965f51f-aafb-4afe-bfe3-121b43346203"},"vehicle_type_id":"4","last_reported":1747916446,"current_range_meters":6800,"station_id":"ce4bho92rcd13ifvqh4g","pricing_plan_id":"cebpf4jnsgd1na2vs0mg"},{"bike_id":"c59660a7-f300-4b9b-a58b-f2bc724bb7a8","system_id":"levelo_inurba_marseille","lat":43.32122,"lon":5.36813,"is_reserved":false,"is_disabled":false,"rental_uris":{"android":"levelo://app?vid=c59660a7-f300-4b9b-a58b-f2bc724bb7a8","ios":"levelo://app?vid=c59660a7-f300-4b9b-a58b-f2bc724bb7a8"},"vehicle_type_id":"4","last_reported":1747916446,"current_range_meters":7200,"station_id":"","pricing_plan_id":"cebpf4jnsgd1na2vs0mg"},{"bike_id":"7cd3e939-6314-4fc0-9faa-68483decb1b4","system_id":"levelo_inurba_marseille","lat":43.301508,"lon":5.380742,"is_reserved":false,"is_disabled":false,"rental_uris":{"android":"levelo://app?vid=7cd3e939-6314-4fc0-9faa-68483decb1b4","ios":"levelo://app?vid=7cd3e939-6314-4fc0-9faa-68483decb1b4"},"vehicle_type_id":"4","last_reported":1747916446,"current_range_meters":7200,"station_id":"ce4bgjp2rcd13ifvqbh0","pricing_plan_id":"cebpf4jnsgd1na2vs0mg"},{"bike_id":"b6a39d90-1dcd-455b-b3b8-b4391b529601","system_id":"levelo_inurba_marseille","lat":43.30911,"lon":5.36847,"is_reserved":false,"is_disabled":false,"rental_uris":{"android":"levelo://app?vid=b6a39d90-1dcd-455b-b3b8-b4391b529601","ios":"levelo://app?vid=b6a39d90-1dcd-455b-b3b8-b4391b529601"},"vehicle_type_id":"4","last_reported":1747916446,"current_range_meters":7200,"station_id":"ce4bgn92rcd13ifvqbvg","pricing_plan_id":"cebpf4jnsgd1na2vs0mg"},{"bike_id":"0c383b5b-dfb7-423b-a10e-684a617504d4","system_id":"levelo_inurba_marseille","lat":43.3025,"lon":5.40073,"is_reserved":false,"is_disabled":false,"rental_uris":{"android":"levelo://app?vid=0c383b5b-dfb7-423b-a10e-684a617504d4","ios":"levelo://app?vid=0c383b5b-dfb7-423b-a10e-684a617504d4"},"vehicle_type_id":"4","last_reported":1747916446,"current_range_meters":7200,"station_id":"ce4bgvh2rcd13ifvqcs0","pricing_plan_id":"cebpf4jnsgd1na2vs0mg"},{"bike_id":"ad750bf3-caf5-4c5c-8c7a-69a7d72eabab","system_id":"levelo_inurba_marseille","lat":43.30336,"lon":5.40431,"is_reserved":false,"is_disabled":false,"rental_uris":{"android":"levelo://app?vid=ad750bf3-caf5-4c5c-8c7a-69a7d72eabab","ios":"levelo://app?vid=ad750bf3-caf5-4c5c-8c7a-69a7d72eabab"},"vehicle_type_id":"4","last_reported":1747916446,"current_range_meters":7200,"station_id":"ce4bh012rcd13ifvqd10","pricing_plan_id":"cebpf4jnsgd1na2vs0mg"},{"bike_id":"590b43be-8cf8-4677-9326-8f8c2d36e93a","system_id":"levelo_inurba_marseille","lat":43.292511,"lon":5.376074,"is_reserved":false,"is_disabled":false,"rental_uris":{"android":"levelo://app?vid=590b43be-8cf8-4677-9326-8f8c2d36e93a","ios":"levelo://app?vid=590b43be-8cf8-4677-9326-8f8c2d36e93a"},"vehicle_type_id":"4","last_reported":1747916446,"current_range_meters":7200,"station_id":"ce4bh2h2rcd13ifvqdh0","pricing_plan_id":"cebpf4jnsgd1na2vs0mg"},{"bike_id":"ee5060bb-19fa-4432-9a28-04e27c119270","system_id":"levelo_inurba_marseille","lat":43.25592,"lon":5.38229,"is_reserved":false,"is_disabled":false,"rental_uris":{"android":"levelo://app?vid=ee5060bb-19fa-4432-9a28-04e27c119270","ios":"levelo://app?vid=ee5060bb-19fa-4432-9a28-04e27c119270"},"vehicle_type_id":"4","last_reported":1747916446,"current_range_meters":7200,"station_id":"ce4bhih2rcd13ifvqfs0","pricing_plan_id":"cebpf4jnsgd1na2vs0mg"},{"bike_id":"d85765f0-43f4-46c8-9647-449adca31d3b","system_id":"levelo_inurba_marseille","lat":43.27494,"lon":5.42445,"is_reserved":false,"is_disabled":false,"rental_uris":{"android":"levelo://app?vid=d85765f0-43f4-46c8-9647-449adca31d3b","ios":"levelo://app?vid=d85765f0-43f4-46c8-9647-449adca31d3b"},"vehicle_type_id":"4","last_reported":1747916446,"current_range_meters":7200,"station_id":"ce4bhn92rcd13ifvqgrg","pricing_plan_id":"cebpf4jnsgd1na2vs0mg"},{"bike_id":"fb15b0d1-34db-4fbd-b688-42b4c9090de8","system_id":"levelo_inurba_marseille","lat":43.29596,"lon":5.38084,"is_reserved":false,"is_disabled":false,"rental_uris":{"android":"levelo://app?vid=fb15b0d1-34db-4fbd-b688-42b4c9090de8","ios":"levelo://app?vid=fb15b0d1-34db-4fbd-b688-42b4c9090de8"},"vehicle_type_id":"4","last_reported":1747916446,"current_range_meters":8000,"station_id":"ce4bgl12rcd13ifvqbo0","pricing_plan_id":"cebpf4jnsgd1na2vs0mg"},{"bike_id":"290bbae9-6bca-4332-b92d-6e1d7b85a746","system_id":"levelo_inurba_marseille","lat":43.2985,"lon":5.36283,"is_reserved":false,"is_disabled":false,"rental_uris":{"android":"levelo://app?vid=290bbae9-6bca-4332-b92d-6e1d7b85a746","ios":"levelo://app?vid=290bbae9-6bca-4332-b92d-6e1d7b85a746"},"vehicle_type_id":"4","last_reported":1747916446,"current_range_meters":8000,"station_id":"ce4bgpp2rcd13ifvqc3g","pricing_plan_id":"cebpf4jnsgd1na2vs0mg"},{"bike_id":"fd2a433a-0015-44c5-b4ff-ee054f14f6de","system_id":"levelo_inurba_marseille","lat":43.29195,"lon":5.3931,"is_reserved":false,"is_disabled":false,"rental_uris":{"android":"levelo://app?vid=fd2a433a-0015-44c5-b4ff-ee054f14f6de","ios":"levelo://app?vid=fd2a433a-0015-44c5-b4ff-ee054f14f6de"},"vehicle_type_id":"4","last_reported":1747916446,"current_range_meters":8000,"station_id":"ce4bh192rcd13ifvqdd0","pricing_plan_id":"cebpf4jnsgd1na2vs0mg"},{"bike_id":"7998c889-efe3-4fec-8f82-786fdfab38fc","system_id":"levelo_inurba_marseille","lat":43.29035,"lon":5.39969,"is_reserved":false,"is_disabled":false,"rental_uris":{"android":"levelo://app?vid=7998c889-efe3-4fec-8f82-786fdfab38fc","ios":"levelo://app?vid=7998c889-efe3-4fec-8f82-786fdfab38fc"},"vehicle_type_id":"4","last_reported":1747916446,"current_range_meters":8000,"station_id":"ce4bh392rcd13ifvqdm0","pricing_plan_id":"cebpf4jnsgd1na2vs0mg"},{"bike_id":"3fe3d6c4-138a-47df-b6b4-e6f19e8f7d46","system_id":"levelo_inurba_marseille","lat":43.21451,"lon":5.34122,"is_reserved":false,"is_disabled":false,"rental_uris":{"android":"levelo://app?vid=3fe3d6c4-138a-47df-b6b4-e6f19e8f7d46","ios":"levelo://app?vid=3fe3d6c4-138a-47df-b6b4-e6f19e8f7d46"},"vehicle_type_id":"4","last_reported":1747916446,"current_range_meters":8400,"station_id":"","pricing_plan_id":"cebpf4jnsgd1na2vs0mg"},{"bike_id":"eebfa399-9785-4fc2-b66a-eed62a9fa6a0","system_id":"levelo_inurba_marseille","lat":43.323488,"lon":5.406174,"is_reserved":false,"is_disabled":false,"rental_uris":{"android":"levelo://app?vid=eebfa399-9785-4fc2-b66a-eed62a9fa6a0","ios":"levelo://app?vid=eebfa399-9785-4fc2-b66a-eed62a9fa6a0"},"vehicle_type_id":"4","last_reported":1747916446,"current_range_meters":8400,"station_id":"","pricing_plan_id":"cebpf4jnsgd1na2vs0mg"},{"bike_id":"1dd803ea-dba1-478e-b96b-5d0f164495e6","system_id":"levelo_inurba_marseille","lat":43.29285,"lon":5.4012,"is_reserved":false,"is_disabled":false,"rental_uris":{"android":"levelo://app?vid=1dd803ea-dba1-478e-b96b-5d0f164495e6","ios":"levelo://app?vid=1dd803ea-dba1-478e-b96b-5d0f164495e6"},"vehicle_type_id":"4","last_reported":1747916446,"current_range_meters":8400,"station_id":"ce4bh312rcd13ifvqdk0","pricing_plan_id":"cebpf4jnsgd1na2vs0mg"},{"bike_id":"d08c902e-f6f8-4ad9-b326-a640e0918ca7","system_id":"levelo_inurba_marseille","lat":43.24176,"lon":5.39737,"is_reserved":false,"is_disabled":false,"rental_uris":{"android":"levelo://app?vid=d08c902e-f6f8-4ad9-b326-a640e0918ca7","ios":"levelo://app?vid=d08c902e-f6f8-4ad9-b326-a640e0918ca7"},"vehicle_type_id":"4","last_reported":1747916446,"current_range_meters":8400,"station_id":"ce4bhn12rcd13ifvqgpg","pricing_plan_id":"cebpf4jnsgd1na2vs0mg"},{"bike_id":"5f2f379d-f5c2-4683-a7c2-af2f78665a34","system_id":"levelo_inurba_marseille","lat":43.27492,"lon":5.42464,"is_reserved":false,"is_disabled":false,"rental_uris":{"android":"levelo://app?vid=5f2f379d-f5c2-4683-a7c2-af2f78665a34","ios":"levelo://app?vid=5f2f379d-f5c2-4683-a7c2-af2f78665a34"},"vehicle_type_id":"4","last_reported":1747916446,"current_range_meters":8400,"station_id":"ce4bhn92rcd13ifvqgrg","pricing_plan_id":"cebpf4jnsgd1na2vs0mg"},{"bike_id":"a135e36e-3bad-436c-baaa-a3725c3b5134","system_id":"levelo_inurba_marseille","lat":43.27467,"lon":5.42456,"is_reserved":false,"is_disabled":false,"rental_uris":{"android":"levelo://app?vid=a135e36e-3bad-436c-baaa-a3725c3b5134","ios":"levelo://app?vid=a135e36e-3bad-436c-baaa-a3725c3b5134"},"vehicle_type_id":"4","last_reported":1747916446,"current_range_meters":8400,"station_id":"ce4bhn92rcd13ifvqgrg","pricing_plan_id":"cebpf4jnsgd1na2vs0mg"},{"bike_id":"2f34c329-54fe-438b-a307-b47c6ac8481c","system_id":"levelo_inurba_marseille","lat":43.298959,"lon":5.436612,"is_reserved":false,"is_disabled":false,"rental_uris":{"android":"levelo://app?vid=2f34c329-54fe-438b-a307-b47c6ac8481c","ios":"levelo://app?vid=2f34c329-54fe-438b-a307-b47c6ac8481c"},"vehicle_type_id":"4","last_reported":1747916446,"current_range_meters":8400,"station_id":"ce4bhpp2rcd13ifvqhfg","pricing_plan_id":"cebpf4jnsgd1na2vs0mg"},{"bike_id":"a44f2506-8dc2-4f85-9270-adfcca72358c","system_id":"levelo_inurba_marseille","lat":43.23193,"lon":5.35559,"is_reserved":false,"is_disabled":false,"rental_uris":{"android":"levelo://app?vid=a44f2506-8dc2-4f85-9270-adfcca72358c","ios":"levelo://app?vid=a44f2506-8dc2-4f85-9270-adfcca72358c"},"vehicle_type_id":"4","last_reported":1747916446,"current_range_meters":8400,"station_id":"ce4bhu92rcd13ifvqi70","pricing_plan_id":"cebpf4jnsgd1na2vs0mg"},{"bike_id":"b91980aa-60ff-467c-bd75-7d53cde9d475","system_id":"levelo_inurba_marseille","lat":43.25121,"lon":5.40459,"is_reserved":false,"is_disabled":false,"rental_uris":{"android":"levelo://app?vid=b91980aa-60ff-467c-bd75-7d53cde9d475","ios":"levelo://app?vid=b91980aa-60ff-467c-bd75-7d53cde9d475"},"vehicle_type_id":"4","last_reported":1747916446,"current_range_meters":8800,"station_id":"","pricing_plan_id":"cebpf4jnsgd1na2vs0mg"},{"bike_id":"4d220435-47a8-4d82-80db-a1284cf3e4c5","system_id":"levelo_inurba_marseille","lat":43.28665,"lon":5.38751,"is_reserved":false,"is_disabled":false,"rental_uris":{"android":"levelo://app?vid=4d220435-47a8-4d82-80db-a1284cf3e4c5","ios":"levelo://app?vid=4d220435-47a8-4d82-80db-a1284cf3e4c5"},"vehicle_type_id":"4","last_reported":1747916446,"current_range_meters":8800,"station_id":"","pricing_plan_id":"cebpf4jnsgd1na2vs0mg"},{"bike_id":"1f8a8e4d-a013-4822-a154-392349058f83","system_id":"levelo_inurba_marseille","lat":43.30542,"lon":5.3653,"is_reserved":false,"is_disabled":false,"rental_uris":{"android":"levelo://app?vid=1f8a8e4d-a013-4822-a154-392349058f83","ios":"levelo://app?vid=1f8a8e4d-a013-4822-a154-392349058f83"},"vehicle_type_id":"4","last_reported":1747916446,"current_range_meters":8800,"station_id":"ce4bgs12rcd13ifvqcag","pricing_plan_id":"cebpf4jnsgd1na2vs0mg"},{"bike_id":"58b5e838-3490-4d53-a87e-7437d4919d2d","system_id":"levelo_inurba_marseille","lat":43.27368,"lon":5.36257,"is_reserved":false,"is_disabled":false,"rental_uris":{"android":"levelo://app?vid=58b5e838-3490-4d53-a87e-7437d4919d2d","ios":"levelo://app?vid=58b5e838-3490-4d53-a87e-7437d4919d2d"},"vehicle_type_id":"4","last_reported":1747916446,"current_range_meters":8800,"station_id":"ce4bhbh2rcd13ifvqeo0","pricing_plan_id":"cebpf4jnsgd1na2vs0mg"},{"bike_id":"c78edbd7-7910-4e3b-8f7c-e3e2ae06179a","system_id":"levelo_inurba_marseille","lat":43.266,"lon":5.39021,"is_reserved":false,"is_disabled":false,"rental_uris":{"android":"levelo://app?vid=c78edbd7-7910-4e3b-8f7c-e3e2ae06179a","ios":"levelo://app?vid=c78edbd7-7910-4e3b-8f7c-e3e2ae06179a"},"vehicle_type_id":"4","last_reported":1747916446,"current_range_meters":8800,"station_id":"ce4bhe12rcd13ifvqf30","pricing_plan_id":"cebpf4jnsgd1na2vs0mg"},{"bike_id":"14feda73-7baf-4b64-8ae9-79f4fe7d4a5f","system_id":"levelo_inurba_marseille","lat":43.32423,"lon":5.36759,"is_reserved":false,"is_disabled":false,"rental_uris":{"android":"levelo://app?vid=14feda73-7baf-4b64-8ae9-79f4fe7d4a5f","ios":"levelo://app?vid=14feda73-7baf-4b64-8ae9-79f4fe7d4a5f"},"vehicle_type_id":"4","last_reported":1747916446,"current_range_meters":8800,"station_id":"ce4bhsh2rcd13ifvqi2g","pricing_plan_id":"cebpf4jnsgd1na2vs0mg"},{"bike_id":"eb6c6849-85ec-425b-bbf2-a1c4f9f30636","system_id":"levelo_inurba_marseille","lat":43.28208,"lon":5.3904,"is_reserved":false,"is_disabled":false,"rental_uris":{"android":"levelo://app?vid=eb6c6849-85ec-425b-bbf2-a1c4f9f30636","ios":"levelo://app?vid=eb6c6849-85ec-425b-bbf2-a1c4f9f30636"},"vehicle_type_id":"4","last_reported":1747916446,"current_range_meters":9200,"station_id":"","pricing_plan_id":"cebpf4jnsgd1na2vs0mg"},{"bike_id":"47dbc28a-028c-4ec9-87a9-d021e489788b","system_id":"levelo_inurba_marseille","lat":43.304657,"lon":5.379035,"is_reserved":false,"is_disabled":false,"rental_uris":{"android":"levelo://app?vid=47dbc28a-028c-4ec9-87a9-d021e489788b","ios":"levelo://app?vid=47dbc28a-028c-4ec9-87a9-d021e489788b"},"vehicle_type_id":"4","last_reported":1747916446,"current_range_meters":9200,"station_id":"ce4bgup2rcd13ifvqcn0","pricing_plan_id":"cebpf4jnsgd1na2vs0mg"},{"bike_id":"5f3d12b2-de4d-4588-ab3f-c25abcf310ff","system_id":"levelo_inurba_marseille","lat":43.30332,"lon":5.40431,"is_reserved":false,"is_disabled":false,"rental_uris":{"android":"levelo://app?vid=5f3d12b2-de4d-4588-ab3f-c25abcf310ff","ios":"levelo://app?vid=5f3d12b2-de4d-4588-ab3f-c25abcf310ff"},"vehicle_type_id":"4","last_reported":1747916446,"current_range_meters":9200,"station_id":"ce4bh012rcd13ifvqd10","pricing_plan_id":"cebpf4jnsgd1na2vs0mg"},{"bike_id":"dbc48da6-9b5e-4692-b669-7ef0ef728b4b","system_id":"levelo_inurba_marseille","lat":43.284681,"lon":5.359001,"is_reserved":false,"is_disabled":false,"rental_uris":{"android":"levelo://app?vid=dbc48da6-9b5e-4692-b669-7ef0ef728b4b","ios":"levelo://app?vid=dbc48da6-9b5e-4692-b669-7ef0ef728b4b"},"vehicle_type_id":"4","last_reported":1747916446,"current_range_meters":9200,"station_id":"ce4bhah2rcd13ifvqei0","pricing_plan_id":"cebpf4jnsgd1na2vs0mg"},{"bike_id":"ddb9df8d-90c4-4871-a326-f08b02aa38a4","system_id":"levelo_inurba_marseille","lat":43.265449,"lon":5.390761,"is_reserved":false,"is_disabled":false,"rental_uris":{"android":"levelo://app?vid=ddb9df8d-90c4-4871-a326-f08b02aa38a4","ios":"levelo://app?vid=ddb9df8d-90c4-4871-a326-f08b02aa38a4"},"vehicle_type_id":"4","last_reported":1747916446,"current_range_meters":9200,"station_id":"ce4bhe12rcd13ifvqf30","pricing_plan_id":"cebpf4jnsgd1na2vs0mg"},{"bike_id":"95cafc23-dcd8-4c41-bf1a-8e9f49a1bb06","system_id":"levelo_inurba_marseille","lat":43.25687,"lon":5.41104,"is_reserved":false,"is_disabled":false,"rental_uris":{"android":"levelo://app?vid=95cafc23-dcd8-4c41-bf1a-8e9f49a1bb06","ios":"levelo://app?vid=95cafc23-dcd8-4c41-bf1a-8e9f49a1bb06"},"vehicle_type_id":"4","last_reported":1747916446,"current_range_meters":9200,"station_id":"ce4bhkp2rcd13ifvqgd0","pricing_plan_id":"cebpf4jnsgd1na2vs0mg"},{"bike_id":"40082cca-a7a2-4d69-9727-bd72824c6c32","system_id":"levelo_inurba_marseille","lat":43.271742,"lon":5.409954,"is_reserved":false,"is_disabled":false,"rental_uris":{"android":"levelo://app?vid=40082cca-a7a2-4d69-9727-bd72824c6c32","ios":"levelo://app?vid=40082cca-a7a2-4d69-9727-bd72824c6c32"},"vehicle_type_id":"4","last_reported":1747916446,"current_range_meters":9200,"station_id":"ce4bhl12rcd13ifvqgf0","pricing_plan_id":"cebpf4jnsgd1na2vs0mg"},{"bike_id":"19ad6a04-9891-49cf-8d05-7dde295fdcc2","system_id":"levelo_inurba_marseille","lat":43.27997,"lon":5.400125,"is_reserved":false,"is_disabled":false,"rental_uris":{"android":"levelo://app?vid=19ad6a04-9891-49cf-8d05-7dde295fdcc2","ios":"levelo://app?vid=19ad6a04-9891-49cf-8d05-7dde295fdcc2"},"vehicle_type_id":"4","last_reported":1747916446,"current_range_meters":9200,"station_id":"ce4bho92rcd13ifvqh4g","pricing_plan_id":"cebpf4jnsgd1na2vs0mg"},{"bike_id":"7d6ff204-3460-488a-9a8a-c1f8a3cefd76","system_id":"levelo_inurba_marseille","lat":43.29542,"lon":5.42274,"is_reserved":false,"is_disabled":false,"rental_uris":{"android":"levelo://app?vid=7d6ff204-3460-488a-9a8a-c1f8a3cefd76","ios":"levelo://app?vid=7d6ff204-3460-488a-9a8a-c1f8a3cefd76"},"vehicle_type_id":"4","last_reported":1747916446,"current_range_meters":9200,"station_id":"ce4bhph2rcd13ifvqhdg","pricing_plan_id":"cebpf4jnsgd1na2vs0mg"},{"bike_id":"e556f496-5a3c-4193-8a6e-47c89f34776d","system_id":"levelo_inurba_marseille","lat":43.28918,"lon":5.37807,"is_reserved":false,"is_disabled":false,"rental_uris":{"android":"levelo://app?vid=e556f496-5a3c-4193-8a6e-47c89f34776d","ios":"levelo://app?vid=e556f496-5a3c-4193-8a6e-47c89f34776d"},"vehicle_type_id":"4","last_reported":1747916446,"current_range_meters":9600,"station_id":"","pricing_plan_id":"cebpf4jnsgd1na2vs0mg"},{"bike_id":"9eb0b84c-a24d-4319-bc99-de97afc846cb","system_id":"levelo_inurba_marseille","lat":43.29846,"lon":5.36278,"is_reserved":false,"is_disabled":false,"rental_uris":{"android":"levelo://app?vid=9eb0b84c-a24d-4319-bc99-de97afc846cb","ios":"levelo://app?vid=9eb0b84c-a24d-4319-bc99-de97afc846cb"},"vehicle_type_id":"4","last_reported":1747916446,"current_range_meters":9600,"station_id":"ce4bgpp2rcd13ifvqc3g","pricing_plan_id":"cebpf4jnsgd1na2vs0mg"},{"bike_id":"b9d109e3-c934-43ed-b00b-7288270b5eea","system_id":"levelo_inurba_marseille","lat":43.29037,"lon":5.37565,"is_reserved":false,"is_disabled":false,"rental_uris":{"android":"levelo://app?vid=b9d109e3-c934-43ed-b00b-7288270b5eea","ios":"levelo://app?vid=b9d109e3-c934-43ed-b00b-7288270b5eea"},"vehicle_type_id":"4","last_reported":1747916446,"current_range_meters":9600,"station_id":"ce4bh692rcd13ifvqe90","pricing_plan_id":"cebpf4jnsgd1na2vs0mg"},{"bike_id":"395bd522-d35f-4fd0-bf18-79f1a61402ba","system_id":"levelo_inurba_marseille","lat":43.27494,"lon":5.42448,"is_reserved":false,"is_disabled":false,"rental_uris":{"android":"levelo://app?vid=395bd522-d35f-4fd0-bf18-79f1a61402ba","ios":"levelo://app?vid=395bd522-d35f-4fd0-bf18-79f1a61402ba"},"vehicle_type_id":"4","last_reported":1747916446,"current_range_meters":9600,"station_id":"ce4bhn92rcd13ifvqgrg","pricing_plan_id":"cebpf4jnsgd1na2vs0mg"},{"bike_id":"971c8a5c-db56-48ea-b476-188519cb0562","system_id":"levelo_inurba_marseille","lat":43.30067,"lon":5.40522,"is_reserved":false,"is_disabled":false,"rental_uris":{"android":"levelo://app?vid=971c8a5c-db56-48ea-b476-188519cb0562","ios":"levelo://app?vid=971c8a5c-db56-48ea-b476-188519cb0562"},"vehicle_type_id":"4","last_reported":1747916446,"current_range_meters":10000,"station_id":"","pricing_plan_id":"cebpf4jnsgd1na2vs0mg"},{"bike_id":"f9fb40c0-1fcd-48cb-8e26-3f2dc0fb2451","system_id":"levelo_inurba_marseille","lat":43.33751,"lon":5.37509,"is_reserved":false,"is_disabled":false,"rental_uris":{"android":"levelo://app?vid=f9fb40c0-1fcd-48cb-8e26-3f2dc0fb2451","ios":"levelo://app?vid=f9fb40c0-1fcd-48cb-8e26-3f2dc0fb2451"},"vehicle_type_id":"4","last_reported":1747916446,"current_range_meters":10000,"station_id":"","pricing_plan_id":"cebpf4jnsgd1na2vs0mg"},{"bike_id":"27653dcd-dec9-4f13-b172-8968c20c1725","system_id":"levelo_inurba_marseille","lat":43.23856,"lon":5.43091,"is_reserved":false,"is_disabled":false,"rental_uris":{"android":"levelo://app?vid=27653dcd-dec9-4f13-b172-8968c20c1725","ios":"levelo://app?vid=27653dcd-dec9-4f13-b172-8968c20c1725"},"vehicle_type_id":"4","last_reported":1747916446,"current_range_meters":10000,"station_id":"","pricing_plan_id":"cebpf4jnsgd1na2vs0mg"},{"bike_id":"8604523e-42f2-4082-a223-5f87ae904d88","system_id":"levelo_inurba_marseille","lat":43.30148,"lon":5.38061,"is_reserved":false,"is_disabled":false,"rental_uris":{"android":"levelo://app?vid=8604523e-42f2-4082-a223-5f87ae904d88","ios":"levelo://app?vid=8604523e-42f2-4082-a223-5f87ae904d88"},"vehicle_type_id":"4","last_reported":1747916446,"current_range_meters":10000,"station_id":"ce4bgjp2rcd13ifvqbh0","pricing_plan_id":"cebpf4jnsgd1na2vs0mg"},{"bike_id":"2ff04dba-0563-444a-91be-22b5e2226165","system_id":"levelo_inurba_marseille","lat":43.312441,"lon":5.368863,"is_reserved":false,"is_disabled":false,"rental_uris":{"android":"levelo://app?vid=2ff04dba-0563-444a-91be-22b5e2226165","ios":"levelo://app?vid=2ff04dba-0563-444a-91be-22b5e2226165"},"vehicle_type_id":"4","last_reported":1747916446,"current_range_meters":10000,"station_id":"ce4bgl92rcd13ifvqbq0","pricing_plan_id":"cebpf4jnsgd1na2vs0mg"},{"bike_id":"fce99fc9-87d6-4554-a296-1a9ea30dfd16","system_id":"levelo_inurba_marseille","lat":43.25737,"lon":5.41109,"is_reserved":false,"is_disabled":false,"rental_uris":{"android":"levelo://app?vid=fce99fc9-87d6-4554-a296-1a9ea30dfd16","ios":"levelo://app?vid=fce99fc9-87d6-4554-a296-1a9ea30dfd16"},"vehicle_type_id":"4","last_reported":1747916446,"current_range_meters":10000,"station_id":"ce4bhkp2rcd13ifvqgd0","pricing_plan_id":"cebpf4jnsgd1na2vs0mg"},{"bike_id":"2e1568ca-c7e6-488f-a02d-598b84f8055d","system_id":"levelo_inurba_marseille","lat":43.23152,"lon":5.43721,"is_reserved":false,"is_disabled":false,"rental_uris":{"android":"levelo://app?vid=2e1568ca-c7e6-488f-a02d-598b84f8055d","ios":"levelo://app?vid=2e1568ca-c7e6-488f-a02d-598b84f8055d"},"vehicle_type_id":"4","last_reported":1747916446,"current_range_meters":10000,"station_id":"ce4bhmp2rcd13ifvqgog","pricing_plan_id":"cebpf4jnsgd1na2vs0mg"},{"bike_id":"c87f2817-7f53-435a-9b2c-9985876a283f","system_id":"levelo_inurba_marseille","lat":43.2931,"lon":5.3743,"is_reserved":false,"is_disabled":false,"rental_uris":{"android":"levelo://app?vid=c87f2817-7f53-435a-9b2c-9985876a283f","ios":"levelo://app?vid=c87f2817-7f53-435a-9b2c-9985876a283f"},"vehicle_type_id":"4","last_reported":1747916446,"current_range_meters":10800,"station_id":"ce4bgi12rcd13ifvqb70","pricing_plan_id":"cebpf4jnsgd1na2vs0mg"},{"bike_id":"ac8c7c81-6a0e-49a4-a65a-c88eba9d251a","system_id":"levelo_inurba_marseille","lat":43.29836,"lon":5.36279,"is_reserved":false,"is_disabled":false,"rental_uris":{"android":"levelo://app?vid=ac8c7c81-6a0e-49a4-a65a-c88eba9d251a","ios":"levelo://app?vid=ac8c7c81-6a0e-49a4-a65a-c88eba9d251a"},"vehicle_type_id":"4","last_reported":1747916446,"current_range_meters":10800,"station_id":"ce4bgpp2rcd13ifvqc3g","pricing_plan_id":"cebpf4jnsgd1na2vs0mg"},{"bike_id":"4ad770ab-f129-4de2-889c-7fa4bb24a833","system_id":"levelo_inurba_marseille","lat":43.26949,"lon":5.38648,"is_reserved":false,"is_disabled":false,"rental_uris":{"android":"levelo://app?vid=4ad770ab-f129-4de2-889c-7fa4bb24a833","ios":"levelo://app?vid=4ad770ab-f129-4de2-889c-7fa4bb24a833"},"vehicle_type_id":"4","last_reported":1747916446,"current_range_meters":10800,"station_id":"ce4bhh92rcd13ifvqfh0","pricing_plan_id":"cebpf4jnsgd1na2vs0mg"},{"bike_id":"088005c8-600f-442c-88d9-e74b5a80e23f","system_id":"levelo_inurba_marseille","lat":43.26076,"lon":5.394,"is_reserved":false,"is_disabled":false,"rental_uris":{"android":"levelo://app?vid=088005c8-600f-442c-88d9-e74b5a80e23f","ios":"levelo://app?vid=088005c8-600f-442c-88d9-e74b5a80e23f"},"vehicle_type_id":"4","last_reported":1747916446,"current_range_meters":10800,"station_id":"ce4bhh92rcd13ifvqfj0","pricing_plan_id":"cebpf4jnsgd1na2vs0mg"},{"bike_id":"8132eb19-17ba-4103-8ae2-89937a2d2be2","system_id":"levelo_inurba_marseille","lat":43.33629,"lon":5.41034,"is_reserved":false,"is_disabled":false,"rental_uris":{"android":"levelo://app?vid=8132eb19-17ba-4103-8ae2-89937a2d2be2","ios":"levelo://app?vid=8132eb19-17ba-4103-8ae2-89937a2d2be2"},"vehicle_type_id":"4","last_reported":1747916446,"current_range_meters":10800,"station_id":"ce4bhqh2rcd13ifvqhmg","pricing_plan_id":"cebpf4jnsgd1na2vs0mg"},{"bike_id":"7dfdfdc8-9c79-46b6-9a4b-924773b53f29","system_id":"levelo_inurba_marseille","lat":43.26849,"lon":5.39146,"is_reserved":false,"is_disabled":false,"rental_uris":{"android":"levelo://app?vid=7dfdfdc8-9c79-46b6-9a4b-924773b53f29","ios":"levelo://app?vid=7dfdfdc8-9c79-46b6-9a4b-924773b53f29"},"vehicle_type_id":"4","last_reported":1747916446,"current_range_meters":11200,"station_id":"","pricing_plan_id":"cebpf4jnsgd1na2vs0mg"},{"bike_id":"df989d41-7682-4141-b01f-841e4031a8d8","system_id":"levelo_inurba_marseille","lat":43.28696,"lon":5.37392,"is_reserved":false,"is_disabled":false,"rental_uris":{"android":"levelo://app?vid=df989d41-7682-4141-b01f-841e4031a8d8","ios":"levelo://app?vid=df989d41-7682-4141-b01f-841e4031a8d8"},"vehicle_type_id":"4","last_reported":1747916446,"current_range_meters":11200,"station_id":"ce4bh3p2rcd13ifvqdq0","pricing_plan_id":"cebpf4jnsgd1na2vs0mg"},{"bike_id":"bb534ed4-d73c-41f9-8af1-5d93027ec84e","system_id":"levelo_inurba_marseille","lat":43.28639,"lon":5.35107,"is_reserved":false,"is_disabled":false,"rental_uris":{"android":"levelo://app?vid=bb534ed4-d73c-41f9-8af1-5d93027ec84e","ios":"levelo://app?vid=bb534ed4-d73c-41f9-8af1-5d93027ec84e"},"vehicle_type_id":"4","last_reported":1747916446,"current_range_meters":11200,"station_id":"ce4bhch2rcd13ifvqeug","pricing_plan_id":"cebpf4jnsgd1na2vs0mg"},{"bike_id":"7a01dcf3-6398-4e21-b09c-ed8bea3d1d03","system_id":"levelo_inurba_marseille","lat":43.24086,"lon":5.37749,"is_reserved":false,"is_disabled":false,"rental_uris":{"android":"levelo://app?vid=7a01dcf3-6398-4e21-b09c-ed8bea3d1d03","ios":"levelo://app?vid=7a01dcf3-6398-4e21-b09c-ed8bea3d1d03"},"vehicle_type_id":"4","last_reported":1747916446,"current_range_meters":11200,"station_id":"ce4bhnp2rcd13ifvqgvg","pricing_plan_id":"cebpf4jnsgd1na2vs0mg"},{"bike_id":"8a9416d3-2a37-4312-9622-494ce1845d80","system_id":"levelo_inurba_marseille","lat":43.32372,"lon":5.3677,"is_reserved":false,"is_disabled":false,"rental_uris":{"android":"levelo://app?vid=8a9416d3-2a37-4312-9622-494ce1845d80","ios":"levelo://app?vid=8a9416d3-2a37-4312-9622-494ce1845d80"},"vehicle_type_id":"4","last_reported":1747916446,"current_range_meters":11200,"station_id":"ce4bhsh2rcd13ifvqi2g","pricing_plan_id":"cebpf4jnsgd1na2vs0mg"},{"bike_id":"db3c6044-8bc1-4050-bddb-e2949863524b","system_id":"levelo_inurba_marseille","lat":43.231796,"lon":5.399848,"is_reserved":false,"is_disabled":false,"rental_uris":{"android":"levelo://app?vid=db3c6044-8bc1-4050-bddb-e2949863524b","ios":"levelo://app?vid=db3c6044-8bc1-4050-bddb-e2949863524b"},"vehicle_type_id":"4","last_reported":1747916446,"current_range_meters":11600,"station_id":"","pricing_plan_id":"cebpf4jnsgd1na2vs0mg"},{"bike_id":"d871b8e4-69c9-4da5-ab75-fc123f7492aa","system_id":"levelo_inurba_marseille","lat":43.31245,"lon":5.36861,"is_reserved":false,"is_disabled":false,"rental_uris":{"android":"levelo://app?vid=d871b8e4-69c9-4da5-ab75-fc123f7492aa","ios":"levelo://app?vid=d871b8e4-69c9-4da5-ab75-fc123f7492aa"},"vehicle_type_id":"4","last_reported":1747916446,"current_range_meters":11600,"station_id":"ce4bgl92rcd13ifvqbq0","pricing_plan_id":"cebpf4jnsgd1na2vs0mg"},{"bike_id":"d7e0b948-8e13-4499-9f1f-6ae9f7d6bb06","system_id":"levelo_inurba_marseille","lat":43.26779,"lon":5.39418,"is_reserved":false,"is_disabled":false,"rental_uris":{"android":"levelo://app?vid=d7e0b948-8e13-4499-9f1f-6ae9f7d6bb06","ios":"levelo://app?vid=d7e0b948-8e13-4499-9f1f-6ae9f7d6bb06"},"vehicle_type_id":"4","last_reported":1747916446,"current_range_meters":11600,"station_id":"ce4bhh12rcd13ifvqfg0","pricing_plan_id":"cebpf4jnsgd1na2vs0mg"},{"bike_id":"a44a5ccb-3d58-417c-9bc9-618f4d03cb1d","system_id":"levelo_inurba_marseille","lat":43.27481,"lon":5.42469,"is_reserved":false,"is_disabled":false,"rental_uris":{"android":"levelo://app?vid=a44a5ccb-3d58-417c-9bc9-618f4d03cb1d","ios":"levelo://app?vid=a44a5ccb-3d58-417c-9bc9-618f4d03cb1d"},"vehicle_type_id":"4","last_reported":1747916446,"current_range_meters":11600,"station_id":"ce4bhn92rcd13ifvqgrg","pricing_plan_id":"cebpf4jnsgd1na2vs0mg"},{"bike_id":"e75389f6-919f-4165-ae31-bdd131757190","system_id":"levelo_inurba_marseille","lat":43.30732,"lon":5.42438,"is_reserved":false,"is_disabled":false,"rental_uris":{"android":"levelo://app?vid=e75389f6-919f-4165-ae31-bdd131757190","ios":"levelo://app?vid=e75389f6-919f-4165-ae31-bdd131757190"},"vehicle_type_id":"4","last_reported":1747916446,"current_range_meters":11600,"station_id":"st_cvj6ca6bvosntc0bfgr0","pricing_plan_id":"cebpf4jnsgd1na2vs0mg"},{"bike_id":"59f58d73-20a5-43ad-b64f-a6693384bb73","system_id":"levelo_inurba_marseille","lat":43.305482,"lon":5.365194,"is_reserved":false,"is_disabled":false,"rental_uris":{"android":"levelo://app?vid=59f58d73-20a5-43ad-b64f-a6693384bb73","ios":"levelo://app?vid=59f58d73-20a5-43ad-b64f-a6693384bb73"},"vehicle_type_id":"4","last_reported":1747916446,"current_range_meters":12000,"station_id":"ce4bgs12rcd13ifvqcag","pricing_plan_id":"cebpf4jnsgd1na2vs0mg"},{"bike_id":"395f3ac2-aaaa-4f04-b4b6-2013718a9cd0","system_id":"levelo_inurba_marseille","lat":43.31894,"lon":5.40733,"is_reserved":false,"is_disabled":false,"rental_uris":{"android":"levelo://app?vid=395f3ac2-aaaa-4f04-b4b6-2013718a9cd0","ios":"levelo://app?vid=395f3ac2-aaaa-4f04-b4b6-2013718a9cd0"},"vehicle_type_id":"4","last_reported":1747916446,"current_range_meters":12000,"station_id":"ce4bhq12rcd13ifvqhig","pricing_plan_id":"cebpf4jnsgd1na2vs0mg"},{"bike_id":"97cefe16-8a9e-44aa-b4cb-d578d05e2968","system_id":"levelo_inurba_marseille","lat":43.26806,"lon":5.40272,"is_reserved":false,"is_disabled":false,"rental_uris":{"android":"levelo://app?vid=97cefe16-8a9e-44aa-b4cb-d578d05e2968","ios":"levelo://app?vid=97cefe16-8a9e-44aa-b4cb-d578d05e2968"},"vehicle_type_id":"4","last_reported":1747916446,"current_range_meters":12000,"station_id":"ce501612rcd8frsf0b60","pricing_plan_id":"cebpf4jnsgd1na2vs0mg"},{"bike_id":"c1ca5f99-c898-4099-842f-66f219fb70d6","system_id":"levelo_inurba_marseille","lat":43.31355,"lon":5.36723,"is_reserved":false,"is_disabled":false,"rental_uris":{"android":"levelo://app?vid=c1ca5f99-c898-4099-842f-66f219fb70d6","ios":"levelo://app?vid=c1ca5f99-c898-4099-842f-66f219fb70d6"},"vehicle_type_id":"4","last_reported":1747916446,"current_range_meters":12400,"station_id":"ce4bgr92rcd13ifvqc6g","pricing_plan_id":"cebpf4jnsgd1na2vs0mg"},{"bike_id":"3dd36d69-f771-407c-95bd-f2efff5b7ec0","system_id":"levelo_inurba_marseille","lat":43.305375,"lon":5.365225,"is_reserved":false,"is_disabled":false,"rental_uris":{"android":"levelo://app?vid=3dd36d69-f771-407c-95bd-f2efff5b7ec0","ios":"levelo://app?vid=3dd36d69-f771-407c-95bd-f2efff5b7ec0"},"vehicle_type_id":"4","last_reported":1747916446,"current_range_meters":12400,"station_id":"ce4bgs12rcd13ifvqcag","pricing_plan_id":"cebpf4jnsgd1na2vs0mg"},{"bike_id":"9a2c6862-1a38-4cd9-8b1d-8b56b689fa2b","system_id":"levelo_inurba_marseille","lat":43.28844,"lon":5.3929,"is_reserved":false,"is_disabled":false,"rental_uris":{"android":"levelo://app?vid=9a2c6862-1a38-4cd9-8b1d-8b56b689fa2b","ios":"levelo://app?vid=9a2c6862-1a38-4cd9-8b1d-8b56b689fa2b"},"vehicle_type_id":"4","last_reported":1747916446,"current_range_meters":12400,"station_id":"ce4bh2p2rcd13ifvqdi0","pricing_plan_id":"cebpf4jnsgd1na2vs0mg"},{"bike_id":"7606ec15-586c-4c79-9b53-ef08d43f3d40","system_id":"levelo_inurba_marseille","lat":43.282725,"lon":5.35071,"is_reserved":false,"is_disabled":false,"rental_uris":{"android":"levelo://app?vid=7606ec15-586c-4c79-9b53-ef08d43f3d40","ios":"levelo://app?vid=7606ec15-586c-4c79-9b53-ef08d43f3d40"},"vehicle_type_id":"4","last_reported":1747916446,"current_range_meters":12400,"station_id":"ce4bhbp2rcd13ifvqerg","pricing_plan_id":"cebpf4jnsgd1na2vs0mg"},{"bike_id":"de0fb914-815f-496e-b265-257c322a0437","system_id":"levelo_inurba_marseille","lat":43.2656,"lon":5.37312,"is_reserved":false,"is_disabled":false,"rental_uris":{"android":"levelo://app?vid=de0fb914-815f-496e-b265-257c322a0437","ios":"levelo://app?vid=de0fb914-815f-496e-b265-257c322a0437"},"vehicle_type_id":"4","last_reported":1747916446,"current_range_meters":12400,"station_id":"ce4bhg12rcd13ifvqf70","pricing_plan_id":"cebpf4jnsgd1na2vs0mg"},{"bike_id":"19c2ab68-d173-4a83-8b93-0e1bcd927b26","system_id":"levelo_inurba_marseille","lat":43.26787,"lon":5.39415,"is_reserved":false,"is_disabled":false,"rental_uris":{"android":"levelo://app?vid=19c2ab68-d173-4a83-8b93-0e1bcd927b26","ios":"levelo://app?vid=19c2ab68-d173-4a83-8b93-0e1bcd927b26"},"vehicle_type_id":"4","last_reported":1747916446,"current_range_meters":12400,"station_id":"ce4bhh12rcd13ifvqfg0","pricing_plan_id":"cebpf4jnsgd1na2vs0mg"},{"bike_id":"7e21c879-3fcf-42a8-b98e-5e25c1b78f51","system_id":"levelo_inurba_marseille","lat":43.26952,"lon":5.38635,"is_reserved":false,"is_disabled":false,"rental_uris":{"android":"levelo://app?vid=7e21c879-3fcf-42a8-b98e-5e25c1b78f51","ios":"levelo://app?vid=7e21c879-3fcf-42a8-b98e-5e25c1b78f51"},"vehicle_type_id":"4","last_reported":1747916446,"current_range_meters":12400,"station_id":"ce4bhh92rcd13ifvqfh0","pricing_plan_id":"cebpf4jnsgd1na2vs0mg"},{"bike_id":"c65de6e6-f5cb-4f1f-9cdc-61d9c6ffe562","system_id":"levelo_inurba_marseille","lat":43.26946,"lon":5.38635,"is_reserved":false,"is_disabled":false,"rental_uris":{"android":"levelo://app?vid=c65de6e6-f5cb-4f1f-9cdc-61d9c6ffe562","ios":"levelo://app?vid=c65de6e6-f5cb-4f1f-9cdc-61d9c6ffe562"},"vehicle_type_id":"4","last_reported":1747916446,"current_range_meters":12400,"station_id":"ce4bhh92rcd13ifvqfh0","pricing_plan_id":"cebpf4jnsgd1na2vs0mg"},{"bike_id":"b5ef1a4b-3329-49d7-8fd1-750d4289f576","system_id":"levelo_inurba_marseille","lat":43.24182,"lon":5.3973,"is_reserved":false,"is_disabled":false,"rental_uris":{"android":"levelo://app?vid=b5ef1a4b-3329-49d7-8fd1-750d4289f576","ios":"levelo://app?vid=b5ef1a4b-3329-49d7-8fd1-750d4289f576"},"vehicle_type_id":"4","last_reported":1747916446,"current_range_meters":12400,"station_id":"ce4bhn12rcd13ifvqgpg","pricing_plan_id":"cebpf4jnsgd1na2vs0mg"},{"bike_id":"d8ef93ab-6594-4205-bec9-cbf07e2aa23e","system_id":"levelo_inurba_marseille","lat":43.24169,"lon":5.36395,"is_reserved":false,"is_disabled":false,"rental_uris":{"android":"levelo://app?vid=d8ef93ab-6594-4205-bec9-cbf07e2aa23e","ios":"levelo://app?vid=d8ef93ab-6594-4205-bec9-cbf07e2aa23e"},"vehicle_type_id":"4","last_reported":1747916446,"current_range_meters":12400,"station_id":"cpo36qri1sfpv3e86is0","pricing_plan_id":"cebpf4jnsgd1na2vs0mg"},{"bike_id":"0b83c4b9-29fd-4c4a-98bd-43d2d58674c3","system_id":"levelo_inurba_marseille","lat":43.29794,"lon":5.38083,"is_reserved":false,"is_disabled":false,"rental_uris":{"android":"levelo://app?vid=0b83c4b9-29fd-4c4a-98bd-43d2d58674c3","ios":"levelo://app?vid=0b83c4b9-29fd-4c4a-98bd-43d2d58674c3"},"vehicle_type_id":"4","last_reported":1747916446,"current_range_meters":12800,"station_id":"ce4bgip2rcd13ifvqbb0","pricing_plan_id":"cebpf4jnsgd1na2vs0mg"},{"bike_id":"ee8ab411-be2c-4b8c-b5ee-a7355183f895","system_id":"levelo_inurba_marseille","lat":43.30301,"lon":5.39211,"is_reserved":false,"is_disabled":false,"rental_uris":{"android":"levelo://app?vid=ee8ab411-be2c-4b8c-b5ee-a7355183f895","ios":"levelo://app?vid=ee8ab411-be2c-4b8c-b5ee-a7355183f895"},"vehicle_type_id":"4","last_reported":1747916446,"current_range_meters":12800,"station_id":"ce4bgkh2rcd13ifvqbk0","pricing_plan_id":"cebpf4jnsgd1na2vs0mg"},{"bike_id":"a7a8cbc2-4da4-4a20-8e72-6045a3d24d51","system_id":"levelo_inurba_marseille","lat":43.31122,"lon":5.37762,"is_reserved":false,"is_disabled":false,"rental_uris":{"android":"levelo://app?vid=a7a8cbc2-4da4-4a20-8e72-6045a3d24d51","ios":"levelo://app?vid=a7a8cbc2-4da4-4a20-8e72-6045a3d24d51"},"vehicle_type_id":"4","last_reported":1747916446,"current_range_meters":12800,"station_id":"ce4bgt92rcd13ifvqcg0","pricing_plan_id":"cebpf4jnsgd1na2vs0mg"},{"bike_id":"8f8ca71d-c185-4591-a22f-06428317df85","system_id":"levelo_inurba_marseille","lat":43.29941,"lon":5.400892,"is_reserved":false,"is_disabled":false,"rental_uris":{"android":"levelo://app?vid=8f8ca71d-c185-4591-a22f-06428317df85","ios":"levelo://app?vid=8f8ca71d-c185-4591-a22f-06428317df85"},"vehicle_type_id":"4","last_reported":1747916446,"current_range_meters":12800,"station_id":"ce4bh092rcd13ifvqd20","pricing_plan_id":"cebpf4jnsgd1na2vs0mg"},{"bike_id":"1b070888-ec79-4da1-a4f7-600e7cbb42ab","system_id":"levelo_inurba_marseille","lat":43.2653,"lon":5.37275,"is_reserved":false,"is_disabled":false,"rental_uris":{"android":"levelo://app?vid=1b070888-ec79-4da1-a4f7-600e7cbb42ab","ios":"levelo://app?vid=1b070888-ec79-4da1-a4f7-600e7cbb42ab"},"vehicle_type_id":"4","last_reported":1747916446,"current_range_meters":12800,"station_id":"ce4bhg12rcd13ifvqf70","pricing_plan_id":"cebpf4jnsgd1na2vs0mg"},{"bike_id":"f9223343-51dd-4eb0-a255-7d7bd8e5d0ef","system_id":"levelo_inurba_marseille","lat":43.3119,"lon":5.40169,"is_reserved":false,"is_disabled":false,"rental_uris":{"android":"levelo://app?vid=f9223343-51dd-4eb0-a255-7d7bd8e5d0ef","ios":"levelo://app?vid=f9223343-51dd-4eb0-a255-7d7bd8e5d0ef"},"vehicle_type_id":"4","last_reported":1747916446,"current_range_meters":13600,"station_id":"","pricing_plan_id":"cebpf4jnsgd1na2vs0mg"},{"bike_id":"9082ebba-d3d9-450d-a3be-063ef4dde8db","system_id":"levelo_inurba_marseille","lat":43.27407,"lon":5.4242,"is_reserved":false,"is_disabled":false,"rental_uris":{"android":"levelo://app?vid=9082ebba-d3d9-450d-a3be-063ef4dde8db","ios":"levelo://app?vid=9082ebba-d3d9-450d-a3be-063ef4dde8db"},"vehicle_type_id":"4","last_reported":1747916446,"current_range_meters":13600,"station_id":"","pricing_plan_id":"cebpf4jnsgd1na2vs0mg"},{"bike_id":"6808c83f-f114-4fec-8a08-68fa6d97e08a","system_id":"levelo_inurba_marseille","lat":43.30542,"lon":5.367,"is_reserved":false,"is_disabled":false,"rental_uris":{"android":"levelo://app?vid=6808c83f-f114-4fec-8a08-68fa6d97e08a","ios":"levelo://app?vid=6808c83f-f114-4fec-8a08-68fa6d97e08a"},"vehicle_type_id":"4","last_reported":1747916446,"current_range_meters":13600,"station_id":"ce4bgrp2rcd13ifvqc9g","pricing_plan_id":"cebpf4jnsgd1na2vs0mg"},{"bike_id":"79171cc3-2057-44a4-b41f-c0c78d2492c4","system_id":"levelo_inurba_marseille","lat":43.28718,"lon":5.37932,"is_reserved":false,"is_disabled":false,"rental_uris":{"android":"levelo://app?vid=79171cc3-2057-44a4-b41f-c0c78d2492c4","ios":"levelo://app?vid=79171cc3-2057-44a4-b41f-c0c78d2492c4"},"vehicle_type_id":"4","last_reported":1747916446,"current_range_meters":13600,"station_id":"ce4bh9p2rcd13ifvqec0","pricing_plan_id":"cebpf4jnsgd1na2vs0mg"},{"bike_id":"38dc466e-417a-4036-b85e-27c0642ee6d5","system_id":"levelo_inurba_marseille","lat":43.26811,"lon":5.40263,"is_reserved":false,"is_disabled":false,"rental_uris":{"android":"levelo://app?vid=38dc466e-417a-4036-b85e-27c0642ee6d5","ios":"levelo://app?vid=38dc466e-417a-4036-b85e-27c0642ee6d5"},"vehicle_type_id":"4","last_reported":1747916446,"current_range_meters":13600,"station_id":"ce501612rcd8frsf0b60","pricing_plan_id":"cebpf4jnsgd1na2vs0mg"},{"bike_id":"9ed434cc-85f3-4e41-90d1-b4e7ce899749","system_id":"levelo_inurba_marseille","lat":43.21754,"lon":5.34602,"is_reserved":false,"is_disabled":false,"rental_uris":{"android":"levelo://app?vid=9ed434cc-85f3-4e41-90d1-b4e7ce899749","ios":"levelo://app?vid=9ed434cc-85f3-4e41-90d1-b4e7ce899749"},"vehicle_type_id":"4","last_reported":1747916446,"current_range_meters":13600,"station_id":"st_cvj6r9ubvosntc0bgbag","pricing_plan_id":"cebpf4jnsgd1na2vs0mg"},{"bike_id":"6077f39b-7770-4bf4-ac28-42abe4884b64","system_id":"levelo_inurba_marseille","lat":43.31348,"lon":5.36704,"is_reserved":false,"is_disabled":false,"rental_uris":{"android":"levelo://app?vid=6077f39b-7770-4bf4-ac28-42abe4884b64","ios":"levelo://app?vid=6077f39b-7770-4bf4-ac28-42abe4884b64"},"vehicle_type_id":"4","last_reported":1747916446,"current_range_meters":14000,"station_id":"ce4bgr92rcd13ifvqc6g","pricing_plan_id":"cebpf4jnsgd1na2vs0mg"},{"bike_id":"6777b959-9cf4-49f0-991a-e522241590c2","system_id":"levelo_inurba_marseille","lat":43.26561,"lon":5.37288,"is_reserved":false,"is_disabled":false,"rental_uris":{"android":"levelo://app?vid=6777b959-9cf4-49f0-991a-e522241590c2","ios":"levelo://app?vid=6777b959-9cf4-49f0-991a-e522241590c2"},"vehicle_type_id":"4","last_reported":1747916446,"current_range_meters":14000,"station_id":"ce4bhg12rcd13ifvqf70","pricing_plan_id":"cebpf4jnsgd1na2vs0mg"},{"bike_id":"1f5353a7-6277-4ad2-b663-14693dd7bd08","system_id":"levelo_inurba_marseille","lat":43.27493,"lon":5.42449,"is_reserved":false,"is_disabled":false,"rental_uris":{"android":"levelo://app?vid=1f5353a7-6277-4ad2-b663-14693dd7bd08","ios":"levelo://app?vid=1f5353a7-6277-4ad2-b663-14693dd7bd08"},"vehicle_type_id":"4","last_reported":1747916446,"current_range_meters":14000,"station_id":"ce4bhn92rcd13ifvqgrg","pricing_plan_id":"cebpf4jnsgd1na2vs0mg"},{"bike_id":"f6ae017b-103a-4ffa-baec-f266c0abecf1","system_id":"levelo_inurba_marseille","lat":43.32537,"lon":5.41431,"is_reserved":false,"is_disabled":false,"rental_uris":{"android":"levelo://app?vid=f6ae017b-103a-4ffa-baec-f266c0abecf1","ios":"levelo://app?vid=f6ae017b-103a-4ffa-baec-f266c0abecf1"},"vehicle_type_id":"4","last_reported":1747916446,"current_range_meters":14000,"station_id":"ce4bhq12rcd13ifvqhhg","pricing_plan_id":"cebpf4jnsgd1na2vs0mg"},{"bike_id":"40471c4d-f7d6-463d-8fbc-5632677acffd","system_id":"levelo_inurba_marseille","lat":43.287181,"lon":5.379454,"is_reserved":false,"is_disabled":false,"rental_uris":{"android":"levelo://app?vid=40471c4d-f7d6-463d-8fbc-5632677acffd","ios":"levelo://app?vid=40471c4d-f7d6-463d-8fbc-5632677acffd"},"vehicle_type_id":"4","last_reported":1747916446,"current_range_meters":14400,"station_id":"","pricing_plan_id":"cebpf4jnsgd1na2vs0mg"},{"bike_id":"9fec8102-7898-49e1-82b8-75025119b5ad","system_id":"levelo_inurba_marseille","lat":43.29582,"lon":5.36755,"is_reserved":false,"is_disabled":false,"rental_uris":{"android":"levelo://app?vid=9fec8102-7898-49e1-82b8-75025119b5ad","ios":"levelo://app?vid=9fec8102-7898-49e1-82b8-75025119b5ad"},"vehicle_type_id":"4","last_reported":1747916446,"current_range_meters":14400,"station_id":"ce4bgph2rcd13ifvqc2g","pricing_plan_id":"cebpf4jnsgd1na2vs0mg"},{"bike_id":"0117c73f-69e5-41de-aec8-008ad893bf01","system_id":"levelo_inurba_marseille","lat":43.3019,"lon":5.36621,"is_reserved":false,"is_disabled":false,"rental_uris":{"android":"levelo://app?vid=0117c73f-69e5-41de-aec8-008ad893bf01","ios":"levelo://app?vid=0117c73f-69e5-41de-aec8-008ad893bf01"},"vehicle_type_id":"4","last_reported":1747916446,"current_range_meters":14400,"station_id":"ce4bgrh2rcd13ifvqc8g","pricing_plan_id":"cebpf4jnsgd1na2vs0mg"},{"bike_id":"311db0f2-aa17-4a0b-8144-0494c09a1c69","system_id":"levelo_inurba_marseille","lat":43.3014,"lon":5.37416,"is_reserved":false,"is_disabled":false,"rental_uris":{"android":"levelo://app?vid=311db0f2-aa17-4a0b-8144-0494c09a1c69","ios":"levelo://app?vid=311db0f2-aa17-4a0b-8144-0494c09a1c69"},"vehicle_type_id":"4","last_reported":1747916446,"current_range_meters":14400,"station_id":"ce4bgs92rcd13ifvqcc0","pricing_plan_id":"cebpf4jnsgd1na2vs0mg"},{"bike_id":"5570537f-fdf8-4d28-9c73-c87ffc7f96cb","system_id":"levelo_inurba_marseille","lat":43.26569,"lon":5.39005,"is_reserved":false,"is_disabled":false,"rental_uris":{"android":"levelo://app?vid=5570537f-fdf8-4d28-9c73-c87ffc7f96cb","ios":"levelo://app?vid=5570537f-fdf8-4d28-9c73-c87ffc7f96cb"},"vehicle_type_id":"4","last_reported":1747916446,"current_range_meters":14400,"station_id":"ce4bhe12rcd13ifvqf30","pricing_plan_id":"cebpf4jnsgd1na2vs0mg"},{"bike_id":"fd3e70c9-b5eb-4783-9078-85791041bff9","system_id":"levelo_inurba_marseille","lat":43.24547,"lon":5.3952,"is_reserved":false,"is_disabled":false,"rental_uris":{"android":"levelo://app?vid=fd3e70c9-b5eb-4783-9078-85791041bff9","ios":"levelo://app?vid=fd3e70c9-b5eb-4783-9078-85791041bff9"},"vehicle_type_id":"4","last_reported":1747916446,"current_range_meters":14400,"station_id":"ce4bhlp2rcd13ifvqgjg","pricing_plan_id":"cebpf4jnsgd1na2vs0mg"},{"bike_id":"7da06f34-e019-4b18-921d-8f77e54cc2f1","system_id":"levelo_inurba_marseille","lat":43.249249,"lon":5.393864,"is_reserved":false,"is_disabled":false,"rental_uris":{"android":"levelo://app?vid=7da06f34-e019-4b18-921d-8f77e54cc2f1","ios":"levelo://app?vid=7da06f34-e019-4b18-921d-8f77e54cc2f1"},"vehicle_type_id":"4","last_reported":1747916446,"current_range_meters":14800,"station_id":"","pricing_plan_id":"cebpf4jnsgd1na2vs0mg"},{"bike_id":"a7ff24f8-da66-4fe2-9a83-32829f946eb3","system_id":"levelo_inurba_marseille","lat":43.31259,"lon":5.36848,"is_reserved":false,"is_disabled":false,"rental_uris":{"android":"levelo://app?vid=a7ff24f8-da66-4fe2-9a83-32829f946eb3","ios":"levelo://app?vid=a7ff24f8-da66-4fe2-9a83-32829f946eb3"},"vehicle_type_id":"4","last_reported":1747916446,"current_range_meters":14800,"station_id":"ce4bgl92rcd13ifvqbq0","pricing_plan_id":"cebpf4jnsgd1na2vs0mg"},{"bike_id":"05b2827c-9a32-4032-ba9e-7a9b671b11e2","system_id":"levelo_inurba_marseille","lat":43.30548,"lon":5.36536,"is_reserved":false,"is_disabled":false,"rental_uris":{"android":"levelo://app?vid=05b2827c-9a32-4032-ba9e-7a9b671b11e2","ios":"levelo://app?vid=05b2827c-9a32-4032-ba9e-7a9b671b11e2"},"vehicle_type_id":"4","last_reported":1747916446,"current_range_meters":14800,"station_id":"ce4bgs12rcd13ifvqcag","pricing_plan_id":"cebpf4jnsgd1na2vs0mg"},{"bike_id":"566fc0c4-71fa-467e-8379-eae45a8f2dd4","system_id":"levelo_inurba_marseille","lat":43.30587,"lon":5.39356,"is_reserved":false,"is_disabled":false,"rental_uris":{"android":"levelo://app?vid=566fc0c4-71fa-467e-8379-eae45a8f2dd4","ios":"levelo://app?vid=566fc0c4-71fa-467e-8379-eae45a8f2dd4"},"vehicle_type_id":"4","last_reported":1747916446,"current_range_meters":14800,"station_id":"ce4bh0p2rcd13ifvqd80","pricing_plan_id":"cebpf4jnsgd1na2vs0mg"},{"bike_id":"8f4b805b-3547-41d5-a69b-6204efd5b8ca","system_id":"levelo_inurba_marseille","lat":43.28679,"lon":5.38663,"is_reserved":false,"is_disabled":false,"rental_uris":{"android":"levelo://app?vid=8f4b805b-3547-41d5-a69b-6204efd5b8ca","ios":"levelo://app?vid=8f4b805b-3547-41d5-a69b-6204efd5b8ca"},"vehicle_type_id":"4","last_reported":1747916446,"current_range_meters":14800,"station_id":"ce4bh492rcd13ifvqdug","pricing_plan_id":"cebpf4jnsgd1na2vs0mg"},{"bike_id":"e7c8cc89-f1fd-4b27-ae8c-206dbef44dff","system_id":"levelo_inurba_marseille","lat":43.26557,"lon":5.372808,"is_reserved":false,"is_disabled":false,"rental_uris":{"android":"levelo://app?vid=e7c8cc89-f1fd-4b27-ae8c-206dbef44dff","ios":"levelo://app?vid=e7c8cc89-f1fd-4b27-ae8c-206dbef44dff"},"vehicle_type_id":"4","last_reported":1747916446,"current_range_meters":14800,"station_id":"ce4bhg12rcd13ifvqf70","pricing_plan_id":"cebpf4jnsgd1na2vs0mg"},{"bike_id":"16d0152a-be05-4c45-b2b7-622113417c8a","system_id":"levelo_inurba_marseille","lat":43.2695,"lon":5.38646,"is_reserved":false,"is_disabled":false,"rental_uris":{"android":"levelo://app?vid=16d0152a-be05-4c45-b2b7-622113417c8a","ios":"levelo://app?vid=16d0152a-be05-4c45-b2b7-622113417c8a"},"vehicle_type_id":"4","last_reported":1747916446,"current_range_meters":14800,"station_id":"ce4bhh92rcd13ifvqfh0","pricing_plan_id":"cebpf4jnsgd1na2vs0mg"},{"bike_id":"9c448250-214a-45c7-991b-ff9695d3e61f","system_id":"levelo_inurba_marseille","lat":43.28149,"lon":5.42635,"is_reserved":false,"is_disabled":false,"rental_uris":{"android":"levelo://app?vid=9c448250-214a-45c7-991b-ff9695d3e61f","ios":"levelo://app?vid=9c448250-214a-45c7-991b-ff9695d3e61f"},"vehicle_type_id":"4","last_reported":1747916446,"current_range_meters":14800,"station_id":"ce4bhnh2rcd13ifvqgug","pricing_plan_id":"cebpf4jnsgd1na2vs0mg"},{"bike_id":"84f00b51-2429-41be-8a43-83978d7764de","system_id":"levelo_inurba_marseille","lat":43.28001,"lon":5.40046,"is_reserved":false,"is_disabled":false,"rental_uris":{"android":"levelo://app?vid=84f00b51-2429-41be-8a43-83978d7764de","ios":"levelo://app?vid=84f00b51-2429-41be-8a43-83978d7764de"},"vehicle_type_id":"4","last_reported":1747916446,"current_range_meters":14800,"station_id":"ce4bho92rcd13ifvqh4g","pricing_plan_id":"cebpf4jnsgd1na2vs0mg"},{"bike_id":"0d25bcba-ff24-46ef-b947-0ebda8b612b7","system_id":"levelo_inurba_marseille","lat":43.2573,"lon":5.41103,"is_reserved":false,"is_disabled":false,"rental_uris":{"android":"levelo://app?vid=0d25bcba-ff24-46ef-b947-0ebda8b612b7","ios":"levelo://app?vid=0d25bcba-ff24-46ef-b947-0ebda8b612b7"},"vehicle_type_id":"4","last_reported":1747916446,"current_range_meters":15200,"station_id":"ce4bhkp2rcd13ifvqgd0","pricing_plan_id":"cebpf4jnsgd1na2vs0mg"},{"bike_id":"e3e19b90-9823-4b53-b8a7-4c599b3176c2","system_id":"levelo_inurba_marseille","lat":43.251132,"lon":5.403235,"is_reserved":false,"is_disabled":false,"rental_uris":{"android":"levelo://app?vid=e3e19b90-9823-4b53-b8a7-4c599b3176c2","ios":"levelo://app?vid=e3e19b90-9823-4b53-b8a7-4c599b3176c2"},"vehicle_type_id":"4","last_reported":1747916446,"current_range_meters":15200,"station_id":"ce4bhlh2rcd13ifvqgig","pricing_plan_id":"cebpf4jnsgd1na2vs0mg"},{"bike_id":"19d675a5-e9f0-46f0-9d7b-a2e9518a9cc3","system_id":"levelo_inurba_marseille","lat":43.31348,"lon":5.36709,"is_reserved":false,"is_disabled":false,"rental_uris":{"android":"levelo://app?vid=19d675a5-e9f0-46f0-9d7b-a2e9518a9cc3","ios":"levelo://app?vid=19d675a5-e9f0-46f0-9d7b-a2e9518a9cc3"},"vehicle_type_id":"4","last_reported":1747916446,"current_range_meters":16000,"station_id":"ce4bgr92rcd13ifvqc6g","pricing_plan_id":"cebpf4jnsgd1na2vs0mg"},{"bike_id":"dd019fbb-0d81-4e45-8678-2525ed85f3cc","system_id":"levelo_inurba_marseille","lat":43.2893,"lon":5.39622,"is_reserved":false,"is_disabled":false,"rental_uris":{"android":"levelo://app?vid=dd019fbb-0d81-4e45-8678-2525ed85f3cc","ios":"levelo://app?vid=dd019fbb-0d81-4e45-8678-2525ed85f3cc"},"vehicle_type_id":"4","last_reported":1747916446,"current_range_meters":16000,"station_id":"ce4bh3h2rcd13ifvqdn0","pricing_plan_id":"cebpf4jnsgd1na2vs0mg"},{"bike_id":"38c3472c-0a5b-4bbf-9677-095ee3d9bac1","system_id":"levelo_inurba_marseille","lat":43.29278,"lon":5.36844,"is_reserved":false,"is_disabled":false,"rental_uris":{"android":"levelo://app?vid=38c3472c-0a5b-4bbf-9677-095ee3d9bac1","ios":"levelo://app?vid=38c3472c-0a5b-4bbf-9677-095ee3d9bac1"},"vehicle_type_id":"4","last_reported":1747916446,"current_range_meters":16000,"station_id":"ce4bhbp2rcd13ifvqesg","pricing_plan_id":"cebpf4jnsgd1na2vs0mg"},{"bike_id":"9dae152a-7e6b-4f70-860d-d313c5773be3","system_id":"levelo_inurba_marseille","lat":43.296523,"lon":5.377873,"is_reserved":false,"is_disabled":false,"rental_uris":{"android":"levelo://app?vid=9dae152a-7e6b-4f70-860d-d313c5773be3","ios":"levelo://app?vid=9dae152a-7e6b-4f70-860d-d313c5773be3"},"vehicle_type_id":"4","last_reported":1747916446,"current_range_meters":16400,"station_id":"","pricing_plan_id":"cebpf4jnsgd1na2vs0mg"},{"bike_id":"41bef200-0210-46a9-afd1-c001d345c4b0","system_id":"levelo_inurba_marseille","lat":43.336545,"lon":5.378343,"is_reserved":false,"is_disabled":false,"rental_uris":{"android":"levelo://app?vid=41bef200-0210-46a9-afd1-c001d345c4b0","ios":"levelo://app?vid=41bef200-0210-46a9-afd1-c001d345c4b0"},"vehicle_type_id":"4","last_reported":1747916446,"current_range_meters":16400,"station_id":"","pricing_plan_id":"cebpf4jnsgd1na2vs0mg"},{"bike_id":"d5c22bd8-bd85-4efe-9877-d80e379dde93","system_id":"levelo_inurba_marseille","lat":43.3072,"lon":5.36549,"is_reserved":false,"is_disabled":false,"rental_uris":{"android":"levelo://app?vid=d5c22bd8-bd85-4efe-9877-d80e379dde93","ios":"levelo://app?vid=d5c22bd8-bd85-4efe-9877-d80e379dde93"},"vehicle_type_id":"4","last_reported":1747916446,"current_range_meters":16400,"station_id":"","pricing_plan_id":"cebpf4jnsgd1na2vs0mg"},{"bike_id":"64e8d141-7d8b-48cf-90b9-b154ac715691","system_id":"levelo_inurba_marseille","lat":43.29763,"lon":5.38111,"is_reserved":false,"is_disabled":false,"rental_uris":{"android":"levelo://app?vid=64e8d141-7d8b-48cf-90b9-b154ac715691","ios":"levelo://app?vid=64e8d141-7d8b-48cf-90b9-b154ac715691"},"vehicle_type_id":"4","last_reported":1747916446,"current_range_meters":16400,"station_id":"ce4bgip2rcd13ifvqbb0","pricing_plan_id":"cebpf4jnsgd1na2vs0mg"},{"bike_id":"50b2229c-39da-488c-8613-7a6e1003d957","system_id":"levelo_inurba_marseille","lat":43.30512,"lon":5.36684,"is_reserved":false,"is_disabled":false,"rental_uris":{"android":"levelo://app?vid=50b2229c-39da-488c-8613-7a6e1003d957","ios":"levelo://app?vid=50b2229c-39da-488c-8613-7a6e1003d957"},"vehicle_type_id":"4","last_reported":1747916446,"current_range_meters":16400,"station_id":"ce4bgrp2rcd13ifvqc9g","pricing_plan_id":"cebpf4jnsgd1na2vs0mg"},{"bike_id":"107d3b4b-746c-4c97-be20-ff30b43f7a4c","system_id":"levelo_inurba_marseille","lat":43.2983,"lon":5.40411,"is_reserved":false,"is_disabled":false,"rental_uris":{"android":"levelo://app?vid=107d3b4b-746c-4c97-be20-ff30b43f7a4c","ios":"levelo://app?vid=107d3b4b-746c-4c97-be20-ff30b43f7a4c"},"vehicle_type_id":"4","last_reported":1747916446,"current_range_meters":16400,"station_id":"ce4bh112rcd13ifvqd90","pricing_plan_id":"cebpf4jnsgd1na2vs0mg"},{"bike_id":"ee30c2bc-1dbd-4450-8562-072416b2d413","system_id":"levelo_inurba_marseille","lat":43.29043,"lon":5.39968,"is_reserved":false,"is_disabled":false,"rental_uris":{"android":"levelo://app?vid=ee30c2bc-1dbd-4450-8562-072416b2d413","ios":"levelo://app?vid=ee30c2bc-1dbd-4450-8562-072416b2d413"},"vehicle_type_id":"4","last_reported":1747916446,"current_range_meters":16400,"station_id":"ce4bh392rcd13ifvqdm0","pricing_plan_id":"cebpf4jnsgd1na2vs0mg"},{"bike_id":"504baffc-ad18-42f1-ba3c-e8815f65a9f8","system_id":"levelo_inurba_marseille","lat":43.26577,"lon":5.39028,"is_reserved":false,"is_disabled":false,"rental_uris":{"android":"levelo://app?vid=504baffc-ad18-42f1-ba3c-e8815f65a9f8","ios":"levelo://app?vid=504baffc-ad18-42f1-ba3c-e8815f65a9f8"},"vehicle_type_id":"4","last_reported":1747916446,"current_range_meters":16400,"station_id":"ce4bhe12rcd13ifvqf30","pricing_plan_id":"cebpf4jnsgd1na2vs0mg"},{"bike_id":"b25b2444-c654-4c54-aabb-eb86a51dd2c7","system_id":"levelo_inurba_marseille","lat":43.26063,"lon":5.394,"is_reserved":false,"is_disabled":false,"rental_uris":{"android":"levelo://app?vid=b25b2444-c654-4c54-aabb-eb86a51dd2c7","ios":"levelo://app?vid=b25b2444-c654-4c54-aabb-eb86a51dd2c7"},"vehicle_type_id":"4","last_reported":1747916446,"current_range_meters":16400,"station_id":"ce4bhh92rcd13ifvqfj0","pricing_plan_id":"cebpf4jnsgd1na2vs0mg"},{"bike_id":"800a4ee9-8078-4ad6-8ded-b296a93ca9bc","system_id":"levelo_inurba_marseille","lat":43.24676,"lon":5.38142,"is_reserved":false,"is_disabled":false,"rental_uris":{"android":"levelo://app?vid=800a4ee9-8078-4ad6-8ded-b296a93ca9bc","ios":"levelo://app?vid=800a4ee9-8078-4ad6-8ded-b296a93ca9bc"},"vehicle_type_id":"4","last_reported":1747916446,"current_range_meters":16400,"station_id":"ce4bhih2rcd13ifvqfr0","pricing_plan_id":"cebpf4jnsgd1na2vs0mg"},{"bike_id":"54eb10f0-78ae-4484-b8e8-ed286bf1fcb1","system_id":"levelo_inurba_marseille","lat":43.32289,"lon":5.38269,"is_reserved":false,"is_disabled":false,"rental_uris":{"android":"levelo://app?vid=54eb10f0-78ae-4484-b8e8-ed286bf1fcb1","ios":"levelo://app?vid=54eb10f0-78ae-4484-b8e8-ed286bf1fcb1"},"vehicle_type_id":"4","last_reported":1747916446,"current_range_meters":16400,"station_id":"ce4bhr12rcd13ifvqhqg","pricing_plan_id":"cebpf4jnsgd1na2vs0mg"},{"bike_id":"605be4bf-deee-4b33-a4cb-0294e9797557","system_id":"levelo_inurba_marseille","lat":43.23052,"lon":5.35493,"is_reserved":false,"is_disabled":false,"rental_uris":{"android":"levelo://app?vid=605be4bf-deee-4b33-a4cb-0294e9797557","ios":"levelo://app?vid=605be4bf-deee-4b33-a4cb-0294e9797557"},"vehicle_type_id":"4","last_reported":1747916446,"current_range_meters":16400,"station_id":"cpo3342slgdg3j2ifvpg","pricing_plan_id":"cebpf4jnsgd1na2vs0mg"},{"bike_id":"dee19f16-dc1c-43a0-a7e6-f62d171e520b","system_id":"levelo_inurba_marseille","lat":43.304759,"lon":5.378845,"is_reserved":false,"is_disabled":false,"rental_uris":{"android":"levelo://app?vid=dee19f16-dc1c-43a0-a7e6-f62d171e520b","ios":"levelo://app?vid=dee19f16-dc1c-43a0-a7e6-f62d171e520b"},"vehicle_type_id":"4","last_reported":1747916446,"current_range_meters":16800,"station_id":"ce4bgup2rcd13ifvqcn0","pricing_plan_id":"cebpf4jnsgd1na2vs0mg"},{"bike_id":"e5e94367-a52e-4db2-9b83-8db365660e30","system_id":"levelo_inurba_marseille","lat":43.2592,"lon":5.40901,"is_reserved":false,"is_disabled":false,"rental_uris":{"android":"levelo://app?vid=e5e94367-a52e-4db2-9b83-8db365660e30","ios":"levelo://app?vid=e5e94367-a52e-4db2-9b83-8db365660e30"},"vehicle_type_id":"4","last_reported":1747916446,"current_range_meters":16800,"station_id":"ce4bhm92rcd13ifvqglg","pricing_plan_id":"cebpf4jnsgd1na2vs0mg"},{"bike_id":"c0a363d1-3bb5-4d7a-a4e8-50a1272c1a00","system_id":"levelo_inurba_marseille","lat":43.23203,"lon":5.35554,"is_reserved":false,"is_disabled":false,"rental_uris":{"android":"levelo://app?vid=c0a363d1-3bb5-4d7a-a4e8-50a1272c1a00","ios":"levelo://app?vid=c0a363d1-3bb5-4d7a-a4e8-50a1272c1a00"},"vehicle_type_id":"4","last_reported":1747916446,"current_range_meters":16800,"station_id":"ce4bhu92rcd13ifvqi70","pricing_plan_id":"cebpf4jnsgd1na2vs0mg"},{"bike_id":"9b4af3c1-9b57-4c48-a4c0-6037a1b4a081","system_id":"levelo_inurba_marseille","lat":43.30254,"lon":5.37687,"is_reserved":false,"is_disabled":false,"rental_uris":{"android":"levelo://app?vid=9b4af3c1-9b57-4c48-a4c0-6037a1b4a081","ios":"levelo://app?vid=9b4af3c1-9b57-4c48-a4c0-6037a1b4a081"},"vehicle_type_id":"4","last_reported":1747916446,"current_range_meters":17200,"station_id":"","pricing_plan_id":"cebpf4jnsgd1na2vs0mg"},{"bike_id":"060c8880-192c-4f9d-bdaa-4e6fd16552db","system_id":"levelo_inurba_marseille","lat":43.298,"lon":5.38086,"is_reserved":false,"is_disabled":false,"rental_uris":{"android":"levelo://app?vid=060c8880-192c-4f9d-bdaa-4e6fd16552db","ios":"levelo://app?vid=060c8880-192c-4f9d-bdaa-4e6fd16552db"},"vehicle_type_id":"4","last_reported":1747916446,"current_range_meters":17200,"station_id":"ce4bgip2rcd13ifvqbb0","pricing_plan_id":"cebpf4jnsgd1na2vs0mg"},{"bike_id":"239c4d38-7e48-43d0-b253-f7a2a8dc33c4","system_id":"levelo_inurba_marseille","lat":43.30539,"lon":5.36521,"is_reserved":false,"is_disabled":false,"rental_uris":{"android":"levelo://app?vid=239c4d38-7e48-43d0-b253-f7a2a8dc33c4","ios":"levelo://app?vid=239c4d38-7e48-43d0-b253-f7a2a8dc33c4"},"vehicle_type_id":"4","last_reported":1747916446,"current_range_meters":17200,"station_id":"ce4bgs12rcd13ifvqcag","pricing_plan_id":"cebpf4jnsgd1na2vs0mg"},{"bike_id":"4e5b176e-78a1-4b40-80c5-6a207e25cbc0","system_id":"levelo_inurba_marseille","lat":43.31165,"lon":5.38727,"is_reserved":false,"is_disabled":false,"rental_uris":{"android":"levelo://app?vid=4e5b176e-78a1-4b40-80c5-6a207e25cbc0","ios":"levelo://app?vid=4e5b176e-78a1-4b40-80c5-6a207e25cbc0"},"vehicle_type_id":"4","last_reported":1747916446,"current_range_meters":17200,"station_id":"ce4bgv12rcd13ifvqcp0","pricing_plan_id":"cebpf4jnsgd1na2vs0mg"},{"bike_id":"12312cb8-e991-4b6e-9e36-5053a5e49a80","system_id":"levelo_inurba_marseille","lat":43.26697,"lon":5.38278,"is_reserved":false,"is_disabled":false,"rental_uris":{"android":"levelo://app?vid=12312cb8-e991-4b6e-9e36-5053a5e49a80","ios":"levelo://app?vid=12312cb8-e991-4b6e-9e36-5053a5e49a80"},"vehicle_type_id":"4","last_reported":1747916446,"current_range_meters":17200,"station_id":"ce4bhg92rcd13ifvqf90","pricing_plan_id":"cebpf4jnsgd1na2vs0mg"},{"bike_id":"6dde22b3-be2c-4353-838d-05c85608e4d3","system_id":"levelo_inurba_marseille","lat":43.323543,"lon":5.367608,"is_reserved":false,"is_disabled":false,"rental_uris":{"android":"levelo://app?vid=6dde22b3-be2c-4353-838d-05c85608e4d3","ios":"levelo://app?vid=6dde22b3-be2c-4353-838d-05c85608e4d3"},"vehicle_type_id":"4","last_reported":1747916446,"current_range_meters":17200,"station_id":"ce4bhsh2rcd13ifvqi2g","pricing_plan_id":"cebpf4jnsgd1na2vs0mg"},{"bike_id":"1a340bac-8012-4c7c-b50a-247d19f083a9","system_id":"levelo_inurba_marseille","lat":43.22508,"lon":5.3477,"is_reserved":false,"is_disabled":false,"rental_uris":{"android":"levelo://app?vid=1a340bac-8012-4c7c-b50a-247d19f083a9","ios":"levelo://app?vid=1a340bac-8012-4c7c-b50a-247d19f083a9"},"vehicle_type_id":"4","last_reported":1747916446,"current_range_meters":17200,"station_id":"st_cvj5dfep6f1abm77gieg","pricing_plan_id":"cebpf4jnsgd1na2vs0mg"},{"bike_id":"37844bcf-e6b5-4f86-9cc0-88711b06431d","system_id":"levelo_inurba_marseille","lat":43.30273,"lon":5.373,"is_reserved":false,"is_disabled":false,"rental_uris":{"android":"levelo://app?vid=37844bcf-e6b5-4f86-9cc0-88711b06431d","ios":"levelo://app?vid=37844bcf-e6b5-4f86-9cc0-88711b06431d"},"vehicle_type_id":"4","last_reported":1747916446,"current_range_meters":17600,"station_id":"","pricing_plan_id":"cebpf4jnsgd1na2vs0mg"},{"bike_id":"fb37c12e-72aa-4e9a-8b92-5c6606bf83ba","system_id":"levelo_inurba_marseille","lat":43.32539,"lon":5.41491,"is_reserved":false,"is_disabled":false,"rental_uris":{"android":"levelo://app?vid=fb37c12e-72aa-4e9a-8b92-5c6606bf83ba","ios":"levelo://app?vid=fb37c12e-72aa-4e9a-8b92-5c6606bf83ba"},"vehicle_type_id":"4","last_reported":1747916446,"current_range_meters":17600,"station_id":"","pricing_plan_id":"cebpf4jnsgd1na2vs0mg"},{"bike_id":"74b05b7d-ebba-403d-9939-a48b7dc19b75","system_id":"levelo_inurba_marseille","lat":43.31345,"lon":5.36712,"is_reserved":false,"is_disabled":false,"rental_uris":{"android":"levelo://app?vid=74b05b7d-ebba-403d-9939-a48b7dc19b75","ios":"levelo://app?vid=74b05b7d-ebba-403d-9939-a48b7dc19b75"},"vehicle_type_id":"4","last_reported":1747916446,"current_range_meters":17600,"station_id":"ce4bgr92rcd13ifvqc6g","pricing_plan_id":"cebpf4jnsgd1na2vs0mg"},{"bike_id":"2871627a-1a53-4f3e-b8ce-82fe1d019c6a","system_id":"levelo_inurba_marseille","lat":43.30538,"lon":5.36557,"is_reserved":false,"is_disabled":false,"rental_uris":{"android":"levelo://app?vid=2871627a-1a53-4f3e-b8ce-82fe1d019c6a","ios":"levelo://app?vid=2871627a-1a53-4f3e-b8ce-82fe1d019c6a"},"vehicle_type_id":"4","last_reported":1747916446,"current_range_meters":17600,"station_id":"ce4bgs12rcd13ifvqcag","pricing_plan_id":"cebpf4jnsgd1na2vs0mg"},{"bike_id":"f21b2c89-45e5-4647-9c85-901bc74e551d","system_id":"levelo_inurba_marseille","lat":43.28949,"lon":5.39629,"is_reserved":false,"is_disabled":false,"rental_uris":{"android":"levelo://app?vid=f21b2c89-45e5-4647-9c85-901bc74e551d","ios":"levelo://app?vid=f21b2c89-45e5-4647-9c85-901bc74e551d"},"vehicle_type_id":"4","last_reported":1747916446,"current_range_meters":17600,"station_id":"ce4bh3h2rcd13ifvqdn0","pricing_plan_id":"cebpf4jnsgd1na2vs0mg"},{"bike_id":"7862a035-a698-42f0-8508-fb319b6afc13","system_id":"levelo_inurba_marseille","lat":43.28462,"lon":5.35872,"is_reserved":false,"is_disabled":false,"rental_uris":{"android":"levelo://app?vid=7862a035-a698-42f0-8508-fb319b6afc13","ios":"levelo://app?vid=7862a035-a698-42f0-8508-fb319b6afc13"},"vehicle_type_id":"4","last_reported":1747916446,"current_range_meters":17600,"station_id":"ce4bhah2rcd13ifvqei0","pricing_plan_id":"cebpf4jnsgd1na2vs0mg"},{"bike_id":"03c812a5-62e2-43ea-8462-7667c3c90999","system_id":"levelo_inurba_marseille","lat":43.26968,"lon":5.38624,"is_reserved":false,"is_disabled":false,"rental_uris":{"android":"levelo://app?vid=03c812a5-62e2-43ea-8462-7667c3c90999","ios":"levelo://app?vid=03c812a5-62e2-43ea-8462-7667c3c90999"},"vehicle_type_id":"4","last_reported":1747916446,"current_range_meters":17600,"station_id":"ce4bhh92rcd13ifvqfh0","pricing_plan_id":"cebpf4jnsgd1na2vs0mg"},{"bike_id":"7a174cf0-49bb-442b-9787-ed977ba34ca4","system_id":"levelo_inurba_marseille","lat":43.2418,"lon":5.39731,"is_reserved":false,"is_disabled":false,"rental_uris":{"android":"levelo://app?vid=7a174cf0-49bb-442b-9787-ed977ba34ca4","ios":"levelo://app?vid=7a174cf0-49bb-442b-9787-ed977ba34ca4"},"vehicle_type_id":"4","last_reported":1747916446,"current_range_meters":17600,"station_id":"ce4bhn12rcd13ifvqgpg","pricing_plan_id":"cebpf4jnsgd1na2vs0mg"},{"bike_id":"beb93ece-8a2b-401d-b7e3-ad77b01ce941","system_id":"levelo_inurba_marseille","lat":43.2176,"lon":5.3459,"is_reserved":false,"is_disabled":false,"rental_uris":{"android":"levelo://app?vid=beb93ece-8a2b-401d-b7e3-ad77b01ce941","ios":"levelo://app?vid=beb93ece-8a2b-401d-b7e3-ad77b01ce941"},"vehicle_type_id":"4","last_reported":1747916446,"current_range_meters":17600,"station_id":"st_cvj6r9ubvosntc0bgbag","pricing_plan_id":"cebpf4jnsgd1na2vs0mg"},{"bike_id":"0e27a530-5aca-4bdb-bcfe-2711f03311f8","system_id":"levelo_inurba_marseille","lat":43.21755,"lon":5.34599,"is_reserved":false,"is_disabled":false,"rental_uris":{"android":"levelo://app?vid=0e27a530-5aca-4bdb-bcfe-2711f03311f8","ios":"levelo://app?vid=0e27a530-5aca-4bdb-bcfe-2711f03311f8"},"vehicle_type_id":"4","last_reported":1747916446,"current_range_meters":17600,"station_id":"st_cvj6r9ubvosntc0bgbag","pricing_plan_id":"cebpf4jnsgd1na2vs0mg"},{"bike_id":"148a0bb8-fc0a-4068-8303-6a9118afa773","system_id":"levelo_inurba_marseille","lat":43.29887,"lon":5.38907,"is_reserved":false,"is_disabled":false,"rental_uris":{"android":"levelo://app?vid=148a0bb8-fc0a-4068-8303-6a9118afa773","ios":"levelo://app?vid=148a0bb8-fc0a-4068-8303-6a9118afa773"},"vehicle_type_id":"4","last_reported":1747916446,"current_range_meters":18000,"station_id":"ce4bh392rcd13ifvqdl0","pricing_plan_id":"cebpf4jnsgd1na2vs0mg"},{"bike_id":"c74fedca-d2e2-4365-8a01-394c54c3d9b8","system_id":"levelo_inurba_marseille","lat":43.25869,"lon":5.39898,"is_reserved":false,"is_disabled":false,"rental_uris":{"android":"levelo://app?vid=c74fedca-d2e2-4365-8a01-394c54c3d9b8","ios":"levelo://app?vid=c74fedca-d2e2-4365-8a01-394c54c3d9b8"},"vehicle_type_id":"4","last_reported":1747916446,"current_range_meters":18000,"station_id":"ce4bhl92rcd13ifvqghg","pricing_plan_id":"cebpf4jnsgd1na2vs0mg"},{"bike_id":"8facb1cb-4a30-47c0-93e6-35f9dd0b6f7c","system_id":"levelo_inurba_marseille","lat":43.25894,"lon":5.40922,"is_reserved":false,"is_disabled":false,"rental_uris":{"android":"levelo://app?vid=8facb1cb-4a30-47c0-93e6-35f9dd0b6f7c","ios":"levelo://app?vid=8facb1cb-4a30-47c0-93e6-35f9dd0b6f7c"},"vehicle_type_id":"4","last_reported":1747916446,"current_range_meters":18000,"station_id":"ce4bhm92rcd13ifvqglg","pricing_plan_id":"cebpf4jnsgd1na2vs0mg"},{"bike_id":"87e9996f-5f1d-44f5-8662-35bdaa1952f1","system_id":"levelo_inurba_marseille","lat":43.259324,"lon":5.408948,"is_reserved":false,"is_disabled":false,"rental_uris":{"android":"levelo://app?vid=87e9996f-5f1d-44f5-8662-35bdaa1952f1","ios":"levelo://app?vid=87e9996f-5f1d-44f5-8662-35bdaa1952f1"},"vehicle_type_id":"4","last_reported":1747916446,"current_range_meters":18000,"station_id":"ce4bhm92rcd13ifvqglg","pricing_plan_id":"cebpf4jnsgd1na2vs0mg"},{"bike_id":"b69014f4-26fe-4f57-b7f0-ec1f40d5a03d","system_id":"levelo_inurba_marseille","lat":43.24072,"lon":5.37759,"is_reserved":false,"is_disabled":false,"rental_uris":{"android":"levelo://app?vid=b69014f4-26fe-4f57-b7f0-ec1f40d5a03d","ios":"levelo://app?vid=b69014f4-26fe-4f57-b7f0-ec1f40d5a03d"},"vehicle_type_id":"4","last_reported":1747916446,"current_range_meters":18000,"station_id":"ce4bhnp2rcd13ifvqgvg","pricing_plan_id":"cebpf4jnsgd1na2vs0mg"},{"bike_id":"77f30024-81a0-4787-8c59-87f17c670108","system_id":"levelo_inurba_marseille","lat":43.21195,"lon":5.35072,"is_reserved":false,"is_disabled":false,"rental_uris":{"android":"levelo://app?vid=77f30024-81a0-4787-8c59-87f17c670108","ios":"levelo://app?vid=77f30024-81a0-4787-8c59-87f17c670108"},"vehicle_type_id":"4","last_reported":1747916446,"current_range_meters":18000,"station_id":"st_cvj6sg6p6f1abm77japg","pricing_plan_id":"cebpf4jnsgd1na2vs0mg"},