{"last_updated":1686524794,"ttl":30,"version":"2.2","data":{"bikes":[{"bike_id":"e652f318-b240-41eb-9839-dfeca40698cc","system_id":"levelo_inurba_marseille","lat":43.312239,"lon":5.368562,"is_reserved":false,"is_disabled":false,"rental_uris":{"android":"levelo://app?vid=e652f318-b240-41eb-9839-dfeca40698cc","ios":"levelo://app?vid=e652f318-b240-41eb-9839-dfeca40698cc"},"vehicle_type_id":"4","last_reported":1686524795,"current_range_meters":2800,"station_id":"ce4bgl92rcd13ifvqbq0","pricing_plan_id":"free"},{"bike_id":"da2a6d95-af2c-4acc-abe2-27bc5e56a873","system_id":"levelo_inurba_marseille","lat":43.312239,"lon":5.368562,"is_reserved":false,"is_disabled":false,"rental_uris":{"android":"levelo://app?vid=da2a6d95-af2c-4acc-abe2-27bc5e56a873","ios":"levelo://app?vid=da2a6d95-af2c-4acc-abe2-27bc5e56a873"},"vehicle_type_id":"4","last_reported":1686524795,"current_range_meters":1200,"station_id":"ce4bgl92rcd13ifvqbq0","pricing_plan_id":"free"},{"bike_id":"e215e44b-264e-4626-ae88-2d3a12aefe09","system_id":"levelo_inurba_marseille","lat":43.309076,"lon":5.368465,"is_reserved":false,"is_disabled":false,"rental_uris":{"android":"levelo://app?vid=e215e44b-264e-4626-ae88-2d3a12aefe09","ios":"levelo://app?vid=e215e44b-264e-4626-ae88-2d3a12aefe09"},"vehicle_type_id":"4","last_reported":1686524795,"current_range_meters":8000,"station_id":"ce4bgn92rcd13ifvqbvg","pricing_plan_id":"free"},{"bike_id":"cd63fbee-8788-4b83-87ba-9a41fa70d44d","system_id":"levelo_inurba_marseille","lat":43.314811,"lon":5.373103,"is_reserved":false,"is_disabled":false,"rental_uris":{"android":"levelo://app?vid=cd63fbee-8788-4b83-87ba-9a41fa70d44d","ios":"levelo://app?vid=cd63fbee-8788-4b83-87ba-9a41fa70d44d"},"vehicle_type_id":"4","last_reported":1686524795,"current_range_meters":27200,"station_id":"ce4bgt12rcd13ifvqcd0","pricing_plan_id":"free"},{"bike_id":"4e87791f-80af-4afd-a71b-6d2176a33232","system_id":"levelo_inurba_marseille","lat":43.314811,"lon":5.373103,"is_reserved":false,"is_disabled":false,"rental_uris":{"android":"levelo://app?vid=4e87791f-80af-4afd-a71b-6d2176a33232","ios":"levelo://app?vid=4e87791f-80af-4afd-a71b-6d2176a33232"},"vehicle_type_id":"4","last_reported":1686524795,"current_range_meters":24400,"station_id":"ce4bgt12rcd13ifvqcd0","pricing_plan_id":"free"},{"bike_id":"e7973863-4b4e-4f04-8b78-38f4eaa28522","system_id":"levelo_inurba_marseille","lat":43.314811,"lon":5.373103,"is_reserved":false,"is_disabled":false,"rental_uris":{"android":"levelo://app?vid=e7973863-4b4e-4f04-8b78-38f4eaa28522","ios":"levelo://app?vid=e7973863-4b4e-4f04-8b78-38f4eaa28522"},"vehicle_type_id":"4","last_reported":1686524795,"current_range_meters":21600,"station_id":"ce4bgt12rcd13ifvqcd0","pricing_plan_id":"free"},{"bike_id":"726e69fe-0789-44cc-8872-aafade0684ce","system_id":"levelo_inurba_marseille","lat":43.306,"lon":5.36574,"is_reserved":false,"is_disabled":false,"rental_uris":{"android":"levelo://app?vid=726e69fe-0789-44cc-8872-aafade0684ce","ios":"levelo://app?vid=726e69fe-0789-44cc-8872-aafade0684ce"},"vehicle_type_id":"4","last_reported":1686524795,"current_range_meters":2800,"station_id":"","pricing_plan_id":"free"},{"bike_id":"7d658a7e-496f-4f88-8dbd-c494f53f928b","system_id":"levelo_inurba_marseille","lat":43.31366,"lon":5.37643,"is_reserved":false,"is_disabled":false,"rental_uris":{"android":"levelo://app?vid=7d658a7e-496f-4f88-8dbd-c494f53f928b","ios":"levelo://app?vid=7d658a7e-496f-4f88-8dbd-c494f53f928b"},"vehicle_type_id":"4","last_reported":1686524795,"current_range_meters":800,"station_id":"","pricing_plan_id":"free"},{"bike_id":"41ff9936-6c65-4ab9-bcb8-199baba10c15","system_id":"levelo_inurba_marseille","lat":43.305714,"lon":5.365633,"is_reserved":false,"is_disabled":false,"rental_uris":{"android":"levelo://app?vid=41ff9936-6c65-4ab9-bcb8-199baba10c15","ios":"levelo://app?vid=41ff9936-6c65-4ab9-bcb8-199baba10c15"},"vehicle_type_id":"4","last_reported":1686524795,"current_range_meters":28800,"station_id":"ce4bgs12rcd13ifvqcag","pricing_plan_id":"free"},{"bike_id":"3b927f62-09f1-4390-87ee-7017de9a0e82","system_id":"levelo_inurba_marseille","lat":43.30534,"lon":5.36538,"is_reserved":false,"is_disabled":false,"rental_uris":{"android":"levelo://app?vid=3b927f62-09f1-4390-87ee-7017de9a0e82","ios":"levelo://app?vid=3b927f62-09f1-4390-87ee-7017de9a0e82"},"vehicle_type_id":"4","last_reported":1686524795,"current_range_meters":27200,"station_id":"ce4bgs12rcd13ifvqcag","pricing_plan_id":"free"},{"bike_id":"9ef87dc7-55f9-486f-911f-817e634c8f5c","system_id":"levelo_inurba_marseille","lat":43.305989,"lon":5.37225,"is_reserved":false,"is_disabled":false,"rental_uris":{"android":"levelo://app?vid=9ef87dc7-55f9-486f-911f-817e634c8f5c","ios":"levelo://app?vid=9ef87dc7-55f9-486f-911f-817e634c8f5c"},"vehicle_type_id":"4","last_reported":1686524795,"current_range_meters":17200,"station_id":"ce4bgqh2rcd13ifvqc4g","pricing_plan_id":"free"},{"bike_id":"7f21b4cf-0e1b-4264-9415-95acf6ab2fd3","system_id":"levelo_inurba_marseille","lat":43.305989,"lon":5.37225,"is_reserved":false,"is_disabled":false,"rental_uris":{"android":"levelo://app?vid=7f21b4cf-0e1b-4264-9415-95acf6ab2fd3","ios":"levelo://app?vid=7f21b4cf-0e1b-4264-9415-95acf6ab2fd3"},"vehicle_type_id":"4","last_reported":1686524795,"current_range_meters":18000,"station_id":"ce4bgqh2rcd13ifvqc4g","pricing_plan_id":"free"},{"bike_id":"674a446b-ba12-4539-b2fb-dd7d98698c75","system_id":"levelo_inurba_marseille","lat":43.305989,"lon":5.37225,"is_reserved":false,"is_disabled":false,"rental_uris":{"android":"levelo://app?vid=674a446b-ba12-4539-b2fb-dd7d98698c75","ios":"levelo://app?vid=674a446b-ba12-4539-b2fb-dd7d98698c75"},"vehicle_type_id":"4","last_reported":1686524795,"current_range_meters":29600,"station_id":"ce4bgqh2rcd13ifvqc4g","pricing_plan_id":"free"},{"bike_id":"54ed6818-2b35-4ee8-9c21-bc2f7be5f36c","system_id":"levelo_inurba_marseille","lat":43.305989,"lon":5.37225,"is_reserved":false,"is_disabled":false,"rental_uris":{"android":"levelo://app?vid=54ed6818-2b35-4ee8-9c21-bc2f7be5f36c","ios":"levelo://app?vid=54ed6818-2b35-4ee8-9c21-bc2f7be5f36c"},"vehicle_type_id":"4","last_reported":1686524795,"current_range_meters":30400,"station_id":"ce4bgqh2rcd13ifvqc4g","pricing_plan_id":"free"},{"bike_id":"0e3d017d-6197-4eee-ac88-fc3cb08c70d7","system_id":"levelo_inurba_marseille","lat":43.31119,"lon":5.37765,"is_reserved":false,"is_disabled":false,"rental_uris":{"android":"levelo://app?vid=0e3d017d-6197-4eee-ac88-fc3cb08c70d7","ios":"levelo://app?vid=0e3d017d-6197-4eee-ac88-fc3cb08c70d7"},"vehicle_type_id":"4","last_reported":1686524795,"current_range_meters":28800,"station_id":"ce4bgt92rcd13ifvqcg0","pricing_plan_id":"free"},{"bike_id":"db56fcab-46c5-4217-ae8f-fb3d20c4f2a3","system_id":"levelo_inurba_marseille","lat":43.311131,"lon":5.377651,"is_reserved":false,"is_disabled":false,"rental_uris":{"android":"levelo://app?vid=db56fcab-46c5-4217-ae8f-fb3d20c4f2a3","ios":"levelo://app?vid=db56fcab-46c5-4217-ae8f-fb3d20c4f2a3"},"vehicle_type_id":"4","last_reported":1686524795,"current_range_meters":25600,"station_id":"ce4bgt92rcd13ifvqcg0","pricing_plan_id":"free"},{"bike_id":"3e53011b-46d3-46c8-ba91-a6526c90ae49","system_id":"levelo_inurba_marseille","lat":43.31117,"lon":5.37774,"is_reserved":false,"is_disabled":false,"rental_uris":{"android":"levelo://app?vid=3e53011b-46d3-46c8-ba91-a6526c90ae49","ios":"levelo://app?vid=3e53011b-46d3-46c8-ba91-a6526c90ae49"},"vehicle_type_id":"4","last_reported":1686524795,"current_range_meters":25600,"station_id":"ce4bgt92rcd13ifvqcg0","pricing_plan_id":"free"},{"bike_id":"097902a8-0037-4946-8a16-04b965a46541","system_id":"levelo_inurba_marseille","lat":43.31118,"lon":5.37782,"is_reserved":false,"is_disabled":false,"rental_uris":{"android":"levelo://app?vid=097902a8-0037-4946-8a16-04b965a46541","ios":"levelo://app?vid=097902a8-0037-4946-8a16-04b965a46541"},"vehicle_type_id":"4","last_reported":1686524795,"current_range_meters":25200,"station_id":"ce4bgt92rcd13ifvqcg0","pricing_plan_id":"free"},{"bike_id":"c00813fb-143b-45ee-8b87-bd29c51ac1a1","system_id":"levelo_inurba_marseille","lat":43.303046,"lon":5.368981,"is_reserved":false,"is_disabled":false,"rental_uris":{"android":"levelo://app?vid=c00813fb-143b-45ee-8b87-bd29c51ac1a1","ios":"levelo://app?vid=c00813fb-143b-45ee-8b87-bd29c51ac1a1"},"vehicle_type_id":"4","last_reported":1686524795,"current_range_meters":26000,"station_id":"ce4bgqh2rcd13ifvqc5g","pricing_plan_id":"free"},{"bike_id":"491967b5-23e1-4d2a-99da-803dafb3fad7","system_id":"levelo_inurba_marseille","lat":43.30309,"lon":5.36898,"is_reserved":false,"is_disabled":false,"rental_uris":{"android":"levelo://app?vid=491967b5-23e1-4d2a-99da-803dafb3fad7","ios":"levelo://app?vid=491967b5-23e1-4d2a-99da-803dafb3fad7"},"vehicle_type_id":"4","last_reported":1686524795,"current_range_meters":31200,"station_id":"ce4bgqh2rcd13ifvqc5g","pricing_plan_id":"free"},{"bike_id":"cd18ccbf-25e0-4270-90e3-3ed6654d38d0","system_id":"levelo_inurba_marseille","lat":43.31557,"lon":5.38009,"is_reserved":false,"is_disabled":false,"rental_uris":{"android":"levelo://app?vid=cd18ccbf-25e0-4270-90e3-3ed6654d38d0","ios":"levelo://app?vid=cd18ccbf-25e0-4270-90e3-3ed6654d38d0"},"vehicle_type_id":"4","last_reported":1686524795,"current_range_meters":0,"station_id":"","pricing_plan_id":"free"},{"bike_id":"c5f3c12a-ff07-474b-8462-59dd5f817081","system_id":"levelo_inurba_marseille","lat":43.30201,"lon":5.36599,"is_reserved":false,"is_disabled":false,"rental_uris":{"android":"levelo://app?vid=c5f3c12a-ff07-474b-8462-59dd5f817081","ios":"levelo://app?vid=c5f3c12a-ff07-474b-8462-59dd5f817081"},"vehicle_type_id":"4","last_reported":1686524795,"current_range_meters":30800,"station_id":"ce4bgrh2rcd13ifvqc8g","pricing_plan_id":"free"},{"bike_id":"e4e96743-ee1b-42ec-a020-e4ca88c1d37e","system_id":"levelo_inurba_marseille","lat":43.301939,"lon":5.366286,"is_reserved":false,"is_disabled":false,"rental_uris":{"android":"levelo://app?vid=e4e96743-ee1b-42ec-a020-e4ca88c1d37e","ios":"levelo://app?vid=e4e96743-ee1b-42ec-a020-e4ca88c1d37e"},"vehicle_type_id":"4","last_reported":1686524795,"current_range_meters":2000,"station_id":"ce4bgrh2rcd13ifvqc8g","pricing_plan_id":"free"},{"bike_id":"9f289ac3-e133-46ef-ab2e-48df921ebd7e","system_id":"levelo_inurba_marseille","lat":43.30143,"lon":5.37413,"is_reserved":false,"is_disabled":false,"rental_uris":{"android":"levelo://app?vid=9f289ac3-e133-46ef-ab2e-48df921ebd7e","ios":"levelo://app?vid=9f289ac3-e133-46ef-ab2e-48df921ebd7e"},"vehicle_type_id":"4","last_reported":1686524795,"current_range_meters":11600,"station_id":"ce4bgs92rcd13ifvqcc0","pricing_plan_id":"free"},{"bike_id":"4d029df3-8b8a-4106-8c7d-b4dc86062849","system_id":"levelo_inurba_marseille","lat":43.319935,"lon":5.381699,"is_reserved":false,"is_disabled":false,"rental_uris":{"android":"levelo://app?vid=4d029df3-8b8a-4106-8c7d-b4dc86062849","ios":"levelo://app?vid=4d029df3-8b8a-4106-8c7d-b4dc86062849"},"vehicle_type_id":"4","last_reported":1686524795,"current_range_meters":18400,"station_id":"ce4bhr12rcd13ifvqhpg","pricing_plan_id":"free"},{"bike_id":"8bfc4f83-0eb1-499a-97e0-9c15c4a9de22","system_id":"levelo_inurba_marseille","lat":43.319935,"lon":5.381699,"is_reserved":false,"is_disabled":false,"rental_uris":{"android":"levelo://app?vid=8bfc4f83-0eb1-499a-97e0-9c15c4a9de22","ios":"levelo://app?vid=8bfc4f83-0eb1-499a-97e0-9c15c4a9de22"},"vehicle_type_id":"4","last_reported":1686524795,"current_range_meters":800,"station_id":"ce4bhr12rcd13ifvqhpg","pricing_plan_id":"free"},{"bike_id":"148976dd-ee39-48ff-b28f-cd1ba32427ce","system_id":"levelo_inurba_marseille","lat":43.319935,"lon":5.381699,"is_reserved":false,"is_disabled":false,"rental_uris":{"android":"levelo://app?vid=148976dd-ee39-48ff-b28f-cd1ba32427ce","ios":"levelo://app?vid=148976dd-ee39-48ff-b28f-cd1ba32427ce"},"vehicle_type_id":"4","last_reported":1686524795,"current_range_meters":6800,"station_id":"ce4bhr12rcd13ifvqhpg","pricing_plan_id":"free"},{"bike_id":"e53edf61-2c97-47eb-8b5f-251197a038c0","system_id":"levelo_inurba_marseille","lat":43.319935,"lon":5.381699,"is_reserved":false,"is_disabled":false,"rental_uris":{"android":"levelo://app?vid=e53edf61-2c97-47eb-8b5f-251197a038c0","ios":"levelo://app?vid=e53edf61-2c97-47eb-8b5f-251197a038c0"},"vehicle_type_id":"4","last_reported":1686524795,"current_range_meters":2000,"station_id":"ce4bhr12rcd13ifvqhpg","pricing_plan_id":"free"},{"bike_id":"5168a86d-cb7b-4891-9c87-2d4d17a6d6df","system_id":"levelo_inurba_marseille","lat":43.319935,"lon":5.381699,"is_reserved":false,"is_disabled":false,"rental_uris":{"android":"levelo://app?vid=5168a86d-cb7b-4891-9c87-2d4d17a6d6df","ios":"levelo://app?vid=5168a86d-cb7b-4891-9c87-2d4d17a6d6df"},"vehicle_type_id":"4","last_reported":1686524795,"current_range_meters":16000,"station_id":"ce4bhr12rcd13ifvqhpg","pricing_plan_id":"free"},{"bike_id":"aba2d0df-609b-4f03-b512-147287a6bb6a","system_id":"levelo_inurba_marseille","lat":43.319935,"lon":5.381699,"is_reserved":false,"is_disabled":false,"rental_uris":{"android":"levelo://app?vid=aba2d0df-609b-4f03-b512-147287a6bb6a","ios":"levelo://app?vid=aba2d0df-609b-4f03-b512-147287a6bb6a"},"vehicle_type_id":"4","last_reported":1686524795,"current_range_meters":16400,"station_id":"ce4bhr12rcd13ifvqhpg","pricing_plan_id":"free"},{"bike_id":"0a7e2abe-c4fc-44a9-ac07-899f9a130755","system_id":"levelo_inurba_marseille","lat":43.32119,"lon":5.38038,"is_reserved":false,"is_disabled":false,"rental_uris":{"android":"levelo://app?vid=0a7e2abe-c4fc-44a9-ac07-899f9a130755","ios":"levelo://app?vid=0a7e2abe-c4fc-44a9-ac07-899f9a130755"},"vehicle_type_id":"4","last_reported":1686524795,"current_range_meters":8000,"station_id":"","pricing_plan_id":"free"},{"bike_id":"56736415-e4e8-4dae-8dc0-41008353cd28","system_id":"levelo_inurba_marseille","lat":43.313571,"lon":5.384829,"is_reserved":false,"is_disabled":false,"rental_uris":{"android":"levelo://app?vid=56736415-e4e8-4dae-8dc0-41008353cd28","ios":"levelo://app?vid=56736415-e4e8-4dae-8dc0-41008353cd28"},"vehicle_type_id":"4","last_reported":1686524795,"current_range_meters":25600,"station_id":"ce4bgt92rcd13ifvqcf0","pricing_plan_id":"free"},{"bike_id":"507a7b98-6945-46db-b55f-b26c1f788981","system_id":"levelo_inurba_marseille","lat":43.313571,"lon":5.384829,"is_reserved":false,"is_disabled":false,"rental_uris":{"android":"levelo://app?vid=507a7b98-6945-46db-b55f-b26c1f788981","ios":"levelo://app?vid=507a7b98-6945-46db-b55f-b26c1f788981"},"vehicle_type_id":"4","last_reported":1686524795,"current_range_meters":9600,"station_id":"ce4bgt92rcd13ifvqcf0","pricing_plan_id":"free"},{"bike_id":"81eaf595-2049-45d9-ab61-384e2c7d0317","system_id":"levelo_inurba_marseille","lat":43.313571,"lon":5.384829,"is_reserved":false,"is_disabled":false,"rental_uris":{"android":"levelo://app?vid=81eaf595-2049-45d9-ab61-384e2c7d0317","ios":"levelo://app?vid=81eaf595-2049-45d9-ab61-384e2c7d0317"},"vehicle_type_id":"4","last_reported":1686524795,"current_range_meters":27600,"station_id":"ce4bgt92rcd13ifvqcf0","pricing_plan_id":"free"},{"bike_id":"f47a5b86-39f2-4d36-8128-3dcd11a73f60","system_id":"levelo_inurba_marseille","lat":43.299222,"lon":5.365554,"is_reserved":false,"is_disabled":false,"rental_uris":{"android":"levelo://app?vid=f47a5b86-39f2-4d36-8128-3dcd11a73f60","ios":"levelo://app?vid=f47a5b86-39f2-4d36-8128-3dcd11a73f60"},"vehicle_type_id":"4","last_reported":1686524795,"current_range_meters":25600,"station_id":"ce4bgm92rcd13ifvqbr0","pricing_plan_id":"free"},{"bike_id":"04578a74-2c31-428f-a3a9-d1aac61494db","system_id":"levelo_inurba_marseille","lat":43.311722,"lon":5.387247,"is_reserved":false,"is_disabled":false,"rental_uris":{"android":"levelo://app?vid=04578a74-2c31-428f-a3a9-d1aac61494db","ios":"levelo://app?vid=04578a74-2c31-428f-a3a9-d1aac61494db"},"vehicle_type_id":"4","last_reported":1686524795,"current_range_meters":27600,"station_id":"ce4bgv12rcd13ifvqcp0","pricing_plan_id":"free"},{"bike_id":"2300d2a0-1fc1-4791-a8dc-f0219ab6d855","system_id":"levelo_inurba_marseille","lat":43.311722,"lon":5.387247,"is_reserved":false,"is_disabled":false,"rental_uris":{"android":"levelo://app?vid=2300d2a0-1fc1-4791-a8dc-f0219ab6d855","ios":"levelo://app?vid=2300d2a0-1fc1-4791-a8dc-f0219ab6d855"},"vehicle_type_id":"4","last_reported":1686524795,"current_range_meters":28000,"station_id":"ce4bgv12rcd13ifvqcp0","pricing_plan_id":"free"},{"bike_id":"69afd390-2420-4dd8-95ef-f21ac0a5cff2","system_id":"levelo_inurba_marseille","lat":43.311722,"lon":5.387247,"is_reserved":false,"is_disabled":false,"rental_uris":{"android":"levelo://app?vid=69afd390-2420-4dd8-95ef-f21ac0a5cff2","ios":"levelo://app?vid=69afd390-2420-4dd8-95ef-f21ac0a5cff2"},"vehicle_type_id":"4","last_reported":1686524795,"current_range_meters":29200,"station_id":"ce4bgv12rcd13ifvqcp0","pricing_plan_id":"free"},{"bike_id":"af434387-c696-4711-bbb6-68d793cd7c40","system_id":"levelo_inurba_marseille","lat":43.328371,"lon":5.366912,"is_reserved":false,"is_disabled":false,"rental_uris":{"android":"levelo://app?vid=af434387-c696-4711-bbb6-68d793cd7c40","ios":"levelo://app?vid=af434387-c696-4711-bbb6-68d793cd7c40"},"vehicle_type_id":"4","last_reported":1686524795,"current_range_meters":17600,"station_id":"ce4bhs92rcd13ifvqi0g","pricing_plan_id":"free"},{"bike_id":"9cb98a96-fa45-4a3a-a507-aa7513f04871","system_id":"levelo_inurba_marseille","lat":43.29713,"lon":5.36613,"is_reserved":false,"is_disabled":false,"rental_uris":{"android":"levelo://app?vid=9cb98a96-fa45-4a3a-a507-aa7513f04871","ios":"levelo://app?vid=9cb98a96-fa45-4a3a-a507-aa7513f04871"},"vehicle_type_id":"4","last_reported":1686524795,"current_range_meters":22400,"station_id":"","pricing_plan_id":"free"},{"bike_id":"6e030adf-b716-4354-8b83-08c9110b5b95","system_id":"levelo_inurba_marseille","lat":43.29712,"lon":5.3659,"is_reserved":false,"is_disabled":false,"rental_uris":{"android":"levelo://app?vid=6e030adf-b716-4354-8b83-08c9110b5b95","ios":"levelo://app?vid=6e030adf-b716-4354-8b83-08c9110b5b95"},"vehicle_type_id":"4","last_reported":1686524795,"current_range_meters":3600,"station_id":"","pricing_plan_id":"free"},{"bike_id":"67997e51-406a-4ce8-a896-b4f9bb318142","system_id":"levelo_inurba_marseille","lat":43.29711,"lon":5.36603,"is_reserved":false,"is_disabled":false,"rental_uris":{"android":"levelo://app?vid=67997e51-406a-4ce8-a896-b4f9bb318142","ios":"levelo://app?vid=67997e51-406a-4ce8-a896-b4f9bb318142"},"vehicle_type_id":"4","last_reported":1686524795,"current_range_meters":30000,"station_id":"","pricing_plan_id":"free"},{"bike_id":"52b9a140-5201-417e-b8f6-c8a7c75d578f","system_id":"levelo_inurba_marseille","lat":43.328371,"lon":5.366912,"is_reserved":false,"is_disabled":false,"rental_uris":{"android":"levelo://app?vid=52b9a140-5201-417e-b8f6-c8a7c75d578f","ios":"levelo://app?vid=52b9a140-5201-417e-b8f6-c8a7c75d578f"},"vehicle_type_id":"4","last_reported":1686524795,"current_range_meters":12800,"station_id":"ce4bhs92rcd13ifvqi0g","pricing_plan_id":"free"},{"bike_id":"306ef242-830f-4446-b0d3-634a187d06f8","system_id":"levelo_inurba_marseille","lat":43.29703,"lon":5.36595,"is_reserved":false,"is_disabled":false,"rental_uris":{"android":"levelo://app?vid=306ef242-830f-4446-b0d3-634a187d06f8","ios":"levelo://app?vid=306ef242-830f-4446-b0d3-634a187d06f8"},"vehicle_type_id":"4","last_reported":1686524795,"current_range_meters":21600,"station_id":"","pricing_plan_id":"free"},{"bike_id":"22132942-56f7-48d3-9087-0dfc375b4a34","system_id":"levelo_inurba_marseille","lat":43.299028,"lon":5.381509,"is_reserved":false,"is_disabled":false,"rental_uris":{"android":"levelo://app?vid=22132942-56f7-48d3-9087-0dfc375b4a34","ios":"levelo://app?vid=22132942-56f7-48d3-9087-0dfc375b4a34"},"vehicle_type_id":"4","last_reported":1686524795,"current_range_meters":29200,"station_id":"ce4bgj12rcd13ifvqbc0","pricing_plan_id":"free"},{"bike_id":"a5b1438c-a8fa-4b64-82f0-cc465f815c91","system_id":"levelo_inurba_marseille","lat":43.317557,"lon":5.390173,"is_reserved":false,"is_disabled":false,"rental_uris":{"android":"levelo://app?vid=a5b1438c-a8fa-4b64-82f0-cc465f815c91","ios":"levelo://app?vid=a5b1438c-a8fa-4b64-82f0-cc465f815c91"},"vehicle_type_id":"4","last_reported":1686524795,"current_range_meters":400,"station_id":"ce4bhqp2rcd13ifvqhng","pricing_plan_id":"free"},{"bike_id":"de24aaf4-c082-498c-8ba7-982165dc1f55","system_id":"levelo_inurba_marseille","lat":43.317557,"lon":5.390173,"is_reserved":false,"is_disabled":false,"rental_uris":{"android":"levelo://app?vid=de24aaf4-c082-498c-8ba7-982165dc1f55","ios":"levelo://app?vid=de24aaf4-c082-498c-8ba7-982165dc1f55"},"vehicle_type_id":"4","last_reported":1686524795,"current_range_meters":20400,"station_id":"ce4bhqp2rcd13ifvqhng","pricing_plan_id":"free"},{"bike_id":"0b24a8bc-a96a-4292-b57e-935431962a06","system_id":"levelo_inurba_marseille","lat":43.29614,"lon":5.37718,"is_reserved":false,"is_disabled":false,"rental_uris":{"android":"levelo://app?vid=0b24a8bc-a96a-4292-b57e-935431962a06","ios":"levelo://app?vid=0b24a8bc-a96a-4292-b57e-935431962a06"},"vehicle_type_id":"4","last_reported":1686524795,"current_range_meters":2400,"station_id":"ce4bgi92rcd13ifvqb90","pricing_plan_id":"free"},{"bike_id":"1a10afdd-816f-4230-96ad-e07afc80891a","system_id":"levelo_inurba_marseille","lat":43.29425,"lon":5.37401,"is_reserved":false,"is_disabled":false,"rental_uris":{"android":"levelo://app?vid=1a10afdd-816f-4230-96ad-e07afc80891a","ios":"levelo://app?vid=1a10afdd-816f-4230-96ad-e07afc80891a"},"vehicle_type_id":"4","last_reported":1686524795,"current_range_meters":14400,"station_id":"","pricing_plan_id":"free"},{"bike_id":"4d59d3e2-3e86-4cc5-8791-b409e05014fe","system_id":"levelo_inurba_marseille","lat":43.32366,"lon":5.38883,"is_reserved":false,"is_disabled":false,"rental_uris":{"android":"levelo://app?vid=4d59d3e2-3e86-4cc5-8791-b409e05014fe","ios":"levelo://app?vid=4d59d3e2-3e86-4cc5-8791-b409e05014fe"},"vehicle_type_id":"4","last_reported":1686524795,"current_range_meters":0,"station_id":"ce4bhqp2rcd13ifvqhog","pricing_plan_id":"free"},{"bike_id":"424b1910-887e-47c5-b69b-4b7b4eea4aaf","system_id":"levelo_inurba_marseille","lat":43.323667,"lon":5.388847,"is_reserved":false,"is_disabled":false,"rental_uris":{"android":"levelo://app?vid=424b1910-887e-47c5-b69b-4b7b4eea4aaf","ios":"levelo://app?vid=424b1910-887e-47c5-b69b-4b7b4eea4aaf"},"vehicle_type_id":"4","last_reported":1686524795,"current_range_meters":10400,"station_id":"ce4bhqp2rcd13ifvqhog","pricing_plan_id":"free"},{"bike_id":"0c602125-8ff7-46a9-b462-bdbd1fc5c7a4","system_id":"levelo_inurba_marseille","lat":43.3237,"lon":5.38883,"is_reserved":false,"is_disabled":false,"rental_uris":{"android":"levelo://app?vid=0c602125-8ff7-46a9-b462-bdbd1fc5c7a4","ios":"levelo://app?vid=0c602125-8ff7-46a9-b462-bdbd1fc5c7a4"},"vehicle_type_id":"4","last_reported":1686524795,"current_range_meters":0,"station_id":"ce4bhqp2rcd13ifvqhog","pricing_plan_id":"free"},{"bike_id":"a32327c3-8488-41ce-be67-8f24a4ab0df5","system_id":"levelo_inurba_marseille","lat":43.29602,"lon":5.381084,"is_reserved":false,"is_disabled":false,"rental_uris":{"android":"levelo://app?vid=a32327c3-8488-41ce-be67-8f24a4ab0df5","ios":"levelo://app?vid=a32327c3-8488-41ce-be67-8f24a4ab0df5"},"vehicle_type_id":"4","last_reported":1686524795,"current_range_meters":24400,"station_id":"ce4bgl12rcd13ifvqbo0","pricing_plan_id":"free"},{"bike_id":"18f1a10e-b9a2-4915-aef2-060e2dfd1adc","system_id":"levelo_inurba_marseille","lat":43.29602,"lon":5.381084,"is_reserved":false,"is_disabled":false,"rental_uris":{"android":"levelo://app?vid=18f1a10e-b9a2-4915-aef2-060e2dfd1adc","ios":"levelo://app?vid=18f1a10e-b9a2-4915-aef2-060e2dfd1adc"},"vehicle_type_id":"4","last_reported":1686524795,"current_range_meters":26800,"station_id":"ce4bgl12rcd13ifvqbo0","pricing_plan_id":"free"},{"bike_id":"ceb92948-b2da-4e2f-9332-4763f087a331","system_id":"levelo_inurba_marseille","lat":43.305994,"lon":5.393687,"is_reserved":false,"is_disabled":false,"rental_uris":{"android":"levelo://app?vid=ceb92948-b2da-4e2f-9332-4763f087a331","ios":"levelo://app?vid=ceb92948-b2da-4e2f-9332-4763f087a331"},"vehicle_type_id":"4","last_reported":1686524795,"current_range_meters":31200,"station_id":"ce4bh0p2rcd13ifvqd80","pricing_plan_id":"free"},{"bike_id":"66e3781b-1b7d-4508-aa1a-179730c16a3c","system_id":"levelo_inurba_marseille","lat":43.305994,"lon":5.393687,"is_reserved":false,"is_disabled":false,"rental_uris":{"android":"levelo://app?vid=66e3781b-1b7d-4508-aa1a-179730c16a3c","ios":"levelo://app?vid=66e3781b-1b7d-4508-aa1a-179730c16a3c"},"vehicle_type_id":"4","last_reported":1686524795,"current_range_meters":25200,"station_id":"ce4bh0p2rcd13ifvqd80","pricing_plan_id":"free"},{"bike_id":"3a9e926b-e2cc-41b8-9b76-007f9b80afe8","system_id":"levelo_inurba_marseille","lat":43.302992,"lon":5.392136,"is_reserved":false,"is_disabled":false,"rental_uris":{"android":"levelo://app?vid=3a9e926b-e2cc-41b8-9b76-007f9b80afe8","ios":"levelo://app?vid=3a9e926b-e2cc-41b8-9b76-007f9b80afe8"},"vehicle_type_id":"4","last_reported":1686524795,"current_range_meters":1600,"station_id":"ce4bgkh2rcd13ifvqbk0","pricing_plan_id":"free"},{"bike_id":"44bb6a43-f340-41ae-a835-f292f390872d","system_id":"levelo_inurba_marseille","lat":43.302992,"lon":5.392136,"is_reserved":false,"is_disabled":false,"rental_uris":{"android":"levelo://app?vid=44bb6a43-f340-41ae-a835-f292f390872d","ios":"levelo://app?vid=44bb6a43-f340-41ae-a835-f292f390872d"},"vehicle_type_id":"4","last_reported":1686524795,"current_range_meters":2000,"station_id":"ce4bgkh2rcd13ifvqbk0","pricing_plan_id":"free"},{"bike_id":"61e4ccfd-dc98-4837-8123-2dfa5e087f42","system_id":"levelo_inurba_marseille","lat":43.293723,"lon":5.378443,"is_reserved":false,"is_disabled":false,"rental_uris":{"android":"levelo://app?vid=61e4ccfd-dc98-4837-8123-2dfa5e087f42","ios":"levelo://app?vid=61e4ccfd-dc98-4837-8123-2dfa5e087f42"},"vehicle_type_id":"4","last_reported":1686524795,"current_range_meters":0,"station_id":"","pricing_plan_id":"free"},{"bike_id":"48b75b93-6f55-47ab-91ce-49b357ea3d26","system_id":"levelo_inurba_marseille","lat":43.300852,"lon":5.390859,"is_reserved":false,"is_disabled":false,"rental_uris":{"android":"levelo://app?vid=48b75b93-6f55-47ab-91ce-49b357ea3d26","ios":"levelo://app?vid=48b75b93-6f55-47ab-91ce-49b357ea3d26"},"vehicle_type_id":"4","last_reported":1686524795,"current_range_meters":23200,"station_id":"ce4bh192rcd13ifvqdb0","pricing_plan_id":"free"},{"bike_id":"16cb1dce-1b4c-451c-9dda-d8cc2c59bf75","system_id":"levelo_inurba_marseille","lat":43.298764,"lon":5.388973,"is_reserved":false,"is_disabled":false,"rental_uris":{"android":"levelo://app?vid=16cb1dce-1b4c-451c-9dda-d8cc2c59bf75","ios":"levelo://app?vid=16cb1dce-1b4c-451c-9dda-d8cc2c59bf75"},"vehicle_type_id":"4","last_reported":1686524795,"current_range_meters":6800,"station_id":"ce4bh392rcd13ifvqdl0","pricing_plan_id":"free"},{"bike_id":"7c249892-772d-4e8c-93bb-898c20fae7a9","system_id":"levelo_inurba_marseille","lat":43.30093,"lon":5.39142,"is_reserved":false,"is_disabled":false,"rental_uris":{"android":"levelo://app?vid=7c249892-772d-4e8c-93bb-898c20fae7a9","ios":"levelo://app?vid=7c249892-772d-4e8c-93bb-898c20fae7a9"},"vehicle_type_id":"4","last_reported":1686524795,"current_range_meters":16000,"station_id":"chh1huq6cuj3fo74tm60","pricing_plan_id":"free"},{"bike_id":"8c30d12b-3111-4841-af4f-4c649b19e8b8","system_id":"levelo_inurba_marseille","lat":43.291994,"lon":5.357886,"is_reserved":false,"is_disabled":false,"rental_uris":{"android":"levelo://app?vid=8c30d12b-3111-4841-af4f-4c649b19e8b8","ios":"levelo://app?vid=8c30d12b-3111-4841-af4f-4c649b19e8b8"},"vehicle_type_id":"4","last_reported":1686524795,"current_range_meters":22800,"station_id":"ce4bhb12rcd13ifvqel0","pricing_plan_id":"free"},{"bike_id":"548da05a-8b69-490f-8557-5fe03bb9fe77","system_id":"levelo_inurba_marseille","lat":43.309038,"lon":5.396546,"is_reserved":false,"is_disabled":false,"rental_uris":{"android":"levelo://app?vid=548da05a-8b69-490f-8557-5fe03bb9fe77","ios":"levelo://app?vid=548da05a-8b69-490f-8557-5fe03bb9fe77"},"vehicle_type_id":"4","last_reported":1686524795,"current_range_meters":8800,"station_id":"ce4bh012rcd13ifvqcv0","pricing_plan_id":"free"},{"bike_id":"1c395332-c165-46ed-80a7-244a2b5be450","system_id":"levelo_inurba_marseille","lat":43.309038,"lon":5.396546,"is_reserved":false,"is_disabled":false,"rental_uris":{"android":"levelo://app?vid=1c395332-c165-46ed-80a7-244a2b5be450","ios":"levelo://app?vid=1c395332-c165-46ed-80a7-244a2b5be450"},"vehicle_type_id":"4","last_reported":1686524795,"current_range_meters":27200,"station_id":"ce4bh012rcd13ifvqcv0","pricing_plan_id":"free"},{"bike_id":"0b56d290-ddc4-49ff-9f40-f2efdef72d42","system_id":"levelo_inurba_marseille","lat":43.291994,"lon":5.357886,"is_reserved":false,"is_disabled":false,"rental_uris":{"android":"levelo://app?vid=0b56d290-ddc4-49ff-9f40-f2efdef72d42","ios":"levelo://app?vid=0b56d290-ddc4-49ff-9f40-f2efdef72d42"},"vehicle_type_id":"4","last_reported":1686524795,"current_range_meters":12400,"station_id":"ce4bhb12rcd13ifvqel0","pricing_plan_id":"free"},{"bike_id":"8624ef43-f8b9-4a47-b4aa-462550cd9414","system_id":"levelo_inurba_marseille","lat":43.309038,"lon":5.396546,"is_reserved":false,"is_disabled":false,"rental_uris":{"android":"levelo://app?vid=8624ef43-f8b9-4a47-b4aa-462550cd9414","ios":"levelo://app?vid=8624ef43-f8b9-4a47-b4aa-462550cd9414"},"vehicle_type_id":"4","last_reported":1686524795,"current_range_meters":31200,"station_id":"ce4bh012rcd13ifvqcv0","pricing_plan_id":"free"},{"bike_id":"a2426796-ea4c-4707-9539-220d9b86d451","system_id":"levelo_inurba_marseille","lat":43.309038,"lon":5.396546,"is_reserved":false,"is_disabled":false,"rental_uris":{"android":"levelo://app?vid=a2426796-ea4c-4707-9539-220d9b86d451","ios":"levelo://app?vid=a2426796-ea4c-4707-9539-220d9b86d451"},"vehicle_type_id":"4","last_reported":1686524795,"current_range_meters":23200,"station_id":"ce4bh012rcd13ifvqcv0","pricing_plan_id":"free"},{"bike_id":"c5c1243b-2c44-46cc-bc2d-e2b057f292e9","system_id":"levelo_inurba_marseille","lat":43.309038,"lon":5.396546,"is_reserved":false,"is_disabled":false,"rental_uris":{"android":"levelo://app?vid=c5c1243b-2c44-46cc-bc2d-e2b057f292e9","ios":"levelo://app?vid=c5c1243b-2c44-46cc-bc2d-e2b057f292e9"},"vehicle_type_id":"4","last_reported":1686524795,"current_range_meters":19600,"station_id":"ce4bh012rcd13ifvqcv0","pricing_plan_id":"free"},{"bike_id":"ffd61cfd-9851-4840-9644-ba75780c0de6","system_id":"levelo_inurba_marseille","lat":43.313291,"lon":5.396838,"is_reserved":false,"is_disabled":false,"rental_uris":{"android":"levelo://app?vid=ffd61cfd-9851-4840-9644-ba75780c0de6","ios":"levelo://app?vid=ffd61cfd-9851-4840-9644-ba75780c0de6"},"vehicle_type_id":"4","last_reported":1686524795,"current_range_meters":26400,"station_id":"ce4bgvp2rcd13ifvqcu0","pricing_plan_id":"free"},{"bike_id":"c0c2bfca-88b0-4526-94c5-1e6fd750741b","system_id":"levelo_inurba_marseille","lat":43.309038,"lon":5.396546,"is_reserved":false,"is_disabled":false,"rental_uris":{"android":"levelo://app?vid=c0c2bfca-88b0-4526-94c5-1e6fd750741b","ios":"levelo://app?vid=c0c2bfca-88b0-4526-94c5-1e6fd750741b"},"vehicle_type_id":"4","last_reported":1686524795,"current_range_meters":8000,"station_id":"ce4bh012rcd13ifvqcv0","pricing_plan_id":"free"},{"bike_id":"1d8f70bc-729b-4a51-80a5-70c6b0c92a5c","system_id":"levelo_inurba_marseille","lat":43.313291,"lon":5.396838,"is_reserved":false,"is_disabled":false,"rental_uris":{"android":"levelo://app?vid=1d8f70bc-729b-4a51-80a5-70c6b0c92a5c","ios":"levelo://app?vid=1d8f70bc-729b-4a51-80a5-70c6b0c92a5c"},"vehicle_type_id":"4","last_reported":1686524795,"current_range_meters":21600,"station_id":"ce4bgvp2rcd13ifvqcu0","pricing_plan_id":"free"},{"bike_id":"e13c97b2-3d2f-4591-bf46-eaf5e3eaefac","system_id":"levelo_inurba_marseille","lat":43.313291,"lon":5.396838,"is_reserved":false,"is_disabled":false,"rental_uris":{"android":"levelo://app?vid=e13c97b2-3d2f-4591-bf46-eaf5e3eaefac","ios":"levelo://app?vid=e13c97b2-3d2f-4591-bf46-eaf5e3eaefac"},"vehicle_type_id":"4","last_reported":1686524795,"current_range_meters":8000,"station_id":"ce4bgvp2rcd13ifvqcu0","pricing_plan_id":"free"},{"bike_id":"5b74b0f3-7c36-4caa-b1c6-dcee6558d44a","system_id":"levelo_inurba_marseille","lat":43.313291,"lon":5.396838,"is_reserved":false,"is_disabled":false,"rental_uris":{"android":"levelo://app?vid=5b74b0f3-7c36-4caa-b1c6-dcee6558d44a","ios":"levelo://app?vid=5b74b0f3-7c36-4caa-b1c6-dcee6558d44a"},"vehicle_type_id":"4","last_reported":1686524795,"current_range_meters":0,"station_id":"ce4bgvp2rcd13ifvqcu0","pricing_plan_id":"free"},{"bike_id":"5fe1ece1-1420-4a55-aa3d-2761ffcfd2ef","system_id":"levelo_inurba_marseille","lat":43.313291,"lon":5.396838,"is_reserved":false,"is_disabled":false,"rental_uris":{"android":"levelo://app?vid=5fe1ece1-1420-4a55-aa3d-2761ffcfd2ef","ios":"levelo://app?vid=5fe1ece1-1420-4a55-aa3d-2761ffcfd2ef"},"vehicle_type_id":"4","last_reported":1686524795,"current_range_meters":30800,"station_id":"ce4bgvp2rcd13ifvqcu0","pricing_plan_id":"free"},{"bike_id":"ec5e0823-5eb0-43c0-9a3c-f5f95280afd0","system_id":"levelo_inurba_marseille","lat":43.30891,"lon":5.39651,"is_reserved":false,"is_disabled":false,"rental_uris":{"android":"levelo://app?vid=ec5e0823-5eb0-43c0-9a3c-f5f95280afd0","ios":"levelo://app?vid=ec5e0823-5eb0-43c0-9a3c-f5f95280afd0"},"vehicle_type_id":"4","last_reported":1686524795,"current_range_meters":0,"station_id":"ce4bh012rcd13ifvqcv0","pricing_plan_id":"free"},{"bike_id":"2a73c63c-cab5-49c7-9db5-235313d5ef72","system_id":"levelo_inurba_marseille","lat":43.31328,"lon":5.397,"is_reserved":false,"is_disabled":false,"rental_uris":{"android":"levelo://app?vid=2a73c63c-cab5-49c7-9db5-235313d5ef72","ios":"levelo://app?vid=2a73c63c-cab5-49c7-9db5-235313d5ef72"},"vehicle_type_id":"4","last_reported":1686524795,"current_range_meters":31200,"station_id":"ce4bgvp2rcd13ifvqcu0","pricing_plan_id":"free"},{"bike_id":"e987764b-a620-4b25-a740-02dbead47660","system_id":"levelo_inurba_marseille","lat":43.31355,"lon":5.397,"is_reserved":false,"is_disabled":false,"rental_uris":{"android":"levelo://app?vid=e987764b-a620-4b25-a740-02dbead47660","ios":"levelo://app?vid=e987764b-a620-4b25-a740-02dbead47660"},"vehicle_type_id":"4","last_reported":1686524795,"current_range_meters":12000,"station_id":"","pricing_plan_id":"free"},{"bike_id":"e159f38c-4d44-4f68-90c7-69487c8b3cf7","system_id":"levelo_inurba_marseille","lat":43.292642,"lon":5.384254,"is_reserved":false,"is_disabled":false,"rental_uris":{"android":"levelo://app?vid=e159f38c-4d44-4f68-90c7-69487c8b3cf7","ios":"levelo://app?vid=e159f38c-4d44-4f68-90c7-69487c8b3cf7"},"vehicle_type_id":"4","last_reported":1686524795,"current_range_meters":10800,"station_id":"ce4bh692rcd13ifvqea0","pricing_plan_id":"free"},{"bike_id":"894f2fc9-5a96-4349-899b-cc3d1effb72d","system_id":"levelo_inurba_marseille","lat":43.30205,"lon":5.39442,"is_reserved":false,"is_disabled":false,"rental_uris":{"android":"levelo://app?vid=894f2fc9-5a96-4349-899b-cc3d1effb72d","ios":"levelo://app?vid=894f2fc9-5a96-4349-899b-cc3d1effb72d"},"vehicle_type_id":"4","last_reported":1686524795,"current_range_meters":27600,"station_id":"ce4bh0p2rcd13ifvqd70","pricing_plan_id":"free"},{"bike_id":"b7d7edd7-f013-4390-a348-d04c488c3a05","system_id":"levelo_inurba_marseille","lat":43.290631,"lon":5.359244,"is_reserved":false,"is_disabled":false,"rental_uris":{"android":"levelo://app?vid=b7d7edd7-f013-4390-a348-d04c488c3a05","ios":"levelo://app?vid=b7d7edd7-f013-4390-a348-d04c488c3a05"},"vehicle_type_id":"4","last_reported":1686524795,"current_range_meters":28400,"station_id":"ce4bha92rcd13ifvqeg0","pricing_plan_id":"free"},{"bike_id":"e2b50f83-f150-4cfc-9b00-395e440fd704","system_id":"levelo_inurba_marseille","lat":43.289184,"lon":5.366408,"is_reserved":false,"is_disabled":false,"rental_uris":{"android":"levelo://app?vid=e2b50f83-f150-4cfc-9b00-395e440fd704","ios":"levelo://app?vid=e2b50f83-f150-4cfc-9b00-395e440fd704"},"vehicle_type_id":"4","last_reported":1686524795,"current_range_meters":17600,"station_id":"ce4bhap2rcd13ifvqek0","pricing_plan_id":"free"},{"bike_id":"aa398a00-f5d0-400b-b954-068783a5c19b","system_id":"levelo_inurba_marseille","lat":43.290327,"lon":5.375711,"is_reserved":false,"is_disabled":false,"rental_uris":{"android":"levelo://app?vid=aa398a00-f5d0-400b-b954-068783a5c19b","ios":"levelo://app?vid=aa398a00-f5d0-400b-b954-068783a5c19b"},"vehicle_type_id":"4","last_reported":1686524795,"current_range_meters":22800,"station_id":"ce4bh692rcd13ifvqe90","pricing_plan_id":"free"},{"bike_id":"8b804d03-931c-4d8a-ae2a-d3da3f31ad4a","system_id":"levelo_inurba_marseille","lat":43.289184,"lon":5.366408,"is_reserved":false,"is_disabled":false,"rental_uris":{"android":"levelo://app?vid=8b804d03-931c-4d8a-ae2a-d3da3f31ad4a","ios":"levelo://app?vid=8b804d03-931c-4d8a-ae2a-d3da3f31ad4a"},"vehicle_type_id":"4","last_reported":1686524795,"current_range_meters":21200,"station_id":"ce4bhap2rcd13ifvqek0","pricing_plan_id":"free"},{"bike_id":"7e839a01-5a11-416d-b138-4efd378f2631","system_id":"levelo_inurba_marseille","lat":43.289184,"lon":5.366408,"is_reserved":false,"is_disabled":false,"rental_uris":{"android":"levelo://app?vid=7e839a01-5a11-416d-b138-4efd378f2631","ios":"levelo://app?vid=7e839a01-5a11-416d-b138-4efd378f2631"},"vehicle_type_id":"4","last_reported":1686524795,"current_range_meters":15200,"station_id":"ce4bhap2rcd13ifvqek0","pricing_plan_id":"free"},{"bike_id":"7720709f-185a-455c-85aa-d1daddb15367","system_id":"levelo_inurba_marseille","lat":43.289184,"lon":5.366408,"is_reserved":false,"is_disabled":false,"rental_uris":{"android":"levelo://app?vid=7720709f-185a-455c-85aa-d1daddb15367","ios":"levelo://app?vid=7720709f-185a-455c-85aa-d1daddb15367"},"vehicle_type_id":"4","last_reported":1686524795,"current_range_meters":22800,"station_id":"ce4bhap2rcd13ifvqek0","pricing_plan_id":"free"},{"bike_id":"09cf85bf-ccb9-4e76-8459-4a03a62540a7","system_id":"levelo_inurba_marseille","lat":43.289184,"lon":5.366408,"is_reserved":false,"is_disabled":false,"rental_uris":{"android":"levelo://app?vid=09cf85bf-ccb9-4e76-8459-4a03a62540a7","ios":"levelo://app?vid=09cf85bf-ccb9-4e76-8459-4a03a62540a7"},"vehicle_type_id":"4","last_reported":1686524795,"current_range_meters":9600,"station_id":"ce4bhap2rcd13ifvqek0","pricing_plan_id":"free"},{"bike_id":"292f3c76-1256-49b0-8695-87ba1f70905e","system_id":"levelo_inurba_marseille","lat":43.289184,"lon":5.366408,"is_reserved":false,"is_disabled":false,"rental_uris":{"android":"levelo://app?vid=292f3c76-1256-49b0-8695-87ba1f70905e","ios":"levelo://app?vid=292f3c76-1256-49b0-8695-87ba1f70905e"},"vehicle_type_id":"4","last_reported":1686524795,"current_range_meters":31200,"station_id":"ce4bhap2rcd13ifvqek0","pricing_plan_id":"free"},{"bike_id":"22f9ec1b-994b-48c7-9006-1c8fdd53431e","system_id":"levelo_inurba_marseille","lat":43.289313,"lon":5.366383,"is_reserved":false,"is_disabled":false,"rental_uris":{"android":"levelo://app?vid=22f9ec1b-994b-48c7-9006-1c8fdd53431e","ios":"levelo://app?vid=22f9ec1b-994b-48c7-9006-1c8fdd53431e"},"vehicle_type_id":"4","last_reported":1686524795,"current_range_meters":25200,"station_id":"ce4bh9p2rcd13ifvqec0","pricing_plan_id":"free"},{"bike_id":"06445864-5885-40c7-80a9-5b288c2c0124","system_id":"levelo_inurba_marseille","lat":43.2894,"lon":5.364,"is_reserved":false,"is_disabled":false,"rental_uris":{"android":"levelo://app?vid=06445864-5885-40c7-80a9-5b288c2c0124","ios":"levelo://app?vid=06445864-5885-40c7-80a9-5b288c2c0124"},"vehicle_type_id":"4","last_reported":1686524795,"current_range_meters":0,"station_id":"ce4bhc92rcd13ifvqetg","pricing_plan_id":"free"},{"bike_id":"fa0e872e-c495-466d-8fdf-4907ac0c68fd","system_id":"levelo_inurba_marseille","lat":43.289468,"lon":5.363719,"is_reserved":false,"is_disabled":false,"rental_uris":{"android":"levelo://app?vid=fa0e872e-c495-466d-8fdf-4907ac0c68fd","ios":"levelo://app?vid=fa0e872e-c495-466d-8fdf-4907ac0c68fd"},"vehicle_type_id":"4","last_reported":1686524795,"current_range_meters":18800,"station_id":"ce4bhc92rcd13ifvqetg","pricing_plan_id":"free"},{"bike_id":"c9ed2382-d98c-4db1-a85f-1e095076b8a6","system_id":"levelo_inurba_marseille","lat":43.294032,"lon":5.386342,"is_reserved":false,"is_disabled":false,"rental_uris":{"android":"levelo://app?vid=c9ed2382-d98c-4db1-a85f-1e095076b8a6","ios":"levelo://app?vid=c9ed2382-d98c-4db1-a85f-1e095076b8a6"},"vehicle_type_id":"4","last_reported":1686524795,"current_range_meters":18400,"station_id":"","pricing_plan_id":"free"},{"bike_id":"c11483ca-e966-4656-af21-2d5fd41d2bbe","system_id":"levelo_inurba_marseille","lat":43.289184,"lon":5.366408,"is_reserved":false,"is_disabled":false,"rental_uris":{"android":"levelo://app?vid=c11483ca-e966-4656-af21-2d5fd41d2bbe","ios":"levelo://app?vid=c11483ca-e966-4656-af21-2d5fd41d2bbe"},"vehicle_type_id":"4","last_reported":1686524795,"current_range_meters":31200,"station_id":"ce4bhap2rcd13ifvqek0","pricing_plan_id":"free"},{"bike_id":"286009f0-cd0c-4c26-821d-a389ec25962b","system_id":"levelo_inurba_marseille","lat":43.289468,"lon":5.363719,"is_reserved":false,"is_disabled":false,"rental_uris":{"android":"levelo://app?vid=286009f0-cd0c-4c26-821d-a389ec25962b","ios":"levelo://app?vid=286009f0-cd0c-4c26-821d-a389ec25962b"},"vehicle_type_id":"4","last_reported":1686524795,"current_range_meters":22800,"station_id":"ce4bhc92rcd13ifvqetg","pricing_plan_id":"free"},{"bike_id":"9692f3e4-f602-4784-8a32-5ebe41439108","system_id":"levelo_inurba_marseille","lat":43.289468,"lon":5.363719,"is_reserved":false,"is_disabled":false,"rental_uris":{"android":"levelo://app?vid=9692f3e4-f602-4784-8a32-5ebe41439108","ios":"levelo://app?vid=9692f3e4-f602-4784-8a32-5ebe41439108"},"vehicle_type_id":"4","last_reported":1686524795,"current_range_meters":28800,"station_id":"ce4bhc92rcd13ifvqetg","pricing_plan_id":"free"},{"bike_id":"944a5608-0dea-45b7-90a0-6e35424155d2","system_id":"levelo_inurba_marseille","lat":43.292642,"lon":5.384254,"is_reserved":false,"is_disabled":false,"rental_uris":{"android":"levelo://app?vid=944a5608-0dea-45b7-90a0-6e35424155d2","ios":"levelo://app?vid=944a5608-0dea-45b7-90a0-6e35424155d2"},"vehicle_type_id":"4","last_reported":1686524795,"current_range_meters":20000,"station_id":"ce4bh692rcd13ifvqea0","pricing_plan_id":"free"},{"bike_id":"3af4b7c0-51cc-420e-8634-94e259c13841","system_id":"levelo_inurba_marseille","lat":43.297814,"lon":5.393513,"is_reserved":false,"is_disabled":false,"rental_uris":{"android":"levelo://app?vid=3af4b7c0-51cc-420e-8634-94e259c13841","ios":"levelo://app?vid=3af4b7c0-51cc-420e-8634-94e259c13841"},"vehicle_type_id":"4","last_reported":1686524795,"current_range_meters":30000,"station_id":"chh1huq6cuj3fo74tm60","pricing_plan_id":"free"},{"bike_id":"ff4bc481-a7e4-4b0d-a7b3-f4df358c54b7","system_id":"levelo_inurba_marseille","lat":43.295169,"lon":5.390426,"is_reserved":false,"is_disabled":false,"rental_uris":{"android":"levelo://app?vid=ff4bc481-a7e4-4b0d-a7b3-f4df358c54b7","ios":"levelo://app?vid=ff4bc481-a7e4-4b0d-a7b3-f4df358c54b7"},"vehicle_type_id":"4","last_reported":1686524795,"current_range_meters":24000,"station_id":"ce4bh3p2rcd13ifvqdp0","pricing_plan_id":"free"},{"bike_id":"d77fbbb4-e939-47e4-a2af-1ab9b58cd302","system_id":"levelo_inurba_marseille","lat":43.295169,"lon":5.390426,"is_reserved":false,"is_disabled":false,"rental_uris":{"android":"levelo://app?vid=d77fbbb4-e939-47e4-a2af-1ab9b58cd302","ios":"levelo://app?vid=d77fbbb4-e939-47e4-a2af-1ab9b58cd302"},"vehicle_type_id":"4","last_reported":1686524795,"current_range_meters":0,"station_id":"ce4bh3p2rcd13ifvqdp0","pricing_plan_id":"free"},{"bike_id":"f2f1b969-4fa5-447d-b4ee-a03d738b9c73","system_id":"levelo_inurba_marseille","lat":43.28856,"lon":5.358371,"is_reserved":false,"is_disabled":false,"rental_uris":{"android":"levelo://app?vid=f2f1b969-4fa5-447d-b4ee-a03d738b9c73","ios":"levelo://app?vid=f2f1b969-4fa5-447d-b4ee-a03d738b9c73"},"vehicle_type_id":"4","last_reported":1686524795,"current_range_meters":31200,"station_id":"ce4bhb12rcd13ifvqem0","pricing_plan_id":"free"},{"bike_id":"4bf3107e-b36b-4aa9-8ab1-f436cf31d24a","system_id":"levelo_inurba_marseille","lat":43.28856,"lon":5.358371,"is_reserved":false,"is_disabled":false,"rental_uris":{"android":"levelo://app?vid=4bf3107e-b36b-4aa9-8ab1-f436cf31d24a","ios":"levelo://app?vid=4bf3107e-b36b-4aa9-8ab1-f436cf31d24a"},"vehicle_type_id":"4","last_reported":1686524795,"current_range_meters":18000,"station_id":"ce4bhb12rcd13ifvqem0","pricing_plan_id":"free"},{"bike_id":"95f42a37-bed6-4272-832f-97b2163f4d67","system_id":"levelo_inurba_marseille","lat":43.28856,"lon":5.358371,"is_reserved":false,"is_disabled":false,"rental_uris":{"android":"levelo://app?vid=95f42a37-bed6-4272-832f-97b2163f4d67","ios":"levelo://app?vid=95f42a37-bed6-4272-832f-97b2163f4d67"},"vehicle_type_id":"4","last_reported":1686524795,"current_range_meters":30000,"station_id":"ce4bhb12rcd13ifvqem0","pricing_plan_id":"free"},{"bike_id":"7b92bb4e-c37f-408a-b8c5-8d9651549545","system_id":"levelo_inurba_marseille","lat":43.33754,"lon":5.37428,"is_reserved":false,"is_disabled":false,"rental_uris":{"android":"levelo://app?vid=7b92bb4e-c37f-408a-b8c5-8d9651549545","ios":"levelo://app?vid=7b92bb4e-c37f-408a-b8c5-8d9651549545"},"vehicle_type_id":"4","last_reported":1686524795,"current_range_meters":20800,"station_id":"","pricing_plan_id":"free"},{"bike_id":"dc03ba51-5d22-4ed9-b3ed-9499a80f6bd0","system_id":"levelo_inurba_marseille","lat":43.33752,"lon":5.37452,"is_reserved":false,"is_disabled":false,"rental_uris":{"android":"levelo://app?vid=dc03ba51-5d22-4ed9-b3ed-9499a80f6bd0","ios":"levelo://app?vid=dc03ba51-5d22-4ed9-b3ed-9499a80f6bd0"},"vehicle_type_id":"4","last_reported":1686524795,"current_range_meters":29600,"station_id":"","pricing_plan_id":"free"},{"bike_id":"265c0905-166c-408b-8d33-95a8e86424e1","system_id":"levelo_inurba_marseille","lat":43.337582,"lon":5.374483,"is_reserved":false,"is_disabled":false,"rental_uris":{"android":"levelo://app?vid=265c0905-166c-408b-8d33-95a8e86424e1","ios":"levelo://app?vid=265c0905-166c-408b-8d33-95a8e86424e1"},"vehicle_type_id":"4","last_reported":1686524795,"current_range_meters":10800,"station_id":"","pricing_plan_id":"free"},{"bike_id":"5839f2c1-7e36-4dad-8357-bdc3de9aa136","system_id":"levelo_inurba_marseille","lat":43.30642,"lon":5.401031,"is_reserved":false,"is_disabled":false,"rental_uris":{"android":"levelo://app?vid=5839f2c1-7e36-4dad-8357-bdc3de9aa136","ios":"levelo://app?vid=5839f2c1-7e36-4dad-8357-bdc3de9aa136"},"vehicle_type_id":"4","last_reported":1686524795,"current_range_meters":24800,"station_id":"ce4bh112rcd13ifvqda0","pricing_plan_id":"free"},{"bike_id":"fb041ec1-b611-46eb-9d8b-3229cfb3396a","system_id":"levelo_inurba_marseille","lat":43.33768,"lon":5.37459,"is_reserved":false,"is_disabled":false,"rental_uris":{"android":"levelo://app?vid=fb041ec1-b611-46eb-9d8b-3229cfb3396a","ios":"levelo://app?vid=fb041ec1-b611-46eb-9d8b-3229cfb3396a"},"vehicle_type_id":"4","last_reported":1686524795,"current_range_meters":18000,"station_id":"","pricing_plan_id":"free"},{"bike_id":"b946f61a-496e-415e-8e50-898e0391452a","system_id":"levelo_inurba_marseille","lat":43.286591,"lon":5.363346,"is_reserved":false,"is_disabled":false,"rental_uris":{"android":"levelo://app?vid=b946f61a-496e-415e-8e50-898e0391452a","ios":"levelo://app?vid=b946f61a-496e-415e-8e50-898e0391452a"},"vehicle_type_id":"4","last_reported":1686524795,"current_range_meters":21200,"station_id":"ce4bhah2rcd13ifvqej0","pricing_plan_id":"free"},{"bike_id":"0822e6cf-0c7f-46ce-b207-f3cd6d3dc93e","system_id":"levelo_inurba_marseille","lat":43.286593,"lon":5.363346,"is_reserved":false,"is_disabled":false,"rental_uris":{"android":"levelo://app?vid=0822e6cf-0c7f-46ce-b207-f3cd6d3dc93e","ios":"levelo://app?vid=0822e6cf-0c7f-46ce-b207-f3cd6d3dc93e"},"vehicle_type_id":"4","last_reported":1686524795,"current_range_meters":20000,"station_id":"ce4bhah2rcd13ifvqej0","pricing_plan_id":"free"},{"bike_id":"38997c24-6544-495c-a8e8-c803c4eb0275","system_id":"levelo_inurba_marseille","lat":43.286591,"lon":5.363346,"is_reserved":false,"is_disabled":false,"rental_uris":{"android":"levelo://app?vid=38997c24-6544-495c-a8e8-c803c4eb0275","ios":"levelo://app?vid=38997c24-6544-495c-a8e8-c803c4eb0275"},"vehicle_type_id":"4","last_reported":1686524795,"current_range_meters":31200,"station_id":"ce4bhah2rcd13ifvqej0","pricing_plan_id":"free"},{"bike_id":"0117cb92-da03-4422-8048-c1a94fb29d5a","system_id":"levelo_inurba_marseille","lat":43.286591,"lon":5.363346,"is_reserved":false,"is_disabled":false,"rental_uris":{"android":"levelo://app?vid=0117cb92-da03-4422-8048-c1a94fb29d5a","ios":"levelo://app?vid=0117cb92-da03-4422-8048-c1a94fb29d5a"},"vehicle_type_id":"4","last_reported":1686524795,"current_range_meters":26400,"station_id":"ce4bhah2rcd13ifvqej0","pricing_plan_id":"free"},{"bike_id":"196f0f7c-1658-4549-876a-8972e262512c","system_id":"levelo_inurba_marseille","lat":43.298681,"lon":5.397225,"is_reserved":false,"is_disabled":false,"rental_uris":{"android":"levelo://app?vid=196f0f7c-1658-4549-876a-8972e262512c","ios":"levelo://app?vid=196f0f7c-1658-4549-876a-8972e262512c"},"vehicle_type_id":"4","last_reported":1686524795,"current_range_meters":23200,"station_id":"ce4bh0h2rcd13ifvqd50","pricing_plan_id":"free"},{"bike_id":"32b3d98a-6005-4764-bc3d-c7d8f33e2219","system_id":"levelo_inurba_marseille","lat":43.286591,"lon":5.363346,"is_reserved":false,"is_disabled":false,"rental_uris":{"android":"levelo://app?vid=32b3d98a-6005-4764-bc3d-c7d8f33e2219","ios":"levelo://app?vid=32b3d98a-6005-4764-bc3d-c7d8f33e2219"},"vehicle_type_id":"4","last_reported":1686524795,"current_range_meters":0,"station_id":"ce4bhah2rcd13ifvqej0","pricing_plan_id":"free"},{"bike_id":"e1bd7675-6035-41a4-858b-46d0140259b5","system_id":"levelo_inurba_marseille","lat":43.298681,"lon":5.397225,"is_reserved":false,"is_disabled":false,"rental_uris":{"android":"levelo://app?vid=e1bd7675-6035-41a4-858b-46d0140259b5","ios":"levelo://app?vid=e1bd7675-6035-41a4-858b-46d0140259b5"},"vehicle_type_id":"4","last_reported":1686524795,"current_range_meters":22400,"station_id":"ce4bh0h2rcd13ifvqd50","pricing_plan_id":"free"},{"bike_id":"911e4f72-202f-4141-8d96-d45f405d801a","system_id":"levelo_inurba_marseille","lat":43.298681,"lon":5.397225,"is_reserved":false,"is_disabled":false,"rental_uris":{"android":"levelo://app?vid=911e4f72-202f-4141-8d96-d45f405d801a","ios":"levelo://app?vid=911e4f72-202f-4141-8d96-d45f405d801a"},"vehicle_type_id":"4","last_reported":1686524795,"current_range_meters":29600,"station_id":"ce4bh0h2rcd13ifvqd50","pricing_plan_id":"free"},{"bike_id":"f23087f2-af1c-4684-b4e5-1ed856e5fff5","system_id":"levelo_inurba_marseille","lat":43.286593,"lon":5.363346,"is_reserved":false,"is_disabled":false,"rental_uris":{"android":"levelo://app?vid=f23087f2-af1c-4684-b4e5-1ed856e5fff5","ios":"levelo://app?vid=f23087f2-af1c-4684-b4e5-1ed856e5fff5"},"vehicle_type_id":"4","last_reported":1686524795,"current_range_meters":18400,"station_id":"ce4bhah2rcd13ifvqej0","pricing_plan_id":"free"},{"bike_id":"beaec097-b72d-453a-9fdf-5554777042c4","system_id":"levelo_inurba_marseille","lat":43.298681,"lon":5.397225,"is_reserved":false,"is_disabled":false,"rental_uris":{"android":"levelo://app?vid=beaec097-b72d-453a-9fdf-5554777042c4","ios":"levelo://app?vid=beaec097-b72d-453a-9fdf-5554777042c4"},"vehicle_type_id":"4","last_reported":1686524795,"current_range_meters":30800,"station_id":"ce4bh0h2rcd13ifvqd50","pricing_plan_id":"free"},{"bike_id":"e3705edb-eadc-470d-9ddd-cabeadb6b13f","system_id":"levelo_inurba_marseille","lat":43.286591,"lon":5.363346,"is_reserved":false,"is_disabled":false,"rental_uris":{"android":"levelo://app?vid=e3705edb-eadc-470d-9ddd-cabeadb6b13f","ios":"levelo://app?vid=e3705edb-eadc-470d-9ddd-cabeadb6b13f"},"vehicle_type_id":"4","last_reported":1686524795,"current_range_meters":28800,"station_id":"ce4bhah2rcd13ifvqej0","pricing_plan_id":"free"},{"bike_id":"d71fb954-4215-4045-a08d-82511da891c1","system_id":"levelo_inurba_marseille","lat":43.298681,"lon":5.397225,"is_reserved":false,"is_disabled":false,"rental_uris":{"android":"levelo://app?vid=d71fb954-4215-4045-a08d-82511da891c1","ios":"levelo://app?vid=d71fb954-4215-4045-a08d-82511da891c1"},"vehicle_type_id":"4","last_reported":1686524795,"current_range_meters":30400,"station_id":"ce4bh0h2rcd13ifvqd50","pricing_plan_id":"free"},{"bike_id":"9a2942c7-809e-4abc-8f2b-edf3ec8273f4","system_id":"levelo_inurba_marseille","lat":43.298681,"lon":5.397225,"is_reserved":false,"is_disabled":false,"rental_uris":{"android":"levelo://app?vid=9a2942c7-809e-4abc-8f2b-edf3ec8273f4","ios":"levelo://app?vid=9a2942c7-809e-4abc-8f2b-edf3ec8273f4"},"vehicle_type_id":"4","last_reported":1686524795,"current_range_meters":22800,"station_id":"ce4bh0h2rcd13ifvqd50","pricing_plan_id":"free"},{"bike_id":"622ba544-b47b-4158-ae05-fa04c8dc0d6b","system_id":"levelo_inurba_marseille","lat":43.295194,"lon":5.39397,"is_reserved":false,"is_disabled":false,"rental_uris":{"android":"levelo://app?vid=622ba544-b47b-4158-ae05-fa04c8dc0d6b","ios":"levelo://app?vid=622ba544-b47b-4158-ae05-fa04c8dc0d6b"},"vehicle_type_id":"4","last_reported":1686524795,"current_range_meters":23600,"station_id":"ce4bh292rcd13ifvqdf0","pricing_plan_id":"free"},{"bike_id":"04c84d5c-1206-4177-bbfd-6613d95989b1","system_id":"levelo_inurba_marseille","lat":43.295196,"lon":5.39397,"is_reserved":false,"is_disabled":false,"rental_uris":{"android":"levelo://app?vid=04c84d5c-1206-4177-bbfd-6613d95989b1","ios":"levelo://app?vid=04c84d5c-1206-4177-bbfd-6613d95989b1"},"vehicle_type_id":"4","last_reported":1686524795,"current_range_meters":4800,"station_id":"ce4bh292rcd13ifvqdf0","pricing_plan_id":"free"},{"bike_id":"57a2849c-f847-4a82-aba5-7b39b1202348","system_id":"levelo_inurba_marseille","lat":43.295196,"lon":5.39397,"is_reserved":false,"is_disabled":false,"rental_uris":{"android":"levelo://app?vid=57a2849c-f847-4a82-aba5-7b39b1202348","ios":"levelo://app?vid=57a2849c-f847-4a82-aba5-7b39b1202348"},"vehicle_type_id":"4","last_reported":1686524795,"current_range_meters":24800,"station_id":"ce4bh292rcd13ifvqdf0","pricing_plan_id":"free"},{"bike_id":"f05ce419-04a0-459a-8f90-fe65c72fa6b4","system_id":"levelo_inurba_marseille","lat":43.29525,"lon":5.39397,"is_reserved":false,"is_disabled":false,"rental_uris":{"android":"levelo://app?vid=f05ce419-04a0-459a-8f90-fe65c72fa6b4","ios":"levelo://app?vid=f05ce419-04a0-459a-8f90-fe65c72fa6b4"},"vehicle_type_id":"4","last_reported":1686524795,"current_range_meters":30400,"station_id":"ce4bh292rcd13ifvqdf0","pricing_plan_id":"free"},{"bike_id":"e72c255a-3e0d-461b-83ac-3a433a8f846c","system_id":"levelo_inurba_marseille","lat":43.295196,"lon":5.39397,"is_reserved":false,"is_disabled":false,"rental_uris":{"android":"levelo://app?vid=e72c255a-3e0d-461b-83ac-3a433a8f846c","ios":"levelo://app?vid=e72c255a-3e0d-461b-83ac-3a433a8f846c"},"vehicle_type_id":"4","last_reported":1686524795,"current_range_meters":26800,"station_id":"ce4bh292rcd13ifvqdf0","pricing_plan_id":"free"},{"bike_id":"ba14619a-4444-4984-88fb-41a94bb769d2","system_id":"levelo_inurba_marseille","lat":43.295196,"lon":5.39397,"is_reserved":false,"is_disabled":false,"rental_uris":{"android":"levelo://app?vid=ba14619a-4444-4984-88fb-41a94bb769d2","ios":"levelo://app?vid=ba14619a-4444-4984-88fb-41a94bb769d2"},"vehicle_type_id":"4","last_reported":1686524795,"current_range_meters":30800,"station_id":"ce4bh292rcd13ifvqdf0","pricing_plan_id":"free"},{"bike_id":"8cbf3ba5-fca2-4799-a69a-212af1120239","system_id":"levelo_inurba_marseille","lat":43.29521,"lon":5.39399,"is_reserved":false,"is_disabled":false,"rental_uris":{"android":"levelo://app?vid=8cbf3ba5-fca2-4799-a69a-212af1120239","ios":"levelo://app?vid=8cbf3ba5-fca2-4799-a69a-212af1120239"},"vehicle_type_id":"4","last_reported":1686524795,"current_range_meters":28000,"station_id":"ce4bh292rcd13ifvqdf0","pricing_plan_id":"free"},{"bike_id":"282b9de7-41bc-4dd5-b2aa-248afc716576","system_id":"levelo_inurba_marseille","lat":43.302759,"lon":5.400793,"is_reserved":false,"is_disabled":false,"rental_uris":{"android":"levelo://app?vid=282b9de7-41bc-4dd5-b2aa-248afc716576","ios":"levelo://app?vid=282b9de7-41bc-4dd5-b2aa-248afc716576"},"vehicle_type_id":"4","last_reported":1686524795,"current_range_meters":21200,"station_id":"ce4bgvh2rcd13ifvqcs0","pricing_plan_id":"free"},{"bike_id":"2da90a36-322f-40d6-83df-1e0c1dc97fc1","system_id":"levelo_inurba_marseille","lat":43.302759,"lon":5.400793,"is_reserved":false,"is_disabled":false,"rental_uris":{"android":"levelo://app?vid=2da90a36-322f-40d6-83df-1e0c1dc97fc1","ios":"levelo://app?vid=2da90a36-322f-40d6-83df-1e0c1dc97fc1"},"vehicle_type_id":"4","last_reported":1686524795,"current_range_meters":29600,"station_id":"ce4bgvh2rcd13ifvqcs0","pricing_plan_id":"free"},{"bike_id":"c9aa8d7c-8688-45b3-8100-24ccc59acec9","system_id":"levelo_inurba_marseille","lat":43.290336,"lon":5.386425,"is_reserved":false,"is_disabled":false,"rental_uris":{"android":"levelo://app?vid=c9aa8d7c-8688-45b3-8100-24ccc59acec9","ios":"levelo://app?vid=c9aa8d7c-8688-45b3-8100-24ccc59acec9"},"vehicle_type_id":"4","last_reported":1686524795,"current_range_meters":23200,"station_id":"ce4bh4p2rcd13ifvqe0g","pricing_plan_id":"free"},{"bike_id":"ebb9f39e-a894-4764-a1bc-157dff7805ea","system_id":"levelo_inurba_marseille","lat":43.302759,"lon":5.400793,"is_reserved":false,"is_disabled":false,"rental_uris":{"android":"levelo://app?vid=ebb9f39e-a894-4764-a1bc-157dff7805ea","ios":"levelo://app?vid=ebb9f39e-a894-4764-a1bc-157dff7805ea"},"vehicle_type_id":"4","last_reported":1686524795,"current_range_meters":23600,"station_id":"ce4bgvh2rcd13ifvqcs0","pricing_plan_id":"free"},{"bike_id":"94dabbc2-ef3a-4b4d-b318-1086417d66fe","system_id":"levelo_inurba_marseille","lat":43.3025,"lon":5.40067,"is_reserved":false,"is_disabled":false,"rental_uris":{"android":"levelo://app?vid=94dabbc2-ef3a-4b4d-b318-1086417d66fe","ios":"levelo://app?vid=94dabbc2-ef3a-4b4d-b318-1086417d66fe"},"vehicle_type_id":"4","last_reported":1686524795,"current_range_meters":24400,"station_id":"","pricing_plan_id":"free"},{"bike_id":"3b2fbf49-cd8c-4b3f-9338-b99987d11966","system_id":"levelo_inurba_marseille","lat":43.302759,"lon":5.400793,"is_reserved":false,"is_disabled":false,"rental_uris":{"android":"levelo://app?vid=3b2fbf49-cd8c-4b3f-9338-b99987d11966","ios":"levelo://app?vid=3b2fbf49-cd8c-4b3f-9338-b99987d11966"},"vehicle_type_id":"4","last_reported":1686524795,"current_range_meters":27600,"station_id":"ce4bgvh2rcd13ifvqcs0","pricing_plan_id":"free"},{"bike_id":"866b694d-a473-4419-955d-9f2f29302129","system_id":"levelo_inurba_marseille","lat":43.302759,"lon":5.400793,"is_reserved":false,"is_disabled":false,"rental_uris":{"android":"levelo://app?vid=866b694d-a473-4419-955d-9f2f29302129","ios":"levelo://app?vid=866b694d-a473-4419-955d-9f2f29302129"},"vehicle_type_id":"4","last_reported":1686524795,"current_range_meters":25600,"station_id":"ce4bgvh2rcd13ifvqcs0","pricing_plan_id":"free"},{"bike_id":"50fa6053-f398-451f-975c-22d73bed5dd8","system_id":"levelo_inurba_marseille","lat":43.302759,"lon":5.400793,"is_reserved":false,"is_disabled":false,"rental_uris":{"android":"levelo://app?vid=50fa6053-f398-451f-975c-22d73bed5dd8","ios":"levelo://app?vid=50fa6053-f398-451f-975c-22d73bed5dd8"},"vehicle_type_id":"4","last_reported":1686524795,"current_range_meters":31200,"station_id":"ce4bgvh2rcd13ifvqcs0","pricing_plan_id":"free"},{"bike_id":"321d5476-d79d-4a64-8243-6845b8bf765d","system_id":"levelo_inurba_marseille","lat":43.30251,"lon":5.40077,"is_reserved":false,"is_disabled":false,"rental_uris":{"android":"levelo://app?vid=321d5476-d79d-4a64-8243-6845b8bf765d","ios":"levelo://app?vid=321d5476-d79d-4a64-8243-6845b8bf765d"},"vehicle_type_id":"4","last_reported":1686524795,"current_range_meters":13200,"station_id":"","pricing_plan_id":"free"},{"bike_id":"5f7ee111-d0d7-4c6b-b1f5-21bd7faefa50","system_id":"levelo_inurba_marseille","lat":43.286039,"lon":5.370681,"is_reserved":false,"is_disabled":false,"rental_uris":{"android":"levelo://app?vid=5f7ee111-d0d7-4c6b-b1f5-21bd7faefa50","ios":"levelo://app?vid=5f7ee111-d0d7-4c6b-b1f5-21bd7faefa50"},"vehicle_type_id":"4","last_reported":1686524795,"current_range_meters":18000,"station_id":"ce4bht12rcd13ifvqi60","pricing_plan_id":"free"},{"bike_id":"a0cc65f0-9002-4abe-9019-a3cda17b7779","system_id":"levelo_inurba_marseille","lat":43.286039,"lon":5.370681,"is_reserved":false,"is_disabled":false,"rental_uris":{"android":"levelo://app?vid=a0cc65f0-9002-4abe-9019-a3cda17b7779","ios":"levelo://app?vid=a0cc65f0-9002-4abe-9019-a3cda17b7779"},"vehicle_type_id":"4","last_reported":1686524795,"current_range_meters":31200,"station_id":"ce4bht12rcd13ifvqi60","pricing_plan_id":"free"},{"bike_id":"a574fcbd-1757-4422-93a0-104d0e941443","system_id":"levelo_inurba_marseille","lat":43.287185,"lon":5.379373,"is_reserved":false,"is_disabled":false,"rental_uris":{"android":"levelo://app?vid=a574fcbd-1757-4422-93a0-104d0e941443","ios":"levelo://app?vid=a574fcbd-1757-4422-93a0-104d0e941443"},"vehicle_type_id":"4","last_reported":1686524795,"current_range_meters":27600,"station_id":"ce4bh9p2rcd13ifvqec0","pricing_plan_id":"free"},{"bike_id":"513559af-d5fc-4769-994c-911d200e832a","system_id":"levelo_inurba_marseille","lat":43.287185,"lon":5.379373,"is_reserved":false,"is_disabled":false,"rental_uris":{"android":"levelo://app?vid=513559af-d5fc-4769-994c-911d200e832a","ios":"levelo://app?vid=513559af-d5fc-4769-994c-911d200e832a"},"vehicle_type_id":"4","last_reported":1686524795,"current_range_meters":25600,"station_id":"ce4bh9p2rcd13ifvqec0","pricing_plan_id":"free"},{"bike_id":"da29ea43-fe0a-4ba3-bf9b-0ae1ed77235c","system_id":"levelo_inurba_marseille","lat":43.316517,"lon":5.404375,"is_reserved":false,"is_disabled":false,"rental_uris":{"android":"levelo://app?vid=da29ea43-fe0a-4ba3-bf9b-0ae1ed77235c","ios":"levelo://app?vid=da29ea43-fe0a-4ba3-bf9b-0ae1ed77235c"},"vehicle_type_id":"4","last_reported":1686524795,"current_range_meters":15600,"station_id":"ce4bh012rcd13ifvqd00","pricing_plan_id":"free"},{"bike_id":"eff298ea-3fe5-4d73-a93f-7384cf88b79d","system_id":"levelo_inurba_marseille","lat":43.316517,"lon":5.404375,"is_reserved":false,"is_disabled":false,"rental_uris":{"android":"levelo://app?vid=eff298ea-3fe5-4d73-a93f-7384cf88b79d","ios":"levelo://app?vid=eff298ea-3fe5-4d73-a93f-7384cf88b79d"},"vehicle_type_id":"4","last_reported":1686524795,"current_range_meters":28000,"station_id":"ce4bh012rcd13ifvqd00","pricing_plan_id":"free"},{"bike_id":"7adba4a7-558d-4694-87b2-cfc6eb5ff71e","system_id":"levelo_inurba_marseille","lat":43.316517,"lon":5.404375,"is_reserved":false,"is_disabled":false,"rental_uris":{"android":"levelo://app?vid=7adba4a7-558d-4694-87b2-cfc6eb5ff71e","ios":"levelo://app?vid=7adba4a7-558d-4694-87b2-cfc6eb5ff71e"},"vehicle_type_id":"4","last_reported":1686524795,"current_range_meters":5600,"station_id":"ce4bh012rcd13ifvqd00","pricing_plan_id":"free"},{"bike_id":"d3dcc0e1-e53d-45d5-8081-038b013c4a09","system_id":"levelo_inurba_marseille","lat":43.316517,"lon":5.404375,"is_reserved":false,"is_disabled":false,"rental_uris":{"android":"levelo://app?vid=d3dcc0e1-e53d-45d5-8081-038b013c4a09","ios":"levelo://app?vid=d3dcc0e1-e53d-45d5-8081-038b013c4a09"},"vehicle_type_id":"4","last_reported":1686524795,"current_range_meters":18400,"station_id":"ce4bh012rcd13ifvqd00","pricing_plan_id":"free"},{"bike_id":"71c136a9-23ab-4eb0-a675-8c0ce0a4daf4","system_id":"levelo_inurba_marseille","lat":43.291994,"lon":5.392907,"is_reserved":false,"is_disabled":false,"rental_uris":{"android":"levelo://app?vid=71c136a9-23ab-4eb0-a675-8c0ce0a4daf4","ios":"levelo://app?vid=71c136a9-23ab-4eb0-a675-8c0ce0a4daf4"},"vehicle_type_id":"4","last_reported":1686524795,"current_range_meters":29600,"station_id":"ce4bh192rcd13ifvqdd0","pricing_plan_id":"free"},{"bike_id":"92034b9e-4af3-4ded-9442-7a3640101bcd","system_id":"levelo_inurba_marseille","lat":43.291994,"lon":5.392907,"is_reserved":false,"is_disabled":false,"rental_uris":{"android":"levelo://app?vid=92034b9e-4af3-4ded-9442-7a3640101bcd","ios":"levelo://app?vid=92034b9e-4af3-4ded-9442-7a3640101bcd"},"vehicle_type_id":"4","last_reported":1686524795,"current_range_meters":26000,"station_id":"ce4bh192rcd13ifvqdd0","pricing_plan_id":"free"},{"bike_id":"5fef70ac-fec2-4de4-af00-27344f77db02","system_id":"levelo_inurba_marseille","lat":43.291994,"lon":5.392907,"is_reserved":false,"is_disabled":false,"rental_uris":{"android":"levelo://app?vid=5fef70ac-fec2-4de4-af00-27344f77db02","ios":"levelo://app?vid=5fef70ac-fec2-4de4-af00-27344f77db02"},"vehicle_type_id":"4","last_reported":1686524795,"current_range_meters":23200,"station_id":"ce4bh192rcd13ifvqdd0","pricing_plan_id":"free"},{"bike_id":"063ecac0-9b1b-481e-9d17-de6dff892e6e","system_id":"levelo_inurba_marseille","lat":43.291994,"lon":5.392907,"is_reserved":false,"is_disabled":false,"rental_uris":{"android":"levelo://app?vid=063ecac0-9b1b-481e-9d17-de6dff892e6e","ios":"levelo://app?vid=063ecac0-9b1b-481e-9d17-de6dff892e6e"},"vehicle_type_id":"4","last_reported":1686524795,"current_range_meters":29600,"station_id":"ce4bh192rcd13ifvqdd0","pricing_plan_id":"free"},{"bike_id":"c9f07ace-c0a6-4e06-8f15-0d012c06f426","system_id":"levelo_inurba_marseille","lat":43.291994,"lon":5.392907,"is_reserved":false,"is_disabled":false,"rental_uris":{"android":"levelo://app?vid=c9f07ace-c0a6-4e06-8f15-0d012c06f426","ios":"levelo://app?vid=c9f07ace-c0a6-4e06-8f15-0d012c06f426"},"vehicle_type_id":"4","last_reported":1686524795,"current_range_meters":14400,"station_id":"ce4bh192rcd13ifvqdd0","pricing_plan_id":"free"},{"bike_id":"fdc3ce31-78de-4df8-b1e0-8eb11dd7809c","system_id":"levelo_inurba_marseille","lat":43.28474,"lon":5.35868,"is_reserved":false,"is_disabled":false,"rental_uris":{"android":"levelo://app?vid=fdc3ce31-78de-4df8-b1e0-8eb11dd7809c","ios":"levelo://app?vid=fdc3ce31-78de-4df8-b1e0-8eb11dd7809c"},"vehicle_type_id":"4","last_reported":1686524795,"current_range_meters":24800,"station_id":"ce4bhah2rcd13ifvqei0","pricing_plan_id":"free"},{"bike_id":"e79f235c-d111-46de-b9b1-d31aa12b8f8a","system_id":"levelo_inurba_marseille","lat":43.284534,"lon":5.358662,"is_reserved":false,"is_disabled":false,"rental_uris":{"android":"levelo://app?vid=e79f235c-d111-46de-b9b1-d31aa12b8f8a","ios":"levelo://app?vid=e79f235c-d111-46de-b9b1-d31aa12b8f8a"},"vehicle_type_id":"4","last_reported":1686524795,"current_range_meters":19600,"station_id":"ce4bhah2rcd13ifvqei0","pricing_plan_id":"free"},{"bike_id":"f813220e-b45c-4081-b836-db2047c0fef2","system_id":"levelo_inurba_marseille","lat":43.295713,"lon":5.399639,"is_reserved":false,"is_disabled":false,"rental_uris":{"android":"levelo://app?vid=f813220e-b45c-4081-b836-db2047c0fef2","ios":"levelo://app?vid=f813220e-b45c-4081-b836-db2047c0fef2"},"vehicle_type_id":"4","last_reported":1686524795,"current_range_meters":10800,"station_id":"ce4bh312rcd13ifvqdj0","pricing_plan_id":"free"},{"bike_id":"7e1ed17b-80bc-4679-acc1-1f5284d0a4f4","system_id":"levelo_inurba_marseille","lat":43.28412,"lon":5.37513,"is_reserved":false,"is_disabled":false,"rental_uris":{"android":"levelo://app?vid=7e1ed17b-80bc-4679-acc1-1f5284d0a4f4","ios":"levelo://app?vid=7e1ed17b-80bc-4679-acc1-1f5284d0a4f4"},"vehicle_type_id":"4","last_reported":1686524795,"current_range_meters":31200,"station_id":"","pricing_plan_id":"free"},{"bike_id":"0b89d82f-c3cd-41c8-885b-31bdcd9d1d0d","system_id":"levelo_inurba_marseille","lat":43.295713,"lon":5.399639,"is_reserved":false,"is_disabled":false,"rental_uris":{"android":"levelo://app?vid=0b89d82f-c3cd-41c8-885b-31bdcd9d1d0d","ios":"levelo://app?vid=0b89d82f-c3cd-41c8-885b-31bdcd9d1d0d"},"vehicle_type_id":"4","last_reported":1686524795,"current_range_meters":29600,"station_id":"ce4bh312rcd13ifvqdj0","pricing_plan_id":"free"},{"bike_id":"024700b2-bc95-4edf-858d-073559e26a5a","system_id":"levelo_inurba_marseille","lat":43.295713,"lon":5.399639,"is_reserved":false,"is_disabled":false,"rental_uris":{"android":"levelo://app?vid=024700b2-bc95-4edf-858d-073559e26a5a","ios":"levelo://app?vid=024700b2-bc95-4edf-858d-073559e26a5a"},"vehicle_type_id":"4","last_reported":1686524795,"current_range_meters":18400,"station_id":"ce4bh312rcd13ifvqdj0","pricing_plan_id":"free"},{"bike_id":"5893e170-f305-4319-a239-bd209ab7e36d","system_id":"levelo_inurba_marseille","lat":43.295713,"lon":5.399639,"is_reserved":false,"is_disabled":false,"rental_uris":{"android":"levelo://app?vid=5893e170-f305-4319-a239-bd209ab7e36d","ios":"levelo://app?vid=5893e170-f305-4319-a239-bd209ab7e36d"},"vehicle_type_id":"4","last_reported":1686524795,"current_range_meters":30400,"station_id":"ce4bh312rcd13ifvqdj0","pricing_plan_id":"free"},{"bike_id":"ca9141c6-0768-4be5-85ac-5195fa8cfd26","system_id":"levelo_inurba_marseille","lat":43.295713,"lon":5.399639,"is_reserved":false,"is_disabled":false,"rental_uris":{"android":"levelo://app?vid=ca9141c6-0768-4be5-85ac-5195fa8cfd26","ios":"levelo://app?vid=ca9141c6-0768-4be5-85ac-5195fa8cfd26"},"vehicle_type_id":"4","last_reported":1686524795,"current_range_meters":29600,"station_id":"ce4bh312rcd13ifvqdj0","pricing_plan_id":"free"},{"bike_id":"b95f81e1-5592-4270-b090-6699a81784ec","system_id":"levelo_inurba_marseille","lat":43.2957,"lon":5.39976,"is_reserved":false,"is_disabled":false,"rental_uris":{"android":"levelo://app?vid=b95f81e1-5592-4270-b090-6699a81784ec","ios":"levelo://app?vid=b95f81e1-5592-4270-b090-6699a81784ec"},"vehicle_type_id":"4","last_reported":1686524795,"current_range_meters":11600,"station_id":"ce4bh312rcd13ifvqdj0","pricing_plan_id":"free"},{"bike_id":"a01757e3-df67-4b12-9ed1-b716c2fa2a4c","system_id":"levelo_inurba_marseille","lat":43.296263,"lon":5.40601,"is_reserved":false,"is_disabled":false,"rental_uris":{"android":"levelo://app?vid=a01757e3-df67-4b12-9ed1-b716c2fa2a4c","ios":"levelo://app?vid=a01757e3-df67-4b12-9ed1-b716c2fa2a4c"},"vehicle_type_id":"4","last_reported":1686524795,"current_range_meters":19200,"station_id":"ce4bh0h2rcd13ifvqd60","pricing_plan_id":"free"},{"bike_id":"c3f83837-eecc-46c0-9a15-80a5cdbe31b5","system_id":"levelo_inurba_marseille","lat":43.286595,"lon":5.386795,"is_reserved":false,"is_disabled":false,"rental_uris":{"android":"levelo://app?vid=c3f83837-eecc-46c0-9a15-80a5cdbe31b5","ios":"levelo://app?vid=c3f83837-eecc-46c0-9a15-80a5cdbe31b5"},"vehicle_type_id":"4","last_reported":1686524795,"current_range_meters":20000,"station_id":"ce4bh492rcd13ifvqdug","pricing_plan_id":"free"},{"bike_id":"94783ff9-d63f-4314-a42f-617e764a1b17","system_id":"levelo_inurba_marseille","lat":43.28522,"lon":5.35028,"is_reserved":false,"is_disabled":false,"rental_uris":{"android":"levelo://app?vid=94783ff9-d63f-4314-a42f-617e764a1b17","ios":"levelo://app?vid=94783ff9-d63f-4314-a42f-617e764a1b17"},"vehicle_type_id":"4","last_reported":1686524795,"current_range_meters":7600,"station_id":"ce4bhbh2rcd13ifvqepg","pricing_plan_id":"free"},{"bike_id":"5d501cb1-669d-44db-8610-1e2383559f92","system_id":"levelo_inurba_marseille","lat":43.323464,"lon":5.406297,"is_reserved":false,"is_disabled":false,"rental_uris":{"android":"levelo://app?vid=5d501cb1-669d-44db-8610-1e2383559f92","ios":"levelo://app?vid=5d501cb1-669d-44db-8610-1e2383559f92"},"vehicle_type_id":"4","last_reported":1686524795,"current_range_meters":31200,"station_id":"ce4bhq92rcd13ifvqhjg","pricing_plan_id":"free"},{"bike_id":"ba019977-f266-49f9-b8c0-4ba8e8943bc1","system_id":"levelo_inurba_marseille","lat":43.323464,"lon":5.406297,"is_reserved":false,"is_disabled":false,"rental_uris":{"android":"levelo://app?vid=ba019977-f266-49f9-b8c0-4ba8e8943bc1","ios":"levelo://app?vid=ba019977-f266-49f9-b8c0-4ba8e8943bc1"},"vehicle_type_id":"4","last_reported":1686524795,"current_range_meters":31200,"station_id":"ce4bhq92rcd13ifvqhjg","pricing_plan_id":"free"},{"bike_id":"27534a1e-2306-4f0f-ae01-c0f1f95acd1f","system_id":"levelo_inurba_marseille","lat":43.323464,"lon":5.406297,"is_reserved":false,"is_disabled":false,"rental_uris":{"android":"levelo://app?vid=27534a1e-2306-4f0f-ae01-c0f1f95acd1f","ios":"levelo://app?vid=27534a1e-2306-4f0f-ae01-c0f1f95acd1f"},"vehicle_type_id":"4","last_reported":1686524795,"current_range_meters":30000,"station_id":"ce4bhq92rcd13ifvqhjg","pricing_plan_id":"free"},{"bike_id":"7d89e3b5-958d-47f6-80fa-adc2175a1ff9","system_id":"levelo_inurba_marseille","lat":43.323464,"lon":5.406297,"is_reserved":false,"is_disabled":false,"rental_uris":{"android":"levelo://app?vid=7d89e3b5-958d-47f6-80fa-adc2175a1ff9","ios":"levelo://app?vid=7d89e3b5-958d-47f6-80fa-adc2175a1ff9"},"vehicle_type_id":"4","last_reported":1686524795,"current_range_meters":31200,"station_id":"ce4bhq92rcd13ifvqhjg","pricing_plan_id":"free"},{"bike_id":"7ce54775-a13d-4bd6-b44d-c8db752878bb","system_id":"levelo_inurba_marseille","lat":43.323464,"lon":5.406297,"is_reserved":false,"is_disabled":false,"rental_uris":{"android":"levelo://app?vid=7ce54775-a13d-4bd6-b44d-c8db752878bb","ios":"levelo://app?vid=7ce54775-a13d-4bd6-b44d-c8db752878bb"},"vehicle_type_id":"4","last_reported":1686524795,"current_range_meters":30800,"station_id":"ce4bhq92rcd13ifvqhjg","pricing_plan_id":"free"},{"bike_id":"723c8278-369d-45ad-8f32-ce19e08881ec","system_id":"levelo_inurba_marseille","lat":43.284793,"lon":5.384113,"is_reserved":false,"is_disabled":false,"rental_uris":{"android":"levelo://app?vid=723c8278-369d-45ad-8f32-ce19e08881ec","ios":"levelo://app?vid=723c8278-369d-45ad-8f32-ce19e08881ec"},"vehicle_type_id":"4","last_reported":1686524795,"current_range_meters":4400,"station_id":"ce4bh512rcd13ifvqe3g","pricing_plan_id":"free"},{"bike_id":"22e23f95-c57f-4a58-aaa2-9b752ea58ff1","system_id":"levelo_inurba_marseille","lat":43.284787,"lon":5.384116,"is_reserved":false,"is_disabled":false,"rental_uris":{"android":"levelo://app?vid=22e23f95-c57f-4a58-aaa2-9b752ea58ff1","ios":"levelo://app?vid=22e23f95-c57f-4a58-aaa2-9b752ea58ff1"},"vehicle_type_id":"4","last_reported":1686524795,"current_range_meters":15200,"station_id":"ce4bh512rcd13ifvqe3g","pricing_plan_id":"free"},{"bike_id":"ce7d7d16-8e17-44ee-b931-cc7720d1709d","system_id":"levelo_inurba_marseille","lat":43.288501,"lon":5.393087,"is_reserved":false,"is_disabled":false,"rental_uris":{"android":"levelo://app?vid=ce7d7d16-8e17-44ee-b931-cc7720d1709d","ios":"levelo://app?vid=ce7d7d16-8e17-44ee-b931-cc7720d1709d"},"vehicle_type_id":"4","last_reported":1686524795,"current_range_meters":28400,"station_id":"ce4bh2p2rcd13ifvqdi0","pricing_plan_id":"free"},{"bike_id":"6ede5d69-4fed-4961-8d38-97f363e215bc","system_id":"levelo_inurba_marseille","lat":43.292724,"lon":5.401131,"is_reserved":false,"is_disabled":false,"rental_uris":{"android":"levelo://app?vid=6ede5d69-4fed-4961-8d38-97f363e215bc","ios":"levelo://app?vid=6ede5d69-4fed-4961-8d38-97f363e215bc"},"vehicle_type_id":"4","last_reported":1686524795,"current_range_meters":17200,"station_id":"ce4bh312rcd13ifvqdk0","pricing_plan_id":"free"},{"bike_id":"1436f094-00c2-4dc0-967b-c78acc6cd532","system_id":"levelo_inurba_marseille","lat":43.292724,"lon":5.401131,"is_reserved":false,"is_disabled":false,"rental_uris":{"android":"levelo://app?vid=1436f094-00c2-4dc0-967b-c78acc6cd532","ios":"levelo://app?vid=1436f094-00c2-4dc0-967b-c78acc6cd532"},"vehicle_type_id":"4","last_reported":1686524795,"current_range_meters":30800,"station_id":"ce4bh312rcd13ifvqdk0","pricing_plan_id":"free"},{"bike_id":"23f1916c-c279-4ac9-8afe-a6aa8ad20518","system_id":"levelo_inurba_marseille","lat":43.292724,"lon":5.401131,"is_reserved":false,"is_disabled":false,"rental_uris":{"android":"levelo://app?vid=23f1916c-c279-4ac9-8afe-a6aa8ad20518","ios":"levelo://app?vid=23f1916c-c279-4ac9-8afe-a6aa8ad20518"},"vehicle_type_id":"4","last_reported":1686524795,"current_range_meters":30000,"station_id":"ce4bh312rcd13ifvqdk0","pricing_plan_id":"free"},{"bike_id":"d67845e2-7248-4469-bba5-9b309eb0e87d","system_id":"levelo_inurba_marseille","lat":43.292724,"lon":5.401131,"is_reserved":false,"is_disabled":false,"rental_uris":{"android":"levelo://app?vid=d67845e2-7248-4469-bba5-9b309eb0e87d","ios":"levelo://app?vid=d67845e2-7248-4469-bba5-9b309eb0e87d"},"vehicle_type_id":"4","last_reported":1686524795,"current_range_meters":18800,"station_id":"ce4bh312rcd13ifvqdk0","pricing_plan_id":"free"},{"bike_id":"d726e740-6d55-42ca-a827-80aa271b2d7f","system_id":"levelo_inurba_marseille","lat":43.292724,"lon":5.401131,"is_reserved":false,"is_disabled":false,"rental_uris":{"android":"levelo://app?vid=d726e740-6d55-42ca-a827-80aa271b2d7f","ios":"levelo://app?vid=d726e740-6d55-42ca-a827-80aa271b2d7f"},"vehicle_type_id":"4","last_reported":1686524795,"current_range_meters":30400,"station_id":"ce4bh312rcd13ifvqdk0","pricing_plan_id":"free"},{"bike_id":"da47344a-e152-4477-a45a-400aab0f7a97","system_id":"levelo_inurba_marseille","lat":43.292724,"lon":5.401131,"is_reserved":false,"is_disabled":false,"rental_uris":{"android":"levelo://app?vid=da47344a-e152-4477-a45a-400aab0f7a97","ios":"levelo://app?vid=da47344a-e152-4477-a45a-400aab0f7a97"},"vehicle_type_id":"4","last_reported":1686524795,"current_range_meters":31200,"station_id":"ce4bh312rcd13ifvqdk0","pricing_plan_id":"free"},{"bike_id":"491124a3-18e6-4d57-baf7-0175e8e1b927","system_id":"levelo_inurba_marseille","lat":43.2928,"lon":5.40133,"is_reserved":false,"is_disabled":false,"rental_uris":{"android":"levelo://app?vid=491124a3-18e6-4d57-baf7-0175e8e1b927","ios":"levelo://app?vid=491124a3-18e6-4d57-baf7-0175e8e1b927"},"vehicle_type_id":"4","last_reported":1686524795,"current_range_meters":4800,"station_id":"ce4bh312rcd13ifvqdk0","pricing_plan_id":"free"},{"bike_id":"a740ff53-c5fd-42ea-b42f-035b288943a5","system_id":"levelo_inurba_marseille","lat":43.282744,"lon":5.350533,"is_reserved":false,"is_disabled":false,"rental_uris":{"android":"levelo://app?vid=a740ff53-c5fd-42ea-b42f-035b288943a5","ios":"levelo://app?vid=a740ff53-c5fd-42ea-b42f-035b288943a5"},"vehicle_type_id":"4","last_reported":1686524795,"current_range_meters":0,"station_id":"ce4bhbp2rcd13ifvqerg","pricing_plan_id":"free"},{"bike_id":"eb164eb0-ffe0-48dc-a063-5ce42829981b","system_id":"levelo_inurba_marseille","lat":43.28096,"lon":5.37513,"is_reserved":false,"is_disabled":false,"rental_uris":{"android":"levelo://app?vid=eb164eb0-ffe0-48dc-a063-5ce42829981b","ios":"levelo://app?vid=eb164eb0-ffe0-48dc-a063-5ce42829981b"},"vehicle_type_id":"4","last_reported":1686524795,"current_range_meters":21200,"station_id":"","pricing_plan_id":"free"},{"bike_id":"8d956d6f-e46a-49a5-ae67-ae2ef943bab9","system_id":"levelo_inurba_marseille","lat":43.28105,"lon":5.37832,"is_reserved":false,"is_disabled":false,"rental_uris":{"android":"levelo://app?vid=8d956d6f-e46a-49a5-ae67-ae2ef943bab9","ios":"levelo://app?vid=8d956d6f-e46a-49a5-ae67-ae2ef943bab9"},"vehicle_type_id":"4","last_reported":1686524795,"current_range_meters":31200,"station_id":"ce4bha12rcd13ifvqee0","pricing_plan_id":"free"},{"bike_id":"91c9a015-da13-4e7c-830e-7f5b1a4a4ef9","system_id":"levelo_inurba_marseille","lat":43.28444,"lon":5.39186,"is_reserved":false,"is_disabled":false,"rental_uris":{"android":"levelo://app?vid=91c9a015-da13-4e7c-830e-7f5b1a4a4ef9","ios":"levelo://app?vid=91c9a015-da13-4e7c-830e-7f5b1a4a4ef9"},"vehicle_type_id":"4","last_reported":1686524795,"current_range_meters":31200,"station_id":"ce4bhoh2rcd13ifvqh5g","pricing_plan_id":"free"},{"bike_id":"ed6758a8-f12e-4045-8e15-9d0a46ca02e6","system_id":"levelo_inurba_marseille","lat":43.28436,"lon":5.39184,"is_reserved":false,"is_disabled":false,"rental_uris":{"android":"levelo://app?vid=ed6758a8-f12e-4045-8e15-9d0a46ca02e6","ios":"levelo://app?vid=ed6758a8-f12e-4045-8e15-9d0a46ca02e6"},"vehicle_type_id":"4","last_reported":1686524795,"current_range_meters":26400,"station_id":"ce4bhoh2rcd13ifvqh5g","pricing_plan_id":"free"},{"bike_id":"f94b4f0c-0181-45fd-88df-e9679c450236","system_id":"levelo_inurba_marseille","lat":43.2843,"lon":5.39183,"is_reserved":false,"is_disabled":false,"rental_uris":{"android":"levelo://app?vid=f94b4f0c-0181-45fd-88df-e9679c450236","ios":"levelo://app?vid=f94b4f0c-0181-45fd-88df-e9679c450236"},"vehicle_type_id":"4","last_reported":1686524795,"current_range_meters":30000,"station_id":"","pricing_plan_id":"free"},{"bike_id":"e96db04a-bb54-48d9-87b2-f5f3cc5dca6c","system_id":"levelo_inurba_marseille","lat":43.28577,"lon":5.3949,"is_reserved":false,"is_disabled":false,"rental_uris":{"android":"levelo://app?vid=e96db04a-bb54-48d9-87b2-f5f3cc5dca6c","ios":"levelo://app?vid=e96db04a-bb54-48d9-87b2-f5f3cc5dca6c"},"vehicle_type_id":"4","last_reported":1686524795,"current_range_meters":24800,"station_id":"ce4bh292rcd13ifvqdg0","pricing_plan_id":"free"},{"bike_id":"bdcf492a-57ef-4c5b-8bd3-c41d9e6341cf","system_id":"levelo_inurba_marseille","lat":43.285742,"lon":5.395004,"is_reserved":false,"is_disabled":false,"rental_uris":{"android":"levelo://app?vid=bdcf492a-57ef-4c5b-8bd3-c41d9e6341cf","ios":"levelo://app?vid=bdcf492a-57ef-4c5b-8bd3-c41d9e6341cf"},"vehicle_type_id":"4","last_reported":1686524795,"current_range_meters":26800,"station_id":"ce4bh292rcd13ifvqdg0","pricing_plan_id":"free"},{"bike_id":"795b2a56-a1a0-4ff1-8750-6f763471d865","system_id":"levelo_inurba_marseille","lat":43.28573,"lon":5.394992,"is_reserved":false,"is_disabled":false,"rental_uris":{"android":"levelo://app?vid=795b2a56-a1a0-4ff1-8750-6f763471d865","ios":"levelo://app?vid=795b2a56-a1a0-4ff1-8750-6f763471d865"},"vehicle_type_id":"4","last_reported":1686524795,"current_range_meters":27200,"station_id":"ce4bh292rcd13ifvqdg0","pricing_plan_id":"free"},{"bike_id":"ea4758d3-ae66-4a77-bf6f-b0cdd2d3be73","system_id":"levelo_inurba_marseille","lat":43.28573,"lon":5.394992,"is_reserved":false,"is_disabled":false,"rental_uris":{"android":"levelo://app?vid=ea4758d3-ae66-4a77-bf6f-b0cdd2d3be73","ios":"levelo://app?vid=ea4758d3-ae66-4a77-bf6f-b0cdd2d3be73"},"vehicle_type_id":"4","last_reported":1686524795,"current_range_meters":26000,"station_id":"ce4bh292rcd13ifvqdg0","pricing_plan_id":"free"},{"bike_id":"535f51cb-1438-4393-8e53-482cae9662ac","system_id":"levelo_inurba_marseille","lat":43.326605,"lon":5.409903,"is_reserved":false,"is_disabled":false,"rental_uris":{"android":"levelo://app?vid=535f51cb-1438-4393-8e53-482cae9662ac","ios":"levelo://app?vid=535f51cb-1438-4393-8e53-482cae9662ac"},"vehicle_type_id":"4","last_reported":1686524795,"current_range_meters":20000,"station_id":"ce4bhpp2rcd13ifvqhgg","pricing_plan_id":"free"},{"bike_id":"35bcdf80-841e-41d6-9ebd-b0b7cac693bc","system_id":"levelo_inurba_marseille","lat":43.326605,"lon":5.409903,"is_reserved":false,"is_disabled":false,"rental_uris":{"android":"levelo://app?vid=35bcdf80-841e-41d6-9ebd-b0b7cac693bc","ios":"levelo://app?vid=35bcdf80-841e-41d6-9ebd-b0b7cac693bc"},"vehicle_type_id":"4","last_reported":1686524795,"current_range_meters":23600,"station_id":"ce4bhpp2rcd13ifvqhgg","pricing_plan_id":"free"},{"bike_id":"a5c69e38-3ac2-44a1-b299-ce8d4161887a","system_id":"levelo_inurba_marseille","lat":43.287154,"lon":5.399979,"is_reserved":false,"is_disabled":false,"rental_uris":{"android":"levelo://app?vid=a5c69e38-3ac2-44a1-b299-ce8d4161887a","ios":"levelo://app?vid=a5c69e38-3ac2-44a1-b299-ce8d4161887a"},"vehicle_type_id":"4","last_reported":1686524795,"current_range_meters":16400,"station_id":"ce4bho92rcd13ifvqh3g","pricing_plan_id":"free"},{"bike_id":"96aa3288-24f1-42f8-bb5c-c40a0528ef12","system_id":"levelo_inurba_marseille","lat":43.2791,"lon":5.38033,"is_reserved":false,"is_disabled":false,"rental_uris":{"android":"levelo://app?vid=96aa3288-24f1-42f8-bb5c-c40a0528ef12","ios":"levelo://app?vid=96aa3288-24f1-42f8-bb5c-c40a0528ef12"},"vehicle_type_id":"4","last_reported":1686524795,"current_range_meters":31200,"station_id":"","pricing_plan_id":"free"},{"bike_id":"3a21c143-a66c-452f-9df9-7929367948ef","system_id":"levelo_inurba_marseille","lat":43.287154,"lon":5.399979,"is_reserved":false,"is_disabled":false,"rental_uris":{"android":"levelo://app?vid=3a21c143-a66c-452f-9df9-7929367948ef","ios":"levelo://app?vid=3a21c143-a66c-452f-9df9-7929367948ef"},"vehicle_type_id":"4","last_reported":1686524795,"current_range_meters":31600,"station_id":"ce4bho92rcd13ifvqh3g","pricing_plan_id":"free"},{"bike_id":"20b3a847-068d-4121-ac55-768f10667579","system_id":"levelo_inurba_marseille","lat":43.287154,"lon":5.399979,"is_reserved":false,"is_disabled":false,"rental_uris":{"android":"levelo://app?vid=20b3a847-068d-4121-ac55-768f10667579","ios":"levelo://app?vid=20b3a847-068d-4121-ac55-768f10667579"},"vehicle_type_id":"4","last_reported":1686524795,"current_range_meters":16000,"station_id":"ce4bho92rcd13ifvqh3g","pricing_plan_id":"free"},{"bike_id":"7cca538d-62ab-4e01-aa18-feb71db7fb91","system_id":"levelo_inurba_marseille","lat":43.28713,"lon":5.39983,"is_reserved":false,"is_disabled":false,"rental_uris":{"android":"levelo://app?vid=7cca538d-62ab-4e01-aa18-feb71db7fb91","ios":"levelo://app?vid=7cca538d-62ab-4e01-aa18-feb71db7fb91"},"vehicle_type_id":"4","last_reported":1686524795,"current_range_meters":30400,"station_id":"ce4bho92rcd13ifvqh3g","pricing_plan_id":"free"},{"bike_id":"71cb9da5-e6e7-4e5d-afa4-1fa9843bbabf","system_id":"levelo_inurba_marseille","lat":43.27898,"lon":5.38,"is_reserved":false,"is_disabled":false,"rental_uris":{"android":"levelo://app?vid=71cb9da5-e6e7-4e5d-afa4-1fa9843bbabf","ios":"levelo://app?vid=71cb9da5-e6e7-4e5d-afa4-1fa9843bbabf"},"vehicle_type_id":"4","last_reported":1686524795,"current_range_meters":31200,"station_id":"","pricing_plan_id":"free"},{"bike_id":"6b83ee4e-6303-491e-a1fa-19e01562e338","system_id":"levelo_inurba_marseille","lat":43.28707,"lon":5.39985,"is_reserved":false,"is_disabled":false,"rental_uris":{"android":"levelo://app?vid=6b83ee4e-6303-491e-a1fa-19e01562e338","ios":"levelo://app?vid=6b83ee4e-6303-491e-a1fa-19e01562e338"},"vehicle_type_id":"4","last_reported":1686524795,"current_range_meters":18800,"station_id":"ce4bho92rcd13ifvqh3g","pricing_plan_id":"free"},{"bike_id":"14e5083b-837d-4e4f-9209-c2059921d4b1","system_id":"levelo_inurba_marseille","lat":43.287154,"lon":5.399979,"is_reserved":false,"is_disabled":false,"rental_uris":{"android":"levelo://app?vid=14e5083b-837d-4e4f-9209-c2059921d4b1","ios":"levelo://app?vid=14e5083b-837d-4e4f-9209-c2059921d4b1"},"vehicle_type_id":"4","last_reported":1686524795,"current_range_meters":24800,"station_id":"ce4bho92rcd13ifvqh3g","pricing_plan_id":"free"},{"bike_id":"cc3fd156-3db7-4fb2-8f50-43760d3513ad","system_id":"levelo_inurba_marseille","lat":43.287154,"lon":5.399979,"is_reserved":false,"is_disabled":false,"rental_uris":{"android":"levelo://app?vid=cc3fd156-3db7-4fb2-8f50-43760d3513ad","ios":"levelo://app?vid=cc3fd156-3db7-4fb2-8f50-43760d3513ad"},"vehicle_type_id":"4","last_reported":1686524795,"current_range_meters":31600,"station_id":"ce4bho92rcd13ifvqh3g","pricing_plan_id":"free"},{"bike_id":"25d93dbb-087a-4617-b006-966cc1e954c3","system_id":"levelo_inurba_marseille","lat":43.287154,"lon":5.399979,"is_reserved":false,"is_disabled":false,"rental_uris":{"android":"levelo://app?vid=25d93dbb-087a-4617-b006-966cc1e954c3","ios":"levelo://app?vid=25d93dbb-087a-4617-b006-966cc1e954c3"},"vehicle_type_id":"4","last_reported":1686524795,"current_range_meters":20400,"station_id":"ce4bho92rcd13ifvqh3g","pricing_plan_id":"free"},{"bike_id":"6d49f52f-ad8a-45dc-a0a8-dc81ec06434c","system_id":"levelo_inurba_marseille","lat":43.32052,"lon":5.41533,"is_reserved":false,"is_disabled":false,"rental_uris":{"android":"levelo://app?vid=6d49f52f-ad8a-45dc-a0a8-dc81ec06434c","ios":"levelo://app?vid=6d49f52f-ad8a-45dc-a0a8-dc81ec06434c"},"vehicle_type_id":"4","last_reported":1686524795,"current_range_meters":29600,"station_id":"","pricing_plan_id":"free"},{"bike_id":"c3805997-88b2-4a57-aec2-2e6a33f4d671","system_id":"levelo_inurba_marseille","lat":43.279742,"lon":5.38744,"is_reserved":false,"is_disabled":false,"rental_uris":{"android":"levelo://app?vid=c3805997-88b2-4a57-aec2-2e6a33f4d671","ios":"levelo://app?vid=c3805997-88b2-4a57-aec2-2e6a33f4d671"},"vehicle_type_id":"4","last_reported":1686524795,"current_range_meters":20800,"station_id":"ce4bhg12rcd13ifvqf80","pricing_plan_id":"free"},{"bike_id":"e950272f-abc7-427e-bf47-7af78591ee9e","system_id":"levelo_inurba_marseille","lat":43.292571,"lon":5.409107,"is_reserved":false,"is_disabled":false,"rental_uris":{"android":"levelo://app?vid=e950272f-abc7-427e-bf47-7af78591ee9e","ios":"levelo://app?vid=e950272f-abc7-427e-bf47-7af78591ee9e"},"vehicle_type_id":"4","last_reported":1686524795,"current_range_meters":14800,"station_id":"ce4bh192rcd13ifvqdc0","pricing_plan_id":"free"},{"bike_id":"fee77f2f-9e26-4a5c-849a-6a5cfe8bb1ce","system_id":"levelo_inurba_marseille","lat":43.292571,"lon":5.409107,"is_reserved":false,"is_disabled":false,"rental_uris":{"android":"levelo://app?vid=fee77f2f-9e26-4a5c-849a-6a5cfe8bb1ce","ios":"levelo://app?vid=fee77f2f-9e26-4a5c-849a-6a5cfe8bb1ce"},"vehicle_type_id":"4","last_reported":1686524795,"current_range_meters":20800,"station_id":"ce4bh192rcd13ifvqdc0","pricing_plan_id":"free"},{"bike_id":"6b339487-3ed8-47d9-8e29-946414e0ae63","system_id":"levelo_inurba_marseille","lat":43.292571,"lon":5.409107,"is_reserved":false,"is_disabled":false,"rental_uris":{"android":"levelo://app?vid=6b339487-3ed8-47d9-8e29-946414e0ae63","ios":"levelo://app?vid=6b339487-3ed8-47d9-8e29-946414e0ae63"},"vehicle_type_id":"4","last_reported":1686524795,"current_range_meters":27600,"station_id":"ce4bh192rcd13ifvqdc0","pricing_plan_id":"free"},{"bike_id":"58445d71-6860-407d-b2c0-894242d2e267","system_id":"levelo_inurba_marseille","lat":43.292571,"lon":5.409107,"is_reserved":false,"is_disabled":false,"rental_uris":{"android":"levelo://app?vid=58445d71-6860-407d-b2c0-894242d2e267","ios":"levelo://app?vid=58445d71-6860-407d-b2c0-894242d2e267"},"vehicle_type_id":"4","last_reported":1686524795,"current_range_meters":25200,"station_id":"ce4bh192rcd13ifvqdc0","pricing_plan_id":"free"},{"bike_id":"16abe0a6-14cb-46b9-bd69-8e2ddb6b668e","system_id":"levelo_inurba_marseille","lat":43.292571,"lon":5.409107,"is_reserved":false,"is_disabled":false,"rental_uris":{"android":"levelo://app?vid=16abe0a6-14cb-46b9-bd69-8e2ddb6b668e","ios":"levelo://app?vid=16abe0a6-14cb-46b9-bd69-8e2ddb6b668e"},"vehicle_type_id":"4","last_reported":1686524795,"current_range_meters":16800,"station_id":"ce4bh192rcd13ifvqdc0","pricing_plan_id":"free"},{"bike_id":"519601bf-9243-4de9-b81e-2893b3e02a26","system_id":"levelo_inurba_marseille","lat":43.29248,"lon":5.40908,"is_reserved":false,"is_disabled":false,"rental_uris":{"android":"levelo://app?vid=519601bf-9243-4de9-b81e-2893b3e02a26","ios":"levelo://app?vid=519601bf-9243-4de9-b81e-2893b3e02a26"},"vehicle_type_id":"4","last_reported":1686524795,"current_range_meters":7200,"station_id":"ce4bh192rcd13ifvqdc0","pricing_plan_id":"free"},{"bike_id":"28b3fb03-12f5-4103-8f5a-2b1bb3987b88","system_id":"levelo_inurba_marseille","lat":43.280784,"lon":5.396622,"is_reserved":false,"is_disabled":false,"rental_uris":{"android":"levelo://app?vid=28b3fb03-12f5-4103-8f5a-2b1bb3987b88","ios":"levelo://app?vid=28b3fb03-12f5-4103-8f5a-2b1bb3987b88"},"vehicle_type_id":"4","last_reported":1686524795,"current_range_meters":0,"station_id":"ce4bho12rcd13ifvqh2g","pricing_plan_id":"free"},{"bike_id":"8a713f77-9b06-4285-9a84-de4cc1cf7333","system_id":"levelo_inurba_marseille","lat":43.280784,"lon":5.396622,"is_reserved":false,"is_disabled":false,"rental_uris":{"android":"levelo://app?vid=8a713f77-9b06-4285-9a84-de4cc1cf7333","ios":"levelo://app?vid=8a713f77-9b06-4285-9a84-de4cc1cf7333"},"vehicle_type_id":"4","last_reported":1686524795,"current_range_meters":0,"station_id":"ce4bho12rcd13ifvqh2g","pricing_plan_id":"free"},{"bike_id":"4916d99f-4cdc-4077-b1c4-52fa4d4ea11e","system_id":"levelo_inurba_marseille","lat":43.273613,"lon":5.362705,"is_reserved":false,"is_disabled":false,"rental_uris":{"android":"levelo://app?vid=4916d99f-4cdc-4077-b1c4-52fa4d4ea11e","ios":"levelo://app?vid=4916d99f-4cdc-4077-b1c4-52fa4d4ea11e"},"vehicle_type_id":"4","last_reported":1686524795,"current_range_meters":22000,"station_id":"ce4bhbh2rcd13ifvqeo0","pricing_plan_id":"free"},{"bike_id":"8a859a66-3d49-4ccb-b69e-6a201f1f4b6f","system_id":"levelo_inurba_marseille","lat":43.27569,"lon":5.38401,"is_reserved":false,"is_disabled":false,"rental_uris":{"android":"levelo://app?vid=8a859a66-3d49-4ccb-b69e-6a201f1f4b6f","ios":"levelo://app?vid=8a859a66-3d49-4ccb-b69e-6a201f1f4b6f"},"vehicle_type_id":"4","last_reported":1686524795,"current_range_meters":31200,"station_id":"","pricing_plan_id":"free"},{"bike_id":"90a649c1-aab4-47b0-99cc-18b1f30090a3","system_id":"levelo_inurba_marseille","lat":43.27378,"lon":5.36242,"is_reserved":false,"is_disabled":false,"rental_uris":{"android":"levelo://app?vid=90a649c1-aab4-47b0-99cc-18b1f30090a3","ios":"levelo://app?vid=90a649c1-aab4-47b0-99cc-18b1f30090a3"},"vehicle_type_id":"4","last_reported":1686524795,"current_range_meters":22800,"station_id":"","pricing_plan_id":"free"},{"bike_id":"19e1df7e-0428-428f-9c0d-d5d504c42f17","system_id":"levelo_inurba_marseille","lat":43.27377,"lon":5.36248,"is_reserved":false,"is_disabled":false,"rental_uris":{"android":"levelo://app?vid=19e1df7e-0428-428f-9c0d-d5d504c42f17","ios":"levelo://app?vid=19e1df7e-0428-428f-9c0d-d5d504c42f17"},"vehicle_type_id":"4","last_reported":1686524795,"current_range_meters":0,"station_id":"ce4bhbh2rcd13ifvqeo0","pricing_plan_id":"free"},{"bike_id":"39612b5b-e1ea-497b-85ad-4772551df064","system_id":"levelo_inurba_marseille","lat":43.336134,"lon":5.410341,"is_reserved":false,"is_disabled":false,"rental_uris":{"android":"levelo://app?vid=39612b5b-e1ea-497b-85ad-4772551df064","ios":"levelo://app?vid=39612b5b-e1ea-497b-85ad-4772551df064"},"vehicle_type_id":"4","last_reported":1686524795,"current_range_meters":30400,"station_id":"ce4bhqh2rcd13ifvqhmg","pricing_plan_id":"free"},{"bike_id":"a035fd11-78de-4a01-99e8-ec45df65ecf2","system_id":"levelo_inurba_marseille","lat":43.336134,"lon":5.410341,"is_reserved":false,"is_disabled":false,"rental_uris":{"android":"levelo://app?vid=a035fd11-78de-4a01-99e8-ec45df65ecf2","ios":"levelo://app?vid=a035fd11-78de-4a01-99e8-ec45df65ecf2"},"vehicle_type_id":"4","last_reported":1686524795,"current_range_meters":3600,"station_id":"ce4bhqh2rcd13ifvqhmg","pricing_plan_id":"free"},{"bike_id":"97ce5bce-ffc5-4903-adf2-5f6accf2241e","system_id":"levelo_inurba_marseille","lat":43.336134,"lon":5.410341,"is_reserved":false,"is_disabled":false,"rental_uris":{"android":"levelo://app?vid=97ce5bce-ffc5-4903-adf2-5f6accf2241e","ios":"levelo://app?vid=97ce5bce-ffc5-4903-adf2-5f6accf2241e"},"vehicle_type_id":"4","last_reported":1686524795,"current_range_meters":5200,"station_id":"ce4bhqh2rcd13ifvqhmg","pricing_plan_id":"free"},{"bike_id":"695a83d6-b828-4525-9730-1b669769b82f","system_id":"levelo_inurba_marseille","lat":43.27558,"lon":5.38416,"is_reserved":false,"is_disabled":false,"rental_uris":{"android":"levelo://app?vid=695a83d6-b828-4525-9730-1b669769b82f","ios":"levelo://app?vid=695a83d6-b828-4525-9730-1b669769b82f"},"vehicle_type_id":"4","last_reported":1686524795,"current_range_meters":31200,"station_id":"","pricing_plan_id":"free"},{"bike_id":"0041724c-111a-49a2-8a13-2cf8d3f31a33","system_id":"levelo_inurba_marseille","lat":43.336134,"lon":5.410341,"is_reserved":false,"is_disabled":false,"rental_uris":{"android":"levelo://app?vid=0041724c-111a-49a2-8a13-2cf8d3f31a33","ios":"levelo://app?vid=0041724c-111a-49a2-8a13-2cf8d3f31a33"},"vehicle_type_id":"4","last_reported":1686524795,"current_range_meters":8400,"station_id":"ce4bhqh2rcd13ifvqhmg","pricing_plan_id":"free"},{"bike_id":"0d8127f9-d931-4886-ae1d-cc889ece4400","system_id":"levelo_inurba_marseille","lat":43.33603,"lon":5.41035,"is_reserved":false,"is_disabled":false,"rental_uris":{"android":"levelo://app?vid=0d8127f9-d931-4886-ae1d-cc889ece4400","ios":"levelo://app?vid=0d8127f9-d931-4886-ae1d-cc889ece4400"},"vehicle_type_id":"4","last_reported":1686524795,"current_range_meters":21600,"station_id":"ce4bhqh2rcd13ifvqhmg","pricing_plan_id":"free"},{"bike_id":"7a8075a5-def0-4734-b516-0c0acc95675b","system_id":"levelo_inurba_marseille","lat":43.336134,"lon":5.410341,"is_reserved":false,"is_disabled":false,"rental_uris":{"android":"levelo://app?vid=7a8075a5-def0-4734-b516-0c0acc95675b","ios":"levelo://app?vid=7a8075a5-def0-4734-b516-0c0acc95675b"},"vehicle_type_id":"4","last_reported":1686524795,"current_range_meters":12800,"station_id":"ce4bhqh2rcd13ifvqhmg","pricing_plan_id":"free"},{"bike_id":"b06d39ee-0735-4cc8-9d25-5de7c001b303","system_id":"levelo_inurba_marseille","lat":43.336134,"lon":5.410341,"is_reserved":false,"is_disabled":false,"rental_uris":{"android":"levelo://app?vid=b06d39ee-0735-4cc8-9d25-5de7c001b303","ios":"levelo://app?vid=b06d39ee-0735-4cc8-9d25-5de7c001b303"},"vehicle_type_id":"4","last_reported":1686524795,"current_range_meters":25600,"station_id":"ce4bhqh2rcd13ifvqhmg","pricing_plan_id":"free"},{"bike_id":"a3ab487b-562c-4c45-bd3a-3040ffdeefd4","system_id":"levelo_inurba_marseille","lat":43.27794,"lon":5.3943,"is_reserved":false,"is_disabled":false,"rental_uris":{"android":"levelo://app?vid=a3ab487b-562c-4c45-bd3a-3040ffdeefd4","ios":"levelo://app?vid=a3ab487b-562c-4c45-bd3a-3040ffdeefd4"},"vehicle_type_id":"4","last_reported":1686524795,"current_range_meters":0,"station_id":"","pricing_plan_id":"free"},{"bike_id":"c75ec162-0efe-467a-a98a-50133ea5de05","system_id":"levelo_inurba_marseille","lat":43.27614,"lon":5.39489,"is_reserved":false,"is_disabled":false,"rental_uris":{"android":"levelo://app?vid=c75ec162-0efe-467a-a98a-50133ea5de05","ios":"levelo://app?vid=c75ec162-0efe-467a-a98a-50133ea5de05"},"vehicle_type_id":"4","last_reported":1686524795,"current_range_meters":14800,"station_id":"","pricing_plan_id":"free"},{"bike_id":"ea995902-89b5-4024-b3eb-675fd6111cd7","system_id":"levelo_inurba_marseille","lat":43.29546,"lon":5.42284,"is_reserved":false,"is_disabled":false,"rental_uris":{"android":"levelo://app?vid=ea995902-89b5-4024-b3eb-675fd6111cd7","ios":"levelo://app?vid=ea995902-89b5-4024-b3eb-675fd6111cd7"},"vehicle_type_id":"4","last_reported":1686524795,"current_range_meters":9200,"station_id":"ce4bhph2rcd13ifvqhdg","pricing_plan_id":"free"},{"bike_id":"360e2143-df68-4799-980b-85167c449069","system_id":"levelo_inurba_marseille","lat":43.295523,"lon":5.422926,"is_reserved":false,"is_disabled":false,"rental_uris":{"android":"levelo://app?vid=360e2143-df68-4799-980b-85167c449069","ios":"levelo://app?vid=360e2143-df68-4799-980b-85167c449069"},"vehicle_type_id":"4","last_reported":1686524795,"current_range_meters":6800,"station_id":"ce4bhph2rcd13ifvqhdg","pricing_plan_id":"free"},{"bike_id":"bd5b42f3-9ffe-46c4-8652-197f49cd2a8a","system_id":"levelo_inurba_marseille","lat":43.278128,"lon":5.407195,"is_reserved":false,"is_disabled":false,"rental_uris":{"android":"levelo://app?vid=bd5b42f3-9ffe-46c4-8652-197f49cd2a8a","ios":"levelo://app?vid=bd5b42f3-9ffe-46c4-8652-197f49cd2a8a"},"vehicle_type_id":"4","last_reported":1686524795,"current_range_meters":31200,"station_id":"ce4bhnh2rcd13ifvqgtg","pricing_plan_id":"free"},{"bike_id":"e6036ced-0b9d-469e-822d-99fe54ad1c52","system_id":"levelo_inurba_marseille","lat":43.27776,"lon":5.40643,"is_reserved":false,"is_disabled":false,"rental_uris":{"android":"levelo://app?vid=e6036ced-0b9d-469e-822d-99fe54ad1c52","ios":"levelo://app?vid=e6036ced-0b9d-469e-822d-99fe54ad1c52"},"vehicle_type_id":"4","last_reported":1686524795,"current_range_meters":0,"station_id":"","pricing_plan_id":"free"},{"bike_id":"e4649357-2dea-4d63-ab53-077e0ad218cf","system_id":"levelo_inurba_marseille","lat":43.27997,"lon":5.41651,"is_reserved":false,"is_disabled":false,"rental_uris":{"android":"levelo://app?vid=e4649357-2dea-4d63-ab53-077e0ad218cf","ios":"levelo://app?vid=e4649357-2dea-4d63-ab53-077e0ad218cf"},"vehicle_type_id":"4","last_reported":1686524795,"current_range_meters":14800,"station_id":"ce4bho12rcd13ifvqh1g","pricing_plan_id":"free"},