{"last_updated":1702271259,"ttl":30,"version":"2.2","data":{"bikes":[{"bike_id":"65795d87-00db-4ac9-bffb-9194b100de76","system_id":"levelo_inurba_marseille","lat":43.312273,"lon":5.368509,"is_reserved":false,"is_disabled":false,"rental_uris":{"android":"levelo://app?vid=65795d87-00db-4ac9-bffb-9194b100de76","ios":"levelo://app?vid=65795d87-00db-4ac9-bffb-9194b100de76"},"vehicle_type_id":"4","last_reported":1702271259,"current_range_meters":28400,"station_id":"ce4bgl92rcd13ifvqbq0","pricing_plan_id":"free"},{"bike_id":"5ce36bb9-9483-4100-b383-b1b6fcf40f2e","system_id":"levelo_inurba_marseille","lat":43.312239,"lon":5.368562,"is_reserved":false,"is_disabled":false,"rental_uris":{"android":"levelo://app?vid=5ce36bb9-9483-4100-b383-b1b6fcf40f2e","ios":"levelo://app?vid=5ce36bb9-9483-4100-b383-b1b6fcf40f2e"},"vehicle_type_id":"4","last_reported":1702271259,"current_range_meters":28000,"station_id":"ce4bgl92rcd13ifvqbq0","pricing_plan_id":"free"},{"bike_id":"d2aecc1c-74c6-412d-bab2-e1622ec23d7a","system_id":"levelo_inurba_marseille","lat":43.314811,"lon":5.373104,"is_reserved":false,"is_disabled":false,"rental_uris":{"android":"levelo://app?vid=d2aecc1c-74c6-412d-bab2-e1622ec23d7a","ios":"levelo://app?vid=d2aecc1c-74c6-412d-bab2-e1622ec23d7a"},"vehicle_type_id":"4","last_reported":1702271259,"current_range_meters":29200,"station_id":"ce4bgt12rcd13ifvqcd0","pricing_plan_id":"free"},{"bike_id":"5a179de8-93ed-41f2-b51b-3572f9af7566","system_id":"levelo_inurba_marseille","lat":43.314811,"lon":5.373104,"is_reserved":false,"is_disabled":false,"rental_uris":{"android":"levelo://app?vid=5a179de8-93ed-41f2-b51b-3572f9af7566","ios":"levelo://app?vid=5a179de8-93ed-41f2-b51b-3572f9af7566"},"vehicle_type_id":"4","last_reported":1702271259,"current_range_meters":27200,"station_id":"ce4bgt12rcd13ifvqcd0","pricing_plan_id":"free"},{"bike_id":"a46fe6f5-ed0d-4b3e-96c1-ff845766c40c","system_id":"levelo_inurba_marseille","lat":43.315004,"lon":5.373008,"is_reserved":false,"is_disabled":false,"rental_uris":{"android":"levelo://app?vid=a46fe6f5-ed0d-4b3e-96c1-ff845766c40c","ios":"levelo://app?vid=a46fe6f5-ed0d-4b3e-96c1-ff845766c40c"},"vehicle_type_id":"4","last_reported":1702271259,"current_range_meters":25600,"station_id":"ce4bgt12rcd13ifvqcd0","pricing_plan_id":"free"},{"bike_id":"1a65000c-9c2d-4ee6-b607-93207f949950","system_id":"levelo_inurba_marseille","lat":43.314811,"lon":5.373103,"is_reserved":false,"is_disabled":false,"rental_uris":{"android":"levelo://app?vid=1a65000c-9c2d-4ee6-b607-93207f949950","ios":"levelo://app?vid=1a65000c-9c2d-4ee6-b607-93207f949950"},"vehicle_type_id":"4","last_reported":1702271259,"current_range_meters":26800,"station_id":"ce4bgt12rcd13ifvqcd0","pricing_plan_id":"free"},{"bike_id":"c0cfcd2c-13a5-4d52-94d8-d7f2154367c4","system_id":"levelo_inurba_marseille","lat":43.305438,"lon":5.367006,"is_reserved":false,"is_disabled":false,"rental_uris":{"android":"levelo://app?vid=c0cfcd2c-13a5-4d52-94d8-d7f2154367c4","ios":"levelo://app?vid=c0cfcd2c-13a5-4d52-94d8-d7f2154367c4"},"vehicle_type_id":"4","last_reported":1702271259,"current_range_meters":28400,"station_id":"ce4bgrp2rcd13ifvqc9g","pricing_plan_id":"free"},{"bike_id":"4db13260-b8d3-44cc-8200-438470ed9027","system_id":"levelo_inurba_marseille","lat":43.305712,"lon":5.365641,"is_reserved":false,"is_disabled":false,"rental_uris":{"android":"levelo://app?vid=4db13260-b8d3-44cc-8200-438470ed9027","ios":"levelo://app?vid=4db13260-b8d3-44cc-8200-438470ed9027"},"vehicle_type_id":"4","last_reported":1702271259,"current_range_meters":25600,"station_id":"ce4bgs12rcd13ifvqcag","pricing_plan_id":"free"},{"bike_id":"a0164a2e-ad27-4c0b-af39-d5eab8c73b65","system_id":"levelo_inurba_marseille","lat":43.305368,"lon":5.367343,"is_reserved":false,"is_disabled":false,"rental_uris":{"android":"levelo://app?vid=a0164a2e-ad27-4c0b-af39-d5eab8c73b65","ios":"levelo://app?vid=a0164a2e-ad27-4c0b-af39-d5eab8c73b65"},"vehicle_type_id":"4","last_reported":1702271259,"current_range_meters":24000,"station_id":"ce4bgrp2rcd13ifvqc9g","pricing_plan_id":"free"},{"bike_id":"926d2196-2bce-46e1-b6ac-e5ca0ae70355","system_id":"levelo_inurba_marseille","lat":43.311161,"lon":5.377646,"is_reserved":false,"is_disabled":false,"rental_uris":{"android":"levelo://app?vid=926d2196-2bce-46e1-b6ac-e5ca0ae70355","ios":"levelo://app?vid=926d2196-2bce-46e1-b6ac-e5ca0ae70355"},"vehicle_type_id":"4","last_reported":1702271259,"current_range_meters":20400,"station_id":"ce4bgt92rcd13ifvqcg0","pricing_plan_id":"free"},{"bike_id":"1f943129-39d2-4147-8ae4-9e24ebbdd87c","system_id":"levelo_inurba_marseille","lat":43.311131,"lon":5.377651,"is_reserved":false,"is_disabled":false,"rental_uris":{"android":"levelo://app?vid=1f943129-39d2-4147-8ae4-9e24ebbdd87c","ios":"levelo://app?vid=1f943129-39d2-4147-8ae4-9e24ebbdd87c"},"vehicle_type_id":"4","last_reported":1702271259,"current_range_meters":20400,"station_id":"ce4bgt92rcd13ifvqcg0","pricing_plan_id":"free"},{"bike_id":"cee10321-1222-40d5-a671-6f617e42ecae","system_id":"levelo_inurba_marseille","lat":43.311124,"lon":5.377674,"is_reserved":false,"is_disabled":false,"rental_uris":{"android":"levelo://app?vid=cee10321-1222-40d5-a671-6f617e42ecae","ios":"levelo://app?vid=cee10321-1222-40d5-a671-6f617e42ecae"},"vehicle_type_id":"4","last_reported":1702271259,"current_range_meters":20000,"station_id":"ce4bgt92rcd13ifvqcg0","pricing_plan_id":"free"},{"bike_id":"9cda16cd-e010-4fce-8679-c88844db2d74","system_id":"levelo_inurba_marseille","lat":43.311131,"lon":5.377651,"is_reserved":false,"is_disabled":false,"rental_uris":{"android":"levelo://app?vid=9cda16cd-e010-4fce-8679-c88844db2d74","ios":"levelo://app?vid=9cda16cd-e010-4fce-8679-c88844db2d74"},"vehicle_type_id":"4","last_reported":1702271259,"current_range_meters":17600,"station_id":"ce4bgt92rcd13ifvqcg0","pricing_plan_id":"free"},{"bike_id":"4d87a39c-c9d0-4c90-9907-716eb7059e05","system_id":"levelo_inurba_marseille","lat":43.311125,"lon":5.377624,"is_reserved":false,"is_disabled":false,"rental_uris":{"android":"levelo://app?vid=4d87a39c-c9d0-4c90-9907-716eb7059e05","ios":"levelo://app?vid=4d87a39c-c9d0-4c90-9907-716eb7059e05"},"vehicle_type_id":"4","last_reported":1702271259,"current_range_meters":9600,"station_id":"ce4bgt92rcd13ifvqcg0","pricing_plan_id":"free"},{"bike_id":"8fc538b8-9440-4825-b24b-0e82329338d2","system_id":"levelo_inurba_marseille","lat":43.30452,"lon":5.36594,"is_reserved":false,"is_disabled":false,"rental_uris":{"android":"levelo://app?vid=8fc538b8-9440-4825-b24b-0e82329338d2","ios":"levelo://app?vid=8fc538b8-9440-4825-b24b-0e82329338d2"},"vehicle_type_id":"4","last_reported":1702271259,"current_range_meters":0,"station_id":"","pricing_plan_id":"free"},{"bike_id":"90e4f69a-392c-417d-810b-8b18ab40539b","system_id":"levelo_inurba_marseille","lat":43.307945,"lon":5.376487,"is_reserved":false,"is_disabled":false,"rental_uris":{"android":"levelo://app?vid=90e4f69a-392c-417d-810b-8b18ab40539b","ios":"levelo://app?vid=90e4f69a-392c-417d-810b-8b18ab40539b"},"vehicle_type_id":"4","last_reported":1702271259,"current_range_meters":30800,"station_id":"ce4bgv92rcd13ifvqcq0","pricing_plan_id":"free"},{"bike_id":"d7761198-dac8-43f4-b0d9-4549d6d33831","system_id":"levelo_inurba_marseille","lat":43.307945,"lon":5.376487,"is_reserved":false,"is_disabled":false,"rental_uris":{"android":"levelo://app?vid=d7761198-dac8-43f4-b0d9-4549d6d33831","ios":"levelo://app?vid=d7761198-dac8-43f4-b0d9-4549d6d33831"},"vehicle_type_id":"4","last_reported":1702271259,"current_range_meters":23600,"station_id":"ce4bgv92rcd13ifvqcq0","pricing_plan_id":"free"},{"bike_id":"c1656968-21b1-40d4-af20-5558f0d9731a","system_id":"levelo_inurba_marseille","lat":43.317075,"lon":5.377367,"is_reserved":false,"is_disabled":false,"rental_uris":{"android":"levelo://app?vid=c1656968-21b1-40d4-af20-5558f0d9731a","ios":"levelo://app?vid=c1656968-21b1-40d4-af20-5558f0d9731a"},"vehicle_type_id":"4","last_reported":1702271259,"current_range_meters":14800,"station_id":"ce4bgth2rcd13ifvqch0","pricing_plan_id":"free"},{"bike_id":"b925c0ea-2b3a-4107-95dc-8832b3d581af","system_id":"levelo_inurba_marseille","lat":43.317075,"lon":5.377367,"is_reserved":false,"is_disabled":false,"rental_uris":{"android":"levelo://app?vid=b925c0ea-2b3a-4107-95dc-8832b3d581af","ios":"levelo://app?vid=b925c0ea-2b3a-4107-95dc-8832b3d581af"},"vehicle_type_id":"4","last_reported":1702271259,"current_range_meters":19600,"station_id":"ce4bgth2rcd13ifvqch0","pricing_plan_id":"free"},{"bike_id":"98c7773a-ac33-4088-a3f6-5333d9eb3e1a","system_id":"levelo_inurba_marseille","lat":43.317075,"lon":5.377367,"is_reserved":false,"is_disabled":false,"rental_uris":{"android":"levelo://app?vid=98c7773a-ac33-4088-a3f6-5333d9eb3e1a","ios":"levelo://app?vid=98c7773a-ac33-4088-a3f6-5333d9eb3e1a"},"vehicle_type_id":"4","last_reported":1702271259,"current_range_meters":31600,"station_id":"ce4bgth2rcd13ifvqch0","pricing_plan_id":"free"},{"bike_id":"77a6c46d-d898-4e4f-8846-efa91689c7f0","system_id":"levelo_inurba_marseille","lat":43.303283,"lon":5.366721,"is_reserved":false,"is_disabled":false,"rental_uris":{"android":"levelo://app?vid=77a6c46d-d898-4e4f-8846-efa91689c7f0","ios":"levelo://app?vid=77a6c46d-d898-4e4f-8846-efa91689c7f0"},"vehicle_type_id":"4","last_reported":1702271259,"current_range_meters":0,"station_id":"","pricing_plan_id":"free"},{"bike_id":"60584088-d5eb-48d3-aaf7-ef8c7058c398","system_id":"levelo_inurba_marseille","lat":43.31532,"lon":5.38029,"is_reserved":false,"is_disabled":false,"rental_uris":{"android":"levelo://app?vid=60584088-d5eb-48d3-aaf7-ef8c7058c398","ios":"levelo://app?vid=60584088-d5eb-48d3-aaf7-ef8c7058c398"},"vehicle_type_id":"4","last_reported":1702271259,"current_range_meters":19200,"station_id":"ce4bhsp2rcd13ifvqi50","pricing_plan_id":"free"},{"bike_id":"dd8f1229-75a7-42d3-9640-5c12052a4cba","system_id":"levelo_inurba_marseille","lat":43.315319,"lon":5.380307,"is_reserved":false,"is_disabled":false,"rental_uris":{"android":"levelo://app?vid=dd8f1229-75a7-42d3-9640-5c12052a4cba","ios":"levelo://app?vid=dd8f1229-75a7-42d3-9640-5c12052a4cba"},"vehicle_type_id":"4","last_reported":1702271259,"current_range_meters":30000,"station_id":"ce4bhsp2rcd13ifvqi50","pricing_plan_id":"free"},{"bike_id":"8629d01c-6224-47d2-b84d-1633684d4c17","system_id":"levelo_inurba_marseille","lat":43.315345,"lon":5.380345,"is_reserved":false,"is_disabled":false,"rental_uris":{"android":"levelo://app?vid=8629d01c-6224-47d2-b84d-1633684d4c17","ios":"levelo://app?vid=8629d01c-6224-47d2-b84d-1633684d4c17"},"vehicle_type_id":"4","last_reported":1702271259,"current_range_meters":30400,"station_id":"ce4bhsp2rcd13ifvqi50","pricing_plan_id":"free"},{"bike_id":"3e20bd4d-0495-4aaa-a6cd-f35f5f2a54e5","system_id":"levelo_inurba_marseille","lat":43.315318,"lon":5.380362,"is_reserved":false,"is_disabled":false,"rental_uris":{"android":"levelo://app?vid=3e20bd4d-0495-4aaa-a6cd-f35f5f2a54e5","ios":"levelo://app?vid=3e20bd4d-0495-4aaa-a6cd-f35f5f2a54e5"},"vehicle_type_id":"4","last_reported":1702271259,"current_range_meters":29600,"station_id":"ce4bhsp2rcd13ifvqi50","pricing_plan_id":"free"},{"bike_id":"a1e90a08-2dae-4577-818d-7f4cf81ae672","system_id":"levelo_inurba_marseille","lat":43.301939,"lon":5.366286,"is_reserved":false,"is_disabled":false,"rental_uris":{"android":"levelo://app?vid=a1e90a08-2dae-4577-818d-7f4cf81ae672","ios":"levelo://app?vid=a1e90a08-2dae-4577-818d-7f4cf81ae672"},"vehicle_type_id":"4","last_reported":1702271259,"current_range_meters":24800,"station_id":"ce4bgrh2rcd13ifvqc8g","pricing_plan_id":"free"},{"bike_id":"a33664bd-db91-401f-bba6-a779a5a859bb","system_id":"levelo_inurba_marseille","lat":43.301939,"lon":5.366286,"is_reserved":false,"is_disabled":false,"rental_uris":{"android":"levelo://app?vid=a33664bd-db91-401f-bba6-a779a5a859bb","ios":"levelo://app?vid=a33664bd-db91-401f-bba6-a779a5a859bb"},"vehicle_type_id":"4","last_reported":1702271259,"current_range_meters":20800,"station_id":"ce4bgrh2rcd13ifvqc8g","pricing_plan_id":"free"},{"bike_id":"0db2f3c1-353e-4ee5-80e8-d7dd3bec73f3","system_id":"levelo_inurba_marseille","lat":43.304606,"lon":5.379026,"is_reserved":false,"is_disabled":false,"rental_uris":{"android":"levelo://app?vid=0db2f3c1-353e-4ee5-80e8-d7dd3bec73f3","ios":"levelo://app?vid=0db2f3c1-353e-4ee5-80e8-d7dd3bec73f3"},"vehicle_type_id":"4","last_reported":1702271259,"current_range_meters":30000,"station_id":"ce4bgup2rcd13ifvqcn0","pricing_plan_id":"free"},{"bike_id":"ed742342-d636-40a9-a67b-c0693cd96bd9","system_id":"levelo_inurba_marseille","lat":43.304606,"lon":5.379026,"is_reserved":false,"is_disabled":false,"rental_uris":{"android":"levelo://app?vid=ed742342-d636-40a9-a67b-c0693cd96bd9","ios":"levelo://app?vid=ed742342-d636-40a9-a67b-c0693cd96bd9"},"vehicle_type_id":"4","last_reported":1702271259,"current_range_meters":28800,"station_id":"ce4bgup2rcd13ifvqcn0","pricing_plan_id":"free"},{"bike_id":"0d761c4a-1811-41c5-80ba-0baa16ccfcd4","system_id":"levelo_inurba_marseille","lat":43.304606,"lon":5.379026,"is_reserved":false,"is_disabled":false,"rental_uris":{"android":"levelo://app?vid=0d761c4a-1811-41c5-80ba-0baa16ccfcd4","ios":"levelo://app?vid=0d761c4a-1811-41c5-80ba-0baa16ccfcd4"},"vehicle_type_id":"4","last_reported":1702271259,"current_range_meters":29200,"station_id":"ce4bgup2rcd13ifvqcn0","pricing_plan_id":"free"},{"bike_id":"5627b5ac-c257-44ea-a459-3cc4c87eff15","system_id":"levelo_inurba_marseille","lat":43.304606,"lon":5.379026,"is_reserved":false,"is_disabled":false,"rental_uris":{"android":"levelo://app?vid=5627b5ac-c257-44ea-a459-3cc4c87eff15","ios":"levelo://app?vid=5627b5ac-c257-44ea-a459-3cc4c87eff15"},"vehicle_type_id":"4","last_reported":1702271259,"current_range_meters":27600,"station_id":"ce4bgup2rcd13ifvqcn0","pricing_plan_id":"free"},{"bike_id":"9945f941-0e2a-4593-8db5-1662a4621271","system_id":"levelo_inurba_marseille","lat":43.304606,"lon":5.379026,"is_reserved":false,"is_disabled":false,"rental_uris":{"android":"levelo://app?vid=9945f941-0e2a-4593-8db5-1662a4621271","ios":"levelo://app?vid=9945f941-0e2a-4593-8db5-1662a4621271"},"vehicle_type_id":"4","last_reported":1702271259,"current_range_meters":20400,"station_id":"ce4bgup2rcd13ifvqcn0","pricing_plan_id":"free"},{"bike_id":"840a1b4d-6166-4c7d-8940-8de062f1cfc3","system_id":"levelo_inurba_marseille","lat":43.304606,"lon":5.379026,"is_reserved":false,"is_disabled":false,"rental_uris":{"android":"levelo://app?vid=840a1b4d-6166-4c7d-8940-8de062f1cfc3","ios":"levelo://app?vid=840a1b4d-6166-4c7d-8940-8de062f1cfc3"},"vehicle_type_id":"4","last_reported":1702271259,"current_range_meters":26000,"station_id":"ce4bgup2rcd13ifvqcn0","pricing_plan_id":"free"},{"bike_id":"7b40c181-4667-4501-874b-a1d36de3aede","system_id":"levelo_inurba_marseille","lat":43.324771,"lon":5.36557,"is_reserved":false,"is_disabled":false,"rental_uris":{"android":"levelo://app?vid=7b40c181-4667-4501-874b-a1d36de3aede","ios":"levelo://app?vid=7b40c181-4667-4501-874b-a1d36de3aede"},"vehicle_type_id":"4","last_reported":1702271259,"current_range_meters":30400,"station_id":"ce4bhs12rcd13ifvqhvg","pricing_plan_id":"free"},{"bike_id":"c0a64342-12aa-4bfb-966b-6688b6029cbf","system_id":"levelo_inurba_marseille","lat":43.32483,"lon":5.36567,"is_reserved":false,"is_disabled":false,"rental_uris":{"android":"levelo://app?vid=c0a64342-12aa-4bfb-966b-6688b6029cbf","ios":"levelo://app?vid=c0a64342-12aa-4bfb-966b-6688b6029cbf"},"vehicle_type_id":"4","last_reported":1702271259,"current_range_meters":30800,"station_id":"ce4bhs12rcd13ifvqhvg","pricing_plan_id":"free"},{"bike_id":"1179d405-6a61-468e-ace3-2f0399d26d12","system_id":"levelo_inurba_marseille","lat":43.301429,"lon":5.37413,"is_reserved":false,"is_disabled":false,"rental_uris":{"android":"levelo://app?vid=1179d405-6a61-468e-ace3-2f0399d26d12","ios":"levelo://app?vid=1179d405-6a61-468e-ace3-2f0399d26d12"},"vehicle_type_id":"4","last_reported":1702271259,"current_range_meters":29200,"station_id":"ce4bgs92rcd13ifvqcc0","pricing_plan_id":"free"},{"bike_id":"d507dc20-f3f0-485a-b520-e5ecd0effbe5","system_id":"levelo_inurba_marseille","lat":43.319935,"lon":5.381699,"is_reserved":false,"is_disabled":false,"rental_uris":{"android":"levelo://app?vid=d507dc20-f3f0-485a-b520-e5ecd0effbe5","ios":"levelo://app?vid=d507dc20-f3f0-485a-b520-e5ecd0effbe5"},"vehicle_type_id":"4","last_reported":1702271259,"current_range_meters":20400,"station_id":"ce4bhr12rcd13ifvqhpg","pricing_plan_id":"free"},{"bike_id":"d8be298e-f4c0-4479-a66b-e307c680d7cc","system_id":"levelo_inurba_marseille","lat":43.31356,"lon":5.38493,"is_reserved":false,"is_disabled":false,"rental_uris":{"android":"levelo://app?vid=d8be298e-f4c0-4479-a66b-e307c680d7cc","ios":"levelo://app?vid=d8be298e-f4c0-4479-a66b-e307c680d7cc"},"vehicle_type_id":"4","last_reported":1702271259,"current_range_meters":17600,"station_id":"ce4bgt92rcd13ifvqcf0","pricing_plan_id":"free"},{"bike_id":"9b00a933-23a6-4379-b11b-8c09b13f3c3c","system_id":"levelo_inurba_marseille","lat":43.299724,"lon":5.371829,"is_reserved":false,"is_disabled":false,"rental_uris":{"android":"levelo://app?vid=9b00a933-23a6-4379-b11b-8c09b13f3c3c","ios":"levelo://app?vid=9b00a933-23a6-4379-b11b-8c09b13f3c3c"},"vehicle_type_id":"4","last_reported":1702271259,"current_range_meters":30000,"station_id":"ce4bgr92rcd13ifvqc7g","pricing_plan_id":"free"},{"bike_id":"67aa5295-a78e-47f8-8b25-fd1ec94ae0f6","system_id":"levelo_inurba_marseille","lat":43.299222,"lon":5.365554,"is_reserved":false,"is_disabled":false,"rental_uris":{"android":"levelo://app?vid=67aa5295-a78e-47f8-8b25-fd1ec94ae0f6","ios":"levelo://app?vid=67aa5295-a78e-47f8-8b25-fd1ec94ae0f6"},"vehicle_type_id":"4","last_reported":1702271259,"current_range_meters":0,"station_id":"ce4bgm92rcd13ifvqbr0","pricing_plan_id":"free"},{"bike_id":"ab271e6e-b9ba-42d6-beab-0570fd9297d6","system_id":"levelo_inurba_marseille","lat":43.311722,"lon":5.387247,"is_reserved":false,"is_disabled":false,"rental_uris":{"android":"levelo://app?vid=ab271e6e-b9ba-42d6-beab-0570fd9297d6","ios":"levelo://app?vid=ab271e6e-b9ba-42d6-beab-0570fd9297d6"},"vehicle_type_id":"4","last_reported":1702271259,"current_range_meters":29600,"station_id":"ce4bgv12rcd13ifvqcp0","pricing_plan_id":"free"},{"bike_id":"ccd4fbf7-a0c2-498b-8ecc-15a67004cff0","system_id":"levelo_inurba_marseille","lat":43.322838,"lon":5.38271,"is_reserved":false,"is_disabled":false,"rental_uris":{"android":"levelo://app?vid=ccd4fbf7-a0c2-498b-8ecc-15a67004cff0","ios":"levelo://app?vid=ccd4fbf7-a0c2-498b-8ecc-15a67004cff0"},"vehicle_type_id":"4","last_reported":1702271259,"current_range_meters":26800,"station_id":"ce4bhr12rcd13ifvqhqg","pricing_plan_id":"free"},{"bike_id":"6ac675f1-e0be-498c-ad2f-b742a949d4b0","system_id":"levelo_inurba_marseille","lat":43.298218,"lon":5.374416,"is_reserved":false,"is_disabled":false,"rental_uris":{"android":"levelo://app?vid=6ac675f1-e0be-498c-ad2f-b742a949d4b0","ios":"levelo://app?vid=6ac675f1-e0be-498c-ad2f-b742a949d4b0"},"vehicle_type_id":"4","last_reported":1702271259,"current_range_meters":0,"station_id":"","pricing_plan_id":"free"},{"bike_id":"945fb992-654d-4bdc-9bfe-c3af1b096f36","system_id":"levelo_inurba_marseille","lat":43.297163,"lon":5.365866,"is_reserved":false,"is_disabled":false,"rental_uris":{"android":"levelo://app?vid=945fb992-654d-4bdc-9bfe-c3af1b096f36","ios":"levelo://app?vid=945fb992-654d-4bdc-9bfe-c3af1b096f36"},"vehicle_type_id":"4","last_reported":1702271259,"current_range_meters":28400,"station_id":"ce4bgn12rcd13ifvqbt0","pricing_plan_id":"free"},{"bike_id":"d77535b3-104a-482d-8636-0bf63ed20a13","system_id":"levelo_inurba_marseille","lat":43.297163,"lon":5.365866,"is_reserved":false,"is_disabled":false,"rental_uris":{"android":"levelo://app?vid=d77535b3-104a-482d-8636-0bf63ed20a13","ios":"levelo://app?vid=d77535b3-104a-482d-8636-0bf63ed20a13"},"vehicle_type_id":"4","last_reported":1702271259,"current_range_meters":26000,"station_id":"ce4bgn12rcd13ifvqbt0","pricing_plan_id":"free"},{"bike_id":"b792329a-4366-4b42-b66a-5449c0472221","system_id":"levelo_inurba_marseille","lat":43.299028,"lon":5.381509,"is_reserved":false,"is_disabled":false,"rental_uris":{"android":"levelo://app?vid=b792329a-4366-4b42-b66a-5449c0472221","ios":"levelo://app?vid=b792329a-4366-4b42-b66a-5449c0472221"},"vehicle_type_id":"4","last_reported":1702271259,"current_range_meters":27600,"station_id":"ce4bgj12rcd13ifvqbc0","pricing_plan_id":"free"},{"bike_id":"03115ad3-f94e-45ac-89a4-ce737b75463b","system_id":"levelo_inurba_marseille","lat":43.299028,"lon":5.381509,"is_reserved":false,"is_disabled":false,"rental_uris":{"android":"levelo://app?vid=03115ad3-f94e-45ac-89a4-ce737b75463b","ios":"levelo://app?vid=03115ad3-f94e-45ac-89a4-ce737b75463b"},"vehicle_type_id":"4","last_reported":1702271259,"current_range_meters":29200,"station_id":"ce4bgj12rcd13ifvqbc0","pricing_plan_id":"free"},{"bike_id":"e71c2018-16ba-45fe-841d-ab2679fa1fe3","system_id":"levelo_inurba_marseille","lat":43.309589,"lon":5.390258,"is_reserved":false,"is_disabled":false,"rental_uris":{"android":"levelo://app?vid=e71c2018-16ba-45fe-841d-ab2679fa1fe3","ios":"levelo://app?vid=e71c2018-16ba-45fe-841d-ab2679fa1fe3"},"vehicle_type_id":"4","last_reported":1702271259,"current_range_meters":30000,"station_id":"ce4bgup2rcd13ifvqco0","pricing_plan_id":"free"},{"bike_id":"380631c6-8dd3-4772-8ae0-fdfc797657c4","system_id":"levelo_inurba_marseille","lat":43.309589,"lon":5.390258,"is_reserved":false,"is_disabled":false,"rental_uris":{"android":"levelo://app?vid=380631c6-8dd3-4772-8ae0-fdfc797657c4","ios":"levelo://app?vid=380631c6-8dd3-4772-8ae0-fdfc797657c4"},"vehicle_type_id":"4","last_reported":1702271259,"current_range_meters":28400,"station_id":"ce4bgup2rcd13ifvqco0","pricing_plan_id":"free"},{"bike_id":"cada5130-7313-45c6-b58c-c61697132b43","system_id":"levelo_inurba_marseille","lat":43.317557,"lon":5.390173,"is_reserved":false,"is_disabled":false,"rental_uris":{"android":"levelo://app?vid=cada5130-7313-45c6-b58c-c61697132b43","ios":"levelo://app?vid=cada5130-7313-45c6-b58c-c61697132b43"},"vehicle_type_id":"4","last_reported":1702271259,"current_range_meters":27600,"station_id":"ce4bhqp2rcd13ifvqhng","pricing_plan_id":"free"},{"bike_id":"629123aa-9fe4-44b7-9a68-a45f23702089","system_id":"levelo_inurba_marseille","lat":43.317557,"lon":5.390173,"is_reserved":false,"is_disabled":false,"rental_uris":{"android":"levelo://app?vid=629123aa-9fe4-44b7-9a68-a45f23702089","ios":"levelo://app?vid=629123aa-9fe4-44b7-9a68-a45f23702089"},"vehicle_type_id":"4","last_reported":1702271259,"current_range_meters":27200,"station_id":"ce4bhqp2rcd13ifvqhng","pricing_plan_id":"free"},{"bike_id":"4c4b6127-2d56-4060-9d05-b77885da3f03","system_id":"levelo_inurba_marseille","lat":43.298037,"lon":5.381066,"is_reserved":false,"is_disabled":false,"rental_uris":{"android":"levelo://app?vid=4c4b6127-2d56-4060-9d05-b77885da3f03","ios":"levelo://app?vid=4c4b6127-2d56-4060-9d05-b77885da3f03"},"vehicle_type_id":"4","last_reported":1702271259,"current_range_meters":30400,"station_id":"ce4bgip2rcd13ifvqbb0","pricing_plan_id":"free"},{"bike_id":"6ffddd1f-039e-4194-afaf-336c113e9029","system_id":"levelo_inurba_marseille","lat":43.292749,"lon":5.368402,"is_reserved":false,"is_disabled":false,"rental_uris":{"android":"levelo://app?vid=6ffddd1f-039e-4194-afaf-336c113e9029","ios":"levelo://app?vid=6ffddd1f-039e-4194-afaf-336c113e9029"},"vehicle_type_id":"4","last_reported":1702271259,"current_range_meters":28000,"station_id":"ce4bhbp2rcd13ifvqesg","pricing_plan_id":"free"},{"bike_id":"12ebc72c-e0a2-4d2f-a1fb-49ca841c956c","system_id":"levelo_inurba_marseille","lat":43.309038,"lon":5.396546,"is_reserved":false,"is_disabled":false,"rental_uris":{"android":"levelo://app?vid=12ebc72c-e0a2-4d2f-a1fb-49ca841c956c","ios":"levelo://app?vid=12ebc72c-e0a2-4d2f-a1fb-49ca841c956c"},"vehicle_type_id":"4","last_reported":1702271259,"current_range_meters":28400,"station_id":"ce4bh012rcd13ifvqcv0","pricing_plan_id":"free"},{"bike_id":"fbcc3e80-89c8-4aed-b22f-293feb3422bb","system_id":"levelo_inurba_marseille","lat":43.309047,"lon":5.396551,"is_reserved":false,"is_disabled":false,"rental_uris":{"android":"levelo://app?vid=fbcc3e80-89c8-4aed-b22f-293feb3422bb","ios":"levelo://app?vid=fbcc3e80-89c8-4aed-b22f-293feb3422bb"},"vehicle_type_id":"4","last_reported":1702271259,"current_range_meters":30000,"station_id":"ce4bh012rcd13ifvqcv0","pricing_plan_id":"free"},{"bike_id":"b4a598f5-6a01-4018-880e-53d3f86bdc05","system_id":"levelo_inurba_marseille","lat":43.313291,"lon":5.396838,"is_reserved":false,"is_disabled":false,"rental_uris":{"android":"levelo://app?vid=b4a598f5-6a01-4018-880e-53d3f86bdc05","ios":"levelo://app?vid=b4a598f5-6a01-4018-880e-53d3f86bdc05"},"vehicle_type_id":"4","last_reported":1702271259,"current_range_meters":13200,"station_id":"ce4bgvp2rcd13ifvqcu0","pricing_plan_id":"free"},{"bike_id":"16173682-5ba0-4996-98ec-a700dff66a19","system_id":"levelo_inurba_marseille","lat":43.2954,"lon":5.38539,"is_reserved":false,"is_disabled":false,"rental_uris":{"android":"levelo://app?vid=16173682-5ba0-4996-98ec-a700dff66a19","ios":"levelo://app?vid=16173682-5ba0-4996-98ec-a700dff66a19"},"vehicle_type_id":"4","last_reported":1702271259,"current_range_meters":31200,"station_id":"ce4bgih2rcd13ifvqba0","pricing_plan_id":"free"},{"bike_id":"32e16bbb-6597-40cb-8408-7068d67e82ac","system_id":"levelo_inurba_marseille","lat":43.290631,"lon":5.359244,"is_reserved":false,"is_disabled":false,"rental_uris":{"android":"levelo://app?vid=32e16bbb-6597-40cb-8408-7068d67e82ac","ios":"levelo://app?vid=32e16bbb-6597-40cb-8408-7068d67e82ac"},"vehicle_type_id":"4","last_reported":1702271259,"current_range_meters":28400,"station_id":"ce4bha92rcd13ifvqeg0","pricing_plan_id":"free"},{"bike_id":"315706a4-714f-4d79-93ff-92a8fa736676","system_id":"levelo_inurba_marseille","lat":43.294153,"lon":5.386305,"is_reserved":false,"is_disabled":false,"rental_uris":{"android":"levelo://app?vid=315706a4-714f-4d79-93ff-92a8fa736676","ios":"levelo://app?vid=315706a4-714f-4d79-93ff-92a8fa736676"},"vehicle_type_id":"4","last_reported":1702271259,"current_range_meters":5200,"station_id":"ce4bh2h2rcd13ifvqdh0","pricing_plan_id":"free"},{"bike_id":"e3ad2d5e-bc42-40e6-baeb-12daeb8c0198","system_id":"levelo_inurba_marseille","lat":43.289468,"lon":5.363719,"is_reserved":false,"is_disabled":false,"rental_uris":{"android":"levelo://app?vid=e3ad2d5e-bc42-40e6-baeb-12daeb8c0198","ios":"levelo://app?vid=e3ad2d5e-bc42-40e6-baeb-12daeb8c0198"},"vehicle_type_id":"4","last_reported":1702271259,"current_range_meters":23600,"station_id":"ce4bhc92rcd13ifvqetg","pricing_plan_id":"free"},{"bike_id":"a02a1b20-1fb1-4951-988a-77389649024d","system_id":"levelo_inurba_marseille","lat":43.289259,"lon":5.366364,"is_reserved":false,"is_disabled":false,"rental_uris":{"android":"levelo://app?vid=a02a1b20-1fb1-4951-988a-77389649024d","ios":"levelo://app?vid=a02a1b20-1fb1-4951-988a-77389649024d"},"vehicle_type_id":"4","last_reported":1702271259,"current_range_meters":5600,"station_id":"","pricing_plan_id":"free"},{"bike_id":"52160bde-ad29-4e08-a4ea-5ee9ef0ad3b3","system_id":"levelo_inurba_marseille","lat":43.304274,"lon":5.397513,"is_reserved":false,"is_disabled":false,"rental_uris":{"android":"levelo://app?vid=52160bde-ad29-4e08-a4ea-5ee9ef0ad3b3","ios":"levelo://app?vid=52160bde-ad29-4e08-a4ea-5ee9ef0ad3b3"},"vehicle_type_id":"4","last_reported":1702271259,"current_range_meters":26800,"station_id":"ce4bh092rcd13ifvqd20","pricing_plan_id":"free"},{"bike_id":"52d50955-a0ca-4d5b-9ac6-a7dada647e85","system_id":"levelo_inurba_marseille","lat":43.290104,"lon":5.356111,"is_reserved":false,"is_disabled":false,"rental_uris":{"android":"levelo://app?vid=52d50955-a0ca-4d5b-9ac6-a7dada647e85","ios":"levelo://app?vid=52d50955-a0ca-4d5b-9ac6-a7dada647e85"},"vehicle_type_id":"4","last_reported":1702271259,"current_range_meters":28000,"station_id":"ce4bhb92rcd13ifvqen0","pricing_plan_id":"free"},{"bike_id":"42175c28-c6b2-4f29-bfac-96684ae830f1","system_id":"levelo_inurba_marseille","lat":43.295169,"lon":5.390426,"is_reserved":false,"is_disabled":false,"rental_uris":{"android":"levelo://app?vid=42175c28-c6b2-4f29-bfac-96684ae830f1","ios":"levelo://app?vid=42175c28-c6b2-4f29-bfac-96684ae830f1"},"vehicle_type_id":"4","last_reported":1702271259,"current_range_meters":28400,"station_id":"ce4bh3p2rcd13ifvqdp0","pricing_plan_id":"free"},{"bike_id":"6a69dd9e-324b-490e-b11c-fba43028c422","system_id":"levelo_inurba_marseille","lat":43.290094,"lon":5.381264,"is_reserved":false,"is_disabled":false,"rental_uris":{"android":"levelo://app?vid=6a69dd9e-324b-490e-b11c-fba43028c422","ios":"levelo://app?vid=6a69dd9e-324b-490e-b11c-fba43028c422"},"vehicle_type_id":"4","last_reported":1702271259,"current_range_meters":29200,"station_id":"ce4bh4p2rcd13ifvqe1g","pricing_plan_id":"free"},{"bike_id":"b623ad88-49c7-4474-9697-f348f49323a7","system_id":"levelo_inurba_marseille","lat":43.28856,"lon":5.358371,"is_reserved":false,"is_disabled":false,"rental_uris":{"android":"levelo://app?vid=b623ad88-49c7-4474-9697-f348f49323a7","ios":"levelo://app?vid=b623ad88-49c7-4474-9697-f348f49323a7"},"vehicle_type_id":"4","last_reported":1702271259,"current_range_meters":12800,"station_id":"ce4bhb12rcd13ifvqem0","pricing_plan_id":"free"},{"bike_id":"3a4267ec-eb56-4d43-82a1-817967632c68","system_id":"levelo_inurba_marseille","lat":43.28856,"lon":5.358371,"is_reserved":false,"is_disabled":false,"rental_uris":{"android":"levelo://app?vid=3a4267ec-eb56-4d43-82a1-817967632c68","ios":"levelo://app?vid=3a4267ec-eb56-4d43-82a1-817967632c68"},"vehicle_type_id":"4","last_reported":1702271259,"current_range_meters":20800,"station_id":"ce4bhb12rcd13ifvqem0","pricing_plan_id":"free"},{"bike_id":"7d9d6c3c-f393-47c7-b4fb-2322938a2bc5","system_id":"levelo_inurba_marseille","lat":43.28856,"lon":5.358371,"is_reserved":false,"is_disabled":false,"rental_uris":{"android":"levelo://app?vid=7d9d6c3c-f393-47c7-b4fb-2322938a2bc5","ios":"levelo://app?vid=7d9d6c3c-f393-47c7-b4fb-2322938a2bc5"},"vehicle_type_id":"4","last_reported":1702271259,"current_range_meters":30400,"station_id":"ce4bhb12rcd13ifvqem0","pricing_plan_id":"free"},{"bike_id":"3029d384-ef05-4792-939c-f5589c8f6ba3","system_id":"levelo_inurba_marseille","lat":43.288455,"lon":5.358334,"is_reserved":false,"is_disabled":false,"rental_uris":{"android":"levelo://app?vid=3029d384-ef05-4792-939c-f5589c8f6ba3","ios":"levelo://app?vid=3029d384-ef05-4792-939c-f5589c8f6ba3"},"vehicle_type_id":"4","last_reported":1702271259,"current_range_meters":29200,"station_id":"ce4bhb12rcd13ifvqem0","pricing_plan_id":"free"},{"bike_id":"c0cf6a13-f3e5-45f0-82db-cbe9288118a1","system_id":"levelo_inurba_marseille","lat":43.309338,"lon":5.401417,"is_reserved":false,"is_disabled":false,"rental_uris":{"android":"levelo://app?vid=c0cf6a13-f3e5-45f0-82db-cbe9288118a1","ios":"levelo://app?vid=c0cf6a13-f3e5-45f0-82db-cbe9288118a1"},"vehicle_type_id":"4","last_reported":1702271259,"current_range_meters":18400,"station_id":"ce4bgvp2rcd13ifvqct0","pricing_plan_id":"free"},{"bike_id":"e739535b-1c8f-413d-8c64-3d79e7eec33b","system_id":"levelo_inurba_marseille","lat":43.309371,"lon":5.401449,"is_reserved":false,"is_disabled":false,"rental_uris":{"android":"levelo://app?vid=e739535b-1c8f-413d-8c64-3d79e7eec33b","ios":"levelo://app?vid=e739535b-1c8f-413d-8c64-3d79e7eec33b"},"vehicle_type_id":"4","last_reported":1702271259,"current_range_meters":12800,"station_id":"ce4bgvp2rcd13ifvqct0","pricing_plan_id":"free"},{"bike_id":"d9b59a5b-0312-4cb7-8973-b5342d7cd3ac","system_id":"levelo_inurba_marseille","lat":43.309371,"lon":5.401449,"is_reserved":false,"is_disabled":false,"rental_uris":{"android":"levelo://app?vid=d9b59a5b-0312-4cb7-8973-b5342d7cd3ac","ios":"levelo://app?vid=d9b59a5b-0312-4cb7-8973-b5342d7cd3ac"},"vehicle_type_id":"4","last_reported":1702271259,"current_range_meters":22000,"station_id":"ce4bgvp2rcd13ifvqct0","pricing_plan_id":"free"},{"bike_id":"40bfb6ea-a755-4340-9f8b-331b4befd4a8","system_id":"levelo_inurba_marseille","lat":43.309371,"lon":5.401449,"is_reserved":false,"is_disabled":false,"rental_uris":{"android":"levelo://app?vid=40bfb6ea-a755-4340-9f8b-331b4befd4a8","ios":"levelo://app?vid=40bfb6ea-a755-4340-9f8b-331b4befd4a8"},"vehicle_type_id":"4","last_reported":1702271259,"current_range_meters":12400,"station_id":"ce4bgvp2rcd13ifvqct0","pricing_plan_id":"free"},{"bike_id":"a0388d4a-84e7-4cff-ade4-f43d3617dbe7","system_id":"levelo_inurba_marseille","lat":43.309371,"lon":5.401449,"is_reserved":false,"is_disabled":false,"rental_uris":{"android":"levelo://app?vid=a0388d4a-84e7-4cff-ade4-f43d3617dbe7","ios":"levelo://app?vid=a0388d4a-84e7-4cff-ade4-f43d3617dbe7"},"vehicle_type_id":"4","last_reported":1702271259,"current_range_meters":23600,"station_id":"ce4bgvp2rcd13ifvqct0","pricing_plan_id":"free"},{"bike_id":"a1b7e675-1fbd-4587-a6f2-26ec9a74ce8e","system_id":"levelo_inurba_marseille","lat":43.28727,"lon":5.36078,"is_reserved":false,"is_disabled":false,"rental_uris":{"android":"levelo://app?vid=a1b7e675-1fbd-4587-a6f2-26ec9a74ce8e","ios":"levelo://app?vid=a1b7e675-1fbd-4587-a6f2-26ec9a74ce8e"},"vehicle_type_id":"4","last_reported":1702271259,"current_range_meters":29600,"station_id":"cki0cbj6b192h4jlfktg","pricing_plan_id":"free"},{"bike_id":"75c92b3f-a2cc-438c-b8dc-8fb28761734d","system_id":"levelo_inurba_marseille","lat":43.28727,"lon":5.36078,"is_reserved":false,"is_disabled":false,"rental_uris":{"android":"levelo://app?vid=75c92b3f-a2cc-438c-b8dc-8fb28761734d","ios":"levelo://app?vid=75c92b3f-a2cc-438c-b8dc-8fb28761734d"},"vehicle_type_id":"4","last_reported":1702271259,"current_range_meters":30400,"station_id":"cki0cbj6b192h4jlfktg","pricing_plan_id":"free"},{"bike_id":"ec895315-dc2d-4277-ac24-20c29d74b8d9","system_id":"levelo_inurba_marseille","lat":43.28727,"lon":5.36078,"is_reserved":false,"is_disabled":false,"rental_uris":{"android":"levelo://app?vid=ec895315-dc2d-4277-ac24-20c29d74b8d9","ios":"levelo://app?vid=ec895315-dc2d-4277-ac24-20c29d74b8d9"},"vehicle_type_id":"4","last_reported":1702271259,"current_range_meters":27600,"station_id":"cki0cbj6b192h4jlfktg","pricing_plan_id":"free"},{"bike_id":"b83fd9fc-ecdf-4c7d-8f06-bc7c83d6cf1e","system_id":"levelo_inurba_marseille","lat":43.28727,"lon":5.36078,"is_reserved":false,"is_disabled":false,"rental_uris":{"android":"levelo://app?vid=b83fd9fc-ecdf-4c7d-8f06-bc7c83d6cf1e","ios":"levelo://app?vid=b83fd9fc-ecdf-4c7d-8f06-bc7c83d6cf1e"},"vehicle_type_id":"4","last_reported":1702271259,"current_range_meters":31600,"station_id":"cki0cbj6b192h4jlfktg","pricing_plan_id":"free"},{"bike_id":"63527120-e3d7-46d5-ba0a-bfb4393a94c9","system_id":"levelo_inurba_marseille","lat":43.28727,"lon":5.36078,"is_reserved":false,"is_disabled":false,"rental_uris":{"android":"levelo://app?vid=63527120-e3d7-46d5-ba0a-bfb4393a94c9","ios":"levelo://app?vid=63527120-e3d7-46d5-ba0a-bfb4393a94c9"},"vehicle_type_id":"4","last_reported":1702271259,"current_range_meters":24000,"station_id":"cki0cbj6b192h4jlfktg","pricing_plan_id":"free"},{"bike_id":"743c9578-b8f3-4e30-9547-3f47d37efa14","system_id":"levelo_inurba_marseille","lat":43.286591,"lon":5.363346,"is_reserved":false,"is_disabled":false,"rental_uris":{"android":"levelo://app?vid=743c9578-b8f3-4e30-9547-3f47d37efa14","ios":"levelo://app?vid=743c9578-b8f3-4e30-9547-3f47d37efa14"},"vehicle_type_id":"4","last_reported":1702271259,"current_range_meters":31600,"station_id":"ce4bhah2rcd13ifvqej0","pricing_plan_id":"free"},{"bike_id":"55be7eba-580f-41fd-929c-d901781e9cbd","system_id":"levelo_inurba_marseille","lat":43.286591,"lon":5.363346,"is_reserved":false,"is_disabled":false,"rental_uris":{"android":"levelo://app?vid=55be7eba-580f-41fd-929c-d901781e9cbd","ios":"levelo://app?vid=55be7eba-580f-41fd-929c-d901781e9cbd"},"vehicle_type_id":"4","last_reported":1702271259,"current_range_meters":10400,"station_id":"ce4bhah2rcd13ifvqej0","pricing_plan_id":"free"},{"bike_id":"93969e87-34f8-4e80-b564-cb7598527d8d","system_id":"levelo_inurba_marseille","lat":43.286593,"lon":5.363346,"is_reserved":false,"is_disabled":false,"rental_uris":{"android":"levelo://app?vid=93969e87-34f8-4e80-b564-cb7598527d8d","ios":"levelo://app?vid=93969e87-34f8-4e80-b564-cb7598527d8d"},"vehicle_type_id":"4","last_reported":1702271259,"current_range_meters":28000,"station_id":"ce4bhah2rcd13ifvqej0","pricing_plan_id":"free"},{"bike_id":"b31feb84-e679-4bdb-8aef-bca068e60829","system_id":"levelo_inurba_marseille","lat":43.3169,"lon":5.40466,"is_reserved":false,"is_disabled":false,"rental_uris":{"android":"levelo://app?vid=b31feb84-e679-4bdb-8aef-bca068e60829","ios":"levelo://app?vid=b31feb84-e679-4bdb-8aef-bca068e60829"},"vehicle_type_id":"4","last_reported":1702271259,"current_range_meters":6800,"station_id":"ce4bh012rcd13ifvqd00","pricing_plan_id":"free"},{"bike_id":"c9bdfd9d-659c-41a7-9d9b-4c86251ef96c","system_id":"levelo_inurba_marseille","lat":43.284675,"lon":5.358825,"is_reserved":false,"is_disabled":false,"rental_uris":{"android":"levelo://app?vid=c9bdfd9d-659c-41a7-9d9b-4c86251ef96c","ios":"levelo://app?vid=c9bdfd9d-659c-41a7-9d9b-4c86251ef96c"},"vehicle_type_id":"4","last_reported":1702271259,"current_range_meters":17600,"station_id":"ce4bhah2rcd13ifvqei0","pricing_plan_id":"free"},{"bike_id":"a864b496-4175-421d-a32b-6c3b511474cb","system_id":"levelo_inurba_marseille","lat":43.284633,"lon":5.358963,"is_reserved":false,"is_disabled":false,"rental_uris":{"android":"levelo://app?vid=a864b496-4175-421d-a32b-6c3b511474cb","ios":"levelo://app?vid=a864b496-4175-421d-a32b-6c3b511474cb"},"vehicle_type_id":"4","last_reported":1702271259,"current_range_meters":19200,"station_id":"ce4bhah2rcd13ifvqei0","pricing_plan_id":"free"},{"bike_id":"1fe7dae6-be01-4e96-9800-a99a19bfe32c","system_id":"levelo_inurba_marseille","lat":43.2846,"lon":5.35898,"is_reserved":false,"is_disabled":false,"rental_uris":{"android":"levelo://app?vid=1fe7dae6-be01-4e96-9800-a99a19bfe32c","ios":"levelo://app?vid=1fe7dae6-be01-4e96-9800-a99a19bfe32c"},"vehicle_type_id":"4","last_reported":1702271259,"current_range_meters":20400,"station_id":"ce4bhah2rcd13ifvqei0","pricing_plan_id":"free"},{"bike_id":"407293e1-3a88-41e1-af44-9ca5448b3884","system_id":"levelo_inurba_marseille","lat":43.284587,"lon":5.358991,"is_reserved":false,"is_disabled":false,"rental_uris":{"android":"levelo://app?vid=407293e1-3a88-41e1-af44-9ca5448b3884","ios":"levelo://app?vid=407293e1-3a88-41e1-af44-9ca5448b3884"},"vehicle_type_id":"4","last_reported":1702271259,"current_range_meters":26400,"station_id":"ce4bhah2rcd13ifvqei0","pricing_plan_id":"free"},{"bike_id":"54eca29a-728b-41f2-b50a-77a0d433362e","system_id":"levelo_inurba_marseille","lat":43.28459,"lon":5.35893,"is_reserved":false,"is_disabled":false,"rental_uris":{"android":"levelo://app?vid=54eca29a-728b-41f2-b50a-77a0d433362e","ios":"levelo://app?vid=54eca29a-728b-41f2-b50a-77a0d433362e"},"vehicle_type_id":"4","last_reported":1702271259,"current_range_meters":17600,"station_id":"ce4bhah2rcd13ifvqei0","pricing_plan_id":"free"},{"bike_id":"25abb136-3c34-4966-a7ae-66a1e6ac7379","system_id":"levelo_inurba_marseille","lat":43.28459,"lon":5.358898,"is_reserved":false,"is_disabled":false,"rental_uris":{"android":"levelo://app?vid=25abb136-3c34-4966-a7ae-66a1e6ac7379","ios":"levelo://app?vid=25abb136-3c34-4966-a7ae-66a1e6ac7379"},"vehicle_type_id":"4","last_reported":1702271259,"current_range_meters":15200,"station_id":"ce4bhah2rcd13ifvqei0","pricing_plan_id":"free"},{"bike_id":"119ee8e3-fa65-44d6-bb3b-11d0d77085d3","system_id":"levelo_inurba_marseille","lat":43.28459,"lon":5.35887,"is_reserved":false,"is_disabled":false,"rental_uris":{"android":"levelo://app?vid=119ee8e3-fa65-44d6-bb3b-11d0d77085d3","ios":"levelo://app?vid=119ee8e3-fa65-44d6-bb3b-11d0d77085d3"},"vehicle_type_id":"4","last_reported":1702271259,"current_range_meters":16000,"station_id":"ce4bhah2rcd13ifvqei0","pricing_plan_id":"free"},{"bike_id":"60b617c5-8f02-4adb-9a2f-24405c0aa746","system_id":"levelo_inurba_marseille","lat":43.286206,"lon":5.350986,"is_reserved":false,"is_disabled":false,"rental_uris":{"android":"levelo://app?vid=60b617c5-8f02-4adb-9a2f-24405c0aa746","ios":"levelo://app?vid=60b617c5-8f02-4adb-9a2f-24405c0aa746"},"vehicle_type_id":"4","last_reported":1702271259,"current_range_meters":31200,"station_id":"ce4bhch2rcd13ifvqeug","pricing_plan_id":"free"},{"bike_id":"14b8c816-28a1-491c-86e6-c6bcdcd843d4","system_id":"levelo_inurba_marseille","lat":43.285856,"lon":5.350771,"is_reserved":false,"is_disabled":false,"rental_uris":{"android":"levelo://app?vid=14b8c816-28a1-491c-86e6-c6bcdcd843d4","ios":"levelo://app?vid=14b8c816-28a1-491c-86e6-c6bcdcd843d4"},"vehicle_type_id":"4","last_reported":1702271259,"current_range_meters":20400,"station_id":"ce4bhch2rcd13ifvqeug","pricing_plan_id":"free"},{"bike_id":"3dc40868-bb4e-4c99-8d4f-ba3ab3114a97","system_id":"levelo_inurba_marseille","lat":43.284054,"lon":5.375146,"is_reserved":false,"is_disabled":false,"rental_uris":{"android":"levelo://app?vid=3dc40868-bb4e-4c99-8d4f-ba3ab3114a97","ios":"levelo://app?vid=3dc40868-bb4e-4c99-8d4f-ba3ab3114a97"},"vehicle_type_id":"4","last_reported":1702271259,"current_range_meters":19600,"station_id":"ce4bh412rcd13ifvqds0","pricing_plan_id":"free"},{"bike_id":"0111ccfb-1d70-4e92-9a7a-cc2bba0b64ad","system_id":"levelo_inurba_marseille","lat":43.323464,"lon":5.406297,"is_reserved":false,"is_disabled":false,"rental_uris":{"android":"levelo://app?vid=0111ccfb-1d70-4e92-9a7a-cc2bba0b64ad","ios":"levelo://app?vid=0111ccfb-1d70-4e92-9a7a-cc2bba0b64ad"},"vehicle_type_id":"4","last_reported":1702271259,"current_range_meters":31200,"station_id":"ce4bhq92rcd13ifvqhjg","pricing_plan_id":"free"},{"bike_id":"7a028045-af2a-4bfd-b24b-fc983ede95c9","system_id":"levelo_inurba_marseille","lat":43.323464,"lon":5.406297,"is_reserved":false,"is_disabled":false,"rental_uris":{"android":"levelo://app?vid=7a028045-af2a-4bfd-b24b-fc983ede95c9","ios":"levelo://app?vid=7a028045-af2a-4bfd-b24b-fc983ede95c9"},"vehicle_type_id":"4","last_reported":1702271259,"current_range_meters":22400,"station_id":"ce4bhq92rcd13ifvqhjg","pricing_plan_id":"free"},{"bike_id":"e8b9d767-1294-468f-9b9a-f156850ad894","system_id":"levelo_inurba_marseille","lat":43.297946,"lon":5.404063,"is_reserved":false,"is_disabled":false,"rental_uris":{"android":"levelo://app?vid=e8b9d767-1294-468f-9b9a-f156850ad894","ios":"levelo://app?vid=e8b9d767-1294-468f-9b9a-f156850ad894"},"vehicle_type_id":"4","last_reported":1702271259,"current_range_meters":29600,"station_id":"ce4bh112rcd13ifvqd90","pricing_plan_id":"free"},{"bike_id":"1483aa38-d657-4455-bc63-a5004ae94d16","system_id":"levelo_inurba_marseille","lat":43.284211,"lon":5.349878,"is_reserved":false,"is_disabled":false,"rental_uris":{"android":"levelo://app?vid=1483aa38-d657-4455-bc63-a5004ae94d16","ios":"levelo://app?vid=1483aa38-d657-4455-bc63-a5004ae94d16"},"vehicle_type_id":"4","last_reported":1702271259,"current_range_meters":20400,"station_id":"ce4bhbh2rcd13ifvqepg","pricing_plan_id":"free"},{"bike_id":"5848ae1c-f312-4748-be87-165299ef1411","system_id":"levelo_inurba_marseille","lat":43.282744,"lon":5.350533,"is_reserved":false,"is_disabled":false,"rental_uris":{"android":"levelo://app?vid=5848ae1c-f312-4748-be87-165299ef1411","ios":"levelo://app?vid=5848ae1c-f312-4748-be87-165299ef1411"},"vehicle_type_id":"4","last_reported":1702271259,"current_range_meters":30800,"station_id":"ce4bhbp2rcd13ifvqerg","pricing_plan_id":"free"},{"bike_id":"48a4d9fe-fdc0-4cd0-9ac0-baf0bd45d62b","system_id":"levelo_inurba_marseille","lat":43.280355,"lon":5.369362,"is_reserved":false,"is_disabled":false,"rental_uris":{"android":"levelo://app?vid=48a4d9fe-fdc0-4cd0-9ac0-baf0bd45d62b","ios":"levelo://app?vid=48a4d9fe-fdc0-4cd0-9ac0-baf0bd45d62b"},"vehicle_type_id":"4","last_reported":1702271259,"current_range_meters":30800,"station_id":"ce4bha12rcd13ifvqef0","pricing_plan_id":"free"},{"bike_id":"e8283e32-0f72-4c0c-8971-84e756137b42","system_id":"levelo_inurba_marseille","lat":43.28028,"lon":5.36941,"is_reserved":false,"is_disabled":false,"rental_uris":{"android":"levelo://app?vid=e8283e32-0f72-4c0c-8971-84e756137b42","ios":"levelo://app?vid=e8283e32-0f72-4c0c-8971-84e756137b42"},"vehicle_type_id":"4","last_reported":1702271259,"current_range_meters":24400,"station_id":"ce4bha12rcd13ifvqef0","pricing_plan_id":"free"},{"bike_id":"c32a7dff-57d8-4ad9-a109-92e09c26abab","system_id":"levelo_inurba_marseille","lat":43.296263,"lon":5.40601,"is_reserved":false,"is_disabled":false,"rental_uris":{"android":"levelo://app?vid=c32a7dff-57d8-4ad9-a109-92e09c26abab","ios":"levelo://app?vid=c32a7dff-57d8-4ad9-a109-92e09c26abab"},"vehicle_type_id":"4","last_reported":1702271259,"current_range_meters":18800,"station_id":"ce4bh0h2rcd13ifvqd60","pricing_plan_id":"free"},{"bike_id":"8571f7a1-b6a9-47ec-9eb2-ca6ffbc1abcd","system_id":"levelo_inurba_marseille","lat":43.304188,"lon":5.412904,"is_reserved":false,"is_disabled":false,"rental_uris":{"android":"levelo://app?vid=8571f7a1-b6a9-47ec-9eb2-ca6ffbc1abcd","ios":"levelo://app?vid=8571f7a1-b6a9-47ec-9eb2-ca6ffbc1abcd"},"vehicle_type_id":"4","last_reported":1702271259,"current_range_meters":31200,"station_id":"ce4bhop2rcd13ifvqh8g","pricing_plan_id":"free"},{"bike_id":"6da20e4a-29d3-46f6-9d42-34f66f2f25f0","system_id":"levelo_inurba_marseille","lat":43.299577,"lon":5.413277,"is_reserved":false,"is_disabled":false,"rental_uris":{"android":"levelo://app?vid=6da20e4a-29d3-46f6-9d42-34f66f2f25f0","ios":"levelo://app?vid=6da20e4a-29d3-46f6-9d42-34f66f2f25f0"},"vehicle_type_id":"4","last_reported":1702271259,"current_range_meters":28800,"station_id":"ce4bhp12rcd13ifvqh9g","pricing_plan_id":"free"},{"bike_id":"b755b32e-10b7-4584-895f-e73181e8826f","system_id":"levelo_inurba_marseille","lat":43.292493,"lon":5.409165,"is_reserved":false,"is_disabled":false,"rental_uris":{"android":"levelo://app?vid=b755b32e-10b7-4584-895f-e73181e8826f","ios":"levelo://app?vid=b755b32e-10b7-4584-895f-e73181e8826f"},"vehicle_type_id":"4","last_reported":1702271259,"current_range_meters":16800,"station_id":"ce4bh192rcd13ifvqdc0","pricing_plan_id":"free"},{"bike_id":"8408d889-2f0c-4697-bdc2-9cc8090c15c4","system_id":"levelo_inurba_marseille","lat":43.280784,"lon":5.396622,"is_reserved":false,"is_disabled":false,"rental_uris":{"android":"levelo://app?vid=8408d889-2f0c-4697-bdc2-9cc8090c15c4","ios":"levelo://app?vid=8408d889-2f0c-4697-bdc2-9cc8090c15c4"},"vehicle_type_id":"4","last_reported":1702271259,"current_range_meters":28000,"station_id":"ce4bho12rcd13ifvqh2g","pricing_plan_id":"free"},{"bike_id":"e63c0455-8e8c-4395-b9d3-a935f1e93a70","system_id":"levelo_inurba_marseille","lat":43.303837,"lon":5.418724,"is_reserved":false,"is_disabled":false,"rental_uris":{"android":"levelo://app?vid=e63c0455-8e8c-4395-b9d3-a935f1e93a70","ios":"levelo://app?vid=e63c0455-8e8c-4395-b9d3-a935f1e93a70"},"vehicle_type_id":"4","last_reported":1702271259,"current_range_meters":28000,"station_id":"ce4bhop2rcd13ifvqh7g","pricing_plan_id":"free"},{"bike_id":"dcd2beb6-6943-46d7-a576-53bfebf14e30","system_id":"levelo_inurba_marseille","lat":43.278401,"lon":5.392152,"is_reserved":false,"is_disabled":false,"rental_uris":{"android":"levelo://app?vid=dcd2beb6-6943-46d7-a576-53bfebf14e30","ios":"levelo://app?vid=dcd2beb6-6943-46d7-a576-53bfebf14e30"},"vehicle_type_id":"4","last_reported":1702271259,"current_range_meters":30000,"station_id":"ce4bhjp2rcd13ifvqga0","pricing_plan_id":"free"},{"bike_id":"e7a79bd6-aec9-44dd-93de-6a9ecbe27c56","system_id":"levelo_inurba_marseille","lat":43.278399,"lon":5.392139,"is_reserved":false,"is_disabled":false,"rental_uris":{"android":"levelo://app?vid=e7a79bd6-aec9-44dd-93de-6a9ecbe27c56","ios":"levelo://app?vid=e7a79bd6-aec9-44dd-93de-6a9ecbe27c56"},"vehicle_type_id":"4","last_reported":1702271259,"current_range_meters":27200,"station_id":"ce4bhjp2rcd13ifvqga0","pricing_plan_id":"free"},{"bike_id":"1a2323a3-432a-41e1-b879-996f7d0dc72a","system_id":"levelo_inurba_marseille","lat":43.275625,"lon":5.384392,"is_reserved":false,"is_disabled":false,"rental_uris":{"android":"levelo://app?vid=1a2323a3-432a-41e1-b879-996f7d0dc72a","ios":"levelo://app?vid=1a2323a3-432a-41e1-b879-996f7d0dc72a"},"vehicle_type_id":"4","last_reported":1702271259,"current_range_meters":26000,"station_id":"ce4bhh92rcd13ifvqfi0","pricing_plan_id":"free"},{"bike_id":"5a5c8e12-d235-488d-9d83-7d0ff7adebb6","system_id":"levelo_inurba_marseille","lat":43.336134,"lon":5.410341,"is_reserved":false,"is_disabled":false,"rental_uris":{"android":"levelo://app?vid=5a5c8e12-d235-488d-9d83-7d0ff7adebb6","ios":"levelo://app?vid=5a5c8e12-d235-488d-9d83-7d0ff7adebb6"},"vehicle_type_id":"4","last_reported":1702271259,"current_range_meters":20800,"station_id":"ce4bhqh2rcd13ifvqhmg","pricing_plan_id":"free"},{"bike_id":"ec4381a5-baef-4627-a513-8892cae9668c","system_id":"levelo_inurba_marseille","lat":43.276771,"lon":5.388799,"is_reserved":false,"is_disabled":false,"rental_uris":{"android":"levelo://app?vid=ec4381a5-baef-4627-a513-8892cae9668c","ios":"levelo://app?vid=ec4381a5-baef-4627-a513-8892cae9668c"},"vehicle_type_id":"4","last_reported":1702271259,"current_range_meters":10400,"station_id":"ce4bhi12rcd13ifvqfo0","pricing_plan_id":"free"},{"bike_id":"b49195d1-5252-4b63-9ddd-c39017071e00","system_id":"levelo_inurba_marseille","lat":43.27639,"lon":5.39485,"is_reserved":false,"is_disabled":false,"rental_uris":{"android":"levelo://app?vid=b49195d1-5252-4b63-9ddd-c39017071e00","ios":"levelo://app?vid=b49195d1-5252-4b63-9ddd-c39017071e00"},"vehicle_type_id":"4","last_reported":1702271259,"current_range_meters":14800,"station_id":"","pricing_plan_id":"free"},{"bike_id":"63133364-316e-458e-b234-bbd4926c63fc","system_id":"levelo_inurba_marseille","lat":43.27583,"lon":5.39474,"is_reserved":false,"is_disabled":false,"rental_uris":{"android":"levelo://app?vid=63133364-316e-458e-b234-bbd4926c63fc","ios":"levelo://app?vid=63133364-316e-458e-b234-bbd4926c63fc"},"vehicle_type_id":"4","last_reported":1702271259,"current_range_meters":1200,"station_id":"","pricing_plan_id":"free"},{"bike_id":"333ea7a5-e528-4395-aad6-49ba718c25fe","system_id":"levelo_inurba_marseille","lat":43.304096,"lon":5.425385,"is_reserved":false,"is_disabled":false,"rental_uris":{"android":"levelo://app?vid=333ea7a5-e528-4395-aad6-49ba718c25fe","ios":"levelo://app?vid=333ea7a5-e528-4395-aad6-49ba718c25fe"},"vehicle_type_id":"4","last_reported":1702271259,"current_range_meters":26000,"station_id":"ce4bhoh2rcd13ifvqh6g","pricing_plan_id":"free"},{"bike_id":"2cdf283f-f8d3-435d-89b3-839fae39dbea","system_id":"levelo_inurba_marseille","lat":43.295557,"lon":5.422883,"is_reserved":false,"is_disabled":false,"rental_uris":{"android":"levelo://app?vid=2cdf283f-f8d3-435d-89b3-839fae39dbea","ios":"levelo://app?vid=2cdf283f-f8d3-435d-89b3-839fae39dbea"},"vehicle_type_id":"4","last_reported":1702271259,"current_range_meters":29600,"station_id":"ce4bhph2rcd13ifvqhdg","pricing_plan_id":"free"},{"bike_id":"b97b56e0-6c5f-4636-9523-78734a8d3e3e","system_id":"levelo_inurba_marseille","lat":43.278128,"lon":5.407195,"is_reserved":false,"is_disabled":false,"rental_uris":{"android":"levelo://app?vid=b97b56e0-6c5f-4636-9523-78734a8d3e3e","ios":"levelo://app?vid=b97b56e0-6c5f-4636-9523-78734a8d3e3e"},"vehicle_type_id":"4","last_reported":1702271259,"current_range_meters":28800,"station_id":"ce4bhnh2rcd13ifvqgtg","pricing_plan_id":"free"},{"bike_id":"c9225839-caef-40ac-93f3-9cdfd57ce31a","system_id":"levelo_inurba_marseille","lat":43.278128,"lon":5.407195,"is_reserved":false,"is_disabled":false,"rental_uris":{"android":"levelo://app?vid=c9225839-caef-40ac-93f3-9cdfd57ce31a","ios":"levelo://app?vid=c9225839-caef-40ac-93f3-9cdfd57ce31a"},"vehicle_type_id":"4","last_reported":1702271259,"current_range_meters":30400,"station_id":"ce4bhnh2rcd13ifvqgtg","pricing_plan_id":"free"},{"bike_id":"4aa5cf00-9112-4073-aae4-5f1d27210814","system_id":"levelo_inurba_marseille","lat":43.269467,"lon":5.386439,"is_reserved":false,"is_disabled":false,"rental_uris":{"android":"levelo://app?vid=4aa5cf00-9112-4073-aae4-5f1d27210814","ios":"levelo://app?vid=4aa5cf00-9112-4073-aae4-5f1d27210814"},"vehicle_type_id":"4","last_reported":1702271259,"current_range_meters":20800,"station_id":"ce4bhh92rcd13ifvqfh0","pricing_plan_id":"free"},{"bike_id":"884a677f-89ef-4bf0-bf7f-bb68d7bc013b","system_id":"levelo_inurba_marseille","lat":43.269467,"lon":5.386439,"is_reserved":false,"is_disabled":false,"rental_uris":{"android":"levelo://app?vid=884a677f-89ef-4bf0-bf7f-bb68d7bc013b","ios":"levelo://app?vid=884a677f-89ef-4bf0-bf7f-bb68d7bc013b"},"vehicle_type_id":"4","last_reported":1702271259,"current_range_meters":29200,"station_id":"ce4bhh92rcd13ifvqfh0","pricing_plan_id":"free"},{"bike_id":"e4439aa2-3e15-40d1-9c31-4a5975f01a09","system_id":"levelo_inurba_marseille","lat":43.279465,"lon":5.410561,"is_reserved":false,"is_disabled":false,"rental_uris":{"android":"levelo://app?vid=e4439aa2-3e15-40d1-9c31-4a5975f01a09","ios":"levelo://app?vid=e4439aa2-3e15-40d1-9c31-4a5975f01a09"},"vehicle_type_id":"4","last_reported":1702271259,"current_range_meters":25200,"station_id":"ce4bhnp2rcd13ifvqh0g","pricing_plan_id":"free"},{"bike_id":"7062eb5d-8a0b-466f-8fc2-6a5269f955d4","system_id":"levelo_inurba_marseille","lat":43.279465,"lon":5.410561,"is_reserved":false,"is_disabled":false,"rental_uris":{"android":"levelo://app?vid=7062eb5d-8a0b-466f-8fc2-6a5269f955d4","ios":"levelo://app?vid=7062eb5d-8a0b-466f-8fc2-6a5269f955d4"},"vehicle_type_id":"4","last_reported":1702271259,"current_range_meters":31200,"station_id":"ce4bhnp2rcd13ifvqh0g","pricing_plan_id":"free"},{"bike_id":"05c3dd6c-9816-4000-92e5-52e3d95ee2fa","system_id":"levelo_inurba_marseille","lat":43.27945,"lon":5.41039,"is_reserved":false,"is_disabled":false,"rental_uris":{"android":"levelo://app?vid=05c3dd6c-9816-4000-92e5-52e3d95ee2fa","ios":"levelo://app?vid=05c3dd6c-9816-4000-92e5-52e3d95ee2fa"},"vehicle_type_id":"4","last_reported":1702271259,"current_range_meters":26800,"station_id":"ce4bhnp2rcd13ifvqh0g","pricing_plan_id":"free"},{"bike_id":"336e1ad8-8d7e-499f-aa3d-8a0653461583","system_id":"levelo_inurba_marseille","lat":43.279074,"lon":5.412234,"is_reserved":false,"is_disabled":false,"rental_uris":{"android":"levelo://app?vid=336e1ad8-8d7e-499f-aa3d-8a0653461583","ios":"levelo://app?vid=336e1ad8-8d7e-499f-aa3d-8a0653461583"},"vehicle_type_id":"4","last_reported":1702271259,"current_range_meters":21600,"station_id":"","pricing_plan_id":"free"},{"bike_id":"7244d0b7-0a9b-4675-930f-975dbbeed40b","system_id":"levelo_inurba_marseille","lat":43.26605,"lon":5.38166,"is_reserved":false,"is_disabled":false,"rental_uris":{"android":"levelo://app?vid=7244d0b7-0a9b-4675-930f-975dbbeed40b","ios":"levelo://app?vid=7244d0b7-0a9b-4675-930f-975dbbeed40b"},"vehicle_type_id":"4","last_reported":1702271259,"current_range_meters":3600,"station_id":"","pricing_plan_id":"free"},{"bike_id":"998e8a69-ddf9-4453-a09f-14b52dfa9145","system_id":"levelo_inurba_marseille","lat":43.27996,"lon":5.416624,"is_reserved":false,"is_disabled":false,"rental_uris":{"android":"levelo://app?vid=998e8a69-ddf9-4453-a09f-14b52dfa9145","ios":"levelo://app?vid=998e8a69-ddf9-4453-a09f-14b52dfa9145"},"vehicle_type_id":"4","last_reported":1702271259,"current_range_meters":21600,"station_id":"ce4bho12rcd13ifvqh1g","pricing_plan_id":"free"},{"bike_id":"b2f8c705-8941-4146-9044-fe15469802c3","system_id":"levelo_inurba_marseille","lat":43.27996,"lon":5.416624,"is_reserved":false,"is_disabled":false,"rental_uris":{"android":"levelo://app?vid=b2f8c705-8941-4146-9044-fe15469802c3","ios":"levelo://app?vid=b2f8c705-8941-4146-9044-fe15469802c3"},"vehicle_type_id":"4","last_reported":1702271259,"current_range_meters":28800,"station_id":"ce4bho12rcd13ifvqh1g","pricing_plan_id":"free"},{"bike_id":"9e06ead2-292f-42ce-81ea-a0059d2e8702","system_id":"levelo_inurba_marseille","lat":43.265705,"lon":5.389907,"is_reserved":false,"is_disabled":false,"rental_uris":{"android":"levelo://app?vid=9e06ead2-292f-42ce-81ea-a0059d2e8702","ios":"levelo://app?vid=9e06ead2-292f-42ce-81ea-a0059d2e8702"},"vehicle_type_id":"4","last_reported":1702271259,"current_range_meters":26800,"station_id":"ce4bhe12rcd13ifvqf30","pricing_plan_id":"free"},{"bike_id":"ff0ca8bd-adc1-4a0b-a964-257dc84cb846","system_id":"levelo_inurba_marseille","lat":43.269411,"lon":5.402604,"is_reserved":false,"is_disabled":false,"rental_uris":{"android":"levelo://app?vid=ff0ca8bd-adc1-4a0b-a964-257dc84cb846","ios":"levelo://app?vid=ff0ca8bd-adc1-4a0b-a964-257dc84cb846"},"vehicle_type_id":"4","last_reported":1702271259,"current_range_meters":18000,"station_id":"cjm6bp8fraef2m0cb0m0","pricing_plan_id":"free"},{"bike_id":"4fca6b47-2369-455d-be35-995bb03fe134","system_id":"levelo_inurba_marseille","lat":43.26942,"lon":5.40263,"is_reserved":false,"is_disabled":false,"rental_uris":{"android":"levelo://app?vid=4fca6b47-2369-455d-be35-995bb03fe134","ios":"levelo://app?vid=4fca6b47-2369-455d-be35-995bb03fe134"},"vehicle_type_id":"4","last_reported":1702271259,"current_range_meters":26000,"station_id":"cjm6bp8fraef2m0cb0m0","pricing_plan_id":"free"},{"bike_id":"287e9254-f263-4a4d-afd9-500f2b256a68","system_id":"levelo_inurba_marseille","lat":43.2616,"lon":5.37423,"is_reserved":false,"is_disabled":false,"rental_uris":{"android":"levelo://app?vid=287e9254-f263-4a4d-afd9-500f2b256a68","ios":"levelo://app?vid=287e9254-f263-4a4d-afd9-500f2b256a68"},"vehicle_type_id":"4","last_reported":1702271259,"current_range_meters":24800,"station_id":"ce4bhgp2rcd13ifvqfc0","pricing_plan_id":"free"},{"bike_id":"37be6a41-ae9a-4ed6-aaf6-9f1aef278971","system_id":"levelo_inurba_marseille","lat":43.271368,"lon":5.40928,"is_reserved":false,"is_disabled":false,"rental_uris":{"android":"levelo://app?vid=37be6a41-ae9a-4ed6-aaf6-9f1aef278971","ios":"levelo://app?vid=37be6a41-ae9a-4ed6-aaf6-9f1aef278971"},"vehicle_type_id":"4","last_reported":1702271259,"current_range_meters":30000,"station_id":"ce4bhl12rcd13ifvqgf0","pricing_plan_id":"free"},{"bike_id":"b23e3fdb-25cf-4324-932e-816637918270","system_id":"levelo_inurba_marseille","lat":43.267959,"lon":5.402687,"is_reserved":false,"is_disabled":false,"rental_uris":{"android":"levelo://app?vid=b23e3fdb-25cf-4324-932e-816637918270","ios":"levelo://app?vid=b23e3fdb-25cf-4324-932e-816637918270"},"vehicle_type_id":"4","last_reported":1702271259,"current_range_meters":30000,"station_id":"ce501612rcd8frsf0b60","pricing_plan_id":"free"},{"bike_id":"3de0a6a1-4453-486c-a1ba-fc284c4c0e2c","system_id":"levelo_inurba_marseille","lat":43.298768,"lon":5.43643,"is_reserved":false,"is_disabled":false,"rental_uris":{"android":"levelo://app?vid=3de0a6a1-4453-486c-a1ba-fc284c4c0e2c","ios":"levelo://app?vid=3de0a6a1-4453-486c-a1ba-fc284c4c0e2c"},"vehicle_type_id":"4","last_reported":1702271259,"current_range_meters":31200,"station_id":"ce4bhpp2rcd13ifvqhfg","pricing_plan_id":"free"},{"bike_id":"755e5ce5-fb90-4ff2-8498-7cfa31a5e6c2","system_id":"levelo_inurba_marseille","lat":43.281548,"lon":5.42643,"is_reserved":false,"is_disabled":false,"rental_uris":{"android":"levelo://app?vid=755e5ce5-fb90-4ff2-8498-7cfa31a5e6c2","ios":"levelo://app?vid=755e5ce5-fb90-4ff2-8498-7cfa31a5e6c2"},"vehicle_type_id":"4","last_reported":1702271259,"current_range_meters":27600,"station_id":"ce4bhnh2rcd13ifvqgug","pricing_plan_id":"free"},{"bike_id":"565786fa-eb1c-4c71-9970-60c79fca54bc","system_id":"levelo_inurba_marseille","lat":43.281548,"lon":5.42643,"is_reserved":false,"is_disabled":false,"rental_uris":{"android":"levelo://app?vid=565786fa-eb1c-4c71-9970-60c79fca54bc","ios":"levelo://app?vid=565786fa-eb1c-4c71-9970-60c79fca54bc"},"vehicle_type_id":"4","last_reported":1702271259,"current_range_meters":29600,"station_id":"ce4bhnh2rcd13ifvqgug","pricing_plan_id":"free"},{"bike_id":"1b403881-100b-4e36-a8a8-5f763208a5e7","system_id":"levelo_inurba_marseille","lat":43.258171,"lon":5.394321,"is_reserved":false,"is_disabled":false,"rental_uris":{"android":"levelo://app?vid=1b403881-100b-4e36-a8a8-5f763208a5e7","ios":"levelo://app?vid=1b403881-100b-4e36-a8a8-5f763208a5e7"},"vehicle_type_id":"4","last_reported":1702271259,"current_range_meters":28800,"station_id":"ce4bhip2rcd13ifvqft0","pricing_plan_id":"free"},{"bike_id":"d60b9791-78c5-42c2-ba82-d1ccc8eefd7e","system_id":"levelo_inurba_marseille","lat":43.255022,"lon":5.376546,"is_reserved":false,"is_disabled":false,"rental_uris":{"android":"levelo://app?vid=d60b9791-78c5-42c2-ba82-d1ccc8eefd7e","ios":"levelo://app?vid=d60b9791-78c5-42c2-ba82-d1ccc8eefd7e"},"vehicle_type_id":"4","last_reported":1702271259,"current_range_meters":800,"station_id":"ce4bhh12rcd13ifvqff0","pricing_plan_id":"free"},{"bike_id":"afb5ec19-dafa-4711-b1cf-85f317593fa6","system_id":"levelo_inurba_marseille","lat":43.270721,"lon":5.422764,"is_reserved":false,"is_disabled":false,"rental_uris":{"android":"levelo://app?vid=afb5ec19-dafa-4711-b1cf-85f317593fa6","ios":"levelo://app?vid=afb5ec19-dafa-4711-b1cf-85f317593fa6"},"vehicle_type_id":"4","last_reported":1702271259,"current_range_meters":19200,"station_id":"ce4bhk92rcd13ifvqgb0","pricing_plan_id":"free"},{"bike_id":"f372bf66-63ba-421e-b408-de392dc735ac","system_id":"levelo_inurba_marseille","lat":43.258658,"lon":5.398935,"is_reserved":false,"is_disabled":false,"rental_uris":{"android":"levelo://app?vid=f372bf66-63ba-421e-b408-de392dc735ac","ios":"levelo://app?vid=f372bf66-63ba-421e-b408-de392dc735ac"},"vehicle_type_id":"4","last_reported":1702271259,"current_range_meters":28400,"station_id":"ce4bhl92rcd13ifvqghg","pricing_plan_id":"free"},{"bike_id":"37317bf4-0fae-462d-adb3-c56a36db31e5","system_id":"levelo_inurba_marseille","lat":43.258658,"lon":5.398935,"is_reserved":false,"is_disabled":false,"rental_uris":{"android":"levelo://app?vid=37317bf4-0fae-462d-adb3-c56a36db31e5","ios":"levelo://app?vid=37317bf4-0fae-462d-adb3-c56a36db31e5"},"vehicle_type_id":"4","last_reported":1702271259,"current_range_meters":28400,"station_id":"ce4bhl92rcd13ifvqghg","pricing_plan_id":"free"},{"bike_id":"b4408aed-a663-49ff-a72e-60a86d2103cd","system_id":"levelo_inurba_marseille","lat":43.25929,"lon":5.40907,"is_reserved":false,"is_disabled":false,"rental_uris":{"android":"levelo://app?vid=b4408aed-a663-49ff-a72e-60a86d2103cd","ios":"levelo://app?vid=b4408aed-a663-49ff-a72e-60a86d2103cd"},"vehicle_type_id":"4","last_reported":1702271259,"current_range_meters":1200,"station_id":"","pricing_plan_id":"free"},{"bike_id":"0efd4363-e45a-4406-9c0f-bfd195a3a967","system_id":"levelo_inurba_marseille","lat":43.257225,"lon":5.411075,"is_reserved":false,"is_disabled":false,"rental_uris":{"android":"levelo://app?vid=0efd4363-e45a-4406-9c0f-bfd195a3a967","ios":"levelo://app?vid=0efd4363-e45a-4406-9c0f-bfd195a3a967"},"vehicle_type_id":"4","last_reported":1702271259,"current_range_meters":26800,"station_id":"ce4bhkp2rcd13ifvqgd0","pricing_plan_id":"free"},{"bike_id":"53637d02-cb32-49a6-ab6d-29d69306aed3","system_id":"levelo_inurba_marseille","lat":43.257079,"lon":5.411051,"is_reserved":false,"is_disabled":false,"rental_uris":{"android":"levelo://app?vid=53637d02-cb32-49a6-ab6d-29d69306aed3","ios":"levelo://app?vid=53637d02-cb32-49a6-ab6d-29d69306aed3"},"vehicle_type_id":"4","last_reported":1702271259,"current_range_meters":31200,"station_id":"ce4bhkp2rcd13ifvqgd0","pricing_plan_id":"free"},{"bike_id":"12cad532-059e-430e-8687-280170c85cfb","system_id":"levelo_inurba_marseille","lat":43.257079,"lon":5.411051,"is_reserved":false,"is_disabled":false,"rental_uris":{"android":"levelo://app?vid=12cad532-059e-430e-8687-280170c85cfb","ios":"levelo://app?vid=12cad532-059e-430e-8687-280170c85cfb"},"vehicle_type_id":"4","last_reported":1702271259,"current_range_meters":31200,"station_id":"ce4bhkp2rcd13ifvqgd0","pricing_plan_id":"free"},{"bike_id":"548bdd7c-bb01-4420-a166-3de6bf59d824","system_id":"levelo_inurba_marseille","lat":43.25704,"lon":5.41131,"is_reserved":false,"is_disabled":false,"rental_uris":{"android":"levelo://app?vid=548bdd7c-bb01-4420-a166-3de6bf59d824","ios":"levelo://app?vid=548bdd7c-bb01-4420-a166-3de6bf59d824"},"vehicle_type_id":"4","last_reported":1702271259,"current_range_meters":20000,"station_id":"ce4bhkp2rcd13ifvqgd0","pricing_plan_id":"free"},{"bike_id":"e2cf6bb9-5114-4621-9f5c-52d2e7252895","system_id":"levelo_inurba_marseille","lat":43.29363,"lon":5.45156,"is_reserved":false,"is_disabled":false,"rental_uris":{"android":"levelo://app?vid=e2cf6bb9-5114-4621-9f5c-52d2e7252895","ios":"levelo://app?vid=e2cf6bb9-5114-4621-9f5c-52d2e7252895"},"vehicle_type_id":"4","last_reported":1702271259,"current_range_meters":12800,"station_id":"","pricing_plan_id":"free"},{"bike_id":"93af5de5-2efb-45f4-a47a-fcff3ad5ef84","system_id":"levelo_inurba_marseille","lat":43.250009,"lon":5.389195,"is_reserved":false,"is_disabled":false,"rental_uris":{"android":"levelo://app?vid=93af5de5-2efb-45f4-a47a-fcff3ad5ef84","ios":"levelo://app?vid=93af5de5-2efb-45f4-a47a-fcff3ad5ef84"},"vehicle_type_id":"4","last_reported":1702271259,"current_range_meters":28000,"station_id":"ce4bhgp2rcd13ifvqfd0","pricing_plan_id":"free"},{"bike_id":"46f19256-066d-43e8-a1e1-49cb1ac005ce","system_id":"levelo_inurba_marseille","lat":43.2479,"lon":5.374457,"is_reserved":false,"is_disabled":false,"rental_uris":{"android":"levelo://app?vid=46f19256-066d-43e8-a1e1-49cb1ac005ce","ios":"levelo://app?vid=46f19256-066d-43e8-a1e1-49cb1ac005ce"},"vehicle_type_id":"4","last_reported":1702271259,"current_range_meters":29200,"station_id":"ce4bhgh2rcd13ifvqfb0","pricing_plan_id":"free"},{"bike_id":"676439af-25a5-4009-b1f1-935886e6bc00","system_id":"levelo_inurba_marseille","lat":43.2479,"lon":5.374457,"is_reserved":false,"is_disabled":false,"rental_uris":{"android":"levelo://app?vid=676439af-25a5-4009-b1f1-935886e6bc00","ios":"levelo://app?vid=676439af-25a5-4009-b1f1-935886e6bc00"},"vehicle_type_id":"4","last_reported":1702271259,"current_range_meters":29200,"station_id":"ce4bhgh2rcd13ifvqfb0","pricing_plan_id":"free"},{"bike_id":"c58abba1-0886-4999-83b4-5808f55ca642","system_id":"levelo_inurba_marseille","lat":43.2479,"lon":5.374457,"is_reserved":false,"is_disabled":false,"rental_uris":{"android":"levelo://app?vid=c58abba1-0886-4999-83b4-5808f55ca642","ios":"levelo://app?vid=c58abba1-0886-4999-83b4-5808f55ca642"},"vehicle_type_id":"4","last_reported":1702271259,"current_range_meters":27200,"station_id":"ce4bhgh2rcd13ifvqfb0","pricing_plan_id":"free"},{"bike_id":"7d160669-bdc8-487a-955a-10cd0b46ab01","system_id":"levelo_inurba_marseille","lat":43.24802,"lon":5.37454,"is_reserved":false,"is_disabled":false,"rental_uris":{"android":"levelo://app?vid=7d160669-bdc8-487a-955a-10cd0b46ab01","ios":"levelo://app?vid=7d160669-bdc8-487a-955a-10cd0b46ab01"},"vehicle_type_id":"4","last_reported":1702271259,"current_range_meters":14400,"station_id":"ce4bhgh2rcd13ifvqfb0","pricing_plan_id":"free"},{"bike_id":"d17812b4-28d7-44f8-8f1e-a5cc0c57f7c8","system_id":"levelo_inurba_marseille","lat":43.250966,"lon":5.395186,"is_reserved":false,"is_disabled":false,"rental_uris":{"android":"levelo://app?vid=d17812b4-28d7-44f8-8f1e-a5cc0c57f7c8","ios":"levelo://app?vid=d17812b4-28d7-44f8-8f1e-a5cc0c57f7c8"},"vehicle_type_id":"4","last_reported":1702271259,"current_range_meters":14800,"station_id":"ce4bhm12rcd13ifvqgkg","pricing_plan_id":"free"},{"bike_id":"6c841a86-0db3-43df-89cd-8d77eefd74e9","system_id":"levelo_inurba_marseille","lat":43.250966,"lon":5.395186,"is_reserved":false,"is_disabled":false,"rental_uris":{"android":"levelo://app?vid=6c841a86-0db3-43df-89cd-8d77eefd74e9","ios":"levelo://app?vid=6c841a86-0db3-43df-89cd-8d77eefd74e9"},"vehicle_type_id":"4","last_reported":1702271259,"current_range_meters":28400,"station_id":"ce4bhm12rcd13ifvqgkg","pricing_plan_id":"free"},{"bike_id":"ba2f0556-984e-437f-8a97-ef893166211f","system_id":"levelo_inurba_marseille","lat":43.250966,"lon":5.395186,"is_reserved":false,"is_disabled":false,"rental_uris":{"android":"levelo://app?vid=ba2f0556-984e-437f-8a97-ef893166211f","ios":"levelo://app?vid=ba2f0556-984e-437f-8a97-ef893166211f"},"vehicle_type_id":"4","last_reported":1702271259,"current_range_meters":3600,"station_id":"ce4bhm12rcd13ifvqgkg","pricing_plan_id":"free"},{"bike_id":"2ebbede5-b63b-4ead-a71c-0c3fdd1080f5","system_id":"levelo_inurba_marseille","lat":43.24693,"lon":5.382096,"is_reserved":false,"is_disabled":false,"rental_uris":{"android":"levelo://app?vid=2ebbede5-b63b-4ead-a71c-0c3fdd1080f5","ios":"levelo://app?vid=2ebbede5-b63b-4ead-a71c-0c3fdd1080f5"},"vehicle_type_id":"4","last_reported":1702271259,"current_range_meters":3600,"station_id":"ce4bhih2rcd13ifvqfr0","pricing_plan_id":"free"},{"bike_id":"7c19531a-ce0f-4065-9678-865d22e14376","system_id":"levelo_inurba_marseille","lat":43.24693,"lon":5.382096,"is_reserved":false,"is_disabled":false,"rental_uris":{"android":"levelo://app?vid=7c19531a-ce0f-4065-9678-865d22e14376","ios":"levelo://app?vid=7c19531a-ce0f-4065-9678-865d22e14376"},"vehicle_type_id":"4","last_reported":1702271259,"current_range_meters":30400,"station_id":"ce4bhih2rcd13ifvqfr0","pricing_plan_id":"free"},{"bike_id":"546af775-bad2-4d6b-98d8-a1a3e8d35b06","system_id":"levelo_inurba_marseille","lat":43.25102,"lon":5.403214,"is_reserved":false,"is_disabled":false,"rental_uris":{"android":"levelo://app?vid=546af775-bad2-4d6b-98d8-a1a3e8d35b06","ios":"levelo://app?vid=546af775-bad2-4d6b-98d8-a1a3e8d35b06"},"vehicle_type_id":"4","last_reported":1702271259,"current_range_meters":13600,"station_id":"ce4bhlh2rcd13ifvqgig","pricing_plan_id":"free"},{"bike_id":"1b59ffa0-ac79-4954-9986-e342e6d1e764","system_id":"levelo_inurba_marseille","lat":43.25102,"lon":5.403214,"is_reserved":false,"is_disabled":false,"rental_uris":{"android":"levelo://app?vid=1b59ffa0-ac79-4954-9986-e342e6d1e764","ios":"levelo://app?vid=1b59ffa0-ac79-4954-9986-e342e6d1e764"},"vehicle_type_id":"4","last_reported":1702271259,"current_range_meters":30000,"station_id":"ce4bhlh2rcd13ifvqgig","pricing_plan_id":"free"},{"bike_id":"a94728d5-8fac-4dbb-a538-34fa12863f73","system_id":"levelo_inurba_marseille","lat":43.246467,"lon":5.388984,"is_reserved":false,"is_disabled":false,"rental_uris":{"android":"levelo://app?vid=a94728d5-8fac-4dbb-a538-34fa12863f73","ios":"levelo://app?vid=a94728d5-8fac-4dbb-a538-34fa12863f73"},"vehicle_type_id":"4","last_reported":1702271259,"current_range_meters":27200,"station_id":"ce4bhg12rcd13ifvqf60","pricing_plan_id":"free"},{"bike_id":"571322be-87e3-43ae-9901-b36ab49cb1d3","system_id":"levelo_inurba_marseille","lat":43.243884,"lon":5.370736,"is_reserved":false,"is_disabled":false,"rental_uris":{"android":"levelo://app?vid=571322be-87e3-43ae-9901-b36ab49cb1d3","ios":"levelo://app?vid=571322be-87e3-43ae-9901-b36ab49cb1d3"},"vehicle_type_id":"4","last_reported":1702271259,"current_range_meters":23200,"station_id":"ce4bhhh2rcd13ifvqfk0","pricing_plan_id":"free"},{"bike_id":"4e2a1b92-fd1a-4f0e-94a5-beda735ca1ff","system_id":"levelo_inurba_marseille","lat":43.240623,"lon":5.377642,"is_reserved":false,"is_disabled":false,"rental_uris":{"android":"levelo://app?vid=4e2a1b92-fd1a-4f0e-94a5-beda735ca1ff","ios":"levelo://app?vid=4e2a1b92-fd1a-4f0e-94a5-beda735ca1ff"},"vehicle_type_id":"4","last_reported":1702271259,"current_range_meters":29200,"station_id":"ce4bhnp2rcd13ifvqgvg","pricing_plan_id":"free"},{"bike_id":"d1c72fa7-c6c4-4741-ba8a-4ddbc6475ecc","system_id":"levelo_inurba_marseille","lat":43.240623,"lon":5.377642,"is_reserved":false,"is_disabled":false,"rental_uris":{"android":"levelo://app?vid=d1c72fa7-c6c4-4741-ba8a-4ddbc6475ecc","ios":"levelo://app?vid=d1c72fa7-c6c4-4741-ba8a-4ddbc6475ecc"},"vehicle_type_id":"4","last_reported":1702271259,"current_range_meters":18400,"station_id":"ce4bhnp2rcd13ifvqgvg","pricing_plan_id":"free"},{"bike_id":"ff3311be-0e5d-4347-bfab-118723a2b76e","system_id":"levelo_inurba_marseille","lat":43.231919,"lon":5.355532,"is_reserved":false,"is_disabled":false,"rental_uris":{"android":"levelo://app?vid=ff3311be-0e5d-4347-bfab-118723a2b76e","ios":"levelo://app?vid=ff3311be-0e5d-4347-bfab-118723a2b76e"},"vehicle_type_id":"4","last_reported":1702271259,"current_range_meters":28800,"station_id":"ce4bhu92rcd13ifvqi70","pricing_plan_id":"free"},{"bike_id":"ba2ffe5d-0854-438d-83e7-4a71cbe644cc","system_id":"levelo_inurba_marseille","lat":43.231794,"lon":5.400052,"is_reserved":false,"is_disabled":false,"rental_uris":{"android":"levelo://app?vid=ba2ffe5d-0854-438d-83e7-4a71cbe644cc","ios":"levelo://app?vid=ba2ffe5d-0854-438d-83e7-4a71cbe644cc"},"vehicle_type_id":"4","last_reported":1702271259,"current_range_meters":30000,"station_id":"ce4bhn12rcd13ifvqgqg","pricing_plan_id":"free"},{"bike_id":"f11845c2-6b31-49fe-ac90-9911fa36fa39","system_id":"levelo_inurba_marseille","lat":43.231793,"lon":5.400044,"is_reserved":false,"is_disabled":false,"rental_uris":{"android":"levelo://app?vid=f11845c2-6b31-49fe-ac90-9911fa36fa39","ios":"levelo://app?vid=f11845c2-6b31-49fe-ac90-9911fa36fa39"},"vehicle_type_id":"4","last_reported":1702271259,"current_range_meters":27600,"station_id":"ce4bhn12rcd13ifvqgqg","pricing_plan_id":"free"},{"bike_id":"eaaddb79-e79f-4481-80b2-574aaa4a11a3","system_id":"levelo_inurba_marseille","lat":43.231794,"lon":5.400052,"is_reserved":false,"is_disabled":false,"rental_uris":{"android":"levelo://app?vid=eaaddb79-e79f-4481-80b2-574aaa4a11a3","ios":"levelo://app?vid=eaaddb79-e79f-4481-80b2-574aaa4a11a3"},"vehicle_type_id":"4","last_reported":1702271259,"current_range_meters":27600,"station_id":"ce4bhn12rcd13ifvqgqg","pricing_plan_id":"free"},{"bike_id":"20b9dc23-3fdd-4258-8fed-b5bd0e113f50","system_id":"levelo_inurba_marseille","lat":43.231794,"lon":5.400052,"is_reserved":false,"is_disabled":false,"rental_uris":{"android":"levelo://app?vid=20b9dc23-3fdd-4258-8fed-b5bd0e113f50","ios":"levelo://app?vid=20b9dc23-3fdd-4258-8fed-b5bd0e113f50"},"vehicle_type_id":"4","last_reported":1702271259,"current_range_meters":30400,"station_id":"ce4bhn12rcd13ifvqgqg","pricing_plan_id":"free"},{"bike_id":"1342626e-2d76-4ebd-a051-4249bf5fdd5f","system_id":"levelo_inurba_marseille","lat":43.231562,"lon":5.436933,"is_reserved":false,"is_disabled":false,"rental_uris":{"android":"levelo://app?vid=1342626e-2d76-4ebd-a051-4249bf5fdd5f","ios":"levelo://app?vid=1342626e-2d76-4ebd-a051-4249bf5fdd5f"},"vehicle_type_id":"4","last_reported":1702271259,"current_range_meters":0,"station_id":"ce4bhmp2rcd13ifvqgog","pricing_plan_id":"free"},{"bike_id":"1aae6cdc-e4e2-4912-a240-f90a945937f8","system_id":"levelo_inurba_marseille","lat":43.231562,"lon":5.436933,"is_reserved":false,"is_disabled":false,"rental_uris":{"android":"levelo://app?vid=1aae6cdc-e4e2-4912-a240-f90a945937f8","ios":"levelo://app?vid=1aae6cdc-e4e2-4912-a240-f90a945937f8"},"vehicle_type_id":"4","last_reported":1702271259,"current_range_meters":30400,"station_id":"ce4bhmp2rcd13ifvqgog","pricing_plan_id":"free"}]}}