{"last_updated":1700330907,"ttl":30,"version":"2.2","data":{"bikes":[{"bike_id":"dd39ba4b-f3b3-4405-b2cd-c0b952d49e0e","system_id":"levelo_inurba_marseille","lat":43.312239,"lon":5.368562,"is_reserved":false,"is_disabled":false,"rental_uris":{"android":"levelo://app?vid=dd39ba4b-f3b3-4405-b2cd-c0b952d49e0e","ios":"levelo://app?vid=dd39ba4b-f3b3-4405-b2cd-c0b952d49e0e"},"vehicle_type_id":"4","last_reported":1700330907,"current_range_meters":26400,"station_id":"ce4bgl92rcd13ifvqbq0","pricing_plan_id":"free"},{"bike_id":"943dfc2f-eec4-44b8-ae3a-bf8f278b58c3","system_id":"levelo_inurba_marseille","lat":43.311563,"lon":5.368858,"is_reserved":false,"is_disabled":false,"rental_uris":{"android":"levelo://app?vid=943dfc2f-eec4-44b8-ae3a-bf8f278b58c3","ios":"levelo://app?vid=943dfc2f-eec4-44b8-ae3a-bf8f278b58c3"},"vehicle_type_id":"4","last_reported":1700330907,"current_range_meters":0,"station_id":"","pricing_plan_id":"free"},{"bike_id":"3475d204-43b6-43d9-b615-ca1d0d58200e","system_id":"levelo_inurba_marseille","lat":43.30679,"lon":5.3679,"is_reserved":false,"is_disabled":false,"rental_uris":{"android":"levelo://app?vid=3475d204-43b6-43d9-b615-ca1d0d58200e","ios":"levelo://app?vid=3475d204-43b6-43d9-b615-ca1d0d58200e"},"vehicle_type_id":"4","last_reported":1700330907,"current_range_meters":14000,"station_id":"","pricing_plan_id":"free"},{"bike_id":"c89b6022-0b04-44f0-bb8d-00b8bddaa14f","system_id":"levelo_inurba_marseille","lat":43.319487,"lon":5.37108,"is_reserved":false,"is_disabled":false,"rental_uris":{"android":"levelo://app?vid=c89b6022-0b04-44f0-bb8d-00b8bddaa14f","ios":"levelo://app?vid=c89b6022-0b04-44f0-bb8d-00b8bddaa14f"},"vehicle_type_id":"4","last_reported":1700330907,"current_range_meters":4400,"station_id":"","pricing_plan_id":"free"},{"bike_id":"151dfe20-81d6-4c3f-87ff-c53f4f21bf76","system_id":"levelo_inurba_marseille","lat":43.305706,"lon":5.365654,"is_reserved":false,"is_disabled":false,"rental_uris":{"android":"levelo://app?vid=151dfe20-81d6-4c3f-87ff-c53f4f21bf76","ios":"levelo://app?vid=151dfe20-81d6-4c3f-87ff-c53f4f21bf76"},"vehicle_type_id":"4","last_reported":1700330907,"current_range_meters":0,"station_id":"ce4bgs12rcd13ifvqcag","pricing_plan_id":"free"},{"bike_id":"2d49cb03-7339-4a21-98db-beedb60a2a4c","system_id":"levelo_inurba_marseille","lat":43.304978,"lon":5.370785,"is_reserved":false,"is_disabled":false,"rental_uris":{"android":"levelo://app?vid=2d49cb03-7339-4a21-98db-beedb60a2a4c","ios":"levelo://app?vid=2d49cb03-7339-4a21-98db-beedb60a2a4c"},"vehicle_type_id":"4","last_reported":1700330907,"current_range_meters":0,"station_id":"","pricing_plan_id":"free"},{"bike_id":"dcbf9c93-0758-41cf-8699-4ede01d69428","system_id":"levelo_inurba_marseille","lat":43.30818,"lon":5.376561,"is_reserved":false,"is_disabled":false,"rental_uris":{"android":"levelo://app?vid=dcbf9c93-0758-41cf-8699-4ede01d69428","ios":"levelo://app?vid=dcbf9c93-0758-41cf-8699-4ede01d69428"},"vehicle_type_id":"4","last_reported":1700330907,"current_range_meters":15600,"station_id":"ce4bgv92rcd13ifvqcq0","pricing_plan_id":"free"},{"bike_id":"e10deb34-de8d-4a62-8aa2-e03570978c77","system_id":"levelo_inurba_marseille","lat":43.301939,"lon":5.366286,"is_reserved":false,"is_disabled":false,"rental_uris":{"android":"levelo://app?vid=e10deb34-de8d-4a62-8aa2-e03570978c77","ios":"levelo://app?vid=e10deb34-de8d-4a62-8aa2-e03570978c77"},"vehicle_type_id":"4","last_reported":1700330907,"current_range_meters":12400,"station_id":"ce4bgrh2rcd13ifvqc8g","pricing_plan_id":"free"},{"bike_id":"bc226498-8db4-43dc-8b39-afbf34e2210d","system_id":"levelo_inurba_marseille","lat":43.30457,"lon":5.37901,"is_reserved":false,"is_disabled":false,"rental_uris":{"android":"levelo://app?vid=bc226498-8db4-43dc-8b39-afbf34e2210d","ios":"levelo://app?vid=bc226498-8db4-43dc-8b39-afbf34e2210d"},"vehicle_type_id":"4","last_reported":1700330907,"current_range_meters":0,"station_id":"ce4bgup2rcd13ifvqcn0","pricing_plan_id":"free"},{"bike_id":"8582e63c-68af-4a5e-a41b-a2e2d4df8807","system_id":"levelo_inurba_marseille","lat":43.324771,"lon":5.36557,"is_reserved":false,"is_disabled":false,"rental_uris":{"android":"levelo://app?vid=8582e63c-68af-4a5e-a41b-a2e2d4df8807","ios":"levelo://app?vid=8582e63c-68af-4a5e-a41b-a2e2d4df8807"},"vehicle_type_id":"4","last_reported":1700330907,"current_range_meters":8000,"station_id":"ce4bhs12rcd13ifvqhvg","pricing_plan_id":"free"},{"bike_id":"5a6db0fc-cfe2-47a7-ae76-d4e0529428ab","system_id":"levelo_inurba_marseille","lat":43.319832,"lon":5.381048,"is_reserved":false,"is_disabled":false,"rental_uris":{"android":"levelo://app?vid=5a6db0fc-cfe2-47a7-ae76-d4e0529428ab","ios":"levelo://app?vid=5a6db0fc-cfe2-47a7-ae76-d4e0529428ab"},"vehicle_type_id":"4","last_reported":1700330907,"current_range_meters":17200,"station_id":"","pricing_plan_id":"free"},{"bike_id":"b07df4dc-5dee-47d2-9384-cdf7d13ef59f","system_id":"levelo_inurba_marseille","lat":43.317687,"lon":5.383347,"is_reserved":false,"is_disabled":false,"rental_uris":{"android":"levelo://app?vid=b07df4dc-5dee-47d2-9384-cdf7d13ef59f","ios":"levelo://app?vid=b07df4dc-5dee-47d2-9384-cdf7d13ef59f"},"vehicle_type_id":"4","last_reported":1700330907,"current_range_meters":22800,"station_id":"","pricing_plan_id":"free"},{"bike_id":"66963c79-9023-4e40-bef4-709c1b04f449","system_id":"levelo_inurba_marseille","lat":43.311573,"lon":5.38683,"is_reserved":false,"is_disabled":false,"rental_uris":{"android":"levelo://app?vid=66963c79-9023-4e40-bef4-709c1b04f449","ios":"levelo://app?vid=66963c79-9023-4e40-bef4-709c1b04f449"},"vehicle_type_id":"4","last_reported":1700330907,"current_range_meters":2800,"station_id":"ce4bgv12rcd13ifvqcp0","pricing_plan_id":"free"},{"bike_id":"5da9dea2-bd9f-4746-b637-56e44ea9e587","system_id":"levelo_inurba_marseille","lat":43.298489,"lon":5.362942,"is_reserved":false,"is_disabled":false,"rental_uris":{"android":"levelo://app?vid=5da9dea2-bd9f-4746-b637-56e44ea9e587","ios":"levelo://app?vid=5da9dea2-bd9f-4746-b637-56e44ea9e587"},"vehicle_type_id":"4","last_reported":1700330907,"current_range_meters":0,"station_id":"","pricing_plan_id":"free"},{"bike_id":"d3cfc26a-f830-47e2-8127-33e4ab2d3d06","system_id":"levelo_inurba_marseille","lat":43.31186,"lon":5.38716,"is_reserved":false,"is_disabled":false,"rental_uris":{"android":"levelo://app?vid=d3cfc26a-f830-47e2-8127-33e4ab2d3d06","ios":"levelo://app?vid=d3cfc26a-f830-47e2-8127-33e4ab2d3d06"},"vehicle_type_id":"4","last_reported":1700330907,"current_range_meters":0,"station_id":"ce4bgv12rcd13ifvqcp0","pricing_plan_id":"free"},{"bike_id":"c876b220-c326-4386-96c1-348fd82527b8","system_id":"levelo_inurba_marseille","lat":43.311722,"lon":5.387247,"is_reserved":false,"is_disabled":false,"rental_uris":{"android":"levelo://app?vid=c876b220-c326-4386-96c1-348fd82527b8","ios":"levelo://app?vid=c876b220-c326-4386-96c1-348fd82527b8"},"vehicle_type_id":"4","last_reported":1700330907,"current_range_meters":22800,"station_id":"ce4bgv12rcd13ifvqcp0","pricing_plan_id":"free"},{"bike_id":"3f9f43a9-aeb5-4c7b-9f19-0cd9de3cd28e","system_id":"levelo_inurba_marseille","lat":43.311722,"lon":5.387247,"is_reserved":false,"is_disabled":false,"rental_uris":{"android":"levelo://app?vid=3f9f43a9-aeb5-4c7b-9f19-0cd9de3cd28e","ios":"levelo://app?vid=3f9f43a9-aeb5-4c7b-9f19-0cd9de3cd28e"},"vehicle_type_id":"4","last_reported":1700330907,"current_range_meters":12000,"station_id":"ce4bgv12rcd13ifvqcp0","pricing_plan_id":"free"},{"bike_id":"83b4a712-5deb-4185-a2eb-cf504fb97aa1","system_id":"levelo_inurba_marseille","lat":43.299081,"lon":5.375354,"is_reserved":false,"is_disabled":false,"rental_uris":{"android":"levelo://app?vid=83b4a712-5deb-4185-a2eb-cf504fb97aa1","ios":"levelo://app?vid=83b4a712-5deb-4185-a2eb-cf504fb97aa1"},"vehicle_type_id":"4","last_reported":1700330907,"current_range_meters":17200,"station_id":"ce4bgjh2rcd13ifvqbg0","pricing_plan_id":"free"},{"bike_id":"a30b7127-1630-4194-86bb-7083fdf760e0","system_id":"levelo_inurba_marseille","lat":43.297794,"lon":5.370888,"is_reserved":false,"is_disabled":false,"rental_uris":{"android":"levelo://app?vid=a30b7127-1630-4194-86bb-7083fdf760e0","ios":"levelo://app?vid=a30b7127-1630-4194-86bb-7083fdf760e0"},"vehicle_type_id":"4","last_reported":1700330907,"current_range_meters":13600,"station_id":"ce4bgop2rcd13ifvqc1g","pricing_plan_id":"free"},{"bike_id":"dadade26-8d95-44b2-86a8-a68427fdc33d","system_id":"levelo_inurba_marseille","lat":43.32293,"lon":5.38265,"is_reserved":false,"is_disabled":false,"rental_uris":{"android":"levelo://app?vid=dadade26-8d95-44b2-86a8-a68427fdc33d","ios":"levelo://app?vid=dadade26-8d95-44b2-86a8-a68427fdc33d"},"vehicle_type_id":"4","last_reported":1700330907,"current_range_meters":9600,"station_id":"ce4bhr12rcd13ifvqhqg","pricing_plan_id":"free"},{"bike_id":"37c11113-92fc-4559-ac4f-4690b56d39fb","system_id":"levelo_inurba_marseille","lat":43.322872,"lon":5.382756,"is_reserved":false,"is_disabled":false,"rental_uris":{"android":"levelo://app?vid=37c11113-92fc-4559-ac4f-4690b56d39fb","ios":"levelo://app?vid=37c11113-92fc-4559-ac4f-4690b56d39fb"},"vehicle_type_id":"4","last_reported":1700330907,"current_range_meters":11600,"station_id":"ce4bhr12rcd13ifvqhqg","pricing_plan_id":"free"},{"bike_id":"b0bc5a2b-ee52-4745-9049-5d157e365412","system_id":"levelo_inurba_marseille","lat":43.32825,"lon":5.36678,"is_reserved":false,"is_disabled":false,"rental_uris":{"android":"levelo://app?vid=b0bc5a2b-ee52-4745-9049-5d157e365412","ios":"levelo://app?vid=b0bc5a2b-ee52-4745-9049-5d157e365412"},"vehicle_type_id":"4","last_reported":1700330907,"current_range_meters":11200,"station_id":"ce4bhs92rcd13ifvqi0g","pricing_plan_id":"free"},{"bike_id":"6f461906-1734-4a2d-9c3e-a93c6064dfd5","system_id":"levelo_inurba_marseille","lat":43.32828,"lon":5.36684,"is_reserved":false,"is_disabled":false,"rental_uris":{"android":"levelo://app?vid=6f461906-1734-4a2d-9c3e-a93c6064dfd5","ios":"levelo://app?vid=6f461906-1734-4a2d-9c3e-a93c6064dfd5"},"vehicle_type_id":"4","last_reported":1700330907,"current_range_meters":24000,"station_id":"ce4bhs92rcd13ifvqi0g","pricing_plan_id":"free"},{"bike_id":"5a63cef3-7f0f-4d44-b7cf-9c5356fdced0","system_id":"levelo_inurba_marseille","lat":43.297163,"lon":5.365866,"is_reserved":false,"is_disabled":false,"rental_uris":{"android":"levelo://app?vid=5a63cef3-7f0f-4d44-b7cf-9c5356fdced0","ios":"levelo://app?vid=5a63cef3-7f0f-4d44-b7cf-9c5356fdced0"},"vehicle_type_id":"4","last_reported":1700330907,"current_range_meters":28800,"station_id":"ce4bgn12rcd13ifvqbt0","pricing_plan_id":"free"},{"bike_id":"bab6e1e8-0726-4f51-8b18-d54941f080d7","system_id":"levelo_inurba_marseille","lat":43.29726,"lon":5.37141,"is_reserved":false,"is_disabled":false,"rental_uris":{"android":"levelo://app?vid=bab6e1e8-0726-4f51-8b18-d54941f080d7","ios":"levelo://app?vid=bab6e1e8-0726-4f51-8b18-d54941f080d7"},"vehicle_type_id":"4","last_reported":1700330907,"current_range_meters":0,"station_id":"","pricing_plan_id":"free"},{"bike_id":"d447991a-59b4-4778-a190-7d2b0920a414","system_id":"levelo_inurba_marseille","lat":43.32215,"lon":5.38613,"is_reserved":false,"is_disabled":false,"rental_uris":{"android":"levelo://app?vid=d447991a-59b4-4778-a190-7d2b0920a414","ios":"levelo://app?vid=d447991a-59b4-4778-a190-7d2b0920a414"},"vehicle_type_id":"4","last_reported":1700330907,"current_range_meters":0,"station_id":"","pricing_plan_id":"free"},{"bike_id":"da26e1ec-9c5d-43af-b347-cf9896dbc87d","system_id":"levelo_inurba_marseille","lat":43.296129,"lon":5.370777,"is_reserved":false,"is_disabled":false,"rental_uris":{"android":"levelo://app?vid=da26e1ec-9c5d-43af-b347-cf9896dbc87d","ios":"levelo://app?vid=da26e1ec-9c5d-43af-b347-cf9896dbc87d"},"vehicle_type_id":"4","last_reported":1700330907,"current_range_meters":13200,"station_id":"ce4bgnh2rcd13ifvqc0g","pricing_plan_id":"free"},{"bike_id":"65560a07-26ba-43e8-9a3c-4c9d143b2405","system_id":"levelo_inurba_marseille","lat":43.317557,"lon":5.390173,"is_reserved":false,"is_disabled":false,"rental_uris":{"android":"levelo://app?vid=65560a07-26ba-43e8-9a3c-4c9d143b2405","ios":"levelo://app?vid=65560a07-26ba-43e8-9a3c-4c9d143b2405"},"vehicle_type_id":"4","last_reported":1700330907,"current_range_meters":11200,"station_id":"ce4bhqp2rcd13ifvqhng","pricing_plan_id":"free"},{"bike_id":"eec7b089-7c2f-498e-b88d-9fc953a39380","system_id":"levelo_inurba_marseille","lat":43.31752,"lon":5.3903,"is_reserved":false,"is_disabled":false,"rental_uris":{"android":"levelo://app?vid=eec7b089-7c2f-498e-b88d-9fc953a39380","ios":"levelo://app?vid=eec7b089-7c2f-498e-b88d-9fc953a39380"},"vehicle_type_id":"4","last_reported":1700330907,"current_range_meters":0,"station_id":"ce4bhqp2rcd13ifvqhng","pricing_plan_id":"free"},{"bike_id":"d2dced52-b7fb-4d11-ad33-56be009e3364","system_id":"levelo_inurba_marseille","lat":43.321847,"lon":5.388263,"is_reserved":false,"is_disabled":false,"rental_uris":{"android":"levelo://app?vid=d2dced52-b7fb-4d11-ad33-56be009e3364","ios":"levelo://app?vid=d2dced52-b7fb-4d11-ad33-56be009e3364"},"vehicle_type_id":"4","last_reported":1700330907,"current_range_meters":18000,"station_id":"","pricing_plan_id":"free"},{"bike_id":"956bc761-6242-4ad4-9092-7e3ac79330cf","system_id":"levelo_inurba_marseille","lat":43.298037,"lon":5.381066,"is_reserved":false,"is_disabled":false,"rental_uris":{"android":"levelo://app?vid=956bc761-6242-4ad4-9092-7e3ac79330cf","ios":"levelo://app?vid=956bc761-6242-4ad4-9092-7e3ac79330cf"},"vehicle_type_id":"4","last_reported":1700330907,"current_range_meters":4800,"station_id":"ce4bgip2rcd13ifvqbb0","pricing_plan_id":"free"},{"bike_id":"3e3e92fe-39b7-4933-99ff-3747b28b5d69","system_id":"levelo_inurba_marseille","lat":43.328154,"lon":5.380034,"is_reserved":false,"is_disabled":false,"rental_uris":{"android":"levelo://app?vid=3e3e92fe-39b7-4933-99ff-3747b28b5d69","ios":"levelo://app?vid=3e3e92fe-39b7-4933-99ff-3747b28b5d69"},"vehicle_type_id":"4","last_reported":1700330907,"current_range_meters":9200,"station_id":"","pricing_plan_id":"free"},{"bike_id":"04092612-b1b1-4253-ad1c-d08ef8a0d4f2","system_id":"levelo_inurba_marseille","lat":43.328371,"lon":5.366909,"is_reserved":false,"is_disabled":false,"rental_uris":{"android":"levelo://app?vid=04092612-b1b1-4253-ad1c-d08ef8a0d4f2","ios":"levelo://app?vid=04092612-b1b1-4253-ad1c-d08ef8a0d4f2"},"vehicle_type_id":"4","last_reported":1700330907,"current_range_meters":6800,"station_id":"ce4bhs92rcd13ifvqi0g","pricing_plan_id":"free"},{"bike_id":"67ffd28a-0325-489b-a10f-d90500122751","system_id":"levelo_inurba_marseille","lat":43.29556,"lon":5.37534,"is_reserved":false,"is_disabled":false,"rental_uris":{"android":"levelo://app?vid=67ffd28a-0325-489b-a10f-d90500122751","ios":"levelo://app?vid=67ffd28a-0325-489b-a10f-d90500122751"},"vehicle_type_id":"4","last_reported":1700330907,"current_range_meters":30000,"station_id":"ce4bgh92rcd13ifvqb50","pricing_plan_id":"free"},{"bike_id":"e145a3f7-00ac-4f8f-bfe5-435bc38ccaf7","system_id":"levelo_inurba_marseille","lat":43.293801,"lon":5.363066,"is_reserved":false,"is_disabled":false,"rental_uris":{"android":"levelo://app?vid=e145a3f7-00ac-4f8f-bfe5-435bc38ccaf7","ios":"levelo://app?vid=e145a3f7-00ac-4f8f-bfe5-435bc38ccaf7"},"vehicle_type_id":"4","last_reported":1700330907,"current_range_meters":26800,"station_id":"","pricing_plan_id":"free"},{"bike_id":"3100bf3a-f9e8-4efe-937d-1557b60917b3","system_id":"levelo_inurba_marseille","lat":43.293259,"lon":5.371586,"is_reserved":false,"is_disabled":false,"rental_uris":{"android":"levelo://app?vid=3100bf3a-f9e8-4efe-937d-1557b60917b3","ios":"levelo://app?vid=3100bf3a-f9e8-4efe-937d-1557b60917b3"},"vehicle_type_id":"4","last_reported":1700330907,"current_range_meters":2800,"station_id":"ce4bgh92rcd13ifvqb40","pricing_plan_id":"free"},{"bike_id":"8ae8e3fb-e758-4751-b478-dd441f7fb7ce","system_id":"levelo_inurba_marseille","lat":43.292749,"lon":5.368402,"is_reserved":false,"is_disabled":false,"rental_uris":{"android":"levelo://app?vid=8ae8e3fb-e758-4751-b478-dd441f7fb7ce","ios":"levelo://app?vid=8ae8e3fb-e758-4751-b478-dd441f7fb7ce"},"vehicle_type_id":"4","last_reported":1700330907,"current_range_meters":27600,"station_id":"ce4bhbp2rcd13ifvqesg","pricing_plan_id":"free"},{"bike_id":"59b5cb64-16e7-472b-942c-ff762ee04b94","system_id":"levelo_inurba_marseille","lat":43.292749,"lon":5.368402,"is_reserved":false,"is_disabled":false,"rental_uris":{"android":"levelo://app?vid=59b5cb64-16e7-472b-942c-ff762ee04b94","ios":"levelo://app?vid=59b5cb64-16e7-472b-942c-ff762ee04b94"},"vehicle_type_id":"4","last_reported":1700330907,"current_range_meters":4800,"station_id":"ce4bhbp2rcd13ifvqesg","pricing_plan_id":"free"},{"bike_id":"8e338dff-012b-4b30-b171-66d5e5bf7100","system_id":"levelo_inurba_marseille","lat":43.303002,"lon":5.392142,"is_reserved":false,"is_disabled":false,"rental_uris":{"android":"levelo://app?vid=8e338dff-012b-4b30-b171-66d5e5bf7100","ios":"levelo://app?vid=8e338dff-012b-4b30-b171-66d5e5bf7100"},"vehicle_type_id":"4","last_reported":1700330907,"current_range_meters":800,"station_id":"ce4bgkh2rcd13ifvqbk0","pricing_plan_id":"free"},{"bike_id":"a0951489-3b03-41fb-ab76-2b8f43d55244","system_id":"levelo_inurba_marseille","lat":43.292311,"lon":5.360731,"is_reserved":false,"is_disabled":false,"rental_uris":{"android":"levelo://app?vid=a0951489-3b03-41fb-ab76-2b8f43d55244","ios":"levelo://app?vid=a0951489-3b03-41fb-ab76-2b8f43d55244"},"vehicle_type_id":"4","last_reported":1700330907,"current_range_meters":29600,"station_id":"ce4bhbh2rcd13ifvqeqg","pricing_plan_id":"free"},{"bike_id":"786afbe7-ae1c-4641-93b3-eee911fd07e4","system_id":"levelo_inurba_marseille","lat":43.292853,"lon":5.37704,"is_reserved":false,"is_disabled":false,"rental_uris":{"android":"levelo://app?vid=786afbe7-ae1c-4641-93b3-eee911fd07e4","ios":"levelo://app?vid=786afbe7-ae1c-4641-93b3-eee911fd07e4"},"vehicle_type_id":"4","last_reported":1700330907,"current_range_meters":0,"station_id":"","pricing_plan_id":"free"},{"bike_id":"4eef38cc-64cf-4f4d-8d5b-99bd9d3b1b37","system_id":"levelo_inurba_marseille","lat":43.291675,"lon":5.371583,"is_reserved":false,"is_disabled":false,"rental_uris":{"android":"levelo://app?vid=4eef38cc-64cf-4f4d-8d5b-99bd9d3b1b37","ios":"levelo://app?vid=4eef38cc-64cf-4f4d-8d5b-99bd9d3b1b37"},"vehicle_type_id":"4","last_reported":1700330907,"current_range_meters":27200,"station_id":"ce4bha92rcd13ifvqeh0","pricing_plan_id":"free"},{"bike_id":"dafa8b1e-fa43-4873-83d7-7eaa0a8b8e58","system_id":"levelo_inurba_marseille","lat":43.29175,"lon":5.3715,"is_reserved":false,"is_disabled":false,"rental_uris":{"android":"levelo://app?vid=dafa8b1e-fa43-4873-83d7-7eaa0a8b8e58","ios":"levelo://app?vid=dafa8b1e-fa43-4873-83d7-7eaa0a8b8e58"},"vehicle_type_id":"4","last_reported":1700330907,"current_range_meters":0,"station_id":"ce4bha92rcd13ifvqeh0","pricing_plan_id":"free"},{"bike_id":"1045079f-fe33-4948-938b-51dceba28122","system_id":"levelo_inurba_marseille","lat":43.291639,"lon":5.371531,"is_reserved":false,"is_disabled":false,"rental_uris":{"android":"levelo://app?vid=1045079f-fe33-4948-938b-51dceba28122","ios":"levelo://app?vid=1045079f-fe33-4948-938b-51dceba28122"},"vehicle_type_id":"4","last_reported":1700330907,"current_range_meters":0,"station_id":"ce4bha92rcd13ifvqeh0","pricing_plan_id":"free"},{"bike_id":"01d638d7-10e0-4c23-8c00-2961950459aa","system_id":"levelo_inurba_marseille","lat":43.29194,"lon":5.35805,"is_reserved":false,"is_disabled":false,"rental_uris":{"android":"levelo://app?vid=01d638d7-10e0-4c23-8c00-2961950459aa","ios":"levelo://app?vid=01d638d7-10e0-4c23-8c00-2961950459aa"},"vehicle_type_id":"4","last_reported":1700330907,"current_range_meters":13600,"station_id":"ce4bhb12rcd13ifvqel0","pricing_plan_id":"free"},{"bike_id":"9ebf2f5b-ce23-4a29-83a7-64d920e203d1","system_id":"levelo_inurba_marseille","lat":43.31328,"lon":5.39692,"is_reserved":false,"is_disabled":false,"rental_uris":{"android":"levelo://app?vid=9ebf2f5b-ce23-4a29-83a7-64d920e203d1","ios":"levelo://app?vid=9ebf2f5b-ce23-4a29-83a7-64d920e203d1"},"vehicle_type_id":"4","last_reported":1700330907,"current_range_meters":0,"station_id":"ce4bgvp2rcd13ifvqcu0","pricing_plan_id":"free"},{"bike_id":"8a17bbe0-84b1-47e3-b712-070c248250dc","system_id":"levelo_inurba_marseille","lat":43.31329,"lon":5.39692,"is_reserved":false,"is_disabled":false,"rental_uris":{"android":"levelo://app?vid=8a17bbe0-84b1-47e3-b712-070c248250dc","ios":"levelo://app?vid=8a17bbe0-84b1-47e3-b712-070c248250dc"},"vehicle_type_id":"4","last_reported":1700330907,"current_range_meters":12000,"station_id":"ce4bgvp2rcd13ifvqcu0","pricing_plan_id":"free"},{"bike_id":"b4d71117-9819-41d5-81b5-34d71b83ca1d","system_id":"levelo_inurba_marseille","lat":43.313289,"lon":5.396949,"is_reserved":false,"is_disabled":false,"rental_uris":{"android":"levelo://app?vid=b4d71117-9819-41d5-81b5-34d71b83ca1d","ios":"levelo://app?vid=b4d71117-9819-41d5-81b5-34d71b83ca1d"},"vehicle_type_id":"4","last_reported":1700330907,"current_range_meters":0,"station_id":"ce4bgvp2rcd13ifvqcu0","pricing_plan_id":"free"},{"bike_id":"f1ba0a95-c5e9-4f77-b773-bb8fd3979329","system_id":"levelo_inurba_marseille","lat":43.294162,"lon":5.386292,"is_reserved":false,"is_disabled":false,"rental_uris":{"android":"levelo://app?vid=f1ba0a95-c5e9-4f77-b773-bb8fd3979329","ios":"levelo://app?vid=f1ba0a95-c5e9-4f77-b773-bb8fd3979329"},"vehicle_type_id":"4","last_reported":1700330907,"current_range_meters":1600,"station_id":"ce4bh2h2rcd13ifvqdh0","pricing_plan_id":"free"},{"bike_id":"3248762f-4c68-478e-9b7a-326ac0430373","system_id":"levelo_inurba_marseille","lat":43.28948,"lon":5.36396,"is_reserved":false,"is_disabled":false,"rental_uris":{"android":"levelo://app?vid=3248762f-4c68-478e-9b7a-326ac0430373","ios":"levelo://app?vid=3248762f-4c68-478e-9b7a-326ac0430373"},"vehicle_type_id":"4","last_reported":1700330907,"current_range_meters":5600,"station_id":"ce4bhc92rcd13ifvqetg","pricing_plan_id":"free"},{"bike_id":"ed1fc078-b670-489e-923b-836d61f28222","system_id":"levelo_inurba_marseille","lat":43.289468,"lon":5.363719,"is_reserved":false,"is_disabled":false,"rental_uris":{"android":"levelo://app?vid=ed1fc078-b670-489e-923b-836d61f28222","ios":"levelo://app?vid=ed1fc078-b670-489e-923b-836d61f28222"},"vehicle_type_id":"4","last_reported":1700330907,"current_range_meters":29200,"station_id":"ce4bhc92rcd13ifvqetg","pricing_plan_id":"free"},{"bike_id":"fcfa4037-620d-441c-9a95-fa3fee81e2da","system_id":"levelo_inurba_marseille","lat":43.304296,"lon":5.397513,"is_reserved":false,"is_disabled":false,"rental_uris":{"android":"levelo://app?vid=fcfa4037-620d-441c-9a95-fa3fee81e2da","ios":"levelo://app?vid=fcfa4037-620d-441c-9a95-fa3fee81e2da"},"vehicle_type_id":"4","last_reported":1700330907,"current_range_meters":23600,"station_id":"ce4bh092rcd13ifvqd20","pricing_plan_id":"free"},{"bike_id":"466447ca-75b3-4a33-8693-227381e65310","system_id":"levelo_inurba_marseille","lat":43.292642,"lon":5.384254,"is_reserved":false,"is_disabled":false,"rental_uris":{"android":"levelo://app?vid=466447ca-75b3-4a33-8693-227381e65310","ios":"levelo://app?vid=466447ca-75b3-4a33-8693-227381e65310"},"vehicle_type_id":"4","last_reported":1700330907,"current_range_meters":2000,"station_id":"ce4bh692rcd13ifvqea0","pricing_plan_id":"free"},{"bike_id":"0e307cd0-4ba9-4a37-8bce-b4d5ea6ea795","system_id":"levelo_inurba_marseille","lat":43.29015,"lon":5.35622,"is_reserved":false,"is_disabled":false,"rental_uris":{"android":"levelo://app?vid=0e307cd0-4ba9-4a37-8bce-b4d5ea6ea795","ios":"levelo://app?vid=0e307cd0-4ba9-4a37-8bce-b4d5ea6ea795"},"vehicle_type_id":"4","last_reported":1700330907,"current_range_meters":0,"station_id":"ce4bhb92rcd13ifvqen0","pricing_plan_id":"free"},{"bike_id":"689eef18-f755-4250-a4d3-2636d5cf864a","system_id":"levelo_inurba_marseille","lat":43.28856,"lon":5.358371,"is_reserved":false,"is_disabled":false,"rental_uris":{"android":"levelo://app?vid=689eef18-f755-4250-a4d3-2636d5cf864a","ios":"levelo://app?vid=689eef18-f755-4250-a4d3-2636d5cf864a"},"vehicle_type_id":"4","last_reported":1700330907,"current_range_meters":0,"station_id":"ce4bhb12rcd13ifvqem0","pricing_plan_id":"free"},{"bike_id":"07202f70-50d7-46f0-a5bd-59712659d6a0","system_id":"levelo_inurba_marseille","lat":43.31251,"lon":5.40162,"is_reserved":false,"is_disabled":false,"rental_uris":{"android":"levelo://app?vid=07202f70-50d7-46f0-a5bd-59712659d6a0","ios":"levelo://app?vid=07202f70-50d7-46f0-a5bd-59712659d6a0"},"vehicle_type_id":"4","last_reported":1700330907,"current_range_meters":14000,"station_id":"","pricing_plan_id":"free"},{"bike_id":"34a98f64-7083-4dcd-9257-5a963cf539ff","system_id":"levelo_inurba_marseille","lat":43.31273,"lon":5.40165,"is_reserved":false,"is_disabled":false,"rental_uris":{"android":"levelo://app?vid=34a98f64-7083-4dcd-9257-5a963cf539ff","ios":"levelo://app?vid=34a98f64-7083-4dcd-9257-5a963cf539ff"},"vehicle_type_id":"4","last_reported":1700330907,"current_range_meters":0,"station_id":"ce4bh092rcd13ifvqd30","pricing_plan_id":"free"},{"bike_id":"b1af18f7-528d-4863-814a-91ecf1e21888","system_id":"levelo_inurba_marseille","lat":43.312717,"lon":5.40175,"is_reserved":false,"is_disabled":false,"rental_uris":{"android":"levelo://app?vid=b1af18f7-528d-4863-814a-91ecf1e21888","ios":"levelo://app?vid=b1af18f7-528d-4863-814a-91ecf1e21888"},"vehicle_type_id":"4","last_reported":1700330907,"current_range_meters":2800,"station_id":"ce4bh092rcd13ifvqd30","pricing_plan_id":"free"},{"bike_id":"07287842-a8b2-41af-9f3f-388b9fda951c","system_id":"levelo_inurba_marseille","lat":43.309371,"lon":5.401449,"is_reserved":false,"is_disabled":false,"rental_uris":{"android":"levelo://app?vid=07287842-a8b2-41af-9f3f-388b9fda951c","ios":"levelo://app?vid=07287842-a8b2-41af-9f3f-388b9fda951c"},"vehicle_type_id":"4","last_reported":1700330907,"current_range_meters":6400,"station_id":"ce4bgvp2rcd13ifvqct0","pricing_plan_id":"free"},{"bike_id":"7da21e19-21e9-477c-8ba7-f6664c5304d4","system_id":"levelo_inurba_marseille","lat":43.30922,"lon":5.40155,"is_reserved":false,"is_disabled":false,"rental_uris":{"android":"levelo://app?vid=7da21e19-21e9-477c-8ba7-f6664c5304d4","ios":"levelo://app?vid=7da21e19-21e9-477c-8ba7-f6664c5304d4"},"vehicle_type_id":"4","last_reported":1700330907,"current_range_meters":4800,"station_id":"ce4bgvp2rcd13ifvqct0","pricing_plan_id":"free"},{"bike_id":"295eb4cc-510a-436c-9af0-32b9465bb913","system_id":"levelo_inurba_marseille","lat":43.306412,"lon":5.401035,"is_reserved":false,"is_disabled":false,"rental_uris":{"android":"levelo://app?vid=295eb4cc-510a-436c-9af0-32b9465bb913","ios":"levelo://app?vid=295eb4cc-510a-436c-9af0-32b9465bb913"},"vehicle_type_id":"4","last_reported":1700330907,"current_range_meters":2400,"station_id":"ce4bh112rcd13ifvqda0","pricing_plan_id":"free"},{"bike_id":"6b9befe1-52d4-46ac-b47e-5e9e1f600595","system_id":"levelo_inurba_marseille","lat":43.306412,"lon":5.401035,"is_reserved":false,"is_disabled":false,"rental_uris":{"android":"levelo://app?vid=6b9befe1-52d4-46ac-b47e-5e9e1f600595","ios":"levelo://app?vid=6b9befe1-52d4-46ac-b47e-5e9e1f600595"},"vehicle_type_id":"4","last_reported":1700330907,"current_range_meters":5200,"station_id":"ce4bh112rcd13ifvqda0","pricing_plan_id":"free"},{"bike_id":"b3b31a9c-2b06-4731-a6fe-886992b25751","system_id":"levelo_inurba_marseille","lat":43.28722,"lon":5.360853,"is_reserved":false,"is_disabled":false,"rental_uris":{"android":"levelo://app?vid=b3b31a9c-2b06-4731-a6fe-886992b25751","ios":"levelo://app?vid=b3b31a9c-2b06-4731-a6fe-886992b25751"},"vehicle_type_id":"4","last_reported":1700330907,"current_range_meters":31200,"station_id":"cki0cbj6b192h4jlfktg","pricing_plan_id":"free"},{"bike_id":"c1efe728-81c6-421c-98a3-c567f9ef7af9","system_id":"levelo_inurba_marseille","lat":43.2908,"lon":5.38586,"is_reserved":false,"is_disabled":false,"rental_uris":{"android":"levelo://app?vid=c1efe728-81c6-421c-98a3-c567f9ef7af9","ios":"levelo://app?vid=c1efe728-81c6-421c-98a3-c567f9ef7af9"},"vehicle_type_id":"4","last_reported":1700330907,"current_range_meters":22400,"station_id":"ce4bh4p2rcd13ifvqe0g","pricing_plan_id":"free"},{"bike_id":"52c19b06-8b98-484c-950c-76bc432638bd","system_id":"levelo_inurba_marseille","lat":43.28714,"lon":5.3609,"is_reserved":false,"is_disabled":false,"rental_uris":{"android":"levelo://app?vid=52c19b06-8b98-484c-950c-76bc432638bd","ios":"levelo://app?vid=52c19b06-8b98-484c-950c-76bc432638bd"},"vehicle_type_id":"4","last_reported":1700330907,"current_range_meters":18400,"station_id":"cki0cbj6b192h4jlfktg","pricing_plan_id":"free"},{"bike_id":"c303fdab-e065-434c-a016-b0f78b21ffe1","system_id":"levelo_inurba_marseille","lat":43.298681,"lon":5.397225,"is_reserved":false,"is_disabled":false,"rental_uris":{"android":"levelo://app?vid=c303fdab-e065-434c-a016-b0f78b21ffe1","ios":"levelo://app?vid=c303fdab-e065-434c-a016-b0f78b21ffe1"},"vehicle_type_id":"4","last_reported":1700330907,"current_range_meters":3600,"station_id":"ce4bh0h2rcd13ifvqd50","pricing_plan_id":"free"},{"bike_id":"e9f3bb43-d0b1-4e4a-a1ac-0fc75e5ddd90","system_id":"levelo_inurba_marseille","lat":43.289411,"lon":5.384035,"is_reserved":false,"is_disabled":false,"rental_uris":{"android":"levelo://app?vid=e9f3bb43-d0b1-4e4a-a1ac-0fc75e5ddd90","ios":"levelo://app?vid=e9f3bb43-d0b1-4e4a-a1ac-0fc75e5ddd90"},"vehicle_type_id":"4","last_reported":1700330907,"current_range_meters":22800,"station_id":"ce4bh612rcd13ifvqe6g","pricing_plan_id":"free"},{"bike_id":"f303acab-6579-4dcd-8c8d-ba3f8c4f0b78","system_id":"levelo_inurba_marseille","lat":43.28928,"lon":5.38382,"is_reserved":false,"is_disabled":false,"rental_uris":{"android":"levelo://app?vid=f303acab-6579-4dcd-8c8d-ba3f8c4f0b78","ios":"levelo://app?vid=f303acab-6579-4dcd-8c8d-ba3f8c4f0b78"},"vehicle_type_id":"4","last_reported":1700330907,"current_range_meters":24000,"station_id":"ce4bh612rcd13ifvqe6g","pricing_plan_id":"free"},{"bike_id":"4dfdecec-ed9b-4db8-8ffa-fdd6c9373b07","system_id":"levelo_inurba_marseille","lat":43.29028,"lon":5.386423,"is_reserved":false,"is_disabled":false,"rental_uris":{"android":"levelo://app?vid=4dfdecec-ed9b-4db8-8ffa-fdd6c9373b07","ios":"levelo://app?vid=4dfdecec-ed9b-4db8-8ffa-fdd6c9373b07"},"vehicle_type_id":"4","last_reported":1700330907,"current_range_meters":3200,"station_id":"ce4bh4p2rcd13ifvqe0g","pricing_plan_id":"free"},{"bike_id":"c481e3ed-bd70-4aa7-a2e1-bd468838a7f2","system_id":"levelo_inurba_marseille","lat":43.287703,"lon":5.379663,"is_reserved":false,"is_disabled":false,"rental_uris":{"android":"levelo://app?vid=c481e3ed-bd70-4aa7-a2e1-bd468838a7f2","ios":"levelo://app?vid=c481e3ed-bd70-4aa7-a2e1-bd468838a7f2"},"vehicle_type_id":"4","last_reported":1700330907,"current_range_meters":400,"station_id":"","pricing_plan_id":"free"},{"bike_id":"b2089826-86fd-4b66-8577-8ba04b1269b8","system_id":"levelo_inurba_marseille","lat":43.289307,"lon":5.38406,"is_reserved":false,"is_disabled":false,"rental_uris":{"android":"levelo://app?vid=b2089826-86fd-4b66-8577-8ba04b1269b8","ios":"levelo://app?vid=b2089826-86fd-4b66-8577-8ba04b1269b8"},"vehicle_type_id":"4","last_reported":1700330907,"current_range_meters":11200,"station_id":"ce4bh612rcd13ifvqe6g","pricing_plan_id":"free"},{"bike_id":"f4d84116-d5ac-43fc-b73e-b25f7431ab6e","system_id":"levelo_inurba_marseille","lat":43.286039,"lon":5.370679,"is_reserved":false,"is_disabled":false,"rental_uris":{"android":"levelo://app?vid=f4d84116-d5ac-43fc-b73e-b25f7431ab6e","ios":"levelo://app?vid=f4d84116-d5ac-43fc-b73e-b25f7431ab6e"},"vehicle_type_id":"4","last_reported":1700330907,"current_range_meters":17200,"station_id":"ce4bht12rcd13ifvqi60","pricing_plan_id":"free"},{"bike_id":"ceef56d8-2172-4c9e-b5a0-525b6b25e56c","system_id":"levelo_inurba_marseille","lat":43.286039,"lon":5.370681,"is_reserved":false,"is_disabled":false,"rental_uris":{"android":"levelo://app?vid=ceef56d8-2172-4c9e-b5a0-525b6b25e56c","ios":"levelo://app?vid=ceef56d8-2172-4c9e-b5a0-525b6b25e56c"},"vehicle_type_id":"4","last_reported":1700330907,"current_range_meters":2800,"station_id":"ce4bht12rcd13ifvqi60","pricing_plan_id":"free"},{"bike_id":"3a10a09f-53ef-40ce-8b99-221792831c4b","system_id":"levelo_inurba_marseille","lat":43.286039,"lon":5.370681,"is_reserved":false,"is_disabled":false,"rental_uris":{"android":"levelo://app?vid=3a10a09f-53ef-40ce-8b99-221792831c4b","ios":"levelo://app?vid=3a10a09f-53ef-40ce-8b99-221792831c4b"},"vehicle_type_id":"4","last_reported":1700330907,"current_range_meters":10000,"station_id":"ce4bht12rcd13ifvqi60","pricing_plan_id":"free"},{"bike_id":"cef66d58-0298-4d1a-b384-5c67d128a746","system_id":"levelo_inurba_marseille","lat":43.291994,"lon":5.392907,"is_reserved":false,"is_disabled":false,"rental_uris":{"android":"levelo://app?vid=cef66d58-0298-4d1a-b384-5c67d128a746","ios":"levelo://app?vid=cef66d58-0298-4d1a-b384-5c67d128a746"},"vehicle_type_id":"4","last_reported":1700330907,"current_range_meters":2400,"station_id":"ce4bh192rcd13ifvqdd0","pricing_plan_id":"free"},{"bike_id":"0a12431e-fe41-4c97-aca8-58b575d6bdbe","system_id":"levelo_inurba_marseille","lat":43.291994,"lon":5.392907,"is_reserved":false,"is_disabled":false,"rental_uris":{"android":"levelo://app?vid=0a12431e-fe41-4c97-aca8-58b575d6bdbe","ios":"levelo://app?vid=0a12431e-fe41-4c97-aca8-58b575d6bdbe"},"vehicle_type_id":"4","last_reported":1700330907,"current_range_meters":16800,"station_id":"ce4bh192rcd13ifvqdd0","pricing_plan_id":"free"},{"bike_id":"0b46b1b4-f42b-4e67-9aef-2797da64a2b5","system_id":"levelo_inurba_marseille","lat":43.331194,"lon":5.39695,"is_reserved":false,"is_disabled":false,"rental_uris":{"android":"levelo://app?vid=0b46b1b4-f42b-4e67-9aef-2797da64a2b5","ios":"levelo://app?vid=0b46b1b4-f42b-4e67-9aef-2797da64a2b5"},"vehicle_type_id":"4","last_reported":1700330907,"current_range_meters":18000,"station_id":"","pricing_plan_id":"free"},{"bike_id":"5ad3762e-98c7-4713-b667-13446714c1da","system_id":"levelo_inurba_marseille","lat":43.28622,"lon":5.35111,"is_reserved":false,"is_disabled":false,"rental_uris":{"android":"levelo://app?vid=5ad3762e-98c7-4713-b667-13446714c1da","ios":"levelo://app?vid=5ad3762e-98c7-4713-b667-13446714c1da"},"vehicle_type_id":"4","last_reported":1700330907,"current_range_meters":25200,"station_id":"ce4bhch2rcd13ifvqeug","pricing_plan_id":"free"},{"bike_id":"98018165-68ff-46d6-b152-3dcac1307023","system_id":"levelo_inurba_marseille","lat":43.28617,"lon":5.35107,"is_reserved":false,"is_disabled":false,"rental_uris":{"android":"levelo://app?vid=98018165-68ff-46d6-b152-3dcac1307023","ios":"levelo://app?vid=98018165-68ff-46d6-b152-3dcac1307023"},"vehicle_type_id":"4","last_reported":1700330907,"current_range_meters":0,"station_id":"ce4bhch2rcd13ifvqeug","pricing_plan_id":"free"},{"bike_id":"dc4ba42b-6523-4563-be06-5743adc03307","system_id":"levelo_inurba_marseille","lat":43.28615,"lon":5.35104,"is_reserved":false,"is_disabled":false,"rental_uris":{"android":"levelo://app?vid=dc4ba42b-6523-4563-be06-5743adc03307","ios":"levelo://app?vid=dc4ba42b-6523-4563-be06-5743adc03307"},"vehicle_type_id":"4","last_reported":1700330907,"current_range_meters":30000,"station_id":"ce4bhch2rcd13ifvqeug","pricing_plan_id":"free"},{"bike_id":"d94dfb15-e572-4e59-af3c-ee7cbd62cef5","system_id":"levelo_inurba_marseille","lat":43.295717,"lon":5.399697,"is_reserved":false,"is_disabled":false,"rental_uris":{"android":"levelo://app?vid=d94dfb15-e572-4e59-af3c-ee7cbd62cef5","ios":"levelo://app?vid=d94dfb15-e572-4e59-af3c-ee7cbd62cef5"},"vehicle_type_id":"4","last_reported":1700330907,"current_range_meters":13200,"station_id":"","pricing_plan_id":"free"},{"bike_id":"83817918-40fc-48a0-b4d2-4ca9f198594c","system_id":"levelo_inurba_marseille","lat":43.294538,"lon":5.39855,"is_reserved":false,"is_disabled":false,"rental_uris":{"android":"levelo://app?vid=83817918-40fc-48a0-b4d2-4ca9f198594c","ios":"levelo://app?vid=83817918-40fc-48a0-b4d2-4ca9f198594c"},"vehicle_type_id":"4","last_reported":1700330907,"current_range_meters":0,"station_id":"","pricing_plan_id":"free"},{"bike_id":"ae7e04ed-2639-4fa0-8a02-a24e95909fbb","system_id":"levelo_inurba_marseille","lat":43.295617,"lon":5.400367,"is_reserved":false,"is_disabled":false,"rental_uris":{"android":"levelo://app?vid=ae7e04ed-2639-4fa0-8a02-a24e95909fbb","ios":"levelo://app?vid=ae7e04ed-2639-4fa0-8a02-a24e95909fbb"},"vehicle_type_id":"4","last_reported":1700330907,"current_range_meters":0,"station_id":"ce4bh312rcd13ifvqdj0","pricing_plan_id":"free"},{"bike_id":"ec6faddd-dca7-4d7f-9e40-c40a5a603d78","system_id":"levelo_inurba_marseille","lat":43.286595,"lon":5.386795,"is_reserved":false,"is_disabled":false,"rental_uris":{"android":"levelo://app?vid=ec6faddd-dca7-4d7f-9e40-c40a5a603d78","ios":"levelo://app?vid=ec6faddd-dca7-4d7f-9e40-c40a5a603d78"},"vehicle_type_id":"4","last_reported":1700330907,"current_range_meters":2400,"station_id":"ce4bh492rcd13ifvqdug","pricing_plan_id":"free"},{"bike_id":"5974ad3b-da81-42ca-a08b-1b3632a47afa","system_id":"levelo_inurba_marseille","lat":43.33237,"lon":5.3985,"is_reserved":false,"is_disabled":false,"rental_uris":{"android":"levelo://app?vid=5974ad3b-da81-42ca-a08b-1b3632a47afa","ios":"levelo://app?vid=5974ad3b-da81-42ca-a08b-1b3632a47afa"},"vehicle_type_id":"4","last_reported":1700330907,"current_range_meters":4400,"station_id":"","pricing_plan_id":"free"},{"bike_id":"3602b74d-bc5d-4276-85ce-c45681ab1737","system_id":"levelo_inurba_marseille","lat":43.33717,"lon":5.391857,"is_reserved":false,"is_disabled":false,"rental_uris":{"android":"levelo://app?vid=3602b74d-bc5d-4276-85ce-c45681ab1737","ios":"levelo://app?vid=3602b74d-bc5d-4276-85ce-c45681ab1737"},"vehicle_type_id":"4","last_reported":1700330907,"current_range_meters":12400,"station_id":"ce4bhr92rcd13ifvqhsg","pricing_plan_id":"free"},{"bike_id":"acd28e3d-78f0-4ed3-be3f-0d7655f0851a","system_id":"levelo_inurba_marseille","lat":43.284793,"lon":5.384119,"is_reserved":false,"is_disabled":false,"rental_uris":{"android":"levelo://app?vid=acd28e3d-78f0-4ed3-be3f-0d7655f0851a","ios":"levelo://app?vid=acd28e3d-78f0-4ed3-be3f-0d7655f0851a"},"vehicle_type_id":"4","last_reported":1700330907,"current_range_meters":0,"station_id":"ce4bh512rcd13ifvqe3g","pricing_plan_id":"free"},{"bike_id":"93bf329f-a672-445c-a1d0-8a796358270a","system_id":"levelo_inurba_marseille","lat":43.284793,"lon":5.384119,"is_reserved":false,"is_disabled":false,"rental_uris":{"android":"levelo://app?vid=93bf329f-a672-445c-a1d0-8a796358270a","ios":"levelo://app?vid=93bf329f-a672-445c-a1d0-8a796358270a"},"vehicle_type_id":"4","last_reported":1700330907,"current_range_meters":0,"station_id":"ce4bh512rcd13ifvqe3g","pricing_plan_id":"free"},{"bike_id":"c32b98f3-04eb-48d4-ab12-0bd5b3df53bf","system_id":"levelo_inurba_marseille","lat":43.28475,"lon":5.38412,"is_reserved":false,"is_disabled":false,"rental_uris":{"android":"levelo://app?vid=c32b98f3-04eb-48d4-ab12-0bd5b3df53bf","ios":"levelo://app?vid=c32b98f3-04eb-48d4-ab12-0bd5b3df53bf"},"vehicle_type_id":"4","last_reported":1700330907,"current_range_meters":0,"station_id":"ce4bh512rcd13ifvqe3g","pricing_plan_id":"free"},{"bike_id":"fba4ddfc-6c40-4380-91ed-3312cbd519f9","system_id":"levelo_inurba_marseille","lat":43.28473,"lon":5.38425,"is_reserved":false,"is_disabled":false,"rental_uris":{"android":"levelo://app?vid=fba4ddfc-6c40-4380-91ed-3312cbd519f9","ios":"levelo://app?vid=fba4ddfc-6c40-4380-91ed-3312cbd519f9"},"vehicle_type_id":"4","last_reported":1700330907,"current_range_meters":0,"station_id":"ce4bh512rcd13ifvqe3g","pricing_plan_id":"free"},{"bike_id":"d3dd3e3d-57b0-4c9e-949f-fddd56c2349c","system_id":"levelo_inurba_marseille","lat":43.32521,"lon":5.40575,"is_reserved":false,"is_disabled":false,"rental_uris":{"android":"levelo://app?vid=d3dd3e3d-57b0-4c9e-949f-fddd56c2349c","ios":"levelo://app?vid=d3dd3e3d-57b0-4c9e-949f-fddd56c2349c"},"vehicle_type_id":"4","last_reported":1700330907,"current_range_meters":1600,"station_id":"","pricing_plan_id":"free"},{"bike_id":"15be983c-8047-441f-bf26-026bfb76cfc4","system_id":"levelo_inurba_marseille","lat":43.283498,"lon":5.380948,"is_reserved":false,"is_disabled":false,"rental_uris":{"android":"levelo://app?vid=15be983c-8047-441f-bf26-026bfb76cfc4","ios":"levelo://app?vid=15be983c-8047-441f-bf26-026bfb76cfc4"},"vehicle_type_id":"4","last_reported":1700330907,"current_range_meters":5200,"station_id":"ce4bh412rcd13ifvqdr0","pricing_plan_id":"free"},{"bike_id":"519a68bd-d58b-4576-ba01-6ee462c7f0ee","system_id":"levelo_inurba_marseille","lat":43.284219,"lon":5.3497,"is_reserved":false,"is_disabled":false,"rental_uris":{"android":"levelo://app?vid=519a68bd-d58b-4576-ba01-6ee462c7f0ee","ios":"levelo://app?vid=519a68bd-d58b-4576-ba01-6ee462c7f0ee"},"vehicle_type_id":"4","last_reported":1700330907,"current_range_meters":10000,"station_id":"ce4bhbh2rcd13ifvqepg","pricing_plan_id":"free"},{"bike_id":"bb991472-e393-4a4c-880d-93333fe13da2","system_id":"levelo_inurba_marseille","lat":43.289363,"lon":5.396322,"is_reserved":false,"is_disabled":false,"rental_uris":{"android":"levelo://app?vid=bb991472-e393-4a4c-880d-93333fe13da2","ios":"levelo://app?vid=bb991472-e393-4a4c-880d-93333fe13da2"},"vehicle_type_id":"4","last_reported":1700330907,"current_range_meters":0,"station_id":"ce4bh3h2rcd13ifvqdn0","pricing_plan_id":"free"},{"bike_id":"dd4db11d-2c16-43b7-889d-58b35533a111","system_id":"levelo_inurba_marseille","lat":43.282754,"lon":5.350519,"is_reserved":false,"is_disabled":false,"rental_uris":{"android":"levelo://app?vid=dd4db11d-2c16-43b7-889d-58b35533a111","ios":"levelo://app?vid=dd4db11d-2c16-43b7-889d-58b35533a111"},"vehicle_type_id":"4","last_reported":1700330907,"current_range_meters":4000,"station_id":"ce4bhbp2rcd13ifvqerg","pricing_plan_id":"free"},{"bike_id":"119c34a3-58ad-4efa-a690-c1517f826182","system_id":"levelo_inurba_marseille","lat":43.282754,"lon":5.350519,"is_reserved":false,"is_disabled":false,"rental_uris":{"android":"levelo://app?vid=119c34a3-58ad-4efa-a690-c1517f826182","ios":"levelo://app?vid=119c34a3-58ad-4efa-a690-c1517f826182"},"vehicle_type_id":"4","last_reported":1700330907,"current_range_meters":20800,"station_id":"ce4bhbp2rcd13ifvqerg","pricing_plan_id":"free"},{"bike_id":"e83dbfc3-979e-4342-8cd9-8ff03db4ee4d","system_id":"levelo_inurba_marseille","lat":43.280382,"lon":5.369291,"is_reserved":false,"is_disabled":false,"rental_uris":{"android":"levelo://app?vid=e83dbfc3-979e-4342-8cd9-8ff03db4ee4d","ios":"levelo://app?vid=e83dbfc3-979e-4342-8cd9-8ff03db4ee4d"},"vehicle_type_id":"4","last_reported":1700330907,"current_range_meters":0,"station_id":"ce4bha12rcd13ifvqef0","pricing_plan_id":"free"},{"bike_id":"3daffaab-ff1d-4009-b78b-7beae52cc7a4","system_id":"levelo_inurba_marseille","lat":43.280382,"lon":5.369291,"is_reserved":false,"is_disabled":false,"rental_uris":{"android":"levelo://app?vid=3daffaab-ff1d-4009-b78b-7beae52cc7a4","ios":"levelo://app?vid=3daffaab-ff1d-4009-b78b-7beae52cc7a4"},"vehicle_type_id":"4","last_reported":1700330907,"current_range_meters":13600,"station_id":"ce4bha12rcd13ifvqef0","pricing_plan_id":"free"},{"bike_id":"0541bfad-e7cf-4214-9562-a64f85492a3c","system_id":"levelo_inurba_marseille","lat":43.283502,"lon":5.386471,"is_reserved":false,"is_disabled":false,"rental_uris":{"android":"levelo://app?vid=0541bfad-e7cf-4214-9562-a64f85492a3c","ios":"levelo://app?vid=0541bfad-e7cf-4214-9562-a64f85492a3c"},"vehicle_type_id":"4","last_reported":1700330907,"current_range_meters":6800,"station_id":"ce4bh492rcd13ifvqdvg","pricing_plan_id":"free"},{"bike_id":"e706b32a-5779-4989-911e-73110a6ff485","system_id":"levelo_inurba_marseille","lat":43.28039,"lon":5.369297,"is_reserved":false,"is_disabled":false,"rental_uris":{"android":"levelo://app?vid=e706b32a-5779-4989-911e-73110a6ff485","ios":"levelo://app?vid=e706b32a-5779-4989-911e-73110a6ff485"},"vehicle_type_id":"4","last_reported":1700330907,"current_range_meters":14800,"station_id":"ce4bha12rcd13ifvqef0","pricing_plan_id":"free"},{"bike_id":"db2fe44b-2c45-4f99-81f8-9e3f83bbcdcb","system_id":"levelo_inurba_marseille","lat":43.281044,"lon":5.378308,"is_reserved":false,"is_disabled":false,"rental_uris":{"android":"levelo://app?vid=db2fe44b-2c45-4f99-81f8-9e3f83bbcdcb","ios":"levelo://app?vid=db2fe44b-2c45-4f99-81f8-9e3f83bbcdcb"},"vehicle_type_id":"4","last_reported":1700330907,"current_range_meters":14000,"station_id":"ce4bha12rcd13ifvqee0","pricing_plan_id":"free"},{"bike_id":"b97592bd-7dda-471c-a26e-5f6f0314ae37","system_id":"levelo_inurba_marseille","lat":43.281044,"lon":5.378308,"is_reserved":false,"is_disabled":false,"rental_uris":{"android":"levelo://app?vid=b97592bd-7dda-471c-a26e-5f6f0314ae37","ios":"levelo://app?vid=b97592bd-7dda-471c-a26e-5f6f0314ae37"},"vehicle_type_id":"4","last_reported":1700330907,"current_range_meters":10400,"station_id":"ce4bha12rcd13ifvqee0","pricing_plan_id":"free"},{"bike_id":"ea9bc46c-ba21-478e-952d-f3b752a2c70c","system_id":"levelo_inurba_marseille","lat":43.281044,"lon":5.378308,"is_reserved":false,"is_disabled":false,"rental_uris":{"android":"levelo://app?vid=ea9bc46c-ba21-478e-952d-f3b752a2c70c","ios":"levelo://app?vid=ea9bc46c-ba21-478e-952d-f3b752a2c70c"},"vehicle_type_id":"4","last_reported":1700330907,"current_range_meters":5600,"station_id":"ce4bha12rcd13ifvqee0","pricing_plan_id":"free"},{"bike_id":"ccf9b17e-2fb6-47d5-b5cb-73ea08fcb6e5","system_id":"levelo_inurba_marseille","lat":43.28575,"lon":5.39498,"is_reserved":false,"is_disabled":false,"rental_uris":{"android":"levelo://app?vid=ccf9b17e-2fb6-47d5-b5cb-73ea08fcb6e5","ios":"levelo://app?vid=ccf9b17e-2fb6-47d5-b5cb-73ea08fcb6e5"},"vehicle_type_id":"4","last_reported":1700330907,"current_range_meters":400,"station_id":"ce4bh292rcd13ifvqdg0","pricing_plan_id":"free"},{"bike_id":"10bd8538-9872-4554-81be-236c9fdf5015","system_id":"levelo_inurba_marseille","lat":43.326605,"lon":5.409903,"is_reserved":false,"is_disabled":false,"rental_uris":{"android":"levelo://app?vid=10bd8538-9872-4554-81be-236c9fdf5015","ios":"levelo://app?vid=10bd8538-9872-4554-81be-236c9fdf5015"},"vehicle_type_id":"4","last_reported":1700330907,"current_range_meters":26000,"station_id":"ce4bhpp2rcd13ifvqhgg","pricing_plan_id":"free"},{"bike_id":"427d5d7e-6b85-48a9-b651-2346e3f74aa5","system_id":"levelo_inurba_marseille","lat":43.326605,"lon":5.409903,"is_reserved":false,"is_disabled":false,"rental_uris":{"android":"levelo://app?vid=427d5d7e-6b85-48a9-b651-2346e3f74aa5","ios":"levelo://app?vid=427d5d7e-6b85-48a9-b651-2346e3f74aa5"},"vehicle_type_id":"4","last_reported":1700330907,"current_range_meters":8000,"station_id":"ce4bhpp2rcd13ifvqhgg","pricing_plan_id":"free"},{"bike_id":"c731a2d8-4b6d-4750-88d2-f37d25e13b0d","system_id":"levelo_inurba_marseille","lat":43.326605,"lon":5.409903,"is_reserved":false,"is_disabled":false,"rental_uris":{"android":"levelo://app?vid=c731a2d8-4b6d-4750-88d2-f37d25e13b0d","ios":"levelo://app?vid=c731a2d8-4b6d-4750-88d2-f37d25e13b0d"},"vehicle_type_id":"4","last_reported":1700330907,"current_range_meters":29600,"station_id":"ce4bhpp2rcd13ifvqhgg","pricing_plan_id":"free"},{"bike_id":"f4a126b7-ca1d-41e5-94fa-6e607fc0c77e","system_id":"levelo_inurba_marseille","lat":43.279087,"lon":5.380114,"is_reserved":false,"is_disabled":false,"rental_uris":{"android":"levelo://app?vid=f4a126b7-ca1d-41e5-94fa-6e607fc0c77e","ios":"levelo://app?vid=f4a126b7-ca1d-41e5-94fa-6e607fc0c77e"},"vehicle_type_id":"4","last_reported":1700330907,"current_range_meters":7600,"station_id":"ce4bhf92rcd13ifvqf50","pricing_plan_id":"free"},{"bike_id":"d50e6e15-d891-428c-a85b-b46b6fb478a5","system_id":"levelo_inurba_marseille","lat":43.287154,"lon":5.399979,"is_reserved":false,"is_disabled":false,"rental_uris":{"android":"levelo://app?vid=d50e6e15-d891-428c-a85b-b46b6fb478a5","ios":"levelo://app?vid=d50e6e15-d891-428c-a85b-b46b6fb478a5"},"vehicle_type_id":"4","last_reported":1700330907,"current_range_meters":4800,"station_id":"ce4bho92rcd13ifvqh3g","pricing_plan_id":"free"},{"bike_id":"8e9cebcc-1987-4348-87cf-10365cf07425","system_id":"levelo_inurba_marseille","lat":43.280543,"lon":5.387178,"is_reserved":false,"is_disabled":false,"rental_uris":{"android":"levelo://app?vid=8e9cebcc-1987-4348-87cf-10365cf07425","ios":"levelo://app?vid=8e9cebcc-1987-4348-87cf-10365cf07425"},"vehicle_type_id":"4","last_reported":1700330907,"current_range_meters":2800,"station_id":"","pricing_plan_id":"free"},{"bike_id":"feca28d2-7019-4e39-96be-d7938cc29597","system_id":"levelo_inurba_marseille","lat":43.32435,"lon":5.4137,"is_reserved":false,"is_disabled":false,"rental_uris":{"android":"levelo://app?vid=feca28d2-7019-4e39-96be-d7938cc29597","ios":"levelo://app?vid=feca28d2-7019-4e39-96be-d7938cc29597"},"vehicle_type_id":"4","last_reported":1700330907,"current_range_meters":0,"station_id":"","pricing_plan_id":"free"},{"bike_id":"55118acd-67a3-4650-a017-364909cf9c18","system_id":"levelo_inurba_marseille","lat":43.277595,"lon":5.38354,"is_reserved":false,"is_disabled":false,"rental_uris":{"android":"levelo://app?vid=55118acd-67a3-4650-a017-364909cf9c18","ios":"levelo://app?vid=55118acd-67a3-4650-a017-364909cf9c18"},"vehicle_type_id":"4","last_reported":1700330907,"current_range_meters":0,"station_id":"","pricing_plan_id":"free"},{"bike_id":"7a31f2d9-f15e-42f9-8120-0fcddf3a298b","system_id":"levelo_inurba_marseille","lat":43.280784,"lon":5.396622,"is_reserved":false,"is_disabled":false,"rental_uris":{"android":"levelo://app?vid=7a31f2d9-f15e-42f9-8120-0fcddf3a298b","ios":"levelo://app?vid=7a31f2d9-f15e-42f9-8120-0fcddf3a298b"},"vehicle_type_id":"4","last_reported":1700330907,"current_range_meters":30400,"station_id":"ce4bho12rcd13ifvqh2g","pricing_plan_id":"free"},{"bike_id":"04d8d745-f87b-49b2-9935-3e589634755a","system_id":"levelo_inurba_marseille","lat":43.280784,"lon":5.396622,"is_reserved":false,"is_disabled":false,"rental_uris":{"android":"levelo://app?vid=04d8d745-f87b-49b2-9935-3e589634755a","ios":"levelo://app?vid=04d8d745-f87b-49b2-9935-3e589634755a"},"vehicle_type_id":"4","last_reported":1700330907,"current_range_meters":400,"station_id":"ce4bho12rcd13ifvqh2g","pricing_plan_id":"free"},{"bike_id":"f91e31d8-334b-4e50-9258-b34c5507d853","system_id":"levelo_inurba_marseille","lat":43.278401,"lon":5.392152,"is_reserved":false,"is_disabled":false,"rental_uris":{"android":"levelo://app?vid=f91e31d8-334b-4e50-9258-b34c5507d853","ios":"levelo://app?vid=f91e31d8-334b-4e50-9258-b34c5507d853"},"vehicle_type_id":"4","last_reported":1700330907,"current_range_meters":28000,"station_id":"ce4bhjp2rcd13ifvqga0","pricing_plan_id":"free"},{"bike_id":"2409d88a-4279-48d8-bcfa-d2e01f5eed1a","system_id":"levelo_inurba_marseille","lat":43.273613,"lon":5.362705,"is_reserved":false,"is_disabled":false,"rental_uris":{"android":"levelo://app?vid=2409d88a-4279-48d8-bcfa-d2e01f5eed1a","ios":"levelo://app?vid=2409d88a-4279-48d8-bcfa-d2e01f5eed1a"},"vehicle_type_id":"4","last_reported":1700330907,"current_range_meters":10400,"station_id":"ce4bhbh2rcd13ifvqeo0","pricing_plan_id":"free"},{"bike_id":"ae5d3541-bbd7-4d28-bfed-d680b45d1a1a","system_id":"levelo_inurba_marseille","lat":43.273609,"lon":5.362708,"is_reserved":false,"is_disabled":false,"rental_uris":{"android":"levelo://app?vid=ae5d3541-bbd7-4d28-bfed-d680b45d1a1a","ios":"levelo://app?vid=ae5d3541-bbd7-4d28-bfed-d680b45d1a1a"},"vehicle_type_id":"4","last_reported":1700330907,"current_range_meters":31200,"station_id":"ce4bhbh2rcd13ifvqeo0","pricing_plan_id":"free"},{"bike_id":"b942ebc4-049d-4b17-9285-7e84239c80dd","system_id":"levelo_inurba_marseille","lat":43.336134,"lon":5.410341,"is_reserved":false,"is_disabled":false,"rental_uris":{"android":"levelo://app?vid=b942ebc4-049d-4b17-9285-7e84239c80dd","ios":"levelo://app?vid=b942ebc4-049d-4b17-9285-7e84239c80dd"},"vehicle_type_id":"4","last_reported":1700330907,"current_range_meters":17200,"station_id":"ce4bhqh2rcd13ifvqhmg","pricing_plan_id":"free"},{"bike_id":"21a79381-c590-43fa-b57c-d9f763a4b9f0","system_id":"levelo_inurba_marseille","lat":43.279952,"lon":5.400085,"is_reserved":false,"is_disabled":false,"rental_uris":{"android":"levelo://app?vid=21a79381-c590-43fa-b57c-d9f763a4b9f0","ios":"levelo://app?vid=21a79381-c590-43fa-b57c-d9f763a4b9f0"},"vehicle_type_id":"4","last_reported":1700330907,"current_range_meters":31200,"station_id":"ce4bho92rcd13ifvqh4g","pricing_plan_id":"free"},{"bike_id":"1c489e8f-9c52-4563-a1a2-18535a1743aa","system_id":"levelo_inurba_marseille","lat":43.27994,"lon":5.400162,"is_reserved":false,"is_disabled":false,"rental_uris":{"android":"levelo://app?vid=1c489e8f-9c52-4563-a1a2-18535a1743aa","ios":"levelo://app?vid=1c489e8f-9c52-4563-a1a2-18535a1743aa"},"vehicle_type_id":"4","last_reported":1700330907,"current_range_meters":28800,"station_id":"ce4bho92rcd13ifvqh4g","pricing_plan_id":"free"},{"bike_id":"ef1c6620-0330-4606-96e5-6c5e1567f762","system_id":"levelo_inurba_marseille","lat":43.279952,"lon":5.400085,"is_reserved":false,"is_disabled":false,"rental_uris":{"android":"levelo://app?vid=ef1c6620-0330-4606-96e5-6c5e1567f762","ios":"levelo://app?vid=ef1c6620-0330-4606-96e5-6c5e1567f762"},"vehicle_type_id":"4","last_reported":1700330907,"current_range_meters":30400,"station_id":"ce4bho92rcd13ifvqh4g","pricing_plan_id":"free"},{"bike_id":"18d269e8-2e40-4f1f-8cc3-732ff54d70ea","system_id":"levelo_inurba_marseille","lat":43.27992,"lon":5.40021,"is_reserved":false,"is_disabled":false,"rental_uris":{"android":"levelo://app?vid=18d269e8-2e40-4f1f-8cc3-732ff54d70ea","ios":"levelo://app?vid=18d269e8-2e40-4f1f-8cc3-732ff54d70ea"},"vehicle_type_id":"4","last_reported":1700330907,"current_range_meters":9600,"station_id":"ce4bho92rcd13ifvqh4g","pricing_plan_id":"free"},{"bike_id":"8cb3fbde-a7e5-41de-94f3-c33c37555f74","system_id":"levelo_inurba_marseille","lat":43.317121,"lon":5.423936,"is_reserved":false,"is_disabled":false,"rental_uris":{"android":"levelo://app?vid=8cb3fbde-a7e5-41de-94f3-c33c37555f74","ios":"levelo://app?vid=8cb3fbde-a7e5-41de-94f3-c33c37555f74"},"vehicle_type_id":"4","last_reported":1700330907,"current_range_meters":14000,"station_id":"ce4bhp92rcd13ifvqhbg","pricing_plan_id":"free"},{"bike_id":"9defa14b-0b61-4714-bd43-322acd879436","system_id":"levelo_inurba_marseille","lat":43.310785,"lon":5.424305,"is_reserved":false,"is_disabled":false,"rental_uris":{"android":"levelo://app?vid=9defa14b-0b61-4714-bd43-322acd879436","ios":"levelo://app?vid=9defa14b-0b61-4714-bd43-322acd879436"},"vehicle_type_id":"4","last_reported":1700330907,"current_range_meters":8400,"station_id":"ce4bhp92rcd13ifvqhag","pricing_plan_id":"free"},{"bike_id":"1f675464-1fc9-4eb9-949d-be8a1f26b9d4","system_id":"levelo_inurba_marseille","lat":43.31082,"lon":5.42429,"is_reserved":false,"is_disabled":false,"rental_uris":{"android":"levelo://app?vid=1f675464-1fc9-4eb9-949d-be8a1f26b9d4","ios":"levelo://app?vid=1f675464-1fc9-4eb9-949d-be8a1f26b9d4"},"vehicle_type_id":"4","last_reported":1700330907,"current_range_meters":28800,"station_id":"ce4bhp92rcd13ifvqhag","pricing_plan_id":"free"},{"bike_id":"2eb9c8ea-eafc-4114-96e5-18995d764647","system_id":"levelo_inurba_marseille","lat":43.31081,"lon":5.42432,"is_reserved":false,"is_disabled":false,"rental_uris":{"android":"levelo://app?vid=2eb9c8ea-eafc-4114-96e5-18995d764647","ios":"levelo://app?vid=2eb9c8ea-eafc-4114-96e5-18995d764647"},"vehicle_type_id":"4","last_reported":1700330907,"current_range_meters":26800,"station_id":"ce4bhp92rcd13ifvqhag","pricing_plan_id":"free"},{"bike_id":"553e6b1e-4c70-4b62-8d71-de18104d3510","system_id":"levelo_inurba_marseille","lat":43.340804,"lon":5.410219,"is_reserved":false,"is_disabled":false,"rental_uris":{"android":"levelo://app?vid=553e6b1e-4c70-4b62-8d71-de18104d3510","ios":"levelo://app?vid=553e6b1e-4c70-4b62-8d71-de18104d3510"},"vehicle_type_id":"4","last_reported":1700330907,"current_range_meters":29600,"station_id":"ce4bhqh2rcd13ifvqhlg","pricing_plan_id":"free"},{"bike_id":"17e7aa1f-9c56-467a-ad65-e69a5b42995f","system_id":"levelo_inurba_marseille","lat":43.274099,"lon":5.394019,"is_reserved":false,"is_disabled":false,"rental_uris":{"android":"levelo://app?vid=17e7aa1f-9c56-467a-ad65-e69a5b42995f","ios":"levelo://app?vid=17e7aa1f-9c56-467a-ad65-e69a5b42995f"},"vehicle_type_id":"4","last_reported":1700330907,"current_range_meters":30000,"station_id":"ce4bhdp2rcd13ifvqf20","pricing_plan_id":"free"},{"bike_id":"d2840ce7-777c-4c0a-8d16-8870e8cac5a8","system_id":"levelo_inurba_marseille","lat":43.304096,"lon":5.425385,"is_reserved":false,"is_disabled":false,"rental_uris":{"android":"levelo://app?vid=d2840ce7-777c-4c0a-8d16-8870e8cac5a8","ios":"levelo://app?vid=d2840ce7-777c-4c0a-8d16-8870e8cac5a8"},"vehicle_type_id":"4","last_reported":1700330907,"current_range_meters":0,"station_id":"ce4bhoh2rcd13ifvqh6g","pricing_plan_id":"free"},{"bike_id":"8eca73a7-bce3-4b86-a555-f300db5c54bb","system_id":"levelo_inurba_marseille","lat":43.295523,"lon":5.422926,"is_reserved":false,"is_disabled":false,"rental_uris":{"android":"levelo://app?vid=8eca73a7-bce3-4b86-a555-f300db5c54bb","ios":"levelo://app?vid=8eca73a7-bce3-4b86-a555-f300db5c54bb"},"vehicle_type_id":"4","last_reported":1700330907,"current_range_meters":25200,"station_id":"ce4bhph2rcd13ifvqhdg","pricing_plan_id":"free"},{"bike_id":"fff3c005-d696-4583-a396-99635991127b","system_id":"levelo_inurba_marseille","lat":43.295523,"lon":5.422926,"is_reserved":false,"is_disabled":false,"rental_uris":{"android":"levelo://app?vid=fff3c005-d696-4583-a396-99635991127b","ios":"levelo://app?vid=fff3c005-d696-4583-a396-99635991127b"},"vehicle_type_id":"4","last_reported":1700330907,"current_range_meters":24400,"station_id":"ce4bhph2rcd13ifvqhdg","pricing_plan_id":"free"},{"bike_id":"ed3f145b-6e01-4651-9038-bfb64d4b456b","system_id":"levelo_inurba_marseille","lat":43.29559,"lon":5.42293,"is_reserved":false,"is_disabled":false,"rental_uris":{"android":"levelo://app?vid=ed3f145b-6e01-4651-9038-bfb64d4b456b","ios":"levelo://app?vid=ed3f145b-6e01-4651-9038-bfb64d4b456b"},"vehicle_type_id":"4","last_reported":1700330907,"current_range_meters":11600,"station_id":"ce4bhph2rcd13ifvqhdg","pricing_plan_id":"free"},{"bike_id":"dea9f5a9-1075-4656-b7f9-51ef208f035c","system_id":"levelo_inurba_marseille","lat":43.295523,"lon":5.422926,"is_reserved":false,"is_disabled":false,"rental_uris":{"android":"levelo://app?vid=dea9f5a9-1075-4656-b7f9-51ef208f035c","ios":"levelo://app?vid=dea9f5a9-1075-4656-b7f9-51ef208f035c"},"vehicle_type_id":"4","last_reported":1700330907,"current_range_meters":19200,"station_id":"ce4bhph2rcd13ifvqhdg","pricing_plan_id":"free"},{"bike_id":"f8f5619a-a183-461d-b100-453fb972fcd4","system_id":"levelo_inurba_marseille","lat":43.272118,"lon":5.391758,"is_reserved":false,"is_disabled":false,"rental_uris":{"android":"levelo://app?vid=f8f5619a-a183-461d-b100-453fb972fcd4","ios":"levelo://app?vid=f8f5619a-a183-461d-b100-453fb972fcd4"},"vehicle_type_id":"4","last_reported":1700330907,"current_range_meters":26000,"station_id":"ce4bhhp2rcd13ifvqfm0","pricing_plan_id":"free"},{"bike_id":"139753b1-0b83-4c3a-80f1-5052bac15461","system_id":"levelo_inurba_marseille","lat":43.2721,"lon":5.39267,"is_reserved":false,"is_disabled":false,"rental_uris":{"android":"levelo://app?vid=139753b1-0b83-4c3a-80f1-5052bac15461","ios":"levelo://app?vid=139753b1-0b83-4c3a-80f1-5052bac15461"},"vehicle_type_id":"4","last_reported":1700330907,"current_range_meters":9600,"station_id":"","pricing_plan_id":"free"},{"bike_id":"fe139271-7817-4645-9ec4-f7eee743e805","system_id":"levelo_inurba_marseille","lat":43.271896,"lon":5.392307,"is_reserved":false,"is_disabled":false,"rental_uris":{"android":"levelo://app?vid=fe139271-7817-4645-9ec4-f7eee743e805","ios":"levelo://app?vid=fe139271-7817-4645-9ec4-f7eee743e805"},"vehicle_type_id":"4","last_reported":1700330907,"current_range_meters":0,"station_id":"ce4bhhp2rcd13ifvqfm0","pricing_plan_id":"free"},{"bike_id":"f0ed4531-078e-42fb-a007-3ed80505eb54","system_id":"levelo_inurba_marseille","lat":43.271891,"lon":5.392412,"is_reserved":false,"is_disabled":false,"rental_uris":{"android":"levelo://app?vid=f0ed4531-078e-42fb-a007-3ed80505eb54","ios":"levelo://app?vid=f0ed4531-078e-42fb-a007-3ed80505eb54"},"vehicle_type_id":"4","last_reported":1700330907,"current_range_meters":6400,"station_id":"","pricing_plan_id":"free"},{"bike_id":"916f76ab-afa1-4d74-a920-92cb273bbde7","system_id":"levelo_inurba_marseille","lat":43.278128,"lon":5.407195,"is_reserved":false,"is_disabled":false,"rental_uris":{"android":"levelo://app?vid=916f76ab-afa1-4d74-a920-92cb273bbde7","ios":"levelo://app?vid=916f76ab-afa1-4d74-a920-92cb273bbde7"},"vehicle_type_id":"4","last_reported":1700330907,"current_range_meters":14000,"station_id":"ce4bhnh2rcd13ifvqgtg","pricing_plan_id":"free"},{"bike_id":"fc90a4ee-2ea6-4c54-b4a9-ba58673eed36","system_id":"levelo_inurba_marseille","lat":43.278071,"lon":5.407123,"is_reserved":false,"is_disabled":false,"rental_uris":{"android":"levelo://app?vid=fc90a4ee-2ea6-4c54-b4a9-ba58673eed36","ios":"levelo://app?vid=fc90a4ee-2ea6-4c54-b4a9-ba58673eed36"},"vehicle_type_id":"4","last_reported":1700330907,"current_range_meters":15600,"station_id":"ce4bhnh2rcd13ifvqgtg","pricing_plan_id":"free"},{"bike_id":"462126be-b935-4202-aab0-db26edf447e2","system_id":"levelo_inurba_marseille","lat":43.326111,"lon":5.427105,"is_reserved":false,"is_disabled":false,"rental_uris":{"android":"levelo://app?vid=462126be-b935-4202-aab0-db26edf447e2","ios":"levelo://app?vid=462126be-b935-4202-aab0-db26edf447e2"},"vehicle_type_id":"4","last_reported":1700330907,"current_range_meters":10800,"station_id":"","pricing_plan_id":"free"},{"bike_id":"7b6ed7e8-c141-47d8-92cc-ef11479d8f3c","system_id":"levelo_inurba_marseille","lat":43.27936,"lon":5.4105,"is_reserved":false,"is_disabled":false,"rental_uris":{"android":"levelo://app?vid=7b6ed7e8-c141-47d8-92cc-ef11479d8f3c","ios":"levelo://app?vid=7b6ed7e8-c141-47d8-92cc-ef11479d8f3c"},"vehicle_type_id":"4","last_reported":1700330907,"current_range_meters":19200,"station_id":"ce4bhnp2rcd13ifvqh0g","pricing_plan_id":"free"},{"bike_id":"474f0885-4fc1-42fc-bc31-2d07f8c6b7dc","system_id":"levelo_inurba_marseille","lat":43.269319,"lon":5.389397,"is_reserved":false,"is_disabled":false,"rental_uris":{"android":"levelo://app?vid=474f0885-4fc1-42fc-bc31-2d07f8c6b7dc","ios":"levelo://app?vid=474f0885-4fc1-42fc-bc31-2d07f8c6b7dc"},"vehicle_type_id":"4","last_reported":1700330907,"current_range_meters":0,"station_id":"ce4bhhh2rcd13ifvqfl0","pricing_plan_id":"free"},{"bike_id":"0b33298b-a0bb-4a62-80a5-0d3d767dd6cd","system_id":"levelo_inurba_marseille","lat":43.26681,"lon":5.382694,"is_reserved":false,"is_disabled":false,"rental_uris":{"android":"levelo://app?vid=0b33298b-a0bb-4a62-80a5-0d3d767dd6cd","ios":"levelo://app?vid=0b33298b-a0bb-4a62-80a5-0d3d767dd6cd"},"vehicle_type_id":"4","last_reported":1700330907,"current_range_meters":26000,"station_id":"ce4bhg92rcd13ifvqf90","pricing_plan_id":"free"},{"bike_id":"c7758cb2-2a45-4f89-aa5c-0e391d845c76","system_id":"levelo_inurba_marseille","lat":43.326053,"lon":5.429943,"is_reserved":false,"is_disabled":false,"rental_uris":{"android":"levelo://app?vid=c7758cb2-2a45-4f89-aa5c-0e391d845c76","ios":"levelo://app?vid=c7758cb2-2a45-4f89-aa5c-0e391d845c76"},"vehicle_type_id":"4","last_reported":1700330907,"current_range_meters":3600,"station_id":"","pricing_plan_id":"free"},{"bike_id":"42871d3b-8c03-490f-baf1-f4b57c44a331","system_id":"levelo_inurba_marseille","lat":43.326507,"lon":5.430708,"is_reserved":false,"is_disabled":false,"rental_uris":{"android":"levelo://app?vid=42871d3b-8c03-490f-baf1-f4b57c44a331","ios":"levelo://app?vid=42871d3b-8c03-490f-baf1-f4b57c44a331"},"vehicle_type_id":"4","last_reported":1700330907,"current_range_meters":17200,"station_id":"","pricing_plan_id":"free"},{"bike_id":"8616389d-d48d-4b77-ba8c-8f316109623e","system_id":"levelo_inurba_marseille","lat":43.26568,"lon":5.39005,"is_reserved":false,"is_disabled":false,"rental_uris":{"android":"levelo://app?vid=8616389d-d48d-4b77-ba8c-8f316109623e","ios":"levelo://app?vid=8616389d-d48d-4b77-ba8c-8f316109623e"},"vehicle_type_id":"4","last_reported":1700330907,"current_range_meters":30000,"station_id":"ce4bhe12rcd13ifvqf30","pricing_plan_id":"free"},{"bike_id":"6db8fb69-0626-4574-bb1e-0b47b0dacfba","system_id":"levelo_inurba_marseille","lat":43.2695,"lon":5.4025,"is_reserved":false,"is_disabled":false,"rental_uris":{"android":"levelo://app?vid=6db8fb69-0626-4574-bb1e-0b47b0dacfba","ios":"levelo://app?vid=6db8fb69-0626-4574-bb1e-0b47b0dacfba"},"vehicle_type_id":"4","last_reported":1700330907,"current_range_meters":0,"station_id":"cjm6bp8fraef2m0cb0m0","pricing_plan_id":"free"},{"bike_id":"d077710c-062f-4bb5-bc07-f925193fbbe9","system_id":"levelo_inurba_marseille","lat":43.31711,"lon":5.43706,"is_reserved":false,"is_disabled":false,"rental_uris":{"android":"levelo://app?vid=d077710c-062f-4bb5-bc07-f925193fbbe9","ios":"levelo://app?vid=d077710c-062f-4bb5-bc07-f925193fbbe9"},"vehicle_type_id":"4","last_reported":1700330907,"current_range_meters":6000,"station_id":"ce4bhp92rcd13ifvqhcg","pricing_plan_id":"free"},{"bike_id":"584c5199-357e-4900-bd58-cb216b28e7ac","system_id":"levelo_inurba_marseille","lat":43.31711,"lon":5.43707,"is_reserved":false,"is_disabled":false,"rental_uris":{"android":"levelo://app?vid=584c5199-357e-4900-bd58-cb216b28e7ac","ios":"levelo://app?vid=584c5199-357e-4900-bd58-cb216b28e7ac"},"vehicle_type_id":"4","last_reported":1700330907,"current_range_meters":28000,"station_id":"ce4bhp92rcd13ifvqhcg","pricing_plan_id":"free"},{"bike_id":"8b76f50b-f6e2-47f0-a783-08b06ed997ea","system_id":"levelo_inurba_marseille","lat":43.31712,"lon":5.43709,"is_reserved":false,"is_disabled":false,"rental_uris":{"android":"levelo://app?vid=8b76f50b-f6e2-47f0-a783-08b06ed997ea","ios":"levelo://app?vid=8b76f50b-f6e2-47f0-a783-08b06ed997ea"},"vehicle_type_id":"4","last_reported":1700330907,"current_range_meters":4400,"station_id":"ce4bhp92rcd13ifvqhcg","pricing_plan_id":"free"},{"bike_id":"555c7a59-3825-4d1d-aa0c-d8563490d9db","system_id":"levelo_inurba_marseille","lat":43.271388,"lon":5.409269,"is_reserved":false,"is_disabled":false,"rental_uris":{"android":"levelo://app?vid=555c7a59-3825-4d1d-aa0c-d8563490d9db","ios":"levelo://app?vid=555c7a59-3825-4d1d-aa0c-d8563490d9db"},"vehicle_type_id":"4","last_reported":1700330907,"current_range_meters":28800,"station_id":"ce4bhl12rcd13ifvqgf0","pricing_plan_id":"free"},{"bike_id":"e8766bd2-dbc5-4fac-9fd5-8196dc51357d","system_id":"levelo_inurba_marseille","lat":43.271368,"lon":5.40928,"is_reserved":false,"is_disabled":false,"rental_uris":{"android":"levelo://app?vid=e8766bd2-dbc5-4fac-9fd5-8196dc51357d","ios":"levelo://app?vid=e8766bd2-dbc5-4fac-9fd5-8196dc51357d"},"vehicle_type_id":"4","last_reported":1700330907,"current_range_meters":8800,"station_id":"ce4bhl12rcd13ifvqgf0","pricing_plan_id":"free"},{"bike_id":"74ce853b-0d8b-42c9-81c8-17a7564a4b34","system_id":"levelo_inurba_marseille","lat":43.31725,"lon":5.43786,"is_reserved":false,"is_disabled":false,"rental_uris":{"android":"levelo://app?vid=74ce853b-0d8b-42c9-81c8-17a7564a4b34","ios":"levelo://app?vid=74ce853b-0d8b-42c9-81c8-17a7564a4b34"},"vehicle_type_id":"4","last_reported":1700330907,"current_range_meters":17600,"station_id":"","pricing_plan_id":"free"},{"bike_id":"1046635b-c1e6-41f1-8dbc-d28bbd202581","system_id":"levelo_inurba_marseille","lat":43.298768,"lon":5.43643,"is_reserved":false,"is_disabled":false,"rental_uris":{"android":"levelo://app?vid=1046635b-c1e6-41f1-8dbc-d28bbd202581","ios":"levelo://app?vid=1046635b-c1e6-41f1-8dbc-d28bbd202581"},"vehicle_type_id":"4","last_reported":1700330907,"current_range_meters":24000,"station_id":"ce4bhpp2rcd13ifvqhfg","pricing_plan_id":"free"},{"bike_id":"e519433d-e174-46ac-866c-5aa69d990273","system_id":"levelo_inurba_marseille","lat":43.28152,"lon":5.42642,"is_reserved":false,"is_disabled":false,"rental_uris":{"android":"levelo://app?vid=e519433d-e174-46ac-866c-5aa69d990273","ios":"levelo://app?vid=e519433d-e174-46ac-866c-5aa69d990273"},"vehicle_type_id":"4","last_reported":1700330907,"current_range_meters":22400,"station_id":"ce4bhnh2rcd13ifvqgug","pricing_plan_id":"free"},{"bike_id":"c7abf88f-24b7-40b7-9262-00275d8ccdb9","system_id":"levelo_inurba_marseille","lat":43.281548,"lon":5.42643,"is_reserved":false,"is_disabled":false,"rental_uris":{"android":"levelo://app?vid=c7abf88f-24b7-40b7-9262-00275d8ccdb9","ios":"levelo://app?vid=c7abf88f-24b7-40b7-9262-00275d8ccdb9"},"vehicle_type_id":"4","last_reported":1700330907,"current_range_meters":23200,"station_id":"ce4bhnh2rcd13ifvqgug","pricing_plan_id":"free"},{"bike_id":"52c2449e-ba19-42b2-a2b7-5e9532985598","system_id":"levelo_inurba_marseille","lat":43.32279,"lon":5.43926,"is_reserved":false,"is_disabled":false,"rental_uris":{"android":"levelo://app?vid=52c2449e-ba19-42b2-a2b7-5e9532985598","ios":"levelo://app?vid=52c2449e-ba19-42b2-a2b7-5e9532985598"},"vehicle_type_id":"4","last_reported":1700330907,"current_range_meters":15600,"station_id":"","pricing_plan_id":"free"},{"bike_id":"d88b6a73-531b-425a-9e55-b97c354f59a2","system_id":"levelo_inurba_marseille","lat":43.32279,"lon":5.43934,"is_reserved":false,"is_disabled":false,"rental_uris":{"android":"levelo://app?vid=d88b6a73-531b-425a-9e55-b97c354f59a2","ios":"levelo://app?vid=d88b6a73-531b-425a-9e55-b97c354f59a2"},"vehicle_type_id":"4","last_reported":1700330907,"current_range_meters":28800,"station_id":"","pricing_plan_id":"free"},{"bike_id":"94fddcbb-5369-4e68-a833-c6743763f226","system_id":"levelo_inurba_marseille","lat":43.2607,"lon":5.393983,"is_reserved":false,"is_disabled":false,"rental_uris":{"android":"levelo://app?vid=94fddcbb-5369-4e68-a833-c6743763f226","ios":"levelo://app?vid=94fddcbb-5369-4e68-a833-c6743763f226"},"vehicle_type_id":"4","last_reported":1700330907,"current_range_meters":0,"station_id":"ce4bhh92rcd13ifvqfj0","pricing_plan_id":"free"},{"bike_id":"b6d56c54-11bb-4b26-9bca-a114c2f5b4c8","system_id":"levelo_inurba_marseille","lat":43.26057,"lon":5.394,"is_reserved":false,"is_disabled":false,"rental_uris":{"android":"levelo://app?vid=b6d56c54-11bb-4b26-9bca-a114c2f5b4c8","ios":"levelo://app?vid=b6d56c54-11bb-4b26-9bca-a114c2f5b4c8"},"vehicle_type_id":"4","last_reported":1700330907,"current_range_meters":0,"station_id":"ce4bhh92rcd13ifvqfj0","pricing_plan_id":"free"},{"bike_id":"d8ad7264-7555-42a6-a12a-1c98d3a66e65","system_id":"levelo_inurba_marseille","lat":43.275028,"lon":5.424534,"is_reserved":false,"is_disabled":false,"rental_uris":{"android":"levelo://app?vid=d8ad7264-7555-42a6-a12a-1c98d3a66e65","ios":"levelo://app?vid=d8ad7264-7555-42a6-a12a-1c98d3a66e65"},"vehicle_type_id":"4","last_reported":1700330907,"current_range_meters":30800,"station_id":"ce4bhn92rcd13ifvqgrg","pricing_plan_id":"free"},{"bike_id":"3345e16a-7707-4795-a1e8-4635942cb8e5","system_id":"levelo_inurba_marseille","lat":43.26092,"lon":5.39763,"is_reserved":false,"is_disabled":false,"rental_uris":{"android":"levelo://app?vid=3345e16a-7707-4795-a1e8-4635942cb8e5","ios":"levelo://app?vid=3345e16a-7707-4795-a1e8-4635942cb8e5"},"vehicle_type_id":"4","last_reported":1700330907,"current_range_meters":800,"station_id":"ce4bhi12rcd13ifvqfq0","pricing_plan_id":"free"},{"bike_id":"69848573-3f73-446b-a8d4-d8aca6d1ea66","system_id":"levelo_inurba_marseille","lat":43.275028,"lon":5.424534,"is_reserved":false,"is_disabled":false,"rental_uris":{"android":"levelo://app?vid=69848573-3f73-446b-a8d4-d8aca6d1ea66","ios":"levelo://app?vid=69848573-3f73-446b-a8d4-d8aca6d1ea66"},"vehicle_type_id":"4","last_reported":1700330907,"current_range_meters":6000,"station_id":"ce4bhn92rcd13ifvqgrg","pricing_plan_id":"free"},{"bike_id":"1fc93aaa-e6b4-49b7-a708-3eb584645577","system_id":"levelo_inurba_marseille","lat":43.25581,"lon":5.38237,"is_reserved":false,"is_disabled":false,"rental_uris":{"android":"levelo://app?vid=1fc93aaa-e6b4-49b7-a708-3eb584645577","ios":"levelo://app?vid=1fc93aaa-e6b4-49b7-a708-3eb584645577"},"vehicle_type_id":"4","last_reported":1700330907,"current_range_meters":31200,"station_id":"ce4bhih2rcd13ifvqfs0","pricing_plan_id":"free"},{"bike_id":"3a480770-ac23-4cce-bd78-fa12fa1a312a","system_id":"levelo_inurba_marseille","lat":43.25579,"lon":5.38236,"is_reserved":false,"is_disabled":false,"rental_uris":{"android":"levelo://app?vid=3a480770-ac23-4cce-bd78-fa12fa1a312a","ios":"levelo://app?vid=3a480770-ac23-4cce-bd78-fa12fa1a312a"},"vehicle_type_id":"4","last_reported":1700330907,"current_range_meters":31200,"station_id":"ce4bhih2rcd13ifvqfs0","pricing_plan_id":"free"},{"bike_id":"8ab58c0b-e296-4719-b23b-942821e6d365","system_id":"levelo_inurba_marseille","lat":43.239588,"lon":5.366238,"is_reserved":false,"is_disabled":false,"rental_uris":{"android":"levelo://app?vid=8ab58c0b-e296-4719-b23b-942821e6d365","ios":"levelo://app?vid=8ab58c0b-e296-4719-b23b-942821e6d365"},"vehicle_type_id":"4","last_reported":1700330907,"current_range_meters":9200,"station_id":"ce4bhi12rcd13ifvqfp0","pricing_plan_id":"free"},{"bike_id":"49d1b4b9-a62d-488a-825f-4ce916bea4e4","system_id":"levelo_inurba_marseille","lat":43.258658,"lon":5.398935,"is_reserved":false,"is_disabled":false,"rental_uris":{"android":"levelo://app?vid=49d1b4b9-a62d-488a-825f-4ce916bea4e4","ios":"levelo://app?vid=49d1b4b9-a62d-488a-825f-4ce916bea4e4"},"vehicle_type_id":"4","last_reported":1700330907,"current_range_meters":5200,"station_id":"ce4bhl92rcd13ifvqghg","pricing_plan_id":"free"},{"bike_id":"c6c2959f-8cf3-444e-9392-66d0fbda3c72","system_id":"levelo_inurba_marseille","lat":43.258658,"lon":5.398935,"is_reserved":false,"is_disabled":false,"rental_uris":{"android":"levelo://app?vid=c6c2959f-8cf3-444e-9392-66d0fbda3c72","ios":"levelo://app?vid=c6c2959f-8cf3-444e-9392-66d0fbda3c72"},"vehicle_type_id":"4","last_reported":1700330907,"current_range_meters":18800,"station_id":"ce4bhl92rcd13ifvqghg","pricing_plan_id":"free"},{"bike_id":"4497bd3f-58b9-4c53-a33e-d23593111a30","system_id":"levelo_inurba_marseille","lat":43.259292,"lon":5.409102,"is_reserved":false,"is_disabled":false,"rental_uris":{"android":"levelo://app?vid=4497bd3f-58b9-4c53-a33e-d23593111a30","ios":"levelo://app?vid=4497bd3f-58b9-4c53-a33e-d23593111a30"},"vehicle_type_id":"4","last_reported":1700330907,"current_range_meters":31200,"station_id":"ce4bhm92rcd13ifvqglg","pricing_plan_id":"free"},{"bike_id":"38ed2c9d-2b78-43ec-abc9-43772ce2056e","system_id":"levelo_inurba_marseille","lat":43.257079,"lon":5.411051,"is_reserved":false,"is_disabled":false,"rental_uris":{"android":"levelo://app?vid=38ed2c9d-2b78-43ec-abc9-43772ce2056e","ios":"levelo://app?vid=38ed2c9d-2b78-43ec-abc9-43772ce2056e"},"vehicle_type_id":"4","last_reported":1700330907,"current_range_meters":2400,"station_id":"ce4bhkp2rcd13ifvqgd0","pricing_plan_id":"free"},{"bike_id":"44f08415-9b06-48c1-9eeb-6c227f27cac1","system_id":"levelo_inurba_marseille","lat":43.257079,"lon":5.411051,"is_reserved":false,"is_disabled":false,"rental_uris":{"android":"levelo://app?vid=44f08415-9b06-48c1-9eeb-6c227f27cac1","ios":"levelo://app?vid=44f08415-9b06-48c1-9eeb-6c227f27cac1"},"vehicle_type_id":"4","last_reported":1700330907,"current_range_meters":8800,"station_id":"ce4bhkp2rcd13ifvqgd0","pricing_plan_id":"free"},{"bike_id":"c066fd2a-8fee-4202-8f47-33f36da84f5d","system_id":"levelo_inurba_marseille","lat":43.257079,"lon":5.411051,"is_reserved":false,"is_disabled":false,"rental_uris":{"android":"levelo://app?vid=c066fd2a-8fee-4202-8f47-33f36da84f5d","ios":"levelo://app?vid=c066fd2a-8fee-4202-8f47-33f36da84f5d"},"vehicle_type_id":"4","last_reported":1700330907,"current_range_meters":29600,"station_id":"ce4bhkp2rcd13ifvqgd0","pricing_plan_id":"free"},{"bike_id":"2ec54442-9a7a-413a-8cba-5a34c7425524","system_id":"levelo_inurba_marseille","lat":43.25006,"lon":5.38923,"is_reserved":false,"is_disabled":false,"rental_uris":{"android":"levelo://app?vid=2ec54442-9a7a-413a-8cba-5a34c7425524","ios":"levelo://app?vid=2ec54442-9a7a-413a-8cba-5a34c7425524"},"vehicle_type_id":"4","last_reported":1700330907,"current_range_meters":0,"station_id":"ce4bhgp2rcd13ifvqfd0","pricing_plan_id":"free"},{"bike_id":"21ee1044-781a-4b26-b193-4d88bd38e42e","system_id":"levelo_inurba_marseille","lat":43.250023,"lon":5.38919,"is_reserved":false,"is_disabled":false,"rental_uris":{"android":"levelo://app?vid=21ee1044-781a-4b26-b193-4d88bd38e42e","ios":"levelo://app?vid=21ee1044-781a-4b26-b193-4d88bd38e42e"},"vehicle_type_id":"4","last_reported":1700330907,"current_range_meters":21200,"station_id":"ce4bhgp2rcd13ifvqfd0","pricing_plan_id":"free"},{"bike_id":"938158db-5c6f-4510-8fd4-e6f3debe78cc","system_id":"levelo_inurba_marseille","lat":43.24808,"lon":5.37456,"is_reserved":false,"is_disabled":false,"rental_uris":{"android":"levelo://app?vid=938158db-5c6f-4510-8fd4-e6f3debe78cc","ios":"levelo://app?vid=938158db-5c6f-4510-8fd4-e6f3debe78cc"},"vehicle_type_id":"4","last_reported":1700330907,"current_range_meters":23200,"station_id":"ce4bhgh2rcd13ifvqfb0","pricing_plan_id":"free"},{"bike_id":"21b09bf9-dd03-4604-b2a1-a6af55b835c8","system_id":"levelo_inurba_marseille","lat":43.248056,"lon":5.374595,"is_reserved":false,"is_disabled":false,"rental_uris":{"android":"levelo://app?vid=21b09bf9-dd03-4604-b2a1-a6af55b835c8","ios":"levelo://app?vid=21b09bf9-dd03-4604-b2a1-a6af55b835c8"},"vehicle_type_id":"4","last_reported":1700330907,"current_range_meters":10800,"station_id":"ce4bhgh2rcd13ifvqfb0","pricing_plan_id":"free"},{"bike_id":"908f53eb-888b-4bd1-b7d5-5ef013345af2","system_id":"levelo_inurba_marseille","lat":43.250966,"lon":5.395186,"is_reserved":false,"is_disabled":false,"rental_uris":{"android":"levelo://app?vid=908f53eb-888b-4bd1-b7d5-5ef013345af2","ios":"levelo://app?vid=908f53eb-888b-4bd1-b7d5-5ef013345af2"},"vehicle_type_id":"4","last_reported":1700330907,"current_range_meters":24400,"station_id":"ce4bhm12rcd13ifvqgkg","pricing_plan_id":"free"},{"bike_id":"a2be588a-df83-4a61-baa3-0aa5edbd7e51","system_id":"levelo_inurba_marseille","lat":43.25102,"lon":5.403214,"is_reserved":false,"is_disabled":false,"rental_uris":{"android":"levelo://app?vid=a2be588a-df83-4a61-baa3-0aa5edbd7e51","ios":"levelo://app?vid=a2be588a-df83-4a61-baa3-0aa5edbd7e51"},"vehicle_type_id":"4","last_reported":1700330907,"current_range_meters":400,"station_id":"ce4bhlh2rcd13ifvqgig","pricing_plan_id":"free"},{"bike_id":"b6e75a84-2df2-4143-8805-996b4d3e10ba","system_id":"levelo_inurba_marseille","lat":43.2466,"lon":5.38158,"is_reserved":false,"is_disabled":false,"rental_uris":{"android":"levelo://app?vid=b6e75a84-2df2-4143-8805-996b4d3e10ba","ios":"levelo://app?vid=b6e75a84-2df2-4143-8805-996b4d3e10ba"},"vehicle_type_id":"4","last_reported":1700330907,"current_range_meters":18400,"station_id":"ce4bhih2rcd13ifvqfr0","pricing_plan_id":"free"},{"bike_id":"285da5ec-f321-42d9-8fae-09a7ecadfdd9","system_id":"levelo_inurba_marseille","lat":43.25102,"lon":5.403214,"is_reserved":false,"is_disabled":false,"rental_uris":{"android":"levelo://app?vid=285da5ec-f321-42d9-8fae-09a7ecadfdd9","ios":"levelo://app?vid=285da5ec-f321-42d9-8fae-09a7ecadfdd9"},"vehicle_type_id":"4","last_reported":1700330907,"current_range_meters":400,"station_id":"ce4bhlh2rcd13ifvqgig","pricing_plan_id":"free"},{"bike_id":"e1f1630e-00e3-4e2f-bfb6-190ffbd00df7","system_id":"levelo_inurba_marseille","lat":43.25112,"lon":5.40322,"is_reserved":false,"is_disabled":false,"rental_uris":{"android":"levelo://app?vid=e1f1630e-00e3-4e2f-bfb6-190ffbd00df7","ios":"levelo://app?vid=e1f1630e-00e3-4e2f-bfb6-190ffbd00df7"},"vehicle_type_id":"4","last_reported":1700330907,"current_range_meters":1600,"station_id":"ce4bhlh2rcd13ifvqgig","pricing_plan_id":"free"},{"bike_id":"a0b548b2-f71c-4ce4-81f1-0508802aebba","system_id":"levelo_inurba_marseille","lat":43.2511,"lon":5.4032,"is_reserved":false,"is_disabled":false,"rental_uris":{"android":"levelo://app?vid=a0b548b2-f71c-4ce4-81f1-0508802aebba","ios":"levelo://app?vid=a0b548b2-f71c-4ce4-81f1-0508802aebba"},"vehicle_type_id":"4","last_reported":1700330907,"current_range_meters":30000,"station_id":"ce4bhlh2rcd13ifvqgig","pricing_plan_id":"free"},{"bike_id":"86b6e247-7e52-44ce-a818-72baf98e7ef7","system_id":"levelo_inurba_marseille","lat":43.245581,"lon":5.395069,"is_reserved":false,"is_disabled":false,"rental_uris":{"android":"levelo://app?vid=86b6e247-7e52-44ce-a818-72baf98e7ef7","ios":"levelo://app?vid=86b6e247-7e52-44ce-a818-72baf98e7ef7"},"vehicle_type_id":"4","last_reported":1700330907,"current_range_meters":22800,"station_id":"ce4bhlp2rcd13ifvqgjg","pricing_plan_id":"free"},{"bike_id":"08f996b4-c32d-4eea-b86e-7af65b7cc749","system_id":"levelo_inurba_marseille","lat":43.245581,"lon":5.395069,"is_reserved":false,"is_disabled":false,"rental_uris":{"android":"levelo://app?vid=08f996b4-c32d-4eea-b86e-7af65b7cc749","ios":"levelo://app?vid=08f996b4-c32d-4eea-b86e-7af65b7cc749"},"vehicle_type_id":"4","last_reported":1700330907,"current_range_meters":29200,"station_id":"ce4bhlp2rcd13ifvqgjg","pricing_plan_id":"free"},{"bike_id":"93dc94b0-b371-41cb-a3ad-83444bc01171","system_id":"levelo_inurba_marseille","lat":43.24546,"lon":5.39526,"is_reserved":false,"is_disabled":false,"rental_uris":{"android":"levelo://app?vid=93dc94b0-b371-41cb-a3ad-83444bc01171","ios":"levelo://app?vid=93dc94b0-b371-41cb-a3ad-83444bc01171"},"vehicle_type_id":"4","last_reported":1700330907,"current_range_meters":800,"station_id":"ce4bhlp2rcd13ifvqgjg","pricing_plan_id":"free"},{"bike_id":"12bb212d-601c-4632-bd90-b39a72aee5c1","system_id":"levelo_inurba_marseille","lat":43.245581,"lon":5.395069,"is_reserved":false,"is_disabled":false,"rental_uris":{"android":"levelo://app?vid=12bb212d-601c-4632-bd90-b39a72aee5c1","ios":"levelo://app?vid=12bb212d-601c-4632-bd90-b39a72aee5c1"},"vehicle_type_id":"4","last_reported":1700330907,"current_range_meters":6800,"station_id":"ce4bhlp2rcd13ifvqgjg","pricing_plan_id":"free"},{"bike_id":"693cc2c5-7e95-40dc-b1ad-f57fddabf34b","system_id":"levelo_inurba_marseille","lat":43.245581,"lon":5.395069,"is_reserved":false,"is_disabled":false,"rental_uris":{"android":"levelo://app?vid=693cc2c5-7e95-40dc-b1ad-f57fddabf34b","ios":"levelo://app?vid=693cc2c5-7e95-40dc-b1ad-f57fddabf34b"},"vehicle_type_id":"4","last_reported":1700330907,"current_range_meters":29600,"station_id":"ce4bhlp2rcd13ifvqgjg","pricing_plan_id":"free"},{"bike_id":"41efc39b-2b40-4934-a650-64a0ed67d548","system_id":"levelo_inurba_marseille","lat":43.24076,"lon":5.3776,"is_reserved":false,"is_disabled":false,"rental_uris":{"android":"levelo://app?vid=41efc39b-2b40-4934-a650-64a0ed67d548","ios":"levelo://app?vid=41efc39b-2b40-4934-a650-64a0ed67d548"},"vehicle_type_id":"4","last_reported":1700330907,"current_range_meters":4000,"station_id":"ce4bhnp2rcd13ifvqgvg","pricing_plan_id":"free"},{"bike_id":"e372efd2-f8e1-4612-9524-d2f55833dd19","system_id":"levelo_inurba_marseille","lat":43.24075,"lon":5.37761,"is_reserved":false,"is_disabled":false,"rental_uris":{"android":"levelo://app?vid=e372efd2-f8e1-4612-9524-d2f55833dd19","ios":"levelo://app?vid=e372efd2-f8e1-4612-9524-d2f55833dd19"},"vehicle_type_id":"4","last_reported":1700330907,"current_range_meters":18400,"station_id":"ce4bhnp2rcd13ifvqgvg","pricing_plan_id":"free"},{"bike_id":"5a980be7-c7ae-42db-bd64-63cc5cf9e0f6","system_id":"levelo_inurba_marseille","lat":43.240749,"lon":5.377648,"is_reserved":false,"is_disabled":false,"rental_uris":{"android":"levelo://app?vid=5a980be7-c7ae-42db-bd64-63cc5cf9e0f6","ios":"levelo://app?vid=5a980be7-c7ae-42db-bd64-63cc5cf9e0f6"},"vehicle_type_id":"4","last_reported":1700330907,"current_range_meters":31200,"station_id":"ce4bhnp2rcd13ifvqgvg","pricing_plan_id":"free"},{"bike_id":"fdcbf062-85d4-4812-8087-ba0a17f26523","system_id":"levelo_inurba_marseille","lat":43.24074,"lon":5.37759,"is_reserved":false,"is_disabled":false,"rental_uris":{"android":"levelo://app?vid=fdcbf062-85d4-4812-8087-ba0a17f26523","ios":"levelo://app?vid=fdcbf062-85d4-4812-8087-ba0a17f26523"},"vehicle_type_id":"4","last_reported":1700330907,"current_range_meters":17200,"station_id":"ce4bhnp2rcd13ifvqgvg","pricing_plan_id":"free"},{"bike_id":"b7ad8b76-3a1b-4631-a1f8-cbd38dd30c19","system_id":"levelo_inurba_marseille","lat":43.24073,"lon":5.37762,"is_reserved":false,"is_disabled":false,"rental_uris":{"android":"levelo://app?vid=b7ad8b76-3a1b-4631-a1f8-cbd38dd30c19","ios":"levelo://app?vid=b7ad8b76-3a1b-4631-a1f8-cbd38dd30c19"},"vehicle_type_id":"4","last_reported":1700330907,"current_range_meters":23600,"station_id":"ce4bhnp2rcd13ifvqgvg","pricing_plan_id":"free"},{"bike_id":"ed419b13-266f-407c-bf9b-711a3ecbb865","system_id":"levelo_inurba_marseille","lat":43.24072,"lon":5.37759,"is_reserved":false,"is_disabled":false,"rental_uris":{"android":"levelo://app?vid=ed419b13-266f-407c-bf9b-711a3ecbb865","ios":"levelo://app?vid=ed419b13-266f-407c-bf9b-711a3ecbb865"},"vehicle_type_id":"4","last_reported":1700330907,"current_range_meters":23600,"station_id":"ce4bhnp2rcd13ifvqgvg","pricing_plan_id":"free"},{"bike_id":"a759d4ef-ae01-4e76-9f99-0530261038e0","system_id":"levelo_inurba_marseille","lat":43.24072,"lon":5.37763,"is_reserved":false,"is_disabled":false,"rental_uris":{"android":"levelo://app?vid=a759d4ef-ae01-4e76-9f99-0530261038e0","ios":"levelo://app?vid=a759d4ef-ae01-4e76-9f99-0530261038e0"},"vehicle_type_id":"4","last_reported":1700330907,"current_range_meters":4000,"station_id":"ce4bhnp2rcd13ifvqgvg","pricing_plan_id":"free"},{"bike_id":"b17abfb9-7775-45d9-aa1e-bf036e6fdf06","system_id":"levelo_inurba_marseille","lat":43.24071,"lon":5.37759,"is_reserved":false,"is_disabled":false,"rental_uris":{"android":"levelo://app?vid=b17abfb9-7775-45d9-aa1e-bf036e6fdf06","ios":"levelo://app?vid=b17abfb9-7775-45d9-aa1e-bf036e6fdf06"},"vehicle_type_id":"4","last_reported":1700330907,"current_range_meters":26800,"station_id":"ce4bhnp2rcd13ifvqgvg","pricing_plan_id":"free"},{"bike_id":"bcf96265-ad37-442a-958b-3f53e78050a1","system_id":"levelo_inurba_marseille","lat":43.240623,"lon":5.377642,"is_reserved":false,"is_disabled":false,"rental_uris":{"android":"levelo://app?vid=bcf96265-ad37-442a-958b-3f53e78050a1","ios":"levelo://app?vid=bcf96265-ad37-442a-958b-3f53e78050a1"},"vehicle_type_id":"4","last_reported":1700330907,"current_range_meters":28400,"station_id":"ce4bhnp2rcd13ifvqgvg","pricing_plan_id":"free"},{"bike_id":"8f3a5da5-e450-44c1-b7f2-7006197e8e0e","system_id":"levelo_inurba_marseille","lat":43.240623,"lon":5.377642,"is_reserved":false,"is_disabled":false,"rental_uris":{"android":"levelo://app?vid=8f3a5da5-e450-44c1-b7f2-7006197e8e0e","ios":"levelo://app?vid=8f3a5da5-e450-44c1-b7f2-7006197e8e0e"},"vehicle_type_id":"4","last_reported":1700330907,"current_range_meters":31200,"station_id":"ce4bhnp2rcd13ifvqgvg","pricing_plan_id":"free"},{"bike_id":"80b9c21a-87be-4322-b987-e3243ce97e7b","system_id":"levelo_inurba_marseille","lat":43.239588,"lon":5.366238,"is_reserved":false,"is_disabled":false,"rental_uris":{"android":"levelo://app?vid=80b9c21a-87be-4322-b987-e3243ce97e7b","ios":"levelo://app?vid=80b9c21a-87be-4322-b987-e3243ce97e7b"},"vehicle_type_id":"4","last_reported":1700330907,"current_range_meters":400,"station_id":"ce4bhi12rcd13ifvqfp0","pricing_plan_id":"free"},{"bike_id":"cb017f51-a091-4785-8843-e2b4f3968fd6","system_id":"levelo_inurba_marseille","lat":43.241782,"lon":5.397261,"is_reserved":false,"is_disabled":false,"rental_uris":{"android":"levelo://app?vid=cb017f51-a091-4785-8843-e2b4f3968fd6","ios":"levelo://app?vid=cb017f51-a091-4785-8843-e2b4f3968fd6"},"vehicle_type_id":"4","last_reported":1700330907,"current_range_meters":3200,"station_id":"ce4bhn12rcd13ifvqgpg","pricing_plan_id":"free"},{"bike_id":"99cc6b38-3aad-4c65-a2a0-1c4ce9965de4","system_id":"levelo_inurba_marseille","lat":43.241782,"lon":5.397261,"is_reserved":false,"is_disabled":false,"rental_uris":{"android":"levelo://app?vid=99cc6b38-3aad-4c65-a2a0-1c4ce9965de4","ios":"levelo://app?vid=99cc6b38-3aad-4c65-a2a0-1c4ce9965de4"},"vehicle_type_id":"4","last_reported":1700330907,"current_range_meters":18400,"station_id":"ce4bhn12rcd13ifvqgpg","pricing_plan_id":"free"},{"bike_id":"b79c880e-a0e5-4260-bea0-ad853fc1d190","system_id":"levelo_inurba_marseille","lat":43.241782,"lon":5.397261,"is_reserved":false,"is_disabled":false,"rental_uris":{"android":"levelo://app?vid=b79c880e-a0e5-4260-bea0-ad853fc1d190","ios":"levelo://app?vid=b79c880e-a0e5-4260-bea0-ad853fc1d190"},"vehicle_type_id":"4","last_reported":1700330907,"current_range_meters":26400,"station_id":"ce4bhn12rcd13ifvqgpg","pricing_plan_id":"free"},{"bike_id":"07e8793f-b5c8-4815-95b2-cfd73adfc584","system_id":"levelo_inurba_marseille","lat":43.241782,"lon":5.397264,"is_reserved":false,"is_disabled":false,"rental_uris":{"android":"levelo://app?vid=07e8793f-b5c8-4815-95b2-cfd73adfc584","ios":"levelo://app?vid=07e8793f-b5c8-4815-95b2-cfd73adfc584"},"vehicle_type_id":"4","last_reported":1700330907,"current_range_meters":27600,"station_id":"ce4bhn12rcd13ifvqgpg","pricing_plan_id":"free"},{"bike_id":"4370869b-0c59-4e1b-b4c7-59bf3a7bc50e","system_id":"levelo_inurba_marseille","lat":43.2418,"lon":5.39732,"is_reserved":false,"is_disabled":false,"rental_uris":{"android":"levelo://app?vid=4370869b-0c59-4e1b-b4c7-59bf3a7bc50e","ios":"levelo://app?vid=4370869b-0c59-4e1b-b4c7-59bf3a7bc50e"},"vehicle_type_id":"4","last_reported":1700330907,"current_range_meters":18000,"station_id":"ce4bhn12rcd13ifvqgpg","pricing_plan_id":"free"},{"bike_id":"4f5534b5-aefd-49d1-810b-7263e1241940","system_id":"levelo_inurba_marseille","lat":43.241782,"lon":5.397261,"is_reserved":false,"is_disabled":false,"rental_uris":{"android":"levelo://app?vid=4f5534b5-aefd-49d1-810b-7263e1241940","ios":"levelo://app?vid=4f5534b5-aefd-49d1-810b-7263e1241940"},"vehicle_type_id":"4","last_reported":1700330907,"current_range_meters":31200,"station_id":"ce4bhn12rcd13ifvqgpg","pricing_plan_id":"free"},{"bike_id":"2740bc0a-943d-4810-853f-0053f51c0cac","system_id":"levelo_inurba_marseille","lat":43.23188,"lon":5.3998,"is_reserved":false,"is_disabled":false,"rental_uris":{"android":"levelo://app?vid=2740bc0a-943d-4810-853f-0053f51c0cac","ios":"levelo://app?vid=2740bc0a-943d-4810-853f-0053f51c0cac"},"vehicle_type_id":"4","last_reported":1700330907,"current_range_meters":27200,"station_id":"ce4bhn12rcd13ifvqgqg","pricing_plan_id":"free"},{"bike_id":"5d8316f4-9b3b-4f22-8b0a-d975b6faa1c0","system_id":"levelo_inurba_marseille","lat":43.231793,"lon":5.400044,"is_reserved":false,"is_disabled":false,"rental_uris":{"android":"levelo://app?vid=5d8316f4-9b3b-4f22-8b0a-d975b6faa1c0","ios":"levelo://app?vid=5d8316f4-9b3b-4f22-8b0a-d975b6faa1c0"},"vehicle_type_id":"4","last_reported":1700330907,"current_range_meters":18800,"station_id":"ce4bhn12rcd13ifvqgqg","pricing_plan_id":"free"},{"bike_id":"fa9cc91c-c78c-4cb3-ab2e-3cc3c66a937c","system_id":"levelo_inurba_marseille","lat":43.231793,"lon":5.400044,"is_reserved":false,"is_disabled":false,"rental_uris":{"android":"levelo://app?vid=fa9cc91c-c78c-4cb3-ab2e-3cc3c66a937c","ios":"levelo://app?vid=fa9cc91c-c78c-4cb3-ab2e-3cc3c66a937c"},"vehicle_type_id":"4","last_reported":1700330907,"current_range_meters":21600,"station_id":"ce4bhn12rcd13ifvqgqg","pricing_plan_id":"free"},{"bike_id":"486fecf0-765d-4eee-9a85-898f8aa27175","system_id":"levelo_inurba_marseille","lat":43.231793,"lon":5.400044,"is_reserved":false,"is_disabled":false,"rental_uris":{"android":"levelo://app?vid=486fecf0-765d-4eee-9a85-898f8aa27175","ios":"levelo://app?vid=486fecf0-765d-4eee-9a85-898f8aa27175"},"vehicle_type_id":"4","last_reported":1700330907,"current_range_meters":30800,"station_id":"ce4bhn12rcd13ifvqgqg","pricing_plan_id":"free"},{"bike_id":"fb647ab6-bdfe-4d43-8021-469b840e3f01","system_id":"levelo_inurba_marseille","lat":43.231794,"lon":5.400052,"is_reserved":false,"is_disabled":false,"rental_uris":{"android":"levelo://app?vid=fb647ab6-bdfe-4d43-8021-469b840e3f01","ios":"levelo://app?vid=fb647ab6-bdfe-4d43-8021-469b840e3f01"},"vehicle_type_id":"4","last_reported":1700330907,"current_range_meters":28800,"station_id":"ce4bhn12rcd13ifvqgqg","pricing_plan_id":"free"},{"bike_id":"f4a8cd9e-70db-4af1-b4c0-7aa0a7fac3fa","system_id":"levelo_inurba_marseille","lat":43.231793,"lon":5.400044,"is_reserved":false,"is_disabled":false,"rental_uris":{"android":"levelo://app?vid=f4a8cd9e-70db-4af1-b4c0-7aa0a7fac3fa","ios":"levelo://app?vid=f4a8cd9e-70db-4af1-b4c0-7aa0a7fac3fa"},"vehicle_type_id":"4","last_reported":1700330907,"current_range_meters":30800,"station_id":"ce4bhn12rcd13ifvqgqg","pricing_plan_id":"free"},{"bike_id":"21503f80-a737-42c9-80ac-41d5f021fc9e","system_id":"levelo_inurba_marseille","lat":43.231794,"lon":5.400052,"is_reserved":false,"is_disabled":false,"rental_uris":{"android":"levelo://app?vid=21503f80-a737-42c9-80ac-41d5f021fc9e","ios":"levelo://app?vid=21503f80-a737-42c9-80ac-41d5f021fc9e"},"vehicle_type_id":"4","last_reported":1700330907,"current_range_meters":12000,"station_id":"ce4bhn12rcd13ifvqgqg","pricing_plan_id":"free"},{"bike_id":"7f10c40d-a28f-435c-a517-41012b005fc5","system_id":"levelo_inurba_marseille","lat":43.231794,"lon":5.400052,"is_reserved":false,"is_disabled":false,"rental_uris":{"android":"levelo://app?vid=7f10c40d-a28f-435c-a517-41012b005fc5","ios":"levelo://app?vid=7f10c40d-a28f-435c-a517-41012b005fc5"},"vehicle_type_id":"4","last_reported":1700330907,"current_range_meters":0,"station_id":"ce4bhn12rcd13ifvqgqg","pricing_plan_id":"free"},{"bike_id":"a77536b5-5a4a-4d26-b9d3-350ffe3416bd","system_id":"levelo_inurba_marseille","lat":43.231793,"lon":5.400044,"is_reserved":false,"is_disabled":false,"rental_uris":{"android":"levelo://app?vid=a77536b5-5a4a-4d26-b9d3-350ffe3416bd","ios":"levelo://app?vid=a77536b5-5a4a-4d26-b9d3-350ffe3416bd"},"vehicle_type_id":"4","last_reported":1700330907,"current_range_meters":11600,"station_id":"ce4bhn12rcd13ifvqgqg","pricing_plan_id":"free"},{"bike_id":"7bc95a0e-72f8-4232-b877-46fe8e7f9e0c","system_id":"levelo_inurba_marseille","lat":43.231794,"lon":5.400052,"is_reserved":false,"is_disabled":false,"rental_uris":{"android":"levelo://app?vid=7bc95a0e-72f8-4232-b877-46fe8e7f9e0c","ios":"levelo://app?vid=7bc95a0e-72f8-4232-b877-46fe8e7f9e0c"},"vehicle_type_id":"4","last_reported":1700330907,"current_range_meters":31600,"station_id":"ce4bhn12rcd13ifvqgqg","pricing_plan_id":"free"},{"bike_id":"ad9d26be-fd61-4954-b04a-614ee9d33f7d","system_id":"levelo_inurba_marseille","lat":43.231794,"lon":5.400052,"is_reserved":false,"is_disabled":false,"rental_uris":{"android":"levelo://app?vid=ad9d26be-fd61-4954-b04a-614ee9d33f7d","ios":"levelo://app?vid=ad9d26be-fd61-4954-b04a-614ee9d33f7d"},"vehicle_type_id":"4","last_reported":1700330907,"current_range_meters":32000,"station_id":"ce4bhn12rcd13ifvqgqg","pricing_plan_id":"free"},{"bike_id":"1707e521-3adc-4f41-8fe0-03fad5d7cf96","system_id":"levelo_inurba_marseille","lat":43.231793,"lon":5.400044,"is_reserved":false,"is_disabled":false,"rental_uris":{"android":"levelo://app?vid=1707e521-3adc-4f41-8fe0-03fad5d7cf96","ios":"levelo://app?vid=1707e521-3adc-4f41-8fe0-03fad5d7cf96"},"vehicle_type_id":"4","last_reported":1700330907,"current_range_meters":6000,"station_id":"ce4bhn12rcd13ifvqgqg","pricing_plan_id":"free"},{"bike_id":"adac1971-5e73-41e6-9ade-b5ded0f026e7","system_id":"levelo_inurba_marseille","lat":43.231793,"lon":5.400044,"is_reserved":false,"is_disabled":false,"rental_uris":{"android":"levelo://app?vid=adac1971-5e73-41e6-9ade-b5ded0f026e7","ios":"levelo://app?vid=adac1971-5e73-41e6-9ade-b5ded0f026e7"},"vehicle_type_id":"4","last_reported":1700330907,"current_range_meters":31200,"station_id":"ce4bhn12rcd13ifvqgqg","pricing_plan_id":"free"},{"bike_id":"efc139d5-8bb1-4a6b-b437-01d31830d455","system_id":"levelo_inurba_marseille","lat":43.231794,"lon":5.400052,"is_reserved":false,"is_disabled":false,"rental_uris":{"android":"levelo://app?vid=efc139d5-8bb1-4a6b-b437-01d31830d455","ios":"levelo://app?vid=efc139d5-8bb1-4a6b-b437-01d31830d455"},"vehicle_type_id":"4","last_reported":1700330907,"current_range_meters":31600,"station_id":"ce4bhn12rcd13ifvqgqg","pricing_plan_id":"free"}]}}