{"last_updated":1778765337,"ttl":60,"version":"2.2","data":{"bikes":[{"bike_id":"405f1dbf-c088-4880-9365-03325b4d46a5","system_id":"levelo_inurba_marseille","lat":43.24386,"lon":5.37093,"is_reserved":false,"is_disabled":false,"rental_uris":{"android":"levelo://app?vid=405f1dbf-c088-4880-9365-03325b4d46a5","ios":"levelo://app?vid=405f1dbf-c088-4880-9365-03325b4d46a5"},"vehicle_type_id":"4","last_reported":1778765338,"current_range_meters":2800,"station_id":"","pricing_plan_id":"cebpf4jnsgd1na2vs0mg"},{"bike_id":"84a4ccf6-b84f-40be-bf13-305135668ee7","system_id":"levelo_inurba_marseille","lat":43.26497,"lon":5.39539,"is_reserved":false,"is_disabled":false,"rental_uris":{"android":"levelo://app?vid=84a4ccf6-b84f-40be-bf13-305135668ee7","ios":"levelo://app?vid=84a4ccf6-b84f-40be-bf13-305135668ee7"},"vehicle_type_id":"4","last_reported":1778765338,"current_range_meters":2800,"station_id":"ce4bhi12rcd13ifvqfq0","pricing_plan_id":"cebpf4jnsgd1na2vs0mg"},{"bike_id":"7076757c-102e-4b9a-8844-ed202ef3c20c","system_id":"levelo_inurba_marseille","lat":43.2848,"lon":5.4839,"is_reserved":false,"is_disabled":false,"rental_uris":{"android":"levelo://app?vid=7076757c-102e-4b9a-8844-ed202ef3c20c","ios":"levelo://app?vid=7076757c-102e-4b9a-8844-ed202ef3c20c"},"vehicle_type_id":"4","last_reported":1778765338,"current_range_meters":2800,"station_id":"st_d3svhcjqgbts73a3dn0g","pricing_plan_id":"cebpf4jnsgd1na2vs0mg"},{"bike_id":"7192fad5-619d-4a81-b4b1-92341446b407","system_id":"levelo_inurba_marseille","lat":43.29368,"lon":5.37848,"is_reserved":false,"is_disabled":false,"rental_uris":{"android":"levelo://app?vid=7192fad5-619d-4a81-b4b1-92341446b407","ios":"levelo://app?vid=7192fad5-619d-4a81-b4b1-92341446b407"},"vehicle_type_id":"4","last_reported":1778765338,"current_range_meters":2800,"station_id":"ce4bgjh2rcd13ifvqbf0","pricing_plan_id":"cebpf4jnsgd1na2vs0mg"},{"bike_id":"aa3f6d5a-caf7-4884-92ce-12eb0b9c9e82","system_id":"levelo_inurba_marseille","lat":43.28008,"lon":5.3931,"is_reserved":false,"is_disabled":false,"rental_uris":{"android":"levelo://app?vid=aa3f6d5a-caf7-4884-92ce-12eb0b9c9e82","ios":"levelo://app?vid=aa3f6d5a-caf7-4884-92ce-12eb0b9c9e82"},"vehicle_type_id":"4","last_reported":1778765338,"current_range_meters":2800,"station_id":"","pricing_plan_id":"cebpf4jnsgd1na2vs0mg"},{"bike_id":"eb778b7f-d6bc-49a0-94fa-f96e2976ee7d","system_id":"levelo_inurba_marseille","lat":43.25702,"lon":5.42013,"is_reserved":false,"is_disabled":false,"rental_uris":{"android":"levelo://app?vid=eb778b7f-d6bc-49a0-94fa-f96e2976ee7d","ios":"levelo://app?vid=eb778b7f-d6bc-49a0-94fa-f96e2976ee7d"},"vehicle_type_id":"4","last_reported":1778765338,"current_range_meters":2800,"station_id":"","pricing_plan_id":"cebpf4jnsgd1na2vs0mg"},{"bike_id":"30388078-cd88-4dde-9070-5a1bdfc97cfb","system_id":"levelo_inurba_marseille","lat":43.31118,"lon":5.39496,"is_reserved":false,"is_disabled":false,"rental_uris":{"android":"levelo://app?vid=30388078-cd88-4dde-9070-5a1bdfc97cfb","ios":"levelo://app?vid=30388078-cd88-4dde-9070-5a1bdfc97cfb"},"vehicle_type_id":"4","last_reported":1778765338,"current_range_meters":3200,"station_id":"","pricing_plan_id":"cebpf4jnsgd1na2vs0mg"},{"bike_id":"48066121-841a-4b69-bb96-5a67813041e0","system_id":"levelo_inurba_marseille","lat":43.287,"lon":5.46686,"is_reserved":false,"is_disabled":false,"rental_uris":{"android":"levelo://app?vid=48066121-841a-4b69-bb96-5a67813041e0","ios":"levelo://app?vid=48066121-841a-4b69-bb96-5a67813041e0"},"vehicle_type_id":"4","last_reported":1778765338,"current_range_meters":3200,"station_id":"st_d6tc3vkotcvc738tfjhg","pricing_plan_id":"cebpf4jnsgd1na2vs0mg"},{"bike_id":"d0d5f6e6-4a77-4d27-9498-40ab326e5587","system_id":"levelo_inurba_marseille","lat":43.30124,"lon":5.37498,"is_reserved":false,"is_disabled":false,"rental_uris":{"android":"levelo://app?vid=d0d5f6e6-4a77-4d27-9498-40ab326e5587","ios":"levelo://app?vid=d0d5f6e6-4a77-4d27-9498-40ab326e5587"},"vehicle_type_id":"4","last_reported":1778765338,"current_range_meters":3200,"station_id":"","pricing_plan_id":"cebpf4jnsgd1na2vs0mg"},{"bike_id":"60422b63-1f99-4643-9b60-6343a1cc5059","system_id":"levelo_inurba_marseille","lat":43.27698,"lon":5.38888,"is_reserved":false,"is_disabled":false,"rental_uris":{"android":"levelo://app?vid=60422b63-1f99-4643-9b60-6343a1cc5059","ios":"levelo://app?vid=60422b63-1f99-4643-9b60-6343a1cc5059"},"vehicle_type_id":"4","last_reported":1778765338,"current_range_meters":3200,"station_id":"ce4bhi12rcd13ifvqfo0","pricing_plan_id":"cebpf4jnsgd1na2vs0mg"},{"bike_id":"85aaccfd-7558-413e-aad7-7afd2dd82811","system_id":"levelo_inurba_marseille","lat":43.29841,"lon":5.3627,"is_reserved":false,"is_disabled":false,"rental_uris":{"android":"levelo://app?vid=85aaccfd-7558-413e-aad7-7afd2dd82811","ios":"levelo://app?vid=85aaccfd-7558-413e-aad7-7afd2dd82811"},"vehicle_type_id":"4","last_reported":1778765338,"current_range_meters":3200,"station_id":"ce4bgpp2rcd13ifvqc3g","pricing_plan_id":"cebpf4jnsgd1na2vs0mg"},{"bike_id":"805de22b-1219-4f85-96ef-75e6cd60b5f0","system_id":"levelo_inurba_marseille","lat":43.25577,"lon":5.38245,"is_reserved":false,"is_disabled":false,"rental_uris":{"android":"levelo://app?vid=805de22b-1219-4f85-96ef-75e6cd60b5f0","ios":"levelo://app?vid=805de22b-1219-4f85-96ef-75e6cd60b5f0"},"vehicle_type_id":"4","last_reported":1778765338,"current_range_meters":3200,"station_id":"ce4bhih2rcd13ifvqfs0","pricing_plan_id":"cebpf4jnsgd1na2vs0mg"},{"bike_id":"a3de4300-9fcb-4657-a3ed-bb1669e8362b","system_id":"levelo_inurba_marseille","lat":43.337428,"lon":5.374807,"is_reserved":false,"is_disabled":false,"rental_uris":{"android":"levelo://app?vid=a3de4300-9fcb-4657-a3ed-bb1669e8362b","ios":"levelo://app?vid=a3de4300-9fcb-4657-a3ed-bb1669e8362b"},"vehicle_type_id":"4","last_reported":1778765338,"current_range_meters":3200,"station_id":"","pricing_plan_id":"cebpf4jnsgd1na2vs0mg"},{"bike_id":"92ab43c4-65a8-40ad-9026-0da4c99cc465","system_id":"levelo_inurba_marseille","lat":43.25886,"lon":5.4051,"is_reserved":false,"is_disabled":false,"rental_uris":{"android":"levelo://app?vid=92ab43c4-65a8-40ad-9026-0da4c99cc465","ios":"levelo://app?vid=92ab43c4-65a8-40ad-9026-0da4c99cc465"},"vehicle_type_id":"4","last_reported":1778765338,"current_range_meters":3600,"station_id":"","pricing_plan_id":"cebpf4jnsgd1na2vs0mg"},{"bike_id":"844741a2-f80e-4514-aadd-d1fe2ac89ebf","system_id":"levelo_inurba_marseille","lat":43.22927,"lon":5.35373,"is_reserved":false,"is_disabled":false,"rental_uris":{"android":"levelo://app?vid=844741a2-f80e-4514-aadd-d1fe2ac89ebf","ios":"levelo://app?vid=844741a2-f80e-4514-aadd-d1fe2ac89ebf"},"vehicle_type_id":"4","last_reported":1778765338,"current_range_meters":3600,"station_id":"cpo3532slgdg3j2ikp40","pricing_plan_id":"cebpf4jnsgd1na2vs0mg"},{"bike_id":"3e9a1ab0-bd4b-424d-b87d-449c5abb852e","system_id":"levelo_inurba_marseille","lat":43.21728,"lon":5.34611,"is_reserved":false,"is_disabled":false,"rental_uris":{"android":"levelo://app?vid=3e9a1ab0-bd4b-424d-b87d-449c5abb852e","ios":"levelo://app?vid=3e9a1ab0-bd4b-424d-b87d-449c5abb852e"},"vehicle_type_id":"4","last_reported":1778765338,"current_range_meters":3600,"station_id":"st_cvj6r9ubvosntc0bgbag","pricing_plan_id":"cebpf4jnsgd1na2vs0mg"},{"bike_id":"bbc3c688-839a-4272-ba0f-bd3ff2fd5e51","system_id":"levelo_inurba_marseille","lat":43.29889,"lon":5.42109,"is_reserved":false,"is_disabled":false,"rental_uris":{"android":"levelo://app?vid=bbc3c688-839a-4272-ba0f-bd3ff2fd5e51","ios":"levelo://app?vid=bbc3c688-839a-4272-ba0f-bd3ff2fd5e51"},"vehicle_type_id":"4","last_reported":1778765338,"current_range_meters":3600,"station_id":"st_d6tc004otcvc738tfe70","pricing_plan_id":"cebpf4jnsgd1na2vs0mg"},{"bike_id":"86517fe2-b9ce-4ae4-ab4c-9dea82ee8b29","system_id":"levelo_inurba_marseille","lat":43.29841,"lon":5.36267,"is_reserved":false,"is_disabled":false,"rental_uris":{"android":"levelo://app?vid=86517fe2-b9ce-4ae4-ab4c-9dea82ee8b29","ios":"levelo://app?vid=86517fe2-b9ce-4ae4-ab4c-9dea82ee8b29"},"vehicle_type_id":"4","last_reported":1778765338,"current_range_meters":3600,"station_id":"ce4bgpp2rcd13ifvqc3g","pricing_plan_id":"cebpf4jnsgd1na2vs0mg"},{"bike_id":"95c02ffd-d429-4bb4-9cec-b7834d99f0f6","system_id":"levelo_inurba_marseille","lat":43.33148,"lon":5.3771,"is_reserved":false,"is_disabled":true,"rental_uris":{"android":"levelo://app?vid=95c02ffd-d429-4bb4-9cec-b7834d99f0f6","ios":"levelo://app?vid=95c02ffd-d429-4bb4-9cec-b7834d99f0f6"},"vehicle_type_id":"4","last_reported":1778765338,"current_range_meters":3600,"station_id":"st_d46cu089ee8s73dldbu0","pricing_plan_id":"cebpf4jnsgd1na2vs0mg"},{"bike_id":"0ddd1a44-6a20-4f20-87bb-54f6dbe51696","system_id":"levelo_inurba_marseille","lat":43.31738,"lon":5.40194,"is_reserved":false,"is_disabled":false,"rental_uris":{"android":"levelo://app?vid=0ddd1a44-6a20-4f20-87bb-54f6dbe51696","ios":"levelo://app?vid=0ddd1a44-6a20-4f20-87bb-54f6dbe51696"},"vehicle_type_id":"4","last_reported":1778765338,"current_range_meters":3600,"station_id":"","pricing_plan_id":"cebpf4jnsgd1na2vs0mg"},{"bike_id":"63e9dbe3-ba38-4897-bd79-802f28b2a860","system_id":"levelo_inurba_marseille","lat":43.3316,"lon":5.37688,"is_reserved":false,"is_disabled":false,"rental_uris":{"android":"levelo://app?vid=63e9dbe3-ba38-4897-bd79-802f28b2a860","ios":"levelo://app?vid=63e9dbe3-ba38-4897-bd79-802f28b2a860"},"vehicle_type_id":"4","last_reported":1778765338,"current_range_meters":3600,"station_id":"st_d46cu089ee8s73dldbu0","pricing_plan_id":"cebpf4jnsgd1na2vs0mg"},{"bike_id":"53d1143f-0e28-4cf0-bfb9-fa94d28a54ca","system_id":"levelo_inurba_marseille","lat":43.26064,"lon":5.39386,"is_reserved":false,"is_disabled":false,"rental_uris":{"android":"levelo://app?vid=53d1143f-0e28-4cf0-bfb9-fa94d28a54ca","ios":"levelo://app?vid=53d1143f-0e28-4cf0-bfb9-fa94d28a54ca"},"vehicle_type_id":"4","last_reported":1778765338,"current_range_meters":3600,"station_id":"ce4bhh92rcd13ifvqfj0","pricing_plan_id":"cebpf4jnsgd1na2vs0mg"},{"bike_id":"ba981f5f-f514-420f-a70d-0aab1b00a0e2","system_id":"levelo_inurba_marseille","lat":43.30533,"lon":5.36721,"is_reserved":false,"is_disabled":false,"rental_uris":{"android":"levelo://app?vid=ba981f5f-f514-420f-a70d-0aab1b00a0e2","ios":"levelo://app?vid=ba981f5f-f514-420f-a70d-0aab1b00a0e2"},"vehicle_type_id":"4","last_reported":1778765338,"current_range_meters":3600,"station_id":"ce4bgrp2rcd13ifvqc9g","pricing_plan_id":"cebpf4jnsgd1na2vs0mg"},{"bike_id":"a69bbb17-e904-4bbe-b1a6-d8e7b08362c7","system_id":"levelo_inurba_marseille","lat":43.23986,"lon":5.39929,"is_reserved":false,"is_disabled":false,"rental_uris":{"android":"levelo://app?vid=a69bbb17-e904-4bbe-b1a6-d8e7b08362c7","ios":"levelo://app?vid=a69bbb17-e904-4bbe-b1a6-d8e7b08362c7"},"vehicle_type_id":"4","last_reported":1778765338,"current_range_meters":4000,"station_id":"","pricing_plan_id":"cebpf4jnsgd1na2vs0mg"},{"bike_id":"55e6840f-d0aa-455d-8fef-5561b1affdcf","system_id":"levelo_inurba_marseille","lat":43.28551,"lon":5.3945,"is_reserved":false,"is_disabled":false,"rental_uris":{"android":"levelo://app?vid=55e6840f-d0aa-455d-8fef-5561b1affdcf","ios":"levelo://app?vid=55e6840f-d0aa-455d-8fef-5561b1affdcf"},"vehicle_type_id":"4","last_reported":1778765338,"current_range_meters":4000,"station_id":"ce4bh292rcd13ifvqdg0","pricing_plan_id":"cebpf4jnsgd1na2vs0mg"},{"bike_id":"cbf44112-3338-4790-8091-3c6565fa62d4","system_id":"levelo_inurba_marseille","lat":43.25018,"lon":5.38896,"is_reserved":false,"is_disabled":false,"rental_uris":{"android":"levelo://app?vid=cbf44112-3338-4790-8091-3c6565fa62d4","ios":"levelo://app?vid=cbf44112-3338-4790-8091-3c6565fa62d4"},"vehicle_type_id":"4","last_reported":1778765338,"current_range_meters":4000,"station_id":"ce4bhgp2rcd13ifvqfd0","pricing_plan_id":"cebpf4jnsgd1na2vs0mg"},{"bike_id":"36606052-1c3a-4693-b343-56bc75b8bf4f","system_id":"levelo_inurba_marseille","lat":43.27372,"lon":5.36248,"is_reserved":false,"is_disabled":false,"rental_uris":{"android":"levelo://app?vid=36606052-1c3a-4693-b343-56bc75b8bf4f","ios":"levelo://app?vid=36606052-1c3a-4693-b343-56bc75b8bf4f"},"vehicle_type_id":"4","last_reported":1778765338,"current_range_meters":4000,"station_id":"ce4bhbh2rcd13ifvqeo0","pricing_plan_id":"cebpf4jnsgd1na2vs0mg"},{"bike_id":"6d21e7ef-3ef9-4f0a-85e3-96eaf28ae7d3","system_id":"levelo_inurba_marseille","lat":43.22536,"lon":5.3483,"is_reserved":false,"is_disabled":false,"rental_uris":{"android":"levelo://app?vid=6d21e7ef-3ef9-4f0a-85e3-96eaf28ae7d3","ios":"levelo://app?vid=6d21e7ef-3ef9-4f0a-85e3-96eaf28ae7d3"},"vehicle_type_id":"4","last_reported":1778765338,"current_range_meters":4000,"station_id":"st_cvj5dfep6f1abm77gieg","pricing_plan_id":"cebpf4jnsgd1na2vs0mg"},{"bike_id":"137226da-c8c1-4f85-8f7a-ac419ca3199e","system_id":"levelo_inurba_marseille","lat":43.2954,"lon":5.38544,"is_reserved":false,"is_disabled":false,"rental_uris":{"android":"levelo://app?vid=137226da-c8c1-4f85-8f7a-ac419ca3199e","ios":"levelo://app?vid=137226da-c8c1-4f85-8f7a-ac419ca3199e"},"vehicle_type_id":"4","last_reported":1778765338,"current_range_meters":4000,"station_id":"ce4bgih2rcd13ifvqba0","pricing_plan_id":"cebpf4jnsgd1na2vs0mg"},{"bike_id":"d0a686ff-b770-44d0-9a00-3ce41b90d133","system_id":"levelo_inurba_marseille","lat":43.302442,"lon":5.400502,"is_reserved":false,"is_disabled":false,"rental_uris":{"android":"levelo://app?vid=d0a686ff-b770-44d0-9a00-3ce41b90d133","ios":"levelo://app?vid=d0a686ff-b770-44d0-9a00-3ce41b90d133"},"vehicle_type_id":"4","last_reported":1778765338,"current_range_meters":4000,"station_id":"ce4bgvh2rcd13ifvqcs0","pricing_plan_id":"cebpf4jnsgd1na2vs0mg"},{"bike_id":"85c4beb0-759e-43b8-96d0-4a792eb6f9e1","system_id":"levelo_inurba_marseille","lat":43.24795,"lon":5.37486,"is_reserved":false,"is_disabled":false,"rental_uris":{"android":"levelo://app?vid=85c4beb0-759e-43b8-96d0-4a792eb6f9e1","ios":"levelo://app?vid=85c4beb0-759e-43b8-96d0-4a792eb6f9e1"},"vehicle_type_id":"4","last_reported":1778765338,"current_range_meters":4000,"station_id":"ce4bhgh2rcd13ifvqfb0","pricing_plan_id":"cebpf4jnsgd1na2vs0mg"},{"bike_id":"31ece05a-75e8-496e-82f0-3b8d5b3a3ef3","system_id":"levelo_inurba_marseille","lat":43.28528,"lon":5.44104,"is_reserved":false,"is_disabled":false,"rental_uris":{"android":"levelo://app?vid=31ece05a-75e8-496e-82f0-3b8d5b3a3ef3","ios":"levelo://app?vid=31ece05a-75e8-496e-82f0-3b8d5b3a3ef3"},"vehicle_type_id":"4","last_reported":1778765338,"current_range_meters":4000,"station_id":"st_d3j3df2ikq2c7380ej80","pricing_plan_id":"cebpf4jnsgd1na2vs0mg"},{"bike_id":"e0e3f93f-16e8-4b39-b089-98387a4c334d","system_id":"levelo_inurba_marseille","lat":43.33537,"lon":5.37467,"is_reserved":false,"is_disabled":false,"rental_uris":{"android":"levelo://app?vid=e0e3f93f-16e8-4b39-b089-98387a4c334d","ios":"levelo://app?vid=e0e3f93f-16e8-4b39-b089-98387a4c334d"},"vehicle_type_id":"4","last_reported":1778765338,"current_range_meters":4000,"station_id":"st_d46tts09ee8s73dlu43g","pricing_plan_id":"cebpf4jnsgd1na2vs0mg"},{"bike_id":"1dee72ea-cbbb-4f0f-b373-7962e2bff9d2","system_id":"levelo_inurba_marseille","lat":43.2464,"lon":5.3898,"is_reserved":false,"is_disabled":false,"rental_uris":{"android":"levelo://app?vid=1dee72ea-cbbb-4f0f-b373-7962e2bff9d2","ios":"levelo://app?vid=1dee72ea-cbbb-4f0f-b373-7962e2bff9d2"},"vehicle_type_id":"4","last_reported":1778765338,"current_range_meters":4000,"station_id":"","pricing_plan_id":"cebpf4jnsgd1na2vs0mg"},{"bike_id":"6206d17b-cf9d-41b3-a41d-c6052f6a6ce2","system_id":"levelo_inurba_marseille","lat":43.33538,"lon":5.37472,"is_reserved":false,"is_disabled":false,"rental_uris":{"android":"levelo://app?vid=6206d17b-cf9d-41b3-a41d-c6052f6a6ce2","ios":"levelo://app?vid=6206d17b-cf9d-41b3-a41d-c6052f6a6ce2"},"vehicle_type_id":"4","last_reported":1778765338,"current_range_meters":4400,"station_id":"st_d46tts09ee8s73dlu43g","pricing_plan_id":"cebpf4jnsgd1na2vs0mg"},{"bike_id":"1a75337f-df3e-4454-8762-95647d76088b","system_id":"levelo_inurba_marseille","lat":43.26663,"lon":5.38276,"is_reserved":false,"is_disabled":false,"rental_uris":{"android":"levelo://app?vid=1a75337f-df3e-4454-8762-95647d76088b","ios":"levelo://app?vid=1a75337f-df3e-4454-8762-95647d76088b"},"vehicle_type_id":"4","last_reported":1778765338,"current_range_meters":4400,"station_id":"ce4bhg92rcd13ifvqf90","pricing_plan_id":"cebpf4jnsgd1na2vs0mg"},{"bike_id":"05e47541-5eb4-4390-a7c6-6fe0c741a6c4","system_id":"levelo_inurba_marseille","lat":43.31723,"lon":5.42398,"is_reserved":false,"is_disabled":false,"rental_uris":{"android":"levelo://app?vid=05e47541-5eb4-4390-a7c6-6fe0c741a6c4","ios":"levelo://app?vid=05e47541-5eb4-4390-a7c6-6fe0c741a6c4"},"vehicle_type_id":"4","last_reported":1778765338,"current_range_meters":4400,"station_id":"ce4bhp92rcd13ifvqhbg","pricing_plan_id":"cebpf4jnsgd1na2vs0mg"},{"bike_id":"4751127d-3aa2-446e-8601-6629ed659fa5","system_id":"levelo_inurba_marseille","lat":43.22561,"lon":5.41628,"is_reserved":false,"is_disabled":false,"rental_uris":{"android":"levelo://app?vid=4751127d-3aa2-446e-8601-6629ed659fa5","ios":"levelo://app?vid=4751127d-3aa2-446e-8601-6629ed659fa5"},"vehicle_type_id":"4","last_reported":1778765338,"current_range_meters":4400,"station_id":"st_d2o4gvlbi1j2169b742g","pricing_plan_id":"cebpf4jnsgd1na2vs0mg"},{"bike_id":"74107c3e-4a4b-404c-b3eb-5ce68acb0287","system_id":"levelo_inurba_marseille","lat":43.26237,"lon":5.38781,"is_reserved":false,"is_disabled":false,"rental_uris":{"android":"levelo://app?vid=74107c3e-4a4b-404c-b3eb-5ce68acb0287","ios":"levelo://app?vid=74107c3e-4a4b-404c-b3eb-5ce68acb0287"},"vehicle_type_id":"4","last_reported":1778765338,"current_range_meters":4400,"station_id":"","pricing_plan_id":"cebpf4jnsgd1na2vs0mg"},{"bike_id":"5b17f426-a507-40f2-9ba0-ef45709ece55","system_id":"levelo_inurba_marseille","lat":43.24664,"lon":5.38168,"is_reserved":false,"is_disabled":false,"rental_uris":{"android":"levelo://app?vid=5b17f426-a507-40f2-9ba0-ef45709ece55","ios":"levelo://app?vid=5b17f426-a507-40f2-9ba0-ef45709ece55"},"vehicle_type_id":"4","last_reported":1778765338,"current_range_meters":4400,"station_id":"ce4bhih2rcd13ifvqfr0","pricing_plan_id":"cebpf4jnsgd1na2vs0mg"},{"bike_id":"527b2ef1-fc72-454f-b26f-256571cce3c9","system_id":"levelo_inurba_marseille","lat":43.262212,"lon":5.387671,"is_reserved":false,"is_disabled":false,"rental_uris":{"android":"levelo://app?vid=527b2ef1-fc72-454f-b26f-256571cce3c9","ios":"levelo://app?vid=527b2ef1-fc72-454f-b26f-256571cce3c9"},"vehicle_type_id":"4","last_reported":1778765338,"current_range_meters":4800,"station_id":"","pricing_plan_id":"cebpf4jnsgd1na2vs0mg"},{"bike_id":"34cc106d-e88f-464c-b290-ce7702652b61","system_id":"levelo_inurba_marseille","lat":43.28946,"lon":5.36417,"is_reserved":false,"is_disabled":false,"rental_uris":{"android":"levelo://app?vid=34cc106d-e88f-464c-b290-ce7702652b61","ios":"levelo://app?vid=34cc106d-e88f-464c-b290-ce7702652b61"},"vehicle_type_id":"4","last_reported":1778765338,"current_range_meters":4800,"station_id":"ce4bhc92rcd13ifvqetg","pricing_plan_id":"cebpf4jnsgd1na2vs0mg"},{"bike_id":"5eb0b80a-cdad-4426-9a8a-07687e4cbd6b","system_id":"levelo_inurba_marseille","lat":43.26206,"lon":5.37435,"is_reserved":false,"is_disabled":false,"rental_uris":{"android":"levelo://app?vid=5eb0b80a-cdad-4426-9a8a-07687e4cbd6b","ios":"levelo://app?vid=5eb0b80a-cdad-4426-9a8a-07687e4cbd6b"},"vehicle_type_id":"4","last_reported":1778765338,"current_range_meters":4800,"station_id":"ce4bhgp2rcd13ifvqfc0","pricing_plan_id":"cebpf4jnsgd1na2vs0mg"},{"bike_id":"4808eafe-dc33-42cf-8220-b3819106f91b","system_id":"levelo_inurba_marseille","lat":43.260985,"lon":5.375039,"is_reserved":false,"is_disabled":false,"rental_uris":{"android":"levelo://app?vid=4808eafe-dc33-42cf-8220-b3819106f91b","ios":"levelo://app?vid=4808eafe-dc33-42cf-8220-b3819106f91b"},"vehicle_type_id":"4","last_reported":1778765338,"current_range_meters":4800,"station_id":"ce4bhgp2rcd13ifvqfe0","pricing_plan_id":"cebpf4jnsgd1na2vs0mg"},{"bike_id":"e6af4dfe-7a13-4929-ac71-9d3454a95813","system_id":"levelo_inurba_marseille","lat":43.27229,"lon":5.39181,"is_reserved":false,"is_disabled":true,"rental_uris":{"android":"levelo://app?vid=e6af4dfe-7a13-4929-ac71-9d3454a95813","ios":"levelo://app?vid=e6af4dfe-7a13-4929-ac71-9d3454a95813"},"vehicle_type_id":"4","last_reported":1778765338,"current_range_meters":4800,"station_id":"ce4bhhp2rcd13ifvqfm0","pricing_plan_id":"cebpf4jnsgd1na2vs0mg"},{"bike_id":"76abce95-1fbb-457c-83c9-8be31c1ba964","system_id":"levelo_inurba_marseille","lat":43.23187,"lon":5.39978,"is_reserved":false,"is_disabled":false,"rental_uris":{"android":"levelo://app?vid=76abce95-1fbb-457c-83c9-8be31c1ba964","ios":"levelo://app?vid=76abce95-1fbb-457c-83c9-8be31c1ba964"},"vehicle_type_id":"4","last_reported":1778765338,"current_range_meters":4800,"station_id":"ce4bhn12rcd13ifvqgqg","pricing_plan_id":"cebpf4jnsgd1na2vs0mg"},{"bike_id":"8bb75740-110f-4d4e-8348-fb9d76c42c05","system_id":"levelo_inurba_marseille","lat":43.28722,"lon":5.46704,"is_reserved":false,"is_disabled":false,"rental_uris":{"android":"levelo://app?vid=8bb75740-110f-4d4e-8348-fb9d76c42c05","ios":"levelo://app?vid=8bb75740-110f-4d4e-8348-fb9d76c42c05"},"vehicle_type_id":"4","last_reported":1778765338,"current_range_meters":4800,"station_id":"st_d6tc3vkotcvc738tfjhg","pricing_plan_id":"cebpf4jnsgd1na2vs0mg"},{"bike_id":"462aea8a-f745-44bc-acfa-783c844b1e10","system_id":"levelo_inurba_marseille","lat":43.283981,"lon":5.375193,"is_reserved":false,"is_disabled":false,"rental_uris":{"android":"levelo://app?vid=462aea8a-f745-44bc-acfa-783c844b1e10","ios":"levelo://app?vid=462aea8a-f745-44bc-acfa-783c844b1e10"},"vehicle_type_id":"4","last_reported":1778765338,"current_range_meters":4800,"station_id":"ce4bh412rcd13ifvqds0","pricing_plan_id":"cebpf4jnsgd1na2vs0mg"},{"bike_id":"eaa9162b-df1e-4cdf-86fa-1c242477da5f","system_id":"levelo_inurba_marseille","lat":43.24532,"lon":5.3952,"is_reserved":false,"is_disabled":false,"rental_uris":{"android":"levelo://app?vid=eaa9162b-df1e-4cdf-86fa-1c242477da5f","ios":"levelo://app?vid=eaa9162b-df1e-4cdf-86fa-1c242477da5f"},"vehicle_type_id":"4","last_reported":1778765338,"current_range_meters":5600,"station_id":"ce4bhlp2rcd13ifvqgjg","pricing_plan_id":"cebpf4jnsgd1na2vs0mg"},{"bike_id":"961ae3cb-3fb8-4279-8e42-ea1f7ab378e9","system_id":"levelo_inurba_marseille","lat":43.23176,"lon":5.39995,"is_reserved":false,"is_disabled":false,"rental_uris":{"android":"levelo://app?vid=961ae3cb-3fb8-4279-8e42-ea1f7ab378e9","ios":"levelo://app?vid=961ae3cb-3fb8-4279-8e42-ea1f7ab378e9"},"vehicle_type_id":"4","last_reported":1778765338,"current_range_meters":5600,"station_id":"ce4bhn12rcd13ifvqgqg","pricing_plan_id":"cebpf4jnsgd1na2vs0mg"},{"bike_id":"b1f85c10-3a72-4895-b4df-4b7782abd0b1","system_id":"levelo_inurba_marseille","lat":43.28521,"lon":5.44112,"is_reserved":false,"is_disabled":false,"rental_uris":{"android":"levelo://app?vid=b1f85c10-3a72-4895-b4df-4b7782abd0b1","ios":"levelo://app?vid=b1f85c10-3a72-4895-b4df-4b7782abd0b1"},"vehicle_type_id":"4","last_reported":1778765338,"current_range_meters":5600,"station_id":"st_d3j3df2ikq2c7380ej80","pricing_plan_id":"cebpf4jnsgd1na2vs0mg"},{"bike_id":"af370b7a-f347-4719-94d3-93be7c310df3","system_id":"levelo_inurba_marseille","lat":43.298896,"lon":5.389136,"is_reserved":false,"is_disabled":false,"rental_uris":{"android":"levelo://app?vid=af370b7a-f347-4719-94d3-93be7c310df3","ios":"levelo://app?vid=af370b7a-f347-4719-94d3-93be7c310df3"},"vehicle_type_id":"4","last_reported":1778765338,"current_range_meters":5600,"station_id":"ce4bh392rcd13ifvqdl0","pricing_plan_id":"cebpf4jnsgd1na2vs0mg"},{"bike_id":"d114d888-eafe-4e27-96ce-84f56d10b9cc","system_id":"levelo_inurba_marseille","lat":43.28614,"lon":5.35103,"is_reserved":false,"is_disabled":false,"rental_uris":{"android":"levelo://app?vid=d114d888-eafe-4e27-96ce-84f56d10b9cc","ios":"levelo://app?vid=d114d888-eafe-4e27-96ce-84f56d10b9cc"},"vehicle_type_id":"4","last_reported":1778765338,"current_range_meters":5600,"station_id":"ce4bhch2rcd13ifvqeug","pricing_plan_id":"cebpf4jnsgd1na2vs0mg"},{"bike_id":"0da6948a-b597-4317-b926-141efbb7181d","system_id":"levelo_inurba_marseille","lat":43.25502,"lon":5.37656,"is_reserved":false,"is_disabled":false,"rental_uris":{"android":"levelo://app?vid=0da6948a-b597-4317-b926-141efbb7181d","ios":"levelo://app?vid=0da6948a-b597-4317-b926-141efbb7181d"},"vehicle_type_id":"4","last_reported":1778765338,"current_range_meters":5600,"station_id":"ce4bhh12rcd13ifvqff0","pricing_plan_id":"cebpf4jnsgd1na2vs0mg"},{"bike_id":"ce46e338-2b3c-4540-bcec-12f047be9263","system_id":"levelo_inurba_marseille","lat":43.28219,"lon":5.40581,"is_reserved":false,"is_disabled":false,"rental_uris":{"android":"levelo://app?vid=ce46e338-2b3c-4540-bcec-12f047be9263","ios":"levelo://app?vid=ce46e338-2b3c-4540-bcec-12f047be9263"},"vehicle_type_id":"4","last_reported":1778765338,"current_range_meters":5600,"station_id":"","pricing_plan_id":"cebpf4jnsgd1na2vs0mg"},{"bike_id":"1c8551e7-65a0-49fa-ba5d-23c46f24083e","system_id":"levelo_inurba_marseille","lat":43.28697,"lon":5.46682,"is_reserved":false,"is_disabled":false,"rental_uris":{"android":"levelo://app?vid=1c8551e7-65a0-49fa-ba5d-23c46f24083e","ios":"levelo://app?vid=1c8551e7-65a0-49fa-ba5d-23c46f24083e"},"vehicle_type_id":"4","last_reported":1778765338,"current_range_meters":5600,"station_id":"st_d6tc3vkotcvc738tfjhg","pricing_plan_id":"cebpf4jnsgd1na2vs0mg"},{"bike_id":"9db43dae-3d71-490e-820b-f190ccf4c8f2","system_id":"levelo_inurba_marseille","lat":43.25492,"lon":5.37657,"is_reserved":false,"is_disabled":false,"rental_uris":{"android":"levelo://app?vid=9db43dae-3d71-490e-820b-f190ccf4c8f2","ios":"levelo://app?vid=9db43dae-3d71-490e-820b-f190ccf4c8f2"},"vehicle_type_id":"4","last_reported":1778765338,"current_range_meters":5600,"station_id":"ce4bhh12rcd13ifvqff0","pricing_plan_id":"cebpf4jnsgd1na2vs0mg"},{"bike_id":"f7ad5531-c80d-4488-932d-7c4d62779c85","system_id":"levelo_inurba_marseille","lat":43.27928,"lon":5.39579,"is_reserved":false,"is_disabled":false,"rental_uris":{"android":"levelo://app?vid=f7ad5531-c80d-4488-932d-7c4d62779c85","ios":"levelo://app?vid=f7ad5531-c80d-4488-932d-7c4d62779c85"},"vehicle_type_id":"4","last_reported":1778765338,"current_range_meters":5600,"station_id":"ce4bhf92rcd13ifvqf40","pricing_plan_id":"cebpf4jnsgd1na2vs0mg"},{"bike_id":"9bb62d1d-98d2-456f-8ada-1bbcaeb98c00","system_id":"levelo_inurba_marseille","lat":43.28518,"lon":5.38399,"is_reserved":false,"is_disabled":false,"rental_uris":{"android":"levelo://app?vid=9bb62d1d-98d2-456f-8ada-1bbcaeb98c00","ios":"levelo://app?vid=9bb62d1d-98d2-456f-8ada-1bbcaeb98c00"},"vehicle_type_id":"4","last_reported":1778765338,"current_range_meters":6000,"station_id":"ce4bh512rcd13ifvqe3g","pricing_plan_id":"cebpf4jnsgd1na2vs0mg"},{"bike_id":"1e2d26d3-769e-4818-802b-4a146ebc5104","system_id":"levelo_inurba_marseille","lat":43.29863,"lon":5.3973,"is_reserved":false,"is_disabled":false,"rental_uris":{"android":"levelo://app?vid=1e2d26d3-769e-4818-802b-4a146ebc5104","ios":"levelo://app?vid=1e2d26d3-769e-4818-802b-4a146ebc5104"},"vehicle_type_id":"4","last_reported":1778765338,"current_range_meters":6000,"station_id":"ce4bh0h2rcd13ifvqd50","pricing_plan_id":"cebpf4jnsgd1na2vs0mg"},{"bike_id":"18df3caf-e3cd-46b1-8a56-af0d8c09400e","system_id":"levelo_inurba_marseille","lat":43.24173,"lon":5.36388,"is_reserved":false,"is_disabled":false,"rental_uris":{"android":"levelo://app?vid=18df3caf-e3cd-46b1-8a56-af0d8c09400e","ios":"levelo://app?vid=18df3caf-e3cd-46b1-8a56-af0d8c09400e"},"vehicle_type_id":"4","last_reported":1778765338,"current_range_meters":6000,"station_id":"cpo36qri1sfpv3e86is0","pricing_plan_id":"cebpf4jnsgd1na2vs0mg"},{"bike_id":"e7639aa3-651f-4e26-8dc2-eebbc9adb5f8","system_id":"levelo_inurba_marseille","lat":43.24683,"lon":5.38913,"is_reserved":false,"is_disabled":true,"rental_uris":{"android":"levelo://app?vid=e7639aa3-651f-4e26-8dc2-eebbc9adb5f8","ios":"levelo://app?vid=e7639aa3-651f-4e26-8dc2-eebbc9adb5f8"},"vehicle_type_id":"4","last_reported":1778765338,"current_range_meters":6000,"station_id":"ce4bhg12rcd13ifvqf60","pricing_plan_id":"cebpf4jnsgd1na2vs0mg"},{"bike_id":"788dfa8a-456b-4e1b-8663-b20f000fa194","system_id":"levelo_inurba_marseille","lat":43.26922,"lon":5.40286,"is_reserved":false,"is_disabled":false,"rental_uris":{"android":"levelo://app?vid=788dfa8a-456b-4e1b-8663-b20f000fa194","ios":"levelo://app?vid=788dfa8a-456b-4e1b-8663-b20f000fa194"},"vehicle_type_id":"4","last_reported":1778765338,"current_range_meters":6000,"station_id":"cjm6bp8fraef2m0cb0m0","pricing_plan_id":"cebpf4jnsgd1na2vs0mg"},{"bike_id":"b299766d-661b-4293-b516-1846fa5fb91f","system_id":"levelo_inurba_marseille","lat":43.28583,"lon":5.38628,"is_reserved":false,"is_disabled":false,"rental_uris":{"android":"levelo://app?vid=b299766d-661b-4293-b516-1846fa5fb91f","ios":"levelo://app?vid=b299766d-661b-4293-b516-1846fa5fb91f"},"vehicle_type_id":"4","last_reported":1778765338,"current_range_meters":6000,"station_id":"","pricing_plan_id":"cebpf4jnsgd1na2vs0mg"},{"bike_id":"df9dc31c-488a-4409-82ea-f9ea901aebf4","system_id":"levelo_inurba_marseille","lat":43.29251,"lon":5.37627,"is_reserved":false,"is_disabled":false,"rental_uris":{"android":"levelo://app?vid=df9dc31c-488a-4409-82ea-f9ea901aebf4","ios":"levelo://app?vid=df9dc31c-488a-4409-82ea-f9ea901aebf4"},"vehicle_type_id":"4","last_reported":1778765338,"current_range_meters":6000,"station_id":"ce4bgi12rcd13ifvqb80","pricing_plan_id":"cebpf4jnsgd1na2vs0mg"},{"bike_id":"241e3942-3c13-4b00-90b4-13ab8de78b45","system_id":"levelo_inurba_marseille","lat":43.30685,"lon":5.37084,"is_reserved":false,"is_disabled":false,"rental_uris":{"android":"levelo://app?vid=241e3942-3c13-4b00-90b4-13ab8de78b45","ios":"levelo://app?vid=241e3942-3c13-4b00-90b4-13ab8de78b45"},"vehicle_type_id":"4","last_reported":1778765338,"current_range_meters":6000,"station_id":"","pricing_plan_id":"cebpf4jnsgd1na2vs0mg"},{"bike_id":"c94bbecd-21bd-40d5-bf65-b40f6ba3e746","system_id":"levelo_inurba_marseille","lat":43.29913,"lon":5.3748,"is_reserved":false,"is_disabled":false,"rental_uris":{"android":"levelo://app?vid=c94bbecd-21bd-40d5-bf65-b40f6ba3e746","ios":"levelo://app?vid=c94bbecd-21bd-40d5-bf65-b40f6ba3e746"},"vehicle_type_id":"4","last_reported":1778765338,"current_range_meters":6400,"station_id":"ce4bgjh2rcd13ifvqbg0","pricing_plan_id":"cebpf4jnsgd1na2vs0mg"},{"bike_id":"81ae9a97-046f-4685-b3d6-f0657cc0dac1","system_id":"levelo_inurba_marseille","lat":43.26955,"lon":5.40247,"is_reserved":false,"is_disabled":false,"rental_uris":{"android":"levelo://app?vid=81ae9a97-046f-4685-b3d6-f0657cc0dac1","ios":"levelo://app?vid=81ae9a97-046f-4685-b3d6-f0657cc0dac1"},"vehicle_type_id":"4","last_reported":1778765338,"current_range_meters":6400,"station_id":"cjm6bp8fraef2m0cb0m0","pricing_plan_id":"cebpf4jnsgd1na2vs0mg"},{"bike_id":"4066804f-6245-416c-a2b8-375581408be7","system_id":"levelo_inurba_marseille","lat":43.29133,"lon":5.42442,"is_reserved":false,"is_disabled":false,"rental_uris":{"android":"levelo://app?vid=4066804f-6245-416c-a2b8-375581408be7","ios":"levelo://app?vid=4066804f-6245-416c-a2b8-375581408be7"},"vehicle_type_id":"4","last_reported":1778765338,"current_range_meters":6400,"station_id":"","pricing_plan_id":"cebpf4jnsgd1na2vs0mg"},{"bike_id":"0e1804ca-dccb-4098-accf-62174948ed0a","system_id":"levelo_inurba_marseille","lat":43.29456,"lon":5.38242,"is_reserved":false,"is_disabled":false,"rental_uris":{"android":"levelo://app?vid=0e1804ca-dccb-4098-accf-62174948ed0a","ios":"levelo://app?vid=0e1804ca-dccb-4098-accf-62174948ed0a"},"vehicle_type_id":"4","last_reported":1778765338,"current_range_meters":6400,"station_id":"","pricing_plan_id":"cebpf4jnsgd1na2vs0mg"},{"bike_id":"f6fcf2d3-59dc-446e-8e5d-6c4db3de3165","system_id":"levelo_inurba_marseille","lat":43.308026,"lon":5.381497,"is_reserved":false,"is_disabled":false,"rental_uris":{"android":"levelo://app?vid=f6fcf2d3-59dc-446e-8e5d-6c4db3de3165","ios":"levelo://app?vid=f6fcf2d3-59dc-446e-8e5d-6c4db3de3165"},"vehicle_type_id":"4","last_reported":1778765338,"current_range_meters":6400,"station_id":"","pricing_plan_id":"cebpf4jnsgd1na2vs0mg"},{"bike_id":"72179d6d-4306-495c-979e-7fc83e24d3fc","system_id":"levelo_inurba_marseille","lat":43.30187,"lon":5.36562,"is_reserved":false,"is_disabled":false,"rental_uris":{"android":"levelo://app?vid=72179d6d-4306-495c-979e-7fc83e24d3fc","ios":"levelo://app?vid=72179d6d-4306-495c-979e-7fc83e24d3fc"},"vehicle_type_id":"4","last_reported":1778765338,"current_range_meters":6400,"station_id":"","pricing_plan_id":"cebpf4jnsgd1na2vs0mg"},{"bike_id":"d42a7cf1-1fa2-40ee-b441-c73427ab11ef","system_id":"levelo_inurba_marseille","lat":43.2396,"lon":5.36635,"is_reserved":false,"is_disabled":false,"rental_uris":{"android":"levelo://app?vid=d42a7cf1-1fa2-40ee-b441-c73427ab11ef","ios":"levelo://app?vid=d42a7cf1-1fa2-40ee-b441-c73427ab11ef"},"vehicle_type_id":"4","last_reported":1778765338,"current_range_meters":6400,"station_id":"ce4bhi12rcd13ifvqfp0","pricing_plan_id":"cebpf4jnsgd1na2vs0mg"},{"bike_id":"3c9fd14c-8db8-479c-846c-f3dc1ab44fd4","system_id":"levelo_inurba_marseille","lat":43.2472,"lon":5.39286,"is_reserved":false,"is_disabled":false,"rental_uris":{"android":"levelo://app?vid=3c9fd14c-8db8-479c-846c-f3dc1ab44fd4","ios":"levelo://app?vid=3c9fd14c-8db8-479c-846c-f3dc1ab44fd4"},"vehicle_type_id":"4","last_reported":1778765338,"current_range_meters":6400,"station_id":"","pricing_plan_id":"cebpf4jnsgd1na2vs0mg"},{"bike_id":"5f866a7b-0fb9-40d2-812a-f75fe02839a7","system_id":"levelo_inurba_marseille","lat":43.30545,"lon":5.36556,"is_reserved":false,"is_disabled":false,"rental_uris":{"android":"levelo://app?vid=5f866a7b-0fb9-40d2-812a-f75fe02839a7","ios":"levelo://app?vid=5f866a7b-0fb9-40d2-812a-f75fe02839a7"},"vehicle_type_id":"4","last_reported":1778765338,"current_range_meters":6400,"station_id":"ce4bgs12rcd13ifvqcag","pricing_plan_id":"cebpf4jnsgd1na2vs0mg"},{"bike_id":"4d2f6501-f59d-42f5-8f2d-638fca42e820","system_id":"levelo_inurba_marseille","lat":43.28469,"lon":5.4841,"is_reserved":false,"is_disabled":false,"rental_uris":{"android":"levelo://app?vid=4d2f6501-f59d-42f5-8f2d-638fca42e820","ios":"levelo://app?vid=4d2f6501-f59d-42f5-8f2d-638fca42e820"},"vehicle_type_id":"4","last_reported":1778765338,"current_range_meters":6400,"station_id":"st_d3svhcjqgbts73a3dn0g","pricing_plan_id":"cebpf4jnsgd1na2vs0mg"},{"bike_id":"9b42fa64-9a45-4fcc-a56e-8b25f71385ce","system_id":"levelo_inurba_marseille","lat":43.34143,"lon":5.40897,"is_reserved":false,"is_disabled":false,"rental_uris":{"android":"levelo://app?vid=9b42fa64-9a45-4fcc-a56e-8b25f71385ce","ios":"levelo://app?vid=9b42fa64-9a45-4fcc-a56e-8b25f71385ce"},"vehicle_type_id":"4","last_reported":1778765338,"current_range_meters":6400,"station_id":"ce4bhqh2rcd13ifvqhlg","pricing_plan_id":"cebpf4jnsgd1na2vs0mg"},{"bike_id":"43dc5ec9-cce1-48fb-99af-2b40ca7b9483","system_id":"levelo_inurba_marseille","lat":43.21758,"lon":5.34609,"is_reserved":false,"is_disabled":false,"rental_uris":{"android":"levelo://app?vid=43dc5ec9-cce1-48fb-99af-2b40ca7b9483","ios":"levelo://app?vid=43dc5ec9-cce1-48fb-99af-2b40ca7b9483"},"vehicle_type_id":"4","last_reported":1778765338,"current_range_meters":6800,"station_id":"st_cvj6r9ubvosntc0bgbag","pricing_plan_id":"cebpf4jnsgd1na2vs0mg"},{"bike_id":"f009bb4b-625b-4482-8ff8-5aeca90a33f4","system_id":"levelo_inurba_marseille","lat":43.26223,"lon":5.37464,"is_reserved":false,"is_disabled":false,"rental_uris":{"android":"levelo://app?vid=f009bb4b-625b-4482-8ff8-5aeca90a33f4","ios":"levelo://app?vid=f009bb4b-625b-4482-8ff8-5aeca90a33f4"},"vehicle_type_id":"4","last_reported":1778765338,"current_range_meters":6800,"station_id":"","pricing_plan_id":"cebpf4jnsgd1na2vs0mg"},{"bike_id":"b7aef511-a30b-48e6-924f-5b7ff92819c7","system_id":"levelo_inurba_marseille","lat":43.28146,"lon":5.42628,"is_reserved":false,"is_disabled":false,"rental_uris":{"android":"levelo://app?vid=b7aef511-a30b-48e6-924f-5b7ff92819c7","ios":"levelo://app?vid=b7aef511-a30b-48e6-924f-5b7ff92819c7"},"vehicle_type_id":"4","last_reported":1778765338,"current_range_meters":6800,"station_id":"ce4bhnh2rcd13ifvqgug","pricing_plan_id":"cebpf4jnsgd1na2vs0mg"},{"bike_id":"055b3910-bda1-47cf-b692-5e98cd27e164","system_id":"levelo_inurba_marseille","lat":43.28359,"lon":5.38112,"is_reserved":false,"is_disabled":false,"rental_uris":{"android":"levelo://app?vid=055b3910-bda1-47cf-b692-5e98cd27e164","ios":"levelo://app?vid=055b3910-bda1-47cf-b692-5e98cd27e164"},"vehicle_type_id":"4","last_reported":1778765338,"current_range_meters":6800,"station_id":"ce4bh412rcd13ifvqdr0","pricing_plan_id":"cebpf4jnsgd1na2vs0mg"},{"bike_id":"1708bcfb-6900-4ce4-8f2f-40e64297f7b6","system_id":"levelo_inurba_marseille","lat":43.23181,"lon":5.39973,"is_reserved":false,"is_disabled":false,"rental_uris":{"android":"levelo://app?vid=1708bcfb-6900-4ce4-8f2f-40e64297f7b6","ios":"levelo://app?vid=1708bcfb-6900-4ce4-8f2f-40e64297f7b6"},"vehicle_type_id":"4","last_reported":1778765338,"current_range_meters":6800,"station_id":"ce4bhn12rcd13ifvqgqg","pricing_plan_id":"cebpf4jnsgd1na2vs0mg"},{"bike_id":"9ab268a0-a8ea-4091-be12-135023a9af46","system_id":"levelo_inurba_marseille","lat":43.30422,"lon":5.39716,"is_reserved":false,"is_disabled":false,"rental_uris":{"android":"levelo://app?vid=9ab268a0-a8ea-4091-be12-135023a9af46","ios":"levelo://app?vid=9ab268a0-a8ea-4091-be12-135023a9af46"},"vehicle_type_id":"4","last_reported":1778765338,"current_range_meters":6800,"station_id":"ce4bh092rcd13ifvqd20","pricing_plan_id":"cebpf4jnsgd1na2vs0mg"},{"bike_id":"dbe42d4b-141a-495c-81fb-2666146b6eff","system_id":"levelo_inurba_marseille","lat":43.27915,"lon":5.39587,"is_reserved":false,"is_disabled":false,"rental_uris":{"android":"levelo://app?vid=dbe42d4b-141a-495c-81fb-2666146b6eff","ios":"levelo://app?vid=dbe42d4b-141a-495c-81fb-2666146b6eff"},"vehicle_type_id":"4","last_reported":1778765338,"current_range_meters":6800,"station_id":"ce4bhf92rcd13ifvqf40","pricing_plan_id":"cebpf4jnsgd1na2vs0mg"},{"bike_id":"c4f986f4-550e-4a87-97a3-22883ee278ee","system_id":"levelo_inurba_marseille","lat":43.24389,"lon":5.37045,"is_reserved":false,"is_disabled":false,"rental_uris":{"android":"levelo://app?vid=c4f986f4-550e-4a87-97a3-22883ee278ee","ios":"levelo://app?vid=c4f986f4-550e-4a87-97a3-22883ee278ee"},"vehicle_type_id":"4","last_reported":1778765338,"current_range_meters":6800,"station_id":"ce4bhhh2rcd13ifvqfk0","pricing_plan_id":"cebpf4jnsgd1na2vs0mg"},{"bike_id":"e4bbe857-8f7e-43ae-95d5-01547206757c","system_id":"levelo_inurba_marseille","lat":43.33778,"lon":5.37434,"is_reserved":false,"is_disabled":false,"rental_uris":{"android":"levelo://app?vid=e4bbe857-8f7e-43ae-95d5-01547206757c","ios":"levelo://app?vid=e4bbe857-8f7e-43ae-95d5-01547206757c"},"vehicle_type_id":"4","last_reported":1778765338,"current_range_meters":7200,"station_id":"","pricing_plan_id":"cebpf4jnsgd1na2vs0mg"},{"bike_id":"11bfc38c-9d4c-45ee-b922-1948cd421490","system_id":"levelo_inurba_marseille","lat":43.24754,"lon":5.37495,"is_reserved":false,"is_disabled":false,"rental_uris":{"android":"levelo://app?vid=11bfc38c-9d4c-45ee-b922-1948cd421490","ios":"levelo://app?vid=11bfc38c-9d4c-45ee-b922-1948cd421490"},"vehicle_type_id":"4","last_reported":1778765338,"current_range_meters":7200,"station_id":"","pricing_plan_id":"cebpf4jnsgd1na2vs0mg"},{"bike_id":"def26a8f-90fc-4b28-a71e-1b7814ba59d9","system_id":"levelo_inurba_marseille","lat":43.23889,"lon":5.37455,"is_reserved":false,"is_disabled":false,"rental_uris":{"android":"levelo://app?vid=def26a8f-90fc-4b28-a71e-1b7814ba59d9","ios":"levelo://app?vid=def26a8f-90fc-4b28-a71e-1b7814ba59d9"},"vehicle_type_id":"4","last_reported":1778765338,"current_range_meters":7200,"station_id":"st_d6sm7csbq4hs73f8fpjg","pricing_plan_id":"cebpf4jnsgd1na2vs0mg"},{"bike_id":"af705914-bb9c-47f1-9802-e7ff0d2548f0","system_id":"levelo_inurba_marseille","lat":43.25479,"lon":5.37673,"is_reserved":false,"is_disabled":false,"rental_uris":{"android":"levelo://app?vid=af705914-bb9c-47f1-9802-e7ff0d2548f0","ios":"levelo://app?vid=af705914-bb9c-47f1-9802-e7ff0d2548f0"},"vehicle_type_id":"4","last_reported":1778765338,"current_range_meters":7200,"station_id":"ce4bhh12rcd13ifvqff0","pricing_plan_id":"cebpf4jnsgd1na2vs0mg"},{"bike_id":"cf86c92c-3641-4c56-b4a8-89ebd58517ee","system_id":"levelo_inurba_marseille","lat":43.32085,"lon":5.36756,"is_reserved":false,"is_disabled":false,"rental_uris":{"android":"levelo://app?vid=cf86c92c-3641-4c56-b4a8-89ebd58517ee","ios":"levelo://app?vid=cf86c92c-3641-4c56-b4a8-89ebd58517ee"},"vehicle_type_id":"4","last_reported":1778765338,"current_range_meters":7200,"station_id":"ce4bhrh2rcd13ifvqhug","pricing_plan_id":"cebpf4jnsgd1na2vs0mg"},{"bike_id":"fa5cc865-27c0-4eff-a13a-2198b1912d62","system_id":"levelo_inurba_marseille","lat":43.28211,"lon":5.39059,"is_reserved":false,"is_disabled":false,"rental_uris":{"android":"levelo://app?vid=fa5cc865-27c0-4eff-a13a-2198b1912d62","ios":"levelo://app?vid=fa5cc865-27c0-4eff-a13a-2198b1912d62"},"vehicle_type_id":"4","last_reported":1778765338,"current_range_meters":7200,"station_id":"ce4bhn92rcd13ifvqgsg","pricing_plan_id":"cebpf4jnsgd1na2vs0mg"},{"bike_id":"a8707ece-2fe8-4762-a474-7d91ed2c70fd","system_id":"levelo_inurba_marseille","lat":43.24804,"lon":5.37453,"is_reserved":false,"is_disabled":false,"rental_uris":{"android":"levelo://app?vid=a8707ece-2fe8-4762-a474-7d91ed2c70fd","ios":"levelo://app?vid=a8707ece-2fe8-4762-a474-7d91ed2c70fd"},"vehicle_type_id":"4","last_reported":1778765338,"current_range_meters":7200,"station_id":"ce4bhgh2rcd13ifvqfb0","pricing_plan_id":"cebpf4jnsgd1na2vs0mg"},{"bike_id":"ead892c9-b844-4758-9093-438046339052","system_id":"levelo_inurba_marseille","lat":43.33552,"lon":5.37467,"is_reserved":false,"is_disabled":false,"rental_uris":{"android":"levelo://app?vid=ead892c9-b844-4758-9093-438046339052","ios":"levelo://app?vid=ead892c9-b844-4758-9093-438046339052"},"vehicle_type_id":"4","last_reported":1778765338,"current_range_meters":7200,"station_id":"st_d46tts09ee8s73dlu43g","pricing_plan_id":"cebpf4jnsgd1na2vs0mg"},{"bike_id":"0f39ab81-4ec8-4110-bdec-ad4c73ac1f43","system_id":"levelo_inurba_marseille","lat":43.28513,"lon":5.44022,"is_reserved":false,"is_disabled":false,"rental_uris":{"android":"levelo://app?vid=0f39ab81-4ec8-4110-bdec-ad4c73ac1f43","ios":"levelo://app?vid=0f39ab81-4ec8-4110-bdec-ad4c73ac1f43"},"vehicle_type_id":"4","last_reported":1778765338,"current_range_meters":7200,"station_id":"","pricing_plan_id":"cebpf4jnsgd1na2vs0mg"},{"bike_id":"d1be613e-085b-4259-9861-d62c7bd1b056","system_id":"levelo_inurba_marseille","lat":43.31899,"lon":5.36797,"is_reserved":false,"is_disabled":false,"rental_uris":{"android":"levelo://app?vid=d1be613e-085b-4259-9861-d62c7bd1b056","ios":"levelo://app?vid=d1be613e-085b-4259-9861-d62c7bd1b056"},"vehicle_type_id":"4","last_reported":1778765338,"current_range_meters":7200,"station_id":"st_d6o2h0d0559c73evc1b0","pricing_plan_id":"cebpf4jnsgd1na2vs0mg"},{"bike_id":"b2b4314a-5925-4700-bab3-038d34f53a7d","system_id":"levelo_inurba_marseille","lat":43.28699,"lon":5.46667,"is_reserved":false,"is_disabled":false,"rental_uris":{"android":"levelo://app?vid=b2b4314a-5925-4700-bab3-038d34f53a7d","ios":"levelo://app?vid=b2b4314a-5925-4700-bab3-038d34f53a7d"},"vehicle_type_id":"4","last_reported":1778765338,"current_range_meters":8000,"station_id":"st_d6tc3vkotcvc738tfjhg","pricing_plan_id":"cebpf4jnsgd1na2vs0mg"},{"bike_id":"003baca3-1b51-47a6-bbf5-e479a5ad0ebd","system_id":"levelo_inurba_marseille","lat":43.33532,"lon":5.37469,"is_reserved":false,"is_disabled":false,"rental_uris":{"android":"levelo://app?vid=003baca3-1b51-47a6-bbf5-e479a5ad0ebd","ios":"levelo://app?vid=003baca3-1b51-47a6-bbf5-e479a5ad0ebd"},"vehicle_type_id":"4","last_reported":1778765338,"current_range_meters":8000,"station_id":"st_d46tts09ee8s73dlu43g","pricing_plan_id":"cebpf4jnsgd1na2vs0mg"},{"bike_id":"c3c82a64-b21c-49b8-b7e2-35d28eb274f7","system_id":"levelo_inurba_marseille","lat":43.27067,"lon":5.42299,"is_reserved":false,"is_disabled":false,"rental_uris":{"android":"levelo://app?vid=c3c82a64-b21c-49b8-b7e2-35d28eb274f7","ios":"levelo://app?vid=c3c82a64-b21c-49b8-b7e2-35d28eb274f7"},"vehicle_type_id":"4","last_reported":1778765338,"current_range_meters":8000,"station_id":"ce4bhk92rcd13ifvqgb0","pricing_plan_id":"cebpf4jnsgd1na2vs0mg"},{"bike_id":"d31ce4eb-b304-4b25-b0b2-b3599d20aeb7","system_id":"levelo_inurba_marseille","lat":43.2781,"lon":5.40708,"is_reserved":false,"is_disabled":false,"rental_uris":{"android":"levelo://app?vid=d31ce4eb-b304-4b25-b0b2-b3599d20aeb7","ios":"levelo://app?vid=d31ce4eb-b304-4b25-b0b2-b3599d20aeb7"},"vehicle_type_id":"4","last_reported":1778765338,"current_range_meters":8000,"station_id":"ce4bhnh2rcd13ifvqgtg","pricing_plan_id":"cebpf4jnsgd1na2vs0mg"},{"bike_id":"403abfca-db03-47e4-b8c9-06a6b97b58d4","system_id":"levelo_inurba_marseille","lat":43.33218,"lon":5.43052,"is_reserved":false,"is_disabled":false,"rental_uris":{"android":"levelo://app?vid=403abfca-db03-47e4-b8c9-06a6b97b58d4","ios":"levelo://app?vid=403abfca-db03-47e4-b8c9-06a6b97b58d4"},"vehicle_type_id":"4","last_reported":1778765338,"current_range_meters":8000,"station_id":"","pricing_plan_id":"cebpf4jnsgd1na2vs0mg"},{"bike_id":"1700d583-7597-4737-8882-3cff6f507183","system_id":"levelo_inurba_marseille","lat":43.30663,"lon":5.40086,"is_reserved":false,"is_disabled":false,"rental_uris":{"android":"levelo://app?vid=1700d583-7597-4737-8882-3cff6f507183","ios":"levelo://app?vid=1700d583-7597-4737-8882-3cff6f507183"},"vehicle_type_id":"4","last_reported":1778765338,"current_range_meters":8000,"station_id":"ce4bh112rcd13ifvqda0","pricing_plan_id":"cebpf4jnsgd1na2vs0mg"},{"bike_id":"a805dd41-a9d9-4ba0-b517-cd11edd5e755","system_id":"levelo_inurba_marseille","lat":43.28527,"lon":5.44094,"is_reserved":false,"is_disabled":false,"rental_uris":{"android":"levelo://app?vid=a805dd41-a9d9-4ba0-b517-cd11edd5e755","ios":"levelo://app?vid=a805dd41-a9d9-4ba0-b517-cd11edd5e755"},"vehicle_type_id":"4","last_reported":1778765338,"current_range_meters":8000,"station_id":"st_d3j3df2ikq2c7380ej80","pricing_plan_id":"cebpf4jnsgd1na2vs0mg"},{"bike_id":"cc90a0a8-a1f0-4a30-a8be-482630da4418","system_id":"levelo_inurba_marseille","lat":43.29702,"lon":5.37679,"is_reserved":false,"is_disabled":false,"rental_uris":{"android":"levelo://app?vid=cc90a0a8-a1f0-4a30-a8be-482630da4418","ios":"levelo://app?vid=cc90a0a8-a1f0-4a30-a8be-482630da4418"},"vehicle_type_id":"4","last_reported":1778765338,"current_range_meters":8000,"station_id":"ce4bgkh2rcd13ifvqbl0","pricing_plan_id":"cebpf4jnsgd1na2vs0mg"},{"bike_id":"ef177c26-6847-405e-8041-8dba91c23ec7","system_id":"levelo_inurba_marseille","lat":43.26563,"lon":5.39027,"is_reserved":false,"is_disabled":false,"rental_uris":{"android":"levelo://app?vid=ef177c26-6847-405e-8041-8dba91c23ec7","ios":"levelo://app?vid=ef177c26-6847-405e-8041-8dba91c23ec7"},"vehicle_type_id":"4","last_reported":1778765338,"current_range_meters":8000,"station_id":"ce4bhe12rcd13ifvqf30","pricing_plan_id":"cebpf4jnsgd1na2vs0mg"},{"bike_id":"9062255f-0238-4e6e-b972-b53f3708ba09","system_id":"levelo_inurba_marseille","lat":43.25338,"lon":5.42164,"is_reserved":false,"is_disabled":false,"rental_uris":{"android":"levelo://app?vid=9062255f-0238-4e6e-b972-b53f3708ba09","ios":"levelo://app?vid=9062255f-0238-4e6e-b972-b53f3708ba09"},"vehicle_type_id":"4","last_reported":1778765338,"current_range_meters":8000,"station_id":"st_d2m65c5bi1j21697t3ng","pricing_plan_id":"cebpf4jnsgd1na2vs0mg"},{"bike_id":"3eb17ea7-504c-4154-a442-3f77f9eb2f74","system_id":"levelo_inurba_marseille","lat":43.25496,"lon":5.37635,"is_reserved":false,"is_disabled":false,"rental_uris":{"android":"levelo://app?vid=3eb17ea7-504c-4154-a442-3f77f9eb2f74","ios":"levelo://app?vid=3eb17ea7-504c-4154-a442-3f77f9eb2f74"},"vehicle_type_id":"4","last_reported":1778765338,"current_range_meters":8000,"station_id":"ce4bhh12rcd13ifvqff0","pricing_plan_id":"cebpf4jnsgd1na2vs0mg"},{"bike_id":"c1aea499-d26f-49bf-8367-447ce7aec604","system_id":"levelo_inurba_marseille","lat":43.25339,"lon":5.42175,"is_reserved":false,"is_disabled":false,"rental_uris":{"android":"levelo://app?vid=c1aea499-d26f-49bf-8367-447ce7aec604","ios":"levelo://app?vid=c1aea499-d26f-49bf-8367-447ce7aec604"},"vehicle_type_id":"4","last_reported":1778765338,"current_range_meters":8000,"station_id":"st_d2m65c5bi1j21697t3ng","pricing_plan_id":"cebpf4jnsgd1na2vs0mg"},{"bike_id":"befa7ca9-07da-4b3a-822a-5e23279d9209","system_id":"levelo_inurba_marseille","lat":43.29543,"lon":5.42281,"is_reserved":false,"is_disabled":false,"rental_uris":{"android":"levelo://app?vid=befa7ca9-07da-4b3a-822a-5e23279d9209","ios":"levelo://app?vid=befa7ca9-07da-4b3a-822a-5e23279d9209"},"vehicle_type_id":"4","last_reported":1778765338,"current_range_meters":8000,"station_id":"ce4bhph2rcd13ifvqhdg","pricing_plan_id":"cebpf4jnsgd1na2vs0mg"},{"bike_id":"56f10c3c-5d40-4146-aea1-bd5b16dc8ee8","system_id":"levelo_inurba_marseille","lat":43.33168,"lon":5.40581,"is_reserved":false,"is_disabled":false,"rental_uris":{"android":"levelo://app?vid=56f10c3c-5d40-4146-aea1-bd5b16dc8ee8","ios":"levelo://app?vid=56f10c3c-5d40-4146-aea1-bd5b16dc8ee8"},"vehicle_type_id":"4","last_reported":1778765338,"current_range_meters":8000,"station_id":"","pricing_plan_id":"cebpf4jnsgd1na2vs0mg"},{"bike_id":"fb6a4e03-6a4e-4ff2-aa3f-8e60f26d6bc9","system_id":"levelo_inurba_marseille","lat":43.28846,"lon":5.35859,"is_reserved":false,"is_disabled":false,"rental_uris":{"android":"levelo://app?vid=fb6a4e03-6a4e-4ff2-aa3f-8e60f26d6bc9","ios":"levelo://app?vid=fb6a4e03-6a4e-4ff2-aa3f-8e60f26d6bc9"},"vehicle_type_id":"4","last_reported":1778765338,"current_range_meters":8000,"station_id":"ce4bhb12rcd13ifvqem0","pricing_plan_id":"cebpf4jnsgd1na2vs0mg"},{"bike_id":"8af38655-e65c-465e-83e2-1c3ed295a51f","system_id":"levelo_inurba_marseille","lat":43.24439,"lon":5.42494,"is_reserved":false,"is_disabled":false,"rental_uris":{"android":"levelo://app?vid=8af38655-e65c-465e-83e2-1c3ed295a51f","ios":"levelo://app?vid=8af38655-e65c-465e-83e2-1c3ed295a51f"},"vehicle_type_id":"4","last_reported":1778765338,"current_range_meters":8400,"station_id":"","pricing_plan_id":"cebpf4jnsgd1na2vs0mg"},{"bike_id":"4fda1eba-1f18-4b92-81e6-b18d658c8fe7","system_id":"levelo_inurba_marseille","lat":43.31909,"lon":5.36778,"is_reserved":false,"is_disabled":false,"rental_uris":{"android":"levelo://app?vid=4fda1eba-1f18-4b92-81e6-b18d658c8fe7","ios":"levelo://app?vid=4fda1eba-1f18-4b92-81e6-b18d658c8fe7"},"vehicle_type_id":"4","last_reported":1778765338,"current_range_meters":8400,"station_id":"st_d6o2h0d0559c73evc1b0","pricing_plan_id":"cebpf4jnsgd1na2vs0mg"},{"bike_id":"fc226c98-f322-48a2-8f2c-6caf8724578d","system_id":"levelo_inurba_marseille","lat":43.31105,"lon":5.3777,"is_reserved":false,"is_disabled":false,"rental_uris":{"android":"levelo://app?vid=fc226c98-f322-48a2-8f2c-6caf8724578d","ios":"levelo://app?vid=fc226c98-f322-48a2-8f2c-6caf8724578d"},"vehicle_type_id":"4","last_reported":1778765338,"current_range_meters":8400,"station_id":"ce4bgt92rcd13ifvqcg0","pricing_plan_id":"cebpf4jnsgd1na2vs0mg"},{"bike_id":"45fc671d-af66-4d62-92fc-b06bbfe5d962","system_id":"levelo_inurba_marseille","lat":43.30133,"lon":5.38782,"is_reserved":false,"is_disabled":false,"rental_uris":{"android":"levelo://app?vid=45fc671d-af66-4d62-92fc-b06bbfe5d962","ios":"levelo://app?vid=45fc671d-af66-4d62-92fc-b06bbfe5d962"},"vehicle_type_id":"4","last_reported":1778765338,"current_range_meters":8400,"station_id":"ce4bghh2rcd13ifvqb60","pricing_plan_id":"cebpf4jnsgd1na2vs0mg"},{"bike_id":"97584df1-b6f6-4d5b-a233-f0962dc7cb39","system_id":"levelo_inurba_marseille","lat":43.26033,"lon":5.3755,"is_reserved":false,"is_disabled":false,"rental_uris":{"android":"levelo://app?vid=97584df1-b6f6-4d5b-a233-f0962dc7cb39","ios":"levelo://app?vid=97584df1-b6f6-4d5b-a233-f0962dc7cb39"},"vehicle_type_id":"4","last_reported":1778765338,"current_range_meters":8400,"station_id":"ce4bhgh2rcd13ifvqfa0","pricing_plan_id":"cebpf4jnsgd1na2vs0mg"},{"bike_id":"b1aeb62c-99d7-42de-90eb-0e40a0a34789","system_id":"levelo_inurba_marseille","lat":43.31432,"lon":5.38447,"is_reserved":false,"is_disabled":false,"rental_uris":{"android":"levelo://app?vid=b1aeb62c-99d7-42de-90eb-0e40a0a34789","ios":"levelo://app?vid=b1aeb62c-99d7-42de-90eb-0e40a0a34789"},"vehicle_type_id":"4","last_reported":1778765338,"current_range_meters":8400,"station_id":"","pricing_plan_id":"cebpf4jnsgd1na2vs0mg"},{"bike_id":"f743d918-9f87-4e71-b4e0-88a6e21bcffd","system_id":"levelo_inurba_marseille","lat":43.25496,"lon":5.3764,"is_reserved":false,"is_disabled":false,"rental_uris":{"android":"levelo://app?vid=f743d918-9f87-4e71-b4e0-88a6e21bcffd","ios":"levelo://app?vid=f743d918-9f87-4e71-b4e0-88a6e21bcffd"},"vehicle_type_id":"4","last_reported":1778765338,"current_range_meters":8400,"station_id":"ce4bhh12rcd13ifvqff0","pricing_plan_id":"cebpf4jnsgd1na2vs0mg"},{"bike_id":"f0ae77a3-32eb-4c7c-8efc-fba7b5d64db2","system_id":"levelo_inurba_marseille","lat":43.2783,"lon":5.39201,"is_reserved":false,"is_disabled":false,"rental_uris":{"android":"levelo://app?vid=f0ae77a3-32eb-4c7c-8efc-fba7b5d64db2","ios":"levelo://app?vid=f0ae77a3-32eb-4c7c-8efc-fba7b5d64db2"},"vehicle_type_id":"4","last_reported":1778765338,"current_range_meters":8400,"station_id":"ce4bhjp2rcd13ifvqga0","pricing_plan_id":"cebpf4jnsgd1na2vs0mg"},{"bike_id":"3081e985-5e4f-42ff-ad31-f4a4b05f4795","system_id":"levelo_inurba_marseille","lat":43.273765,"lon":5.362564,"is_reserved":false,"is_disabled":false,"rental_uris":{"android":"levelo://app?vid=3081e985-5e4f-42ff-ad31-f4a4b05f4795","ios":"levelo://app?vid=3081e985-5e4f-42ff-ad31-f4a4b05f4795"},"vehicle_type_id":"4","last_reported":1778765338,"current_range_meters":8400,"station_id":"ce4bhbh2rcd13ifvqeo0","pricing_plan_id":"cebpf4jnsgd1na2vs0mg"},{"bike_id":"b97ca2c9-214e-411d-929b-8472faf4cb9e","system_id":"levelo_inurba_marseille","lat":43.27378,"lon":5.36252,"is_reserved":false,"is_disabled":false,"rental_uris":{"android":"levelo://app?vid=b97ca2c9-214e-411d-929b-8472faf4cb9e","ios":"levelo://app?vid=b97ca2c9-214e-411d-929b-8472faf4cb9e"},"vehicle_type_id":"4","last_reported":1778765338,"current_range_meters":8400,"station_id":"ce4bhbh2rcd13ifvqeo0","pricing_plan_id":"cebpf4jnsgd1na2vs0mg"},{"bike_id":"c5ea873d-7bf1-4928-870a-9df43903991c","system_id":"levelo_inurba_marseille","lat":43.30548,"lon":5.36528,"is_reserved":false,"is_disabled":false,"rental_uris":{"android":"levelo://app?vid=c5ea873d-7bf1-4928-870a-9df43903991c","ios":"levelo://app?vid=c5ea873d-7bf1-4928-870a-9df43903991c"},"vehicle_type_id":"4","last_reported":1778765338,"current_range_meters":8400,"station_id":"ce4bgs12rcd13ifvqcag","pricing_plan_id":"cebpf4jnsgd1na2vs0mg"},{"bike_id":"4eab02ce-d2f9-46e4-831c-81c026ee11fb","system_id":"levelo_inurba_marseille","lat":43.2621,"lon":5.37908,"is_reserved":false,"is_disabled":false,"rental_uris":{"android":"levelo://app?vid=4eab02ce-d2f9-46e4-831c-81c026ee11fb","ios":"levelo://app?vid=4eab02ce-d2f9-46e4-831c-81c026ee11fb"},"vehicle_type_id":"4","last_reported":1778765338,"current_range_meters":8800,"station_id":"ce4bhjp2rcd13ifvqg90","pricing_plan_id":"cebpf4jnsgd1na2vs0mg"},{"bike_id":"5608188d-af23-46a0-ab1a-2bcb89be4f60","system_id":"levelo_inurba_marseille","lat":43.24672,"lon":5.38159,"is_reserved":false,"is_disabled":false,"rental_uris":{"android":"levelo://app?vid=5608188d-af23-46a0-ab1a-2bcb89be4f60","ios":"levelo://app?vid=5608188d-af23-46a0-ab1a-2bcb89be4f60"},"vehicle_type_id":"4","last_reported":1778765338,"current_range_meters":8800,"station_id":"ce4bhih2rcd13ifvqfr0","pricing_plan_id":"cebpf4jnsgd1na2vs0mg"},{"bike_id":"42b104c6-cdef-42d7-ac6a-75ec707879e3","system_id":"levelo_inurba_marseille","lat":43.29367,"lon":5.37845,"is_reserved":false,"is_disabled":false,"rental_uris":{"android":"levelo://app?vid=42b104c6-cdef-42d7-ac6a-75ec707879e3","ios":"levelo://app?vid=42b104c6-cdef-42d7-ac6a-75ec707879e3"},"vehicle_type_id":"4","last_reported":1778765338,"current_range_meters":8800,"station_id":"ce4bgjh2rcd13ifvqbf0","pricing_plan_id":"cebpf4jnsgd1na2vs0mg"},{"bike_id":"be5ec2e3-e51c-450e-b635-2e2a7b9f299b","system_id":"levelo_inurba_marseille","lat":43.24391,"lon":5.37039,"is_reserved":false,"is_disabled":false,"rental_uris":{"android":"levelo://app?vid=be5ec2e3-e51c-450e-b635-2e2a7b9f299b","ios":"levelo://app?vid=be5ec2e3-e51c-450e-b635-2e2a7b9f299b"},"vehicle_type_id":"4","last_reported":1778765338,"current_range_meters":8800,"station_id":"ce4bhhh2rcd13ifvqfk0","pricing_plan_id":"cebpf4jnsgd1na2vs0mg"},{"bike_id":"72a46f85-b2e6-48f9-bf02-c3e6f81a7acb","system_id":"levelo_inurba_marseille","lat":43.26223,"lon":5.37979,"is_reserved":false,"is_disabled":false,"rental_uris":{"android":"levelo://app?vid=72a46f85-b2e6-48f9-bf02-c3e6f81a7acb","ios":"levelo://app?vid=72a46f85-b2e6-48f9-bf02-c3e6f81a7acb"},"vehicle_type_id":"4","last_reported":1778765338,"current_range_meters":8800,"station_id":"ce4bhjp2rcd13ifvqg90","pricing_plan_id":"cebpf4jnsgd1na2vs0mg"},{"bike_id":"975defbf-c33f-4bba-8ed9-2f5f7058411e","system_id":"levelo_inurba_marseille","lat":43.21746,"lon":5.34612,"is_reserved":false,"is_disabled":false,"rental_uris":{"android":"levelo://app?vid=975defbf-c33f-4bba-8ed9-2f5f7058411e","ios":"levelo://app?vid=975defbf-c33f-4bba-8ed9-2f5f7058411e"},"vehicle_type_id":"4","last_reported":1778765338,"current_range_meters":8800,"station_id":"st_cvj6r9ubvosntc0bgbag","pricing_plan_id":"cebpf4jnsgd1na2vs0mg"},{"bike_id":"3b40133b-d576-45cb-9184-9745dbafe64b","system_id":"levelo_inurba_marseille","lat":43.29964,"lon":5.41315,"is_reserved":false,"is_disabled":false,"rental_uris":{"android":"levelo://app?vid=3b40133b-d576-45cb-9184-9745dbafe64b","ios":"levelo://app?vid=3b40133b-d576-45cb-9184-9745dbafe64b"},"vehicle_type_id":"4","last_reported":1778765338,"current_range_meters":8800,"station_id":"ce4bhp12rcd13ifvqh9g","pricing_plan_id":"cebpf4jnsgd1na2vs0mg"},{"bike_id":"bdc1e4a6-6881-445e-add5-bdbe16bdea85","system_id":"levelo_inurba_marseille","lat":43.30543,"lon":5.3652,"is_reserved":false,"is_disabled":false,"rental_uris":{"android":"levelo://app?vid=bdc1e4a6-6881-445e-add5-bdbe16bdea85","ios":"levelo://app?vid=bdc1e4a6-6881-445e-add5-bdbe16bdea85"},"vehicle_type_id":"4","last_reported":1778765338,"current_range_meters":8800,"station_id":"ce4bgs12rcd13ifvqcag","pricing_plan_id":"cebpf4jnsgd1na2vs0mg"},{"bike_id":"14ca5927-a52c-4674-8786-4b2a04005b2e","system_id":"levelo_inurba_marseille","lat":43.31064,"lon":5.37176,"is_reserved":false,"is_disabled":false,"rental_uris":{"android":"levelo://app?vid=14ca5927-a52c-4674-8786-4b2a04005b2e","ios":"levelo://app?vid=14ca5927-a52c-4674-8786-4b2a04005b2e"},"vehicle_type_id":"4","last_reported":1778765338,"current_range_meters":8800,"station_id":"st_d4kl2rp97mjs73e7tdfg","pricing_plan_id":"cebpf4jnsgd1na2vs0mg"},{"bike_id":"837e78eb-9ab7-4e71-903d-71a3df3b23dc","system_id":"levelo_inurba_marseille","lat":43.28634,"lon":5.35095,"is_reserved":false,"is_disabled":false,"rental_uris":{"android":"levelo://app?vid=837e78eb-9ab7-4e71-903d-71a3df3b23dc","ios":"levelo://app?vid=837e78eb-9ab7-4e71-903d-71a3df3b23dc"},"vehicle_type_id":"4","last_reported":1778765338,"current_range_meters":8800,"station_id":"ce4bhch2rcd13ifvqeug","pricing_plan_id":"cebpf4jnsgd1na2vs0mg"},{"bike_id":"f0fddcf7-5d98-4d8a-9bda-e27dac14a45c","system_id":"levelo_inurba_marseille","lat":43.33529,"lon":5.37469,"is_reserved":false,"is_disabled":false,"rental_uris":{"android":"levelo://app?vid=f0fddcf7-5d98-4d8a-9bda-e27dac14a45c","ios":"levelo://app?vid=f0fddcf7-5d98-4d8a-9bda-e27dac14a45c"},"vehicle_type_id":"4","last_reported":1778765338,"current_range_meters":8800,"station_id":"st_d46tts09ee8s73dlu43g","pricing_plan_id":"cebpf4jnsgd1na2vs0mg"},{"bike_id":"af951ea6-3a51-4c6a-8a16-0eb6c5f76507","system_id":"levelo_inurba_marseille","lat":43.299397,"lon":5.372585,"is_reserved":false,"is_disabled":false,"rental_uris":{"android":"levelo://app?vid=af951ea6-3a51-4c6a-8a16-0eb6c5f76507","ios":"levelo://app?vid=af951ea6-3a51-4c6a-8a16-0eb6c5f76507"},"vehicle_type_id":"4","last_reported":1778765338,"current_range_meters":8800,"station_id":"ce4bgs12rcd13ifvqcag","pricing_plan_id":"cebpf4jnsgd1na2vs0mg"},{"bike_id":"2dd48690-785d-48bf-8d91-f843e0a3a657","system_id":"levelo_inurba_marseille","lat":43.2873,"lon":5.3793,"is_reserved":false,"is_disabled":false,"rental_uris":{"android":"levelo://app?vid=2dd48690-785d-48bf-8d91-f843e0a3a657","ios":"levelo://app?vid=2dd48690-785d-48bf-8d91-f843e0a3a657"},"vehicle_type_id":"4","last_reported":1778765338,"current_range_meters":8800,"station_id":"ce4bh9p2rcd13ifvqec0","pricing_plan_id":"cebpf4jnsgd1na2vs0mg"},{"bike_id":"5e360434-c987-4796-baac-a41f6d54bfe8","system_id":"levelo_inurba_marseille","lat":43.25074,"lon":5.41215,"is_reserved":false,"is_disabled":false,"rental_uris":{"android":"levelo://app?vid=5e360434-c987-4796-baac-a41f6d54bfe8","ios":"levelo://app?vid=5e360434-c987-4796-baac-a41f6d54bfe8"},"vehicle_type_id":"4","last_reported":1778765338,"current_range_meters":8800,"station_id":"","pricing_plan_id":"cebpf4jnsgd1na2vs0mg"},{"bike_id":"6318b636-64e5-422c-9895-90fa83a362b4","system_id":"levelo_inurba_marseille","lat":43.26553,"lon":5.37307,"is_reserved":false,"is_disabled":false,"rental_uris":{"android":"levelo://app?vid=6318b636-64e5-422c-9895-90fa83a362b4","ios":"levelo://app?vid=6318b636-64e5-422c-9895-90fa83a362b4"},"vehicle_type_id":"4","last_reported":1778765338,"current_range_meters":8800,"station_id":"ce4bhg12rcd13ifvqf70","pricing_plan_id":"cebpf4jnsgd1na2vs0mg"},{"bike_id":"07f256de-b05d-4562-aae9-3b482e118493","system_id":"levelo_inurba_marseille","lat":43.30576,"lon":5.37228,"is_reserved":false,"is_disabled":false,"rental_uris":{"android":"levelo://app?vid=07f256de-b05d-4562-aae9-3b482e118493","ios":"levelo://app?vid=07f256de-b05d-4562-aae9-3b482e118493"},"vehicle_type_id":"4","last_reported":1778765338,"current_range_meters":8800,"station_id":"ce4bgqh2rcd13ifvqc4g","pricing_plan_id":"cebpf4jnsgd1na2vs0mg"},{"bike_id":"6171fa24-5cbb-4dd4-8a11-21768112000d","system_id":"levelo_inurba_marseille","lat":43.28526,"lon":5.44099,"is_reserved":false,"is_disabled":false,"rental_uris":{"android":"levelo://app?vid=6171fa24-5cbb-4dd4-8a11-21768112000d","ios":"levelo://app?vid=6171fa24-5cbb-4dd4-8a11-21768112000d"},"vehicle_type_id":"4","last_reported":1778765338,"current_range_meters":8800,"station_id":"st_d3j3df2ikq2c7380ej80","pricing_plan_id":"cebpf4jnsgd1na2vs0mg"},{"bike_id":"0ecc821e-4ef1-4d08-af8f-a8bc16728a72","system_id":"levelo_inurba_marseille","lat":43.29587,"lon":5.38112,"is_reserved":false,"is_disabled":false,"rental_uris":{"android":"levelo://app?vid=0ecc821e-4ef1-4d08-af8f-a8bc16728a72","ios":"levelo://app?vid=0ecc821e-4ef1-4d08-af8f-a8bc16728a72"},"vehicle_type_id":"4","last_reported":1778765338,"current_range_meters":8800,"station_id":"ce4bgl12rcd13ifvqbo0","pricing_plan_id":"cebpf4jnsgd1na2vs0mg"},{"bike_id":"587a7f7e-5e69-4c24-b732-584e124682b7","system_id":"levelo_inurba_marseille","lat":43.27332,"lon":5.39074,"is_reserved":false,"is_disabled":false,"rental_uris":{"android":"levelo://app?vid=587a7f7e-5e69-4c24-b732-584e124682b7","ios":"levelo://app?vid=587a7f7e-5e69-4c24-b732-584e124682b7"},"vehicle_type_id":"4","last_reported":1778765338,"current_range_meters":8800,"station_id":"ce4bhgp2rcd13ifvqfe0","pricing_plan_id":"cebpf4jnsgd1na2vs0mg"},{"bike_id":"fd926cd8-f3e7-4ea0-9811-e5d39a863ccd","system_id":"levelo_inurba_marseille","lat":43.29038,"lon":5.39957,"is_reserved":false,"is_disabled":true,"rental_uris":{"android":"levelo://app?vid=fd926cd8-f3e7-4ea0-9811-e5d39a863ccd","ios":"levelo://app?vid=fd926cd8-f3e7-4ea0-9811-e5d39a863ccd"},"vehicle_type_id":"4","last_reported":1778765338,"current_range_meters":8800,"station_id":"ce4bh392rcd13ifvqdm0","pricing_plan_id":"cebpf4jnsgd1na2vs0mg"},{"bike_id":"8f23e5b2-03f6-44ad-82fd-6b7bf4c1d448","system_id":"levelo_inurba_marseille","lat":43.30546,"lon":5.36539,"is_reserved":false,"is_disabled":false,"rental_uris":{"android":"levelo://app?vid=8f23e5b2-03f6-44ad-82fd-6b7bf4c1d448","ios":"levelo://app?vid=8f23e5b2-03f6-44ad-82fd-6b7bf4c1d448"},"vehicle_type_id":"4","last_reported":1778765338,"current_range_meters":8800,"station_id":"ce4bgs12rcd13ifvqcag","pricing_plan_id":"cebpf4jnsgd1na2vs0mg"},{"bike_id":"19a1b87f-2a01-464a-b4e7-0762c73407fe","system_id":"levelo_inurba_marseille","lat":43.25562,"lon":5.38239,"is_reserved":false,"is_disabled":false,"rental_uris":{"android":"levelo://app?vid=19a1b87f-2a01-464a-b4e7-0762c73407fe","ios":"levelo://app?vid=19a1b87f-2a01-464a-b4e7-0762c73407fe"},"vehicle_type_id":"4","last_reported":1778765338,"current_range_meters":8800,"station_id":"ce4bhih2rcd13ifvqfs0","pricing_plan_id":"cebpf4jnsgd1na2vs0mg"},{"bike_id":"a749aa3e-52e5-43f2-aef2-449bb7bb45e8","system_id":"levelo_inurba_marseille","lat":43.3123,"lon":5.38477,"is_reserved":false,"is_disabled":false,"rental_uris":{"android":"levelo://app?vid=a749aa3e-52e5-43f2-aef2-449bb7bb45e8","ios":"levelo://app?vid=a749aa3e-52e5-43f2-aef2-449bb7bb45e8"},"vehicle_type_id":"4","last_reported":1778765338,"current_range_meters":9200,"station_id":"","pricing_plan_id":"cebpf4jnsgd1na2vs0mg"},{"bike_id":"bad213e1-775c-4526-9199-e07ee68bfd65","system_id":"levelo_inurba_marseille","lat":43.29227,"lon":5.3599,"is_reserved":false,"is_disabled":false,"rental_uris":{"android":"levelo://app?vid=bad213e1-775c-4526-9199-e07ee68bfd65","ios":"levelo://app?vid=bad213e1-775c-4526-9199-e07ee68bfd65"},"vehicle_type_id":"4","last_reported":1778765338,"current_range_meters":9200,"station_id":"","pricing_plan_id":"cebpf4jnsgd1na2vs0mg"},{"bike_id":"199aff18-7bf3-4b5f-a786-739bc9a3c6ac","system_id":"levelo_inurba_marseille","lat":43.26233,"lon":5.38762,"is_reserved":false,"is_disabled":false,"rental_uris":{"android":"levelo://app?vid=199aff18-7bf3-4b5f-a786-739bc9a3c6ac","ios":"levelo://app?vid=199aff18-7bf3-4b5f-a786-739bc9a3c6ac"},"vehicle_type_id":"4","last_reported":1778765338,"current_range_meters":9200,"station_id":"","pricing_plan_id":"cebpf4jnsgd1na2vs0mg"},{"bike_id":"076819da-e7fb-404f-a858-6f07790a6a56","system_id":"levelo_inurba_marseille","lat":43.28233,"lon":5.39047,"is_reserved":false,"is_disabled":false,"rental_uris":{"android":"levelo://app?vid=076819da-e7fb-404f-a858-6f07790a6a56","ios":"levelo://app?vid=076819da-e7fb-404f-a858-6f07790a6a56"},"vehicle_type_id":"4","last_reported":1778765338,"current_range_meters":9200,"station_id":"ce4bhn92rcd13ifvqgsg","pricing_plan_id":"cebpf4jnsgd1na2vs0mg"},{"bike_id":"d86c26ec-19b0-4841-aa33-4d3fd2149d72","system_id":"levelo_inurba_marseille","lat":43.2389,"lon":5.37455,"is_reserved":false,"is_disabled":false,"rental_uris":{"android":"levelo://app?vid=d86c26ec-19b0-4841-aa33-4d3fd2149d72","ios":"levelo://app?vid=d86c26ec-19b0-4841-aa33-4d3fd2149d72"},"vehicle_type_id":"4","last_reported":1778765338,"current_range_meters":9200,"station_id":"st_d6sm7csbq4hs73f8fpjg","pricing_plan_id":"cebpf4jnsgd1na2vs0mg"},{"bike_id":"b35b42df-1e5c-4e3c-be7f-d5351e008fb3","system_id":"levelo_inurba_marseille","lat":43.33552,"lon":5.3748,"is_reserved":false,"is_disabled":false,"rental_uris":{"android":"levelo://app?vid=b35b42df-1e5c-4e3c-be7f-d5351e008fb3","ios":"levelo://app?vid=b35b42df-1e5c-4e3c-be7f-d5351e008fb3"},"vehicle_type_id":"4","last_reported":1778765338,"current_range_meters":9200,"station_id":"st_d46tts09ee8s73dlu43g","pricing_plan_id":"cebpf4jnsgd1na2vs0mg"},{"bike_id":"a8b55d6f-977b-4cfa-a9dc-bbb3b59e05ad","system_id":"levelo_inurba_marseille","lat":43.27928,"lon":5.38466,"is_reserved":false,"is_disabled":false,"rental_uris":{"android":"levelo://app?vid=a8b55d6f-977b-4cfa-a9dc-bbb3b59e05ad","ios":"levelo://app?vid=a8b55d6f-977b-4cfa-a9dc-bbb3b59e05ad"},"vehicle_type_id":"4","last_reported":1778765338,"current_range_meters":9200,"station_id":"","pricing_plan_id":"cebpf4jnsgd1na2vs0mg"},{"bike_id":"154e9cf2-051e-4191-96e2-3138333b79f8","system_id":"levelo_inurba_marseille","lat":43.29727,"lon":5.37721,"is_reserved":false,"is_disabled":false,"rental_uris":{"android":"levelo://app?vid=154e9cf2-051e-4191-96e2-3138333b79f8","ios":"levelo://app?vid=154e9cf2-051e-4191-96e2-3138333b79f8"},"vehicle_type_id":"4","last_reported":1778765338,"current_range_meters":9200,"station_id":"ce4bgkh2rcd13ifvqbl0","pricing_plan_id":"cebpf4jnsgd1na2vs0mg"},{"bike_id":"1daf7321-7267-490f-b510-d317a2d79da3","system_id":"levelo_inurba_marseille","lat":43.31276,"lon":5.37858,"is_reserved":false,"is_disabled":false,"rental_uris":{"android":"levelo://app?vid=1daf7321-7267-490f-b510-d317a2d79da3","ios":"levelo://app?vid=1daf7321-7267-490f-b510-d317a2d79da3"},"vehicle_type_id":"4","last_reported":1778765338,"current_range_meters":9200,"station_id":"","pricing_plan_id":"cebpf4jnsgd1na2vs0mg"},{"bike_id":"4b116638-67d5-4baf-a145-594506b96acb","system_id":"levelo_inurba_marseille","lat":43.28698,"lon":5.46722,"is_reserved":false,"is_disabled":false,"rental_uris":{"android":"levelo://app?vid=4b116638-67d5-4baf-a145-594506b96acb","ios":"levelo://app?vid=4b116638-67d5-4baf-a145-594506b96acb"},"vehicle_type_id":"4","last_reported":1778765338,"current_range_meters":9200,"station_id":"st_d6tc3vkotcvc738tfjhg","pricing_plan_id":"cebpf4jnsgd1na2vs0mg"},{"bike_id":"28e5fac9-f071-4ec3-b1de-c7818dab9421","system_id":"levelo_inurba_marseille","lat":43.23188,"lon":5.35554,"is_reserved":false,"is_disabled":false,"rental_uris":{"android":"levelo://app?vid=28e5fac9-f071-4ec3-b1de-c7818dab9421","ios":"levelo://app?vid=28e5fac9-f071-4ec3-b1de-c7818dab9421"},"vehicle_type_id":"4","last_reported":1778765338,"current_range_meters":9200,"station_id":"ce4bhu92rcd13ifvqi70","pricing_plan_id":"cebpf4jnsgd1na2vs0mg"},{"bike_id":"a00133a5-f21f-44f1-8b2d-35a149c82750","system_id":"levelo_inurba_marseille","lat":43.28726,"lon":5.36094,"is_reserved":false,"is_disabled":false,"rental_uris":{"android":"levelo://app?vid=a00133a5-f21f-44f1-8b2d-35a149c82750","ios":"levelo://app?vid=a00133a5-f21f-44f1-8b2d-35a149c82750"},"vehicle_type_id":"4","last_reported":1778765338,"current_range_meters":9200,"station_id":"cki0cbj6b192h4jlfktg","pricing_plan_id":"cebpf4jnsgd1na2vs0mg"},{"bike_id":"d2378736-faa6-4b3d-b520-c3399b756631","system_id":"levelo_inurba_marseille","lat":43.28855,"lon":5.42518,"is_reserved":false,"is_disabled":false,"rental_uris":{"android":"levelo://app?vid=d2378736-faa6-4b3d-b520-c3399b756631","ios":"levelo://app?vid=d2378736-faa6-4b3d-b520-c3399b756631"},"vehicle_type_id":"4","last_reported":1778765338,"current_range_meters":9200,"station_id":"st_d3b462108ojc7389ooeg","pricing_plan_id":"cebpf4jnsgd1na2vs0mg"},{"bike_id":"111390c2-b711-460b-8437-bd49adb3615f","system_id":"levelo_inurba_marseille","lat":43.26644,"lon":5.39034,"is_reserved":false,"is_disabled":false,"rental_uris":{"android":"levelo://app?vid=111390c2-b711-460b-8437-bd49adb3615f","ios":"levelo://app?vid=111390c2-b711-460b-8437-bd49adb3615f"},"vehicle_type_id":"4","last_reported":1778765338,"current_range_meters":9200,"station_id":"ce4bhe12rcd13ifvqf30","pricing_plan_id":"cebpf4jnsgd1na2vs0mg"},{"bike_id":"ca3ff5ba-beb0-4730-ae3b-017407a047db","system_id":"levelo_inurba_marseille","lat":43.26356,"lon":5.40291,"is_reserved":false,"is_disabled":false,"rental_uris":{"android":"levelo://app?vid=ca3ff5ba-beb0-4730-ae3b-017407a047db","ios":"levelo://app?vid=ca3ff5ba-beb0-4730-ae3b-017407a047db"},"vehicle_type_id":"4","last_reported":1778765338,"current_range_meters":9200,"station_id":"","pricing_plan_id":"cebpf4jnsgd1na2vs0mg"},{"bike_id":"a3284f6e-6540-4c55-99cc-b6b2cd3c1aca","system_id":"levelo_inurba_marseille","lat":43.30674,"lon":5.40105,"is_reserved":false,"is_disabled":false,"rental_uris":{"android":"levelo://app?vid=a3284f6e-6540-4c55-99cc-b6b2cd3c1aca","ios":"levelo://app?vid=a3284f6e-6540-4c55-99cc-b6b2cd3c1aca"},"vehicle_type_id":"4","last_reported":1778765338,"current_range_meters":9200,"station_id":"ce4bh112rcd13ifvqda0","pricing_plan_id":"cebpf4jnsgd1na2vs0mg"},{"bike_id":"ea2ed631-02e6-4f01-8ae6-bc79ee553a34","system_id":"levelo_inurba_marseille","lat":43.30535,"lon":5.36518,"is_reserved":false,"is_disabled":false,"rental_uris":{"android":"levelo://app?vid=ea2ed631-02e6-4f01-8ae6-bc79ee553a34","ios":"levelo://app?vid=ea2ed631-02e6-4f01-8ae6-bc79ee553a34"},"vehicle_type_id":"4","last_reported":1778765338,"current_range_meters":9200,"station_id":"ce4bgs12rcd13ifvqcag","pricing_plan_id":"cebpf4jnsgd1na2vs0mg"},{"bike_id":"0b1b0365-0039-4c25-b460-2cd8a5710033","system_id":"levelo_inurba_marseille","lat":43.273652,"lon":5.362382,"is_reserved":false,"is_disabled":false,"rental_uris":{"android":"levelo://app?vid=0b1b0365-0039-4c25-b460-2cd8a5710033","ios":"levelo://app?vid=0b1b0365-0039-4c25-b460-2cd8a5710033"},"vehicle_type_id":"4","last_reported":1778765338,"current_range_meters":9600,"station_id":"ce4bhbh2rcd13ifvqeo0","pricing_plan_id":"cebpf4jnsgd1na2vs0mg"},{"bike_id":"317d7361-3272-42f8-ad14-39e8853ba125","system_id":"levelo_inurba_marseille","lat":43.21736,"lon":5.34595,"is_reserved":false,"is_disabled":false,"rental_uris":{"android":"levelo://app?vid=317d7361-3272-42f8-ad14-39e8853ba125","ios":"levelo://app?vid=317d7361-3272-42f8-ad14-39e8853ba125"},"vehicle_type_id":"4","last_reported":1778765338,"current_range_meters":9600,"station_id":"st_cvj6r9ubvosntc0bgbag","pricing_plan_id":"cebpf4jnsgd1na2vs0mg"},{"bike_id":"eed83926-218f-47d0-a137-7d355bdd60d3","system_id":"levelo_inurba_marseille","lat":43.2962,"lon":5.37732,"is_reserved":false,"is_disabled":false,"rental_uris":{"android":"levelo://app?vid=eed83926-218f-47d0-a137-7d355bdd60d3","ios":"levelo://app?vid=eed83926-218f-47d0-a137-7d355bdd60d3"},"vehicle_type_id":"4","last_reported":1778765338,"current_range_meters":9600,"station_id":"ce4bgi92rcd13ifvqb90","pricing_plan_id":"cebpf4jnsgd1na2vs0mg"},{"bike_id":"277c106d-5962-4ac5-8f17-fa3c0a1eecdc","system_id":"levelo_inurba_marseille","lat":43.22561,"lon":5.41636,"is_reserved":false,"is_disabled":false,"rental_uris":{"android":"levelo://app?vid=277c106d-5962-4ac5-8f17-fa3c0a1eecdc","ios":"levelo://app?vid=277c106d-5962-4ac5-8f17-fa3c0a1eecdc"},"vehicle_type_id":"4","last_reported":1778765338,"current_range_meters":9600,"station_id":"st_d2o4gvlbi1j2169b742g","pricing_plan_id":"cebpf4jnsgd1na2vs0mg"},{"bike_id":"1dff7f60-c48e-4ff4-87df-6bc7f11bee78","system_id":"levelo_inurba_marseille","lat":43.31042,"lon":5.37177,"is_reserved":false,"is_disabled":false,"rental_uris":{"android":"levelo://app?vid=1dff7f60-c48e-4ff4-87df-6bc7f11bee78","ios":"levelo://app?vid=1dff7f60-c48e-4ff4-87df-6bc7f11bee78"},"vehicle_type_id":"4","last_reported":1778765338,"current_range_meters":9600,"station_id":"st_d4kl2rp97mjs73e7tdfg","pricing_plan_id":"cebpf4jnsgd1na2vs0mg"},{"bike_id":"27e65b6e-d97c-46e4-a04d-93012a20ed6a","system_id":"levelo_inurba_marseille","lat":43.32102,"lon":5.368,"is_reserved":false,"is_disabled":false,"rental_uris":{"android":"levelo://app?vid=27e65b6e-d97c-46e4-a04d-93012a20ed6a","ios":"levelo://app?vid=27e65b6e-d97c-46e4-a04d-93012a20ed6a"},"vehicle_type_id":"4","last_reported":1778765338,"current_range_meters":9600,"station_id":"ce4bhrh2rcd13ifvqhug","pricing_plan_id":"cebpf4jnsgd1na2vs0mg"},{"bike_id":"b9e56bc3-4066-4f17-b1ed-550ba71ef18e","system_id":"levelo_inurba_marseille","lat":43.23788,"lon":5.41449,"is_reserved":false,"is_disabled":false,"rental_uris":{"android":"levelo://app?vid=b9e56bc3-4066-4f17-b1ed-550ba71ef18e","ios":"levelo://app?vid=b9e56bc3-4066-4f17-b1ed-550ba71ef18e"},"vehicle_type_id":"4","last_reported":1778765338,"current_range_meters":9600,"station_id":"","pricing_plan_id":"cebpf4jnsgd1na2vs0mg"},{"bike_id":"3707821e-a7ff-4c9b-aa14-e7c6f991f3cd","system_id":"levelo_inurba_marseille","lat":43.29005,"lon":5.35637,"is_reserved":false,"is_disabled":false,"rental_uris":{"android":"levelo://app?vid=3707821e-a7ff-4c9b-aa14-e7c6f991f3cd","ios":"levelo://app?vid=3707821e-a7ff-4c9b-aa14-e7c6f991f3cd"},"vehicle_type_id":"4","last_reported":1778765338,"current_range_meters":10000,"station_id":"ce4bhb92rcd13ifvqen0","pricing_plan_id":"cebpf4jnsgd1na2vs0mg"},{"bike_id":"9e14cf93-c2da-4ff6-a5dd-4b49777a18a0","system_id":"levelo_inurba_marseille","lat":43.24791,"lon":5.37448,"is_reserved":false,"is_disabled":false,"rental_uris":{"android":"levelo://app?vid=9e14cf93-c2da-4ff6-a5dd-4b49777a18a0","ios":"levelo://app?vid=9e14cf93-c2da-4ff6-a5dd-4b49777a18a0"},"vehicle_type_id":"4","last_reported":1778765338,"current_range_meters":10000,"station_id":"ce4bhgh2rcd13ifvqfb0","pricing_plan_id":"cebpf4jnsgd1na2vs0mg"},{"bike_id":"d51b486f-dc45-49e6-9b45-be0e6027c9dd","system_id":"levelo_inurba_marseille","lat":43.30083,"lon":5.39835,"is_reserved":false,"is_disabled":false,"rental_uris":{"android":"levelo://app?vid=d51b486f-dc45-49e6-9b45-be0e6027c9dd","ios":"levelo://app?vid=d51b486f-dc45-49e6-9b45-be0e6027c9dd"},"vehicle_type_id":"4","last_reported":1778765338,"current_range_meters":10000,"station_id":"ce4bh0h2rcd13ifvqd40","pricing_plan_id":"cebpf4jnsgd1na2vs0mg"},{"bike_id":"998f9cd8-99f2-4c73-91b0-204efe2ea1dc","system_id":"levelo_inurba_marseille","lat":43.23776,"lon":5.36649,"is_reserved":false,"is_disabled":false,"rental_uris":{"android":"levelo://app?vid=998f9cd8-99f2-4c73-91b0-204efe2ea1dc","ios":"levelo://app?vid=998f9cd8-99f2-4c73-91b0-204efe2ea1dc"},"vehicle_type_id":"4","last_reported":1778765338,"current_range_meters":10000,"station_id":"st_d3nk18o9ro0c73en2l3g","pricing_plan_id":"cebpf4jnsgd1na2vs0mg"},{"bike_id":"e887a819-5d07-47bc-a986-00aa2f5b7977","system_id":"levelo_inurba_marseille","lat":43.2417,"lon":5.39726,"is_reserved":false,"is_disabled":false,"rental_uris":{"android":"levelo://app?vid=e887a819-5d07-47bc-a986-00aa2f5b7977","ios":"levelo://app?vid=e887a819-5d07-47bc-a986-00aa2f5b7977"},"vehicle_type_id":"4","last_reported":1778765338,"current_range_meters":10000,"station_id":"ce4bhn12rcd13ifvqgpg","pricing_plan_id":"cebpf4jnsgd1na2vs0mg"},{"bike_id":"06d5e8c0-a376-440b-b633-30ca1ebd3fba","system_id":"levelo_inurba_marseille","lat":43.30164,"lon":5.3809,"is_reserved":false,"is_disabled":false,"rental_uris":{"android":"levelo://app?vid=06d5e8c0-a376-440b-b633-30ca1ebd3fba","ios":"levelo://app?vid=06d5e8c0-a376-440b-b633-30ca1ebd3fba"},"vehicle_type_id":"4","last_reported":1778765338,"current_range_meters":10000,"station_id":"ce4bgjp2rcd13ifvqbh0","pricing_plan_id":"cebpf4jnsgd1na2vs0mg"},{"bike_id":"cd382ef6-e165-4c5a-9266-61b6eb8de4e7","system_id":"levelo_inurba_marseille","lat":43.26539,"lon":5.37323,"is_reserved":false,"is_disabled":false,"rental_uris":{"android":"levelo://app?vid=cd382ef6-e165-4c5a-9266-61b6eb8de4e7","ios":"levelo://app?vid=cd382ef6-e165-4c5a-9266-61b6eb8de4e7"},"vehicle_type_id":"4","last_reported":1778765338,"current_range_meters":10000,"station_id":"ce4bhg12rcd13ifvqf70","pricing_plan_id":"cebpf4jnsgd1na2vs0mg"},{"bike_id":"9343bbed-8be2-45cf-b387-98513a666d0b","system_id":"levelo_inurba_marseille","lat":43.279404,"lon":5.41072,"is_reserved":false,"is_disabled":false,"rental_uris":{"android":"levelo://app?vid=9343bbed-8be2-45cf-b387-98513a666d0b","ios":"levelo://app?vid=9343bbed-8be2-45cf-b387-98513a666d0b"},"vehicle_type_id":"4","last_reported":1778765338,"current_range_meters":10000,"station_id":"ce4bhnp2rcd13ifvqh0g","pricing_plan_id":"cebpf4jnsgd1na2vs0mg"},{"bike_id":"3e4ee8b2-547a-42b3-bcb3-00ed055ab339","system_id":"levelo_inurba_marseille","lat":43.24659,"lon":5.41603,"is_reserved":false,"is_disabled":false,"rental_uris":{"android":"levelo://app?vid=3e4ee8b2-547a-42b3-bcb3-00ed055ab339","ios":"levelo://app?vid=3e4ee8b2-547a-42b3-bcb3-00ed055ab339"},"vehicle_type_id":"4","last_reported":1778765338,"current_range_meters":10000,"station_id":"","pricing_plan_id":"cebpf4jnsgd1na2vs0mg"},{"bike_id":"86721fe5-4ffc-4092-83e9-8247e7f0460c","system_id":"levelo_inurba_marseille","lat":43.24993,"lon":5.38951,"is_reserved":false,"is_disabled":false,"rental_uris":{"android":"levelo://app?vid=86721fe5-4ffc-4092-83e9-8247e7f0460c","ios":"levelo://app?vid=86721fe5-4ffc-4092-83e9-8247e7f0460c"},"vehicle_type_id":"4","last_reported":1778765338,"current_range_meters":10000,"station_id":"ce4bhgp2rcd13ifvqfd0","pricing_plan_id":"cebpf4jnsgd1na2vs0mg"},{"bike_id":"7d8d0e26-eb0f-4158-94da-fe761f77960b","system_id":"levelo_inurba_marseille","lat":43.2892,"lon":5.36241,"is_reserved":false,"is_disabled":false,"rental_uris":{"android":"levelo://app?vid=7d8d0e26-eb0f-4158-94da-fe761f77960b","ios":"levelo://app?vid=7d8d0e26-eb0f-4158-94da-fe761f77960b"},"vehicle_type_id":"4","last_reported":1778765338,"current_range_meters":10000,"station_id":"ce4bhc92rcd13ifvqetg","pricing_plan_id":"cebpf4jnsgd1na2vs0mg"},{"bike_id":"5ca83ce5-615f-4f87-8626-f2e3cfb56bfc","system_id":"levelo_inurba_marseille","lat":43.25094,"lon":5.39518,"is_reserved":false,"is_disabled":false,"rental_uris":{"android":"levelo://app?vid=5ca83ce5-615f-4f87-8626-f2e3cfb56bfc","ios":"levelo://app?vid=5ca83ce5-615f-4f87-8626-f2e3cfb56bfc"},"vehicle_type_id":"4","last_reported":1778765338,"current_range_meters":10000,"station_id":"ce4bhm12rcd13ifvqgkg","pricing_plan_id":"cebpf4jnsgd1na2vs0mg"},{"bike_id":"8bf69dd9-9ed2-4e1b-b1c2-6b0db83939ea","system_id":"levelo_inurba_marseille","lat":43.31325,"lon":5.39695,"is_reserved":false,"is_disabled":false,"rental_uris":{"android":"levelo://app?vid=8bf69dd9-9ed2-4e1b-b1c2-6b0db83939ea","ios":"levelo://app?vid=8bf69dd9-9ed2-4e1b-b1c2-6b0db83939ea"},"vehicle_type_id":"4","last_reported":1778765338,"current_range_meters":10000,"station_id":"ce4bgvp2rcd13ifvqcu0","pricing_plan_id":"cebpf4jnsgd1na2vs0mg"},{"bike_id":"b55559a4-44e2-4ad1-8f62-240ee8d1d7fc","system_id":"levelo_inurba_marseille","lat":43.26218,"lon":5.37447,"is_reserved":false,"is_disabled":false,"rental_uris":{"android":"levelo://app?vid=b55559a4-44e2-4ad1-8f62-240ee8d1d7fc","ios":"levelo://app?vid=b55559a4-44e2-4ad1-8f62-240ee8d1d7fc"},"vehicle_type_id":"4","last_reported":1778765338,"current_range_meters":10000,"station_id":"ce4bhgp2rcd13ifvqfc0","pricing_plan_id":"cebpf4jnsgd1na2vs0mg"},{"bike_id":"3e030add-b719-4def-813e-f2b2b48b57fc","system_id":"levelo_inurba_marseille","lat":43.2848,"lon":5.48394,"is_reserved":false,"is_disabled":false,"rental_uris":{"android":"levelo://app?vid=3e030add-b719-4def-813e-f2b2b48b57fc","ios":"levelo://app?vid=3e030add-b719-4def-813e-f2b2b48b57fc"},"vehicle_type_id":"4","last_reported":1778765338,"current_range_meters":10000,"station_id":"st_d3svhcjqgbts73a3dn0g","pricing_plan_id":"cebpf4jnsgd1na2vs0mg"},{"bike_id":"b90a0664-1d50-4a9e-a691-af7c8b1eefef","system_id":"levelo_inurba_marseille","lat":43.324831,"lon":5.365526,"is_reserved":false,"is_disabled":false,"rental_uris":{"android":"levelo://app?vid=b90a0664-1d50-4a9e-a691-af7c8b1eefef","ios":"levelo://app?vid=b90a0664-1d50-4a9e-a691-af7c8b1eefef"},"vehicle_type_id":"4","last_reported":1778765338,"current_range_meters":10000,"station_id":"ce4bhs12rcd13ifvqhvg","pricing_plan_id":"cebpf4jnsgd1na2vs0mg"},{"bike_id":"82f93eec-9eb2-44e6-a22c-b08c7c605f64","system_id":"levelo_inurba_marseille","lat":43.29729,"lon":5.3769,"is_reserved":false,"is_disabled":false,"rental_uris":{"android":"levelo://app?vid=82f93eec-9eb2-44e6-a22c-b08c7c605f64","ios":"levelo://app?vid=82f93eec-9eb2-44e6-a22c-b08c7c605f64"},"vehicle_type_id":"4","last_reported":1778765338,"current_range_meters":10000,"station_id":"ce4bgkh2rcd13ifvqbl0","pricing_plan_id":"cebpf4jnsgd1na2vs0mg"},{"bike_id":"e64ebe22-40b5-4468-964f-97b6e6c98bca","system_id":"levelo_inurba_marseille","lat":43.23959,"lon":5.36635,"is_reserved":false,"is_disabled":false,"rental_uris":{"android":"levelo://app?vid=e64ebe22-40b5-4468-964f-97b6e6c98bca","ios":"levelo://app?vid=e64ebe22-40b5-4468-964f-97b6e6c98bca"},"vehicle_type_id":"4","last_reported":1778765338,"current_range_meters":10000,"station_id":"ce4bhi12rcd13ifvqfp0","pricing_plan_id":"cebpf4jnsgd1na2vs0mg"},{"bike_id":"99d7bd4c-90ca-453e-b09e-34b0f2dca6ea","system_id":"levelo_inurba_marseille","lat":43.28623,"lon":5.35099,"is_reserved":false,"is_disabled":false,"rental_uris":{"android":"levelo://app?vid=99d7bd4c-90ca-453e-b09e-34b0f2dca6ea","ios":"levelo://app?vid=99d7bd4c-90ca-453e-b09e-34b0f2dca6ea"},"vehicle_type_id":"4","last_reported":1778765338,"current_range_meters":10000,"station_id":"ce4bhch2rcd13ifvqeug","pricing_plan_id":"cebpf4jnsgd1na2vs0mg"},{"bike_id":"0704953b-d0d4-41a9-9ea7-6a1c9458e73d","system_id":"levelo_inurba_marseille","lat":43.28437,"lon":5.34979,"is_reserved":false,"is_disabled":false,"rental_uris":{"android":"levelo://app?vid=0704953b-d0d4-41a9-9ea7-6a1c9458e73d","ios":"levelo://app?vid=0704953b-d0d4-41a9-9ea7-6a1c9458e73d"},"vehicle_type_id":"4","last_reported":1778765338,"current_range_meters":10000,"station_id":"ce4bhbh2rcd13ifvqepg","pricing_plan_id":"cebpf4jnsgd1na2vs0mg"},{"bike_id":"97e1ac91-1e9e-482b-ba49-eee61aed3b05","system_id":"levelo_inurba_marseille","lat":43.26499,"lon":5.39536,"is_reserved":false,"is_disabled":false,"rental_uris":{"android":"levelo://app?vid=97e1ac91-1e9e-482b-ba49-eee61aed3b05","ios":"levelo://app?vid=97e1ac91-1e9e-482b-ba49-eee61aed3b05"},"vehicle_type_id":"4","last_reported":1778765338,"current_range_meters":10000,"station_id":"ce4bhi12rcd13ifvqfq0","pricing_plan_id":"cebpf4jnsgd1na2vs0mg"},{"bike_id":"aa0d82ca-11ac-4552-81b6-c87dc18fa226","system_id":"levelo_inurba_marseille","lat":43.2962,"lon":5.37156,"is_reserved":false,"is_disabled":false,"rental_uris":{"android":"levelo://app?vid=aa0d82ca-11ac-4552-81b6-c87dc18fa226","ios":"levelo://app?vid=aa0d82ca-11ac-4552-81b6-c87dc18fa226"},"vehicle_type_id":"4","last_reported":1778765338,"current_range_meters":10000,"station_id":"ce4bgnh2rcd13ifvqc0g","pricing_plan_id":"cebpf4jnsgd1na2vs0mg"},{"bike_id":"8e2caaad-2009-4aea-814b-5350daae3b1b","system_id":"levelo_inurba_marseille","lat":43.24319,"lon":5.38431,"is_reserved":false,"is_disabled":false,"rental_uris":{"android":"levelo://app?vid=8e2caaad-2009-4aea-814b-5350daae3b1b","ios":"levelo://app?vid=8e2caaad-2009-4aea-814b-5350daae3b1b"},"vehicle_type_id":"4","last_reported":1778765338,"current_range_meters":10000,"station_id":"","pricing_plan_id":"cebpf4jnsgd1na2vs0mg"},{"bike_id":"31bc88b4-4bb8-46f3-86ec-3395ac4d618d","system_id":"levelo_inurba_marseille","lat":43.29153,"lon":5.37148,"is_reserved":false,"is_disabled":false,"rental_uris":{"android":"levelo://app?vid=31bc88b4-4bb8-46f3-86ec-3395ac4d618d","ios":"levelo://app?vid=31bc88b4-4bb8-46f3-86ec-3395ac4d618d"},"vehicle_type_id":"4","last_reported":1778765338,"current_range_meters":10800,"station_id":"ce4bha92rcd13ifvqeh0","pricing_plan_id":"cebpf4jnsgd1na2vs0mg"},{"bike_id":"f74d7d1f-9b09-4625-a654-cfaca12e92ca","system_id":"levelo_inurba_marseille","lat":43.28693,"lon":5.37933,"is_reserved":false,"is_disabled":false,"rental_uris":{"android":"levelo://app?vid=f74d7d1f-9b09-4625-a654-cfaca12e92ca","ios":"levelo://app?vid=f74d7d1f-9b09-4625-a654-cfaca12e92ca"},"vehicle_type_id":"4","last_reported":1778765338,"current_range_meters":10800,"station_id":"ce4bh9p2rcd13ifvqec0","pricing_plan_id":"cebpf4jnsgd1na2vs0mg"},{"bike_id":"0480f53f-32e7-48a7-94bd-18e696381361","system_id":"levelo_inurba_marseille","lat":43.3234,"lon":5.36755,"is_reserved":false,"is_disabled":false,"rental_uris":{"android":"levelo://app?vid=0480f53f-32e7-48a7-94bd-18e696381361","ios":"levelo://app?vid=0480f53f-32e7-48a7-94bd-18e696381361"},"vehicle_type_id":"4","last_reported":1778765338,"current_range_meters":10800,"station_id":"ce4bhsh2rcd13ifvqi2g","pricing_plan_id":"cebpf4jnsgd1na2vs0mg"},{"bike_id":"054ea04f-0f15-4584-af84-b09e727ce4ec","system_id":"levelo_inurba_marseille","lat":43.25498,"lon":5.37655,"is_reserved":false,"is_disabled":false,"rental_uris":{"android":"levelo://app?vid=054ea04f-0f15-4584-af84-b09e727ce4ec","ios":"levelo://app?vid=054ea04f-0f15-4584-af84-b09e727ce4ec"},"vehicle_type_id":"4","last_reported":1778765338,"current_range_meters":10800,"station_id":"ce4bhh12rcd13ifvqff0","pricing_plan_id":"cebpf4jnsgd1na2vs0mg"},{"bike_id":"7e7e3b85-fa90-471b-9fa1-5bed3b5286f9","system_id":"levelo_inurba_marseille","lat":43.31356,"lon":5.3849,"is_reserved":false,"is_disabled":false,"rental_uris":{"android":"levelo://app?vid=7e7e3b85-fa90-471b-9fa1-5bed3b5286f9","ios":"levelo://app?vid=7e7e3b85-fa90-471b-9fa1-5bed3b5286f9"},"vehicle_type_id":"4","last_reported":1778765338,"current_range_meters":10800,"station_id":"ce4bgt92rcd13ifvqcf0","pricing_plan_id":"cebpf4jnsgd1na2vs0mg"},{"bike_id":"37c870f8-cbc1-438f-ba73-b4a470b054cb","system_id":"levelo_inurba_marseille","lat":43.26025,"lon":5.37543,"is_reserved":false,"is_disabled":false,"rental_uris":{"android":"levelo://app?vid=37c870f8-cbc1-438f-ba73-b4a470b054cb","ios":"levelo://app?vid=37c870f8-cbc1-438f-ba73-b4a470b054cb"},"vehicle_type_id":"4","last_reported":1778765338,"current_range_meters":10800,"station_id":"ce4bhgh2rcd13ifvqfa0","pricing_plan_id":"cebpf4jnsgd1na2vs0mg"},{"bike_id":"0136b265-d75d-41a8-8b23-c2341abe7a63","system_id":"levelo_inurba_marseille","lat":43.27344,"lon":5.3909,"is_reserved":false,"is_disabled":false,"rental_uris":{"android":"levelo://app?vid=0136b265-d75d-41a8-8b23-c2341abe7a63","ios":"levelo://app?vid=0136b265-d75d-41a8-8b23-c2341abe7a63"},"vehicle_type_id":"4","last_reported":1778765338,"current_range_meters":10800,"station_id":"ce4bhgp2rcd13ifvqfe0","pricing_plan_id":"cebpf4jnsgd1na2vs0mg"},{"bike_id":"72560541-def5-4210-8902-e0c7d10c0540","system_id":"levelo_inurba_marseille","lat":43.27919,"lon":5.39223,"is_reserved":false,"is_disabled":false,"rental_uris":{"android":"levelo://app?vid=72560541-def5-4210-8902-e0c7d10c0540","ios":"levelo://app?vid=72560541-def5-4210-8902-e0c7d10c0540"},"vehicle_type_id":"4","last_reported":1778765338,"current_range_meters":10800,"station_id":"","pricing_plan_id":"cebpf4jnsgd1na2vs0mg"},{"bike_id":"4b19d262-6362-4a56-a5bc-ae474d9fa935","system_id":"levelo_inurba_marseille","lat":43.29609,"lon":5.38091,"is_reserved":false,"is_disabled":false,"rental_uris":{"android":"levelo://app?vid=4b19d262-6362-4a56-a5bc-ae474d9fa935","ios":"levelo://app?vid=4b19d262-6362-4a56-a5bc-ae474d9fa935"},"vehicle_type_id":"4","last_reported":1778765338,"current_range_meters":10800,"station_id":"ce4bgl12rcd13ifvqbo0","pricing_plan_id":"cebpf4jnsgd1na2vs0mg"},{"bike_id":"a76be67c-ed20-4003-9861-97e7c513a0d1","system_id":"levelo_inurba_marseille","lat":43.29844,"lon":5.36327,"is_reserved":false,"is_disabled":false,"rental_uris":{"android":"levelo://app?vid=a76be67c-ed20-4003-9861-97e7c513a0d1","ios":"levelo://app?vid=a76be67c-ed20-4003-9861-97e7c513a0d1"},"vehicle_type_id":"4","last_reported":1778765338,"current_range_meters":10800,"station_id":"ce4bgpp2rcd13ifvqc3g","pricing_plan_id":"cebpf4jnsgd1na2vs0mg"},{"bike_id":"22c598a6-5851-4e78-a890-c2cb69684438","system_id":"levelo_inurba_marseille","lat":43.28534,"lon":5.44125,"is_reserved":false,"is_disabled":false,"rental_uris":{"android":"levelo://app?vid=22c598a6-5851-4e78-a890-c2cb69684438","ios":"levelo://app?vid=22c598a6-5851-4e78-a890-c2cb69684438"},"vehicle_type_id":"4","last_reported":1778765338,"current_range_meters":10800,"station_id":"st_d3j3df2ikq2c7380ej80","pricing_plan_id":"cebpf4jnsgd1na2vs0mg"},{"bike_id":"6f5153fc-6820-4ea3-adee-51676eb30d71","system_id":"levelo_inurba_marseille","lat":43.31071,"lon":5.37166,"is_reserved":false,"is_disabled":false,"rental_uris":{"android":"levelo://app?vid=6f5153fc-6820-4ea3-adee-51676eb30d71","ios":"levelo://app?vid=6f5153fc-6820-4ea3-adee-51676eb30d71"},"vehicle_type_id":"4","last_reported":1778765338,"current_range_meters":10800,"station_id":"st_d4kl2rp97mjs73e7tdfg","pricing_plan_id":"cebpf4jnsgd1na2vs0mg"},{"bike_id":"03763523-6f3b-4d5b-8669-5273ed49ed77","system_id":"levelo_inurba_marseille","lat":43.26811,"lon":5.40278,"is_reserved":false,"is_disabled":false,"rental_uris":{"android":"levelo://app?vid=03763523-6f3b-4d5b-8669-5273ed49ed77","ios":"levelo://app?vid=03763523-6f3b-4d5b-8669-5273ed49ed77"},"vehicle_type_id":"4","last_reported":1778765338,"current_range_meters":10800,"station_id":"ce501612rcd8frsf0b60","pricing_plan_id":"cebpf4jnsgd1na2vs0mg"},{"bike_id":"f9bb9ff7-708d-46ea-acaf-3095331c11f0","system_id":"levelo_inurba_marseille","lat":43.23965,"lon":5.36626,"is_reserved":false,"is_disabled":false,"rental_uris":{"android":"levelo://app?vid=f9bb9ff7-708d-46ea-acaf-3095331c11f0","ios":"levelo://app?vid=f9bb9ff7-708d-46ea-acaf-3095331c11f0"},"vehicle_type_id":"4","last_reported":1778765338,"current_range_meters":10800,"station_id":"ce4bhi12rcd13ifvqfp0","pricing_plan_id":"cebpf4jnsgd1na2vs0mg"},{"bike_id":"fc035dee-60b5-48a3-b0fd-7e5ae05d9818","system_id":"levelo_inurba_marseille","lat":43.28533,"lon":5.44102,"is_reserved":false,"is_disabled":false,"rental_uris":{"android":"levelo://app?vid=fc035dee-60b5-48a3-b0fd-7e5ae05d9818","ios":"levelo://app?vid=fc035dee-60b5-48a3-b0fd-7e5ae05d9818"},"vehicle_type_id":"4","last_reported":1778765338,"current_range_meters":10800,"station_id":"st_d3j3df2ikq2c7380ej80","pricing_plan_id":"cebpf4jnsgd1na2vs0mg"},{"bike_id":"01f0bc40-45ee-4bf3-9014-0167544f2b92","system_id":"levelo_inurba_marseille","lat":43.286113,"lon":5.370685,"is_reserved":false,"is_disabled":false,"rental_uris":{"android":"levelo://app?vid=01f0bc40-45ee-4bf3-9014-0167544f2b92","ios":"levelo://app?vid=01f0bc40-45ee-4bf3-9014-0167544f2b92"},"vehicle_type_id":"4","last_reported":1778765338,"current_range_meters":10800,"station_id":"ce4bht12rcd13ifvqi60","pricing_plan_id":"cebpf4jnsgd1na2vs0mg"},{"bike_id":"65ed375c-d364-41c0-9798-9e992ff6c909","system_id":"levelo_inurba_marseille","lat":43.22568,"lon":5.4163,"is_reserved":false,"is_disabled":false,"rental_uris":{"android":"levelo://app?vid=65ed375c-d364-41c0-9798-9e992ff6c909","ios":"levelo://app?vid=65ed375c-d364-41c0-9798-9e992ff6c909"},"vehicle_type_id":"4","last_reported":1778765338,"current_range_meters":10800,"station_id":"st_d2o4gvlbi1j2169b742g","pricing_plan_id":"cebpf4jnsgd1na2vs0mg"},{"bike_id":"a233c4f1-8757-4d7e-8995-0f9d735e34b2","system_id":"levelo_inurba_marseille","lat":43.26208,"lon":5.38749,"is_reserved":false,"is_disabled":false,"rental_uris":{"android":"levelo://app?vid=a233c4f1-8757-4d7e-8995-0f9d735e34b2","ios":"levelo://app?vid=a233c4f1-8757-4d7e-8995-0f9d735e34b2"},"vehicle_type_id":"4","last_reported":1778765338,"current_range_meters":10800,"station_id":"","pricing_plan_id":"cebpf4jnsgd1na2vs0mg"},{"bike_id":"bdf1936b-2589-4058-a64d-d2ccf8e9467c","system_id":"levelo_inurba_marseille","lat":43.30933,"lon":5.40168,"is_reserved":false,"is_disabled":false,"rental_uris":{"android":"levelo://app?vid=bdf1936b-2589-4058-a64d-d2ccf8e9467c","ios":"levelo://app?vid=bdf1936b-2589-4058-a64d-d2ccf8e9467c"},"vehicle_type_id":"4","last_reported":1778765338,"current_range_meters":10800,"station_id":"ce4bgvp2rcd13ifvqct0","pricing_plan_id":"cebpf4jnsgd1na2vs0mg"},{"bike_id":"b72a83f3-a205-4729-8d3e-3830516874a6","system_id":"levelo_inurba_marseille","lat":43.30695,"lon":5.37086,"is_reserved":false,"is_disabled":true,"rental_uris":{"android":"levelo://app?vid=b72a83f3-a205-4729-8d3e-3830516874a6","ios":"levelo://app?vid=b72a83f3-a205-4729-8d3e-3830516874a6"},"vehicle_type_id":"4","last_reported":1778765338,"current_range_meters":10800,"station_id":"","pricing_plan_id":"cebpf4jnsgd1na2vs0mg"},{"bike_id":"3d2acb47-633b-4fc4-b218-2188d86a9d9d","system_id":"levelo_inurba_marseille","lat":43.29851,"lon":5.3628,"is_reserved":false,"is_disabled":false,"rental_uris":{"android":"levelo://app?vid=3d2acb47-633b-4fc4-b218-2188d86a9d9d","ios":"levelo://app?vid=3d2acb47-633b-4fc4-b218-2188d86a9d9d"},"vehicle_type_id":"4","last_reported":1778765338,"current_range_meters":10800,"station_id":"ce4bgpp2rcd13ifvqc3g","pricing_plan_id":"cebpf4jnsgd1na2vs0mg"},{"bike_id":"3e849c92-59a0-4fef-a13c-04223cce3eee","system_id":"levelo_inurba_marseille","lat":43.26575,"lon":5.39009,"is_reserved":false,"is_disabled":false,"rental_uris":{"android":"levelo://app?vid=3e849c92-59a0-4fef-a13c-04223cce3eee","ios":"levelo://app?vid=3e849c92-59a0-4fef-a13c-04223cce3eee"},"vehicle_type_id":"4","last_reported":1778765338,"current_range_meters":10800,"station_id":"ce4bhe12rcd13ifvqf30","pricing_plan_id":"cebpf4jnsgd1na2vs0mg"},{"bike_id":"09963255-ada2-4bc1-af54-17e77308bad1","system_id":"levelo_inurba_marseille","lat":43.29608,"lon":5.37706,"is_reserved":false,"is_disabled":true,"rental_uris":{"android":"levelo://app?vid=09963255-ada2-4bc1-af54-17e77308bad1","ios":"levelo://app?vid=09963255-ada2-4bc1-af54-17e77308bad1"},"vehicle_type_id":"4","last_reported":1778765338,"current_range_meters":11200,"station_id":"ce4bgi92rcd13ifvqb90","pricing_plan_id":"cebpf4jnsgd1na2vs0mg"},{"bike_id":"e7b6ed55-4257-45f2-8439-a1a2a465d90f","system_id":"levelo_inurba_marseille","lat":43.28875,"lon":5.42514,"is_reserved":false,"is_disabled":false,"rental_uris":{"android":"levelo://app?vid=e7b6ed55-4257-45f2-8439-a1a2a465d90f","ios":"levelo://app?vid=e7b6ed55-4257-45f2-8439-a1a2a465d90f"},"vehicle_type_id":"4","last_reported":1778765338,"current_range_meters":11200,"station_id":"st_d3b462108ojc7389ooeg","pricing_plan_id":"cebpf4jnsgd1na2vs0mg"},{"bike_id":"7d4b25b7-7a51-4c15-92da-a533b6a675df","system_id":"levelo_inurba_marseille","lat":43.29795,"lon":5.38102,"is_reserved":false,"is_disabled":false,"rental_uris":{"android":"levelo://app?vid=7d4b25b7-7a51-4c15-92da-a533b6a675df","ios":"levelo://app?vid=7d4b25b7-7a51-4c15-92da-a533b6a675df"},"vehicle_type_id":"4","last_reported":1778765338,"current_range_meters":11200,"station_id":"ce4bgip2rcd13ifvqbb0","pricing_plan_id":"cebpf4jnsgd1na2vs0mg"},{"bike_id":"497e8a4d-4629-4e7d-9d6a-eeb839fd6964","system_id":"levelo_inurba_marseille","lat":43.29543,"lon":5.39393,"is_reserved":false,"is_disabled":false,"rental_uris":{"android":"levelo://app?vid=497e8a4d-4629-4e7d-9d6a-eeb839fd6964","ios":"levelo://app?vid=497e8a4d-4629-4e7d-9d6a-eeb839fd6964"},"vehicle_type_id":"4","last_reported":1778765338,"current_range_meters":11200,"station_id":"ce4bh292rcd13ifvqdf0","pricing_plan_id":"cebpf4jnsgd1na2vs0mg"},{"bike_id":"09d2d2cf-c47e-4a73-8de3-e2f212f07dae","system_id":"levelo_inurba_marseille","lat":43.26555,"lon":5.37288,"is_reserved":false,"is_disabled":false,"rental_uris":{"android":"levelo://app?vid=09d2d2cf-c47e-4a73-8de3-e2f212f07dae","ios":"levelo://app?vid=09d2d2cf-c47e-4a73-8de3-e2f212f07dae"},"vehicle_type_id":"4","last_reported":1778765338,"current_range_meters":11200,"station_id":"ce4bhg12rcd13ifvqf70","pricing_plan_id":"cebpf4jnsgd1na2vs0mg"},{"bike_id":"b9686a67-f56b-443e-ba60-89fee6db11f2","system_id":"levelo_inurba_marseille","lat":43.31509,"lon":5.37357,"is_reserved":false,"is_disabled":false,"rental_uris":{"android":"levelo://app?vid=b9686a67-f56b-443e-ba60-89fee6db11f2","ios":"levelo://app?vid=b9686a67-f56b-443e-ba60-89fee6db11f2"},"vehicle_type_id":"4","last_reported":1778765338,"current_range_meters":11200,"station_id":"ce4bgt12rcd13ifvqcd0","pricing_plan_id":"cebpf4jnsgd1na2vs0mg"},{"bike_id":"375307ed-eb84-4111-a336-3ad377268fec","system_id":"levelo_inurba_marseille","lat":43.32324,"lon":5.38266,"is_reserved":false,"is_disabled":false,"rental_uris":{"android":"levelo://app?vid=375307ed-eb84-4111-a336-3ad377268fec","ios":"levelo://app?vid=375307ed-eb84-4111-a336-3ad377268fec"},"vehicle_type_id":"4","last_reported":1778765338,"current_range_meters":11200,"station_id":"ce4bhr12rcd13ifvqhqg","pricing_plan_id":"cebpf4jnsgd1na2vs0mg"},{"bike_id":"40a6baf2-ab3f-4fec-9892-f49efe392af0","system_id":"levelo_inurba_marseille","lat":43.3018,"lon":5.38129,"is_reserved":false,"is_disabled":false,"rental_uris":{"android":"levelo://app?vid=40a6baf2-ab3f-4fec-9892-f49efe392af0","ios":"levelo://app?vid=40a6baf2-ab3f-4fec-9892-f49efe392af0"},"vehicle_type_id":"4","last_reported":1778765338,"current_range_meters":11200,"station_id":"","pricing_plan_id":"cebpf4jnsgd1na2vs0mg"},