{"last_updated":1760720935,"ttl":60,"version":"2.2","data":{"bikes":[{"bike_id":"4de742de-6265-41c4-a50d-7246bd48586e","system_id":"levelo_inurba_marseille","lat":43.26236,"lon":5.40466,"is_reserved":false,"is_disabled":false,"rental_uris":{"android":"levelo://app?vid=4de742de-6265-41c4-a50d-7246bd48586e","ios":"levelo://app?vid=4de742de-6265-41c4-a50d-7246bd48586e"},"vehicle_type_id":"4","last_reported":1760720935,"current_range_meters":2800,"station_id":"ce4bhmh2rcd13ifvqgmg","pricing_plan_id":"cebpf4jnsgd1na2vs0mg"},{"bike_id":"72c4650c-993e-4f30-9de2-1372281fd5c9","system_id":"levelo_inurba_marseille","lat":43.2923,"lon":5.36061,"is_reserved":false,"is_disabled":false,"rental_uris":{"android":"levelo://app?vid=72c4650c-993e-4f30-9de2-1372281fd5c9","ios":"levelo://app?vid=72c4650c-993e-4f30-9de2-1372281fd5c9"},"vehicle_type_id":"4","last_reported":1760720935,"current_range_meters":2800,"station_id":"ce4bhbh2rcd13ifvqeqg","pricing_plan_id":"cebpf4jnsgd1na2vs0mg"},{"bike_id":"56e8f168-0239-4dab-a231-9caf80fb776c","system_id":"levelo_inurba_marseille","lat":43.292676,"lon":5.376168,"is_reserved":false,"is_disabled":false,"rental_uris":{"android":"levelo://app?vid=56e8f168-0239-4dab-a231-9caf80fb776c","ios":"levelo://app?vid=56e8f168-0239-4dab-a231-9caf80fb776c"},"vehicle_type_id":"4","last_reported":1760720935,"current_range_meters":2800,"station_id":"","pricing_plan_id":"cebpf4jnsgd1na2vs0mg"},{"bike_id":"d8c29ff5-5a62-475c-8d27-6337b6599513","system_id":"levelo_inurba_marseille","lat":43.250739,"lon":5.395298,"is_reserved":false,"is_disabled":false,"rental_uris":{"android":"levelo://app?vid=d8c29ff5-5a62-475c-8d27-6337b6599513","ios":"levelo://app?vid=d8c29ff5-5a62-475c-8d27-6337b6599513"},"vehicle_type_id":"4","last_reported":1760720935,"current_range_meters":2800,"station_id":"ce4bhm12rcd13ifvqgkg","pricing_plan_id":"cebpf4jnsgd1na2vs0mg"},{"bike_id":"a0546f6d-7451-46b0-bc92-c26edca214bd","system_id":"levelo_inurba_marseille","lat":43.312736,"lon":5.40174,"is_reserved":false,"is_disabled":false,"rental_uris":{"android":"levelo://app?vid=a0546f6d-7451-46b0-bc92-c26edca214bd","ios":"levelo://app?vid=a0546f6d-7451-46b0-bc92-c26edca214bd"},"vehicle_type_id":"4","last_reported":1760720935,"current_range_meters":2800,"station_id":"ce4bh092rcd13ifvqd30","pricing_plan_id":"cebpf4jnsgd1na2vs0mg"},{"bike_id":"4145d449-92bb-4cb1-a9e8-b98aaa1fab0e","system_id":"levelo_inurba_marseille","lat":43.30537,"lon":5.38435,"is_reserved":false,"is_disabled":false,"rental_uris":{"android":"levelo://app?vid=4145d449-92bb-4cb1-a9e8-b98aaa1fab0e","ios":"levelo://app?vid=4145d449-92bb-4cb1-a9e8-b98aaa1fab0e"},"vehicle_type_id":"4","last_reported":1760720935,"current_range_meters":2800,"station_id":"ce4bgg92rcd13ifvqb30","pricing_plan_id":"cebpf4jnsgd1na2vs0mg"},{"bike_id":"54a12f1f-50d8-4583-867b-0ab9db93cd0b","system_id":"levelo_inurba_marseille","lat":43.24168,"lon":5.36396,"is_reserved":false,"is_disabled":false,"rental_uris":{"android":"levelo://app?vid=54a12f1f-50d8-4583-867b-0ab9db93cd0b","ios":"levelo://app?vid=54a12f1f-50d8-4583-867b-0ab9db93cd0b"},"vehicle_type_id":"4","last_reported":1760720935,"current_range_meters":2800,"station_id":"cpo36qri1sfpv3e86is0","pricing_plan_id":"cebpf4jnsgd1na2vs0mg"},{"bike_id":"3dbdb07c-344c-4a4d-bf58-50603954f3b7","system_id":"levelo_inurba_marseille","lat":43.251082,"lon":5.403186,"is_reserved":false,"is_disabled":false,"rental_uris":{"android":"levelo://app?vid=3dbdb07c-344c-4a4d-bf58-50603954f3b7","ios":"levelo://app?vid=3dbdb07c-344c-4a4d-bf58-50603954f3b7"},"vehicle_type_id":"4","last_reported":1760720935,"current_range_meters":3200,"station_id":"ce4bhlh2rcd13ifvqgig","pricing_plan_id":"cebpf4jnsgd1na2vs0mg"},{"bike_id":"84cd9da6-0846-4050-8b52-c1e7238d3cc9","system_id":"levelo_inurba_marseille","lat":43.225337,"lon":5.348301,"is_reserved":false,"is_disabled":false,"rental_uris":{"android":"levelo://app?vid=84cd9da6-0846-4050-8b52-c1e7238d3cc9","ios":"levelo://app?vid=84cd9da6-0846-4050-8b52-c1e7238d3cc9"},"vehicle_type_id":"4","last_reported":1760720935,"current_range_meters":3200,"station_id":"","pricing_plan_id":"cebpf4jnsgd1na2vs0mg"},{"bike_id":"9d0bf087-a2b8-442f-bee2-092e587e503b","system_id":"levelo_inurba_marseille","lat":43.28703,"lon":5.37957,"is_reserved":false,"is_disabled":false,"rental_uris":{"android":"levelo://app?vid=9d0bf087-a2b8-442f-bee2-092e587e503b","ios":"levelo://app?vid=9d0bf087-a2b8-442f-bee2-092e587e503b"},"vehicle_type_id":"4","last_reported":1760720935,"current_range_meters":3200,"station_id":"ce4bh9p2rcd13ifvqec0","pricing_plan_id":"cebpf4jnsgd1na2vs0mg"},{"bike_id":"0511f266-47ce-4643-a96d-3d9365929120","system_id":"levelo_inurba_marseille","lat":43.23961,"lon":5.36632,"is_reserved":false,"is_disabled":false,"rental_uris":{"android":"levelo://app?vid=0511f266-47ce-4643-a96d-3d9365929120","ios":"levelo://app?vid=0511f266-47ce-4643-a96d-3d9365929120"},"vehicle_type_id":"4","last_reported":1760720935,"current_range_meters":3200,"station_id":"ce4bhi12rcd13ifvqfp0","pricing_plan_id":"cebpf4jnsgd1na2vs0mg"},{"bike_id":"d8634e8d-e9e5-41b6-9f35-e42a4f08a4a3","system_id":"levelo_inurba_marseille","lat":43.28941,"lon":5.3664,"is_reserved":false,"is_disabled":false,"rental_uris":{"android":"levelo://app?vid=d8634e8d-e9e5-41b6-9f35-e42a4f08a4a3","ios":"levelo://app?vid=d8634e8d-e9e5-41b6-9f35-e42a4f08a4a3"},"vehicle_type_id":"4","last_reported":1760720935,"current_range_meters":3200,"station_id":"ce4bhap2rcd13ifvqek0","pricing_plan_id":"cebpf4jnsgd1na2vs0mg"},{"bike_id":"b0e3fac0-2cba-43db-8a27-05393f9977ec","system_id":"levelo_inurba_marseille","lat":43.297242,"lon":5.373265,"is_reserved":false,"is_disabled":false,"rental_uris":{"android":"levelo://app?vid=b0e3fac0-2cba-43db-8a27-05393f9977ec","ios":"levelo://app?vid=b0e3fac0-2cba-43db-8a27-05393f9977ec"},"vehicle_type_id":"4","last_reported":1760720935,"current_range_meters":3200,"station_id":"","pricing_plan_id":"cebpf4jnsgd1na2vs0mg"},{"bike_id":"fbfa6438-3f11-4145-813f-6a47153a2e09","system_id":"levelo_inurba_marseille","lat":43.299652,"lon":5.384949,"is_reserved":false,"is_disabled":false,"rental_uris":{"android":"levelo://app?vid=fbfa6438-3f11-4145-813f-6a47153a2e09","ios":"levelo://app?vid=fbfa6438-3f11-4145-813f-6a47153a2e09"},"vehicle_type_id":"4","last_reported":1760720935,"current_range_meters":3200,"station_id":"ce4bgj92rcd13ifvqbd0","pricing_plan_id":"cebpf4jnsgd1na2vs0mg"},{"bike_id":"dd694743-284f-4cc7-b2d1-c9fc01ca5015","system_id":"levelo_inurba_marseille","lat":43.30415,"lon":5.41288,"is_reserved":false,"is_disabled":false,"rental_uris":{"android":"levelo://app?vid=dd694743-284f-4cc7-b2d1-c9fc01ca5015","ios":"levelo://app?vid=dd694743-284f-4cc7-b2d1-c9fc01ca5015"},"vehicle_type_id":"4","last_reported":1760720935,"current_range_meters":3200,"station_id":"ce4bhop2rcd13ifvqh8g","pricing_plan_id":"cebpf4jnsgd1na2vs0mg"},{"bike_id":"28054006-00a4-4601-8fb7-e12e57b94fbf","system_id":"levelo_inurba_marseille","lat":43.28157,"lon":5.42651,"is_reserved":false,"is_disabled":false,"rental_uris":{"android":"levelo://app?vid=28054006-00a4-4601-8fb7-e12e57b94fbf","ios":"levelo://app?vid=28054006-00a4-4601-8fb7-e12e57b94fbf"},"vehicle_type_id":"4","last_reported":1760720935,"current_range_meters":3200,"station_id":"ce4bhnh2rcd13ifvqgug","pricing_plan_id":"cebpf4jnsgd1na2vs0mg"},{"bike_id":"21b1302d-1fbc-4238-b586-0ce8e134223a","system_id":"levelo_inurba_marseille","lat":43.29532,"lon":5.38546,"is_reserved":false,"is_disabled":false,"rental_uris":{"android":"levelo://app?vid=21b1302d-1fbc-4238-b586-0ce8e134223a","ios":"levelo://app?vid=21b1302d-1fbc-4238-b586-0ce8e134223a"},"vehicle_type_id":"4","last_reported":1760720935,"current_range_meters":3200,"station_id":"ce4bgih2rcd13ifvqba0","pricing_plan_id":"cebpf4jnsgd1na2vs0mg"},{"bike_id":"48d24cae-41b9-42c1-8056-66a94442508c","system_id":"levelo_inurba_marseille","lat":43.29524,"lon":5.39406,"is_reserved":false,"is_disabled":false,"rental_uris":{"android":"levelo://app?vid=48d24cae-41b9-42c1-8056-66a94442508c","ios":"levelo://app?vid=48d24cae-41b9-42c1-8056-66a94442508c"},"vehicle_type_id":"4","last_reported":1760720935,"current_range_meters":3200,"station_id":"ce4bh292rcd13ifvqdf0","pricing_plan_id":"cebpf4jnsgd1na2vs0mg"},{"bike_id":"49cd0be8-d3e8-44da-8bd3-d5fc16020a3e","system_id":"levelo_inurba_marseille","lat":43.28482,"lon":5.38428,"is_reserved":false,"is_disabled":false,"rental_uris":{"android":"levelo://app?vid=49cd0be8-d3e8-44da-8bd3-d5fc16020a3e","ios":"levelo://app?vid=49cd0be8-d3e8-44da-8bd3-d5fc16020a3e"},"vehicle_type_id":"4","last_reported":1760720935,"current_range_meters":3600,"station_id":"ce4bh512rcd13ifvqe3g","pricing_plan_id":"cebpf4jnsgd1na2vs0mg"},{"bike_id":"3000a793-8ee7-4472-a8c8-f44de99e878a","system_id":"levelo_inurba_marseille","lat":43.25718,"lon":5.41109,"is_reserved":false,"is_disabled":false,"rental_uris":{"android":"levelo://app?vid=3000a793-8ee7-4472-a8c8-f44de99e878a","ios":"levelo://app?vid=3000a793-8ee7-4472-a8c8-f44de99e878a"},"vehicle_type_id":"4","last_reported":1760720935,"current_range_meters":3600,"station_id":"ce4bhkp2rcd13ifvqgd0","pricing_plan_id":"cebpf4jnsgd1na2vs0mg"},{"bike_id":"072b97da-4df0-410d-b795-24a54bb03bb2","system_id":"levelo_inurba_marseille","lat":43.292572,"lon":5.38439,"is_reserved":false,"is_disabled":false,"rental_uris":{"android":"levelo://app?vid=072b97da-4df0-410d-b795-24a54bb03bb2","ios":"levelo://app?vid=072b97da-4df0-410d-b795-24a54bb03bb2"},"vehicle_type_id":"4","last_reported":1760720935,"current_range_meters":3600,"station_id":"","pricing_plan_id":"cebpf4jnsgd1na2vs0mg"},{"bike_id":"50e49d78-9506-4b2c-a986-9bc392e147c8","system_id":"levelo_inurba_marseille","lat":43.27572,"lon":5.38423,"is_reserved":false,"is_disabled":false,"rental_uris":{"android":"levelo://app?vid=50e49d78-9506-4b2c-a986-9bc392e147c8","ios":"levelo://app?vid=50e49d78-9506-4b2c-a986-9bc392e147c8"},"vehicle_type_id":"4","last_reported":1760720935,"current_range_meters":3600,"station_id":"ce4bhh92rcd13ifvqfi0","pricing_plan_id":"cebpf4jnsgd1na2vs0mg"},{"bike_id":"11ae752d-4968-431c-ac72-2916de39507e","system_id":"levelo_inurba_marseille","lat":43.29063,"lon":5.37161,"is_reserved":false,"is_disabled":false,"rental_uris":{"android":"levelo://app?vid=11ae752d-4968-431c-ac72-2916de39507e","ios":"levelo://app?vid=11ae752d-4968-431c-ac72-2916de39507e"},"vehicle_type_id":"4","last_reported":1760720935,"current_range_meters":3600,"station_id":"ce4bh5p2rcd13ifvqe4g","pricing_plan_id":"cebpf4jnsgd1na2vs0mg"},{"bike_id":"0c233b86-0fe6-42d6-8dd5-ba6ad607b0c4","system_id":"levelo_inurba_marseille","lat":43.297069,"lon":5.366155,"is_reserved":false,"is_disabled":false,"rental_uris":{"android":"levelo://app?vid=0c233b86-0fe6-42d6-8dd5-ba6ad607b0c4","ios":"levelo://app?vid=0c233b86-0fe6-42d6-8dd5-ba6ad607b0c4"},"vehicle_type_id":"4","last_reported":1760720935,"current_range_meters":3600,"station_id":"ce4bgn12rcd13ifvqbt0","pricing_plan_id":"cebpf4jnsgd1na2vs0mg"},{"bike_id":"4d0060c0-2f69-4eb6-a6a4-8a9be39180fa","system_id":"levelo_inurba_marseille","lat":43.289179,"lon":5.383947,"is_reserved":false,"is_disabled":false,"rental_uris":{"android":"levelo://app?vid=4d0060c0-2f69-4eb6-a6a4-8a9be39180fa","ios":"levelo://app?vid=4d0060c0-2f69-4eb6-a6a4-8a9be39180fa"},"vehicle_type_id":"4","last_reported":1760720935,"current_range_meters":3600,"station_id":"ce4bh612rcd13ifvqe6g","pricing_plan_id":"cebpf4jnsgd1na2vs0mg"},{"bike_id":"74c0cef3-6e72-4783-a15a-14f5c50e784a","system_id":"levelo_inurba_marseille","lat":43.32364,"lon":5.3889,"is_reserved":false,"is_disabled":false,"rental_uris":{"android":"levelo://app?vid=74c0cef3-6e72-4783-a15a-14f5c50e784a","ios":"levelo://app?vid=74c0cef3-6e72-4783-a15a-14f5c50e784a"},"vehicle_type_id":"4","last_reported":1760720935,"current_range_meters":3600,"station_id":"ce4bhqp2rcd13ifvqhog","pricing_plan_id":"cebpf4jnsgd1na2vs0mg"},{"bike_id":"ecd9150a-82d1-439a-8ac1-0ab83b979277","system_id":"levelo_inurba_marseille","lat":43.30803,"lon":5.43529,"is_reserved":false,"is_disabled":true,"rental_uris":{"android":"levelo://app?vid=ecd9150a-82d1-439a-8ac1-0ab83b979277","ios":"levelo://app?vid=ecd9150a-82d1-439a-8ac1-0ab83b979277"},"vehicle_type_id":"4","last_reported":1760720935,"current_range_meters":3600,"station_id":"ce4bhph2rcd13ifvqheg","pricing_plan_id":"cebpf4jnsgd1na2vs0mg"},{"bike_id":"0d78b13b-ac0f-41b0-9eb8-9180c6a8391c","system_id":"levelo_inurba_marseille","lat":43.24075,"lon":5.37757,"is_reserved":false,"is_disabled":false,"rental_uris":{"android":"levelo://app?vid=0d78b13b-ac0f-41b0-9eb8-9180c6a8391c","ios":"levelo://app?vid=0d78b13b-ac0f-41b0-9eb8-9180c6a8391c"},"vehicle_type_id":"4","last_reported":1760720935,"current_range_meters":3600,"station_id":"ce4bhnp2rcd13ifvqgvg","pricing_plan_id":"cebpf4jnsgd1na2vs0mg"},{"bike_id":"529280f1-1445-4158-8bb9-f30d2c7d7deb","system_id":"levelo_inurba_marseille","lat":43.290056,"lon":5.356196,"is_reserved":false,"is_disabled":false,"rental_uris":{"android":"levelo://app?vid=529280f1-1445-4158-8bb9-f30d2c7d7deb","ios":"levelo://app?vid=529280f1-1445-4158-8bb9-f30d2c7d7deb"},"vehicle_type_id":"4","last_reported":1760720935,"current_range_meters":3600,"station_id":"ce4bhb92rcd13ifvqen0","pricing_plan_id":"cebpf4jnsgd1na2vs0mg"},{"bike_id":"82eb7d6d-11b5-4c52-b7d3-7065ac4658c0","system_id":"levelo_inurba_marseille","lat":43.30125,"lon":5.39857,"is_reserved":false,"is_disabled":false,"rental_uris":{"android":"levelo://app?vid=82eb7d6d-11b5-4c52-b7d3-7065ac4658c0","ios":"levelo://app?vid=82eb7d6d-11b5-4c52-b7d3-7065ac4658c0"},"vehicle_type_id":"4","last_reported":1760720935,"current_range_meters":3600,"station_id":"ce4bh0h2rcd13ifvqd40","pricing_plan_id":"cebpf4jnsgd1na2vs0mg"},{"bike_id":"fdce9775-0a56-4570-ac88-4cac01d15568","system_id":"levelo_inurba_marseille","lat":43.28957,"lon":5.36619,"is_reserved":false,"is_disabled":false,"rental_uris":{"android":"levelo://app?vid=fdce9775-0a56-4570-ac88-4cac01d15568","ios":"levelo://app?vid=fdce9775-0a56-4570-ac88-4cac01d15568"},"vehicle_type_id":"4","last_reported":1760720935,"current_range_meters":4000,"station_id":"ce4bhap2rcd13ifvqek0","pricing_plan_id":"cebpf4jnsgd1na2vs0mg"},{"bike_id":"de291b7e-f3c9-4d25-9d18-b9efc04404ed","system_id":"levelo_inurba_marseille","lat":43.29578,"lon":5.37506,"is_reserved":false,"is_disabled":false,"rental_uris":{"android":"levelo://app?vid=de291b7e-f3c9-4d25-9d18-b9efc04404ed","ios":"levelo://app?vid=de291b7e-f3c9-4d25-9d18-b9efc04404ed"},"vehicle_type_id":"4","last_reported":1760720935,"current_range_meters":4000,"station_id":"ce4bgh92rcd13ifvqb50","pricing_plan_id":"cebpf4jnsgd1na2vs0mg"},{"bike_id":"afd3a141-6f64-4928-ba91-fca21b7af038","system_id":"levelo_inurba_marseille","lat":43.29663,"lon":5.36574,"is_reserved":false,"is_disabled":false,"rental_uris":{"android":"levelo://app?vid=afd3a141-6f64-4928-ba91-fca21b7af038","ios":"levelo://app?vid=afd3a141-6f64-4928-ba91-fca21b7af038"},"vehicle_type_id":"4","last_reported":1760720935,"current_range_meters":4000,"station_id":"","pricing_plan_id":"cebpf4jnsgd1na2vs0mg"},{"bike_id":"aec944ee-24a2-4b75-b834-ffdd04f05c78","system_id":"levelo_inurba_marseille","lat":43.28484,"lon":5.38555,"is_reserved":false,"is_disabled":false,"rental_uris":{"android":"levelo://app?vid=aec944ee-24a2-4b75-b834-ffdd04f05c78","ios":"levelo://app?vid=aec944ee-24a2-4b75-b834-ffdd04f05c78"},"vehicle_type_id":"4","last_reported":1760720935,"current_range_meters":4000,"station_id":"ce4bh8p2rcd13ifvqeb0","pricing_plan_id":"cebpf4jnsgd1na2vs0mg"},{"bike_id":"6cd16192-c813-4136-876c-ae8ebf20d344","system_id":"levelo_inurba_marseille","lat":43.33787,"lon":5.3747,"is_reserved":false,"is_disabled":false,"rental_uris":{"android":"levelo://app?vid=6cd16192-c813-4136-876c-ae8ebf20d344","ios":"levelo://app?vid=6cd16192-c813-4136-876c-ae8ebf20d344"},"vehicle_type_id":"4","last_reported":1760720935,"current_range_meters":4000,"station_id":"","pricing_plan_id":"cebpf4jnsgd1na2vs0mg"},{"bike_id":"49ec84d1-a58d-4947-83de-d8d1ed8c7851","system_id":"levelo_inurba_marseille","lat":43.286545,"lon":5.38667,"is_reserved":false,"is_disabled":false,"rental_uris":{"android":"levelo://app?vid=49ec84d1-a58d-4947-83de-d8d1ed8c7851","ios":"levelo://app?vid=49ec84d1-a58d-4947-83de-d8d1ed8c7851"},"vehicle_type_id":"4","last_reported":1760720935,"current_range_meters":4000,"station_id":"ce4bhp92rcd13ifvqhag","pricing_plan_id":"cebpf4jnsgd1na2vs0mg"},{"bike_id":"525d5210-49c7-4a0f-baf9-826cf6cfe235","system_id":"levelo_inurba_marseille","lat":43.25872,"lon":5.39897,"is_reserved":false,"is_disabled":false,"rental_uris":{"android":"levelo://app?vid=525d5210-49c7-4a0f-baf9-826cf6cfe235","ios":"levelo://app?vid=525d5210-49c7-4a0f-baf9-826cf6cfe235"},"vehicle_type_id":"4","last_reported":1760720935,"current_range_meters":4400,"station_id":"ce4bhl92rcd13ifvqghg","pricing_plan_id":"cebpf4jnsgd1na2vs0mg"},{"bike_id":"588d3d52-42e2-4e40-8285-9d4adcb51726","system_id":"levelo_inurba_marseille","lat":43.323637,"lon":5.388903,"is_reserved":false,"is_disabled":false,"rental_uris":{"android":"levelo://app?vid=588d3d52-42e2-4e40-8285-9d4adcb51726","ios":"levelo://app?vid=588d3d52-42e2-4e40-8285-9d4adcb51726"},"vehicle_type_id":"4","last_reported":1760720935,"current_range_meters":4400,"station_id":"ce4bhqp2rcd13ifvqhog","pricing_plan_id":"cebpf4jnsgd1na2vs0mg"},{"bike_id":"2e11c0cb-c402-4ffd-bcab-dde8308e2160","system_id":"levelo_inurba_marseille","lat":43.250058,"lon":5.404226,"is_reserved":false,"is_disabled":false,"rental_uris":{"android":"levelo://app?vid=2e11c0cb-c402-4ffd-bcab-dde8308e2160","ios":"levelo://app?vid=2e11c0cb-c402-4ffd-bcab-dde8308e2160"},"vehicle_type_id":"4","last_reported":1760720935,"current_range_meters":4400,"station_id":"ce4bh0h2rcd13ifvqd50","pricing_plan_id":"cebpf4jnsgd1na2vs0mg"},{"bike_id":"ca766a7e-6697-45d9-a9fe-e483bf79b1c2","system_id":"levelo_inurba_marseille","lat":43.29847,"lon":5.36393,"is_reserved":false,"is_disabled":false,"rental_uris":{"android":"levelo://app?vid=ca766a7e-6697-45d9-a9fe-e483bf79b1c2","ios":"levelo://app?vid=ca766a7e-6697-45d9-a9fe-e483bf79b1c2"},"vehicle_type_id":"4","last_reported":1760720935,"current_range_meters":4400,"station_id":"","pricing_plan_id":"cebpf4jnsgd1na2vs0mg"},{"bike_id":"39940c54-e2dc-49fc-b8d4-988576e76caf","system_id":"levelo_inurba_marseille","lat":43.30431,"lon":5.39747,"is_reserved":false,"is_disabled":false,"rental_uris":{"android":"levelo://app?vid=39940c54-e2dc-49fc-b8d4-988576e76caf","ios":"levelo://app?vid=39940c54-e2dc-49fc-b8d4-988576e76caf"},"vehicle_type_id":"4","last_reported":1760720935,"current_range_meters":4800,"station_id":"ce4bh092rcd13ifvqd20","pricing_plan_id":"cebpf4jnsgd1na2vs0mg"},{"bike_id":"cf5cf4e1-3cf8-4492-9cb2-2b609d6e8621","system_id":"levelo_inurba_marseille","lat":43.29025,"lon":5.38141,"is_reserved":false,"is_disabled":false,"rental_uris":{"android":"levelo://app?vid=cf5cf4e1-3cf8-4492-9cb2-2b609d6e8621","ios":"levelo://app?vid=cf5cf4e1-3cf8-4492-9cb2-2b609d6e8621"},"vehicle_type_id":"4","last_reported":1760720935,"current_range_meters":4800,"station_id":"ce4bh4p2rcd13ifvqe1g","pricing_plan_id":"cebpf4jnsgd1na2vs0mg"},{"bike_id":"d68b41be-366f-40d7-a414-434cfe0517a5","system_id":"levelo_inurba_marseille","lat":43.31766,"lon":5.42218,"is_reserved":false,"is_disabled":false,"rental_uris":{"android":"levelo://app?vid=d68b41be-366f-40d7-a414-434cfe0517a5","ios":"levelo://app?vid=d68b41be-366f-40d7-a414-434cfe0517a5"},"vehicle_type_id":"4","last_reported":1760720935,"current_range_meters":4800,"station_id":"","pricing_plan_id":"cebpf4jnsgd1na2vs0mg"},{"bike_id":"f02d952b-6752-454e-a06f-53e7b9f8a369","system_id":"levelo_inurba_marseille","lat":43.29524,"lon":5.38557,"is_reserved":false,"is_disabled":false,"rental_uris":{"android":"levelo://app?vid=f02d952b-6752-454e-a06f-53e7b9f8a369","ios":"levelo://app?vid=f02d952b-6752-454e-a06f-53e7b9f8a369"},"vehicle_type_id":"4","last_reported":1760720935,"current_range_meters":4800,"station_id":"ce4bgih2rcd13ifvqba0","pricing_plan_id":"cebpf4jnsgd1na2vs0mg"},{"bike_id":"a4401d2b-1092-41f1-8277-c8ca23aa3e64","system_id":"levelo_inurba_marseille","lat":43.28934,"lon":5.36642,"is_reserved":false,"is_disabled":false,"rental_uris":{"android":"levelo://app?vid=a4401d2b-1092-41f1-8277-c8ca23aa3e64","ios":"levelo://app?vid=a4401d2b-1092-41f1-8277-c8ca23aa3e64"},"vehicle_type_id":"4","last_reported":1760720935,"current_range_meters":4800,"station_id":"ce4bhap2rcd13ifvqek0","pricing_plan_id":"cebpf4jnsgd1na2vs0mg"},{"bike_id":"34a8c781-a2d4-41bd-b8b6-d4c279b52355","system_id":"levelo_inurba_marseille","lat":43.32102,"lon":5.36767,"is_reserved":false,"is_disabled":false,"rental_uris":{"android":"levelo://app?vid=34a8c781-a2d4-41bd-b8b6-d4c279b52355","ios":"levelo://app?vid=34a8c781-a2d4-41bd-b8b6-d4c279b52355"},"vehicle_type_id":"4","last_reported":1760720935,"current_range_meters":4800,"station_id":"ce4bhrh2rcd13ifvqhug","pricing_plan_id":"cebpf4jnsgd1na2vs0mg"},{"bike_id":"be1c4bc2-ea26-4165-ae2c-40ac4665f215","system_id":"levelo_inurba_marseille","lat":43.29422,"lon":5.42867,"is_reserved":false,"is_disabled":true,"rental_uris":{"android":"levelo://app?vid=be1c4bc2-ea26-4165-ae2c-40ac4665f215","ios":"levelo://app?vid=be1c4bc2-ea26-4165-ae2c-40ac4665f215"},"vehicle_type_id":"4","last_reported":1760720935,"current_range_meters":4800,"station_id":"","pricing_plan_id":"cebpf4jnsgd1na2vs0mg"},{"bike_id":"a794a8d7-b0f4-4816-9567-10e9d8cf2529","system_id":"levelo_inurba_marseille","lat":43.27347,"lon":5.39091,"is_reserved":false,"is_disabled":false,"rental_uris":{"android":"levelo://app?vid=a794a8d7-b0f4-4816-9567-10e9d8cf2529","ios":"levelo://app?vid=a794a8d7-b0f4-4816-9567-10e9d8cf2529"},"vehicle_type_id":"4","last_reported":1760720935,"current_range_meters":5600,"station_id":"","pricing_plan_id":"cebpf4jnsgd1na2vs0mg"},{"bike_id":"2e0b55d7-cab9-441a-af6e-06541088cb20","system_id":"levelo_inurba_marseille","lat":43.29529,"lon":5.38543,"is_reserved":false,"is_disabled":true,"rental_uris":{"android":"levelo://app?vid=2e0b55d7-cab9-441a-af6e-06541088cb20","ios":"levelo://app?vid=2e0b55d7-cab9-441a-af6e-06541088cb20"},"vehicle_type_id":"4","last_reported":1760720935,"current_range_meters":5600,"station_id":"ce4bgih2rcd13ifvqba0","pricing_plan_id":"cebpf4jnsgd1na2vs0mg"},{"bike_id":"af96e380-ef8b-412e-8dbe-07ad526806b5","system_id":"levelo_inurba_marseille","lat":43.33804,"lon":5.37426,"is_reserved":false,"is_disabled":false,"rental_uris":{"android":"levelo://app?vid=af96e380-ef8b-412e-8dbe-07ad526806b5","ios":"levelo://app?vid=af96e380-ef8b-412e-8dbe-07ad526806b5"},"vehicle_type_id":"4","last_reported":1760720935,"current_range_meters":5600,"station_id":"","pricing_plan_id":"cebpf4jnsgd1na2vs0mg"},{"bike_id":"267040f3-9fec-4121-91cd-c28cb07da1e4","system_id":"levelo_inurba_marseille","lat":43.28102,"lon":5.37837,"is_reserved":false,"is_disabled":false,"rental_uris":{"android":"levelo://app?vid=267040f3-9fec-4121-91cd-c28cb07da1e4","ios":"levelo://app?vid=267040f3-9fec-4121-91cd-c28cb07da1e4"},"vehicle_type_id":"4","last_reported":1760720935,"current_range_meters":5600,"station_id":"ce4bha12rcd13ifvqee0","pricing_plan_id":"cebpf4jnsgd1na2vs0mg"},{"bike_id":"15c1f9d5-c199-4da8-9d97-2402b825318d","system_id":"levelo_inurba_marseille","lat":43.2977,"lon":5.427817,"is_reserved":false,"is_disabled":false,"rental_uris":{"android":"levelo://app?vid=15c1f9d5-c199-4da8-9d97-2402b825318d","ios":"levelo://app?vid=15c1f9d5-c199-4da8-9d97-2402b825318d"},"vehicle_type_id":"4","last_reported":1760720935,"current_range_meters":5600,"station_id":"st_d3md5207bmas73dh9klg","pricing_plan_id":"cebpf4jnsgd1na2vs0mg"},{"bike_id":"29b5980b-54ca-4a56-8fe7-fd8804799cf3","system_id":"levelo_inurba_marseille","lat":43.28528,"lon":5.44109,"is_reserved":false,"is_disabled":false,"rental_uris":{"android":"levelo://app?vid=29b5980b-54ca-4a56-8fe7-fd8804799cf3","ios":"levelo://app?vid=29b5980b-54ca-4a56-8fe7-fd8804799cf3"},"vehicle_type_id":"4","last_reported":1760720935,"current_range_meters":5600,"station_id":"st_d3j3df2ikq2c7380ej80","pricing_plan_id":"cebpf4jnsgd1na2vs0mg"},{"bike_id":"68ecce1c-b1af-4af6-8f44-f0c516a60c61","system_id":"levelo_inurba_marseille","lat":43.29004,"lon":5.35617,"is_reserved":false,"is_disabled":false,"rental_uris":{"android":"levelo://app?vid=68ecce1c-b1af-4af6-8f44-f0c516a60c61","ios":"levelo://app?vid=68ecce1c-b1af-4af6-8f44-f0c516a60c61"},"vehicle_type_id":"4","last_reported":1760720935,"current_range_meters":5600,"station_id":"ce4bhb92rcd13ifvqen0","pricing_plan_id":"cebpf4jnsgd1na2vs0mg"},{"bike_id":"40f228c7-99ca-459f-81db-77fbc09be216","system_id":"levelo_inurba_marseille","lat":43.308018,"lon":5.435309,"is_reserved":false,"is_disabled":false,"rental_uris":{"android":"levelo://app?vid=40f228c7-99ca-459f-81db-77fbc09be216","ios":"levelo://app?vid=40f228c7-99ca-459f-81db-77fbc09be216"},"vehicle_type_id":"4","last_reported":1760720935,"current_range_meters":5600,"station_id":"ce4bhph2rcd13ifvqheg","pricing_plan_id":"cebpf4jnsgd1na2vs0mg"},{"bike_id":"590e3b25-4ee8-450e-82c2-8e955e23a718","system_id":"levelo_inurba_marseille","lat":43.29277,"lon":5.36855,"is_reserved":false,"is_disabled":false,"rental_uris":{"android":"levelo://app?vid=590e3b25-4ee8-450e-82c2-8e955e23a718","ios":"levelo://app?vid=590e3b25-4ee8-450e-82c2-8e955e23a718"},"vehicle_type_id":"4","last_reported":1760720935,"current_range_meters":6000,"station_id":"ce4bhbp2rcd13ifvqesg","pricing_plan_id":"cebpf4jnsgd1na2vs0mg"},{"bike_id":"8e518a74-b78a-4132-8dfc-784b0d21b580","system_id":"levelo_inurba_marseille","lat":43.21191,"lon":5.35074,"is_reserved":false,"is_disabled":false,"rental_uris":{"android":"levelo://app?vid=8e518a74-b78a-4132-8dfc-784b0d21b580","ios":"levelo://app?vid=8e518a74-b78a-4132-8dfc-784b0d21b580"},"vehicle_type_id":"4","last_reported":1760720935,"current_range_meters":6000,"station_id":"st_cvj6sg6p6f1abm77japg","pricing_plan_id":"cebpf4jnsgd1na2vs0mg"},{"bike_id":"817e90b6-3500-48bf-9da7-dcd6a192f2f5","system_id":"levelo_inurba_marseille","lat":43.31529,"lon":5.380277,"is_reserved":false,"is_disabled":true,"rental_uris":{"android":"levelo://app?vid=817e90b6-3500-48bf-9da7-dcd6a192f2f5","ios":"levelo://app?vid=817e90b6-3500-48bf-9da7-dcd6a192f2f5"},"vehicle_type_id":"4","last_reported":1760720935,"current_range_meters":6000,"station_id":"ce4bhsp2rcd13ifvqi50","pricing_plan_id":"cebpf4jnsgd1na2vs0mg"},{"bike_id":"1472ce3e-f809-4114-a2a3-ede679135cd2","system_id":"levelo_inurba_marseille","lat":43.27997,"lon":5.40006,"is_reserved":false,"is_disabled":false,"rental_uris":{"android":"levelo://app?vid=1472ce3e-f809-4114-a2a3-ede679135cd2","ios":"levelo://app?vid=1472ce3e-f809-4114-a2a3-ede679135cd2"},"vehicle_type_id":"4","last_reported":1760720935,"current_range_meters":6000,"station_id":"ce4bho92rcd13ifvqh4g","pricing_plan_id":"cebpf4jnsgd1na2vs0mg"},{"bike_id":"f6b06448-116d-4095-9f9a-6bd098ec66da","system_id":"levelo_inurba_marseille","lat":43.306091,"lon":5.372341,"is_reserved":false,"is_disabled":false,"rental_uris":{"android":"levelo://app?vid=f6b06448-116d-4095-9f9a-6bd098ec66da","ios":"levelo://app?vid=f6b06448-116d-4095-9f9a-6bd098ec66da"},"vehicle_type_id":"4","last_reported":1760720935,"current_range_meters":6000,"station_id":"ce4bgqh2rcd13ifvqc4g","pricing_plan_id":"cebpf4jnsgd1na2vs0mg"},{"bike_id":"7856590a-1572-412a-918e-77843d1b598a","system_id":"levelo_inurba_marseille","lat":43.28105,"lon":5.42182,"is_reserved":false,"is_disabled":false,"rental_uris":{"android":"levelo://app?vid=7856590a-1572-412a-918e-77843d1b598a","ios":"levelo://app?vid=7856590a-1572-412a-918e-77843d1b598a"},"vehicle_type_id":"4","last_reported":1760720935,"current_range_meters":6000,"station_id":"","pricing_plan_id":"cebpf4jnsgd1na2vs0mg"},{"bike_id":"755f7929-398e-4c2f-8e33-812ebd23bd7b","system_id":"levelo_inurba_marseille","lat":43.27987,"lon":5.41668,"is_reserved":false,"is_disabled":false,"rental_uris":{"android":"levelo://app?vid=755f7929-398e-4c2f-8e33-812ebd23bd7b","ios":"levelo://app?vid=755f7929-398e-4c2f-8e33-812ebd23bd7b"},"vehicle_type_id":"4","last_reported":1760720935,"current_range_meters":6000,"station_id":"ce4bho12rcd13ifvqh1g","pricing_plan_id":"cebpf4jnsgd1na2vs0mg"},{"bike_id":"7a63795d-d6ae-4db3-866d-c16b2af002f1","system_id":"levelo_inurba_marseille","lat":43.29966,"lon":5.37562,"is_reserved":false,"is_disabled":false,"rental_uris":{"android":"levelo://app?vid=7a63795d-d6ae-4db3-866d-c16b2af002f1","ios":"levelo://app?vid=7a63795d-d6ae-4db3-866d-c16b2af002f1"},"vehicle_type_id":"4","last_reported":1760720935,"current_range_meters":6000,"station_id":"","pricing_plan_id":"cebpf4jnsgd1na2vs0mg"},{"bike_id":"3a9c7538-8f04-4fd8-9287-251d8aabc3df","system_id":"levelo_inurba_marseille","lat":43.30747,"lon":5.42457,"is_reserved":false,"is_disabled":false,"rental_uris":{"android":"levelo://app?vid=3a9c7538-8f04-4fd8-9287-251d8aabc3df","ios":"levelo://app?vid=3a9c7538-8f04-4fd8-9287-251d8aabc3df"},"vehicle_type_id":"4","last_reported":1760720935,"current_range_meters":6000,"station_id":"st_cvj6ca6bvosntc0bfgr0","pricing_plan_id":"cebpf4jnsgd1na2vs0mg"},{"bike_id":"809b0c22-60c1-425c-9233-4b2a7d53e7fc","system_id":"levelo_inurba_marseille","lat":43.301354,"lon":5.398696,"is_reserved":false,"is_disabled":false,"rental_uris":{"android":"levelo://app?vid=809b0c22-60c1-425c-9233-4b2a7d53e7fc","ios":"levelo://app?vid=809b0c22-60c1-425c-9233-4b2a7d53e7fc"},"vehicle_type_id":"4","last_reported":1760720935,"current_range_meters":6400,"station_id":"ce4bh0h2rcd13ifvqd40","pricing_plan_id":"cebpf4jnsgd1na2vs0mg"},{"bike_id":"d5dccfb3-ee5b-4b50-94c4-244364ddcf41","system_id":"levelo_inurba_marseille","lat":43.29545,"lon":5.38549,"is_reserved":false,"is_disabled":false,"rental_uris":{"android":"levelo://app?vid=d5dccfb3-ee5b-4b50-94c4-244364ddcf41","ios":"levelo://app?vid=d5dccfb3-ee5b-4b50-94c4-244364ddcf41"},"vehicle_type_id":"4","last_reported":1760720935,"current_range_meters":6400,"station_id":"ce4bgih2rcd13ifvqba0","pricing_plan_id":"cebpf4jnsgd1na2vs0mg"},{"bike_id":"599622dc-122e-422a-ab69-59880ae65eaa","system_id":"levelo_inurba_marseille","lat":43.30149,"lon":5.39858,"is_reserved":false,"is_disabled":false,"rental_uris":{"android":"levelo://app?vid=599622dc-122e-422a-ab69-59880ae65eaa","ios":"levelo://app?vid=599622dc-122e-422a-ab69-59880ae65eaa"},"vehicle_type_id":"4","last_reported":1760720935,"current_range_meters":6400,"station_id":"ce4bh0h2rcd13ifvqd40","pricing_plan_id":"cebpf4jnsgd1na2vs0mg"},{"bike_id":"0b65ae99-3b8a-4abb-916c-5aa77fd64b69","system_id":"levelo_inurba_marseille","lat":43.23788,"lon":5.3664,"is_reserved":false,"is_disabled":false,"rental_uris":{"android":"levelo://app?vid=0b65ae99-3b8a-4abb-916c-5aa77fd64b69","ios":"levelo://app?vid=0b65ae99-3b8a-4abb-916c-5aa77fd64b69"},"vehicle_type_id":"4","last_reported":1760720935,"current_range_meters":6400,"station_id":"st_d3nk18o9ro0c73en2l3g","pricing_plan_id":"cebpf4jnsgd1na2vs0mg"},{"bike_id":"65deb6db-c366-470c-9658-a049eae9e104","system_id":"levelo_inurba_marseille","lat":43.28994,"lon":5.3783,"is_reserved":false,"is_disabled":false,"rental_uris":{"android":"levelo://app?vid=65deb6db-c366-470c-9658-a049eae9e104","ios":"levelo://app?vid=65deb6db-c366-470c-9658-a049eae9e104"},"vehicle_type_id":"4","last_reported":1760720935,"current_range_meters":6400,"station_id":"ce4bh9p2rcd13ifvqed0","pricing_plan_id":"cebpf4jnsgd1na2vs0mg"},{"bike_id":"7e11b922-4418-4ad5-a762-2fe7833bf862","system_id":"levelo_inurba_marseille","lat":43.29525,"lon":5.39044,"is_reserved":false,"is_disabled":false,"rental_uris":{"android":"levelo://app?vid=7e11b922-4418-4ad5-a762-2fe7833bf862","ios":"levelo://app?vid=7e11b922-4418-4ad5-a762-2fe7833bf862"},"vehicle_type_id":"4","last_reported":1760720935,"current_range_meters":6400,"station_id":"ce4bh3p2rcd13ifvqdp0","pricing_plan_id":"cebpf4jnsgd1na2vs0mg"},{"bike_id":"1dbf619e-4fdd-4c78-ace6-04f9c53443e5","system_id":"levelo_inurba_marseille","lat":43.29025,"lon":5.38626,"is_reserved":false,"is_disabled":false,"rental_uris":{"android":"levelo://app?vid=1dbf619e-4fdd-4c78-ace6-04f9c53443e5","ios":"levelo://app?vid=1dbf619e-4fdd-4c78-ace6-04f9c53443e5"},"vehicle_type_id":"4","last_reported":1760720935,"current_range_meters":6400,"station_id":"ce4bh4p2rcd13ifvqe0g","pricing_plan_id":"cebpf4jnsgd1na2vs0mg"},{"bike_id":"ba38afd7-9fec-4d93-a2b6-13b7a1027f6c","system_id":"levelo_inurba_marseille","lat":43.29799,"lon":5.38107,"is_reserved":false,"is_disabled":false,"rental_uris":{"android":"levelo://app?vid=ba38afd7-9fec-4d93-a2b6-13b7a1027f6c","ios":"levelo://app?vid=ba38afd7-9fec-4d93-a2b6-13b7a1027f6c"},"vehicle_type_id":"4","last_reported":1760720935,"current_range_meters":6400,"station_id":"ce4bgip2rcd13ifvqbb0","pricing_plan_id":"cebpf4jnsgd1na2vs0mg"},{"bike_id":"7e444206-20cf-47e2-a819-82c6ab3d59a7","system_id":"levelo_inurba_marseille","lat":43.33707,"lon":5.40636,"is_reserved":false,"is_disabled":false,"rental_uris":{"android":"levelo://app?vid=7e444206-20cf-47e2-a819-82c6ab3d59a7","ios":"levelo://app?vid=7e444206-20cf-47e2-a819-82c6ab3d59a7"},"vehicle_type_id":"4","last_reported":1760720935,"current_range_meters":6400,"station_id":"","pricing_plan_id":"cebpf4jnsgd1na2vs0mg"},{"bike_id":"1dc3768d-0b4e-4859-817c-5a4ee299d7ad","system_id":"levelo_inurba_marseille","lat":43.297256,"lon":5.378745,"is_reserved":false,"is_disabled":false,"rental_uris":{"android":"levelo://app?vid=1dc3768d-0b4e-4859-817c-5a4ee299d7ad","ios":"levelo://app?vid=1dc3768d-0b4e-4859-817c-5a4ee299d7ad"},"vehicle_type_id":"4","last_reported":1760720935,"current_range_meters":6400,"station_id":"","pricing_plan_id":"cebpf4jnsgd1na2vs0mg"},{"bike_id":"2ff71c95-0821-4719-8634-ad07dfd422e2","system_id":"levelo_inurba_marseille","lat":43.2903,"lon":5.38634,"is_reserved":false,"is_disabled":false,"rental_uris":{"android":"levelo://app?vid=2ff71c95-0821-4719-8634-ad07dfd422e2","ios":"levelo://app?vid=2ff71c95-0821-4719-8634-ad07dfd422e2"},"vehicle_type_id":"4","last_reported":1760720935,"current_range_meters":6800,"station_id":"ce4bh4p2rcd13ifvqe0g","pricing_plan_id":"cebpf4jnsgd1na2vs0mg"},{"bike_id":"287b7d41-bdb7-4c78-ab7f-1ca9bfa6cbfe","system_id":"levelo_inurba_marseille","lat":43.26573,"lon":5.39,"is_reserved":false,"is_disabled":false,"rental_uris":{"android":"levelo://app?vid=287b7d41-bdb7-4c78-ab7f-1ca9bfa6cbfe","ios":"levelo://app?vid=287b7d41-bdb7-4c78-ab7f-1ca9bfa6cbfe"},"vehicle_type_id":"4","last_reported":1760720935,"current_range_meters":6800,"station_id":"ce4bhe12rcd13ifvqf30","pricing_plan_id":"cebpf4jnsgd1na2vs0mg"},{"bike_id":"f619c628-43f9-48ca-a0be-e6ab69c29dec","system_id":"levelo_inurba_marseille","lat":43.30965,"lon":5.37219,"is_reserved":false,"is_disabled":false,"rental_uris":{"android":"levelo://app?vid=f619c628-43f9-48ca-a0be-e6ab69c29dec","ios":"levelo://app?vid=f619c628-43f9-48ca-a0be-e6ab69c29dec"},"vehicle_type_id":"4","last_reported":1760720935,"current_range_meters":6800,"station_id":"ce4bguh2rcd13ifvqckg","pricing_plan_id":"cebpf4jnsgd1na2vs0mg"},{"bike_id":"93fcaf4b-075b-45a7-aa01-d8dbd66a2f69","system_id":"levelo_inurba_marseille","lat":43.28479,"lon":5.3592,"is_reserved":false,"is_disabled":false,"rental_uris":{"android":"levelo://app?vid=93fcaf4b-075b-45a7-aa01-d8dbd66a2f69","ios":"levelo://app?vid=93fcaf4b-075b-45a7-aa01-d8dbd66a2f69"},"vehicle_type_id":"4","last_reported":1760720935,"current_range_meters":6800,"station_id":"","pricing_plan_id":"cebpf4jnsgd1na2vs0mg"},{"bike_id":"1b8f4d94-2a63-4fc6-afe0-950019025903","system_id":"levelo_inurba_marseille","lat":43.30423,"lon":5.39746,"is_reserved":false,"is_disabled":false,"rental_uris":{"android":"levelo://app?vid=1b8f4d94-2a63-4fc6-afe0-950019025903","ios":"levelo://app?vid=1b8f4d94-2a63-4fc6-afe0-950019025903"},"vehicle_type_id":"4","last_reported":1760720935,"current_range_meters":6800,"station_id":"ce4bh092rcd13ifvqd20","pricing_plan_id":"cebpf4jnsgd1na2vs0mg"},{"bike_id":"6aed8194-f886-4e8d-8b59-176aa0c7970a","system_id":"levelo_inurba_marseille","lat":43.28624,"lon":5.35106,"is_reserved":false,"is_disabled":false,"rental_uris":{"android":"levelo://app?vid=6aed8194-f886-4e8d-8b59-176aa0c7970a","ios":"levelo://app?vid=6aed8194-f886-4e8d-8b59-176aa0c7970a"},"vehicle_type_id":"4","last_reported":1760720935,"current_range_meters":6800,"station_id":"ce4bhch2rcd13ifvqeug","pricing_plan_id":"cebpf4jnsgd1na2vs0mg"},{"bike_id":"662e034f-ec92-417c-a838-68762f3020bc","system_id":"levelo_inurba_marseille","lat":43.30479,"lon":5.36843,"is_reserved":false,"is_disabled":false,"rental_uris":{"android":"levelo://app?vid=662e034f-ec92-417c-a838-68762f3020bc","ios":"levelo://app?vid=662e034f-ec92-417c-a838-68762f3020bc"},"vehicle_type_id":"4","last_reported":1760720935,"current_range_meters":6800,"station_id":"","pricing_plan_id":"cebpf4jnsgd1na2vs0mg"},{"bike_id":"2bc78e4f-d887-4d54-81a6-3db0f4a77906","system_id":"levelo_inurba_marseille","lat":43.29006,"lon":5.35616,"is_reserved":false,"is_disabled":false,"rental_uris":{"android":"levelo://app?vid=2bc78e4f-d887-4d54-81a6-3db0f4a77906","ios":"levelo://app?vid=2bc78e4f-d887-4d54-81a6-3db0f4a77906"},"vehicle_type_id":"4","last_reported":1760720935,"current_range_meters":7200,"station_id":"ce4bhb92rcd13ifvqen0","pricing_plan_id":"cebpf4jnsgd1na2vs0mg"},{"bike_id":"c871ca87-9ea0-4c82-8f96-1d74fe568265","system_id":"levelo_inurba_marseille","lat":43.28559,"lon":5.41369,"is_reserved":false,"is_disabled":false,"rental_uris":{"android":"levelo://app?vid=c871ca87-9ea0-4c82-8f96-1d74fe568265","ios":"levelo://app?vid=c871ca87-9ea0-4c82-8f96-1d74fe568265"},"vehicle_type_id":"4","last_reported":1760720935,"current_range_meters":7200,"station_id":"","pricing_plan_id":"cebpf4jnsgd1na2vs0mg"},{"bike_id":"c57cd582-7cf8-4ade-82b8-b7450624eacc","system_id":"levelo_inurba_marseille","lat":43.30426,"lon":5.3975,"is_reserved":false,"is_disabled":false,"rental_uris":{"android":"levelo://app?vid=c57cd582-7cf8-4ade-82b8-b7450624eacc","ios":"levelo://app?vid=c57cd582-7cf8-4ade-82b8-b7450624eacc"},"vehicle_type_id":"4","last_reported":1760720935,"current_range_meters":7200,"station_id":"ce4bh092rcd13ifvqd20","pricing_plan_id":"cebpf4jnsgd1na2vs0mg"},{"bike_id":"43f321fe-e2c7-4f95-867d-2bdb7d494d80","system_id":"levelo_inurba_marseille","lat":43.26575,"lon":5.39004,"is_reserved":false,"is_disabled":false,"rental_uris":{"android":"levelo://app?vid=43f321fe-e2c7-4f95-867d-2bdb7d494d80","ios":"levelo://app?vid=43f321fe-e2c7-4f95-867d-2bdb7d494d80"},"vehicle_type_id":"4","last_reported":1760720935,"current_range_meters":7200,"station_id":"ce4bhe12rcd13ifvqf30","pricing_plan_id":"cebpf4jnsgd1na2vs0mg"},{"bike_id":"9f64461e-092a-4858-82c1-d638c85979f6","system_id":"levelo_inurba_marseille","lat":43.27072,"lon":5.40249,"is_reserved":false,"is_disabled":false,"rental_uris":{"android":"levelo://app?vid=9f64461e-092a-4858-82c1-d638c85979f6","ios":"levelo://app?vid=9f64461e-092a-4858-82c1-d638c85979f6"},"vehicle_type_id":"4","last_reported":1760720935,"current_range_meters":8000,"station_id":"ce4bhk92rcd13ifvqgc0","pricing_plan_id":"cebpf4jnsgd1na2vs0mg"},{"bike_id":"a9a4c04a-57c8-4c49-8f17-fcac3afce468","system_id":"levelo_inurba_marseille","lat":43.320757,"lon":5.414515,"is_reserved":false,"is_disabled":false,"rental_uris":{"android":"levelo://app?vid=a9a4c04a-57c8-4c49-8f17-fcac3afce468","ios":"levelo://app?vid=a9a4c04a-57c8-4c49-8f17-fcac3afce468"},"vehicle_type_id":"4","last_reported":1760720935,"current_range_meters":8000,"station_id":"ce4bhq92rcd13ifvqhkg","pricing_plan_id":"cebpf4jnsgd1na2vs0mg"},{"bike_id":"4ef98754-335b-4d91-ace3-03a1fe84ef38","system_id":"levelo_inurba_marseille","lat":43.302551,"lon":5.40061,"is_reserved":false,"is_disabled":false,"rental_uris":{"android":"levelo://app?vid=4ef98754-335b-4d91-ace3-03a1fe84ef38","ios":"levelo://app?vid=4ef98754-335b-4d91-ace3-03a1fe84ef38"},"vehicle_type_id":"4","last_reported":1760720935,"current_range_meters":8000,"station_id":"ce4bgvh2rcd13ifvqcs0","pricing_plan_id":"cebpf4jnsgd1na2vs0mg"},{"bike_id":"a87e59d0-85ba-4fa4-a853-bd5d970beee9","system_id":"levelo_inurba_marseille","lat":43.309562,"lon":5.390454,"is_reserved":false,"is_disabled":true,"rental_uris":{"android":"levelo://app?vid=a87e59d0-85ba-4fa4-a853-bd5d970beee9","ios":"levelo://app?vid=a87e59d0-85ba-4fa4-a853-bd5d970beee9"},"vehicle_type_id":"4","last_reported":1760720935,"current_range_meters":8000,"station_id":"ce4bgup2rcd13ifvqco0","pricing_plan_id":"cebpf4jnsgd1na2vs0mg"},{"bike_id":"69529aab-cd7d-4adf-b8cd-38d28cd23ece","system_id":"levelo_inurba_marseille","lat":43.2781,"lon":5.40719,"is_reserved":false,"is_disabled":false,"rental_uris":{"android":"levelo://app?vid=69529aab-cd7d-4adf-b8cd-38d28cd23ece","ios":"levelo://app?vid=69529aab-cd7d-4adf-b8cd-38d28cd23ece"},"vehicle_type_id":"4","last_reported":1760720935,"current_range_meters":8000,"station_id":"ce4bhnh2rcd13ifvqgtg","pricing_plan_id":"cebpf4jnsgd1na2vs0mg"},{"bike_id":"37f34ef9-5cd3-453c-b881-464c3523c9e0","system_id":"levelo_inurba_marseille","lat":43.29531,"lon":5.38542,"is_reserved":false,"is_disabled":false,"rental_uris":{"android":"levelo://app?vid=37f34ef9-5cd3-453c-b881-464c3523c9e0","ios":"levelo://app?vid=37f34ef9-5cd3-453c-b881-464c3523c9e0"},"vehicle_type_id":"4","last_reported":1760720935,"current_range_meters":8000,"station_id":"ce4bgih2rcd13ifvqba0","pricing_plan_id":"cebpf4jnsgd1na2vs0mg"},{"bike_id":"47b6a661-48b8-461f-9827-f48295e67bbf","system_id":"levelo_inurba_marseille","lat":43.263087,"lon":5.398304,"is_reserved":false,"is_disabled":false,"rental_uris":{"android":"levelo://app?vid=47b6a661-48b8-461f-9827-f48295e67bbf","ios":"levelo://app?vid=47b6a661-48b8-461f-9827-f48295e67bbf"},"vehicle_type_id":"4","last_reported":1760720935,"current_range_meters":8000,"station_id":"","pricing_plan_id":"cebpf4jnsgd1na2vs0mg"},{"bike_id":"8dbcd6dc-d007-4c06-b3b6-d3ab3d029a41","system_id":"levelo_inurba_marseille","lat":43.31539,"lon":5.38043,"is_reserved":false,"is_disabled":false,"rental_uris":{"android":"levelo://app?vid=8dbcd6dc-d007-4c06-b3b6-d3ab3d029a41","ios":"levelo://app?vid=8dbcd6dc-d007-4c06-b3b6-d3ab3d029a41"},"vehicle_type_id":"4","last_reported":1760720935,"current_range_meters":8000,"station_id":"ce4bhsp2rcd13ifvqi50","pricing_plan_id":"cebpf4jnsgd1na2vs0mg"},{"bike_id":"c50bd93b-0540-41c2-9974-3a7cef3480c9","system_id":"levelo_inurba_marseille","lat":43.26936,"lon":5.4025,"is_reserved":false,"is_disabled":false,"rental_uris":{"android":"levelo://app?vid=c50bd93b-0540-41c2-9974-3a7cef3480c9","ios":"levelo://app?vid=c50bd93b-0540-41c2-9974-3a7cef3480c9"},"vehicle_type_id":"4","last_reported":1760720935,"current_range_meters":8000,"station_id":"cjm6bp8fraef2m0cb0m0","pricing_plan_id":"cebpf4jnsgd1na2vs0mg"},{"bike_id":"54b3df42-ea50-46bf-a331-601d1bca326f","system_id":"levelo_inurba_marseille","lat":43.308917,"lon":5.396598,"is_reserved":false,"is_disabled":false,"rental_uris":{"android":"levelo://app?vid=54b3df42-ea50-46bf-a331-601d1bca326f","ios":"levelo://app?vid=54b3df42-ea50-46bf-a331-601d1bca326f"},"vehicle_type_id":"4","last_reported":1760720935,"current_range_meters":8000,"station_id":"ce4bh012rcd13ifvqcv0","pricing_plan_id":"cebpf4jnsgd1na2vs0mg"},{"bike_id":"c51b123e-fb39-49e0-b507-c8ad9e4176fe","system_id":"levelo_inurba_marseille","lat":43.2962,"lon":5.37166,"is_reserved":false,"is_disabled":false,"rental_uris":{"android":"levelo://app?vid=c51b123e-fb39-49e0-b507-c8ad9e4176fe","ios":"levelo://app?vid=c51b123e-fb39-49e0-b507-c8ad9e4176fe"},"vehicle_type_id":"4","last_reported":1760720935,"current_range_meters":8000,"station_id":"ce4bgnh2rcd13ifvqc0g","pricing_plan_id":"cebpf4jnsgd1na2vs0mg"},{"bike_id":"540d154b-93bd-46fb-b168-78d7619c0198","system_id":"levelo_inurba_marseille","lat":43.292633,"lon":5.384434,"is_reserved":false,"is_disabled":false,"rental_uris":{"android":"levelo://app?vid=540d154b-93bd-46fb-b168-78d7619c0198","ios":"levelo://app?vid=540d154b-93bd-46fb-b168-78d7619c0198"},"vehicle_type_id":"4","last_reported":1760720935,"current_range_meters":8000,"station_id":"ce4bh692rcd13ifvqea0","pricing_plan_id":"cebpf4jnsgd1na2vs0mg"},{"bike_id":"fdaa2d3a-0f4f-4ec0-a2e9-44a69b324689","system_id":"levelo_inurba_marseille","lat":43.30878,"lon":5.37198,"is_reserved":false,"is_disabled":false,"rental_uris":{"android":"levelo://app?vid=fdaa2d3a-0f4f-4ec0-a2e9-44a69b324689","ios":"levelo://app?vid=fdaa2d3a-0f4f-4ec0-a2e9-44a69b324689"},"vehicle_type_id":"4","last_reported":1760720935,"current_range_meters":8000,"station_id":"ce4bguh2rcd13ifvqckg","pricing_plan_id":"cebpf4jnsgd1na2vs0mg"},{"bike_id":"c9676875-943e-4c0a-b5b9-1b1e456281a0","system_id":"levelo_inurba_marseille","lat":43.25852,"lon":5.39391,"is_reserved":false,"is_disabled":false,"rental_uris":{"android":"levelo://app?vid=c9676875-943e-4c0a-b5b9-1b1e456281a0","ios":"levelo://app?vid=c9676875-943e-4c0a-b5b9-1b1e456281a0"},"vehicle_type_id":"4","last_reported":1760720935,"current_range_meters":8000,"station_id":"ce4bhip2rcd13ifvqft0","pricing_plan_id":"cebpf4jnsgd1na2vs0mg"},{"bike_id":"77ff5519-8981-4e88-af14-0b796ebb688e","system_id":"levelo_inurba_marseille","lat":43.29268,"lon":5.38442,"is_reserved":false,"is_disabled":false,"rental_uris":{"android":"levelo://app?vid=77ff5519-8981-4e88-af14-0b796ebb688e","ios":"levelo://app?vid=77ff5519-8981-4e88-af14-0b796ebb688e"},"vehicle_type_id":"4","last_reported":1760720935,"current_range_meters":8400,"station_id":"ce4bh692rcd13ifvqea0","pricing_plan_id":"cebpf4jnsgd1na2vs0mg"},{"bike_id":"2bd7552a-2774-46a4-8a88-3ba17ec0859a","system_id":"levelo_inurba_marseille","lat":43.258237,"lon":5.394345,"is_reserved":false,"is_disabled":false,"rental_uris":{"android":"levelo://app?vid=2bd7552a-2774-46a4-8a88-3ba17ec0859a","ios":"levelo://app?vid=2bd7552a-2774-46a4-8a88-3ba17ec0859a"},"vehicle_type_id":"4","last_reported":1760720935,"current_range_meters":8400,"station_id":"","pricing_plan_id":"cebpf4jnsgd1na2vs0mg"},{"bike_id":"f61d01b0-3b8b-4be4-a60c-72961a379a05","system_id":"levelo_inurba_marseille","lat":43.28614,"lon":5.35102,"is_reserved":false,"is_disabled":false,"rental_uris":{"android":"levelo://app?vid=f61d01b0-3b8b-4be4-a60c-72961a379a05","ios":"levelo://app?vid=f61d01b0-3b8b-4be4-a60c-72961a379a05"},"vehicle_type_id":"4","last_reported":1760720935,"current_range_meters":8400,"station_id":"ce4bhch2rcd13ifvqeug","pricing_plan_id":"cebpf4jnsgd1na2vs0mg"},{"bike_id":"281d3af3-c75e-40d1-9f05-f1ce52055d6c","system_id":"levelo_inurba_marseille","lat":43.29535,"lon":5.39398,"is_reserved":false,"is_disabled":false,"rental_uris":{"android":"levelo://app?vid=281d3af3-c75e-40d1-9f05-f1ce52055d6c","ios":"levelo://app?vid=281d3af3-c75e-40d1-9f05-f1ce52055d6c"},"vehicle_type_id":"4","last_reported":1760720935,"current_range_meters":8400,"station_id":"ce4bh292rcd13ifvqdf0","pricing_plan_id":"cebpf4jnsgd1na2vs0mg"},{"bike_id":"121f55c8-5a85-4142-a96c-bf52eb873442","system_id":"levelo_inurba_marseille","lat":43.30451,"lon":5.36857,"is_reserved":false,"is_disabled":false,"rental_uris":{"android":"levelo://app?vid=121f55c8-5a85-4142-a96c-bf52eb873442","ios":"levelo://app?vid=121f55c8-5a85-4142-a96c-bf52eb873442"},"vehicle_type_id":"4","last_reported":1760720935,"current_range_meters":8400,"station_id":"","pricing_plan_id":"cebpf4jnsgd1na2vs0mg"},{"bike_id":"0670def4-b15a-4c00-8829-0cd906a61bcb","system_id":"levelo_inurba_marseille","lat":43.33758,"lon":5.37438,"is_reserved":false,"is_disabled":false,"rental_uris":{"android":"levelo://app?vid=0670def4-b15a-4c00-8829-0cd906a61bcb","ios":"levelo://app?vid=0670def4-b15a-4c00-8829-0cd906a61bcb"},"vehicle_type_id":"4","last_reported":1760720935,"current_range_meters":8400,"station_id":"","pricing_plan_id":"cebpf4jnsgd1na2vs0mg"},{"bike_id":"0b2d8df4-b2e8-4572-b8a5-c36fb78483e0","system_id":"levelo_inurba_marseille","lat":43.2293,"lon":5.35384,"is_reserved":false,"is_disabled":false,"rental_uris":{"android":"levelo://app?vid=0b2d8df4-b2e8-4572-b8a5-c36fb78483e0","ios":"levelo://app?vid=0b2d8df4-b2e8-4572-b8a5-c36fb78483e0"},"vehicle_type_id":"4","last_reported":1760720935,"current_range_meters":8400,"station_id":"cpo3532slgdg3j2ikp40","pricing_plan_id":"cebpf4jnsgd1na2vs0mg"},{"bike_id":"4e0ce948-50e4-4fb5-9306-63a7bc6d3102","system_id":"levelo_inurba_marseille","lat":43.29623,"lon":5.3773,"is_reserved":false,"is_disabled":false,"rental_uris":{"android":"levelo://app?vid=4e0ce948-50e4-4fb5-9306-63a7bc6d3102","ios":"levelo://app?vid=4e0ce948-50e4-4fb5-9306-63a7bc6d3102"},"vehicle_type_id":"4","last_reported":1760720935,"current_range_meters":8400,"station_id":"ce4bgi92rcd13ifvqb90","pricing_plan_id":"cebpf4jnsgd1na2vs0mg"},{"bike_id":"e257a5c9-b99e-4af1-ac4f-b017f1c8b418","system_id":"levelo_inurba_marseille","lat":43.33759,"lon":5.37438,"is_reserved":false,"is_disabled":false,"rental_uris":{"android":"levelo://app?vid=e257a5c9-b99e-4af1-ac4f-b017f1c8b418","ios":"levelo://app?vid=e257a5c9-b99e-4af1-ac4f-b017f1c8b418"},"vehicle_type_id":"4","last_reported":1760720935,"current_range_meters":8800,"station_id":"","pricing_plan_id":"cebpf4jnsgd1na2vs0mg"},{"bike_id":"245a030c-0c43-41f8-a4cc-088d55252b06","system_id":"levelo_inurba_marseille","lat":43.24471,"lon":5.36932,"is_reserved":false,"is_disabled":false,"rental_uris":{"android":"levelo://app?vid=245a030c-0c43-41f8-a4cc-088d55252b06","ios":"levelo://app?vid=245a030c-0c43-41f8-a4cc-088d55252b06"},"vehicle_type_id":"4","last_reported":1760720935,"current_range_meters":8800,"station_id":"","pricing_plan_id":"cebpf4jnsgd1na2vs0mg"},{"bike_id":"d6de57d7-1562-4a13-a70d-44268d2e1adf","system_id":"levelo_inurba_marseille","lat":43.25587,"lon":5.3823,"is_reserved":false,"is_disabled":false,"rental_uris":{"android":"levelo://app?vid=d6de57d7-1562-4a13-a70d-44268d2e1adf","ios":"levelo://app?vid=d6de57d7-1562-4a13-a70d-44268d2e1adf"},"vehicle_type_id":"4","last_reported":1760720935,"current_range_meters":8800,"station_id":"ce4bhih2rcd13ifvqfs0","pricing_plan_id":"cebpf4jnsgd1na2vs0mg"},{"bike_id":"26416dae-68db-465d-ba83-72f605f27523","system_id":"levelo_inurba_marseille","lat":43.337444,"lon":5.374475,"is_reserved":false,"is_disabled":false,"rental_uris":{"android":"levelo://app?vid=26416dae-68db-465d-ba83-72f605f27523","ios":"levelo://app?vid=26416dae-68db-465d-ba83-72f605f27523"},"vehicle_type_id":"4","last_reported":1760720935,"current_range_meters":8800,"station_id":"","pricing_plan_id":"cebpf4jnsgd1na2vs0mg"},{"bike_id":"6a490869-cf5f-44b8-ac08-8f50cf083710","system_id":"levelo_inurba_marseille","lat":43.26227,"lon":5.40451,"is_reserved":false,"is_disabled":false,"rental_uris":{"android":"levelo://app?vid=6a490869-cf5f-44b8-ac08-8f50cf083710","ios":"levelo://app?vid=6a490869-cf5f-44b8-ac08-8f50cf083710"},"vehicle_type_id":"4","last_reported":1760720935,"current_range_meters":8800,"station_id":"ce4bhmh2rcd13ifvqgmg","pricing_plan_id":"cebpf4jnsgd1na2vs0mg"},{"bike_id":"e0b034a2-1f83-469c-8a9e-db4912c83d95","system_id":"levelo_inurba_marseille","lat":43.29709,"lon":5.36601,"is_reserved":false,"is_disabled":false,"rental_uris":{"android":"levelo://app?vid=e0b034a2-1f83-469c-8a9e-db4912c83d95","ios":"levelo://app?vid=e0b034a2-1f83-469c-8a9e-db4912c83d95"},"vehicle_type_id":"4","last_reported":1760720935,"current_range_meters":8800,"station_id":"ce4bgn12rcd13ifvqbt0","pricing_plan_id":"cebpf4jnsgd1na2vs0mg"},{"bike_id":"7e4986fd-9ce9-49a0-96c9-febadee4d9d7","system_id":"levelo_inurba_marseille","lat":43.28725,"lon":5.36091,"is_reserved":false,"is_disabled":false,"rental_uris":{"android":"levelo://app?vid=7e4986fd-9ce9-49a0-96c9-febadee4d9d7","ios":"levelo://app?vid=7e4986fd-9ce9-49a0-96c9-febadee4d9d7"},"vehicle_type_id":"4","last_reported":1760720935,"current_range_meters":8800,"station_id":"cki0cbj6b192h4jlfktg","pricing_plan_id":"cebpf4jnsgd1na2vs0mg"},{"bike_id":"69653f34-935e-40ef-8dcb-9cd0486fe72d","system_id":"levelo_inurba_marseille","lat":43.29784,"lon":5.3935,"is_reserved":false,"is_disabled":false,"rental_uris":{"android":"levelo://app?vid=69653f34-935e-40ef-8dcb-9cd0486fe72d","ios":"levelo://app?vid=69653f34-935e-40ef-8dcb-9cd0486fe72d"},"vehicle_type_id":"4","last_reported":1760720935,"current_range_meters":8800,"station_id":"chh1huq6cuj3fo74tm60","pricing_plan_id":"cebpf4jnsgd1na2vs0mg"},{"bike_id":"0dd198fa-844b-4e4d-aa3b-ae4fee8f0b33","system_id":"levelo_inurba_marseille","lat":43.28715,"lon":5.37388,"is_reserved":false,"is_disabled":false,"rental_uris":{"android":"levelo://app?vid=0dd198fa-844b-4e4d-aa3b-ae4fee8f0b33","ios":"levelo://app?vid=0dd198fa-844b-4e4d-aa3b-ae4fee8f0b33"},"vehicle_type_id":"4","last_reported":1760720935,"current_range_meters":8800,"station_id":"ce4bh3p2rcd13ifvqdq0","pricing_plan_id":"cebpf4jnsgd1na2vs0mg"},{"bike_id":"afd05040-3e6f-4eae-bad1-eebfab272afe","system_id":"levelo_inurba_marseille","lat":43.29701,"lon":5.36609,"is_reserved":false,"is_disabled":false,"rental_uris":{"android":"levelo://app?vid=afd05040-3e6f-4eae-bad1-eebfab272afe","ios":"levelo://app?vid=afd05040-3e6f-4eae-bad1-eebfab272afe"},"vehicle_type_id":"4","last_reported":1760720935,"current_range_meters":9200,"station_id":"ce4bgn12rcd13ifvqbt0","pricing_plan_id":"cebpf4jnsgd1na2vs0mg"},{"bike_id":"0364f1fb-66db-4d58-a480-4c8bd0a576ab","system_id":"levelo_inurba_marseille","lat":43.301544,"lon":5.380468,"is_reserved":false,"is_disabled":false,"rental_uris":{"android":"levelo://app?vid=0364f1fb-66db-4d58-a480-4c8bd0a576ab","ios":"levelo://app?vid=0364f1fb-66db-4d58-a480-4c8bd0a576ab"},"vehicle_type_id":"4","last_reported":1760720935,"current_range_meters":9200,"station_id":"","pricing_plan_id":"cebpf4jnsgd1na2vs0mg"},{"bike_id":"b97d1d03-edf1-4746-9cd0-21ce440a2beb","system_id":"levelo_inurba_marseille","lat":43.270535,"lon":5.387894,"is_reserved":false,"is_disabled":false,"rental_uris":{"android":"levelo://app?vid=b97d1d03-edf1-4746-9cd0-21ce440a2beb","ios":"levelo://app?vid=b97d1d03-edf1-4746-9cd0-21ce440a2beb"},"vehicle_type_id":"4","last_reported":1760720935,"current_range_meters":9200,"station_id":"ce4bhh92rcd13ifvqfh0","pricing_plan_id":"cebpf4jnsgd1na2vs0mg"},{"bike_id":"0a1ca430-2cd2-41e6-bf93-3073dbda113c","system_id":"levelo_inurba_marseille","lat":43.284426,"lon":5.392092,"is_reserved":false,"is_disabled":false,"rental_uris":{"android":"levelo://app?vid=0a1ca430-2cd2-41e6-bf93-3073dbda113c","ios":"levelo://app?vid=0a1ca430-2cd2-41e6-bf93-3073dbda113c"},"vehicle_type_id":"4","last_reported":1760720935,"current_range_meters":9200,"station_id":"ce4bhoh2rcd13ifvqh5g","pricing_plan_id":"cebpf4jnsgd1na2vs0mg"},{"bike_id":"ee54c654-6da7-4334-8d6b-26f4a5a83976","system_id":"levelo_inurba_marseille","lat":43.292287,"lon":5.360666,"is_reserved":false,"is_disabled":false,"rental_uris":{"android":"levelo://app?vid=ee54c654-6da7-4334-8d6b-26f4a5a83976","ios":"levelo://app?vid=ee54c654-6da7-4334-8d6b-26f4a5a83976"},"vehicle_type_id":"4","last_reported":1760720935,"current_range_meters":9200,"station_id":"ce4bhbh2rcd13ifvqeqg","pricing_plan_id":"cebpf4jnsgd1na2vs0mg"},{"bike_id":"dba8d22e-c645-4fb4-88a7-de6e84f9bb1b","system_id":"levelo_inurba_marseille","lat":43.31113,"lon":5.37774,"is_reserved":false,"is_disabled":false,"rental_uris":{"android":"levelo://app?vid=dba8d22e-c645-4fb4-88a7-de6e84f9bb1b","ios":"levelo://app?vid=dba8d22e-c645-4fb4-88a7-de6e84f9bb1b"},"vehicle_type_id":"4","last_reported":1760720935,"current_range_meters":9200,"station_id":"ce4bgt92rcd13ifvqcg0","pricing_plan_id":"cebpf4jnsgd1na2vs0mg"},{"bike_id":"a3bc68aa-117d-4f11-a117-eea1e2574a4b","system_id":"levelo_inurba_marseille","lat":43.28866,"lon":5.35842,"is_reserved":false,"is_disabled":false,"rental_uris":{"android":"levelo://app?vid=a3bc68aa-117d-4f11-a117-eea1e2574a4b","ios":"levelo://app?vid=a3bc68aa-117d-4f11-a117-eea1e2574a4b"},"vehicle_type_id":"4","last_reported":1760720935,"current_range_meters":9200,"station_id":"ce4bhb12rcd13ifvqem0","pricing_plan_id":"cebpf4jnsgd1na2vs0mg"},{"bike_id":"9dd1d8fe-c2a8-4a70-a175-61f5f9fe7fd2","system_id":"levelo_inurba_marseille","lat":43.321798,"lon":5.386586,"is_reserved":false,"is_disabled":false,"rental_uris":{"android":"levelo://app?vid=9dd1d8fe-c2a8-4a70-a175-61f5f9fe7fd2","ios":"levelo://app?vid=9dd1d8fe-c2a8-4a70-a175-61f5f9fe7fd2"},"vehicle_type_id":"4","last_reported":1760720935,"current_range_meters":9600,"station_id":"","pricing_plan_id":"cebpf4jnsgd1na2vs0mg"},{"bike_id":"2a5498ee-d604-476f-a7c3-7260eebaa7f3","system_id":"levelo_inurba_marseille","lat":43.29571,"lon":5.37426,"is_reserved":false,"is_disabled":false,"rental_uris":{"android":"levelo://app?vid=2a5498ee-d604-476f-a7c3-7260eebaa7f3","ios":"levelo://app?vid=2a5498ee-d604-476f-a7c3-7260eebaa7f3"},"vehicle_type_id":"4","last_reported":1760720935,"current_range_meters":9600,"station_id":"","pricing_plan_id":"cebpf4jnsgd1na2vs0mg"},{"bike_id":"2c8d8491-37a1-4a4e-a42d-e2cfd44f58d6","system_id":"levelo_inurba_marseille","lat":43.28542,"lon":5.44098,"is_reserved":false,"is_disabled":false,"rental_uris":{"android":"levelo://app?vid=2c8d8491-37a1-4a4e-a42d-e2cfd44f58d6","ios":"levelo://app?vid=2c8d8491-37a1-4a4e-a42d-e2cfd44f58d6"},"vehicle_type_id":"4","last_reported":1760720935,"current_range_meters":9600,"station_id":"st_d3j3df2ikq2c7380ej80","pricing_plan_id":"cebpf4jnsgd1na2vs0mg"},{"bike_id":"957b09b9-7c41-43fe-a4d8-2488488363be","system_id":"levelo_inurba_marseille","lat":43.2843,"lon":5.35,"is_reserved":false,"is_disabled":false,"rental_uris":{"android":"levelo://app?vid=957b09b9-7c41-43fe-a4d8-2488488363be","ios":"levelo://app?vid=957b09b9-7c41-43fe-a4d8-2488488363be"},"vehicle_type_id":"4","last_reported":1760720935,"current_range_meters":9600,"station_id":"ce4bhbh2rcd13ifvqepg","pricing_plan_id":"cebpf4jnsgd1na2vs0mg"},{"bike_id":"edc2b540-f4d1-424e-9002-80823ed0b6b2","system_id":"levelo_inurba_marseille","lat":43.283914,"lon":5.3706,"is_reserved":false,"is_disabled":false,"rental_uris":{"android":"levelo://app?vid=edc2b540-f4d1-424e-9002-80823ed0b6b2","ios":"levelo://app?vid=edc2b540-f4d1-424e-9002-80823ed0b6b2"},"vehicle_type_id":"4","last_reported":1760720935,"current_range_meters":9600,"station_id":"","pricing_plan_id":"cebpf4jnsgd1na2vs0mg"},{"bike_id":"24d82d64-1145-442f-a9f5-19238b0b39ef","system_id":"levelo_inurba_marseille","lat":43.272133,"lon":5.391866,"is_reserved":false,"is_disabled":false,"rental_uris":{"android":"levelo://app?vid=24d82d64-1145-442f-a9f5-19238b0b39ef","ios":"levelo://app?vid=24d82d64-1145-442f-a9f5-19238b0b39ef"},"vehicle_type_id":"4","last_reported":1760720935,"current_range_meters":10000,"station_id":"","pricing_plan_id":"cebpf4jnsgd1na2vs0mg"},{"bike_id":"555a163c-5fd3-46e4-a05d-0385b3eac962","system_id":"levelo_inurba_marseille","lat":43.30425,"lon":5.39752,"is_reserved":false,"is_disabled":false,"rental_uris":{"android":"levelo://app?vid=555a163c-5fd3-46e4-a05d-0385b3eac962","ios":"levelo://app?vid=555a163c-5fd3-46e4-a05d-0385b3eac962"},"vehicle_type_id":"4","last_reported":1760720935,"current_range_meters":10000,"station_id":"ce4bh092rcd13ifvqd20","pricing_plan_id":"cebpf4jnsgd1na2vs0mg"},{"bike_id":"416f580b-31c7-4ade-8604-dbd86eb8155f","system_id":"levelo_inurba_marseille","lat":43.28169,"lon":5.4212,"is_reserved":false,"is_disabled":false,"rental_uris":{"android":"levelo://app?vid=416f580b-31c7-4ade-8604-dbd86eb8155f","ios":"levelo://app?vid=416f580b-31c7-4ade-8604-dbd86eb8155f"},"vehicle_type_id":"4","last_reported":1760720935,"current_range_meters":10000,"station_id":"","pricing_plan_id":"cebpf4jnsgd1na2vs0mg"},{"bike_id":"11a2a43d-5e06-43b6-86d3-e67c08469dc1","system_id":"levelo_inurba_marseille","lat":43.2926,"lon":5.38444,"is_reserved":false,"is_disabled":false,"rental_uris":{"android":"levelo://app?vid=11a2a43d-5e06-43b6-86d3-e67c08469dc1","ios":"levelo://app?vid=11a2a43d-5e06-43b6-86d3-e67c08469dc1"},"vehicle_type_id":"4","last_reported":1760720935,"current_range_meters":10000,"station_id":"ce4bh692rcd13ifvqea0","pricing_plan_id":"cebpf4jnsgd1na2vs0mg"},{"bike_id":"78ae0891-1557-4963-aa88-8c523d934c39","system_id":"levelo_inurba_marseille","lat":43.27948,"lon":5.41044,"is_reserved":false,"is_disabled":false,"rental_uris":{"android":"levelo://app?vid=78ae0891-1557-4963-aa88-8c523d934c39","ios":"levelo://app?vid=78ae0891-1557-4963-aa88-8c523d934c39"},"vehicle_type_id":"4","last_reported":1760720935,"current_range_meters":10000,"station_id":"ce4bhnp2rcd13ifvqh0g","pricing_plan_id":"cebpf4jnsgd1na2vs0mg"},{"bike_id":"bf030f2a-280c-42f5-b052-3df7b70ad7fb","system_id":"levelo_inurba_marseille","lat":43.30531,"lon":5.3672,"is_reserved":false,"is_disabled":false,"rental_uris":{"android":"levelo://app?vid=bf030f2a-280c-42f5-b052-3df7b70ad7fb","ios":"levelo://app?vid=bf030f2a-280c-42f5-b052-3df7b70ad7fb"},"vehicle_type_id":"4","last_reported":1760720935,"current_range_meters":10800,"station_id":"ce4bgrp2rcd13ifvqc9g","pricing_plan_id":"cebpf4jnsgd1na2vs0mg"},{"bike_id":"489a9937-29f4-41ff-a4af-8cacb51230c8","system_id":"levelo_inurba_marseille","lat":43.29702,"lon":5.38149,"is_reserved":false,"is_disabled":false,"rental_uris":{"android":"levelo://app?vid=489a9937-29f4-41ff-a4af-8cacb51230c8","ios":"levelo://app?vid=489a9937-29f4-41ff-a4af-8cacb51230c8"},"vehicle_type_id":"4","last_reported":1760720935,"current_range_meters":10800,"station_id":"","pricing_plan_id":"cebpf4jnsgd1na2vs0mg"},{"bike_id":"5d5e1f56-1ef8-4ca7-a1bc-f5edb6b17a22","system_id":"levelo_inurba_marseille","lat":43.29713,"lon":5.36613,"is_reserved":false,"is_disabled":false,"rental_uris":{"android":"levelo://app?vid=5d5e1f56-1ef8-4ca7-a1bc-f5edb6b17a22","ios":"levelo://app?vid=5d5e1f56-1ef8-4ca7-a1bc-f5edb6b17a22"},"vehicle_type_id":"4","last_reported":1760720935,"current_range_meters":10800,"station_id":"ce4bgn12rcd13ifvqbt0","pricing_plan_id":"cebpf4jnsgd1na2vs0mg"},{"bike_id":"b4052df1-bc66-4d53-8b02-77bc5fa28c73","system_id":"levelo_inurba_marseille","lat":43.29882,"lon":5.39741,"is_reserved":false,"is_disabled":false,"rental_uris":{"android":"levelo://app?vid=b4052df1-bc66-4d53-8b02-77bc5fa28c73","ios":"levelo://app?vid=b4052df1-bc66-4d53-8b02-77bc5fa28c73"},"vehicle_type_id":"4","last_reported":1760720935,"current_range_meters":10800,"station_id":"ce4bh0h2rcd13ifvqd50","pricing_plan_id":"cebpf4jnsgd1na2vs0mg"},{"bike_id":"e4601257-9987-4e30-b78f-04ac07240b86","system_id":"levelo_inurba_marseille","lat":43.28707,"lon":5.37398,"is_reserved":false,"is_disabled":true,"rental_uris":{"android":"levelo://app?vid=e4601257-9987-4e30-b78f-04ac07240b86","ios":"levelo://app?vid=e4601257-9987-4e30-b78f-04ac07240b86"},"vehicle_type_id":"4","last_reported":1760720935,"current_range_meters":10800,"station_id":"ce4bh3p2rcd13ifvqdq0","pricing_plan_id":"cebpf4jnsgd1na2vs0mg"},{"bike_id":"34499578-aa76-4e2f-a7ff-dee0cb100571","system_id":"levelo_inurba_marseille","lat":43.25322,"lon":5.42163,"is_reserved":false,"is_disabled":false,"rental_uris":{"android":"levelo://app?vid=34499578-aa76-4e2f-a7ff-dee0cb100571","ios":"levelo://app?vid=34499578-aa76-4e2f-a7ff-dee0cb100571"},"vehicle_type_id":"4","last_reported":1760720935,"current_range_meters":10800,"station_id":"st_d2m65c5bi1j21697t3ng","pricing_plan_id":"cebpf4jnsgd1na2vs0mg"},{"bike_id":"b9802e93-e6af-4187-9b0b-01d121f8295c","system_id":"levelo_inurba_marseille","lat":43.29077,"lon":5.37187,"is_reserved":false,"is_disabled":false,"rental_uris":{"android":"levelo://app?vid=b9802e93-e6af-4187-9b0b-01d121f8295c","ios":"levelo://app?vid=b9802e93-e6af-4187-9b0b-01d121f8295c"},"vehicle_type_id":"4","last_reported":1760720935,"current_range_meters":10800,"station_id":"ce4bh5p2rcd13ifvqe4g","pricing_plan_id":"cebpf4jnsgd1na2vs0mg"},{"bike_id":"e5f6f4c7-08a1-4aea-b4b7-2e5c30144efb","system_id":"levelo_inurba_marseille","lat":43.30204,"lon":5.39462,"is_reserved":false,"is_disabled":false,"rental_uris":{"android":"levelo://app?vid=e5f6f4c7-08a1-4aea-b4b7-2e5c30144efb","ios":"levelo://app?vid=e5f6f4c7-08a1-4aea-b4b7-2e5c30144efb"},"vehicle_type_id":"4","last_reported":1760720935,"current_range_meters":11200,"station_id":"ce4bh0p2rcd13ifvqd70","pricing_plan_id":"cebpf4jnsgd1na2vs0mg"},{"bike_id":"71baf656-38e9-4260-b446-91a23b9f98d1","system_id":"levelo_inurba_marseille","lat":43.284607,"lon":5.358963,"is_reserved":false,"is_disabled":false,"rental_uris":{"android":"levelo://app?vid=71baf656-38e9-4260-b446-91a23b9f98d1","ios":"levelo://app?vid=71baf656-38e9-4260-b446-91a23b9f98d1"},"vehicle_type_id":"4","last_reported":1760720935,"current_range_meters":11200,"station_id":"ce4bhah2rcd13ifvqei0","pricing_plan_id":"cebpf4jnsgd1na2vs0mg"},{"bike_id":"2f2c0468-b6ae-47a4-94b1-9e8129af33c0","system_id":"levelo_inurba_marseille","lat":43.27172,"lon":5.40994,"is_reserved":false,"is_disabled":false,"rental_uris":{"android":"levelo://app?vid=2f2c0468-b6ae-47a4-94b1-9e8129af33c0","ios":"levelo://app?vid=2f2c0468-b6ae-47a4-94b1-9e8129af33c0"},"vehicle_type_id":"4","last_reported":1760720935,"current_range_meters":11200,"station_id":"ce4bhl12rcd13ifvqgf0","pricing_plan_id":"cebpf4jnsgd1na2vs0mg"},{"bike_id":"2fad9211-819b-4892-bf52-014fbefdb6cb","system_id":"levelo_inurba_marseille","lat":43.301519,"lon":5.373953,"is_reserved":false,"is_disabled":false,"rental_uris":{"android":"levelo://app?vid=2fad9211-819b-4892-bf52-014fbefdb6cb","ios":"levelo://app?vid=2fad9211-819b-4892-bf52-014fbefdb6cb"},"vehicle_type_id":"4","last_reported":1760720935,"current_range_meters":11200,"station_id":"ce4bgs92rcd13ifvqcc0","pricing_plan_id":"cebpf4jnsgd1na2vs0mg"},{"bike_id":"5fe6e873-dba1-40dd-bc65-77de126f2710","system_id":"levelo_inurba_marseille","lat":43.332893,"lon":5.395256,"is_reserved":false,"is_disabled":false,"rental_uris":{"android":"levelo://app?vid=5fe6e873-dba1-40dd-bc65-77de126f2710","ios":"levelo://app?vid=5fe6e873-dba1-40dd-bc65-77de126f2710"},"vehicle_type_id":"4","last_reported":1760720935,"current_range_meters":11200,"station_id":"","pricing_plan_id":"cebpf4jnsgd1na2vs0mg"},{"bike_id":"3b2313e9-3460-470f-ab03-b6aeafdc299a","system_id":"levelo_inurba_marseille","lat":43.27999,"lon":5.4001,"is_reserved":false,"is_disabled":false,"rental_uris":{"android":"levelo://app?vid=3b2313e9-3460-470f-ab03-b6aeafdc299a","ios":"levelo://app?vid=3b2313e9-3460-470f-ab03-b6aeafdc299a"},"vehicle_type_id":"4","last_reported":1760720935,"current_range_meters":11200,"station_id":"ce4bho92rcd13ifvqh4g","pricing_plan_id":"cebpf4jnsgd1na2vs0mg"},{"bike_id":"8a7c6749-200e-4d69-848d-213d5bc7d365","system_id":"levelo_inurba_marseille","lat":43.26956,"lon":5.38632,"is_reserved":false,"is_disabled":false,"rental_uris":{"android":"levelo://app?vid=8a7c6749-200e-4d69-848d-213d5bc7d365","ios":"levelo://app?vid=8a7c6749-200e-4d69-848d-213d5bc7d365"},"vehicle_type_id":"4","last_reported":1760720935,"current_range_meters":11600,"station_id":"ce4bhh92rcd13ifvqfh0","pricing_plan_id":"cebpf4jnsgd1na2vs0mg"},{"bike_id":"51c19982-4c6b-4464-99c9-f8ea4d54131f","system_id":"levelo_inurba_marseille","lat":43.25334,"lon":5.42173,"is_reserved":false,"is_disabled":false,"rental_uris":{"android":"levelo://app?vid=51c19982-4c6b-4464-99c9-f8ea4d54131f","ios":"levelo://app?vid=51c19982-4c6b-4464-99c9-f8ea4d54131f"},"vehicle_type_id":"4","last_reported":1760720935,"current_range_meters":12000,"station_id":"st_d2m65c5bi1j21697t3ng","pricing_plan_id":"cebpf4jnsgd1na2vs0mg"},{"bike_id":"424f4935-98df-4229-88c5-d8f836201cec","system_id":"levelo_inurba_marseille","lat":43.23191,"lon":5.3556,"is_reserved":false,"is_disabled":false,"rental_uris":{"android":"levelo://app?vid=424f4935-98df-4229-88c5-d8f836201cec","ios":"levelo://app?vid=424f4935-98df-4229-88c5-d8f836201cec"},"vehicle_type_id":"4","last_reported":1760720935,"current_range_meters":12000,"station_id":"ce4bhu92rcd13ifvqi70","pricing_plan_id":"cebpf4jnsgd1na2vs0mg"},{"bike_id":"0f9c20ae-f80b-4bc4-a84d-e94070c41d3b","system_id":"levelo_inurba_marseille","lat":43.2256,"lon":5.41639,"is_reserved":false,"is_disabled":false,"rental_uris":{"android":"levelo://app?vid=0f9c20ae-f80b-4bc4-a84d-e94070c41d3b","ios":"levelo://app?vid=0f9c20ae-f80b-4bc4-a84d-e94070c41d3b"},"vehicle_type_id":"4","last_reported":1760720935,"current_range_meters":12000,"station_id":"st_d2o4gvlbi1j2169b742g","pricing_plan_id":"cebpf4jnsgd1na2vs0mg"},{"bike_id":"fbaaa139-cadb-4e41-936b-6284c3f25af0","system_id":"levelo_inurba_marseille","lat":43.27949,"lon":5.41055,"is_reserved":false,"is_disabled":false,"rental_uris":{"android":"levelo://app?vid=fbaaa139-cadb-4e41-936b-6284c3f25af0","ios":"levelo://app?vid=fbaaa139-cadb-4e41-936b-6284c3f25af0"},"vehicle_type_id":"4","last_reported":1760720935,"current_range_meters":12000,"station_id":"ce4bhnp2rcd13ifvqh0g","pricing_plan_id":"cebpf4jnsgd1na2vs0mg"},{"bike_id":"a817b630-bbed-48d3-97f4-9bd571b9ebab","system_id":"levelo_inurba_marseille","lat":43.29995,"lon":5.37347,"is_reserved":false,"is_disabled":false,"rental_uris":{"android":"levelo://app?vid=a817b630-bbed-48d3-97f4-9bd571b9ebab","ios":"levelo://app?vid=a817b630-bbed-48d3-97f4-9bd571b9ebab"},"vehicle_type_id":"4","last_reported":1760720935,"current_range_meters":12000,"station_id":"","pricing_plan_id":"cebpf4jnsgd1na2vs0mg"},{"bike_id":"aa97a038-de4a-498d-a4b4-8ec99e18be3a","system_id":"levelo_inurba_marseille","lat":43.308899,"lon":5.396586,"is_reserved":false,"is_disabled":true,"rental_uris":{"android":"levelo://app?vid=aa97a038-de4a-498d-a4b4-8ec99e18be3a","ios":"levelo://app?vid=aa97a038-de4a-498d-a4b4-8ec99e18be3a"},"vehicle_type_id":"4","last_reported":1760720935,"current_range_meters":12000,"station_id":"ce4bh012rcd13ifvqcv0","pricing_plan_id":"cebpf4jnsgd1na2vs0mg"},{"bike_id":"dbf248bd-0259-4f5b-b82c-7a8ca2e00bc3","system_id":"levelo_inurba_marseille","lat":43.22932,"lon":5.35382,"is_reserved":false,"is_disabled":false,"rental_uris":{"android":"levelo://app?vid=dbf248bd-0259-4f5b-b82c-7a8ca2e00bc3","ios":"levelo://app?vid=dbf248bd-0259-4f5b-b82c-7a8ca2e00bc3"},"vehicle_type_id":"4","last_reported":1760720935,"current_range_meters":12000,"station_id":"cpo3532slgdg3j2ikp40","pricing_plan_id":"cebpf4jnsgd1na2vs0mg"},{"bike_id":"991ba674-0258-447c-8106-30a20ea7bf2f","system_id":"levelo_inurba_marseille","lat":43.295223,"lon":5.392154,"is_reserved":false,"is_disabled":false,"rental_uris":{"android":"levelo://app?vid=991ba674-0258-447c-8106-30a20ea7bf2f","ios":"levelo://app?vid=991ba674-0258-447c-8106-30a20ea7bf2f"},"vehicle_type_id":"4","last_reported":1760720935,"current_range_meters":12400,"station_id":"ce4bh3p2rcd13ifvqdp0","pricing_plan_id":"cebpf4jnsgd1na2vs0mg"},{"bike_id":"efeed3e0-0d89-49c8-88ee-54fc372b67ef","system_id":"levelo_inurba_marseille","lat":43.27514,"lon":5.42415,"is_reserved":false,"is_disabled":true,"rental_uris":{"android":"levelo://app?vid=efeed3e0-0d89-49c8-88ee-54fc372b67ef","ios":"levelo://app?vid=efeed3e0-0d89-49c8-88ee-54fc372b67ef"},"vehicle_type_id":"4","last_reported":1760720935,"current_range_meters":12400,"station_id":"ce4bhn92rcd13ifvqgrg","pricing_plan_id":"cebpf4jnsgd1na2vs0mg"},{"bike_id":"bfeaff65-9542-4384-a3f7-902ae9a4b803","system_id":"levelo_inurba_marseille","lat":43.26269,"lon":5.39676,"is_reserved":false,"is_disabled":false,"rental_uris":{"android":"levelo://app?vid=bfeaff65-9542-4384-a3f7-902ae9a4b803","ios":"levelo://app?vid=bfeaff65-9542-4384-a3f7-902ae9a4b803"},"vehicle_type_id":"4","last_reported":1760720935,"current_range_meters":12400,"station_id":"","pricing_plan_id":"cebpf4jnsgd1na2vs0mg"},{"bike_id":"94f60e57-4ea5-4506-9b0b-d49e351bbd01","system_id":"levelo_inurba_marseille","lat":43.293812,"lon":5.383356,"is_reserved":false,"is_disabled":false,"rental_uris":{"android":"levelo://app?vid=94f60e57-4ea5-4506-9b0b-d49e351bbd01","ios":"levelo://app?vid=94f60e57-4ea5-4506-9b0b-d49e351bbd01"},"vehicle_type_id":"4","last_reported":1760720935,"current_range_meters":12400,"station_id":"","pricing_plan_id":"cebpf4jnsgd1na2vs0mg"},{"bike_id":"ea883585-d0e4-4bcb-922c-57b2a3efdeac","system_id":"levelo_inurba_marseille","lat":43.30523,"lon":5.36807,"is_reserved":false,"is_disabled":false,"rental_uris":{"android":"levelo://app?vid=ea883585-d0e4-4bcb-922c-57b2a3efdeac","ios":"levelo://app?vid=ea883585-d0e4-4bcb-922c-57b2a3efdeac"},"vehicle_type_id":"4","last_reported":1760720935,"current_range_meters":12400,"station_id":"","pricing_plan_id":"cebpf4jnsgd1na2vs0mg"},{"bike_id":"e082eb77-dff0-4841-8bc1-1b3492c0d507","system_id":"levelo_inurba_marseille","lat":43.27996,"lon":5.41671,"is_reserved":false,"is_disabled":false,"rental_uris":{"android":"levelo://app?vid=e082eb77-dff0-4841-8bc1-1b3492c0d507","ios":"levelo://app?vid=e082eb77-dff0-4841-8bc1-1b3492c0d507"},"vehicle_type_id":"4","last_reported":1760720935,"current_range_meters":12400,"station_id":"ce4bho12rcd13ifvqh1g","pricing_plan_id":"cebpf4jnsgd1na2vs0mg"},{"bike_id":"2f427ffa-023f-4f18-948d-448a449d3df0","system_id":"levelo_inurba_marseille","lat":43.241726,"lon":5.364031,"is_reserved":false,"is_disabled":false,"rental_uris":{"android":"levelo://app?vid=2f427ffa-023f-4f18-948d-448a449d3df0","ios":"levelo://app?vid=2f427ffa-023f-4f18-948d-448a449d3df0"},"vehicle_type_id":"4","last_reported":1760720935,"current_range_meters":12400,"station_id":"cpo36qri1sfpv3e86is0","pricing_plan_id":"cebpf4jnsgd1na2vs0mg"},{"bike_id":"74f805d7-86de-43aa-a59e-ae9504f3849d","system_id":"levelo_inurba_marseille","lat":43.32373,"lon":5.38867,"is_reserved":false,"is_disabled":false,"rental_uris":{"android":"levelo://app?vid=74f805d7-86de-43aa-a59e-ae9504f3849d","ios":"levelo://app?vid=74f805d7-86de-43aa-a59e-ae9504f3849d"},"vehicle_type_id":"4","last_reported":1760720935,"current_range_meters":12400,"station_id":"ce4bhqp2rcd13ifvqhog","pricing_plan_id":"cebpf4jnsgd1na2vs0mg"},{"bike_id":"3b96de7c-4517-470a-ba7b-5afd17ddc0a2","system_id":"levelo_inurba_marseille","lat":43.29062,"lon":5.37152,"is_reserved":false,"is_disabled":false,"rental_uris":{"android":"levelo://app?vid=3b96de7c-4517-470a-ba7b-5afd17ddc0a2","ios":"levelo://app?vid=3b96de7c-4517-470a-ba7b-5afd17ddc0a2"},"vehicle_type_id":"4","last_reported":1760720935,"current_range_meters":12400,"station_id":"ce4bh5p2rcd13ifvqe4g","pricing_plan_id":"cebpf4jnsgd1na2vs0mg"},{"bike_id":"59ee4d43-eb61-4aed-a406-b083fa9d27d8","system_id":"levelo_inurba_marseille","lat":43.310673,"lon":5.383473,"is_reserved":false,"is_disabled":true,"rental_uris":{"android":"levelo://app?vid=59ee4d43-eb61-4aed-a406-b083fa9d27d8","ios":"levelo://app?vid=59ee4d43-eb61-4aed-a406-b083fa9d27d8"},"vehicle_type_id":"4","last_reported":1760720935,"current_range_meters":12400,"station_id":"ce4bgv92rcd13ifvqcr0","pricing_plan_id":"cebpf4jnsgd1na2vs0mg"},{"bike_id":"ba2479bd-5a5a-46c2-83c3-00588f4cf74a","system_id":"levelo_inurba_marseille","lat":43.29794,"lon":5.3648,"is_reserved":false,"is_disabled":false,"rental_uris":{"android":"levelo://app?vid=ba2479bd-5a5a-46c2-83c3-00588f4cf74a","ios":"levelo://app?vid=ba2479bd-5a5a-46c2-83c3-00588f4cf74a"},"vehicle_type_id":"4","last_reported":1760720935,"current_range_meters":12800,"station_id":"","pricing_plan_id":"cebpf4jnsgd1na2vs0mg"},{"bike_id":"c5e45447-2956-450f-bd7e-88aaf308c04d","system_id":"levelo_inurba_marseille","lat":43.28991,"lon":5.36537,"is_reserved":false,"is_disabled":false,"rental_uris":{"android":"levelo://app?vid=c5e45447-2956-450f-bd7e-88aaf308c04d","ios":"levelo://app?vid=c5e45447-2956-450f-bd7e-88aaf308c04d"},"vehicle_type_id":"4","last_reported":1760720935,"current_range_meters":12800,"station_id":"","pricing_plan_id":"cebpf4jnsgd1na2vs0mg"},{"bike_id":"eee6fc5a-a5e6-4f0c-a6a4-97824048b485","system_id":"levelo_inurba_marseille","lat":43.23959,"lon":5.36631,"is_reserved":false,"is_disabled":false,"rental_uris":{"android":"levelo://app?vid=eee6fc5a-a5e6-4f0c-a6a4-97824048b485","ios":"levelo://app?vid=eee6fc5a-a5e6-4f0c-a6a4-97824048b485"},"vehicle_type_id":"4","last_reported":1760720935,"current_range_meters":12800,"station_id":"ce4bhi12rcd13ifvqfp0","pricing_plan_id":"cebpf4jnsgd1na2vs0mg"},{"bike_id":"1ea58d06-2bc8-43e6-9700-ceffc676d32c","system_id":"levelo_inurba_marseille","lat":43.21752,"lon":5.346,"is_reserved":false,"is_disabled":true,"rental_uris":{"android":"levelo://app?vid=1ea58d06-2bc8-43e6-9700-ceffc676d32c","ios":"levelo://app?vid=1ea58d06-2bc8-43e6-9700-ceffc676d32c"},"vehicle_type_id":"4","last_reported":1760720935,"current_range_meters":12800,"station_id":"cpo36qri1sfpv3e86is0","pricing_plan_id":"cebpf4jnsgd1na2vs0mg"},{"bike_id":"c7396221-6fe0-499d-bb8d-7c4f4cd6e9d8","system_id":"levelo_inurba_marseille","lat":43.27993,"lon":5.40022,"is_reserved":false,"is_disabled":false,"rental_uris":{"android":"levelo://app?vid=c7396221-6fe0-499d-bb8d-7c4f4cd6e9d8","ios":"levelo://app?vid=c7396221-6fe0-499d-bb8d-7c4f4cd6e9d8"},"vehicle_type_id":"4","last_reported":1760720935,"current_range_meters":12800,"station_id":"ce4bho92rcd13ifvqh4g","pricing_plan_id":"cebpf4jnsgd1na2vs0mg"},{"bike_id":"53e45f66-6c88-47d1-a739-fad578ecef73","system_id":"levelo_inurba_marseille","lat":43.237857,"lon":5.366312,"is_reserved":false,"is_disabled":false,"rental_uris":{"android":"levelo://app?vid=53e45f66-6c88-47d1-a739-fad578ecef73","ios":"levelo://app?vid=53e45f66-6c88-47d1-a739-fad578ecef73"},"vehicle_type_id":"4","last_reported":1760720935,"current_range_meters":12800,"station_id":"st_d3nk18o9ro0c73en2l3g","pricing_plan_id":"cebpf4jnsgd1na2vs0mg"},{"bike_id":"a618d75f-c056-4d7b-8ccd-3fcd16a7d304","system_id":"levelo_inurba_marseille","lat":43.34146,"lon":5.409077,"is_reserved":false,"is_disabled":false,"rental_uris":{"android":"levelo://app?vid=a618d75f-c056-4d7b-8ccd-3fcd16a7d304","ios":"levelo://app?vid=a618d75f-c056-4d7b-8ccd-3fcd16a7d304"},"vehicle_type_id":"4","last_reported":1760720935,"current_range_meters":12800,"station_id":"cki0cbj6b192h4jlfktg","pricing_plan_id":"cebpf4jnsgd1na2vs0mg"},{"bike_id":"c4c8e762-8a26-4257-9d60-d747eb2d8508","system_id":"levelo_inurba_marseille","lat":43.3318,"lon":5.35569,"is_reserved":false,"is_disabled":false,"rental_uris":{"android":"levelo://app?vid=c4c8e762-8a26-4257-9d60-d747eb2d8508","ios":"levelo://app?vid=c4c8e762-8a26-4257-9d60-d747eb2d8508"},"vehicle_type_id":"4","last_reported":1760720935,"current_range_meters":12800,"station_id":"","pricing_plan_id":"cebpf4jnsgd1na2vs0mg"},{"bike_id":"7f0e8655-8c5f-4adf-a78d-b11e24ebe13d","system_id":"levelo_inurba_marseille","lat":43.30884,"lon":5.39644,"is_reserved":false,"is_disabled":false,"rental_uris":{"android":"levelo://app?vid=7f0e8655-8c5f-4adf-a78d-b11e24ebe13d","ios":"levelo://app?vid=7f0e8655-8c5f-4adf-a78d-b11e24ebe13d"},"vehicle_type_id":"4","last_reported":1760720935,"current_range_meters":13600,"station_id":"ce4bh012rcd13ifvqcv0","pricing_plan_id":"cebpf4jnsgd1na2vs0mg"},{"bike_id":"af5fbe6c-1e64-49c4-80ac-ddb781f03940","system_id":"levelo_inurba_marseille","lat":43.30141,"lon":5.38784,"is_reserved":false,"is_disabled":false,"rental_uris":{"android":"levelo://app?vid=af5fbe6c-1e64-49c4-80ac-ddb781f03940","ios":"levelo://app?vid=af5fbe6c-1e64-49c4-80ac-ddb781f03940"},"vehicle_type_id":"4","last_reported":1760720935,"current_range_meters":14000,"station_id":"ce4bghh2rcd13ifvqb60","pricing_plan_id":"cebpf4jnsgd1na2vs0mg"},{"bike_id":"4df48384-0dbc-4526-9f34-2ef4c4a2ca61","system_id":"levelo_inurba_marseille","lat":43.29208,"lon":5.36069,"is_reserved":false,"is_disabled":false,"rental_uris":{"android":"levelo://app?vid=4df48384-0dbc-4526-9f34-2ef4c4a2ca61","ios":"levelo://app?vid=4df48384-0dbc-4526-9f34-2ef4c4a2ca61"},"vehicle_type_id":"4","last_reported":1760720935,"current_range_meters":14000,"station_id":"ce4bhbh2rcd13ifvqeqg","pricing_plan_id":"cebpf4jnsgd1na2vs0mg"},{"bike_id":"ab8dbe06-49f3-423b-99b1-2274be7ed343","system_id":"levelo_inurba_marseille","lat":43.29686,"lon":5.36619,"is_reserved":false,"is_disabled":true,"rental_uris":{"android":"levelo://app?vid=ab8dbe06-49f3-423b-99b1-2274be7ed343","ios":"levelo://app?vid=ab8dbe06-49f3-423b-99b1-2274be7ed343"},"vehicle_type_id":"4","last_reported":1760720935,"current_range_meters":14000,"station_id":"ce4bgn12rcd13ifvqbt0","pricing_plan_id":"cebpf4jnsgd1na2vs0mg"},{"bike_id":"e77d4904-4310-4a1e-8891-010a5cbe5ca9","system_id":"levelo_inurba_marseille","lat":43.23961,"lon":5.3663,"is_reserved":false,"is_disabled":false,"rental_uris":{"android":"levelo://app?vid=e77d4904-4310-4a1e-8891-010a5cbe5ca9","ios":"levelo://app?vid=e77d4904-4310-4a1e-8891-010a5cbe5ca9"},"vehicle_type_id":"4","last_reported":1760720935,"current_range_meters":14400,"station_id":"ce4bhi12rcd13ifvqfp0","pricing_plan_id":"cebpf4jnsgd1na2vs0mg"},{"bike_id":"7a5ff299-64d4-4541-8368-e60f057e59eb","system_id":"levelo_inurba_marseille","lat":43.28612,"lon":5.35111,"is_reserved":false,"is_disabled":false,"rental_uris":{"android":"levelo://app?vid=7a5ff299-64d4-4541-8368-e60f057e59eb","ios":"levelo://app?vid=7a5ff299-64d4-4541-8368-e60f057e59eb"},"vehicle_type_id":"4","last_reported":1760720935,"current_range_meters":14400,"station_id":"ce4bhch2rcd13ifvqeug","pricing_plan_id":"cebpf4jnsgd1na2vs0mg"},{"bike_id":"e960f20d-e199-4cb5-80dd-9f9f631cca52","system_id":"levelo_inurba_marseille","lat":43.28034,"lon":5.36943,"is_reserved":false,"is_disabled":false,"rental_uris":{"android":"levelo://app?vid=e960f20d-e199-4cb5-80dd-9f9f631cca52","ios":"levelo://app?vid=e960f20d-e199-4cb5-80dd-9f9f631cca52"},"vehicle_type_id":"4","last_reported":1760720935,"current_range_meters":14400,"station_id":"ce4bha12rcd13ifvqef0","pricing_plan_id":"cebpf4jnsgd1na2vs0mg"},{"bike_id":"924ac669-be8b-47aa-9a8e-6f22baf815eb","system_id":"levelo_inurba_marseille","lat":43.33767,"lon":5.3747,"is_reserved":false,"is_disabled":false,"rental_uris":{"android":"levelo://app?vid=924ac669-be8b-47aa-9a8e-6f22baf815eb","ios":"levelo://app?vid=924ac669-be8b-47aa-9a8e-6f22baf815eb"},"vehicle_type_id":"4","last_reported":1760720935,"current_range_meters":14800,"station_id":"","pricing_plan_id":"cebpf4jnsgd1na2vs0mg"},{"bike_id":"b8aea733-5730-4c9a-9bb9-74fa1b9ff30a","system_id":"levelo_inurba_marseille","lat":43.27184,"lon":5.40992,"is_reserved":false,"is_disabled":false,"rental_uris":{"android":"levelo://app?vid=b8aea733-5730-4c9a-9bb9-74fa1b9ff30a","ios":"levelo://app?vid=b8aea733-5730-4c9a-9bb9-74fa1b9ff30a"},"vehicle_type_id":"4","last_reported":1760720935,"current_range_meters":14800,"station_id":"ce4bhl12rcd13ifvqgf0","pricing_plan_id":"cebpf4jnsgd1na2vs0mg"},{"bike_id":"a6cfbb1c-4d3e-448d-9f52-156dd6a0c565","system_id":"levelo_inurba_marseille","lat":43.299395,"lon":5.365564,"is_reserved":false,"is_disabled":false,"rental_uris":{"android":"levelo://app?vid=a6cfbb1c-4d3e-448d-9f52-156dd6a0c565","ios":"levelo://app?vid=a6cfbb1c-4d3e-448d-9f52-156dd6a0c565"},"vehicle_type_id":"4","last_reported":1760720935,"current_range_meters":14800,"station_id":"ce4bgm92rcd13ifvqbr0","pricing_plan_id":"cebpf4jnsgd1na2vs0mg"},{"bike_id":"4c435c82-0bc4-4369-80cf-ae9046a83658","system_id":"levelo_inurba_marseille","lat":43.2417,"lon":5.36398,"is_reserved":false,"is_disabled":false,"rental_uris":{"android":"levelo://app?vid=4c435c82-0bc4-4369-80cf-ae9046a83658","ios":"levelo://app?vid=4c435c82-0bc4-4369-80cf-ae9046a83658"},"vehicle_type_id":"4","last_reported":1760720935,"current_range_meters":14800,"station_id":"cpo36qri1sfpv3e86is0","pricing_plan_id":"cebpf4jnsgd1na2vs0mg"},{"bike_id":"6eb2acec-d68e-4c9a-ad73-90879ab30bc2","system_id":"levelo_inurba_marseille","lat":43.31487,"lon":5.37412,"is_reserved":false,"is_disabled":false,"rental_uris":{"android":"levelo://app?vid=6eb2acec-d68e-4c9a-ad73-90879ab30bc2","ios":"levelo://app?vid=6eb2acec-d68e-4c9a-ad73-90879ab30bc2"},"vehicle_type_id":"4","last_reported":1760720935,"current_range_meters":15200,"station_id":"","pricing_plan_id":"cebpf4jnsgd1na2vs0mg"},{"bike_id":"20b2e53b-fb6b-4ad8-8cec-cf3786e2979c","system_id":"levelo_inurba_marseille","lat":43.30319,"lon":5.40446,"is_reserved":false,"is_disabled":false,"rental_uris":{"android":"levelo://app?vid=20b2e53b-fb6b-4ad8-8cec-cf3786e2979c","ios":"levelo://app?vid=20b2e53b-fb6b-4ad8-8cec-cf3786e2979c"},"vehicle_type_id":"4","last_reported":1760720935,"current_range_meters":15200,"station_id":"ce4bh012rcd13ifvqd10","pricing_plan_id":"cebpf4jnsgd1na2vs0mg"},{"bike_id":"ab602d7a-ccdb-4fb5-82e3-aba6537cac05","system_id":"levelo_inurba_marseille","lat":43.2922,"lon":5.36052,"is_reserved":false,"is_disabled":false,"rental_uris":{"android":"levelo://app?vid=ab602d7a-ccdb-4fb5-82e3-aba6537cac05","ios":"levelo://app?vid=ab602d7a-ccdb-4fb5-82e3-aba6537cac05"},"vehicle_type_id":"4","last_reported":1760720935,"current_range_meters":15200,"station_id":"","pricing_plan_id":"cebpf4jnsgd1na2vs0mg"},{"bike_id":"639ac8e2-3a75-4757-b7de-11fb3cac54a7","system_id":"levelo_inurba_marseille","lat":43.3236,"lon":5.36754,"is_reserved":false,"is_disabled":false,"rental_uris":{"android":"levelo://app?vid=639ac8e2-3a75-4757-b7de-11fb3cac54a7","ios":"levelo://app?vid=639ac8e2-3a75-4757-b7de-11fb3cac54a7"},"vehicle_type_id":"4","last_reported":1760720935,"current_range_meters":15200,"station_id":"ce4bhsh2rcd13ifvqi2g","pricing_plan_id":"cebpf4jnsgd1na2vs0mg"},{"bike_id":"75b02a51-1325-435e-9661-29bb451a696a","system_id":"levelo_inurba_marseille","lat":43.31448,"lon":5.38488,"is_reserved":false,"is_disabled":false,"rental_uris":{"android":"levelo://app?vid=75b02a51-1325-435e-9661-29bb451a696a","ios":"levelo://app?vid=75b02a51-1325-435e-9661-29bb451a696a"},"vehicle_type_id":"4","last_reported":1760720935,"current_range_meters":15200,"station_id":"","pricing_plan_id":"cebpf4jnsgd1na2vs0mg"},{"bike_id":"aa0097c6-56ab-4876-a963-4400c81831a7","system_id":"levelo_inurba_marseille","lat":43.3042,"lon":5.41284,"is_reserved":false,"is_disabled":false,"rental_uris":{"android":"levelo://app?vid=aa0097c6-56ab-4876-a963-4400c81831a7","ios":"levelo://app?vid=aa0097c6-56ab-4876-a963-4400c81831a7"},"vehicle_type_id":"4","last_reported":1760720935,"current_range_meters":15200,"station_id":"ce4bhop2rcd13ifvqh8g","pricing_plan_id":"cebpf4jnsgd1na2vs0mg"},{"bike_id":"e84bce0b-ced3-4f34-b6ea-9d63a5640007","system_id":"levelo_inurba_marseille","lat":43.279775,"lon":5.387441,"is_reserved":false,"is_disabled":false,"rental_uris":{"android":"levelo://app?vid=e84bce0b-ced3-4f34-b6ea-9d63a5640007","ios":"levelo://app?vid=e84bce0b-ced3-4f34-b6ea-9d63a5640007"},"vehicle_type_id":"4","last_reported":1760720935,"current_range_meters":15200,"station_id":"ce4bhg12rcd13ifvqf80","pricing_plan_id":"cebpf4jnsgd1na2vs0mg"},{"bike_id":"0b170382-a38a-48fc-b060-b901de311f1a","system_id":"levelo_inurba_marseille","lat":43.33047,"lon":5.39024,"is_reserved":false,"is_disabled":false,"rental_uris":{"android":"levelo://app?vid=0b170382-a38a-48fc-b060-b901de311f1a","ios":"levelo://app?vid=0b170382-a38a-48fc-b060-b901de311f1a"},"vehicle_type_id":"4","last_reported":1760720935,"current_range_meters":16000,"station_id":"ce4bhr92rcd13ifvqhrg","pricing_plan_id":"cebpf4jnsgd1na2vs0mg"},{"bike_id":"06ca18b7-537f-4db1-a380-fd36f178ae4e","system_id":"levelo_inurba_marseille","lat":43.29009,"lon":5.3561,"is_reserved":false,"is_disabled":false,"rental_uris":{"android":"levelo://app?vid=06ca18b7-537f-4db1-a380-fd36f178ae4e","ios":"levelo://app?vid=06ca18b7-537f-4db1-a380-fd36f178ae4e"},"vehicle_type_id":"4","last_reported":1760720935,"current_range_meters":16000,"station_id":"ce4bhb92rcd13ifvqen0","pricing_plan_id":"cebpf4jnsgd1na2vs0mg"},{"bike_id":"8aa3ec83-557d-4118-b42f-7e9ff74932f2","system_id":"levelo_inurba_marseille","lat":43.24193,"lon":5.36377,"is_reserved":false,"is_disabled":false,"rental_uris":{"android":"levelo://app?vid=8aa3ec83-557d-4118-b42f-7e9ff74932f2","ios":"levelo://app?vid=8aa3ec83-557d-4118-b42f-7e9ff74932f2"},"vehicle_type_id":"4","last_reported":1760720935,"current_range_meters":16000,"station_id":"cpo36qri1sfpv3e86is0","pricing_plan_id":"cebpf4jnsgd1na2vs0mg"},{"bike_id":"38bb92ab-ce3b-42ce-9961-aca6ebf2ea7f","system_id":"levelo_inurba_marseille","lat":43.29625,"lon":5.37164,"is_reserved":false,"is_disabled":false,"rental_uris":{"android":"levelo://app?vid=38bb92ab-ce3b-42ce-9961-aca6ebf2ea7f","ios":"levelo://app?vid=38bb92ab-ce3b-42ce-9961-aca6ebf2ea7f"},"vehicle_type_id":"4","last_reported":1760720935,"current_range_meters":16000,"station_id":"ce4bgnh2rcd13ifvqc0g","pricing_plan_id":"cebpf4jnsgd1na2vs0mg"},{"bike_id":"cd7bce2c-2408-4d07-a95a-3ac7907bf1ab","system_id":"levelo_inurba_marseille","lat":43.25334,"lon":5.42172,"is_reserved":false,"is_disabled":false,"rental_uris":{"android":"levelo://app?vid=cd7bce2c-2408-4d07-a95a-3ac7907bf1ab","ios":"levelo://app?vid=cd7bce2c-2408-4d07-a95a-3ac7907bf1ab"},"vehicle_type_id":"4","last_reported":1760720935,"current_range_meters":16000,"station_id":"st_d2m65c5bi1j21697t3ng","pricing_plan_id":"cebpf4jnsgd1na2vs0mg"},{"bike_id":"270905cb-af9b-4151-98a5-cc825e1da119","system_id":"levelo_inurba_marseille","lat":43.28632,"lon":5.35101,"is_reserved":false,"is_disabled":false,"rental_uris":{"android":"levelo://app?vid=270905cb-af9b-4151-98a5-cc825e1da119","ios":"levelo://app?vid=270905cb-af9b-4151-98a5-cc825e1da119"},"vehicle_type_id":"4","last_reported":1760720935,"current_range_meters":16000,"station_id":"ce4bhch2rcd13ifvqeug","pricing_plan_id":"cebpf4jnsgd1na2vs0mg"},{"bike_id":"4b150ed4-2a96-4f05-bf50-dde36c31ec68","system_id":"levelo_inurba_marseille","lat":43.33076,"lon":5.39645,"is_reserved":false,"is_disabled":false,"rental_uris":{"android":"levelo://app?vid=4b150ed4-2a96-4f05-bf50-dde36c31ec68","ios":"levelo://app?vid=4b150ed4-2a96-4f05-bf50-dde36c31ec68"},"vehicle_type_id":"4","last_reported":1760720935,"current_range_meters":16000,"station_id":"","pricing_plan_id":"cebpf4jnsgd1na2vs0mg"},{"bike_id":"edcb744a-1021-4493-86cd-94aad7a8dbc8","system_id":"levelo_inurba_marseille","lat":43.30636,"lon":5.37383,"is_reserved":false,"is_disabled":false,"rental_uris":{"android":"levelo://app?vid=edcb744a-1021-4493-86cd-94aad7a8dbc8","ios":"levelo://app?vid=edcb744a-1021-4493-86cd-94aad7a8dbc8"},"vehicle_type_id":"4","last_reported":1760720935,"current_range_meters":16000,"station_id":"","pricing_plan_id":"cebpf4jnsgd1na2vs0mg"},{"bike_id":"43a2b1bb-2be2-46a9-8c42-c5c8ca7e0b13","system_id":"levelo_inurba_marseille","lat":43.30537,"lon":5.36719,"is_reserved":false,"is_disabled":false,"rental_uris":{"android":"levelo://app?vid=43a2b1bb-2be2-46a9-8c42-c5c8ca7e0b13","ios":"levelo://app?vid=43a2b1bb-2be2-46a9-8c42-c5c8ca7e0b13"},"vehicle_type_id":"4","last_reported":1760720935,"current_range_meters":16000,"station_id":"ce4bgrp2rcd13ifvqc9g","pricing_plan_id":"cebpf4jnsgd1na2vs0mg"},{"bike_id":"4675907b-c717-4094-81ca-d76d2269601d","system_id":"levelo_inurba_marseille","lat":43.32105,"lon":5.36781,"is_reserved":false,"is_disabled":false,"rental_uris":{"android":"levelo://app?vid=4675907b-c717-4094-81ca-d76d2269601d","ios":"levelo://app?vid=4675907b-c717-4094-81ca-d76d2269601d"},"vehicle_type_id":"4","last_reported":1760720935,"current_range_meters":16000,"station_id":"ce4bhrh2rcd13ifvqhug","pricing_plan_id":"cebpf4jnsgd1na2vs0mg"},{"bike_id":"754a9f91-6a2c-4bba-b8e2-4cfad9907c18","system_id":"levelo_inurba_marseille","lat":43.2926,"lon":5.38449,"is_reserved":false,"is_disabled":false,"rental_uris":{"android":"levelo://app?vid=754a9f91-6a2c-4bba-b8e2-4cfad9907c18","ios":"levelo://app?vid=754a9f91-6a2c-4bba-b8e2-4cfad9907c18"},"vehicle_type_id":"4","last_reported":1760720935,"current_range_meters":16400,"station_id":"ce4bh692rcd13ifvqea0","pricing_plan_id":"cebpf4jnsgd1na2vs0mg"},{"bike_id":"50a0b5c8-f535-4709-8bd5-a3bfeb6ec125","system_id":"levelo_inurba_marseille","lat":43.30524,"lon":5.36719,"is_reserved":false,"is_disabled":false,"rental_uris":{"android":"levelo://app?vid=50a0b5c8-f535-4709-8bd5-a3bfeb6ec125","ios":"levelo://app?vid=50a0b5c8-f535-4709-8bd5-a3bfeb6ec125"},"vehicle_type_id":"4","last_reported":1760720935,"current_range_meters":16400,"station_id":"ce4bgrp2rcd13ifvqc9g","pricing_plan_id":"cebpf4jnsgd1na2vs0mg"},{"bike_id":"abc03f92-dca6-4a46-95f2-dfa86561418e","system_id":"levelo_inurba_marseille","lat":43.27912,"lon":5.412575,"is_reserved":false,"is_disabled":false,"rental_uris":{"android":"levelo://app?vid=abc03f92-dca6-4a46-95f2-dfa86561418e","ios":"levelo://app?vid=abc03f92-dca6-4a46-95f2-dfa86561418e"},"vehicle_type_id":"4","last_reported":1760720935,"current_range_meters":16400,"station_id":"","pricing_plan_id":"cebpf4jnsgd1na2vs0mg"},{"bike_id":"5afedf2c-9f26-4bb9-8210-0ff4d77a4b7f","system_id":"levelo_inurba_marseille","lat":43.28419,"lon":5.34988,"is_reserved":false,"is_disabled":false,"rental_uris":{"android":"levelo://app?vid=5afedf2c-9f26-4bb9-8210-0ff4d77a4b7f","ios":"levelo://app?vid=5afedf2c-9f26-4bb9-8210-0ff4d77a4b7f"},"vehicle_type_id":"4","last_reported":1760720935,"current_range_meters":16400,"station_id":"ce4bhbh2rcd13ifvqepg","pricing_plan_id":"cebpf4jnsgd1na2vs0mg"},{"bike_id":"c386641d-a1e2-4563-ad85-c2e237fd8077","system_id":"levelo_inurba_marseille","lat":43.29261,"lon":5.38441,"is_reserved":false,"is_disabled":false,"rental_uris":{"android":"levelo://app?vid=c386641d-a1e2-4563-ad85-c2e237fd8077","ios":"levelo://app?vid=c386641d-a1e2-4563-ad85-c2e237fd8077"},"vehicle_type_id":"4","last_reported":1760720935,"current_range_meters":16400,"station_id":"ce4bh692rcd13ifvqea0","pricing_plan_id":"cebpf4jnsgd1na2vs0mg"},{"bike_id":"8c30526d-4d62-49e0-92a1-2ed039e24496","system_id":"levelo_inurba_marseille","lat":43.28706,"lon":5.38418,"is_reserved":false,"is_disabled":false,"rental_uris":{"android":"levelo://app?vid=8c30526d-4d62-49e0-92a1-2ed039e24496","ios":"levelo://app?vid=8c30526d-4d62-49e0-92a1-2ed039e24496"},"vehicle_type_id":"4","last_reported":1760720935,"current_range_meters":16400,"station_id":"","pricing_plan_id":"cebpf4jnsgd1na2vs0mg"},{"bike_id":"2358dfa3-f912-4a4a-9cde-940126571b60","system_id":"levelo_inurba_marseille","lat":43.2803,"lon":5.36948,"is_reserved":false,"is_disabled":false,"rental_uris":{"android":"levelo://app?vid=2358dfa3-f912-4a4a-9cde-940126571b60","ios":"levelo://app?vid=2358dfa3-f912-4a4a-9cde-940126571b60"},"vehicle_type_id":"4","last_reported":1760720935,"current_range_meters":16400,"station_id":"ce4bha12rcd13ifvqef0","pricing_plan_id":"cebpf4jnsgd1na2vs0mg"},{"bike_id":"df2d3d6e-26dc-4145-b74c-60aa297416fb","system_id":"levelo_inurba_marseille","lat":43.27672,"lon":5.38927,"is_reserved":false,"is_disabled":true,"rental_uris":{"android":"levelo://app?vid=df2d3d6e-26dc-4145-b74c-60aa297416fb","ios":"levelo://app?vid=df2d3d6e-26dc-4145-b74c-60aa297416fb"},"vehicle_type_id":"4","last_reported":1760720935,"current_range_meters":16400,"station_id":"ce4bhi12rcd13ifvqfo0","pricing_plan_id":"cebpf4jnsgd1na2vs0mg"},{"bike_id":"b3de5f35-da94-4965-b940-8cd14144ea0b","system_id":"levelo_inurba_marseille","lat":43.28526,"lon":5.44109,"is_reserved":false,"is_disabled":false,"rental_uris":{"android":"levelo://app?vid=b3de5f35-da94-4965-b940-8cd14144ea0b","ios":"levelo://app?vid=b3de5f35-da94-4965-b940-8cd14144ea0b"},"vehicle_type_id":"4","last_reported":1760720935,"current_range_meters":16400,"station_id":"st_d3j3df2ikq2c7380ej80","pricing_plan_id":"cebpf4jnsgd1na2vs0mg"},{"bike_id":"33b1342c-c9a8-42ff-a3d2-196d85703856","system_id":"levelo_inurba_marseille","lat":43.28445,"lon":5.39205,"is_reserved":false,"is_disabled":false,"rental_uris":{"android":"levelo://app?vid=33b1342c-c9a8-42ff-a3d2-196d85703856","ios":"levelo://app?vid=33b1342c-c9a8-42ff-a3d2-196d85703856"},"vehicle_type_id":"4","last_reported":1760720935,"current_range_meters":16400,"station_id":"ce4bhoh2rcd13ifvqh5g","pricing_plan_id":"cebpf4jnsgd1na2vs0mg"},{"bike_id":"3167035f-52b6-4f40-b16a-74665807022e","system_id":"levelo_inurba_marseille","lat":43.29267,"lon":5.38457,"is_reserved":false,"is_disabled":false,"rental_uris":{"android":"levelo://app?vid=3167035f-52b6-4f40-b16a-74665807022e","ios":"levelo://app?vid=3167035f-52b6-4f40-b16a-74665807022e"},"vehicle_type_id":"4","last_reported":1760720935,"current_range_meters":16400,"station_id":"ce4bh692rcd13ifvqea0","pricing_plan_id":"cebpf4jnsgd1na2vs0mg"},{"bike_id":"d28f9d48-e0c1-4f89-b47b-76d4858c47ea","system_id":"levelo_inurba_marseille","lat":43.293025,"lon":5.374503,"is_reserved":false,"is_disabled":false,"rental_uris":{"android":"levelo://app?vid=d28f9d48-e0c1-4f89-b47b-76d4858c47ea","ios":"levelo://app?vid=d28f9d48-e0c1-4f89-b47b-76d4858c47ea"},"vehicle_type_id":"4","last_reported":1760720935,"current_range_meters":16400,"station_id":"ce4bgi12rcd13ifvqb70","pricing_plan_id":"cebpf4jnsgd1na2vs0mg"},{"bike_id":"b3b6c8ff-c0fc-454e-85a4-5d8c72382498","system_id":"levelo_inurba_marseille","lat":43.28001,"lon":5.40014,"is_reserved":false,"is_disabled":false,"rental_uris":{"android":"levelo://app?vid=b3b6c8ff-c0fc-454e-85a4-5d8c72382498","ios":"levelo://app?vid=b3b6c8ff-c0fc-454e-85a4-5d8c72382498"},"vehicle_type_id":"4","last_reported":1760720935,"current_range_meters":16800,"station_id":"ce4bho92rcd13ifvqh4g","pricing_plan_id":"cebpf4jnsgd1na2vs0mg"},{"bike_id":"7e98c73c-0daf-470c-8187-471fc9a15ebd","system_id":"levelo_inurba_marseille","lat":43.24167,"lon":5.36394,"is_reserved":false,"is_disabled":false,"rental_uris":{"android":"levelo://app?vid=7e98c73c-0daf-470c-8187-471fc9a15ebd","ios":"levelo://app?vid=7e98c73c-0daf-470c-8187-471fc9a15ebd"},"vehicle_type_id":"4","last_reported":1760720935,"current_range_meters":16800,"station_id":"cpo36qri1sfpv3e86is0","pricing_plan_id":"cebpf4jnsgd1na2vs0mg"},{"bike_id":"523f283d-eee6-469a-8971-61eddcdb7308","system_id":"levelo_inurba_marseille","lat":43.27178,"lon":5.40991,"is_reserved":false,"is_disabled":false,"rental_uris":{"android":"levelo://app?vid=523f283d-eee6-469a-8971-61eddcdb7308","ios":"levelo://app?vid=523f283d-eee6-469a-8971-61eddcdb7308"},"vehicle_type_id":"4","last_reported":1760720935,"current_range_meters":16800,"station_id":"ce4bhl12rcd13ifvqgf0","pricing_plan_id":"cebpf4jnsgd1na2vs0mg"},{"bike_id":"fa8ca61a-e894-4f15-bf25-828ed49c69a6","system_id":"levelo_inurba_marseille","lat":43.232,"lon":5.35551,"is_reserved":false,"is_disabled":false,"rental_uris":{"android":"levelo://app?vid=fa8ca61a-e894-4f15-bf25-828ed49c69a6","ios":"levelo://app?vid=fa8ca61a-e894-4f15-bf25-828ed49c69a6"},"vehicle_type_id":"4","last_reported":1760720935,"current_range_meters":16800,"station_id":"ce4bhu92rcd13ifvqi70","pricing_plan_id":"cebpf4jnsgd1na2vs0mg"},{"bike_id":"0a414463-fe1a-4833-8a11-178a3c2c879a","system_id":"levelo_inurba_marseille","lat":43.29852,"lon":5.37897,"is_reserved":false,"is_disabled":false,"rental_uris":{"android":"levelo://app?vid=0a414463-fe1a-4833-8a11-178a3c2c879a","ios":"levelo://app?vid=0a414463-fe1a-4833-8a11-178a3c2c879a"},"vehicle_type_id":"4","last_reported":1760720935,"current_range_meters":17200,"station_id":"","pricing_plan_id":"cebpf4jnsgd1na2vs0mg"},{"bike_id":"5993bc57-701f-499d-9737-f375a2fdf9e6","system_id":"levelo_inurba_marseille","lat":43.301355,"lon":5.398704,"is_reserved":false,"is_disabled":false,"rental_uris":{"android":"levelo://app?vid=5993bc57-701f-499d-9737-f375a2fdf9e6","ios":"levelo://app?vid=5993bc57-701f-499d-9737-f375a2fdf9e6"},"vehicle_type_id":"4","last_reported":1760720935,"current_range_meters":17200,"station_id":"","pricing_plan_id":"cebpf4jnsgd1na2vs0mg"},{"bike_id":"2b32abd1-1e29-4548-b553-8d81f713b7f7","system_id":"levelo_inurba_marseille","lat":43.289335,"lon":5.366435,"is_reserved":false,"is_disabled":false,"rental_uris":{"android":"levelo://app?vid=2b32abd1-1e29-4548-b553-8d81f713b7f7","ios":"levelo://app?vid=2b32abd1-1e29-4548-b553-8d81f713b7f7"},"vehicle_type_id":"4","last_reported":1760720935,"current_range_meters":17200,"station_id":"ce4bhap2rcd13ifvqek0","pricing_plan_id":"cebpf4jnsgd1na2vs0mg"},{"bike_id":"0369c135-2cac-4c83-81f4-dab8a7dd581f","system_id":"levelo_inurba_marseille","lat":43.27059,"lon":5.40258,"is_reserved":false,"is_disabled":false,"rental_uris":{"android":"levelo://app?vid=0369c135-2cac-4c83-81f4-dab8a7dd581f","ios":"levelo://app?vid=0369c135-2cac-4c83-81f4-dab8a7dd581f"},"vehicle_type_id":"4","last_reported":1760720935,"current_range_meters":17200,"station_id":"ce4bhk92rcd13ifvqgc0","pricing_plan_id":"cebpf4jnsgd1na2vs0mg"},{"bike_id":"b2d74685-fbbf-4dd5-b532-bc1cb8016fc9","system_id":"levelo_inurba_marseille","lat":43.28484,"lon":5.38561,"is_reserved":false,"is_disabled":false,"rental_uris":{"android":"levelo://app?vid=b2d74685-fbbf-4dd5-b532-bc1cb8016fc9","ios":"levelo://app?vid=b2d74685-fbbf-4dd5-b532-bc1cb8016fc9"},