{"last_updated":1698606237,"ttl":30,"version":"2.2","data":{"bikes":[{"bike_id":"9bf5122a-c57e-4eb0-a1f4-0998c1f62ed0","system_id":"levelo_inurba_marseille","lat":43.312239,"lon":5.368562,"is_reserved":false,"is_disabled":false,"rental_uris":{"android":"levelo://app?vid=9bf5122a-c57e-4eb0-a1f4-0998c1f62ed0","ios":"levelo://app?vid=9bf5122a-c57e-4eb0-a1f4-0998c1f62ed0"},"vehicle_type_id":"4","last_reported":1698606237,"current_range_meters":22800,"station_id":"ce4bgl92rcd13ifvqbq0","pricing_plan_id":"free"},{"bike_id":"0e000a7c-8075-40c3-b8fe-0b9af82b4271","system_id":"levelo_inurba_marseille","lat":43.312239,"lon":5.368562,"is_reserved":false,"is_disabled":false,"rental_uris":{"android":"levelo://app?vid=0e000a7c-8075-40c3-b8fe-0b9af82b4271","ios":"levelo://app?vid=0e000a7c-8075-40c3-b8fe-0b9af82b4271"},"vehicle_type_id":"4","last_reported":1698606237,"current_range_meters":22000,"station_id":"ce4bgl92rcd13ifvqbq0","pricing_plan_id":"free"},{"bike_id":"0d80cc9c-8b54-4d9d-a105-8d86e20cb616","system_id":"levelo_inurba_marseille","lat":43.312239,"lon":5.368562,"is_reserved":false,"is_disabled":false,"rental_uris":{"android":"levelo://app?vid=0d80cc9c-8b54-4d9d-a105-8d86e20cb616","ios":"levelo://app?vid=0d80cc9c-8b54-4d9d-a105-8d86e20cb616"},"vehicle_type_id":"4","last_reported":1698606237,"current_range_meters":12800,"station_id":"ce4bgl92rcd13ifvqbq0","pricing_plan_id":"free"},{"bike_id":"b1cb48cb-22d4-4cd4-97b0-038c1cf723b7","system_id":"levelo_inurba_marseille","lat":43.315186,"lon":5.371432,"is_reserved":false,"is_disabled":false,"rental_uris":{"android":"levelo://app?vid=b1cb48cb-22d4-4cd4-97b0-038c1cf723b7","ios":"levelo://app?vid=b1cb48cb-22d4-4cd4-97b0-038c1cf723b7"},"vehicle_type_id":"4","last_reported":1698606237,"current_range_meters":14400,"station_id":"","pricing_plan_id":"free"},{"bike_id":"588aefc7-221a-4857-964b-a38715ffff5b","system_id":"levelo_inurba_marseille","lat":43.314811,"lon":5.373103,"is_reserved":false,"is_disabled":false,"rental_uris":{"android":"levelo://app?vid=588aefc7-221a-4857-964b-a38715ffff5b","ios":"levelo://app?vid=588aefc7-221a-4857-964b-a38715ffff5b"},"vehicle_type_id":"4","last_reported":1698606237,"current_range_meters":17600,"station_id":"ce4bgt12rcd13ifvqcd0","pricing_plan_id":"free"},{"bike_id":"ef648448-447e-4739-9680-9da1b279f220","system_id":"levelo_inurba_marseille","lat":43.314811,"lon":5.373103,"is_reserved":false,"is_disabled":false,"rental_uris":{"android":"levelo://app?vid=ef648448-447e-4739-9680-9da1b279f220","ios":"levelo://app?vid=ef648448-447e-4739-9680-9da1b279f220"},"vehicle_type_id":"4","last_reported":1698606237,"current_range_meters":6400,"station_id":"ce4bgt12rcd13ifvqcd0","pricing_plan_id":"free"},{"bike_id":"e3b95e21-2723-48ef-8f3b-db567b9ea972","system_id":"levelo_inurba_marseille","lat":43.314811,"lon":5.373103,"is_reserved":false,"is_disabled":false,"rental_uris":{"android":"levelo://app?vid=e3b95e21-2723-48ef-8f3b-db567b9ea972","ios":"levelo://app?vid=e3b95e21-2723-48ef-8f3b-db567b9ea972"},"vehicle_type_id":"4","last_reported":1698606237,"current_range_meters":2800,"station_id":"ce4bgt12rcd13ifvqcd0","pricing_plan_id":"free"},{"bike_id":"c90f6a67-8a95-4186-9f6b-5914e4f853d6","system_id":"levelo_inurba_marseille","lat":43.314811,"lon":5.373104,"is_reserved":false,"is_disabled":false,"rental_uris":{"android":"levelo://app?vid=c90f6a67-8a95-4186-9f6b-5914e4f853d6","ios":"levelo://app?vid=c90f6a67-8a95-4186-9f6b-5914e4f853d6"},"vehicle_type_id":"4","last_reported":1698606237,"current_range_meters":6800,"station_id":"ce4bgt12rcd13ifvqcd0","pricing_plan_id":"free"},{"bike_id":"f252b071-dddd-4e5f-ad07-506846af6d1a","system_id":"levelo_inurba_marseille","lat":43.30551,"lon":5.36537,"is_reserved":false,"is_disabled":false,"rental_uris":{"android":"levelo://app?vid=f252b071-dddd-4e5f-ad07-506846af6d1a","ios":"levelo://app?vid=f252b071-dddd-4e5f-ad07-506846af6d1a"},"vehicle_type_id":"4","last_reported":1698606237,"current_range_meters":31200,"station_id":"ce4bgs12rcd13ifvqcag","pricing_plan_id":"free"},{"bike_id":"44801e62-bb77-468f-999b-13b32a68ecde","system_id":"levelo_inurba_marseille","lat":43.31341,"lon":5.367098,"is_reserved":false,"is_disabled":false,"rental_uris":{"android":"levelo://app?vid=44801e62-bb77-468f-999b-13b32a68ecde","ios":"levelo://app?vid=44801e62-bb77-468f-999b-13b32a68ecde"},"vehicle_type_id":"4","last_reported":1698606237,"current_range_meters":10000,"station_id":"ce4bgr92rcd13ifvqc6g","pricing_plan_id":"free"},{"bike_id":"9aef5bf9-a591-470f-a186-14897a95c1b9","system_id":"levelo_inurba_marseille","lat":43.305062,"lon":5.367022,"is_reserved":false,"is_disabled":false,"rental_uris":{"android":"levelo://app?vid=9aef5bf9-a591-470f-a186-14897a95c1b9","ios":"levelo://app?vid=9aef5bf9-a591-470f-a186-14897a95c1b9"},"vehicle_type_id":"4","last_reported":1698606237,"current_range_meters":0,"station_id":"","pricing_plan_id":"free"},{"bike_id":"0de0bd27-0f7a-43aa-aa6c-5eac4c266e7a","system_id":"levelo_inurba_marseille","lat":43.305989,"lon":5.37225,"is_reserved":false,"is_disabled":false,"rental_uris":{"android":"levelo://app?vid=0de0bd27-0f7a-43aa-aa6c-5eac4c266e7a","ios":"levelo://app?vid=0de0bd27-0f7a-43aa-aa6c-5eac4c266e7a"},"vehicle_type_id":"4","last_reported":1698606237,"current_range_meters":0,"station_id":"ce4bgqh2rcd13ifvqc4g","pricing_plan_id":"free"},{"bike_id":"fb7a94ee-b31a-48a9-bb82-1a19fee7c09d","system_id":"levelo_inurba_marseille","lat":43.317075,"lon":5.377367,"is_reserved":false,"is_disabled":false,"rental_uris":{"android":"levelo://app?vid=fb7a94ee-b31a-48a9-bb82-1a19fee7c09d","ios":"levelo://app?vid=fb7a94ee-b31a-48a9-bb82-1a19fee7c09d"},"vehicle_type_id":"4","last_reported":1698606237,"current_range_meters":10000,"station_id":"ce4bgth2rcd13ifvqch0","pricing_plan_id":"free"},{"bike_id":"347a96c1-5466-4832-94a6-086840389082","system_id":"levelo_inurba_marseille","lat":43.317075,"lon":5.377367,"is_reserved":false,"is_disabled":false,"rental_uris":{"android":"levelo://app?vid=347a96c1-5466-4832-94a6-086840389082","ios":"levelo://app?vid=347a96c1-5466-4832-94a6-086840389082"},"vehicle_type_id":"4","last_reported":1698606237,"current_range_meters":25200,"station_id":"ce4bgth2rcd13ifvqch0","pricing_plan_id":"free"},{"bike_id":"c396736d-a440-4614-85c7-f97db4cd1c9b","system_id":"levelo_inurba_marseille","lat":43.30802,"lon":5.38157,"is_reserved":false,"is_disabled":false,"rental_uris":{"android":"levelo://app?vid=c396736d-a440-4614-85c7-f97db4cd1c9b","ios":"levelo://app?vid=c396736d-a440-4614-85c7-f97db4cd1c9b"},"vehicle_type_id":"4","last_reported":1698606237,"current_range_meters":5200,"station_id":"ce4bgt12rcd13ifvqce0","pricing_plan_id":"free"},{"bike_id":"38ffb593-322a-456f-8247-0c98eb364087","system_id":"levelo_inurba_marseille","lat":43.308012,"lon":5.381511,"is_reserved":false,"is_disabled":false,"rental_uris":{"android":"levelo://app?vid=38ffb593-322a-456f-8247-0c98eb364087","ios":"levelo://app?vid=38ffb593-322a-456f-8247-0c98eb364087"},"vehicle_type_id":"4","last_reported":1698606237,"current_range_meters":6800,"station_id":"ce4bgt12rcd13ifvqce0","pricing_plan_id":"free"},{"bike_id":"761cd267-26db-411d-8449-cf3a8f50f3f4","system_id":"levelo_inurba_marseille","lat":43.308012,"lon":5.381511,"is_reserved":false,"is_disabled":false,"rental_uris":{"android":"levelo://app?vid=761cd267-26db-411d-8449-cf3a8f50f3f4","ios":"levelo://app?vid=761cd267-26db-411d-8449-cf3a8f50f3f4"},"vehicle_type_id":"4","last_reported":1698606237,"current_range_meters":24800,"station_id":"ce4bgt12rcd13ifvqce0","pricing_plan_id":"free"},{"bike_id":"e3f253a1-9788-4492-938f-39b642fbd881","system_id":"levelo_inurba_marseille","lat":43.3245,"lon":5.36788,"is_reserved":false,"is_disabled":false,"rental_uris":{"android":"levelo://app?vid=e3f253a1-9788-4492-938f-39b642fbd881","ios":"levelo://app?vid=e3f253a1-9788-4492-938f-39b642fbd881"},"vehicle_type_id":"4","last_reported":1698606237,"current_range_meters":5200,"station_id":"","pricing_plan_id":"free"},{"bike_id":"d797f1e6-f3ca-4ad7-8b56-5ed6191da53c","system_id":"levelo_inurba_marseille","lat":43.304606,"lon":5.379026,"is_reserved":false,"is_disabled":false,"rental_uris":{"android":"levelo://app?vid=d797f1e6-f3ca-4ad7-8b56-5ed6191da53c","ios":"levelo://app?vid=d797f1e6-f3ca-4ad7-8b56-5ed6191da53c"},"vehicle_type_id":"4","last_reported":1698606237,"current_range_meters":25600,"station_id":"ce4bgup2rcd13ifvqcn0","pricing_plan_id":"free"},{"bike_id":"33799d3a-1a35-4946-b871-92caf48036ec","system_id":"levelo_inurba_marseille","lat":43.32473,"lon":5.36565,"is_reserved":false,"is_disabled":false,"rental_uris":{"android":"levelo://app?vid=33799d3a-1a35-4946-b871-92caf48036ec","ios":"levelo://app?vid=33799d3a-1a35-4946-b871-92caf48036ec"},"vehicle_type_id":"4","last_reported":1698606237,"current_range_meters":24000,"station_id":"","pricing_plan_id":"free"},{"bike_id":"d177f840-926d-43b5-b656-8750c3d13e8a","system_id":"levelo_inurba_marseille","lat":43.32477,"lon":5.36575,"is_reserved":false,"is_disabled":false,"rental_uris":{"android":"levelo://app?vid=d177f840-926d-43b5-b656-8750c3d13e8a","ios":"levelo://app?vid=d177f840-926d-43b5-b656-8750c3d13e8a"},"vehicle_type_id":"4","last_reported":1698606237,"current_range_meters":24800,"station_id":"","pricing_plan_id":"free"},{"bike_id":"cc3c2c7f-f201-4306-8e82-40e21ac2e3d7","system_id":"levelo_inurba_marseille","lat":43.302784,"lon":5.377158,"is_reserved":false,"is_disabled":false,"rental_uris":{"android":"levelo://app?vid=cc3c2c7f-f201-4306-8e82-40e21ac2e3d7","ios":"levelo://app?vid=cc3c2c7f-f201-4306-8e82-40e21ac2e3d7"},"vehicle_type_id":"4","last_reported":1698606237,"current_range_meters":2800,"station_id":"ce4bguh2rcd13ifvqcj0","pricing_plan_id":"free"},{"bike_id":"dd1c0b20-019a-4f88-ae15-bb2c3eed70ed","system_id":"levelo_inurba_marseille","lat":43.319315,"lon":5.382458,"is_reserved":false,"is_disabled":false,"rental_uris":{"android":"levelo://app?vid=dd1c0b20-019a-4f88-ae15-bb2c3eed70ed","ios":"levelo://app?vid=dd1c0b20-019a-4f88-ae15-bb2c3eed70ed"},"vehicle_type_id":"4","last_reported":1698606237,"current_range_meters":0,"station_id":"","pricing_plan_id":"free"},{"bike_id":"84346180-ad3a-488f-8c93-ffd5fbeb6e6c","system_id":"levelo_inurba_marseille","lat":43.313571,"lon":5.384829,"is_reserved":false,"is_disabled":false,"rental_uris":{"android":"levelo://app?vid=84346180-ad3a-488f-8c93-ffd5fbeb6e6c","ios":"levelo://app?vid=84346180-ad3a-488f-8c93-ffd5fbeb6e6c"},"vehicle_type_id":"4","last_reported":1698606237,"current_range_meters":27200,"station_id":"ce4bgt92rcd13ifvqcf0","pricing_plan_id":"free"},{"bike_id":"12aebd41-6e82-4f3f-aea5-634118f07ec8","system_id":"levelo_inurba_marseille","lat":43.313571,"lon":5.384829,"is_reserved":false,"is_disabled":false,"rental_uris":{"android":"levelo://app?vid=12aebd41-6e82-4f3f-aea5-634118f07ec8","ios":"levelo://app?vid=12aebd41-6e82-4f3f-aea5-634118f07ec8"},"vehicle_type_id":"4","last_reported":1698606237,"current_range_meters":4800,"station_id":"ce4bgt92rcd13ifvqcf0","pricing_plan_id":"free"},{"bike_id":"2f1ab682-82fd-4b0c-bc2e-e244b0ffb1c5","system_id":"levelo_inurba_marseille","lat":43.313571,"lon":5.384829,"is_reserved":false,"is_disabled":false,"rental_uris":{"android":"levelo://app?vid=2f1ab682-82fd-4b0c-bc2e-e244b0ffb1c5","ios":"levelo://app?vid=2f1ab682-82fd-4b0c-bc2e-e244b0ffb1c5"},"vehicle_type_id":"4","last_reported":1698606237,"current_range_meters":24400,"station_id":"ce4bgt92rcd13ifvqcf0","pricing_plan_id":"free"},{"bike_id":"b73dee0c-52cd-4e70-94ec-dd014522b36a","system_id":"levelo_inurba_marseille","lat":43.313571,"lon":5.384829,"is_reserved":false,"is_disabled":false,"rental_uris":{"android":"levelo://app?vid=b73dee0c-52cd-4e70-94ec-dd014522b36a","ios":"levelo://app?vid=b73dee0c-52cd-4e70-94ec-dd014522b36a"},"vehicle_type_id":"4","last_reported":1698606237,"current_range_meters":11600,"station_id":"ce4bgt92rcd13ifvqcf0","pricing_plan_id":"free"},{"bike_id":"a1b5bccf-b05a-4c32-b853-aabb8ae676e2","system_id":"levelo_inurba_marseille","lat":43.299222,"lon":5.365554,"is_reserved":false,"is_disabled":false,"rental_uris":{"android":"levelo://app?vid=a1b5bccf-b05a-4c32-b853-aabb8ae676e2","ios":"levelo://app?vid=a1b5bccf-b05a-4c32-b853-aabb8ae676e2"},"vehicle_type_id":"4","last_reported":1698606237,"current_range_meters":0,"station_id":"ce4bgm92rcd13ifvqbr0","pricing_plan_id":"free"},{"bike_id":"5ba66772-20b6-408d-a6c3-0df1cd4bb678","system_id":"levelo_inurba_marseille","lat":43.3264,"lon":5.367334,"is_reserved":false,"is_disabled":false,"rental_uris":{"android":"levelo://app?vid=5ba66772-20b6-408d-a6c3-0df1cd4bb678","ios":"levelo://app?vid=5ba66772-20b6-408d-a6c3-0df1cd4bb678"},"vehicle_type_id":"4","last_reported":1698606237,"current_range_meters":12800,"station_id":"","pricing_plan_id":"free"},{"bike_id":"ac9e3679-ecdc-402f-beed-4522b013caf2","system_id":"levelo_inurba_marseille","lat":43.305364,"lon":5.384119,"is_reserved":false,"is_disabled":false,"rental_uris":{"android":"levelo://app?vid=ac9e3679-ecdc-402f-beed-4522b013caf2","ios":"levelo://app?vid=ac9e3679-ecdc-402f-beed-4522b013caf2"},"vehicle_type_id":"4","last_reported":1698606237,"current_range_meters":12800,"station_id":"ce4bgg92rcd13ifvqb30","pricing_plan_id":"free"},{"bike_id":"8fd7b6b8-31d8-4e04-89b6-db3f5bf27e79","system_id":"levelo_inurba_marseille","lat":43.305364,"lon":5.384119,"is_reserved":false,"is_disabled":false,"rental_uris":{"android":"levelo://app?vid=8fd7b6b8-31d8-4e04-89b6-db3f5bf27e79","ios":"levelo://app?vid=8fd7b6b8-31d8-4e04-89b6-db3f5bf27e79"},"vehicle_type_id":"4","last_reported":1698606237,"current_range_meters":22800,"station_id":"ce4bgg92rcd13ifvqb30","pricing_plan_id":"free"},{"bike_id":"12502785-0416-48b1-ace3-e097f07644a4","system_id":"levelo_inurba_marseille","lat":43.311722,"lon":5.387247,"is_reserved":false,"is_disabled":false,"rental_uris":{"android":"levelo://app?vid=12502785-0416-48b1-ace3-e097f07644a4","ios":"levelo://app?vid=12502785-0416-48b1-ace3-e097f07644a4"},"vehicle_type_id":"4","last_reported":1698606237,"current_range_meters":24400,"station_id":"ce4bgv12rcd13ifvqcp0","pricing_plan_id":"free"},{"bike_id":"261ee04e-503f-442a-92b8-9a21484fc4c3","system_id":"levelo_inurba_marseille","lat":43.311722,"lon":5.387247,"is_reserved":false,"is_disabled":false,"rental_uris":{"android":"levelo://app?vid=261ee04e-503f-442a-92b8-9a21484fc4c3","ios":"levelo://app?vid=261ee04e-503f-442a-92b8-9a21484fc4c3"},"vehicle_type_id":"4","last_reported":1698606237,"current_range_meters":27200,"station_id":"ce4bgv12rcd13ifvqcp0","pricing_plan_id":"free"},{"bike_id":"d73bdb55-9b1c-4e22-b38b-50c2237083a0","system_id":"levelo_inurba_marseille","lat":43.311722,"lon":5.387247,"is_reserved":false,"is_disabled":false,"rental_uris":{"android":"levelo://app?vid=d73bdb55-9b1c-4e22-b38b-50c2237083a0","ios":"levelo://app?vid=d73bdb55-9b1c-4e22-b38b-50c2237083a0"},"vehicle_type_id":"4","last_reported":1698606237,"current_range_meters":15200,"station_id":"ce4bgv12rcd13ifvqcp0","pricing_plan_id":"free"},{"bike_id":"216647ac-ad53-45c1-abd2-eb942328d157","system_id":"levelo_inurba_marseille","lat":43.311722,"lon":5.387247,"is_reserved":false,"is_disabled":false,"rental_uris":{"android":"levelo://app?vid=216647ac-ad53-45c1-abd2-eb942328d157","ios":"levelo://app?vid=216647ac-ad53-45c1-abd2-eb942328d157"},"vehicle_type_id":"4","last_reported":1698606237,"current_range_meters":4400,"station_id":"ce4bgv12rcd13ifvqcp0","pricing_plan_id":"free"},{"bike_id":"94b2375b-ed2a-4476-b9d3-460fa588b677","system_id":"levelo_inurba_marseille","lat":43.297794,"lon":5.370888,"is_reserved":false,"is_disabled":false,"rental_uris":{"android":"levelo://app?vid=94b2375b-ed2a-4476-b9d3-460fa588b677","ios":"levelo://app?vid=94b2375b-ed2a-4476-b9d3-460fa588b677"},"vehicle_type_id":"4","last_reported":1698606237,"current_range_meters":17600,"station_id":"ce4bgop2rcd13ifvqc1g","pricing_plan_id":"free"},{"bike_id":"b3d181f3-c3b9-423f-81bd-a550e8d17957","system_id":"levelo_inurba_marseille","lat":43.3229,"lon":5.38268,"is_reserved":false,"is_disabled":false,"rental_uris":{"android":"levelo://app?vid=b3d181f3-c3b9-423f-81bd-a550e8d17957","ios":"levelo://app?vid=b3d181f3-c3b9-423f-81bd-a550e8d17957"},"vehicle_type_id":"4","last_reported":1698606237,"current_range_meters":28000,"station_id":"ce4bhr12rcd13ifvqhqg","pricing_plan_id":"free"},{"bike_id":"b268b5a1-f520-4edd-b3be-a567d7dc309c","system_id":"levelo_inurba_marseille","lat":43.328293,"lon":5.366874,"is_reserved":false,"is_disabled":false,"rental_uris":{"android":"levelo://app?vid=b268b5a1-f520-4edd-b3be-a567d7dc309c","ios":"levelo://app?vid=b268b5a1-f520-4edd-b3be-a567d7dc309c"},"vehicle_type_id":"4","last_reported":1698606237,"current_range_meters":23600,"station_id":"ce4bhs92rcd13ifvqi0g","pricing_plan_id":"free"},{"bike_id":"98cdae56-93ed-4430-a8b5-f41663ddefc0","system_id":"levelo_inurba_marseille","lat":43.328371,"lon":5.366909,"is_reserved":false,"is_disabled":false,"rental_uris":{"android":"levelo://app?vid=98cdae56-93ed-4430-a8b5-f41663ddefc0","ios":"levelo://app?vid=98cdae56-93ed-4430-a8b5-f41663ddefc0"},"vehicle_type_id":"4","last_reported":1698606237,"current_range_meters":31200,"station_id":"ce4bhs92rcd13ifvqi0g","pricing_plan_id":"free"},{"bike_id":"2bf09692-7151-4aba-9fa7-8ce1d6106004","system_id":"levelo_inurba_marseille","lat":43.328303,"lon":5.366873,"is_reserved":false,"is_disabled":false,"rental_uris":{"android":"levelo://app?vid=2bf09692-7151-4aba-9fa7-8ce1d6106004","ios":"levelo://app?vid=2bf09692-7151-4aba-9fa7-8ce1d6106004"},"vehicle_type_id":"4","last_reported":1698606237,"current_range_meters":8400,"station_id":"","pricing_plan_id":"free"},{"bike_id":"86bb0a20-8123-4e0e-84f3-756c4bdb05df","system_id":"levelo_inurba_marseille","lat":43.32833,"lon":5.3669,"is_reserved":false,"is_disabled":false,"rental_uris":{"android":"levelo://app?vid=86bb0a20-8123-4e0e-84f3-756c4bdb05df","ios":"levelo://app?vid=86bb0a20-8123-4e0e-84f3-756c4bdb05df"},"vehicle_type_id":"4","last_reported":1698606237,"current_range_meters":19200,"station_id":"ce4bhs92rcd13ifvqi0g","pricing_plan_id":"free"},{"bike_id":"1401713a-906e-435e-8b48-1afc57029fa7","system_id":"levelo_inurba_marseille","lat":43.32833,"lon":5.36688,"is_reserved":false,"is_disabled":false,"rental_uris":{"android":"levelo://app?vid=1401713a-906e-435e-8b48-1afc57029fa7","ios":"levelo://app?vid=1401713a-906e-435e-8b48-1afc57029fa7"},"vehicle_type_id":"4","last_reported":1698606237,"current_range_meters":12000,"station_id":"ce4bhs92rcd13ifvqi0g","pricing_plan_id":"free"},{"bike_id":"7058fde7-e208-4c67-9c3f-b8160ae07a6d","system_id":"levelo_inurba_marseille","lat":43.328347,"lon":5.366913,"is_reserved":false,"is_disabled":false,"rental_uris":{"android":"levelo://app?vid=7058fde7-e208-4c67-9c3f-b8160ae07a6d","ios":"levelo://app?vid=7058fde7-e208-4c67-9c3f-b8160ae07a6d"},"vehicle_type_id":"4","last_reported":1698606237,"current_range_meters":12800,"station_id":"ce4bhs92rcd13ifvqi0g","pricing_plan_id":"free"},{"bike_id":"f3d0381f-7a2d-409e-a12f-bd3d9095653d","system_id":"levelo_inurba_marseille","lat":43.329673,"lon":5.365468,"is_reserved":false,"is_disabled":false,"rental_uris":{"android":"levelo://app?vid=f3d0381f-7a2d-409e-a12f-bd3d9095653d","ios":"levelo://app?vid=f3d0381f-7a2d-409e-a12f-bd3d9095653d"},"vehicle_type_id":"4","last_reported":1698606237,"current_range_meters":400,"station_id":"","pricing_plan_id":"free"},{"bike_id":"b495967c-64c2-44d1-b24b-eb1f84b3b7ac","system_id":"levelo_inurba_marseille","lat":43.309589,"lon":5.390258,"is_reserved":false,"is_disabled":false,"rental_uris":{"android":"levelo://app?vid=b495967c-64c2-44d1-b24b-eb1f84b3b7ac","ios":"levelo://app?vid=b495967c-64c2-44d1-b24b-eb1f84b3b7ac"},"vehicle_type_id":"4","last_reported":1698606237,"current_range_meters":2000,"station_id":"ce4bgup2rcd13ifvqco0","pricing_plan_id":"free"},{"bike_id":"5370ad0e-c348-4a82-8f95-bbae1d9cb03e","system_id":"levelo_inurba_marseille","lat":43.304278,"lon":5.388868,"is_reserved":false,"is_disabled":false,"rental_uris":{"android":"levelo://app?vid=5370ad0e-c348-4a82-8f95-bbae1d9cb03e","ios":"levelo://app?vid=5370ad0e-c348-4a82-8f95-bbae1d9cb03e"},"vehicle_type_id":"4","last_reported":1698606237,"current_range_meters":21600,"station_id":"ce4bgk12rcd13ifvqbi0","pricing_plan_id":"free"},{"bike_id":"ac46fb05-f2cf-453b-9e14-fffe77538519","system_id":"levelo_inurba_marseille","lat":43.302008,"lon":5.394694,"is_reserved":false,"is_disabled":false,"rental_uris":{"android":"levelo://app?vid=ac46fb05-f2cf-453b-9e14-fffe77538519","ios":"levelo://app?vid=ac46fb05-f2cf-453b-9e14-fffe77538519"},"vehicle_type_id":"4","last_reported":1698606237,"current_range_meters":0,"station_id":"ce4bh0p2rcd13ifvqd70","pricing_plan_id":"free"},{"bike_id":"0bcbbd16-8356-4797-9892-a36febbb8e2b","system_id":"levelo_inurba_marseille","lat":43.299707,"lon":5.384859,"is_reserved":false,"is_disabled":false,"rental_uris":{"android":"levelo://app?vid=0bcbbd16-8356-4797-9892-a36febbb8e2b","ios":"levelo://app?vid=0bcbbd16-8356-4797-9892-a36febbb8e2b"},"vehicle_type_id":"4","last_reported":1698606237,"current_range_meters":19600,"station_id":"ce4bgj92rcd13ifvqbd0","pricing_plan_id":"free"},{"bike_id":"fffdb89f-d0fa-48b2-8a15-e8865b4139a1","system_id":"levelo_inurba_marseille","lat":43.32366,"lon":5.38883,"is_reserved":false,"is_disabled":false,"rental_uris":{"android":"levelo://app?vid=fffdb89f-d0fa-48b2-8a15-e8865b4139a1","ios":"levelo://app?vid=fffdb89f-d0fa-48b2-8a15-e8865b4139a1"},"vehicle_type_id":"4","last_reported":1698606237,"current_range_meters":2000,"station_id":"ce4bhqp2rcd13ifvqhog","pricing_plan_id":"free"},{"bike_id":"13cc706f-d656-4e9d-8ed6-8622e94a3e9b","system_id":"levelo_inurba_marseille","lat":43.323689,"lon":5.388834,"is_reserved":false,"is_disabled":false,"rental_uris":{"android":"levelo://app?vid=13cc706f-d656-4e9d-8ed6-8622e94a3e9b","ios":"levelo://app?vid=13cc706f-d656-4e9d-8ed6-8622e94a3e9b"},"vehicle_type_id":"4","last_reported":1698606237,"current_range_meters":800,"station_id":"ce4bhqp2rcd13ifvqhog","pricing_plan_id":"free"},{"bike_id":"060ae642-beb6-4426-899d-a5bf279698ce","system_id":"levelo_inurba_marseille","lat":43.293009,"lon":5.374584,"is_reserved":false,"is_disabled":false,"rental_uris":{"android":"levelo://app?vid=060ae642-beb6-4426-899d-a5bf279698ce","ios":"levelo://app?vid=060ae642-beb6-4426-899d-a5bf279698ce"},"vehicle_type_id":"4","last_reported":1698606237,"current_range_meters":0,"station_id":"ce4bgi12rcd13ifvqb70","pricing_plan_id":"free"},{"bike_id":"58c5b1c7-0f49-40e8-b8e2-14c3724bf055","system_id":"levelo_inurba_marseille","lat":43.298764,"lon":5.388973,"is_reserved":false,"is_disabled":false,"rental_uris":{"android":"levelo://app?vid=58c5b1c7-0f49-40e8-b8e2-14c3724bf055","ios":"levelo://app?vid=58c5b1c7-0f49-40e8-b8e2-14c3724bf055"},"vehicle_type_id":"4","last_reported":1698606237,"current_range_meters":8800,"station_id":"ce4bh392rcd13ifvqdl0","pricing_plan_id":"free"},{"bike_id":"0e8233d2-0d57-470f-8c07-e9f753046a4f","system_id":"levelo_inurba_marseille","lat":43.332197,"lon":5.379064,"is_reserved":false,"is_disabled":false,"rental_uris":{"android":"levelo://app?vid=0e8233d2-0d57-470f-8c07-e9f753046a4f","ios":"levelo://app?vid=0e8233d2-0d57-470f-8c07-e9f753046a4f"},"vehicle_type_id":"4","last_reported":1698606237,"current_range_meters":28000,"station_id":"","pricing_plan_id":"free"},{"bike_id":"1f580447-7b2c-4630-9a51-33e28281b372","system_id":"levelo_inurba_marseille","lat":43.332219,"lon":5.380002,"is_reserved":false,"is_disabled":false,"rental_uris":{"android":"levelo://app?vid=1f580447-7b2c-4630-9a51-33e28281b372","ios":"levelo://app?vid=1f580447-7b2c-4630-9a51-33e28281b372"},"vehicle_type_id":"4","last_reported":1698606237,"current_range_meters":31200,"station_id":"","pricing_plan_id":"free"},{"bike_id":"1ccea910-e6fd-4ade-beaa-d1141e72e330","system_id":"levelo_inurba_marseille","lat":43.31331,"lon":5.39697,"is_reserved":false,"is_disabled":false,"rental_uris":{"android":"levelo://app?vid=1ccea910-e6fd-4ade-beaa-d1141e72e330","ios":"levelo://app?vid=1ccea910-e6fd-4ade-beaa-d1141e72e330"},"vehicle_type_id":"4","last_reported":1698606237,"current_range_meters":17200,"station_id":"ce4bgvp2rcd13ifvqcu0","pricing_plan_id":"free"},{"bike_id":"bb615e7a-c7dd-4dee-802c-d05b67290bc9","system_id":"levelo_inurba_marseille","lat":43.313291,"lon":5.396838,"is_reserved":false,"is_disabled":false,"rental_uris":{"android":"levelo://app?vid=bb615e7a-c7dd-4dee-802c-d05b67290bc9","ios":"levelo://app?vid=bb615e7a-c7dd-4dee-802c-d05b67290bc9"},"vehicle_type_id":"4","last_reported":1698606237,"current_range_meters":24400,"station_id":"ce4bgvp2rcd13ifvqcu0","pricing_plan_id":"free"},{"bike_id":"9e186f55-d906-4b54-9553-eed70e222375","system_id":"levelo_inurba_marseille","lat":43.330958,"lon":5.385281,"is_reserved":false,"is_disabled":false,"rental_uris":{"android":"levelo://app?vid=9e186f55-d906-4b54-9553-eed70e222375","ios":"levelo://app?vid=9e186f55-d906-4b54-9553-eed70e222375"},"vehicle_type_id":"4","last_reported":1698606237,"current_range_meters":23600,"station_id":"","pricing_plan_id":"free"},{"bike_id":"e0be05c4-5a16-4bf6-88a4-475a676eebed","system_id":"levelo_inurba_marseille","lat":43.294153,"lon":5.386305,"is_reserved":false,"is_disabled":false,"rental_uris":{"android":"levelo://app?vid=e0be05c4-5a16-4bf6-88a4-475a676eebed","ios":"levelo://app?vid=e0be05c4-5a16-4bf6-88a4-475a676eebed"},"vehicle_type_id":"4","last_reported":1698606237,"current_range_meters":12800,"station_id":"ce4bh2h2rcd13ifvqdh0","pricing_plan_id":"free"},{"bike_id":"5d9978c4-1474-4124-a6b9-dfdee0a810c0","system_id":"levelo_inurba_marseille","lat":43.289468,"lon":5.363719,"is_reserved":false,"is_disabled":false,"rental_uris":{"android":"levelo://app?vid=5d9978c4-1474-4124-a6b9-dfdee0a810c0","ios":"levelo://app?vid=5d9978c4-1474-4124-a6b9-dfdee0a810c0"},"vehicle_type_id":"4","last_reported":1698606237,"current_range_meters":24800,"station_id":"ce4bhc92rcd13ifvqetg","pricing_plan_id":"free"},{"bike_id":"fbd2f048-462c-4f56-ad46-9d3b7a8f6982","system_id":"levelo_inurba_marseille","lat":43.292644,"lon":5.384257,"is_reserved":false,"is_disabled":false,"rental_uris":{"android":"levelo://app?vid=fbd2f048-462c-4f56-ad46-9d3b7a8f6982","ios":"levelo://app?vid=fbd2f048-462c-4f56-ad46-9d3b7a8f6982"},"vehicle_type_id":"4","last_reported":1698606237,"current_range_meters":21200,"station_id":"ce4bh692rcd13ifvqea0","pricing_plan_id":"free"},{"bike_id":"c10da6c2-beda-4ee6-b96c-ba5d86476fb1","system_id":"levelo_inurba_marseille","lat":43.33042,"lon":5.38919,"is_reserved":false,"is_disabled":false,"rental_uris":{"android":"levelo://app?vid=c10da6c2-beda-4ee6-b96c-ba5d86476fb1","ios":"levelo://app?vid=c10da6c2-beda-4ee6-b96c-ba5d86476fb1"},"vehicle_type_id":"4","last_reported":1698606237,"current_range_meters":18800,"station_id":"ce4bhr92rcd13ifvqhrg","pricing_plan_id":"free"},{"bike_id":"d5d3925f-f867-4392-8d62-29b79e249aaa","system_id":"levelo_inurba_marseille","lat":43.33042,"lon":5.38919,"is_reserved":false,"is_disabled":false,"rental_uris":{"android":"levelo://app?vid=d5d3925f-f867-4392-8d62-29b79e249aaa","ios":"levelo://app?vid=d5d3925f-f867-4392-8d62-29b79e249aaa"},"vehicle_type_id":"4","last_reported":1698606237,"current_range_meters":22800,"station_id":"ce4bhr92rcd13ifvqhrg","pricing_plan_id":"free"},{"bike_id":"8ec8b72c-dd6f-469d-aee0-017da7f125f4","system_id":"levelo_inurba_marseille","lat":43.330442,"lon":5.389148,"is_reserved":false,"is_disabled":false,"rental_uris":{"android":"levelo://app?vid=8ec8b72c-dd6f-469d-aee0-017da7f125f4","ios":"levelo://app?vid=8ec8b72c-dd6f-469d-aee0-017da7f125f4"},"vehicle_type_id":"4","last_reported":1698606237,"current_range_meters":5600,"station_id":"ce4bhr92rcd13ifvqhrg","pricing_plan_id":"free"},{"bike_id":"1dc02990-ed60-491c-bc61-750586243eb8","system_id":"levelo_inurba_marseille","lat":43.298037,"lon":5.381066,"is_reserved":false,"is_disabled":false,"rental_uris":{"android":"levelo://app?vid=1dc02990-ed60-491c-bc61-750586243eb8","ios":"levelo://app?vid=1dc02990-ed60-491c-bc61-750586243eb8"},"vehicle_type_id":"4","last_reported":1698606237,"current_range_meters":25200,"station_id":"ce4bgip2rcd13ifvqbb0","pricing_plan_id":"free"},{"bike_id":"e0d713cd-ec81-44ec-8ba4-571dd76a2b05","system_id":"levelo_inurba_marseille","lat":43.295169,"lon":5.390426,"is_reserved":false,"is_disabled":false,"rental_uris":{"android":"levelo://app?vid=e0d713cd-ec81-44ec-8ba4-571dd76a2b05","ios":"levelo://app?vid=e0d713cd-ec81-44ec-8ba4-571dd76a2b05"},"vehicle_type_id":"4","last_reported":1698606237,"current_range_meters":23600,"station_id":"ce4bh3p2rcd13ifvqdp0","pricing_plan_id":"free"},{"bike_id":"af286a6d-d49b-4114-a047-9052cd19f331","system_id":"levelo_inurba_marseille","lat":43.297928,"lon":5.393518,"is_reserved":false,"is_disabled":false,"rental_uris":{"android":"levelo://app?vid=af286a6d-d49b-4114-a047-9052cd19f331","ios":"levelo://app?vid=af286a6d-d49b-4114-a047-9052cd19f331"},"vehicle_type_id":"4","last_reported":1698606237,"current_range_meters":0,"station_id":"chh1huq6cuj3fo74tm60","pricing_plan_id":"free"},{"bike_id":"eb1631ad-21eb-4f5c-8f50-ff6bb461367d","system_id":"levelo_inurba_marseille","lat":43.288254,"lon":5.366564,"is_reserved":false,"is_disabled":false,"rental_uris":{"android":"levelo://app?vid=eb1631ad-21eb-4f5c-8f50-ff6bb461367d","ios":"levelo://app?vid=eb1631ad-21eb-4f5c-8f50-ff6bb461367d"},"vehicle_type_id":"4","last_reported":1698606237,"current_range_meters":14400,"station_id":"","pricing_plan_id":"free"},{"bike_id":"1e368e2b-773f-4c7b-aea1-9cc24b560069","system_id":"levelo_inurba_marseille","lat":43.3093,"lon":5.4014,"is_reserved":false,"is_disabled":false,"rental_uris":{"android":"levelo://app?vid=1e368e2b-773f-4c7b-aea1-9cc24b560069","ios":"levelo://app?vid=1e368e2b-773f-4c7b-aea1-9cc24b560069"},"vehicle_type_id":"4","last_reported":1698606237,"current_range_meters":14800,"station_id":"ce4bgvp2rcd13ifvqct0","pricing_plan_id":"free"},{"bike_id":"ffc3fe4d-9429-4086-94ef-8f19136b3b3f","system_id":"levelo_inurba_marseille","lat":43.3375,"lon":5.37446,"is_reserved":false,"is_disabled":false,"rental_uris":{"android":"levelo://app?vid=ffc3fe4d-9429-4086-94ef-8f19136b3b3f","ios":"levelo://app?vid=ffc3fe4d-9429-4086-94ef-8f19136b3b3f"},"vehicle_type_id":"4","last_reported":1698606237,"current_range_meters":29200,"station_id":"","pricing_plan_id":"free"},{"bike_id":"0f8e2a4c-33c8-42e2-bed8-21471a17cb68","system_id":"levelo_inurba_marseille","lat":43.31242,"lon":5.40182,"is_reserved":false,"is_disabled":false,"rental_uris":{"android":"levelo://app?vid=0f8e2a4c-33c8-42e2-bed8-21471a17cb68","ios":"levelo://app?vid=0f8e2a4c-33c8-42e2-bed8-21471a17cb68"},"vehicle_type_id":"4","last_reported":1698606237,"current_range_meters":1200,"station_id":"ce4bh092rcd13ifvqd30","pricing_plan_id":"free"},{"bike_id":"b231822a-119b-4312-911c-e2fb07219e92","system_id":"levelo_inurba_marseille","lat":43.337595,"lon":5.374595,"is_reserved":false,"is_disabled":false,"rental_uris":{"android":"levelo://app?vid=b231822a-119b-4312-911c-e2fb07219e92","ios":"levelo://app?vid=b231822a-119b-4312-911c-e2fb07219e92"},"vehicle_type_id":"4","last_reported":1698606237,"current_range_meters":27600,"station_id":"","pricing_plan_id":"free"},{"bike_id":"b8a22e84-786a-4576-b94d-cb6cbeea72b0","system_id":"levelo_inurba_marseille","lat":43.306412,"lon":5.401035,"is_reserved":false,"is_disabled":false,"rental_uris":{"android":"levelo://app?vid=b8a22e84-786a-4576-b94d-cb6cbeea72b0","ios":"levelo://app?vid=b8a22e84-786a-4576-b94d-cb6cbeea72b0"},"vehicle_type_id":"4","last_reported":1698606237,"current_range_meters":6400,"station_id":"ce4bh112rcd13ifvqda0","pricing_plan_id":"free"},{"bike_id":"d98f8166-ea07-41ad-92a5-bdb6affc3d1a","system_id":"levelo_inurba_marseille","lat":43.30642,"lon":5.401031,"is_reserved":false,"is_disabled":false,"rental_uris":{"android":"levelo://app?vid=d98f8166-ea07-41ad-92a5-bdb6affc3d1a","ios":"levelo://app?vid=d98f8166-ea07-41ad-92a5-bdb6affc3d1a"},"vehicle_type_id":"4","last_reported":1698606237,"current_range_meters":9600,"station_id":"ce4bh112rcd13ifvqda0","pricing_plan_id":"free"},{"bike_id":"697b51af-97f1-478c-a51a-b31bad67d7e7","system_id":"levelo_inurba_marseille","lat":43.30642,"lon":5.401031,"is_reserved":false,"is_disabled":false,"rental_uris":{"android":"levelo://app?vid=697b51af-97f1-478c-a51a-b31bad67d7e7","ios":"levelo://app?vid=697b51af-97f1-478c-a51a-b31bad67d7e7"},"vehicle_type_id":"4","last_reported":1698606237,"current_range_meters":14800,"station_id":"ce4bh112rcd13ifvqda0","pricing_plan_id":"free"},{"bike_id":"165def52-1016-468e-8577-b327c73f2d07","system_id":"levelo_inurba_marseille","lat":43.306412,"lon":5.401035,"is_reserved":false,"is_disabled":false,"rental_uris":{"android":"levelo://app?vid=165def52-1016-468e-8577-b327c73f2d07","ios":"levelo://app?vid=165def52-1016-468e-8577-b327c73f2d07"},"vehicle_type_id":"4","last_reported":1698606237,"current_range_meters":11600,"station_id":"ce4bh112rcd13ifvqda0","pricing_plan_id":"free"},{"bike_id":"c03144d0-daeb-4d08-b9b1-5fd3cbcc0729","system_id":"levelo_inurba_marseille","lat":43.28797,"lon":5.37677,"is_reserved":false,"is_disabled":false,"rental_uris":{"android":"levelo://app?vid=c03144d0-daeb-4d08-b9b1-5fd3cbcc0729","ios":"levelo://app?vid=c03144d0-daeb-4d08-b9b1-5fd3cbcc0729"},"vehicle_type_id":"4","last_reported":1698606237,"current_range_meters":12400,"station_id":"","pricing_plan_id":"free"},{"bike_id":"ea819bc8-2411-4a5d-b14d-7795b426bb6c","system_id":"levelo_inurba_marseille","lat":43.28727,"lon":5.36078,"is_reserved":false,"is_disabled":false,"rental_uris":{"android":"levelo://app?vid=ea819bc8-2411-4a5d-b14d-7795b426bb6c","ios":"levelo://app?vid=ea819bc8-2411-4a5d-b14d-7795b426bb6c"},"vehicle_type_id":"4","last_reported":1698606237,"current_range_meters":12800,"station_id":"cki0cbj6b192h4jlfktg","pricing_plan_id":"free"},{"bike_id":"0f6931eb-6f1c-4afb-9de3-a9ff747fac84","system_id":"levelo_inurba_marseille","lat":43.28727,"lon":5.36078,"is_reserved":false,"is_disabled":false,"rental_uris":{"android":"levelo://app?vid=0f6931eb-6f1c-4afb-9de3-a9ff747fac84","ios":"levelo://app?vid=0f6931eb-6f1c-4afb-9de3-a9ff747fac84"},"vehicle_type_id":"4","last_reported":1698606237,"current_range_meters":24000,"station_id":"cki0cbj6b192h4jlfktg","pricing_plan_id":"free"},{"bike_id":"36558afd-aed3-4111-95b9-6dd7f02af3fc","system_id":"levelo_inurba_marseille","lat":43.28727,"lon":5.36078,"is_reserved":false,"is_disabled":false,"rental_uris":{"android":"levelo://app?vid=36558afd-aed3-4111-95b9-6dd7f02af3fc","ios":"levelo://app?vid=36558afd-aed3-4111-95b9-6dd7f02af3fc"},"vehicle_type_id":"4","last_reported":1698606237,"current_range_meters":12800,"station_id":"cki0cbj6b192h4jlfktg","pricing_plan_id":"free"},{"bike_id":"a354bf3e-e716-452e-9d77-a6d1cc049c36","system_id":"levelo_inurba_marseille","lat":43.286961,"lon":5.373785,"is_reserved":false,"is_disabled":false,"rental_uris":{"android":"levelo://app?vid=a354bf3e-e716-452e-9d77-a6d1cc049c36","ios":"levelo://app?vid=a354bf3e-e716-452e-9d77-a6d1cc049c36"},"vehicle_type_id":"4","last_reported":1698606237,"current_range_meters":22000,"station_id":"ce4bh3p2rcd13ifvqdq0","pricing_plan_id":"free"},{"bike_id":"d6cc3a09-e879-461e-a72f-c99a7427fcf0","system_id":"levelo_inurba_marseille","lat":43.298681,"lon":5.397225,"is_reserved":false,"is_disabled":false,"rental_uris":{"android":"levelo://app?vid=d6cc3a09-e879-461e-a72f-c99a7427fcf0","ios":"levelo://app?vid=d6cc3a09-e879-461e-a72f-c99a7427fcf0"},"vehicle_type_id":"4","last_reported":1698606237,"current_range_meters":20000,"station_id":"ce4bh0h2rcd13ifvqd50","pricing_plan_id":"free"},{"bike_id":"864cb494-bd50-43c4-96b7-48f139b3c1dc","system_id":"levelo_inurba_marseille","lat":43.286961,"lon":5.373785,"is_reserved":false,"is_disabled":false,"rental_uris":{"android":"levelo://app?vid=864cb494-bd50-43c4-96b7-48f139b3c1dc","ios":"levelo://app?vid=864cb494-bd50-43c4-96b7-48f139b3c1dc"},"vehicle_type_id":"4","last_reported":1698606237,"current_range_meters":13600,"station_id":"ce4bh3p2rcd13ifvqdq0","pricing_plan_id":"free"},{"bike_id":"f6f6b7a5-180f-45d3-bf04-6765b833fc2c","system_id":"levelo_inurba_marseille","lat":43.302759,"lon":5.400793,"is_reserved":false,"is_disabled":false,"rental_uris":{"android":"levelo://app?vid=f6f6b7a5-180f-45d3-bf04-6765b833fc2c","ios":"levelo://app?vid=f6f6b7a5-180f-45d3-bf04-6765b833fc2c"},"vehicle_type_id":"4","last_reported":1698606237,"current_range_meters":16800,"station_id":"ce4bgvh2rcd13ifvqcs0","pricing_plan_id":"free"},{"bike_id":"9e6f917f-40c1-4ecf-9daa-7e29dbede503","system_id":"levelo_inurba_marseille","lat":43.29034,"lon":5.38643,"is_reserved":false,"is_disabled":false,"rental_uris":{"android":"levelo://app?vid=9e6f917f-40c1-4ecf-9daa-7e29dbede503","ios":"levelo://app?vid=9e6f917f-40c1-4ecf-9daa-7e29dbede503"},"vehicle_type_id":"4","last_reported":1698606237,"current_range_meters":10000,"station_id":"ce4bh4p2rcd13ifvqe0g","pricing_plan_id":"free"},{"bike_id":"f848aa51-b7db-4bc1-a2c2-3c6aa31927b5","system_id":"levelo_inurba_marseille","lat":43.286961,"lon":5.373785,"is_reserved":false,"is_disabled":false,"rental_uris":{"android":"levelo://app?vid=f848aa51-b7db-4bc1-a2c2-3c6aa31927b5","ios":"levelo://app?vid=f848aa51-b7db-4bc1-a2c2-3c6aa31927b5"},"vehicle_type_id":"4","last_reported":1698606237,"current_range_meters":10000,"station_id":"ce4bh3p2rcd13ifvqdq0","pricing_plan_id":"free"},{"bike_id":"c9471ed8-59df-4c27-bec7-307e841f1fd0","system_id":"levelo_inurba_marseille","lat":43.290335,"lon":5.386438,"is_reserved":false,"is_disabled":false,"rental_uris":{"android":"levelo://app?vid=c9471ed8-59df-4c27-bec7-307e841f1fd0","ios":"levelo://app?vid=c9471ed8-59df-4c27-bec7-307e841f1fd0"},"vehicle_type_id":"4","last_reported":1698606237,"current_range_meters":24800,"station_id":"ce4bh4p2rcd13ifvqe0g","pricing_plan_id":"free"},{"bike_id":"669398eb-176b-4f8f-91b7-c2264bd29d0f","system_id":"levelo_inurba_marseille","lat":43.28921,"lon":5.38394,"is_reserved":false,"is_disabled":false,"rental_uris":{"android":"levelo://app?vid=669398eb-176b-4f8f-91b7-c2264bd29d0f","ios":"levelo://app?vid=669398eb-176b-4f8f-91b7-c2264bd29d0f"},"vehicle_type_id":"4","last_reported":1698606237,"current_range_meters":1200,"station_id":"ce4bh612rcd13ifvqe6g","pricing_plan_id":"free"},{"bike_id":"aacc9a5e-4ba1-4eec-90ee-41d0a205b971","system_id":"levelo_inurba_marseille","lat":43.28919,"lon":5.38394,"is_reserved":false,"is_disabled":false,"rental_uris":{"android":"levelo://app?vid=aacc9a5e-4ba1-4eec-90ee-41d0a205b971","ios":"levelo://app?vid=aacc9a5e-4ba1-4eec-90ee-41d0a205b971"},"vehicle_type_id":"4","last_reported":1698606237,"current_range_meters":6000,"station_id":"ce4bh612rcd13ifvqe6g","pricing_plan_id":"free"},{"bike_id":"b39fe4f2-a8a6-4118-a5fb-8480fa6a3595","system_id":"levelo_inurba_marseille","lat":43.302759,"lon":5.400793,"is_reserved":false,"is_disabled":false,"rental_uris":{"android":"levelo://app?vid=b39fe4f2-a8a6-4118-a5fb-8480fa6a3595","ios":"levelo://app?vid=b39fe4f2-a8a6-4118-a5fb-8480fa6a3595"},"vehicle_type_id":"4","last_reported":1698606237,"current_range_meters":5600,"station_id":"ce4bgvh2rcd13ifvqcs0","pricing_plan_id":"free"},{"bike_id":"b80db267-e973-4cc7-b805-db39c41fbc80","system_id":"levelo_inurba_marseille","lat":43.302759,"lon":5.400793,"is_reserved":false,"is_disabled":false,"rental_uris":{"android":"levelo://app?vid=b80db267-e973-4cc7-b805-db39c41fbc80","ios":"levelo://app?vid=b80db267-e973-4cc7-b805-db39c41fbc80"},"vehicle_type_id":"4","last_reported":1698606237,"current_range_meters":4000,"station_id":"ce4bgvh2rcd13ifvqcs0","pricing_plan_id":"free"},{"bike_id":"56dce50a-5fce-48dc-a9f1-3e39a230c0d6","system_id":"levelo_inurba_marseille","lat":43.286039,"lon":5.370679,"is_reserved":false,"is_disabled":false,"rental_uris":{"android":"levelo://app?vid=56dce50a-5fce-48dc-a9f1-3e39a230c0d6","ios":"levelo://app?vid=56dce50a-5fce-48dc-a9f1-3e39a230c0d6"},"vehicle_type_id":"4","last_reported":1698606237,"current_range_meters":31600,"station_id":"ce4bht12rcd13ifvqi60","pricing_plan_id":"free"},{"bike_id":"809ea1fd-b135-46f6-a83c-4d2cd04678b1","system_id":"levelo_inurba_marseille","lat":43.286039,"lon":5.370679,"is_reserved":false,"is_disabled":false,"rental_uris":{"android":"levelo://app?vid=809ea1fd-b135-46f6-a83c-4d2cd04678b1","ios":"levelo://app?vid=809ea1fd-b135-46f6-a83c-4d2cd04678b1"},"vehicle_type_id":"4","last_reported":1698606237,"current_range_meters":26400,"station_id":"ce4bht12rcd13ifvqi60","pricing_plan_id":"free"},{"bike_id":"af800ffb-88fd-463b-98a6-c5a215ad676e","system_id":"levelo_inurba_marseille","lat":43.286039,"lon":5.370679,"is_reserved":false,"is_disabled":false,"rental_uris":{"android":"levelo://app?vid=af800ffb-88fd-463b-98a6-c5a215ad676e","ios":"levelo://app?vid=af800ffb-88fd-463b-98a6-c5a215ad676e"},"vehicle_type_id":"4","last_reported":1698606237,"current_range_meters":30400,"station_id":"ce4bht12rcd13ifvqi60","pricing_plan_id":"free"},{"bike_id":"2749a08f-23be-479a-a030-4c9822e476c3","system_id":"levelo_inurba_marseille","lat":43.316517,"lon":5.404375,"is_reserved":false,"is_disabled":false,"rental_uris":{"android":"levelo://app?vid=2749a08f-23be-479a-a030-4c9822e476c3","ios":"levelo://app?vid=2749a08f-23be-479a-a030-4c9822e476c3"},"vehicle_type_id":"4","last_reported":1698606237,"current_range_meters":2400,"station_id":"ce4bh012rcd13ifvqd00","pricing_plan_id":"free"},{"bike_id":"9a2df833-0272-4d6f-80fe-5c4c2420d967","system_id":"levelo_inurba_marseille","lat":43.28463,"lon":5.35883,"is_reserved":false,"is_disabled":false,"rental_uris":{"android":"levelo://app?vid=9a2df833-0272-4d6f-80fe-5c4c2420d967","ios":"levelo://app?vid=9a2df833-0272-4d6f-80fe-5c4c2420d967"},"vehicle_type_id":"4","last_reported":1698606237,"current_range_meters":10800,"station_id":"ce4bhah2rcd13ifvqei0","pricing_plan_id":"free"},{"bike_id":"c25bec2f-f3f7-4b74-aeab-105047b0e59f","system_id":"levelo_inurba_marseille","lat":43.28431,"lon":5.35801,"is_reserved":false,"is_disabled":false,"rental_uris":{"android":"levelo://app?vid=c25bec2f-f3f7-4b74-aeab-105047b0e59f","ios":"levelo://app?vid=c25bec2f-f3f7-4b74-aeab-105047b0e59f"},"vehicle_type_id":"4","last_reported":1698606237,"current_range_meters":4400,"station_id":"","pricing_plan_id":"free"},{"bike_id":"4fdb268d-38cf-4cad-929b-d569b625694f","system_id":"levelo_inurba_marseille","lat":43.283998,"lon":5.375062,"is_reserved":false,"is_disabled":false,"rental_uris":{"android":"levelo://app?vid=4fdb268d-38cf-4cad-929b-d569b625694f","ios":"levelo://app?vid=4fdb268d-38cf-4cad-929b-d569b625694f"},"vehicle_type_id":"4","last_reported":1698606237,"current_range_meters":12000,"station_id":"ce4bh412rcd13ifvqds0","pricing_plan_id":"free"},{"bike_id":"9e0329ab-49e1-49b0-9b28-599d23a94cda","system_id":"levelo_inurba_marseille","lat":43.283998,"lon":5.375062,"is_reserved":false,"is_disabled":false,"rental_uris":{"android":"levelo://app?vid=9e0329ab-49e1-49b0-9b28-599d23a94cda","ios":"levelo://app?vid=9e0329ab-49e1-49b0-9b28-599d23a94cda"},"vehicle_type_id":"4","last_reported":1698606237,"current_range_meters":10800,"station_id":"ce4bh412rcd13ifvqds0","pricing_plan_id":"free"},{"bike_id":"b742d94b-1388-4136-8588-d1894f69a7e6","system_id":"levelo_inurba_marseille","lat":43.286595,"lon":5.386795,"is_reserved":false,"is_disabled":false,"rental_uris":{"android":"levelo://app?vid=b742d94b-1388-4136-8588-d1894f69a7e6","ios":"levelo://app?vid=b742d94b-1388-4136-8588-d1894f69a7e6"},"vehicle_type_id":"4","last_reported":1698606237,"current_range_meters":23600,"station_id":"ce4bh492rcd13ifvqdug","pricing_plan_id":"free"},{"bike_id":"15bdef24-340e-4fcc-8b69-a97001c44759","system_id":"levelo_inurba_marseille","lat":43.340416,"lon":5.38474,"is_reserved":false,"is_disabled":false,"rental_uris":{"android":"levelo://app?vid=15bdef24-340e-4fcc-8b69-a97001c44759","ios":"levelo://app?vid=15bdef24-340e-4fcc-8b69-a97001c44759"},"vehicle_type_id":"4","last_reported":1698606237,"current_range_meters":31200,"station_id":"","pricing_plan_id":"free"},{"bike_id":"49f1b035-36af-4acf-a3c8-8b04a1beb65e","system_id":"levelo_inurba_marseille","lat":43.284793,"lon":5.384113,"is_reserved":false,"is_disabled":false,"rental_uris":{"android":"levelo://app?vid=49f1b035-36af-4acf-a3c8-8b04a1beb65e","ios":"levelo://app?vid=49f1b035-36af-4acf-a3c8-8b04a1beb65e"},"vehicle_type_id":"4","last_reported":1698606237,"current_range_meters":9200,"station_id":"ce4bh512rcd13ifvqe3g","pricing_plan_id":"free"},{"bike_id":"b602af4a-d38c-4bd3-8747-25321d093840","system_id":"levelo_inurba_marseille","lat":43.28481,"lon":5.38409,"is_reserved":false,"is_disabled":false,"rental_uris":{"android":"levelo://app?vid=b602af4a-d38c-4bd3-8747-25321d093840","ios":"levelo://app?vid=b602af4a-d38c-4bd3-8747-25321d093840"},"vehicle_type_id":"4","last_reported":1698606237,"current_range_meters":0,"station_id":"ce4bh512rcd13ifvqe3g","pricing_plan_id":"free"},{"bike_id":"85296d45-ed05-4780-9731-e5d1c1d39fcc","system_id":"levelo_inurba_marseille","lat":43.284793,"lon":5.384119,"is_reserved":false,"is_disabled":false,"rental_uris":{"android":"levelo://app?vid=85296d45-ed05-4780-9731-e5d1c1d39fcc","ios":"levelo://app?vid=85296d45-ed05-4780-9731-e5d1c1d39fcc"},"vehicle_type_id":"4","last_reported":1698606237,"current_range_meters":24400,"station_id":"ce4bh512rcd13ifvqe3g","pricing_plan_id":"free"},{"bike_id":"13a5ca05-4ee2-4df3-acea-1171ccafba86","system_id":"levelo_inurba_marseille","lat":43.284793,"lon":5.384119,"is_reserved":false,"is_disabled":false,"rental_uris":{"android":"levelo://app?vid=13a5ca05-4ee2-4df3-acea-1171ccafba86","ios":"levelo://app?vid=13a5ca05-4ee2-4df3-acea-1171ccafba86"},"vehicle_type_id":"4","last_reported":1698606237,"current_range_meters":5600,"station_id":"ce4bh512rcd13ifvqe3g","pricing_plan_id":"free"},{"bike_id":"42199820-52da-43a7-b772-b6929f6ddb6b","system_id":"levelo_inurba_marseille","lat":43.284793,"lon":5.384119,"is_reserved":false,"is_disabled":false,"rental_uris":{"android":"levelo://app?vid=42199820-52da-43a7-b772-b6929f6ddb6b","ios":"levelo://app?vid=42199820-52da-43a7-b772-b6929f6ddb6b"},"vehicle_type_id":"4","last_reported":1698606237,"current_range_meters":15200,"station_id":"ce4bh512rcd13ifvqe3g","pricing_plan_id":"free"},{"bike_id":"2f666bbb-190f-4291-ade2-95e2c0cfd815","system_id":"levelo_inurba_marseille","lat":43.325281,"lon":5.405683,"is_reserved":false,"is_disabled":false,"rental_uris":{"android":"levelo://app?vid=2f666bbb-190f-4291-ade2-95e2c0cfd815","ios":"levelo://app?vid=2f666bbb-190f-4291-ade2-95e2c0cfd815"},"vehicle_type_id":"4","last_reported":1698606237,"current_range_meters":13200,"station_id":"","pricing_plan_id":"free"},{"bike_id":"ccd6364f-a4f5-401d-8e47-7f341440270b","system_id":"levelo_inurba_marseille","lat":43.283498,"lon":5.380948,"is_reserved":false,"is_disabled":false,"rental_uris":{"android":"levelo://app?vid=ccd6364f-a4f5-401d-8e47-7f341440270b","ios":"levelo://app?vid=ccd6364f-a4f5-401d-8e47-7f341440270b"},"vehicle_type_id":"4","last_reported":1698606237,"current_range_meters":28000,"station_id":"ce4bh412rcd13ifvqdr0","pricing_plan_id":"free"},{"bike_id":"c7ac1628-14e4-4548-bd45-6f91d98b9586","system_id":"levelo_inurba_marseille","lat":43.283515,"lon":5.350055,"is_reserved":false,"is_disabled":false,"rental_uris":{"android":"levelo://app?vid=c7ac1628-14e4-4548-bd45-6f91d98b9586","ios":"levelo://app?vid=c7ac1628-14e4-4548-bd45-6f91d98b9586"},"vehicle_type_id":"4","last_reported":1698606237,"current_range_meters":10800,"station_id":"","pricing_plan_id":"free"},{"bike_id":"2a0db3e3-11b9-4308-a479-11e1c76c77c2","system_id":"levelo_inurba_marseille","lat":43.28039,"lon":5.369297,"is_reserved":false,"is_disabled":false,"rental_uris":{"android":"levelo://app?vid=2a0db3e3-11b9-4308-a479-11e1c76c77c2","ios":"levelo://app?vid=2a0db3e3-11b9-4308-a479-11e1c76c77c2"},"vehicle_type_id":"4","last_reported":1698606237,"current_range_meters":16400,"station_id":"ce4bha12rcd13ifvqef0","pricing_plan_id":"free"},{"bike_id":"e6b56964-523c-4523-b901-9f05cbc3a9c1","system_id":"levelo_inurba_marseille","lat":43.30365,"lon":5.40995,"is_reserved":false,"is_disabled":false,"rental_uris":{"android":"levelo://app?vid=e6b56964-523c-4523-b901-9f05cbc3a9c1","ios":"levelo://app?vid=e6b56964-523c-4523-b901-9f05cbc3a9c1"},"vehicle_type_id":"4","last_reported":1698606237,"current_range_meters":3600,"station_id":"","pricing_plan_id":"free"},{"bike_id":"075c6203-5dff-40ed-ba5a-e935da8a7d69","system_id":"levelo_inurba_marseille","lat":43.281044,"lon":5.378308,"is_reserved":false,"is_disabled":false,"rental_uris":{"android":"levelo://app?vid=075c6203-5dff-40ed-ba5a-e935da8a7d69","ios":"levelo://app?vid=075c6203-5dff-40ed-ba5a-e935da8a7d69"},"vehicle_type_id":"4","last_reported":1698606237,"current_range_meters":7200,"station_id":"ce4bha12rcd13ifvqee0","pricing_plan_id":"free"},{"bike_id":"1ca242fe-6084-4f9b-8b54-35d465872844","system_id":"levelo_inurba_marseille","lat":43.29041,"lon":5.399634,"is_reserved":false,"is_disabled":false,"rental_uris":{"android":"levelo://app?vid=1ca242fe-6084-4f9b-8b54-35d465872844","ios":"levelo://app?vid=1ca242fe-6084-4f9b-8b54-35d465872844"},"vehicle_type_id":"4","last_reported":1698606237,"current_range_meters":21600,"station_id":"ce4bh392rcd13ifvqdm0","pricing_plan_id":"free"},{"bike_id":"b39e8754-8401-41bd-a268-a801c93df312","system_id":"levelo_inurba_marseille","lat":43.281044,"lon":5.378308,"is_reserved":false,"is_disabled":false,"rental_uris":{"android":"levelo://app?vid=b39e8754-8401-41bd-a268-a801c93df312","ios":"levelo://app?vid=b39e8754-8401-41bd-a268-a801c93df312"},"vehicle_type_id":"4","last_reported":1698606237,"current_range_meters":13600,"station_id":"ce4bha12rcd13ifvqee0","pricing_plan_id":"free"},{"bike_id":"d445e7dc-8f39-4198-8d15-1838ad42556e","system_id":"levelo_inurba_marseille","lat":43.296263,"lon":5.40601,"is_reserved":false,"is_disabled":false,"rental_uris":{"android":"levelo://app?vid=d445e7dc-8f39-4198-8d15-1838ad42556e","ios":"levelo://app?vid=d445e7dc-8f39-4198-8d15-1838ad42556e"},"vehicle_type_id":"4","last_reported":1698606237,"current_range_meters":20400,"station_id":"ce4bh0h2rcd13ifvqd60","pricing_plan_id":"free"},{"bike_id":"af3d5c56-48f7-4ec1-a0d9-3519f1ee02ce","system_id":"levelo_inurba_marseille","lat":43.281044,"lon":5.378308,"is_reserved":false,"is_disabled":false,"rental_uris":{"android":"levelo://app?vid=af3d5c56-48f7-4ec1-a0d9-3519f1ee02ce","ios":"levelo://app?vid=af3d5c56-48f7-4ec1-a0d9-3519f1ee02ce"},"vehicle_type_id":"4","last_reported":1698606237,"current_range_meters":25200,"station_id":"ce4bha12rcd13ifvqee0","pricing_plan_id":"free"},{"bike_id":"77649dec-8508-46e1-ab7b-ce1fc88c63c8","system_id":"levelo_inurba_marseille","lat":43.281044,"lon":5.378308,"is_reserved":false,"is_disabled":false,"rental_uris":{"android":"levelo://app?vid=77649dec-8508-46e1-ab7b-ce1fc88c63c8","ios":"levelo://app?vid=77649dec-8508-46e1-ab7b-ce1fc88c63c8"},"vehicle_type_id":"4","last_reported":1698606237,"current_range_meters":22000,"station_id":"ce4bha12rcd13ifvqee0","pricing_plan_id":"free"},{"bike_id":"2ff4290a-953b-40dc-9c7e-2436150f81c2","system_id":"levelo_inurba_marseille","lat":43.281486,"lon":5.38345,"is_reserved":false,"is_disabled":false,"rental_uris":{"android":"levelo://app?vid=2ff4290a-953b-40dc-9c7e-2436150f81c2","ios":"levelo://app?vid=2ff4290a-953b-40dc-9c7e-2436150f81c2"},"vehicle_type_id":"4","last_reported":1698606237,"current_range_meters":3200,"station_id":"","pricing_plan_id":"free"},{"bike_id":"5b145b5c-2448-4b06-ad7d-667870f368db","system_id":"levelo_inurba_marseille","lat":43.284389,"lon":5.391979,"is_reserved":false,"is_disabled":false,"rental_uris":{"android":"levelo://app?vid=5b145b5c-2448-4b06-ad7d-667870f368db","ios":"levelo://app?vid=5b145b5c-2448-4b06-ad7d-667870f368db"},"vehicle_type_id":"4","last_reported":1698606237,"current_range_meters":31200,"station_id":"ce4bhoh2rcd13ifvqh5g","pricing_plan_id":"free"},{"bike_id":"052fce53-64af-4388-80e5-6919dec50459","system_id":"levelo_inurba_marseille","lat":43.2857,"lon":5.39495,"is_reserved":false,"is_disabled":false,"rental_uris":{"android":"levelo://app?vid=052fce53-64af-4388-80e5-6919dec50459","ios":"levelo://app?vid=052fce53-64af-4388-80e5-6919dec50459"},"vehicle_type_id":"4","last_reported":1698606237,"current_range_meters":10000,"station_id":"ce4bh292rcd13ifvqdg0","pricing_plan_id":"free"},{"bike_id":"a9d52fc0-080d-4bd9-ba76-93077f692a11","system_id":"levelo_inurba_marseille","lat":43.285693,"lon":5.395015,"is_reserved":false,"is_disabled":false,"rental_uris":{"android":"levelo://app?vid=a9d52fc0-080d-4bd9-ba76-93077f692a11","ios":"levelo://app?vid=a9d52fc0-080d-4bd9-ba76-93077f692a11"},"vehicle_type_id":"4","last_reported":1698606237,"current_range_meters":7600,"station_id":"ce4bh292rcd13ifvqdg0","pricing_plan_id":"free"},{"bike_id":"1bdd5398-ccac-4bfa-baed-649ce0db9d32","system_id":"levelo_inurba_marseille","lat":43.279087,"lon":5.380114,"is_reserved":false,"is_disabled":false,"rental_uris":{"android":"levelo://app?vid=1bdd5398-ccac-4bfa-baed-649ce0db9d32","ios":"levelo://app?vid=1bdd5398-ccac-4bfa-baed-649ce0db9d32"},"vehicle_type_id":"4","last_reported":1698606237,"current_range_meters":12400,"station_id":"ce4bhf92rcd13ifvqf50","pricing_plan_id":"free"},{"bike_id":"950ef1ea-5bac-4800-a940-ee94f6b89c3f","system_id":"levelo_inurba_marseille","lat":43.28704,"lon":5.39988,"is_reserved":false,"is_disabled":false,"rental_uris":{"android":"levelo://app?vid=950ef1ea-5bac-4800-a940-ee94f6b89c3f","ios":"levelo://app?vid=950ef1ea-5bac-4800-a940-ee94f6b89c3f"},"vehicle_type_id":"4","last_reported":1698606237,"current_range_meters":6800,"station_id":"ce4bho92rcd13ifvqh3g","pricing_plan_id":"free"},{"bike_id":"f01cb982-b437-401c-9996-f38cefe6be29","system_id":"levelo_inurba_marseille","lat":43.279742,"lon":5.38744,"is_reserved":false,"is_disabled":false,"rental_uris":{"android":"levelo://app?vid=f01cb982-b437-401c-9996-f38cefe6be29","ios":"levelo://app?vid=f01cb982-b437-401c-9996-f38cefe6be29"},"vehicle_type_id":"4","last_reported":1698606237,"current_range_meters":20000,"station_id":"ce4bhg12rcd13ifvqf80","pricing_plan_id":"free"},{"bike_id":"824dabd4-c04b-427c-b708-965b48c96a3c","system_id":"levelo_inurba_marseille","lat":43.325233,"lon":5.414318,"is_reserved":false,"is_disabled":false,"rental_uris":{"android":"levelo://app?vid=824dabd4-c04b-427c-b708-965b48c96a3c","ios":"levelo://app?vid=824dabd4-c04b-427c-b708-965b48c96a3c"},"vehicle_type_id":"4","last_reported":1698606237,"current_range_meters":28400,"station_id":"ce4bhq12rcd13ifvqhhg","pricing_plan_id":"free"},{"bike_id":"1522f9e1-ea30-4772-a500-0db4cc0d9676","system_id":"levelo_inurba_marseille","lat":43.27618,"lon":5.361009,"is_reserved":false,"is_disabled":false,"rental_uris":{"android":"levelo://app?vid=1522f9e1-ea30-4772-a500-0db4cc0d9676","ios":"levelo://app?vid=1522f9e1-ea30-4772-a500-0db4cc0d9676"},"vehicle_type_id":"4","last_reported":1698606237,"current_range_meters":3600,"station_id":"ce4bgj92rcd13ifvqbe0","pricing_plan_id":"free"},{"bike_id":"e06c6de6-378e-47d0-afbb-06f3a39ee2b0","system_id":"levelo_inurba_marseille","lat":43.325269,"lon":5.414571,"is_reserved":false,"is_disabled":false,"rental_uris":{"android":"levelo://app?vid=e06c6de6-378e-47d0-afbb-06f3a39ee2b0","ios":"levelo://app?vid=e06c6de6-378e-47d0-afbb-06f3a39ee2b0"},"vehicle_type_id":"4","last_reported":1698606237,"current_range_meters":29600,"station_id":"ce4bhq12rcd13ifvqhhg","pricing_plan_id":"free"},{"bike_id":"ab441268-3e03-4104-94cc-7705d60c6788","system_id":"levelo_inurba_marseille","lat":43.347892,"lon":5.348552,"is_reserved":false,"is_disabled":false,"rental_uris":{"android":"levelo://app?vid=ab441268-3e03-4104-94cc-7705d60c6788","ios":"levelo://app?vid=ab441268-3e03-4104-94cc-7705d60c6788"},"vehicle_type_id":"4","last_reported":1698606237,"current_range_meters":14800,"station_id":"","pricing_plan_id":"free"},{"bike_id":"711d44ea-ea1b-4457-a8c2-c0113b209c53","system_id":"levelo_inurba_marseille","lat":43.280784,"lon":5.396622,"is_reserved":false,"is_disabled":false,"rental_uris":{"android":"levelo://app?vid=711d44ea-ea1b-4457-a8c2-c0113b209c53","ios":"levelo://app?vid=711d44ea-ea1b-4457-a8c2-c0113b209c53"},"vehicle_type_id":"4","last_reported":1698606237,"current_range_meters":400,"station_id":"ce4bho12rcd13ifvqh2g","pricing_plan_id":"free"},{"bike_id":"013399f1-887b-4314-8329-f03e2d222fa6","system_id":"levelo_inurba_marseille","lat":43.278399,"lon":5.392139,"is_reserved":false,"is_disabled":false,"rental_uris":{"android":"levelo://app?vid=013399f1-887b-4314-8329-f03e2d222fa6","ios":"levelo://app?vid=013399f1-887b-4314-8329-f03e2d222fa6"},"vehicle_type_id":"4","last_reported":1698606237,"current_range_meters":16800,"station_id":"ce4bhjp2rcd13ifvqga0","pricing_plan_id":"free"},{"bike_id":"ee9a083b-d1b1-4a74-9234-0f32971340df","system_id":"levelo_inurba_marseille","lat":43.278401,"lon":5.392152,"is_reserved":false,"is_disabled":false,"rental_uris":{"android":"levelo://app?vid=ee9a083b-d1b1-4a74-9234-0f32971340df","ios":"levelo://app?vid=ee9a083b-d1b1-4a74-9234-0f32971340df"},"vehicle_type_id":"4","last_reported":1698606237,"current_range_meters":1200,"station_id":"ce4bhjp2rcd13ifvqga0","pricing_plan_id":"free"},{"bike_id":"4a910a7e-f037-4366-9ee7-d637c5ab8348","system_id":"levelo_inurba_marseille","lat":43.278401,"lon":5.392152,"is_reserved":false,"is_disabled":false,"rental_uris":{"android":"levelo://app?vid=4a910a7e-f037-4366-9ee7-d637c5ab8348","ios":"levelo://app?vid=4a910a7e-f037-4366-9ee7-d637c5ab8348"},"vehicle_type_id":"4","last_reported":1698606237,"current_range_meters":17200,"station_id":"ce4bhjp2rcd13ifvqga0","pricing_plan_id":"free"},{"bike_id":"8584c60a-7748-4fef-a43e-4a9e51f243a0","system_id":"levelo_inurba_marseille","lat":43.278401,"lon":5.392152,"is_reserved":false,"is_disabled":false,"rental_uris":{"android":"levelo://app?vid=8584c60a-7748-4fef-a43e-4a9e51f243a0","ios":"levelo://app?vid=8584c60a-7748-4fef-a43e-4a9e51f243a0"},"vehicle_type_id":"4","last_reported":1698606237,"current_range_meters":31600,"station_id":"ce4bhjp2rcd13ifvqga0","pricing_plan_id":"free"},{"bike_id":"3513c89c-b3c9-4ef7-89dd-4c9075a75ba0","system_id":"levelo_inurba_marseille","lat":43.278401,"lon":5.392152,"is_reserved":false,"is_disabled":false,"rental_uris":{"android":"levelo://app?vid=3513c89c-b3c9-4ef7-89dd-4c9075a75ba0","ios":"levelo://app?vid=3513c89c-b3c9-4ef7-89dd-4c9075a75ba0"},"vehicle_type_id":"4","last_reported":1698606237,"current_range_meters":28000,"station_id":"ce4bhjp2rcd13ifvqga0","pricing_plan_id":"free"},{"bike_id":"8b8fb0f9-7655-4fa3-9df1-b9c9cd240ffb","system_id":"levelo_inurba_marseille","lat":43.278399,"lon":5.392139,"is_reserved":false,"is_disabled":false,"rental_uris":{"android":"levelo://app?vid=8b8fb0f9-7655-4fa3-9df1-b9c9cd240ffb","ios":"levelo://app?vid=8b8fb0f9-7655-4fa3-9df1-b9c9cd240ffb"},"vehicle_type_id":"4","last_reported":1698606237,"current_range_meters":24800,"station_id":"ce4bhjp2rcd13ifvqga0","pricing_plan_id":"free"},{"bike_id":"7bd09f97-ef65-4688-9e11-57365177a47c","system_id":"levelo_inurba_marseille","lat":43.278401,"lon":5.392152,"is_reserved":false,"is_disabled":false,"rental_uris":{"android":"levelo://app?vid=7bd09f97-ef65-4688-9e11-57365177a47c","ios":"levelo://app?vid=7bd09f97-ef65-4688-9e11-57365177a47c"},"vehicle_type_id":"4","last_reported":1698606237,"current_range_meters":31600,"station_id":"ce4bhjp2rcd13ifvqga0","pricing_plan_id":"free"},{"bike_id":"ad792d74-0fe0-4f28-8273-babb3dc4f382","system_id":"levelo_inurba_marseille","lat":43.273613,"lon":5.362705,"is_reserved":false,"is_disabled":false,"rental_uris":{"android":"levelo://app?vid=ad792d74-0fe0-4f28-8273-babb3dc4f382","ios":"levelo://app?vid=ad792d74-0fe0-4f28-8273-babb3dc4f382"},"vehicle_type_id":"4","last_reported":1698606237,"current_range_meters":0,"station_id":"ce4bhbh2rcd13ifvqeo0","pricing_plan_id":"free"},{"bike_id":"925d3cc4-2cb6-4e17-a960-7cbc3582dd05","system_id":"levelo_inurba_marseille","lat":43.275625,"lon":5.384392,"is_reserved":false,"is_disabled":false,"rental_uris":{"android":"levelo://app?vid=925d3cc4-2cb6-4e17-a960-7cbc3582dd05","ios":"levelo://app?vid=925d3cc4-2cb6-4e17-a960-7cbc3582dd05"},"vehicle_type_id":"4","last_reported":1698606237,"current_range_meters":30400,"station_id":"ce4bhh92rcd13ifvqfi0","pricing_plan_id":"free"},{"bike_id":"f8435ceb-e563-4969-b9b3-163941163ed4","system_id":"levelo_inurba_marseille","lat":43.275625,"lon":5.384392,"is_reserved":false,"is_disabled":false,"rental_uris":{"android":"levelo://app?vid=f8435ceb-e563-4969-b9b3-163941163ed4","ios":"levelo://app?vid=f8435ceb-e563-4969-b9b3-163941163ed4"},"vehicle_type_id":"4","last_reported":1698606237,"current_range_meters":27200,"station_id":"ce4bhh92rcd13ifvqfi0","pricing_plan_id":"free"},{"bike_id":"f9a74eec-e4ce-4d76-866e-f55b97a3552b","system_id":"levelo_inurba_marseille","lat":43.276622,"lon":5.388658,"is_reserved":false,"is_disabled":false,"rental_uris":{"android":"levelo://app?vid=f9a74eec-e4ce-4d76-866e-f55b97a3552b","ios":"levelo://app?vid=f9a74eec-e4ce-4d76-866e-f55b97a3552b"},"vehicle_type_id":"4","last_reported":1698606237,"current_range_meters":13600,"station_id":"ce4bhi12rcd13ifvqfo0","pricing_plan_id":"free"},{"bike_id":"5546c2b3-35eb-449f-9da5-1c154e6903a9","system_id":"levelo_inurba_marseille","lat":43.276771,"lon":5.388799,"is_reserved":false,"is_disabled":false,"rental_uris":{"android":"levelo://app?vid=5546c2b3-35eb-449f-9da5-1c154e6903a9","ios":"levelo://app?vid=5546c2b3-35eb-449f-9da5-1c154e6903a9"},"vehicle_type_id":"4","last_reported":1698606237,"current_range_meters":24800,"station_id":"ce4bhi12rcd13ifvqfo0","pricing_plan_id":"free"},{"bike_id":"a3774854-edb1-4579-a308-d7e225bb1db4","system_id":"levelo_inurba_marseille","lat":43.276671,"lon":5.388881,"is_reserved":false,"is_disabled":false,"rental_uris":{"android":"levelo://app?vid=a3774854-edb1-4579-a308-d7e225bb1db4","ios":"levelo://app?vid=a3774854-edb1-4579-a308-d7e225bb1db4"},"vehicle_type_id":"4","last_reported":1698606237,"current_range_meters":20800,"station_id":"ce4bhi12rcd13ifvqfo0","pricing_plan_id":"free"},{"bike_id":"f5194790-07b4-4bf0-887d-069edfe90125","system_id":"levelo_inurba_marseille","lat":43.276771,"lon":5.388799,"is_reserved":false,"is_disabled":false,"rental_uris":{"android":"levelo://app?vid=f5194790-07b4-4bf0-887d-069edfe90125","ios":"levelo://app?vid=f5194790-07b4-4bf0-887d-069edfe90125"},"vehicle_type_id":"4","last_reported":1698606237,"current_range_meters":4000,"station_id":"ce4bhi12rcd13ifvqfo0","pricing_plan_id":"free"},{"bike_id":"12299c6d-de8a-42ba-a233-1bd3c1e17d5d","system_id":"levelo_inurba_marseille","lat":43.276771,"lon":5.388799,"is_reserved":false,"is_disabled":false,"rental_uris":{"android":"levelo://app?vid=12299c6d-de8a-42ba-a233-1bd3c1e17d5d","ios":"levelo://app?vid=12299c6d-de8a-42ba-a233-1bd3c1e17d5d"},"vehicle_type_id":"4","last_reported":1698606237,"current_range_meters":21200,"station_id":"ce4bhi12rcd13ifvqfo0","pricing_plan_id":"free"},{"bike_id":"f192ceec-aab4-442b-88fd-23f4b32cb340","system_id":"levelo_inurba_marseille","lat":43.276771,"lon":5.388799,"is_reserved":false,"is_disabled":false,"rental_uris":{"android":"levelo://app?vid=f192ceec-aab4-442b-88fd-23f4b32cb340","ios":"levelo://app?vid=f192ceec-aab4-442b-88fd-23f4b32cb340"},"vehicle_type_id":"4","last_reported":1698606237,"current_range_meters":4800,"station_id":"ce4bhi12rcd13ifvqfo0","pricing_plan_id":"free"},{"bike_id":"01b14aaf-b7fc-41e8-b11c-f5f9ba41824f","system_id":"levelo_inurba_marseille","lat":43.275281,"lon":5.385769,"is_reserved":false,"is_disabled":false,"rental_uris":{"android":"levelo://app?vid=01b14aaf-b7fc-41e8-b11c-f5f9ba41824f","ios":"levelo://app?vid=01b14aaf-b7fc-41e8-b11c-f5f9ba41824f"},"vehicle_type_id":"4","last_reported":1698606237,"current_range_meters":5200,"station_id":"","pricing_plan_id":"free"},{"bike_id":"28713497-46c0-437b-851b-ddbfd80a1d5b","system_id":"levelo_inurba_marseille","lat":43.279952,"lon":5.400085,"is_reserved":false,"is_disabled":false,"rental_uris":{"android":"levelo://app?vid=28713497-46c0-437b-851b-ddbfd80a1d5b","ios":"levelo://app?vid=28713497-46c0-437b-851b-ddbfd80a1d5b"},"vehicle_type_id":"4","last_reported":1698606237,"current_range_meters":12000,"station_id":"ce4bho92rcd13ifvqh4g","pricing_plan_id":"free"},{"bike_id":"486d11a6-8a28-4d76-873d-f5c1b991c63c","system_id":"levelo_inurba_marseille","lat":43.28,"lon":5.40013,"is_reserved":false,"is_disabled":false,"rental_uris":{"android":"levelo://app?vid=486d11a6-8a28-4d76-873d-f5c1b991c63c","ios":"levelo://app?vid=486d11a6-8a28-4d76-873d-f5c1b991c63c"},"vehicle_type_id":"4","last_reported":1698606237,"current_range_meters":10800,"station_id":"ce4bho92rcd13ifvqh4g","pricing_plan_id":"free"},{"bike_id":"6e4d6780-3de4-4597-90ba-6d69401e2467","system_id":"levelo_inurba_marseille","lat":43.279952,"lon":5.400085,"is_reserved":false,"is_disabled":false,"rental_uris":{"android":"levelo://app?vid=6e4d6780-3de4-4597-90ba-6d69401e2467","ios":"levelo://app?vid=6e4d6780-3de4-4597-90ba-6d69401e2467"},"vehicle_type_id":"4","last_reported":1698606237,"current_range_meters":24800,"station_id":"ce4bho92rcd13ifvqh4g","pricing_plan_id":"free"},{"bike_id":"64665b6c-5b7f-4cd1-a04a-e8f6a1a144ee","system_id":"levelo_inurba_marseille","lat":43.317121,"lon":5.423936,"is_reserved":false,"is_disabled":false,"rental_uris":{"android":"levelo://app?vid=64665b6c-5b7f-4cd1-a04a-e8f6a1a144ee","ios":"levelo://app?vid=64665b6c-5b7f-4cd1-a04a-e8f6a1a144ee"},"vehicle_type_id":"4","last_reported":1698606237,"current_range_meters":5600,"station_id":"ce4bhp92rcd13ifvqhbg","pricing_plan_id":"free"},{"bike_id":"ab4c105f-b95d-4588-b30a-4236f77815dc","system_id":"levelo_inurba_marseille","lat":43.310785,"lon":5.424305,"is_reserved":false,"is_disabled":false,"rental_uris":{"android":"levelo://app?vid=ab4c105f-b95d-4588-b30a-4236f77815dc","ios":"levelo://app?vid=ab4c105f-b95d-4588-b30a-4236f77815dc"},"vehicle_type_id":"4","last_reported":1698606237,"current_range_meters":22400,"station_id":"ce4bhp92rcd13ifvqhag","pricing_plan_id":"free"},{"bike_id":"d58dc1b0-a920-45a9-b8ae-bc43ae7fdaaf","system_id":"levelo_inurba_marseille","lat":43.31078,"lon":5.42433,"is_reserved":false,"is_disabled":false,"rental_uris":{"android":"levelo://app?vid=d58dc1b0-a920-45a9-b8ae-bc43ae7fdaaf","ios":"levelo://app?vid=d58dc1b0-a920-45a9-b8ae-bc43ae7fdaaf"},"vehicle_type_id":"4","last_reported":1698606237,"current_range_meters":12800,"station_id":"ce4bhp92rcd13ifvqhag","pricing_plan_id":"free"},{"bike_id":"86f65723-b777-4d58-a491-bfdd1582b465","system_id":"levelo_inurba_marseille","lat":43.340804,"lon":5.410219,"is_reserved":false,"is_disabled":false,"rental_uris":{"android":"levelo://app?vid=86f65723-b777-4d58-a491-bfdd1582b465","ios":"levelo://app?vid=86f65723-b777-4d58-a491-bfdd1582b465"},"vehicle_type_id":"4","last_reported":1698606237,"current_range_meters":27600,"station_id":"ce4bhqh2rcd13ifvqhlg","pricing_plan_id":"free"},{"bike_id":"10771e27-9dfa-483f-a879-18ff14f74247","system_id":"levelo_inurba_marseille","lat":43.310021,"lon":5.425067,"is_reserved":false,"is_disabled":false,"rental_uris":{"android":"levelo://app?vid=10771e27-9dfa-483f-a879-18ff14f74247","ios":"levelo://app?vid=10771e27-9dfa-483f-a879-18ff14f74247"},"vehicle_type_id":"4","last_reported":1698606237,"current_range_meters":0,"station_id":"","pricing_plan_id":"free"},{"bike_id":"23cb35ec-61e9-48ed-a056-1edb5a755a0f","system_id":"levelo_inurba_marseille","lat":43.27328,"lon":5.39073,"is_reserved":false,"is_disabled":false,"rental_uris":{"android":"levelo://app?vid=23cb35ec-61e9-48ed-a056-1edb5a755a0f","ios":"levelo://app?vid=23cb35ec-61e9-48ed-a056-1edb5a755a0f"},"vehicle_type_id":"4","last_reported":1698606237,"current_range_meters":7200,"station_id":"","pricing_plan_id":"free"},{"bike_id":"4d6639f8-2661-410a-aa73-3e258182799f","system_id":"levelo_inurba_marseille","lat":43.27322,"lon":5.39082,"is_reserved":false,"is_disabled":false,"rental_uris":{"android":"levelo://app?vid=4d6639f8-2661-410a-aa73-3e258182799f","ios":"levelo://app?vid=4d6639f8-2661-410a-aa73-3e258182799f"},"vehicle_type_id":"4","last_reported":1698606237,"current_range_meters":0,"station_id":"","pricing_plan_id":"free"},{"bike_id":"67c5c40f-717c-4a16-b058-29bf312a59e2","system_id":"levelo_inurba_marseille","lat":43.274099,"lon":5.394019,"is_reserved":false,"is_disabled":false,"rental_uris":{"android":"levelo://app?vid=67c5c40f-717c-4a16-b058-29bf312a59e2","ios":"levelo://app?vid=67c5c40f-717c-4a16-b058-29bf312a59e2"},"vehicle_type_id":"4","last_reported":1698606237,"current_range_meters":22000,"station_id":"ce4bhdp2rcd13ifvqf20","pricing_plan_id":"free"},{"bike_id":"e20de13c-c556-4e32-a60f-21a5950f4179","system_id":"levelo_inurba_marseille","lat":43.27319,"lon":5.39077,"is_reserved":false,"is_disabled":false,"rental_uris":{"android":"levelo://app?vid=e20de13c-c556-4e32-a60f-21a5950f4179","ios":"levelo://app?vid=e20de13c-c556-4e32-a60f-21a5950f4179"},"vehicle_type_id":"4","last_reported":1698606237,"current_range_meters":20400,"station_id":"","pricing_plan_id":"free"},{"bike_id":"614001c8-2e37-43bf-a365-bc2dcaf1ccc1","system_id":"levelo_inurba_marseille","lat":43.27322,"lon":5.39087,"is_reserved":false,"is_disabled":false,"rental_uris":{"android":"levelo://app?vid=614001c8-2e37-43bf-a365-bc2dcaf1ccc1","ios":"levelo://app?vid=614001c8-2e37-43bf-a365-bc2dcaf1ccc1"},"vehicle_type_id":"4","last_reported":1698606237,"current_range_meters":9200,"station_id":"","pricing_plan_id":"free"},{"bike_id":"37cd00da-3898-4e12-bc46-7a203ed1e654","system_id":"levelo_inurba_marseille","lat":43.27433,"lon":5.39411,"is_reserved":false,"is_disabled":false,"rental_uris":{"android":"levelo://app?vid=37cd00da-3898-4e12-bc46-7a203ed1e654","ios":"levelo://app?vid=37cd00da-3898-4e12-bc46-7a203ed1e654"},"vehicle_type_id":"4","last_reported":1698606237,"current_range_meters":17200,"station_id":"ce4bhdp2rcd13ifvqf20","pricing_plan_id":"free"},{"bike_id":"cc6b44c6-680f-4db7-999b-047cd44a75a1","system_id":"levelo_inurba_marseille","lat":43.27313,"lon":5.3907,"is_reserved":false,"is_disabled":false,"rental_uris":{"android":"levelo://app?vid=cc6b44c6-680f-4db7-999b-047cd44a75a1","ios":"levelo://app?vid=cc6b44c6-680f-4db7-999b-047cd44a75a1"},"vehicle_type_id":"4","last_reported":1698606237,"current_range_meters":24000,"station_id":"","pricing_plan_id":"free"},{"bike_id":"84f9407f-2af1-4943-91ea-becdd98ae278","system_id":"levelo_inurba_marseille","lat":43.27312,"lon":5.39068,"is_reserved":false,"is_disabled":false,"rental_uris":{"android":"levelo://app?vid=84f9407f-2af1-4943-91ea-becdd98ae278","ios":"levelo://app?vid=84f9407f-2af1-4943-91ea-becdd98ae278"},"vehicle_type_id":"4","last_reported":1698606237,"current_range_meters":0,"station_id":"","pricing_plan_id":"free"},{"bike_id":"120a033e-a8ad-4297-ac0f-c2c1d862fe8e","system_id":"levelo_inurba_marseille","lat":43.27435,"lon":5.39423,"is_reserved":false,"is_disabled":false,"rental_uris":{"android":"levelo://app?vid=120a033e-a8ad-4297-ac0f-c2c1d862fe8e","ios":"levelo://app?vid=120a033e-a8ad-4297-ac0f-c2c1d862fe8e"},"vehicle_type_id":"4","last_reported":1698606237,"current_range_meters":10000,"station_id":"ce4bhdp2rcd13ifvqf20","pricing_plan_id":"free"},{"bike_id":"add3083a-9bd8-4b60-ba76-f0f7a63996d4","system_id":"levelo_inurba_marseille","lat":43.27431,"lon":5.39413,"is_reserved":false,"is_disabled":false,"rental_uris":{"android":"levelo://app?vid=add3083a-9bd8-4b60-ba76-f0f7a63996d4","ios":"levelo://app?vid=add3083a-9bd8-4b60-ba76-f0f7a63996d4"},"vehicle_type_id":"4","last_reported":1698606237,"current_range_meters":16400,"station_id":"ce4bhdp2rcd13ifvqf20","pricing_plan_id":"free"},{"bike_id":"83142e0b-2d4a-41bd-a883-c4d9264eba37","system_id":"levelo_inurba_marseille","lat":43.27315,"lon":5.39083,"is_reserved":false,"is_disabled":false,"rental_uris":{"android":"levelo://app?vid=83142e0b-2d4a-41bd-a883-c4d9264eba37","ios":"levelo://app?vid=83142e0b-2d4a-41bd-a883-c4d9264eba37"},"vehicle_type_id":"4","last_reported":1698606237,"current_range_meters":0,"station_id":"","pricing_plan_id":"free"},{"bike_id":"32bc23f7-8d75-4caa-a100-94d5c7aad9d9","system_id":"levelo_inurba_marseille","lat":43.27429,"lon":5.39413,"is_reserved":false,"is_disabled":false,"rental_uris":{"android":"levelo://app?vid=32bc23f7-8d75-4caa-a100-94d5c7aad9d9","ios":"levelo://app?vid=32bc23f7-8d75-4caa-a100-94d5c7aad9d9"},"vehicle_type_id":"4","last_reported":1698606237,"current_range_meters":20400,"station_id":"ce4bhdp2rcd13ifvqf20","pricing_plan_id":"free"},{"bike_id":"e841a8a7-384d-44c9-bc41-75610f65b4d2","system_id":"levelo_inurba_marseille","lat":43.27429,"lon":5.39415,"is_reserved":false,"is_disabled":false,"rental_uris":{"android":"levelo://app?vid=e841a8a7-384d-44c9-bc41-75610f65b4d2","ios":"levelo://app?vid=e841a8a7-384d-44c9-bc41-75610f65b4d2"},"vehicle_type_id":"4","last_reported":1698606237,"current_range_meters":22800,"station_id":"ce4bhdp2rcd13ifvqf20","pricing_plan_id":"free"},{"bike_id":"8d62085c-d804-4a6f-b365-07e42ebe92e2","system_id":"levelo_inurba_marseille","lat":43.2743,"lon":5.39419,"is_reserved":false,"is_disabled":false,"rental_uris":{"android":"levelo://app?vid=8d62085c-d804-4a6f-b365-07e42ebe92e2","ios":"levelo://app?vid=8d62085c-d804-4a6f-b365-07e42ebe92e2"},"vehicle_type_id":"4","last_reported":1698606237,"current_range_meters":400,"station_id":"ce4bhdp2rcd13ifvqf20","pricing_plan_id":"free"},{"bike_id":"be602fcc-d2a2-42e6-9c69-fd41466b95c5","system_id":"levelo_inurba_marseille","lat":43.27427,"lon":5.39412,"is_reserved":false,"is_disabled":false,"rental_uris":{"android":"levelo://app?vid=be602fcc-d2a2-42e6-9c69-fd41466b95c5","ios":"levelo://app?vid=be602fcc-d2a2-42e6-9c69-fd41466b95c5"},"vehicle_type_id":"4","last_reported":1698606237,"current_range_meters":0,"station_id":"ce4bhdp2rcd13ifvqf20","pricing_plan_id":"free"},{"bike_id":"1eaa3503-6ae0-497e-b56c-0d52d7f4d9d8","system_id":"levelo_inurba_marseille","lat":43.27428,"lon":5.39417,"is_reserved":false,"is_disabled":false,"rental_uris":{"android":"levelo://app?vid=1eaa3503-6ae0-497e-b56c-0d52d7f4d9d8","ios":"levelo://app?vid=1eaa3503-6ae0-497e-b56c-0d52d7f4d9d8"},"vehicle_type_id":"4","last_reported":1698606237,"current_range_meters":21600,"station_id":"ce4bhdp2rcd13ifvqf20","pricing_plan_id":"free"},{"bike_id":"e42fa12b-5f51-4c7e-95cf-cd3272f28e0d","system_id":"levelo_inurba_marseille","lat":43.274099,"lon":5.394019,"is_reserved":false,"is_disabled":false,"rental_uris":{"android":"levelo://app?vid=e42fa12b-5f51-4c7e-95cf-cd3272f28e0d","ios":"levelo://app?vid=e42fa12b-5f51-4c7e-95cf-cd3272f28e0d"},"vehicle_type_id":"4","last_reported":1698606237,"current_range_meters":2000,"station_id":"ce4bhdp2rcd13ifvqf20","pricing_plan_id":"free"},{"bike_id":"aa1affb6-31f0-48b5-abff-54c3d3764c65","system_id":"levelo_inurba_marseille","lat":43.27427,"lon":5.3942,"is_reserved":false,"is_disabled":false,"rental_uris":{"android":"levelo://app?vid=aa1affb6-31f0-48b5-abff-54c3d3764c65","ios":"levelo://app?vid=aa1affb6-31f0-48b5-abff-54c3d3764c65"},"vehicle_type_id":"4","last_reported":1698606237,"current_range_meters":5200,"station_id":"ce4bhdp2rcd13ifvqf20","pricing_plan_id":"free"},{"bike_id":"e61d2507-7eac-47d3-954c-601c2a626a19","system_id":"levelo_inurba_marseille","lat":43.27424,"lon":5.39413,"is_reserved":false,"is_disabled":false,"rental_uris":{"android":"levelo://app?vid=e61d2507-7eac-47d3-954c-601c2a626a19","ios":"levelo://app?vid=e61d2507-7eac-47d3-954c-601c2a626a19"},"vehicle_type_id":"4","last_reported":1698606237,"current_range_meters":21600,"station_id":"ce4bhdp2rcd13ifvqf20","pricing_plan_id":"free"},{"bike_id":"d6fa9332-a017-4d65-8265-a6f030253401","system_id":"levelo_inurba_marseille","lat":43.27425,"lon":5.39416,"is_reserved":false,"is_disabled":false,"rental_uris":{"android":"levelo://app?vid=d6fa9332-a017-4d65-8265-a6f030253401","ios":"levelo://app?vid=d6fa9332-a017-4d65-8265-a6f030253401"},"vehicle_type_id":"4","last_reported":1698606237,"current_range_meters":24000,"station_id":"ce4bhdp2rcd13ifvqf20","pricing_plan_id":"free"},{"bike_id":"8b4a316e-6581-4e3c-8acf-00a7890a6cd5","system_id":"levelo_inurba_marseille","lat":43.274099,"lon":5.394019,"is_reserved":false,"is_disabled":false,"rental_uris":{"android":"levelo://app?vid=8b4a316e-6581-4e3c-8acf-00a7890a6cd5","ios":"levelo://app?vid=8b4a316e-6581-4e3c-8acf-00a7890a6cd5"},"vehicle_type_id":"4","last_reported":1698606237,"current_range_meters":9200,"station_id":"ce4bhdp2rcd13ifvqf20","pricing_plan_id":"free"},{"bike_id":"2cf0ded0-d483-4a88-9e06-3ba4c766ed6a","system_id":"levelo_inurba_marseille","lat":43.27422,"lon":5.39414,"is_reserved":false,"is_disabled":false,"rental_uris":{"android":"levelo://app?vid=2cf0ded0-d483-4a88-9e06-3ba4c766ed6a","ios":"levelo://app?vid=2cf0ded0-d483-4a88-9e06-3ba4c766ed6a"},"vehicle_type_id":"4","last_reported":1698606237,"current_range_meters":24400,"station_id":"ce4bhdp2rcd13ifvqf20","pricing_plan_id":"free"},{"bike_id":"5d79c836-a7cd-429b-b225-ec2e619eed11","system_id":"levelo_inurba_marseille","lat":43.274103,"lon":5.394016,"is_reserved":false,"is_disabled":false,"rental_uris":{"android":"levelo://app?vid=5d79c836-a7cd-429b-b225-ec2e619eed11","ios":"levelo://app?vid=5d79c836-a7cd-429b-b225-ec2e619eed11"},"vehicle_type_id":"4","last_reported":1698606237,"current_range_meters":26800,"station_id":"ce4bhdp2rcd13ifvqf20","pricing_plan_id":"free"},{"bike_id":"922c6c9c-b342-4c7c-9b24-dfcbe88a348b","system_id":"levelo_inurba_marseille","lat":43.274099,"lon":5.394019,"is_reserved":false,"is_disabled":false,"rental_uris":{"android":"levelo://app?vid=922c6c9c-b342-4c7c-9b24-dfcbe88a348b","ios":"levelo://app?vid=922c6c9c-b342-4c7c-9b24-dfcbe88a348b"},"vehicle_type_id":"4","last_reported":1698606237,"current_range_meters":8000,"station_id":"ce4bhdp2rcd13ifvqf20","pricing_plan_id":"free"},{"bike_id":"93e7e43f-9787-418d-9cad-c083158c598b","system_id":"levelo_inurba_marseille","lat":43.27421,"lon":5.39416,"is_reserved":false,"is_disabled":false,"rental_uris":{"android":"levelo://app?vid=93e7e43f-9787-418d-9cad-c083158c598b","ios":"levelo://app?vid=93e7e43f-9787-418d-9cad-c083158c598b"},"vehicle_type_id":"4","last_reported":1698606237,"current_range_meters":0,"station_id":"ce4bhdp2rcd13ifvqf20","pricing_plan_id":"free"},{"bike_id":"8a9505a0-6d47-4f9b-a10c-3422df363b99","system_id":"levelo_inurba_marseille","lat":43.274099,"lon":5.394019,"is_reserved":false,"is_disabled":false,"rental_uris":{"android":"levelo://app?vid=8a9505a0-6d47-4f9b-a10c-3422df363b99","ios":"levelo://app?vid=8a9505a0-6d47-4f9b-a10c-3422df363b99"},"vehicle_type_id":"4","last_reported":1698606237,"current_range_meters":16800,"station_id":"ce4bhdp2rcd13ifvqf20","pricing_plan_id":"free"},{"bike_id":"ca3c71cf-97d1-4e0b-a064-778f9c4f087e","system_id":"levelo_inurba_marseille","lat":43.273061,"lon":5.390933,"is_reserved":false,"is_disabled":false,"rental_uris":{"android":"levelo://app?vid=ca3c71cf-97d1-4e0b-a064-778f9c4f087e","ios":"levelo://app?vid=ca3c71cf-97d1-4e0b-a064-778f9c4f087e"},"vehicle_type_id":"4","last_reported":1698606237,"current_range_meters":12800,"station_id":"","pricing_plan_id":"free"},{"bike_id":"89e2acfb-0313-4045-9e99-3cc964612a47","system_id":"levelo_inurba_marseille","lat":43.274194,"lon":5.39421,"is_reserved":false,"is_disabled":false,"rental_uris":{"android":"levelo://app?vid=89e2acfb-0313-4045-9e99-3cc964612a47","ios":"levelo://app?vid=89e2acfb-0313-4045-9e99-3cc964612a47"},"vehicle_type_id":"4","last_reported":1698606237,"current_range_meters":14400,"station_id":"ce4bhdp2rcd13ifvqf20","pricing_plan_id":"free"},{"bike_id":"99e4126d-f376-4b20-bf36-cbdda64a02cd","system_id":"levelo_inurba_marseille","lat":43.30414,"lon":5.42539,"is_reserved":false,"is_disabled":false,"rental_uris":{"android":"levelo://app?vid=99e4126d-f376-4b20-bf36-cbdda64a02cd","ios":"levelo://app?vid=99e4126d-f376-4b20-bf36-cbdda64a02cd"},"vehicle_type_id":"4","last_reported":1698606237,"current_range_meters":15200,"station_id":"ce4bhoh2rcd13ifvqh6g","pricing_plan_id":"free"},{"bike_id":"291a32c9-e8fe-4c60-819c-bf8d640a2016","system_id":"levelo_inurba_marseille","lat":43.2936,"lon":5.37835,"is_reserved":false,"is_disabled":false,"rental_uris":{"android":"levelo://app?vid=291a32c9-e8fe-4c60-819c-bf8d640a2016","ios":"levelo://app?vid=291a32c9-e8fe-4c60-819c-bf8d640a2016"},"vehicle_type_id":"4","last_reported":1698606237,"current_range_meters":18800,"station_id":"ce4bgjh2rcd13ifvqbf0","pricing_plan_id":"free"},{"bike_id":"d3997d8b-b06b-473b-808f-ca3e4bd57995","system_id":"levelo_inurba_marseille","lat":43.295511,"lon":5.422926,"is_reserved":false,"is_disabled":false,"rental_uris":{"android":"levelo://app?vid=d3997d8b-b06b-473b-808f-ca3e4bd57995","ios":"levelo://app?vid=d3997d8b-b06b-473b-808f-ca3e4bd57995"},"vehicle_type_id":"4","last_reported":1698606237,"current_range_meters":20400,"station_id":"ce4bhph2rcd13ifvqhdg","pricing_plan_id":"free"},{"bike_id":"4aa6c3df-aa44-4d81-aa9e-05182d846da6","system_id":"levelo_inurba_marseille","lat":43.27202,"lon":5.39184,"is_reserved":false,"is_disabled":false,"rental_uris":{"android":"levelo://app?vid=4aa6c3df-aa44-4d81-aa9e-05182d846da6","ios":"levelo://app?vid=4aa6c3df-aa44-4d81-aa9e-05182d846da6"},"vehicle_type_id":"4","last_reported":1698606237,"current_range_meters":18000,"station_id":"ce4bhhp2rcd13ifvqfm0","pricing_plan_id":"free"},{"bike_id":"96db744b-4148-423d-88d3-e49f6fcc1ed7","system_id":"levelo_inurba_marseille","lat":43.27201,"lon":5.39183,"is_reserved":false,"is_disabled":false,"rental_uris":{"android":"levelo://app?vid=96db744b-4148-423d-88d3-e49f6fcc1ed7","ios":"levelo://app?vid=96db744b-4148-423d-88d3-e49f6fcc1ed7"},"vehicle_type_id":"4","last_reported":1698606237,"current_range_meters":0,"station_id":"ce4bhhp2rcd13ifvqfm0","pricing_plan_id":"free"},{"bike_id":"37804aba-9b4f-4a46-a6f7-1800bf7de5d3","system_id":"levelo_inurba_marseille","lat":43.27201,"lon":5.39188,"is_reserved":false,"is_disabled":false,"rental_uris":{"android":"levelo://app?vid=37804aba-9b4f-4a46-a6f7-1800bf7de5d3","ios":"levelo://app?vid=37804aba-9b4f-4a46-a6f7-1800bf7de5d3"},"vehicle_type_id":"4","last_reported":1698606237,"current_range_meters":26000,"station_id":"ce4bhhp2rcd13ifvqfm0","pricing_plan_id":"free"},{"bike_id":"8aecd958-4de4-489b-8628-a04ac459681d","system_id":"levelo_inurba_marseille","lat":43.278128,"lon":5.407195,"is_reserved":false,"is_disabled":false,"rental_uris":{"android":"levelo://app?vid=8aecd958-4de4-489b-8628-a04ac459681d","ios":"levelo://app?vid=8aecd958-4de4-489b-8628-a04ac459681d"},"vehicle_type_id":"4","last_reported":1698606237,"current_range_meters":21200,"station_id":"ce4bhnh2rcd13ifvqgtg","pricing_plan_id":"free"},{"bike_id":"5f7c4483-c660-4903-92ec-fbe8070f5e4e","system_id":"levelo_inurba_marseille","lat":43.278128,"lon":5.407195,"is_reserved":false,"is_disabled":false,"rental_uris":{"android":"levelo://app?vid=5f7c4483-c660-4903-92ec-fbe8070f5e4e","ios":"levelo://app?vid=5f7c4483-c660-4903-92ec-fbe8070f5e4e"},"vehicle_type_id":"4","last_reported":1698606237,"current_range_meters":22400,"station_id":"ce4bhnh2rcd13ifvqgtg","pricing_plan_id":"free"},{"bike_id":"1680c852-be23-4927-8fba-a5c1ee4aa350","system_id":"levelo_inurba_marseille","lat":43.278128,"lon":5.407195,"is_reserved":false,"is_disabled":false,"rental_uris":{"android":"levelo://app?vid=1680c852-be23-4927-8fba-a5c1ee4aa350","ios":"levelo://app?vid=1680c852-be23-4927-8fba-a5c1ee4aa350"},"vehicle_type_id":"4","last_reported":1698606237,"current_range_meters":15200,"station_id":"ce4bhnh2rcd13ifvqgtg","pricing_plan_id":"free"},{"bike_id":"52fd013e-2e9a-4830-8cc8-e1fa3cd2560a","system_id":"levelo_inurba_marseille","lat":43.269467,"lon":5.386439,"is_reserved":false,"is_disabled":false,"rental_uris":{"android":"levelo://app?vid=52fd013e-2e9a-4830-8cc8-e1fa3cd2560a","ios":"levelo://app?vid=52fd013e-2e9a-4830-8cc8-e1fa3cd2560a"},"vehicle_type_id":"4","last_reported":1698606237,"current_range_meters":14400,"station_id":"ce4bhh92rcd13ifvqfh0","pricing_plan_id":"free"},{"bike_id":"112600d2-7240-4ff5-86c5-2b0266440329","system_id":"levelo_inurba_marseille","lat":43.269467,"lon":5.386439,"is_reserved":false,"is_disabled":false,"rental_uris":{"android":"levelo://app?vid=112600d2-7240-4ff5-86c5-2b0266440329","ios":"levelo://app?vid=112600d2-7240-4ff5-86c5-2b0266440329"},"vehicle_type_id":"4","last_reported":1698606237,"current_range_meters":21200,"station_id":"ce4bhh92rcd13ifvqfh0","pricing_plan_id":"free"},{"bike_id":"a8ce3904-ced2-473b-ae81-9b9dfb7ed6d4","system_id":"levelo_inurba_marseille","lat":43.26955,"lon":5.386193,"is_reserved":false,"is_disabled":false,"rental_uris":{"android":"levelo://app?vid=a8ce3904-ced2-473b-ae81-9b9dfb7ed6d4","ios":"levelo://app?vid=a8ce3904-ced2-473b-ae81-9b9dfb7ed6d4"},"vehicle_type_id":"4","last_reported":1698606237,"current_range_meters":30000,"station_id":"ce4bhh92rcd13ifvqfh0","pricing_plan_id":"free"},{"bike_id":"a5df8098-7042-4523-a478-eb6b68c2961e","system_id":"levelo_inurba_marseille","lat":43.269467,"lon":5.386439,"is_reserved":false,"is_disabled":false,"rental_uris":{"android":"levelo://app?vid=a5df8098-7042-4523-a478-eb6b68c2961e","ios":"levelo://app?vid=a5df8098-7042-4523-a478-eb6b68c2961e"},"vehicle_type_id":"4","last_reported":1698606237,"current_range_meters":25600,"station_id":"ce4bhh92rcd13ifvqfh0","pricing_plan_id":"free"},{"bike_id":"a0eda30f-3f75-48d5-b59f-dd36b8ae5f89","system_id":"levelo_inurba_marseille","lat":43.269467,"lon":5.386439,"is_reserved":false,"is_disabled":false,"rental_uris":{"android":"levelo://app?vid=a0eda30f-3f75-48d5-b59f-dd36b8ae5f89","ios":"levelo://app?vid=a0eda30f-3f75-48d5-b59f-dd36b8ae5f89"},"vehicle_type_id":"4","last_reported":1698606237,"current_range_meters":10800,"station_id":"ce4bhh92rcd13ifvqfh0","pricing_plan_id":"free"},{"bike_id":"81ae53d0-075a-4f3b-bb4c-a7b54335c99e","system_id":"levelo_inurba_marseille","lat":43.269467,"lon":5.386439,"is_reserved":false,"is_disabled":false,"rental_uris":{"android":"levelo://app?vid=81ae53d0-075a-4f3b-bb4c-a7b54335c99e","ios":"levelo://app?vid=81ae53d0-075a-4f3b-bb4c-a7b54335c99e"},"vehicle_type_id":"4","last_reported":1698606237,"current_range_meters":32000,"station_id":"ce4bhh92rcd13ifvqfh0","pricing_plan_id":"free"},{"bike_id":"22a58c4a-7d36-4a6d-9e3a-f29c7ab7177d","system_id":"levelo_inurba_marseille","lat":43.26954,"lon":5.38637,"is_reserved":false,"is_disabled":false,"rental_uris":{"android":"levelo://app?vid=22a58c4a-7d36-4a6d-9e3a-f29c7ab7177d","ios":"levelo://app?vid=22a58c4a-7d36-4a6d-9e3a-f29c7ab7177d"},"vehicle_type_id":"4","last_reported":1698606237,"current_range_meters":22800,"station_id":"ce4bhh92rcd13ifvqfh0","pricing_plan_id":"free"},{"bike_id":"2dcda059-f182-410c-bfac-93a86a84f604","system_id":"levelo_inurba_marseille","lat":43.26945,"lon":5.38629,"is_reserved":false,"is_disabled":false,"rental_uris":{"android":"levelo://app?vid=2dcda059-f182-410c-bfac-93a86a84f604","ios":"levelo://app?vid=2dcda059-f182-410c-bfac-93a86a84f604"},"vehicle_type_id":"4","last_reported":1698606237,"current_range_meters":27600,"station_id":"ce4bhh92rcd13ifvqfh0","pricing_plan_id":"free"},{"bike_id":"e393a311-4e56-42bb-a7c0-4653a33ce882","system_id":"levelo_inurba_marseille","lat":43.269467,"lon":5.386439,"is_reserved":false,"is_disabled":false,"rental_uris":{"android":"levelo://app?vid=e393a311-4e56-42bb-a7c0-4653a33ce882","ios":"levelo://app?vid=e393a311-4e56-42bb-a7c0-4653a33ce882"},"vehicle_type_id":"4","last_reported":1698606237,"current_range_meters":6400,"station_id":"ce4bhh92rcd13ifvqfh0","pricing_plan_id":"free"},{"bike_id":"891e1734-0f2b-4304-8bd4-989a6a3bbdb4","system_id":"levelo_inurba_marseille","lat":43.279426,"lon":5.410434,"is_reserved":false,"is_disabled":false,"rental_uris":{"android":"levelo://app?vid=891e1734-0f2b-4304-8bd4-989a6a3bbdb4","ios":"levelo://app?vid=891e1734-0f2b-4304-8bd4-989a6a3bbdb4"},"vehicle_type_id":"4","last_reported":1698606237,"current_range_meters":21600,"station_id":"ce4bhnp2rcd13ifvqh0g","pricing_plan_id":"free"},{"bike_id":"582a1410-eae2-4e20-bd70-ebecfa57b367","system_id":"levelo_inurba_marseille","lat":43.279373,"lon":5.410475,"is_reserved":false,"is_disabled":false,"rental_uris":{"android":"levelo://app?vid=582a1410-eae2-4e20-bd70-ebecfa57b367","ios":"levelo://app?vid=582a1410-eae2-4e20-bd70-ebecfa57b367"},"vehicle_type_id":"4","last_reported":1698606237,"current_range_meters":21200,"station_id":"ce4bhnp2rcd13ifvqh0g","pricing_plan_id":"free"},{"bike_id":"b3d28908-f65e-480e-830c-e4e66d27f226","system_id":"levelo_inurba_marseille","lat":43.269319,"lon":5.389397,"is_reserved":false,"is_disabled":false,"rental_uris":{"android":"levelo://app?vid=b3d28908-f65e-480e-830c-e4e66d27f226","ios":"levelo://app?vid=b3d28908-f65e-480e-830c-e4e66d27f226"},"vehicle_type_id":"4","last_reported":1698606237,"current_range_meters":28800,"station_id":"ce4bhhh2rcd13ifvqfl0","pricing_plan_id":"free"},{"bike_id":"66a46cce-2509-423f-8e36-ccbf8c1330ab","system_id":"levelo_inurba_marseille","lat":43.269319,"lon":5.389397,"is_reserved":false,"is_disabled":false,"rental_uris":{"android":"levelo://app?vid=66a46cce-2509-423f-8e36-ccbf8c1330ab","ios":"levelo://app?vid=66a46cce-2509-423f-8e36-ccbf8c1330ab"},"vehicle_type_id":"4","last_reported":1698606237,"current_range_meters":22000,"station_id":"ce4bhhh2rcd13ifvqfl0","pricing_plan_id":"free"},{"bike_id":"5ff8d5f1-5c3a-40fd-96a3-7e600a036b82","system_id":"levelo_inurba_marseille","lat":43.26681,"lon":5.382694,"is_reserved":false,"is_disabled":false,"rental_uris":{"android":"levelo://app?vid=5ff8d5f1-5c3a-40fd-96a3-7e600a036b82","ios":"levelo://app?vid=5ff8d5f1-5c3a-40fd-96a3-7e600a036b82"},"vehicle_type_id":"4","last_reported":1698606237,"current_range_meters":12400,"station_id":"ce4bhg92rcd13ifvqf90","pricing_plan_id":"free"},{"bike_id":"768d8fa0-29eb-418b-b227-31692e0e1355","system_id":"levelo_inurba_marseille","lat":43.26555,"lon":5.37283,"is_reserved":false,"is_disabled":false,"rental_uris":{"android":"levelo://app?vid=768d8fa0-29eb-418b-b227-31692e0e1355","ios":"levelo://app?vid=768d8fa0-29eb-418b-b227-31692e0e1355"},"vehicle_type_id":"4","last_reported":1698606237,"current_range_meters":18400,"station_id":"ce4bhg12rcd13ifvqf70","pricing_plan_id":"free"},{"bike_id":"e610933f-f657-4bb4-a514-3746cfe6b8b3","system_id":"levelo_inurba_marseille","lat":43.279921,"lon":5.416584,"is_reserved":false,"is_disabled":false,"rental_uris":{"android":"levelo://app?vid=e610933f-f657-4bb4-a514-3746cfe6b8b3","ios":"levelo://app?vid=e610933f-f657-4bb4-a514-3746cfe6b8b3"},"vehicle_type_id":"4","last_reported":1698606237,"current_range_meters":25200,"station_id":"ce4bho12rcd13ifvqh1g","pricing_plan_id":"free"},{"bike_id":"9dec49a7-394a-4ee3-ba05-4f4e8508d99c","system_id":"levelo_inurba_marseille","lat":43.26784,"lon":5.39418,"is_reserved":false,"is_disabled":false,"rental_uris":{"android":"levelo://app?vid=9dec49a7-394a-4ee3-ba05-4f4e8508d99c","ios":"levelo://app?vid=9dec49a7-394a-4ee3-ba05-4f4e8508d99c"},"vehicle_type_id":"4","last_reported":1698606237,"current_range_meters":26800,"station_id":"","pricing_plan_id":"free"},{"bike_id":"7a15c7db-c9cc-4eee-9084-924f56bc210e","system_id":"levelo_inurba_marseille","lat":43.26781,"lon":5.39417,"is_reserved":false,"is_disabled":false,"rental_uris":{"android":"levelo://app?vid=7a15c7db-c9cc-4eee-9084-924f56bc210e","ios":"levelo://app?vid=7a15c7db-c9cc-4eee-9084-924f56bc210e"},"vehicle_type_id":"4","last_reported":1698606237,"current_range_meters":25200,"station_id":"","pricing_plan_id":"free"},{"bike_id":"702d8e25-2586-476a-99ab-f43287d33f9b","system_id":"levelo_inurba_marseille","lat":43.26779,"lon":5.39413,"is_reserved":false,"is_disabled":false,"rental_uris":{"android":"levelo://app?vid=702d8e25-2586-476a-99ab-f43287d33f9b","ios":"levelo://app?vid=702d8e25-2586-476a-99ab-f43287d33f9b"},"vehicle_type_id":"4","last_reported":1698606237,"current_range_meters":6800,"station_id":"","pricing_plan_id":"free"},{"bike_id":"d3d8f469-1c82-4f93-a28a-01f01bca79c4","system_id":"levelo_inurba_marseille","lat":43.26778,"lon":5.39414,"is_reserved":false,"is_disabled":false,"rental_uris":{"android":"levelo://app?vid=d3d8f469-1c82-4f93-a28a-01f01bca79c4","ios":"levelo://app?vid=d3d8f469-1c82-4f93-a28a-01f01bca79c4"},"vehicle_type_id":"4","last_reported":1698606237,"current_range_meters":2000,"station_id":"","pricing_plan_id":"free"},{"bike_id":"8ec6671f-9388-4b9d-ae22-c7d3a3eb8c33","system_id":"levelo_inurba_marseille","lat":43.26778,"lon":5.39416,"is_reserved":false,"is_disabled":false,"rental_uris":{"android":"levelo://app?vid=8ec6671f-9388-4b9d-ae22-c7d3a3eb8c33","ios":"levelo://app?vid=8ec6671f-9388-4b9d-ae22-c7d3a3eb8c33"},"vehicle_type_id":"4","last_reported":1698606237,"current_range_meters":10800,"station_id":"","pricing_plan_id":"free"},{"bike_id":"e1179ae9-430f-4b1b-988c-29df736096a9","system_id":"levelo_inurba_marseille","lat":43.26777,"lon":5.39417,"is_reserved":false,"is_disabled":false,"rental_uris":{"android":"levelo://app?vid=e1179ae9-430f-4b1b-988c-29df736096a9","ios":"levelo://app?vid=e1179ae9-430f-4b1b-988c-29df736096a9"},"vehicle_type_id":"4","last_reported":1698606237,"current_range_meters":4800,"station_id":"","pricing_plan_id":"free"},{"bike_id":"c676a59b-0617-4b06-931e-11fd4256ceae","system_id":"levelo_inurba_marseille","lat":43.26777,"lon":5.39419,"is_reserved":false,"is_disabled":false,"rental_uris":{"android":"levelo://app?vid=c676a59b-0617-4b06-931e-11fd4256ceae","ios":"levelo://app?vid=c676a59b-0617-4b06-931e-11fd4256ceae"},"vehicle_type_id":"4","last_reported":1698606237,"current_range_meters":12400,"station_id":"","pricing_plan_id":"free"},{"bike_id":"d42c0983-deff-4318-8840-7ebcadf7cff7","system_id":"levelo_inurba_marseille","lat":43.26778,"lon":5.39425,"is_reserved":false,"is_disabled":false,"rental_uris":{"android":"levelo://app?vid=d42c0983-deff-4318-8840-7ebcadf7cff7","ios":"levelo://app?vid=d42c0983-deff-4318-8840-7ebcadf7cff7"},"vehicle_type_id":"4","last_reported":1698606237,"current_range_meters":8800,"station_id":"","pricing_plan_id":"free"},{"bike_id":"dcb6400f-ea88-48cf-8834-7ed2f68c79e0","system_id":"levelo_inurba_marseille","lat":43.26773,"lon":5.39411,"is_reserved":false,"is_disabled":false,"rental_uris":{"android":"levelo://app?vid=dcb6400f-ea88-48cf-8834-7ed2f68c79e0","ios":"levelo://app?vid=dcb6400f-ea88-48cf-8834-7ed2f68c79e0"},"vehicle_type_id":"4","last_reported":1698606237,"current_range_meters":20800,"station_id":"","pricing_plan_id":"free"},{"bike_id":"5e6f6802-37fa-46cd-afd1-639c2305aa58","system_id":"levelo_inurba_marseille","lat":43.26775,"lon":5.39419,"is_reserved":false,"is_disabled":false,"rental_uris":{"android":"levelo://app?vid=5e6f6802-37fa-46cd-afd1-639c2305aa58","ios":"levelo://app?vid=5e6f6802-37fa-46cd-afd1-639c2305aa58"},"vehicle_type_id":"4","last_reported":1698606237,"current_range_meters":2400,"station_id":"","pricing_plan_id":"free"},{"bike_id":"b9f70df4-6cc9-4a87-ad4e-d49b58bba680","system_id":"levelo_inurba_marseille","lat":43.26775,"lon":5.39421,"is_reserved":false,"is_disabled":false,"rental_uris":{"android":"levelo://app?vid=b9f70df4-6cc9-4a87-ad4e-d49b58bba680","ios":"levelo://app?vid=b9f70df4-6cc9-4a87-ad4e-d49b58bba680"},"vehicle_type_id":"4","last_reported":1698606237,"current_range_meters":20000,"station_id":"","pricing_plan_id":"free"},{"bike_id":"c73d4d10-9c1c-4db4-a8de-90f43bc2e487","system_id":"levelo_inurba_marseille","lat":43.26775,"lon":5.39423,"is_reserved":false,"is_disabled":false,"rental_uris":{"android":"levelo://app?vid=c73d4d10-9c1c-4db4-a8de-90f43bc2e487","ios":"levelo://app?vid=c73d4d10-9c1c-4db4-a8de-90f43bc2e487"},"vehicle_type_id":"4","last_reported":1698606237,"current_range_meters":20000,"station_id":"","pricing_plan_id":"free"},{"bike_id":"2687313b-4537-4b0d-956b-7965a5770ee1","system_id":"levelo_inurba_marseille","lat":43.328212,"lon":5.431596,"is_reserved":false,"is_disabled":false,"rental_uris":{"android":"levelo://app?vid=2687313b-4537-4b0d-956b-7965a5770ee1","ios":"levelo://app?vid=2687313b-4537-4b0d-956b-7965a5770ee1"},"vehicle_type_id":"4","last_reported":1698606237,"current_range_meters":14800,"station_id":"","pricing_plan_id":"free"},{"bike_id":"1cb3f577-fb04-4e28-a15d-87951d1577d9","system_id":"levelo_inurba_marseille","lat":43.308051,"lon":5.43527,"is_reserved":false,"is_disabled":false,"rental_uris":{"android":"levelo://app?vid=1cb3f577-fb04-4e28-a15d-87951d1577d9","ios":"levelo://app?vid=1cb3f577-fb04-4e28-a15d-87951d1577d9"},"vehicle_type_id":"4","last_reported":1698606237,"current_range_meters":30800,"station_id":"ce4bhph2rcd13ifvqheg","pricing_plan_id":"free"},{"bike_id":"40fa2745-7f57-4361-8818-00d325cd7714","system_id":"levelo_inurba_marseille","lat":43.265571,"lon":5.390032,"is_reserved":false,"is_disabled":false,"rental_uris":{"android":"levelo://app?vid=40fa2745-7f57-4361-8818-00d325cd7714","ios":"levelo://app?vid=40fa2745-7f57-4361-8818-00d325cd7714"},"vehicle_type_id":"4","last_reported":1698606237,"current_range_meters":3200,"station_id":"ce4bhe12rcd13ifvqf30","pricing_plan_id":"free"},{"bike_id":"ce7f7ccf-e8d8-493f-afeb-54465fedeb58","system_id":"levelo_inurba_marseille","lat":43.26568,"lon":5.39005,"is_reserved":false,"is_disabled":false,"rental_uris":{"android":"levelo://app?vid=ce7f7ccf-e8d8-493f-afeb-54465fedeb58","ios":"levelo://app?vid=ce7f7ccf-e8d8-493f-afeb-54465fedeb58"},"vehicle_type_id":"4","last_reported":1698606237,"current_range_meters":0,"station_id":"ce4bhe12rcd13ifvqf30","pricing_plan_id":"free"},{"bike_id":"9d286734-9b24-4990-8bab-6ef82e48fa34","system_id":"levelo_inurba_marseille","lat":43.265571,"lon":5.390032,"is_reserved":false,"is_disabled":false,"rental_uris":{"android":"levelo://app?vid=9d286734-9b24-4990-8bab-6ef82e48fa34","ios":"levelo://app?vid=9d286734-9b24-4990-8bab-6ef82e48fa34"},"vehicle_type_id":"4","last_reported":1698606237,"current_range_meters":0,"station_id":"ce4bhe12rcd13ifvqf30","pricing_plan_id":"free"},{"bike_id":"6363808b-d7fd-45bd-8f6d-8e785466059d","system_id":"levelo_inurba_marseille","lat":43.26562,"lon":5.38997,"is_reserved":false,"is_disabled":false,"rental_uris":{"android":"levelo://app?vid=6363808b-d7fd-45bd-8f6d-8e785466059d","ios":"levelo://app?vid=6363808b-d7fd-45bd-8f6d-8e785466059d"},"vehicle_type_id":"4","last_reported":1698606237,"current_range_meters":6400,"station_id":"ce4bhe12rcd13ifvqf30","pricing_plan_id":"free"},{"bike_id":"ce56f942-f540-46a3-af44-427e7947be87","system_id":"levelo_inurba_marseille","lat":43.308051,"lon":5.43527,"is_reserved":false,"is_disabled":false,"rental_uris":{"android":"levelo://app?vid=ce56f942-f540-46a3-af44-427e7947be87","ios":"levelo://app?vid=ce56f942-f540-46a3-af44-427e7947be87"},"vehicle_type_id":"4","last_reported":1698606237,"current_range_meters":19600,"station_id":"ce4bhph2rcd13ifvqheg","pricing_plan_id":"free"},{"bike_id":"efbbef42-b150-48eb-8784-926fdd2e78dc","system_id":"levelo_inurba_marseille","lat":43.26549,"lon":5.39001,"is_reserved":false,"is_disabled":false,"rental_uris":{"android":"levelo://app?vid=efbbef42-b150-48eb-8784-926fdd2e78dc","ios":"levelo://app?vid=efbbef42-b150-48eb-8784-926fdd2e78dc"},"vehicle_type_id":"4","last_reported":1698606237,"current_range_meters":29200,"station_id":"ce4bhe12rcd13ifvqf30","pricing_plan_id":"free"},{"bike_id":"77bd88b0-94d4-432b-ad78-b34f813520ea","system_id":"levelo_inurba_marseille","lat":43.265485,"lon":5.390023,"is_reserved":false,"is_disabled":false,"rental_uris":{"android":"levelo://app?vid=77bd88b0-94d4-432b-ad78-b34f813520ea","ios":"levelo://app?vid=77bd88b0-94d4-432b-ad78-b34f813520ea"},"vehicle_type_id":"4","last_reported":1698606237,"current_range_meters":2400,"station_id":"ce4bhe12rcd13ifvqf30","pricing_plan_id":"free"},{"bike_id":"2d46cc0c-65c6-4834-956d-7090ad78794e","system_id":"levelo_inurba_marseille","lat":43.265463,"lon":5.389941,"is_reserved":false,"is_disabled":false,"rental_uris":{"android":"levelo://app?vid=2d46cc0c-65c6-4834-956d-7090ad78794e","ios":"levelo://app?vid=2d46cc0c-65c6-4834-956d-7090ad78794e"},"vehicle_type_id":"4","last_reported":1698606237,"current_range_meters":5200,"station_id":"ce4bhe12rcd13ifvqf30","pricing_plan_id":"free"},