{"last_updated":1762510312,"ttl":60,"version":"2.2","data":{"bikes":[{"bike_id":"a60e7741-cb7b-4125-9cd2-f21efb89884b","system_id":"levelo_inurba_marseille","lat":43.30098,"lon":5.37497,"is_reserved":false,"is_disabled":false,"rental_uris":{"android":"levelo://app?vid=a60e7741-cb7b-4125-9cd2-f21efb89884b","ios":"levelo://app?vid=a60e7741-cb7b-4125-9cd2-f21efb89884b"},"vehicle_type_id":"4","last_reported":1762510312,"current_range_meters":2800,"station_id":"","pricing_plan_id":"cebpf4jnsgd1na2vs0mg"},{"bike_id":"b6f25e98-7456-4e07-9093-2f5fd5118a2a","system_id":"levelo_inurba_marseille","lat":43.29906,"lon":5.38146,"is_reserved":false,"is_disabled":false,"rental_uris":{"android":"levelo://app?vid=b6f25e98-7456-4e07-9093-2f5fd5118a2a","ios":"levelo://app?vid=b6f25e98-7456-4e07-9093-2f5fd5118a2a"},"vehicle_type_id":"4","last_reported":1762510312,"current_range_meters":3200,"station_id":"ce4bgj12rcd13ifvqbc0","pricing_plan_id":"cebpf4jnsgd1na2vs0mg"},{"bike_id":"765b9661-2b24-4c0f-a9fb-732d7409b10c","system_id":"levelo_inurba_marseille","lat":43.21612,"lon":5.34435,"is_reserved":false,"is_disabled":false,"rental_uris":{"android":"levelo://app?vid=765b9661-2b24-4c0f-a9fb-732d7409b10c","ios":"levelo://app?vid=765b9661-2b24-4c0f-a9fb-732d7409b10c"},"vehicle_type_id":"4","last_reported":1762510312,"current_range_meters":3200,"station_id":"","pricing_plan_id":"cebpf4jnsgd1na2vs0mg"},{"bike_id":"e7002296-a724-4792-9c77-9aa7da662e7d","system_id":"levelo_inurba_marseille","lat":43.29752,"lon":5.36248,"is_reserved":false,"is_disabled":false,"rental_uris":{"android":"levelo://app?vid=e7002296-a724-4792-9c77-9aa7da662e7d","ios":"levelo://app?vid=e7002296-a724-4792-9c77-9aa7da662e7d"},"vehicle_type_id":"4","last_reported":1762510312,"current_range_meters":3200,"station_id":"","pricing_plan_id":"cebpf4jnsgd1na2vs0mg"},{"bike_id":"be35adea-aa4e-429a-b235-707eab222fa2","system_id":"levelo_inurba_marseille","lat":43.28262,"lon":5.35054,"is_reserved":false,"is_disabled":true,"rental_uris":{"android":"levelo://app?vid=be35adea-aa4e-429a-b235-707eab222fa2","ios":"levelo://app?vid=be35adea-aa4e-429a-b235-707eab222fa2"},"vehicle_type_id":"4","last_reported":1762510312,"current_range_meters":3600,"station_id":"ce4bhbp2rcd13ifvqerg","pricing_plan_id":"cebpf4jnsgd1na2vs0mg"},{"bike_id":"848cd38a-833e-46e1-8013-9c78e1784d74","system_id":"levelo_inurba_marseille","lat":43.24807,"lon":5.37462,"is_reserved":false,"is_disabled":false,"rental_uris":{"android":"levelo://app?vid=848cd38a-833e-46e1-8013-9c78e1784d74","ios":"levelo://app?vid=848cd38a-833e-46e1-8013-9c78e1784d74"},"vehicle_type_id":"4","last_reported":1762510312,"current_range_meters":3600,"station_id":"ce4bhgh2rcd13ifvqfb0","pricing_plan_id":"cebpf4jnsgd1na2vs0mg"},{"bike_id":"571bd3a6-912b-44a3-9841-50c558a61481","system_id":"levelo_inurba_marseille","lat":43.28103,"lon":5.40561,"is_reserved":false,"is_disabled":false,"rental_uris":{"android":"levelo://app?vid=571bd3a6-912b-44a3-9841-50c558a61481","ios":"levelo://app?vid=571bd3a6-912b-44a3-9841-50c558a61481"},"vehicle_type_id":"4","last_reported":1762510312,"current_range_meters":4000,"station_id":"","pricing_plan_id":"cebpf4jnsgd1na2vs0mg"},{"bike_id":"a25b06a8-6121-4f4c-b829-5c38b7885080","system_id":"levelo_inurba_marseille","lat":43.25494,"lon":5.37647,"is_reserved":false,"is_disabled":false,"rental_uris":{"android":"levelo://app?vid=a25b06a8-6121-4f4c-b829-5c38b7885080","ios":"levelo://app?vid=a25b06a8-6121-4f4c-b829-5c38b7885080"},"vehicle_type_id":"4","last_reported":1762510312,"current_range_meters":4000,"station_id":"ce4bhh12rcd13ifvqff0","pricing_plan_id":"cebpf4jnsgd1na2vs0mg"},{"bike_id":"28c75327-67a1-4ec1-a20b-056e3d962b6b","system_id":"levelo_inurba_marseille","lat":43.29936,"lon":5.36539,"is_reserved":false,"is_disabled":false,"rental_uris":{"android":"levelo://app?vid=28c75327-67a1-4ec1-a20b-056e3d962b6b","ios":"levelo://app?vid=28c75327-67a1-4ec1-a20b-056e3d962b6b"},"vehicle_type_id":"4","last_reported":1762510312,"current_range_meters":4400,"station_id":"ce4bgm92rcd13ifvqbr0","pricing_plan_id":"cebpf4jnsgd1na2vs0mg"},{"bike_id":"3f80e21a-05be-42a4-8dcd-0bfb9c55f0d3","system_id":"levelo_inurba_marseille","lat":43.27206,"lon":5.3918,"is_reserved":false,"is_disabled":false,"rental_uris":{"android":"levelo://app?vid=3f80e21a-05be-42a4-8dcd-0bfb9c55f0d3","ios":"levelo://app?vid=3f80e21a-05be-42a4-8dcd-0bfb9c55f0d3"},"vehicle_type_id":"4","last_reported":1762510312,"current_range_meters":4400,"station_id":"ce4bhhp2rcd13ifvqfm0","pricing_plan_id":"cebpf4jnsgd1na2vs0mg"},{"bike_id":"a1e9ac37-fc66-41a8-a87d-97217c23b008","system_id":"levelo_inurba_marseille","lat":43.270587,"lon":5.402529,"is_reserved":false,"is_disabled":false,"rental_uris":{"android":"levelo://app?vid=a1e9ac37-fc66-41a8-a87d-97217c23b008","ios":"levelo://app?vid=a1e9ac37-fc66-41a8-a87d-97217c23b008"},"vehicle_type_id":"4","last_reported":1762510312,"current_range_meters":4400,"station_id":"ce4bhk92rcd13ifvqgc0","pricing_plan_id":"cebpf4jnsgd1na2vs0mg"},{"bike_id":"5d5bda27-3193-40bd-b9e5-5d53ae315f39","system_id":"levelo_inurba_marseille","lat":43.278466,"lon":5.406678,"is_reserved":false,"is_disabled":false,"rental_uris":{"android":"levelo://app?vid=5d5bda27-3193-40bd-b9e5-5d53ae315f39","ios":"levelo://app?vid=5d5bda27-3193-40bd-b9e5-5d53ae315f39"},"vehicle_type_id":"4","last_reported":1762510312,"current_range_meters":4400,"station_id":"ce4bh4p2rcd13ifvqe0g","pricing_plan_id":"cebpf4jnsgd1na2vs0mg"},{"bike_id":"d04a871a-6cf2-4320-894f-e37e5b569dd9","system_id":"levelo_inurba_marseille","lat":43.231532,"lon":5.437172,"is_reserved":false,"is_disabled":false,"rental_uris":{"android":"levelo://app?vid=d04a871a-6cf2-4320-894f-e37e5b569dd9","ios":"levelo://app?vid=d04a871a-6cf2-4320-894f-e37e5b569dd9"},"vehicle_type_id":"4","last_reported":1762510312,"current_range_meters":4400,"station_id":"ce4bhmp2rcd13ifvqgog","pricing_plan_id":"cebpf4jnsgd1na2vs0mg"},{"bike_id":"8b748fb5-7cf8-457e-95eb-e50472882ba4","system_id":"levelo_inurba_marseille","lat":43.292825,"lon":5.401096,"is_reserved":false,"is_disabled":false,"rental_uris":{"android":"levelo://app?vid=8b748fb5-7cf8-457e-95eb-e50472882ba4","ios":"levelo://app?vid=8b748fb5-7cf8-457e-95eb-e50472882ba4"},"vehicle_type_id":"4","last_reported":1762510312,"current_range_meters":5600,"station_id":"ce4bh312rcd13ifvqdk0","pricing_plan_id":"cebpf4jnsgd1na2vs0mg"},{"bike_id":"217bfb2f-1fa7-4fb7-989e-4059d5f94d24","system_id":"levelo_inurba_marseille","lat":43.337381,"lon":5.374699,"is_reserved":false,"is_disabled":false,"rental_uris":{"android":"levelo://app?vid=217bfb2f-1fa7-4fb7-989e-4059d5f94d24","ios":"levelo://app?vid=217bfb2f-1fa7-4fb7-989e-4059d5f94d24"},"vehicle_type_id":"4","last_reported":1762510312,"current_range_meters":5600,"station_id":"","pricing_plan_id":"cebpf4jnsgd1na2vs0mg"},{"bike_id":"d3a8c452-bd73-4909-9cfe-f1c0285f3d0c","system_id":"levelo_inurba_marseille","lat":43.2848,"lon":5.48401,"is_reserved":false,"is_disabled":false,"rental_uris":{"android":"levelo://app?vid=d3a8c452-bd73-4909-9cfe-f1c0285f3d0c","ios":"levelo://app?vid=d3a8c452-bd73-4909-9cfe-f1c0285f3d0c"},"vehicle_type_id":"4","last_reported":1762510312,"current_range_meters":6000,"station_id":"","pricing_plan_id":"cebpf4jnsgd1na2vs0mg"},{"bike_id":"ef488898-c844-477f-bf1b-25f47b8dc180","system_id":"levelo_inurba_marseille","lat":43.2845,"lon":5.39206,"is_reserved":false,"is_disabled":false,"rental_uris":{"android":"levelo://app?vid=ef488898-c844-477f-bf1b-25f47b8dc180","ios":"levelo://app?vid=ef488898-c844-477f-bf1b-25f47b8dc180"},"vehicle_type_id":"4","last_reported":1762510312,"current_range_meters":6000,"station_id":"ce4bhoh2rcd13ifvqh5g","pricing_plan_id":"cebpf4jnsgd1na2vs0mg"},{"bike_id":"00065666-b382-40c8-87f2-d52ded706b03","system_id":"levelo_inurba_marseille","lat":43.30182,"lon":5.39195,"is_reserved":false,"is_disabled":false,"rental_uris":{"android":"levelo://app?vid=00065666-b382-40c8-87f2-d52ded706b03","ios":"levelo://app?vid=00065666-b382-40c8-87f2-d52ded706b03"},"vehicle_type_id":"4","last_reported":1762510312,"current_range_meters":6400,"station_id":"","pricing_plan_id":"cebpf4jnsgd1na2vs0mg"},{"bike_id":"23e44306-93ce-4bd9-87e2-193ffabd7687","system_id":"levelo_inurba_marseille","lat":43.27059,"lon":5.3831,"is_reserved":false,"is_disabled":false,"rental_uris":{"android":"levelo://app?vid=23e44306-93ce-4bd9-87e2-193ffabd7687","ios":"levelo://app?vid=23e44306-93ce-4bd9-87e2-193ffabd7687"},"vehicle_type_id":"4","last_reported":1762510312,"current_range_meters":6400,"station_id":"st_d3n2fo6cfp8s73cte1j0","pricing_plan_id":"cebpf4jnsgd1na2vs0mg"},{"bike_id":"076834d5-9406-4539-86cb-1ee2dfdbe827","system_id":"levelo_inurba_marseille","lat":43.337444,"lon":5.374475,"is_reserved":false,"is_disabled":false,"rental_uris":{"android":"levelo://app?vid=076834d5-9406-4539-86cb-1ee2dfdbe827","ios":"levelo://app?vid=076834d5-9406-4539-86cb-1ee2dfdbe827"},"vehicle_type_id":"4","last_reported":1762510312,"current_range_meters":6400,"station_id":"ce4bhn12rcd13ifvqgqg","pricing_plan_id":"cebpf4jnsgd1na2vs0mg"},{"bike_id":"b7bacdc8-fe24-419d-a1a7-194cc9df7143","system_id":"levelo_inurba_marseille","lat":43.24998,"lon":5.38922,"is_reserved":false,"is_disabled":false,"rental_uris":{"android":"levelo://app?vid=b7bacdc8-fe24-419d-a1a7-194cc9df7143","ios":"levelo://app?vid=b7bacdc8-fe24-419d-a1a7-194cc9df7143"},"vehicle_type_id":"4","last_reported":1762510312,"current_range_meters":6400,"station_id":"ce4bhgp2rcd13ifvqfd0","pricing_plan_id":"cebpf4jnsgd1na2vs0mg"},{"bike_id":"81dcc136-dea2-46c0-98af-42dbdee92b54","system_id":"levelo_inurba_marseille","lat":43.284828,"lon":5.483939,"is_reserved":false,"is_disabled":false,"rental_uris":{"android":"levelo://app?vid=81dcc136-dea2-46c0-98af-42dbdee92b54","ios":"levelo://app?vid=81dcc136-dea2-46c0-98af-42dbdee92b54"},"vehicle_type_id":"4","last_reported":1762510312,"current_range_meters":6800,"station_id":"","pricing_plan_id":"cebpf4jnsgd1na2vs0mg"},{"bike_id":"74a83f19-4620-4517-be1e-697db6f72f0b","system_id":"levelo_inurba_marseille","lat":43.32357,"lon":5.36769,"is_reserved":false,"is_disabled":false,"rental_uris":{"android":"levelo://app?vid=74a83f19-4620-4517-be1e-697db6f72f0b","ios":"levelo://app?vid=74a83f19-4620-4517-be1e-697db6f72f0b"},"vehicle_type_id":"4","last_reported":1762510312,"current_range_meters":7200,"station_id":"ce4bhsh2rcd13ifvqi2g","pricing_plan_id":"cebpf4jnsgd1na2vs0mg"},{"bike_id":"e43e397b-f1bf-4830-9938-a0643e222c63","system_id":"levelo_inurba_marseille","lat":43.2495,"lon":5.40496,"is_reserved":false,"is_disabled":false,"rental_uris":{"android":"levelo://app?vid=e43e397b-f1bf-4830-9938-a0643e222c63","ios":"levelo://app?vid=e43e397b-f1bf-4830-9938-a0643e222c63"},"vehicle_type_id":"4","last_reported":1762510312,"current_range_meters":7200,"station_id":"st_d2ngiaodas8pm72gd1h0","pricing_plan_id":"cebpf4jnsgd1na2vs0mg"},{"bike_id":"6e9601c8-3a9b-4c4f-8a50-e778f7d9a229","system_id":"levelo_inurba_marseille","lat":43.29934,"lon":5.36542,"is_reserved":false,"is_disabled":false,"rental_uris":{"android":"levelo://app?vid=6e9601c8-3a9b-4c4f-8a50-e778f7d9a229","ios":"levelo://app?vid=6e9601c8-3a9b-4c4f-8a50-e778f7d9a229"},"vehicle_type_id":"4","last_reported":1762510312,"current_range_meters":8000,"station_id":"ce4bgm92rcd13ifvqbr0","pricing_plan_id":"cebpf4jnsgd1na2vs0mg"},{"bike_id":"faf02dba-a063-4be7-b738-20d510b602ef","system_id":"levelo_inurba_marseille","lat":43.298242,"lon":5.382826,"is_reserved":false,"is_disabled":false,"rental_uris":{"android":"levelo://app?vid=faf02dba-a063-4be7-b738-20d510b602ef","ios":"levelo://app?vid=faf02dba-a063-4be7-b738-20d510b602ef"},"vehicle_type_id":"4","last_reported":1762510312,"current_range_meters":8000,"station_id":"","pricing_plan_id":"cebpf4jnsgd1na2vs0mg"},{"bike_id":"d2c939ab-35e6-4241-9f6a-d7010d422ff1","system_id":"levelo_inurba_marseille","lat":43.3053,"lon":5.38432,"is_reserved":false,"is_disabled":false,"rental_uris":{"android":"levelo://app?vid=d2c939ab-35e6-4241-9f6a-d7010d422ff1","ios":"levelo://app?vid=d2c939ab-35e6-4241-9f6a-d7010d422ff1"},"vehicle_type_id":"4","last_reported":1762510312,"current_range_meters":8000,"station_id":"ce4bgg92rcd13ifvqb30","pricing_plan_id":"cebpf4jnsgd1na2vs0mg"},{"bike_id":"6fa65538-65ab-49fd-b7bd-0d0b01951d5f","system_id":"levelo_inurba_marseille","lat":43.25497,"lon":5.37653,"is_reserved":false,"is_disabled":false,"rental_uris":{"android":"levelo://app?vid=6fa65538-65ab-49fd-b7bd-0d0b01951d5f","ios":"levelo://app?vid=6fa65538-65ab-49fd-b7bd-0d0b01951d5f"},"vehicle_type_id":"4","last_reported":1762510312,"current_range_meters":8000,"station_id":"ce4bhh12rcd13ifvqff0","pricing_plan_id":"cebpf4jnsgd1na2vs0mg"},{"bike_id":"53b72f36-014b-437a-aa71-2b6c8f5c276e","system_id":"levelo_inurba_marseille","lat":43.31358,"lon":5.38486,"is_reserved":false,"is_disabled":false,"rental_uris":{"android":"levelo://app?vid=53b72f36-014b-437a-aa71-2b6c8f5c276e","ios":"levelo://app?vid=53b72f36-014b-437a-aa71-2b6c8f5c276e"},"vehicle_type_id":"4","last_reported":1762510312,"current_range_meters":8000,"station_id":"ce4bgt92rcd13ifvqcf0","pricing_plan_id":"cebpf4jnsgd1na2vs0mg"},{"bike_id":"253154f6-e9c9-4067-8ae0-8629a2242cf8","system_id":"levelo_inurba_marseille","lat":43.2901,"lon":5.37293,"is_reserved":false,"is_disabled":false,"rental_uris":{"android":"levelo://app?vid=253154f6-e9c9-4067-8ae0-8629a2242cf8","ios":"levelo://app?vid=253154f6-e9c9-4067-8ae0-8629a2242cf8"},"vehicle_type_id":"4","last_reported":1762510312,"current_range_meters":8400,"station_id":"","pricing_plan_id":"cebpf4jnsgd1na2vs0mg"},{"bike_id":"9562a075-8c4e-41b2-b482-17ddf7404828","system_id":"levelo_inurba_marseille","lat":43.29022,"lon":5.38126,"is_reserved":false,"is_disabled":false,"rental_uris":{"android":"levelo://app?vid=9562a075-8c4e-41b2-b482-17ddf7404828","ios":"levelo://app?vid=9562a075-8c4e-41b2-b482-17ddf7404828"},"vehicle_type_id":"4","last_reported":1762510312,"current_range_meters":8400,"station_id":"ce4bh4p2rcd13ifvqe1g","pricing_plan_id":"cebpf4jnsgd1na2vs0mg"},{"bike_id":"71967476-752a-4f5e-b222-99c0eea95f39","system_id":"levelo_inurba_marseille","lat":43.323167,"lon":5.384207,"is_reserved":false,"is_disabled":false,"rental_uris":{"android":"levelo://app?vid=71967476-752a-4f5e-b222-99c0eea95f39","ios":"levelo://app?vid=71967476-752a-4f5e-b222-99c0eea95f39"},"vehicle_type_id":"4","last_reported":1762510312,"current_range_meters":8400,"station_id":"","pricing_plan_id":"cebpf4jnsgd1na2vs0mg"},{"bike_id":"1c81c9ab-2d02-4aaf-9980-35f7cf39a51e","system_id":"levelo_inurba_marseille","lat":43.2706,"lon":5.4027,"is_reserved":false,"is_disabled":false,"rental_uris":{"android":"levelo://app?vid=1c81c9ab-2d02-4aaf-9980-35f7cf39a51e","ios":"levelo://app?vid=1c81c9ab-2d02-4aaf-9980-35f7cf39a51e"},"vehicle_type_id":"4","last_reported":1762510312,"current_range_meters":8400,"station_id":"ce4bhk92rcd13ifvqgc0","pricing_plan_id":"cebpf4jnsgd1na2vs0mg"},{"bike_id":"78a2ab8f-4f7c-4ddc-9701-1001c917a1ce","system_id":"levelo_inurba_marseille","lat":43.28568,"lon":5.44082,"is_reserved":false,"is_disabled":false,"rental_uris":{"android":"levelo://app?vid=78a2ab8f-4f7c-4ddc-9701-1001c917a1ce","ios":"levelo://app?vid=78a2ab8f-4f7c-4ddc-9701-1001c917a1ce"},"vehicle_type_id":"4","last_reported":1762510312,"current_range_meters":8400,"station_id":"st_d3j3df2ikq2c7380ej80","pricing_plan_id":"cebpf4jnsgd1na2vs0mg"},{"bike_id":"3ffe2c7b-f27f-49bd-95c3-0ecfbf0880d2","system_id":"levelo_inurba_marseille","lat":43.30704,"lon":5.38447,"is_reserved":false,"is_disabled":false,"rental_uris":{"android":"levelo://app?vid=3ffe2c7b-f27f-49bd-95c3-0ecfbf0880d2","ios":"levelo://app?vid=3ffe2c7b-f27f-49bd-95c3-0ecfbf0880d2"},"vehicle_type_id":"4","last_reported":1762510312,"current_range_meters":8800,"station_id":"","pricing_plan_id":"cebpf4jnsgd1na2vs0mg"},{"bike_id":"02428522-0f54-4a73-8884-35b8aac2349f","system_id":"levelo_inurba_marseille","lat":43.30296,"lon":5.36902,"is_reserved":false,"is_disabled":false,"rental_uris":{"android":"levelo://app?vid=02428522-0f54-4a73-8884-35b8aac2349f","ios":"levelo://app?vid=02428522-0f54-4a73-8884-35b8aac2349f"},"vehicle_type_id":"4","last_reported":1762510312,"current_range_meters":8800,"station_id":"ce4bgqh2rcd13ifvqc5g","pricing_plan_id":"cebpf4jnsgd1na2vs0mg"},{"bike_id":"5c22c66f-ee6f-492a-b8da-68608c0c3980","system_id":"levelo_inurba_marseille","lat":43.23151,"lon":5.43719,"is_reserved":false,"is_disabled":false,"rental_uris":{"android":"levelo://app?vid=5c22c66f-ee6f-492a-b8da-68608c0c3980","ios":"levelo://app?vid=5c22c66f-ee6f-492a-b8da-68608c0c3980"},"vehicle_type_id":"4","last_reported":1762510312,"current_range_meters":9200,"station_id":"ce4bhmp2rcd13ifvqgog","pricing_plan_id":"cebpf4jnsgd1na2vs0mg"},{"bike_id":"8a684f6c-56dd-49e6-9a60-733faf0b3699","system_id":"levelo_inurba_marseille","lat":43.25937,"lon":5.40906,"is_reserved":false,"is_disabled":false,"rental_uris":{"android":"levelo://app?vid=8a684f6c-56dd-49e6-9a60-733faf0b3699","ios":"levelo://app?vid=8a684f6c-56dd-49e6-9a60-733faf0b3699"},"vehicle_type_id":"4","last_reported":1762510312,"current_range_meters":9200,"station_id":"ce4bhm92rcd13ifvqglg","pricing_plan_id":"cebpf4jnsgd1na2vs0mg"},{"bike_id":"98128a2e-dfbd-42db-b7c6-dbe04e5173b3","system_id":"levelo_inurba_marseille","lat":43.24952,"lon":5.4048,"is_reserved":false,"is_disabled":false,"rental_uris":{"android":"levelo://app?vid=98128a2e-dfbd-42db-b7c6-dbe04e5173b3","ios":"levelo://app?vid=98128a2e-dfbd-42db-b7c6-dbe04e5173b3"},"vehicle_type_id":"4","last_reported":1762510312,"current_range_meters":9200,"station_id":"st_d2ngiaodas8pm72gd1h0","pricing_plan_id":"cebpf4jnsgd1na2vs0mg"},{"bike_id":"24eac959-c47d-43d5-8d89-6896927eb733","system_id":"levelo_inurba_marseille","lat":43.24805,"lon":5.37446,"is_reserved":false,"is_disabled":false,"rental_uris":{"android":"levelo://app?vid=24eac959-c47d-43d5-8d89-6896927eb733","ios":"levelo://app?vid=24eac959-c47d-43d5-8d89-6896927eb733"},"vehicle_type_id":"4","last_reported":1762510312,"current_range_meters":9200,"station_id":"ce4bhgh2rcd13ifvqfb0","pricing_plan_id":"cebpf4jnsgd1na2vs0mg"},{"bike_id":"59b31ef2-3fe3-46e5-b5a5-685f264695ce","system_id":"levelo_inurba_marseille","lat":43.28485,"lon":5.48378,"is_reserved":false,"is_disabled":false,"rental_uris":{"android":"levelo://app?vid=59b31ef2-3fe3-46e5-b5a5-685f264695ce","ios":"levelo://app?vid=59b31ef2-3fe3-46e5-b5a5-685f264695ce"},"vehicle_type_id":"4","last_reported":1762510312,"current_range_meters":9200,"station_id":"","pricing_plan_id":"cebpf4jnsgd1na2vs0mg"},{"bike_id":"ec6c9bd1-b512-4425-869a-f192dda30b7a","system_id":"levelo_inurba_marseille","lat":43.29524,"lon":5.38538,"is_reserved":false,"is_disabled":false,"rental_uris":{"android":"levelo://app?vid=ec6c9bd1-b512-4425-869a-f192dda30b7a","ios":"levelo://app?vid=ec6c9bd1-b512-4425-869a-f192dda30b7a"},"vehicle_type_id":"4","last_reported":1762510312,"current_range_meters":9200,"station_id":"ce4bgih2rcd13ifvqba0","pricing_plan_id":"cebpf4jnsgd1na2vs0mg"},{"bike_id":"ab3a4d6b-b442-44b9-8f02-c1c222f445ba","system_id":"levelo_inurba_marseille","lat":43.274474,"lon":5.392798,"is_reserved":false,"is_disabled":false,"rental_uris":{"android":"levelo://app?vid=ab3a4d6b-b442-44b9-8f02-c1c222f445ba","ios":"levelo://app?vid=ab3a4d6b-b442-44b9-8f02-c1c222f445ba"},"vehicle_type_id":"4","last_reported":1762510312,"current_range_meters":9600,"station_id":"","pricing_plan_id":"cebpf4jnsgd1na2vs0mg"},{"bike_id":"957dedc2-44bd-40ee-a718-ca0ffd0efaef","system_id":"levelo_inurba_marseille","lat":43.27658,"lon":5.3889,"is_reserved":false,"is_disabled":true,"rental_uris":{"android":"levelo://app?vid=957dedc2-44bd-40ee-a718-ca0ffd0efaef","ios":"levelo://app?vid=957dedc2-44bd-40ee-a718-ca0ffd0efaef"},"vehicle_type_id":"4","last_reported":1762510312,"current_range_meters":9600,"station_id":"ce4bhi12rcd13ifvqfo0","pricing_plan_id":"cebpf4jnsgd1na2vs0mg"},{"bike_id":"6ee540f0-7f3b-453f-90af-c60b64a71b48","system_id":"levelo_inurba_marseille","lat":43.313887,"lon":5.403866,"is_reserved":false,"is_disabled":false,"rental_uris":{"android":"levelo://app?vid=6ee540f0-7f3b-453f-90af-c60b64a71b48","ios":"levelo://app?vid=6ee540f0-7f3b-453f-90af-c60b64a71b48"},"vehicle_type_id":"4","last_reported":1762510312,"current_range_meters":9600,"station_id":"","pricing_plan_id":"cebpf4jnsgd1na2vs0mg"},{"bike_id":"30c6b425-6ae6-43f9-a0a7-f7d4a6ed93cd","system_id":"levelo_inurba_marseille","lat":43.27931,"lon":5.411382,"is_reserved":false,"is_disabled":false,"rental_uris":{"android":"levelo://app?vid=30c6b425-6ae6-43f9-a0a7-f7d4a6ed93cd","ios":"levelo://app?vid=30c6b425-6ae6-43f9-a0a7-f7d4a6ed93cd"},"vehicle_type_id":"4","last_reported":1762510312,"current_range_meters":9600,"station_id":"","pricing_plan_id":"cebpf4jnsgd1na2vs0mg"},{"bike_id":"5dbf4098-450a-47ff-b143-5d82ca1db0da","system_id":"levelo_inurba_marseille","lat":43.24663,"lon":5.38169,"is_reserved":false,"is_disabled":true,"rental_uris":{"android":"levelo://app?vid=5dbf4098-450a-47ff-b143-5d82ca1db0da","ios":"levelo://app?vid=5dbf4098-450a-47ff-b143-5d82ca1db0da"},"vehicle_type_id":"4","last_reported":1762510312,"current_range_meters":9600,"station_id":"ce4bhih2rcd13ifvqfr0","pricing_plan_id":"cebpf4jnsgd1na2vs0mg"},{"bike_id":"3f3140b8-187b-43f6-96f9-a36b55814cf8","system_id":"levelo_inurba_marseille","lat":43.34138,"lon":5.40901,"is_reserved":false,"is_disabled":false,"rental_uris":{"android":"levelo://app?vid=3f3140b8-187b-43f6-96f9-a36b55814cf8","ios":"levelo://app?vid=3f3140b8-187b-43f6-96f9-a36b55814cf8"},"vehicle_type_id":"4","last_reported":1762510312,"current_range_meters":9600,"station_id":"ce4bhqh2rcd13ifvqhlg","pricing_plan_id":"cebpf4jnsgd1na2vs0mg"},{"bike_id":"310543d7-b74f-4a9a-b3c7-f1287a08137e","system_id":"levelo_inurba_marseille","lat":43.28938,"lon":5.36403,"is_reserved":false,"is_disabled":false,"rental_uris":{"android":"levelo://app?vid=310543d7-b74f-4a9a-b3c7-f1287a08137e","ios":"levelo://app?vid=310543d7-b74f-4a9a-b3c7-f1287a08137e"},"vehicle_type_id":"4","last_reported":1762510312,"current_range_meters":10000,"station_id":"ce4bhc92rcd13ifvqetg","pricing_plan_id":"cebpf4jnsgd1na2vs0mg"},{"bike_id":"319ffc4e-7711-40e6-a5bd-4d90d7a995da","system_id":"levelo_inurba_marseille","lat":43.310872,"lon":5.424244,"is_reserved":false,"is_disabled":false,"rental_uris":{"android":"levelo://app?vid=319ffc4e-7711-40e6-a5bd-4d90d7a995da","ios":"levelo://app?vid=319ffc4e-7711-40e6-a5bd-4d90d7a995da"},"vehicle_type_id":"4","last_reported":1762510312,"current_range_meters":10000,"station_id":"ce4bhp92rcd13ifvqhag","pricing_plan_id":"cebpf4jnsgd1na2vs0mg"},{"bike_id":"62b597ad-0183-45ab-83ea-6b1f25540269","system_id":"levelo_inurba_marseille","lat":43.32755,"lon":5.45203,"is_reserved":false,"is_disabled":false,"rental_uris":{"android":"levelo://app?vid=62b597ad-0183-45ab-83ea-6b1f25540269","ios":"levelo://app?vid=62b597ad-0183-45ab-83ea-6b1f25540269"},"vehicle_type_id":"4","last_reported":1762510312,"current_range_meters":10000,"station_id":"","pricing_plan_id":"cebpf4jnsgd1na2vs0mg"},{"bike_id":"6c55c78d-ae28-441c-b96c-6bebb635732a","system_id":"levelo_inurba_marseille","lat":43.30145,"lon":5.38079,"is_reserved":false,"is_disabled":false,"rental_uris":{"android":"levelo://app?vid=6c55c78d-ae28-441c-b96c-6bebb635732a","ios":"levelo://app?vid=6c55c78d-ae28-441c-b96c-6bebb635732a"},"vehicle_type_id":"4","last_reported":1762510312,"current_range_meters":10000,"station_id":"ce4bgjp2rcd13ifvqbh0","pricing_plan_id":"cebpf4jnsgd1na2vs0mg"},{"bike_id":"1c1406c3-ccbf-4c7e-948d-af3d562996c8","system_id":"levelo_inurba_marseille","lat":43.298231,"lon":5.440704,"is_reserved":false,"is_disabled":false,"rental_uris":{"android":"levelo://app?vid=1c1406c3-ccbf-4c7e-948d-af3d562996c8","ios":"levelo://app?vid=1c1406c3-ccbf-4c7e-948d-af3d562996c8"},"vehicle_type_id":"4","last_reported":1762510312,"current_range_meters":10800,"station_id":"st_d3jp68qikq2c7381ktn0","pricing_plan_id":"cebpf4jnsgd1na2vs0mg"},{"bike_id":"1e89aa19-8456-4398-b70e-ce2874dd6d89","system_id":"levelo_inurba_marseille","lat":43.215544,"lon":5.344664,"is_reserved":false,"is_disabled":false,"rental_uris":{"android":"levelo://app?vid=1e89aa19-8456-4398-b70e-ce2874dd6d89","ios":"levelo://app?vid=1e89aa19-8456-4398-b70e-ce2874dd6d89"},"vehicle_type_id":"4","last_reported":1762510312,"current_range_meters":10800,"station_id":"","pricing_plan_id":"cebpf4jnsgd1na2vs0mg"},{"bike_id":"f9a84438-123e-4caa-9547-9df9964b1ae5","system_id":"levelo_inurba_marseille","lat":43.336079,"lon":5.410348,"is_reserved":false,"is_disabled":false,"rental_uris":{"android":"levelo://app?vid=f9a84438-123e-4caa-9547-9df9964b1ae5","ios":"levelo://app?vid=f9a84438-123e-4caa-9547-9df9964b1ae5"},"vehicle_type_id":"4","last_reported":1762510312,"current_range_meters":10800,"station_id":"ce4bhqh2rcd13ifvqhmg","pricing_plan_id":"cebpf4jnsgd1na2vs0mg"},{"bike_id":"0e20a5d9-0ab3-4e71-a3ef-c9be28fc5551","system_id":"levelo_inurba_marseille","lat":43.28521,"lon":5.44101,"is_reserved":false,"is_disabled":false,"rental_uris":{"android":"levelo://app?vid=0e20a5d9-0ab3-4e71-a3ef-c9be28fc5551","ios":"levelo://app?vid=0e20a5d9-0ab3-4e71-a3ef-c9be28fc5551"},"vehicle_type_id":"4","last_reported":1762510312,"current_range_meters":10800,"station_id":"st_d3j3df2ikq2c7380ej80","pricing_plan_id":"cebpf4jnsgd1na2vs0mg"},{"bike_id":"81c176cb-3f38-4f06-8196-5e14f46cabff","system_id":"levelo_inurba_marseille","lat":43.30288,"lon":5.37722,"is_reserved":false,"is_disabled":false,"rental_uris":{"android":"levelo://app?vid=81c176cb-3f38-4f06-8196-5e14f46cabff","ios":"levelo://app?vid=81c176cb-3f38-4f06-8196-5e14f46cabff"},"vehicle_type_id":"4","last_reported":1762510312,"current_range_meters":10800,"station_id":"ce4bguh2rcd13ifvqcj0","pricing_plan_id":"cebpf4jnsgd1na2vs0mg"},{"bike_id":"6220bb5f-8916-4cab-8736-629d21b2de30","system_id":"levelo_inurba_marseille","lat":43.27291,"lon":5.42496,"is_reserved":false,"is_disabled":false,"rental_uris":{"android":"levelo://app?vid=6220bb5f-8916-4cab-8736-629d21b2de30","ios":"levelo://app?vid=6220bb5f-8916-4cab-8736-629d21b2de30"},"vehicle_type_id":"4","last_reported":1762510312,"current_range_meters":11200,"station_id":"","pricing_plan_id":"cebpf4jnsgd1na2vs0mg"},{"bike_id":"0990d13d-02e1-4e54-9d32-bff81dbbfd6f","system_id":"levelo_inurba_marseille","lat":43.30141,"lon":5.37412,"is_reserved":false,"is_disabled":false,"rental_uris":{"android":"levelo://app?vid=0990d13d-02e1-4e54-9d32-bff81dbbfd6f","ios":"levelo://app?vid=0990d13d-02e1-4e54-9d32-bff81dbbfd6f"},"vehicle_type_id":"4","last_reported":1762510312,"current_range_meters":11200,"station_id":"ce4bgs92rcd13ifvqcc0","pricing_plan_id":"cebpf4jnsgd1na2vs0mg"},{"bike_id":"acd11f1f-a797-4d8a-ac97-7cfd85277af2","system_id":"levelo_inurba_marseille","lat":43.2293,"lon":5.35403,"is_reserved":false,"is_disabled":false,"rental_uris":{"android":"levelo://app?vid=acd11f1f-a797-4d8a-ac97-7cfd85277af2","ios":"levelo://app?vid=acd11f1f-a797-4d8a-ac97-7cfd85277af2"},"vehicle_type_id":"4","last_reported":1762510312,"current_range_meters":11200,"station_id":"cpo3532slgdg3j2ikp40","pricing_plan_id":"cebpf4jnsgd1na2vs0mg"},{"bike_id":"f7761232-6449-41ad-8c9e-e2cc0508b009","system_id":"levelo_inurba_marseille","lat":43.287407,"lon":5.361153,"is_reserved":false,"is_disabled":false,"rental_uris":{"android":"levelo://app?vid=f7761232-6449-41ad-8c9e-e2cc0508b009","ios":"levelo://app?vid=f7761232-6449-41ad-8c9e-e2cc0508b009"},"vehicle_type_id":"4","last_reported":1762510312,"current_range_meters":11200,"station_id":"cki0cbj6b192h4jlfktg","pricing_plan_id":"cebpf4jnsgd1na2vs0mg"},{"bike_id":"bfe53252-d5d0-441e-95be-08244b77677c","system_id":"levelo_inurba_marseille","lat":43.239792,"lon":5.36641,"is_reserved":false,"is_disabled":false,"rental_uris":{"android":"levelo://app?vid=bfe53252-d5d0-441e-95be-08244b77677c","ios":"levelo://app?vid=bfe53252-d5d0-441e-95be-08244b77677c"},"vehicle_type_id":"4","last_reported":1762510312,"current_range_meters":11200,"station_id":"ce4bhi12rcd13ifvqfp0","pricing_plan_id":"cebpf4jnsgd1na2vs0mg"},{"bike_id":"fdef9327-beed-4f50-bbb2-578ade70fe76","system_id":"levelo_inurba_marseille","lat":43.29744,"lon":5.42771,"is_reserved":false,"is_disabled":false,"rental_uris":{"android":"levelo://app?vid=fdef9327-beed-4f50-bbb2-578ade70fe76","ios":"levelo://app?vid=fdef9327-beed-4f50-bbb2-578ade70fe76"},"vehicle_type_id":"4","last_reported":1762510312,"current_range_meters":11200,"station_id":"st_d3md5207bmas73dh9klg","pricing_plan_id":"cebpf4jnsgd1na2vs0mg"},{"bike_id":"61ce1881-cdd8-4b4c-a069-3cbf2ee9ffd8","system_id":"levelo_inurba_marseille","lat":43.29621,"lon":5.37157,"is_reserved":false,"is_disabled":false,"rental_uris":{"android":"levelo://app?vid=61ce1881-cdd8-4b4c-a069-3cbf2ee9ffd8","ios":"levelo://app?vid=61ce1881-cdd8-4b4c-a069-3cbf2ee9ffd8"},"vehicle_type_id":"4","last_reported":1762510312,"current_range_meters":11200,"station_id":"ce4bgnh2rcd13ifvqc0g","pricing_plan_id":"cebpf4jnsgd1na2vs0mg"},{"bike_id":"23a667c6-72b4-4ef6-a762-f6e175c8d0d2","system_id":"levelo_inurba_marseille","lat":43.29713,"lon":5.37692,"is_reserved":false,"is_disabled":false,"rental_uris":{"android":"levelo://app?vid=23a667c6-72b4-4ef6-a762-f6e175c8d0d2","ios":"levelo://app?vid=23a667c6-72b4-4ef6-a762-f6e175c8d0d2"},"vehicle_type_id":"4","last_reported":1762510312,"current_range_meters":11600,"station_id":"ce4bgkh2rcd13ifvqbl0","pricing_plan_id":"cebpf4jnsgd1na2vs0mg"},{"bike_id":"8e3651f8-dc57-4870-b416-958b27f03c19","system_id":"levelo_inurba_marseille","lat":43.23148,"lon":5.43689,"is_reserved":false,"is_disabled":false,"rental_uris":{"android":"levelo://app?vid=8e3651f8-dc57-4870-b416-958b27f03c19","ios":"levelo://app?vid=8e3651f8-dc57-4870-b416-958b27f03c19"},"vehicle_type_id":"4","last_reported":1762510312,"current_range_meters":11600,"station_id":"ce4bhmp2rcd13ifvqgog","pricing_plan_id":"cebpf4jnsgd1na2vs0mg"},{"bike_id":"da56c9b0-d2e0-4fc0-a06c-dd7bcd69f5df","system_id":"levelo_inurba_marseille","lat":43.32099,"lon":5.36774,"is_reserved":false,"is_disabled":false,"rental_uris":{"android":"levelo://app?vid=da56c9b0-d2e0-4fc0-a06c-dd7bcd69f5df","ios":"levelo://app?vid=da56c9b0-d2e0-4fc0-a06c-dd7bcd69f5df"},"vehicle_type_id":"4","last_reported":1762510312,"current_range_meters":11600,"station_id":"","pricing_plan_id":"cebpf4jnsgd1na2vs0mg"},{"bike_id":"41981e24-0927-44dd-8ffb-53a47c374ab1","system_id":"levelo_inurba_marseille","lat":43.270245,"lon":5.393465,"is_reserved":false,"is_disabled":false,"rental_uris":{"android":"levelo://app?vid=41981e24-0927-44dd-8ffb-53a47c374ab1","ios":"levelo://app?vid=41981e24-0927-44dd-8ffb-53a47c374ab1"},"vehicle_type_id":"4","last_reported":1762510312,"current_range_meters":12000,"station_id":"","pricing_plan_id":"cebpf4jnsgd1na2vs0mg"},{"bike_id":"b20270b9-25bd-4291-afdf-059d84be3408","system_id":"levelo_inurba_marseille","lat":43.29171,"lon":5.37146,"is_reserved":false,"is_disabled":false,"rental_uris":{"android":"levelo://app?vid=b20270b9-25bd-4291-afdf-059d84be3408","ios":"levelo://app?vid=b20270b9-25bd-4291-afdf-059d84be3408"},"vehicle_type_id":"4","last_reported":1762510312,"current_range_meters":12000,"station_id":"ce4bha92rcd13ifvqeh0","pricing_plan_id":"cebpf4jnsgd1na2vs0mg"},{"bike_id":"711b5184-06a1-46c6-b1ad-270408b914a4","system_id":"levelo_inurba_marseille","lat":43.300069,"lon":5.409665,"is_reserved":false,"is_disabled":false,"rental_uris":{"android":"levelo://app?vid=711b5184-06a1-46c6-b1ad-270408b914a4","ios":"levelo://app?vid=711b5184-06a1-46c6-b1ad-270408b914a4"},"vehicle_type_id":"4","last_reported":1762510312,"current_range_meters":12000,"station_id":"","pricing_plan_id":"cebpf4jnsgd1na2vs0mg"},{"bike_id":"735af335-66bf-4340-87fb-78f795989dcc","system_id":"levelo_inurba_marseille","lat":43.29917,"lon":5.38226,"is_reserved":false,"is_disabled":false,"rental_uris":{"android":"levelo://app?vid=735af335-66bf-4340-87fb-78f795989dcc","ios":"levelo://app?vid=735af335-66bf-4340-87fb-78f795989dcc"},"vehicle_type_id":"4","last_reported":1762510312,"current_range_meters":12000,"station_id":"","pricing_plan_id":"cebpf4jnsgd1na2vs0mg"},{"bike_id":"6c9f367e-49e1-4e68-b2a6-459d05c3f420","system_id":"levelo_inurba_marseille","lat":43.30541,"lon":5.36697,"is_reserved":false,"is_disabled":false,"rental_uris":{"android":"levelo://app?vid=6c9f367e-49e1-4e68-b2a6-459d05c3f420","ios":"levelo://app?vid=6c9f367e-49e1-4e68-b2a6-459d05c3f420"},"vehicle_type_id":"4","last_reported":1762510312,"current_range_meters":12000,"station_id":"ce4bgrp2rcd13ifvqc9g","pricing_plan_id":"cebpf4jnsgd1na2vs0mg"},{"bike_id":"b6d6ed38-4c87-427d-b530-709237f9a962","system_id":"levelo_inurba_marseille","lat":43.2315,"lon":5.43705,"is_reserved":false,"is_disabled":false,"rental_uris":{"android":"levelo://app?vid=b6d6ed38-4c87-427d-b530-709237f9a962","ios":"levelo://app?vid=b6d6ed38-4c87-427d-b530-709237f9a962"},"vehicle_type_id":"4","last_reported":1762510312,"current_range_meters":12000,"station_id":"ce4bhmp2rcd13ifvqgog","pricing_plan_id":"cebpf4jnsgd1na2vs0mg"},{"bike_id":"1fb57b18-b2ef-4ba4-9961-468b9658c49f","system_id":"levelo_inurba_marseille","lat":43.25937,"lon":5.40903,"is_reserved":false,"is_disabled":false,"rental_uris":{"android":"levelo://app?vid=1fb57b18-b2ef-4ba4-9961-468b9658c49f","ios":"levelo://app?vid=1fb57b18-b2ef-4ba4-9961-468b9658c49f"},"vehicle_type_id":"4","last_reported":1762510312,"current_range_meters":12000,"station_id":"ce4bhm92rcd13ifvqglg","pricing_plan_id":"cebpf4jnsgd1na2vs0mg"},{"bike_id":"5ef84235-eddd-425b-8be4-c31c46a00271","system_id":"levelo_inurba_marseille","lat":43.2416,"lon":5.36405,"is_reserved":false,"is_disabled":false,"rental_uris":{"android":"levelo://app?vid=5ef84235-eddd-425b-8be4-c31c46a00271","ios":"levelo://app?vid=5ef84235-eddd-425b-8be4-c31c46a00271"},"vehicle_type_id":"4","last_reported":1762510312,"current_range_meters":12000,"station_id":"cpo36qri1sfpv3e86is0","pricing_plan_id":"cebpf4jnsgd1na2vs0mg"},{"bike_id":"0f4ffc77-cafe-489d-b8b6-ccbf6aa9af95","system_id":"levelo_inurba_marseille","lat":43.286196,"lon":5.350938,"is_reserved":false,"is_disabled":false,"rental_uris":{"android":"levelo://app?vid=0f4ffc77-cafe-489d-b8b6-ccbf6aa9af95","ios":"levelo://app?vid=0f4ffc77-cafe-489d-b8b6-ccbf6aa9af95"},"vehicle_type_id":"4","last_reported":1762510312,"current_range_meters":12000,"station_id":"ce4bhch2rcd13ifvqeug","pricing_plan_id":"cebpf4jnsgd1na2vs0mg"},{"bike_id":"a5173696-5ba0-4fe6-bac5-de4a58477c02","system_id":"levelo_inurba_marseille","lat":43.33757,"lon":5.37488,"is_reserved":false,"is_disabled":false,"rental_uris":{"android":"levelo://app?vid=a5173696-5ba0-4fe6-bac5-de4a58477c02","ios":"levelo://app?vid=a5173696-5ba0-4fe6-bac5-de4a58477c02"},"vehicle_type_id":"4","last_reported":1762510312,"current_range_meters":12400,"station_id":"","pricing_plan_id":"cebpf4jnsgd1na2vs0mg"},{"bike_id":"329070e8-d502-4a6c-b48c-e60c98fc285b","system_id":"levelo_inurba_marseille","lat":43.312725,"lon":5.389399,"is_reserved":false,"is_disabled":false,"rental_uris":{"android":"levelo://app?vid=329070e8-d502-4a6c-b48c-e60c98fc285b","ios":"levelo://app?vid=329070e8-d502-4a6c-b48c-e60c98fc285b"},"vehicle_type_id":"4","last_reported":1762510312,"current_range_meters":12400,"station_id":"","pricing_plan_id":"cebpf4jnsgd1na2vs0mg"},{"bike_id":"8f01e68a-0a05-4db6-b791-b8beaba42366","system_id":"levelo_inurba_marseille","lat":43.29789,"lon":5.3809,"is_reserved":false,"is_disabled":false,"rental_uris":{"android":"levelo://app?vid=8f01e68a-0a05-4db6-b791-b8beaba42366","ios":"levelo://app?vid=8f01e68a-0a05-4db6-b791-b8beaba42366"},"vehicle_type_id":"4","last_reported":1762510312,"current_range_meters":12400,"station_id":"ce4bgip2rcd13ifvqbb0","pricing_plan_id":"cebpf4jnsgd1na2vs0mg"},{"bike_id":"5bee8f0f-57fe-4257-a72a-04a4967570b5","system_id":"levelo_inurba_marseille","lat":43.30082,"lon":5.37719,"is_reserved":false,"is_disabled":false,"rental_uris":{"android":"levelo://app?vid=5bee8f0f-57fe-4257-a72a-04a4967570b5","ios":"levelo://app?vid=5bee8f0f-57fe-4257-a72a-04a4967570b5"},"vehicle_type_id":"4","last_reported":1762510312,"current_range_meters":12400,"station_id":"","pricing_plan_id":"cebpf4jnsgd1na2vs0mg"},{"bike_id":"52fbcdbc-aaf5-49fa-bc7f-d424dc8ef78f","system_id":"levelo_inurba_marseille","lat":43.281234,"lon":5.378338,"is_reserved":false,"is_disabled":false,"rental_uris":{"android":"levelo://app?vid=52fbcdbc-aaf5-49fa-bc7f-d424dc8ef78f","ios":"levelo://app?vid=52fbcdbc-aaf5-49fa-bc7f-d424dc8ef78f"},"vehicle_type_id":"4","last_reported":1762510312,"current_range_meters":12400,"station_id":"ce4bguh2rcd13ifvqcj0","pricing_plan_id":"cebpf4jnsgd1na2vs0mg"},{"bike_id":"91195dc3-7219-4139-a8eb-8e52bb6d271e","system_id":"levelo_inurba_marseille","lat":43.231914,"lon":5.355532,"is_reserved":false,"is_disabled":false,"rental_uris":{"android":"levelo://app?vid=91195dc3-7219-4139-a8eb-8e52bb6d271e","ios":"levelo://app?vid=91195dc3-7219-4139-a8eb-8e52bb6d271e"},"vehicle_type_id":"4","last_reported":1762510312,"current_range_meters":12800,"station_id":"ce4bhu92rcd13ifvqi70","pricing_plan_id":"cebpf4jnsgd1na2vs0mg"},{"bike_id":"df436567-b5dd-47ff-82cb-66b373039810","system_id":"levelo_inurba_marseille","lat":43.25938,"lon":5.40892,"is_reserved":false,"is_disabled":false,"rental_uris":{"android":"levelo://app?vid=df436567-b5dd-47ff-82cb-66b373039810","ios":"levelo://app?vid=df436567-b5dd-47ff-82cb-66b373039810"},"vehicle_type_id":"4","last_reported":1762510312,"current_range_meters":12800,"station_id":"ce4bhm92rcd13ifvqglg","pricing_plan_id":"cebpf4jnsgd1na2vs0mg"},{"bike_id":"7e50e8da-5299-4aa1-849c-f5ceadbf07e2","system_id":"levelo_inurba_marseille","lat":43.25584,"lon":5.38231,"is_reserved":false,"is_disabled":false,"rental_uris":{"android":"levelo://app?vid=7e50e8da-5299-4aa1-849c-f5ceadbf07e2","ios":"levelo://app?vid=7e50e8da-5299-4aa1-849c-f5ceadbf07e2"},"vehicle_type_id":"4","last_reported":1762510312,"current_range_meters":12800,"station_id":"ce4bhih2rcd13ifvqfs0","pricing_plan_id":"cebpf4jnsgd1na2vs0mg"},{"bike_id":"2231cf1a-5f16-4799-b4ce-1e03de425dc9","system_id":"levelo_inurba_marseille","lat":43.26934,"lon":5.38633,"is_reserved":false,"is_disabled":false,"rental_uris":{"android":"levelo://app?vid=2231cf1a-5f16-4799-b4ce-1e03de425dc9","ios":"levelo://app?vid=2231cf1a-5f16-4799-b4ce-1e03de425dc9"},"vehicle_type_id":"4","last_reported":1762510312,"current_range_meters":12800,"station_id":"ce4bhh92rcd13ifvqfh0","pricing_plan_id":"cebpf4jnsgd1na2vs0mg"},{"bike_id":"57deb573-64bc-492f-ba8f-07c41926b45f","system_id":"levelo_inurba_marseille","lat":43.231481,"lon":5.437259,"is_reserved":false,"is_disabled":false,"rental_uris":{"android":"levelo://app?vid=57deb573-64bc-492f-ba8f-07c41926b45f","ios":"levelo://app?vid=57deb573-64bc-492f-ba8f-07c41926b45f"},"vehicle_type_id":"4","last_reported":1762510312,"current_range_meters":12800,"station_id":"ce4bhmp2rcd13ifvqgog","pricing_plan_id":"cebpf4jnsgd1na2vs0mg"},{"bike_id":"1c3b6b02-c345-419e-acff-2ea38bcab5a6","system_id":"levelo_inurba_marseille","lat":43.23144,"lon":5.43717,"is_reserved":false,"is_disabled":false,"rental_uris":{"android":"levelo://app?vid=1c3b6b02-c345-419e-acff-2ea38bcab5a6","ios":"levelo://app?vid=1c3b6b02-c345-419e-acff-2ea38bcab5a6"},"vehicle_type_id":"4","last_reported":1762510312,"current_range_meters":12800,"station_id":"ce4bhmp2rcd13ifvqgog","pricing_plan_id":"cebpf4jnsgd1na2vs0mg"},{"bike_id":"c541d6c6-d855-480d-9416-ad1e26b18f93","system_id":"levelo_inurba_marseille","lat":43.2951,"lon":5.39387,"is_reserved":false,"is_disabled":true,"rental_uris":{"android":"levelo://app?vid=c541d6c6-d855-480d-9416-ad1e26b18f93","ios":"levelo://app?vid=c541d6c6-d855-480d-9416-ad1e26b18f93"},"vehicle_type_id":"4","last_reported":1762510312,"current_range_meters":12800,"station_id":"ce4bh292rcd13ifvqdf0","pricing_plan_id":"cebpf4jnsgd1na2vs0mg"},{"bike_id":"546490cd-ca2c-4bb6-a575-825ed4c67446","system_id":"levelo_inurba_marseille","lat":43.29701,"lon":5.36619,"is_reserved":false,"is_disabled":false,"rental_uris":{"android":"levelo://app?vid=546490cd-ca2c-4bb6-a575-825ed4c67446","ios":"levelo://app?vid=546490cd-ca2c-4bb6-a575-825ed4c67446"},"vehicle_type_id":"4","last_reported":1762510312,"current_range_meters":12800,"station_id":"ce4bgn12rcd13ifvqbt0","pricing_plan_id":"cebpf4jnsgd1na2vs0mg"},{"bike_id":"c62567db-eeb6-4dcb-ab05-2b561bc37c38","system_id":"levelo_inurba_marseille","lat":43.30948,"lon":5.39028,"is_reserved":false,"is_disabled":false,"rental_uris":{"android":"levelo://app?vid=c62567db-eeb6-4dcb-ab05-2b561bc37c38","ios":"levelo://app?vid=c62567db-eeb6-4dcb-ab05-2b561bc37c38"},"vehicle_type_id":"4","last_reported":1762510312,"current_range_meters":13600,"station_id":"ce4bgup2rcd13ifvqco0","pricing_plan_id":"cebpf4jnsgd1na2vs0mg"},{"bike_id":"ec44e195-cde1-4252-aadf-701a64256dd7","system_id":"levelo_inurba_marseille","lat":43.24625,"lon":5.43149,"is_reserved":false,"is_disabled":false,"rental_uris":{"android":"levelo://app?vid=ec44e195-cde1-4252-aadf-701a64256dd7","ios":"levelo://app?vid=ec44e195-cde1-4252-aadf-701a64256dd7"},"vehicle_type_id":"4","last_reported":1762510312,"current_range_meters":13600,"station_id":"st_d2m6c4gdas8pm72e190g","pricing_plan_id":"cebpf4jnsgd1na2vs0mg"},{"bike_id":"decad613-875f-4e39-a5cc-a2636a2419c6","system_id":"levelo_inurba_marseille","lat":43.23148,"lon":5.43676,"is_reserved":false,"is_disabled":false,"rental_uris":{"android":"levelo://app?vid=decad613-875f-4e39-a5cc-a2636a2419c6","ios":"levelo://app?vid=decad613-875f-4e39-a5cc-a2636a2419c6"},"vehicle_type_id":"4","last_reported":1762510312,"current_range_meters":13600,"station_id":"ce4bhmp2rcd13ifvqgog","pricing_plan_id":"cebpf4jnsgd1na2vs0mg"},{"bike_id":"49f72977-a3b0-4756-91f7-bfd8da95f1b4","system_id":"levelo_inurba_marseille","lat":43.25942,"lon":5.40905,"is_reserved":false,"is_disabled":false,"rental_uris":{"android":"levelo://app?vid=49f72977-a3b0-4756-91f7-bfd8da95f1b4","ios":"levelo://app?vid=49f72977-a3b0-4756-91f7-bfd8da95f1b4"},"vehicle_type_id":"4","last_reported":1762510312,"current_range_meters":13600,"station_id":"ce4bhm92rcd13ifvqglg","pricing_plan_id":"cebpf4jnsgd1na2vs0mg"},{"bike_id":"cc466feb-60b1-4316-a579-8a35814a4952","system_id":"levelo_inurba_marseille","lat":43.2316,"lon":5.43709,"is_reserved":false,"is_disabled":false,"rental_uris":{"android":"levelo://app?vid=cc466feb-60b1-4316-a579-8a35814a4952","ios":"levelo://app?vid=cc466feb-60b1-4316-a579-8a35814a4952"},"vehicle_type_id":"4","last_reported":1762510312,"current_range_meters":13600,"station_id":"ce4bhmp2rcd13ifvqgog","pricing_plan_id":"cebpf4jnsgd1na2vs0mg"},{"bike_id":"9332ef4f-1ad0-43ea-b68f-371baec1ec24","system_id":"levelo_inurba_marseille","lat":43.32106,"lon":5.36768,"is_reserved":false,"is_disabled":false,"rental_uris":{"android":"levelo://app?vid=9332ef4f-1ad0-43ea-b68f-371baec1ec24","ios":"levelo://app?vid=9332ef4f-1ad0-43ea-b68f-371baec1ec24"},"vehicle_type_id":"4","last_reported":1762510312,"current_range_meters":13600,"station_id":"ce4bhrh2rcd13ifvqhug","pricing_plan_id":"cebpf4jnsgd1na2vs0mg"},{"bike_id":"61e30f93-a343-4edd-ab6e-253524de847c","system_id":"levelo_inurba_marseille","lat":43.3031,"lon":5.36897,"is_reserved":false,"is_disabled":false,"rental_uris":{"android":"levelo://app?vid=61e30f93-a343-4edd-ab6e-253524de847c","ios":"levelo://app?vid=61e30f93-a343-4edd-ab6e-253524de847c"},"vehicle_type_id":"4","last_reported":1762510312,"current_range_meters":14000,"station_id":"ce4bgqh2rcd13ifvqc5g","pricing_plan_id":"cebpf4jnsgd1na2vs0mg"},{"bike_id":"49bfbe26-a325-46ab-bf7f-7f6fbdba0520","system_id":"levelo_inurba_marseille","lat":43.29868,"lon":5.39729,"is_reserved":false,"is_disabled":false,"rental_uris":{"android":"levelo://app?vid=49bfbe26-a325-46ab-bf7f-7f6fbdba0520","ios":"levelo://app?vid=49bfbe26-a325-46ab-bf7f-7f6fbdba0520"},"vehicle_type_id":"4","last_reported":1762510312,"current_range_meters":14000,"station_id":"ce4bh0h2rcd13ifvqd50","pricing_plan_id":"cebpf4jnsgd1na2vs0mg"},{"bike_id":"6ce6ad76-9644-44cb-a714-884f8dc95c02","system_id":"levelo_inurba_marseille","lat":43.305362,"lon":5.384224,"is_reserved":false,"is_disabled":false,"rental_uris":{"android":"levelo://app?vid=6ce6ad76-9644-44cb-a714-884f8dc95c02","ios":"levelo://app?vid=6ce6ad76-9644-44cb-a714-884f8dc95c02"},"vehicle_type_id":"4","last_reported":1762510312,"current_range_meters":14000,"station_id":"ce4bgg92rcd13ifvqb30","pricing_plan_id":"cebpf4jnsgd1na2vs0mg"},{"bike_id":"2214147d-b2bc-47a5-8262-b29a2f3cbd90","system_id":"levelo_inurba_marseille","lat":43.28862,"lon":5.42513,"is_reserved":false,"is_disabled":false,"rental_uris":{"android":"levelo://app?vid=2214147d-b2bc-47a5-8262-b29a2f3cbd90","ios":"levelo://app?vid=2214147d-b2bc-47a5-8262-b29a2f3cbd90"},"vehicle_type_id":"4","last_reported":1762510312,"current_range_meters":14000,"station_id":"st_d3b462108ojc7389ooeg","pricing_plan_id":"cebpf4jnsgd1na2vs0mg"},{"bike_id":"8537479d-e703-477a-af1b-92c15a4c6d70","system_id":"levelo_inurba_marseille","lat":43.28197,"lon":5.38859,"is_reserved":false,"is_disabled":false,"rental_uris":{"android":"levelo://app?vid=8537479d-e703-477a-af1b-92c15a4c6d70","ios":"levelo://app?vid=8537479d-e703-477a-af1b-92c15a4c6d70"},"vehicle_type_id":"4","last_reported":1762510312,"current_range_meters":14400,"station_id":"","pricing_plan_id":"cebpf4jnsgd1na2vs0mg"},{"bike_id":"ada7c068-07f5-4885-8cb5-5c4f9b537ace","system_id":"levelo_inurba_marseille","lat":43.23147,"lon":5.43709,"is_reserved":false,"is_disabled":false,"rental_uris":{"android":"levelo://app?vid=ada7c068-07f5-4885-8cb5-5c4f9b537ace","ios":"levelo://app?vid=ada7c068-07f5-4885-8cb5-5c4f9b537ace"},"vehicle_type_id":"4","last_reported":1762510312,"current_range_meters":14400,"station_id":"ce4bhmp2rcd13ifvqgog","pricing_plan_id":"cebpf4jnsgd1na2vs0mg"},{"bike_id":"3b350de2-695c-42e3-a80c-fe5d0f1d9920","system_id":"levelo_inurba_marseille","lat":43.25936,"lon":5.40901,"is_reserved":false,"is_disabled":false,"rental_uris":{"android":"levelo://app?vid=3b350de2-695c-42e3-a80c-fe5d0f1d9920","ios":"levelo://app?vid=3b350de2-695c-42e3-a80c-fe5d0f1d9920"},"vehicle_type_id":"4","last_reported":1762510312,"current_range_meters":14400,"station_id":"ce4bhm92rcd13ifvqglg","pricing_plan_id":"cebpf4jnsgd1na2vs0mg"},{"bike_id":"55db2d37-7927-4150-895e-5072f903c671","system_id":"levelo_inurba_marseille","lat":43.2315,"lon":5.43715,"is_reserved":false,"is_disabled":false,"rental_uris":{"android":"levelo://app?vid=55db2d37-7927-4150-895e-5072f903c671","ios":"levelo://app?vid=55db2d37-7927-4150-895e-5072f903c671"},"vehicle_type_id":"4","last_reported":1762510312,"current_range_meters":14400,"station_id":"ce4bhmp2rcd13ifvqgog","pricing_plan_id":"cebpf4jnsgd1na2vs0mg"},{"bike_id":"183c00d4-5e80-407c-92da-d67b647ff383","system_id":"levelo_inurba_marseille","lat":43.24385,"lon":5.37064,"is_reserved":false,"is_disabled":false,"rental_uris":{"android":"levelo://app?vid=183c00d4-5e80-407c-92da-d67b647ff383","ios":"levelo://app?vid=183c00d4-5e80-407c-92da-d67b647ff383"},"vehicle_type_id":"4","last_reported":1762510312,"current_range_meters":14400,"station_id":"ce4bhhh2rcd13ifvqfk0","pricing_plan_id":"cebpf4jnsgd1na2vs0mg"},{"bike_id":"06d8a6d4-cde1-4774-80e5-91004a4fe543","system_id":"levelo_inurba_marseille","lat":43.29899,"lon":5.36207,"is_reserved":false,"is_disabled":false,"rental_uris":{"android":"levelo://app?vid=06d8a6d4-cde1-4774-80e5-91004a4fe543","ios":"levelo://app?vid=06d8a6d4-cde1-4774-80e5-91004a4fe543"},"vehicle_type_id":"4","last_reported":1762510312,"current_range_meters":14800,"station_id":"","pricing_plan_id":"cebpf4jnsgd1na2vs0mg"},{"bike_id":"fbe1980c-28b3-44ff-94bc-1a822c9d6de7","system_id":"levelo_inurba_marseille","lat":43.3093,"lon":5.37302,"is_reserved":false,"is_disabled":false,"rental_uris":{"android":"levelo://app?vid=fbe1980c-28b3-44ff-94bc-1a822c9d6de7","ios":"levelo://app?vid=fbe1980c-28b3-44ff-94bc-1a822c9d6de7"},"vehicle_type_id":"4","last_reported":1762510312,"current_range_meters":14800,"station_id":"","pricing_plan_id":"cebpf4jnsgd1na2vs0mg"},{"bike_id":"0aae72a2-7558-4720-a1c6-12a369ed17f5","system_id":"levelo_inurba_marseille","lat":43.265019,"lon":5.395444,"is_reserved":false,"is_disabled":false,"rental_uris":{"android":"levelo://app?vid=0aae72a2-7558-4720-a1c6-12a369ed17f5","ios":"levelo://app?vid=0aae72a2-7558-4720-a1c6-12a369ed17f5"},"vehicle_type_id":"4","last_reported":1762510312,"current_range_meters":14800,"station_id":"ce4bhi12rcd13ifvqfq0","pricing_plan_id":"cebpf4jnsgd1na2vs0mg"},{"bike_id":"ba00a797-bc94-42f1-aba8-9bf207fe458c","system_id":"levelo_inurba_marseille","lat":43.305484,"lon":5.365333,"is_reserved":false,"is_disabled":false,"rental_uris":{"android":"levelo://app?vid=ba00a797-bc94-42f1-aba8-9bf207fe458c","ios":"levelo://app?vid=ba00a797-bc94-42f1-aba8-9bf207fe458c"},"vehicle_type_id":"4","last_reported":1762510312,"current_range_meters":14800,"station_id":"ce4bgs12rcd13ifvqcag","pricing_plan_id":"cebpf4jnsgd1na2vs0mg"},{"bike_id":"39113558-f8ca-45fd-94a0-3799c7362f25","system_id":"levelo_inurba_marseille","lat":43.290975,"lon":5.381475,"is_reserved":false,"is_disabled":false,"rental_uris":{"android":"levelo://app?vid=39113558-f8ca-45fd-94a0-3799c7362f25","ios":"levelo://app?vid=39113558-f8ca-45fd-94a0-3799c7362f25"},"vehicle_type_id":"4","last_reported":1762510312,"current_range_meters":15200,"station_id":"ce4bh512rcd13ifvqe2g","pricing_plan_id":"cebpf4jnsgd1na2vs0mg"},{"bike_id":"43cfab9e-f547-4304-9999-4a8329474751","system_id":"levelo_inurba_marseille","lat":43.21188,"lon":5.35063,"is_reserved":false,"is_disabled":false,"rental_uris":{"android":"levelo://app?vid=43cfab9e-f547-4304-9999-4a8329474751","ios":"levelo://app?vid=43cfab9e-f547-4304-9999-4a8329474751"},"vehicle_type_id":"4","last_reported":1762510312,"current_range_meters":15200,"station_id":"st_cvj6sg6p6f1abm77japg","pricing_plan_id":"cebpf4jnsgd1na2vs0mg"},{"bike_id":"20b19634-dbbc-48bf-a55b-741286dbb1c6","system_id":"levelo_inurba_marseille","lat":43.302757,"lon":5.377068,"is_reserved":false,"is_disabled":false,"rental_uris":{"android":"levelo://app?vid=20b19634-dbbc-48bf-a55b-741286dbb1c6","ios":"levelo://app?vid=20b19634-dbbc-48bf-a55b-741286dbb1c6"},"vehicle_type_id":"4","last_reported":1762510312,"current_range_meters":15200,"station_id":"ce4bhch2rcd13ifvqeug","pricing_plan_id":"cebpf4jnsgd1na2vs0mg"},{"bike_id":"51b9afea-e3f9-46da-a79d-624b2847ee35","system_id":"levelo_inurba_marseille","lat":43.29923,"lon":5.36542,"is_reserved":false,"is_disabled":false,"rental_uris":{"android":"levelo://app?vid=51b9afea-e3f9-46da-a79d-624b2847ee35","ios":"levelo://app?vid=51b9afea-e3f9-46da-a79d-624b2847ee35"},"vehicle_type_id":"4","last_reported":1762510312,"current_range_meters":15200,"station_id":"ce4bgm92rcd13ifvqbr0","pricing_plan_id":"cebpf4jnsgd1na2vs0mg"},{"bike_id":"3a6b939b-8483-4a00-8652-d825cdd856d7","system_id":"levelo_inurba_marseille","lat":43.22551,"lon":5.4162,"is_reserved":false,"is_disabled":false,"rental_uris":{"android":"levelo://app?vid=3a6b939b-8483-4a00-8652-d825cdd856d7","ios":"levelo://app?vid=3a6b939b-8483-4a00-8652-d825cdd856d7"},"vehicle_type_id":"4","last_reported":1762510312,"current_range_meters":15200,"station_id":"st_d2o4gvlbi1j2169b742g","pricing_plan_id":"cebpf4jnsgd1na2vs0mg"},{"bike_id":"59cd587d-d3c8-47b1-b330-46dbfb82d0e6","system_id":"levelo_inurba_marseille","lat":43.33608,"lon":5.41018,"is_reserved":false,"is_disabled":false,"rental_uris":{"android":"levelo://app?vid=59cd587d-d3c8-47b1-b330-46dbfb82d0e6","ios":"levelo://app?vid=59cd587d-d3c8-47b1-b330-46dbfb82d0e6"},"vehicle_type_id":"4","last_reported":1762510312,"current_range_meters":15200,"station_id":"ce4bhqh2rcd13ifvqhmg","pricing_plan_id":"cebpf4jnsgd1na2vs0mg"},{"bike_id":"120236fe-b726-4c3f-9689-053b8cd88d78","system_id":"levelo_inurba_marseille","lat":43.26923,"lon":5.38909,"is_reserved":false,"is_disabled":false,"rental_uris":{"android":"levelo://app?vid=120236fe-b726-4c3f-9689-053b8cd88d78","ios":"levelo://app?vid=120236fe-b726-4c3f-9689-053b8cd88d78"},"vehicle_type_id":"4","last_reported":1762510312,"current_range_meters":15200,"station_id":"","pricing_plan_id":"cebpf4jnsgd1na2vs0mg"},{"bike_id":"ab57a438-ae7d-432c-b302-3fda6242e506","system_id":"levelo_inurba_marseille","lat":43.23164,"lon":5.43682,"is_reserved":false,"is_disabled":false,"rental_uris":{"android":"levelo://app?vid=ab57a438-ae7d-432c-b302-3fda6242e506","ios":"levelo://app?vid=ab57a438-ae7d-432c-b302-3fda6242e506"},"vehicle_type_id":"4","last_reported":1762510312,"current_range_meters":16000,"station_id":"ce4bhmp2rcd13ifvqgog","pricing_plan_id":"cebpf4jnsgd1na2vs0mg"},{"bike_id":"14bede57-e6c3-42e3-85ea-7147697689db","system_id":"levelo_inurba_marseille","lat":43.2494,"lon":5.40468,"is_reserved":false,"is_disabled":false,"rental_uris":{"android":"levelo://app?vid=14bede57-e6c3-42e3-85ea-7147697689db","ios":"levelo://app?vid=14bede57-e6c3-42e3-85ea-7147697689db"},"vehicle_type_id":"4","last_reported":1762510312,"current_range_meters":16000,"station_id":"st_d2ngiaodas8pm72gd1h0","pricing_plan_id":"cebpf4jnsgd1na2vs0mg"},{"bike_id":"a88522c2-7f31-460d-8b59-1c10109fed19","system_id":"levelo_inurba_marseille","lat":43.31441,"lon":5.37597,"is_reserved":false,"is_disabled":false,"rental_uris":{"android":"levelo://app?vid=a88522c2-7f31-460d-8b59-1c10109fed19","ios":"levelo://app?vid=a88522c2-7f31-460d-8b59-1c10109fed19"},"vehicle_type_id":"4","last_reported":1762510312,"current_range_meters":16000,"station_id":"","pricing_plan_id":"cebpf4jnsgd1na2vs0mg"},{"bike_id":"f25453ef-ed4e-4a8e-bf98-b29c266770c4","system_id":"levelo_inurba_marseille","lat":43.28966,"lon":5.37834,"is_reserved":false,"is_disabled":false,"rental_uris":{"android":"levelo://app?vid=f25453ef-ed4e-4a8e-bf98-b29c266770c4","ios":"levelo://app?vid=f25453ef-ed4e-4a8e-bf98-b29c266770c4"},"vehicle_type_id":"4","last_reported":1762510312,"current_range_meters":16000,"station_id":"ce4bh9p2rcd13ifvqed0","pricing_plan_id":"cebpf4jnsgd1na2vs0mg"},{"bike_id":"2cb37c5a-b151-42ab-b9ba-6e368dbe1f65","system_id":"levelo_inurba_marseille","lat":43.24168,"lon":5.39713,"is_reserved":false,"is_disabled":false,"rental_uris":{"android":"levelo://app?vid=2cb37c5a-b151-42ab-b9ba-6e368dbe1f65","ios":"levelo://app?vid=2cb37c5a-b151-42ab-b9ba-6e368dbe1f65"},"vehicle_type_id":"4","last_reported":1762510312,"current_range_meters":16000,"station_id":"ce4bhn12rcd13ifvqgpg","pricing_plan_id":"cebpf4jnsgd1na2vs0mg"},{"bike_id":"165aff21-73e8-4451-9d3e-5e99dd0c2bd0","system_id":"levelo_inurba_marseille","lat":43.27931,"lon":5.41038,"is_reserved":false,"is_disabled":false,"rental_uris":{"android":"levelo://app?vid=165aff21-73e8-4451-9d3e-5e99dd0c2bd0","ios":"levelo://app?vid=165aff21-73e8-4451-9d3e-5e99dd0c2bd0"},"vehicle_type_id":"4","last_reported":1762510312,"current_range_meters":16000,"station_id":"ce4bhnp2rcd13ifvqh0g","pricing_plan_id":"cebpf4jnsgd1na2vs0mg"},{"bike_id":"46609da1-1a56-4a2e-8fd3-da507a08e8ac","system_id":"levelo_inurba_marseille","lat":43.23143,"lon":5.4371,"is_reserved":false,"is_disabled":false,"rental_uris":{"android":"levelo://app?vid=46609da1-1a56-4a2e-8fd3-da507a08e8ac","ios":"levelo://app?vid=46609da1-1a56-4a2e-8fd3-da507a08e8ac"},"vehicle_type_id":"4","last_reported":1762510312,"current_range_meters":16000,"station_id":"ce4bhmp2rcd13ifvqgog","pricing_plan_id":"cebpf4jnsgd1na2vs0mg"},{"bike_id":"310115a0-7bf2-4a4a-9d53-56bf6918e4d0","system_id":"levelo_inurba_marseille","lat":43.28492,"lon":5.4839,"is_reserved":false,"is_disabled":false,"rental_uris":{"android":"levelo://app?vid=310115a0-7bf2-4a4a-9d53-56bf6918e4d0","ios":"levelo://app?vid=310115a0-7bf2-4a4a-9d53-56bf6918e4d0"},"vehicle_type_id":"4","last_reported":1762510312,"current_range_meters":16400,"station_id":"st_d3svhcjqgbts73a3dn0g","pricing_plan_id":"cebpf4jnsgd1na2vs0mg"},{"bike_id":"0129d5e3-887c-4b82-9486-db9b5dbeeb12","system_id":"levelo_inurba_marseille","lat":43.24638,"lon":5.38893,"is_reserved":false,"is_disabled":false,"rental_uris":{"android":"levelo://app?vid=0129d5e3-887c-4b82-9486-db9b5dbeeb12","ios":"levelo://app?vid=0129d5e3-887c-4b82-9486-db9b5dbeeb12"},"vehicle_type_id":"4","last_reported":1762510312,"current_range_meters":16400,"station_id":"ce4bhg12rcd13ifvqf60","pricing_plan_id":"cebpf4jnsgd1na2vs0mg"},{"bike_id":"9c543d11-83bf-4064-bcc5-a6f2ab5b7657","system_id":"levelo_inurba_marseille","lat":43.29252,"lon":5.37626,"is_reserved":false,"is_disabled":false,"rental_uris":{"android":"levelo://app?vid=9c543d11-83bf-4064-bcc5-a6f2ab5b7657","ios":"levelo://app?vid=9c543d11-83bf-4064-bcc5-a6f2ab5b7657"},"vehicle_type_id":"4","last_reported":1762510312,"current_range_meters":16400,"station_id":"ce4bgi12rcd13ifvqb80","pricing_plan_id":"cebpf4jnsgd1na2vs0mg"},{"bike_id":"401209f9-1098-407a-9275-182f209531f6","system_id":"levelo_inurba_marseille","lat":43.29547,"lon":5.42292,"is_reserved":false,"is_disabled":false,"rental_uris":{"android":"levelo://app?vid=401209f9-1098-407a-9275-182f209531f6","ios":"levelo://app?vid=401209f9-1098-407a-9275-182f209531f6"},"vehicle_type_id":"4","last_reported":1762510312,"current_range_meters":16400,"station_id":"ce4bhph2rcd13ifvqhdg","pricing_plan_id":"cebpf4jnsgd1na2vs0mg"},{"bike_id":"e071e82c-cdb6-459f-b22d-eefcbaca951d","system_id":"levelo_inurba_marseille","lat":43.31162,"lon":5.38738,"is_reserved":false,"is_disabled":false,"rental_uris":{"android":"levelo://app?vid=e071e82c-cdb6-459f-b22d-eefcbaca951d","ios":"levelo://app?vid=e071e82c-cdb6-459f-b22d-eefcbaca951d"},"vehicle_type_id":"4","last_reported":1762510312,"current_range_meters":16800,"station_id":"ce4bgv12rcd13ifvqcp0","pricing_plan_id":"cebpf4jnsgd1na2vs0mg"},{"bike_id":"36ce460e-9691-43b6-8ef4-551bff3766f3","system_id":"levelo_inurba_marseille","lat":43.30476,"lon":5.37903,"is_reserved":false,"is_disabled":false,"rental_uris":{"android":"levelo://app?vid=36ce460e-9691-43b6-8ef4-551bff3766f3","ios":"levelo://app?vid=36ce460e-9691-43b6-8ef4-551bff3766f3"},"vehicle_type_id":"4","last_reported":1762510312,"current_range_meters":16800,"station_id":"ce4bgup2rcd13ifvqcn0","pricing_plan_id":"cebpf4jnsgd1na2vs0mg"},{"bike_id":"83d77d4d-ce80-4c97-b769-bfd70f398ca1","system_id":"levelo_inurba_marseille","lat":43.26227,"lon":5.40453,"is_reserved":false,"is_disabled":false,"rental_uris":{"android":"levelo://app?vid=83d77d4d-ce80-4c97-b769-bfd70f398ca1","ios":"levelo://app?vid=83d77d4d-ce80-4c97-b769-bfd70f398ca1"},"vehicle_type_id":"4","last_reported":1762510312,"current_range_meters":16800,"station_id":"ce4bhmh2rcd13ifvqgmg","pricing_plan_id":"cebpf4jnsgd1na2vs0mg"},{"bike_id":"ac9b2307-8532-4e5b-acbf-4475959117d2","system_id":"levelo_inurba_marseille","lat":43.25732,"lon":5.41099,"is_reserved":false,"is_disabled":false,"rental_uris":{"android":"levelo://app?vid=ac9b2307-8532-4e5b-acbf-4475959117d2","ios":"levelo://app?vid=ac9b2307-8532-4e5b-acbf-4475959117d2"},"vehicle_type_id":"4","last_reported":1762510312,"current_range_meters":16800,"station_id":"ce4bhkp2rcd13ifvqgd0","pricing_plan_id":"cebpf4jnsgd1na2vs0mg"},{"bike_id":"21c13248-3296-4aba-8213-fdcfac1e357b","system_id":"levelo_inurba_marseille","lat":43.23148,"lon":5.43715,"is_reserved":false,"is_disabled":false,"rental_uris":{"android":"levelo://app?vid=21c13248-3296-4aba-8213-fdcfac1e357b","ios":"levelo://app?vid=21c13248-3296-4aba-8213-fdcfac1e357b"},"vehicle_type_id":"4","last_reported":1762510312,"current_range_meters":16800,"station_id":"ce4bhmp2rcd13ifvqgog","pricing_plan_id":"cebpf4jnsgd1na2vs0mg"},{"bike_id":"5b03e0a7-e5b7-4bb1-a15f-78dcdc45fd57","system_id":"levelo_inurba_marseille","lat":43.23156,"lon":5.43717,"is_reserved":false,"is_disabled":false,"rental_uris":{"android":"levelo://app?vid=5b03e0a7-e5b7-4bb1-a15f-78dcdc45fd57","ios":"levelo://app?vid=5b03e0a7-e5b7-4bb1-a15f-78dcdc45fd57"},"vehicle_type_id":"4","last_reported":1762510312,"current_range_meters":16800,"station_id":"ce4bhmp2rcd13ifvqgog","pricing_plan_id":"cebpf4jnsgd1na2vs0mg"},{"bike_id":"0768e85c-7099-4319-8991-8d3d04a7065e","system_id":"levelo_inurba_marseille","lat":43.2557,"lon":5.38226,"is_reserved":false,"is_disabled":false,"rental_uris":{"android":"levelo://app?vid=0768e85c-7099-4319-8991-8d3d04a7065e","ios":"levelo://app?vid=0768e85c-7099-4319-8991-8d3d04a7065e"},"vehicle_type_id":"4","last_reported":1762510312,"current_range_meters":16800,"station_id":"ce4bhih2rcd13ifvqfs0","pricing_plan_id":"cebpf4jnsgd1na2vs0mg"},{"bike_id":"27386651-3b32-4049-a26b-c5f5e0b485fb","system_id":"levelo_inurba_marseille","lat":43.304626,"lon":5.379109,"is_reserved":false,"is_disabled":false,"rental_uris":{"android":"levelo://app?vid=27386651-3b32-4049-a26b-c5f5e0b485fb","ios":"levelo://app?vid=27386651-3b32-4049-a26b-c5f5e0b485fb"},"vehicle_type_id":"4","last_reported":1762510312,"current_range_meters":17200,"station_id":"","pricing_plan_id":"cebpf4jnsgd1na2vs0mg"},{"bike_id":"a24ecaa7-dc5d-4c8e-a910-6021da3d40da","system_id":"levelo_inurba_marseille","lat":43.2256,"lon":5.41618,"is_reserved":false,"is_disabled":false,"rental_uris":{"android":"levelo://app?vid=a24ecaa7-dc5d-4c8e-a910-6021da3d40da","ios":"levelo://app?vid=a24ecaa7-dc5d-4c8e-a910-6021da3d40da"},"vehicle_type_id":"4","last_reported":1762510312,"current_range_meters":17200,"station_id":"st_d2o4gvlbi1j2169b742g","pricing_plan_id":"cebpf4jnsgd1na2vs0mg"},{"bike_id":"22918fb7-a391-4f35-8c21-8eb60e2ab03f","system_id":"levelo_inurba_marseille","lat":43.225554,"lon":5.416241,"is_reserved":false,"is_disabled":false,"rental_uris":{"android":"levelo://app?vid=22918fb7-a391-4f35-8c21-8eb60e2ab03f","ios":"levelo://app?vid=22918fb7-a391-4f35-8c21-8eb60e2ab03f"},"vehicle_type_id":"4","last_reported":1762510312,"current_range_meters":17200,"station_id":"st_d2o4gvlbi1j2169b742g","pricing_plan_id":"cebpf4jnsgd1na2vs0mg"},{"bike_id":"9af0687b-3e79-4e11-b844-dd239618aeba","system_id":"levelo_inurba_marseille","lat":43.28867,"lon":5.42476,"is_reserved":false,"is_disabled":false,"rental_uris":{"android":"levelo://app?vid=9af0687b-3e79-4e11-b844-dd239618aeba","ios":"levelo://app?vid=9af0687b-3e79-4e11-b844-dd239618aeba"},"vehicle_type_id":"4","last_reported":1762510312,"current_range_meters":17200,"station_id":"st_d3b462108ojc7389ooeg","pricing_plan_id":"cebpf4jnsgd1na2vs0mg"},{"bike_id":"101702e2-1b44-4c12-bcf9-5c543e0da166","system_id":"levelo_inurba_marseille","lat":43.32106,"lon":5.36767,"is_reserved":false,"is_disabled":false,"rental_uris":{"android":"levelo://app?vid=101702e2-1b44-4c12-bcf9-5c543e0da166","ios":"levelo://app?vid=101702e2-1b44-4c12-bcf9-5c543e0da166"},"vehicle_type_id":"4","last_reported":1762510312,"current_range_meters":17200,"station_id":"ce4bhrh2rcd13ifvqhug","pricing_plan_id":"cebpf4jnsgd1na2vs0mg"},{"bike_id":"cd55e6a3-0e42-41d5-9ea2-8969aae65b43","system_id":"levelo_inurba_marseille","lat":43.24807,"lon":5.37453,"is_reserved":false,"is_disabled":false,"rental_uris":{"android":"levelo://app?vid=cd55e6a3-0e42-41d5-9ea2-8969aae65b43","ios":"levelo://app?vid=cd55e6a3-0e42-41d5-9ea2-8969aae65b43"},"vehicle_type_id":"4","last_reported":1762510312,"current_range_meters":17200,"station_id":"ce4bhgh2rcd13ifvqfb0","pricing_plan_id":"cebpf4jnsgd1na2vs0mg"},{"bike_id":"a0780bc9-5bab-46f2-8d08-98e1e3141e80","system_id":"levelo_inurba_marseille","lat":43.30906,"lon":5.36828,"is_reserved":false,"is_disabled":false,"rental_uris":{"android":"levelo://app?vid=a0780bc9-5bab-46f2-8d08-98e1e3141e80","ios":"levelo://app?vid=a0780bc9-5bab-46f2-8d08-98e1e3141e80"},"vehicle_type_id":"4","last_reported":1762510312,"current_range_meters":17200,"station_id":"ce4bgn92rcd13ifvqbvg","pricing_plan_id":"cebpf4jnsgd1na2vs0mg"},{"bike_id":"f91c4559-425b-4689-9bc7-a188d0514875","system_id":"levelo_inurba_marseille","lat":43.26818,"lon":5.39428,"is_reserved":false,"is_disabled":false,"rental_uris":{"android":"levelo://app?vid=f91c4559-425b-4689-9bc7-a188d0514875","ios":"levelo://app?vid=f91c4559-425b-4689-9bc7-a188d0514875"},"vehicle_type_id":"4","last_reported":1762510312,"current_range_meters":17200,"station_id":"ce4bhh12rcd13ifvqfg0","pricing_plan_id":"cebpf4jnsgd1na2vs0mg"},{"bike_id":"5f48118e-e9dd-40cf-a954-36eea361da07","system_id":"levelo_inurba_marseille","lat":43.330269,"lon":5.390455,"is_reserved":false,"is_disabled":false,"rental_uris":{"android":"levelo://app?vid=5f48118e-e9dd-40cf-a954-36eea361da07","ios":"levelo://app?vid=5f48118e-e9dd-40cf-a954-36eea361da07"},"vehicle_type_id":"4","last_reported":1762510312,"current_range_meters":17200,"station_id":"ce4bhr92rcd13ifvqhrg","pricing_plan_id":"cebpf4jnsgd1na2vs0mg"},{"bike_id":"33fcdbb0-2f2f-418c-a9e2-8bfbd62dc3a5","system_id":"levelo_inurba_marseille","lat":43.30553,"lon":5.36704,"is_reserved":false,"is_disabled":false,"rental_uris":{"android":"levelo://app?vid=33fcdbb0-2f2f-418c-a9e2-8bfbd62dc3a5","ios":"levelo://app?vid=33fcdbb0-2f2f-418c-a9e2-8bfbd62dc3a5"},"vehicle_type_id":"4","last_reported":1762510312,"current_range_meters":17200,"station_id":"ce4bgrp2rcd13ifvqc9g","pricing_plan_id":"cebpf4jnsgd1na2vs0mg"},{"bike_id":"ad6fb6b8-afe2-4ec8-abef-6723fcc5bc74","system_id":"levelo_inurba_marseille","lat":43.30784,"lon":5.37642,"is_reserved":false,"is_disabled":false,"rental_uris":{"android":"levelo://app?vid=ad6fb6b8-afe2-4ec8-abef-6723fcc5bc74","ios":"levelo://app?vid=ad6fb6b8-afe2-4ec8-abef-6723fcc5bc74"},"vehicle_type_id":"4","last_reported":1762510312,"current_range_meters":17200,"station_id":"ce4bgv92rcd13ifvqcq0","pricing_plan_id":"cebpf4jnsgd1na2vs0mg"},{"bike_id":"f4a31bd8-b6ca-4d2b-9c79-309bc9179a63","system_id":"levelo_inurba_marseille","lat":43.255161,"lon":5.37654,"is_reserved":false,"is_disabled":true,"rental_uris":{"android":"levelo://app?vid=f4a31bd8-b6ca-4d2b-9c79-309bc9179a63","ios":"levelo://app?vid=f4a31bd8-b6ca-4d2b-9c79-309bc9179a63"},"vehicle_type_id":"4","last_reported":1762510312,"current_range_meters":17600,"station_id":"ce4bhh12rcd13ifvqff0","pricing_plan_id":"cebpf4jnsgd1na2vs0mg"},{"bike_id":"64b48a43-96e8-4a94-bd7b-9a2eb104a2e4","system_id":"levelo_inurba_marseille","lat":43.28215,"lon":5.39043,"is_reserved":false,"is_disabled":false,"rental_uris":{"android":"levelo://app?vid=64b48a43-96e8-4a94-bd7b-9a2eb104a2e4","ios":"levelo://app?vid=64b48a43-96e8-4a94-bd7b-9a2eb104a2e4"},"vehicle_type_id":"4","last_reported":1762510312,"current_range_meters":17600,"station_id":"ce4bhn92rcd13ifvqgsg","pricing_plan_id":"cebpf4jnsgd1na2vs0mg"},{"bike_id":"6a5ddfdf-eda2-4c9a-bd10-fba552af5b58","system_id":"levelo_inurba_marseille","lat":43.26956,"lon":5.389194,"is_reserved":false,"is_disabled":false,"rental_uris":{"android":"levelo://app?vid=6a5ddfdf-eda2-4c9a-bd10-fba552af5b58","ios":"levelo://app?vid=6a5ddfdf-eda2-4c9a-bd10-fba552af5b58"},"vehicle_type_id":"4","last_reported":1762510312,"current_range_meters":17600,"station_id":"ce4bhhh2rcd13ifvqfl0","pricing_plan_id":"cebpf4jnsgd1na2vs0mg"},{"bike_id":"65d83eaf-428a-43cd-a356-ecaed95948ff","system_id":"levelo_inurba_marseille","lat":43.248534,"lon":5.397896,"is_reserved":false,"is_disabled":false,"rental_uris":{"android":"levelo://app?vid=65d83eaf-428a-43cd-a356-ecaed95948ff","ios":"levelo://app?vid=65d83eaf-428a-43cd-a356-ecaed95948ff"},"vehicle_type_id":"4","last_reported":1762510312,"current_range_meters":17600,"station_id":"","pricing_plan_id":"cebpf4jnsgd1na2vs0mg"},{"bike_id":"cbaf6e70-be37-4c92-8bb7-677f9be0a37d","system_id":"levelo_inurba_marseille","lat":43.301209,"lon":5.431304,"is_reserved":false,"is_disabled":false,"rental_uris":{"android":"levelo://app?vid=cbaf6e70-be37-4c92-8bb7-677f9be0a37d","ios":"levelo://app?vid=cbaf6e70-be37-4c92-8bb7-677f9be0a37d"},"vehicle_type_id":"4","last_reported":1762510312,"current_range_meters":17600,"station_id":"st_d3js3co5814s73ftftug","pricing_plan_id":"cebpf4jnsgd1na2vs0mg"},{"bike_id":"43e7e658-56d1-452e-9981-7dd57423c48b","system_id":"levelo_inurba_marseille","lat":43.305529,"lon":5.365455,"is_reserved":false,"is_disabled":false,"rental_uris":{"android":"levelo://app?vid=43e7e658-56d1-452e-9981-7dd57423c48b","ios":"levelo://app?vid=43e7e658-56d1-452e-9981-7dd57423c48b"},"vehicle_type_id":"4","last_reported":1762510312,"current_range_meters":17600,"station_id":"ce4bgs12rcd13ifvqcag","pricing_plan_id":"cebpf4jnsgd1na2vs0mg"},{"bike_id":"f651306b-1d97-48b9-8e4d-a361bbaf3765","system_id":"levelo_inurba_marseille","lat":43.30532,"lon":5.3671,"is_reserved":false,"is_disabled":false,"rental_uris":{"android":"levelo://app?vid=f651306b-1d97-48b9-8e4d-a361bbaf3765","ios":"levelo://app?vid=f651306b-1d97-48b9-8e4d-a361bbaf3765"},"vehicle_type_id":"4","last_reported":1762510312,"current_range_meters":17600,"station_id":"ce4bgrp2rcd13ifvqc9g","pricing_plan_id":"cebpf4jnsgd1na2vs0mg"},{"bike_id":"80d6028b-d102-4553-996c-40c70fdfb53c","system_id":"levelo_inurba_marseille","lat":43.262017,"lon":5.379356,"is_reserved":false,"is_disabled":false,"rental_uris":{"android":"levelo://app?vid=80d6028b-d102-4553-996c-40c70fdfb53c","ios":"levelo://app?vid=80d6028b-d102-4553-996c-40c70fdfb53c"},"vehicle_type_id":"4","last_reported":1762510312,"current_range_meters":17600,"station_id":"ce4bhjp2rcd13ifvqg90","pricing_plan_id":"cebpf4jnsgd1na2vs0mg"},{"bike_id":"07d4a740-67e7-417b-9820-14faa44cc7d6","system_id":"levelo_inurba_marseille","lat":43.28859,"lon":5.42523,"is_reserved":false,"is_disabled":false,"rental_uris":{"android":"levelo://app?vid=07d4a740-67e7-417b-9820-14faa44cc7d6","ios":"levelo://app?vid=07d4a740-67e7-417b-9820-14faa44cc7d6"},"vehicle_type_id":"4","last_reported":1762510312,"current_range_meters":17600,"station_id":"st_d3b462108ojc7389ooeg","pricing_plan_id":"cebpf4jnsgd1na2vs0mg"},{"bike_id":"162033ed-0b91-4098-ba64-22a71dd1f10e","system_id":"levelo_inurba_marseille","lat":43.311095,"lon":5.377579,"is_reserved":false,"is_disabled":false,"rental_uris":{"android":"levelo://app?vid=162033ed-0b91-4098-ba64-22a71dd1f10e","ios":"levelo://app?vid=162033ed-0b91-4098-ba64-22a71dd1f10e"},"vehicle_type_id":"4","last_reported":1762510312,"current_range_meters":17600,"station_id":"ce4bgt92rcd13ifvqcg0","pricing_plan_id":"cebpf4jnsgd1na2vs0mg"},{"bike_id":"8294fb7c-61b8-46dd-8a0d-07e729b72143","system_id":"levelo_inurba_marseille","lat":43.23133,"lon":5.43716,"is_reserved":false,"is_disabled":false,"rental_uris":{"android":"levelo://app?vid=8294fb7c-61b8-46dd-8a0d-07e729b72143","ios":"levelo://app?vid=8294fb7c-61b8-46dd-8a0d-07e729b72143"},"vehicle_type_id":"4","last_reported":1762510312,"current_range_meters":17600,"station_id":"ce4bhmp2rcd13ifvqgog","pricing_plan_id":"cebpf4jnsgd1na2vs0mg"},{"bike_id":"3ab22dd7-0827-4bd2-b62a-6d1095f4dd93","system_id":"levelo_inurba_marseille","lat":43.29391,"lon":5.37837,"is_reserved":false,"is_disabled":false,"rental_uris":{"android":"levelo://app?vid=3ab22dd7-0827-4bd2-b62a-6d1095f4dd93","ios":"levelo://app?vid=3ab22dd7-0827-4bd2-b62a-6d1095f4dd93"},"vehicle_type_id":"4","last_reported":1762510312,"current_range_meters":18000,"station_id":"ce4bgjh2rcd13ifvqbf0","pricing_plan_id":"cebpf4jnsgd1na2vs0mg"},{"bike_id":"05c639a2-6660-40ed-a12f-85b485fe188e","system_id":"levelo_inurba_marseille","lat":43.292226,"lon":5.357672,"is_reserved":false,"is_disabled":false,"rental_uris":{"android":"levelo://app?vid=05c639a2-6660-40ed-a12f-85b485fe188e","ios":"levelo://app?vid=05c639a2-6660-40ed-a12f-85b485fe188e"},"vehicle_type_id":"4","last_reported":1762510312,"current_range_meters":18000,"station_id":"ce4bhb12rcd13ifvqel0","pricing_plan_id":"cebpf4jnsgd1na2vs0mg"},{"bike_id":"becc05ef-c148-4583-bfb3-696549166a2f","system_id":"levelo_inurba_marseille","lat":43.26945,"lon":5.38645,"is_reserved":false,"is_disabled":false,"rental_uris":{"android":"levelo://app?vid=becc05ef-c148-4583-bfb3-696549166a2f","ios":"levelo://app?vid=becc05ef-c148-4583-bfb3-696549166a2f"},"vehicle_type_id":"4","last_reported":1762510312,"current_range_meters":18000,"station_id":"ce4bhh92rcd13ifvqfh0","pricing_plan_id":"cebpf4jnsgd1na2vs0mg"},{"bike_id":"1808b094-16ac-4de2-9987-95a8dafe9d30","system_id":"levelo_inurba_marseille","lat":43.25006,"lon":5.38924,"is_reserved":false,"is_disabled":false,"rental_uris":{"android":"levelo://app?vid=1808b094-16ac-4de2-9987-95a8dafe9d30","ios":"levelo://app?vid=1808b094-16ac-4de2-9987-95a8dafe9d30"},"vehicle_type_id":"4","last_reported":1762510312,"current_range_meters":18000,"station_id":"ce4bhgp2rcd13ifvqfd0","pricing_plan_id":"cebpf4jnsgd1na2vs0mg"},{"bike_id":"a718cc29-6f54-49e3-862a-351d7a32001f","system_id":"levelo_inurba_marseille","lat":43.28488,"lon":5.48396,"is_reserved":false,"is_disabled":false,"rental_uris":{"android":"levelo://app?vid=a718cc29-6f54-49e3-862a-351d7a32001f","ios":"levelo://app?vid=a718cc29-6f54-49e3-862a-351d7a32001f"},"vehicle_type_id":"4","last_reported":1762510312,"current_range_meters":18000,"station_id":"","pricing_plan_id":"cebpf4jnsgd1na2vs0mg"},{"bike_id":"2c0ab8aa-405a-4e32-b96d-7d9e2d1dff1c","system_id":"levelo_inurba_marseille","lat":43.2407,"lon":5.37762,"is_reserved":false,"is_disabled":false,"rental_uris":{"android":"levelo://app?vid=2c0ab8aa-405a-4e32-b96d-7d9e2d1dff1c","ios":"levelo://app?vid=2c0ab8aa-405a-4e32-b96d-7d9e2d1dff1c"},"vehicle_type_id":"4","last_reported":1762510312,"current_range_meters":18000,"station_id":"ce4bhnp2rcd13ifvqgvg","pricing_plan_id":"cebpf4jnsgd1na2vs0mg"},{"bike_id":"026711f1-c640-4e28-8a55-fae57096ee2c","system_id":"levelo_inurba_marseille","lat":43.25932,"lon":5.40893,"is_reserved":false,"is_disabled":false,"rental_uris":{"android":"levelo://app?vid=026711f1-c640-4e28-8a55-fae57096ee2c","ios":"levelo://app?vid=026711f1-c640-4e28-8a55-fae57096ee2c"},"vehicle_type_id":"4","last_reported":1762510312,"current_range_meters":18000,"station_id":"ce4bhm92rcd13ifvqglg","pricing_plan_id":"cebpf4jnsgd1na2vs0mg"},{"bike_id":"fd368a3c-7824-483a-bb31-37fbbac00715","system_id":"levelo_inurba_marseille","lat":43.26928,"lon":5.38905,"is_reserved":false,"is_disabled":false,"rental_uris":{"android":"levelo://app?vid=fd368a3c-7824-483a-bb31-37fbbac00715","ios":"levelo://app?vid=fd368a3c-7824-483a-bb31-37fbbac00715"},"vehicle_type_id":"4","last_reported":1762510312,"current_range_meters":18000,"station_id":"ce4bhhh2rcd13ifvqfl0","pricing_plan_id":"cebpf4jnsgd1na2vs0mg"},{"bike_id":"09742958-d3e6-4ec0-b4f0-504594c894d6","system_id":"levelo_inurba_marseille","lat":43.29275,"lon":5.40144,"is_reserved":false,"is_disabled":false,"rental_uris":{"android":"levelo://app?vid=09742958-d3e6-4ec0-b4f0-504594c894d6","ios":"levelo://app?vid=09742958-d3e6-4ec0-b4f0-504594c894d6"},"vehicle_type_id":"4","last_reported":1762510312,"current_range_meters":18800,"station_id":"ce4bh312rcd13ifvqdk0","pricing_plan_id":"cebpf4jnsgd1na2vs0mg"},{"bike_id":"18c09d9c-358a-453d-a5bd-32ed3451cd99","system_id":"levelo_inurba_marseille","lat":43.320952,"lon":5.367582,"is_reserved":false,"is_disabled":false,"rental_uris":{"android":"levelo://app?vid=18c09d9c-358a-453d-a5bd-32ed3451cd99","ios":"levelo://app?vid=18c09d9c-358a-453d-a5bd-32ed3451cd99"},"vehicle_type_id":"4","last_reported":1762510312,"current_range_meters":18800,"station_id":"ce4bhrh2rcd13ifvqhug","pricing_plan_id":"cebpf4jnsgd1na2vs0mg"},{"bike_id":"c3fa59d0-9a8e-43ec-8625-6437ba3bd142","system_id":"levelo_inurba_marseille","lat":43.335388,"lon":5.410453,"is_reserved":false,"is_disabled":false,"rental_uris":{"android":"levelo://app?vid=c3fa59d0-9a8e-43ec-8625-6437ba3bd142","ios":"levelo://app?vid=c3fa59d0-9a8e-43ec-8625-6437ba3bd142"},"vehicle_type_id":"4","last_reported":1762510312,"current_range_meters":18800,"station_id":"ce4bhqh2rcd13ifvqhmg","pricing_plan_id":"cebpf4jnsgd1na2vs0mg"},{"bike_id":"c448769d-72a1-4a2a-80b2-791ccf525608","system_id":"levelo_inurba_marseille","lat":43.257309,"lon":5.411117,"is_reserved":false,"is_disabled":false,"rental_uris":{"android":"levelo://app?vid=c448769d-72a1-4a2a-80b2-791ccf525608","ios":"levelo://app?vid=c448769d-72a1-4a2a-80b2-791ccf525608"},"vehicle_type_id":"4","last_reported":1762510312,"current_range_meters":18800,"station_id":"ce4bhkp2rcd13ifvqgd0","pricing_plan_id":"cebpf4jnsgd1na2vs0mg"},{"bike_id":"7d42ff4b-845c-4e94-b8de-7aa18fc64f80","system_id":"levelo_inurba_marseille","lat":43.23158,"lon":5.43717,"is_reserved":false,"is_disabled":false,"rental_uris":{"android":"levelo://app?vid=7d42ff4b-845c-4e94-b8de-7aa18fc64f80","ios":"levelo://app?vid=7d42ff4b-845c-4e94-b8de-7aa18fc64f80"},"vehicle_type_id":"4","last_reported":1762510312,"current_range_meters":18800,"station_id":"ce4bhmp2rcd13ifvqgog","pricing_plan_id":"cebpf4jnsgd1na2vs0mg"},{"bike_id":"75d7dc47-dceb-471d-8668-ef13189f4f02","system_id":"levelo_inurba_marseille","lat":43.323523,"lon":5.367559,"is_reserved":false,"is_disabled":false,"rental_uris":{"android":"levelo://app?vid=75d7dc47-dceb-471d-8668-ef13189f4f02","ios":"levelo://app?vid=75d7dc47-dceb-471d-8668-ef13189f4f02"},"vehicle_type_id":"4","last_reported":1762510312,"current_range_meters":18800,"station_id":"ce4bhsh2rcd13ifvqi2g","pricing_plan_id":"cebpf4jnsgd1na2vs0mg"},{"bike_id":"6d50bdc0-5f2c-43b6-bf1d-fa91b1758752","system_id":"levelo_inurba_marseille","lat":43.25927,"lon":5.40878,"is_reserved":false,"is_disabled":false,"rental_uris":{"android":"levelo://app?vid=6d50bdc0-5f2c-43b6-bf1d-fa91b1758752","ios":"levelo://app?vid=6d50bdc0-5f2c-43b6-bf1d-fa91b1758752"},"vehicle_type_id":"4","last_reported":1762510312,"current_range_meters":18800,"station_id":"ce4bhm92rcd13ifvqglg","pricing_plan_id":"cebpf4jnsgd1na2vs0mg"},{"bike_id":"be0572d6-b185-4557-add9-c9e6d1e3df20","system_id":"levelo_inurba_marseille","lat":43.26691,"lon":5.3826,"is_reserved":false,"is_disabled":false,"rental_uris":{"android":"levelo://app?vid=be0572d6-b185-4557-add9-c9e6d1e3df20","ios":"levelo://app?vid=be0572d6-b185-4557-add9-c9e6d1e3df20"},"vehicle_type_id":"4","last_reported":1762510312,"current_range_meters":18800,"station_id":"ce4bhg92rcd13ifvqf90","pricing_plan_id":"cebpf4jnsgd1na2vs0mg"},{"bike_id":"91fc0bb4-e973-4ffd-a80b-5e28b732c68f","system_id":"levelo_inurba_marseille","lat":43.27375,"lon":5.36238,"is_reserved":false,"is_disabled":false,"rental_uris":{"android":"levelo://app?vid=91fc0bb4-e973-4ffd-a80b-5e28b732c68f","ios":"levelo://app?vid=91fc0bb4-e973-4ffd-a80b-5e28b732c68f"},"vehicle_type_id":"4","last_reported":1762510312,"current_range_meters":18800,"station_id":"ce4bhbh2rcd13ifvqeo0","pricing_plan_id":"cebpf4jnsgd1na2vs0mg"},{"bike_id":"74bb8ce2-1ec5-4414-94bf-bc4889d1e14c","system_id":"levelo_inurba_marseille","lat":43.32475,"lon":5.3954,"is_reserved":false,"is_disabled":false,"rental_uris":{"android":"levelo://app?vid=74bb8ce2-1ec5-4414-94bf-bc4889d1e14c","ios":"levelo://app?vid=74bb8ce2-1ec5-4414-94bf-bc4889d1e14c"},"vehicle_type_id":"4","last_reported":1762510312,"current_range_meters":18800,"station_id":"","pricing_plan_id":"cebpf4jnsgd1na2vs0mg"},{"bike_id":"d8e5a2ae-7558-4ca1-8f51-3799e24ce1ed","system_id":"levelo_inurba_marseille","lat":43.312174,"lon":5.368414,"is_reserved":false,"is_disabled":true,"rental_uris":{"android":"levelo://app?vid=d8e5a2ae-7558-4ca1-8f51-3799e24ce1ed","ios":"levelo://app?vid=d8e5a2ae-7558-4ca1-8f51-3799e24ce1ed"},"vehicle_type_id":"4","last_reported":1762510312,"current_range_meters":19200,"station_id":"ce4bgl92rcd13ifvqbq0","pricing_plan_id":"cebpf4jnsgd1na2vs0mg"},{"bike_id":"4f22211c-55e2-41d3-8409-7a2d13404d83","system_id":"levelo_inurba_marseille","lat":43.269689,"lon":5.402692,"is_reserved":false,"is_disabled":false,"rental_uris":{"android":"levelo://app?vid=4f22211c-55e2-41d3-8409-7a2d13404d83","ios":"levelo://app?vid=4f22211c-55e2-41d3-8409-7a2d13404d83"},"vehicle_type_id":"4","last_reported":1762510312,"current_range_meters":19200,"station_id":"cjm6bp8fraef2m0cb0m0","pricing_plan_id":"cebpf4jnsgd1na2vs0mg"},{"bike_id":"587ccc69-b5d8-4e57-9fae-5034ef4a2c3f","system_id":"levelo_inurba_marseille","lat":43.262263,"lon":5.404488,"is_reserved":false,"is_disabled":false,"rental_uris":{"android":"levelo://app?vid=587ccc69-b5d8-4e57-9fae-5034ef4a2c3f","ios":"levelo://app?vid=587ccc69-b5d8-4e57-9fae-5034ef4a2c3f"},"vehicle_type_id":"4","last_reported":1762510312,"current_range_meters":19200,"station_id":"ce4bhmh2rcd13ifvqgmg","pricing_plan_id":"cebpf4jnsgd1na2vs0mg"},{"bike_id":"bccc9fa8-5c2e-4b57-9bbe-2dfb3bd86c39","system_id":"levelo_inurba_marseille","lat":43.31064,"lon":5.38359,"is_reserved":false,"is_disabled":false,"rental_uris":{"android":"levelo://app?vid=bccc9fa8-5c2e-4b57-9bbe-2dfb3bd86c39","ios":"levelo://app?vid=bccc9fa8-5c2e-4b57-9bbe-2dfb3bd86c39"},"vehicle_type_id":"4","last_reported":1762510312,"current_range_meters":19200,"station_id":"ce4bgv92rcd13ifvqcr0","pricing_plan_id":"cebpf4jnsgd1na2vs0mg"},{"bike_id":"3287c2f8-00f9-48fe-9da8-9147a5bf354d","system_id":"levelo_inurba_marseille","lat":43.30153,"lon":5.380876,"is_reserved":false,"is_disabled":true,"rental_uris":{"android":"levelo://app?vid=3287c2f8-00f9-48fe-9da8-9147a5bf354d","ios":"levelo://app?vid=3287c2f8-00f9-48fe-9da8-9147a5bf354d"},"vehicle_type_id":"4","last_reported":1762510312,"current_range_meters":19200,"station_id":"ce4bgjp2rcd13ifvqbh0","pricing_plan_id":"cebpf4jnsgd1na2vs0mg"},{"bike_id":"c508dfa6-c4b6-4cea-a4ec-947e346a8310","system_id":"levelo_inurba_marseille","lat":43.33605,"lon":5.40958,"is_reserved":false,"is_disabled":true,"rental_uris":{"android":"levelo://app?vid=c508dfa6-c4b6-4cea-a4ec-947e346a8310","ios":"levelo://app?vid=c508dfa6-c4b6-4cea-a4ec-947e346a8310"},"vehicle_type_id":"4","last_reported":1762510312,"current_range_meters":19200,"station_id":"ce4bhqh2rcd13ifvqhmg","pricing_plan_id":"cebpf4jnsgd1na2vs0mg"},{"bike_id":"86208ff7-1f7b-42b9-8add-5d61c4218678","system_id":"levelo_inurba_marseille","lat":43.25108,"lon":5.4031,"is_reserved":false,"is_disabled":false,"rental_uris":{"android":"levelo://app?vid=86208ff7-1f7b-42b9-8add-5d61c4218678","ios":"levelo://app?vid=86208ff7-1f7b-42b9-8add-5d61c4218678"},"vehicle_type_id":"4","last_reported":1762510312,"current_range_meters":19200,"station_id":"ce4bhlh2rcd13ifvqgig","pricing_plan_id":"cebpf4jnsgd1na2vs0mg"},{"bike_id":"5430dbad-1cf4-4aed-b79e-a3de7d44f7f4","system_id":"levelo_inurba_marseille","lat":43.2594,"lon":5.40895,"is_reserved":false,"is_disabled":false,"rental_uris":{"android":"levelo://app?vid=5430dbad-1cf4-4aed-b79e-a3de7d44f7f4","ios":"levelo://app?vid=5430dbad-1cf4-4aed-b79e-a3de7d44f7f4"},"vehicle_type_id":"4","last_reported":1762510312,"current_range_meters":19200,"station_id":"ce4bhm92rcd13ifvqglg","pricing_plan_id":"cebpf4jnsgd1na2vs0mg"},{"bike_id":"9f6ec81b-2246-4666-92ef-add3d889a730","system_id":"levelo_inurba_marseille","lat":43.32336,"lon":5.38507,"is_reserved":false,"is_disabled":false,"rental_uris":{"android":"levelo://app?vid=9f6ec81b-2246-4666-92ef-add3d889a730","ios":"levelo://app?vid=9f6ec81b-2246-4666-92ef-add3d889a730"},"vehicle_type_id":"4","last_reported":1762510312,"current_range_meters":19200,"station_id":"st_d45171o9ee8s73djdqug","pricing_plan_id":"cebpf4jnsgd1na2vs0mg"},{"bike_id":"39502855-e34d-4c4c-8471-722267809259","system_id":"levelo_inurba_marseille","lat":43.32479,"lon":5.36559,"is_reserved":false,"is_disabled":false,"rental_uris":{"android":"levelo://app?vid=39502855-e34d-4c4c-8471-722267809259","ios":"levelo://app?vid=39502855-e34d-4c4c-8471-722267809259"},"vehicle_type_id":"4","last_reported":1762510312,"current_range_meters":19600,"station_id":"ce4bhs12rcd13ifvqhvg","pricing_plan_id":"cebpf4jnsgd1na2vs0mg"},{"bike_id":"e50c589d-f900-4d03-8f83-31eae3ad8271","system_id":"levelo_inurba_marseille","lat":43.28704,"lon":5.39964,"is_reserved":false,"is_disabled":false,"rental_uris":{"android":"levelo://app?vid=e50c589d-f900-4d03-8f83-31eae3ad8271","ios":"levelo://app?vid=e50c589d-f900-4d03-8f83-31eae3ad8271"},"vehicle_type_id":"4","last_reported":1762510312,"current_range_meters":19600,"station_id":"ce4bho92rcd13ifvqh3g","pricing_plan_id":"cebpf4jnsgd1na2vs0mg"},{"bike_id":"bd2830f6-7511-48dd-904a-86ce9ca347fe","system_id":"levelo_inurba_marseille","lat":43.29292,"lon":5.37441,"is_reserved":false,"is_disabled":false,"rental_uris":{"android":"levelo://app?vid=bd2830f6-7511-48dd-904a-86ce9ca347fe","ios":"levelo://app?vid=bd2830f6-7511-48dd-904a-86ce9ca347fe"},"vehicle_type_id":"4","last_reported":1762510312,"current_range_meters":19600,"station_id":"ce4bgi12rcd13ifvqb70","pricing_plan_id":"cebpf4jnsgd1na2vs0mg"},{"bike_id":"dbee49ee-a6a4-424c-8899-e49861d4509e","system_id":"levelo_inurba_marseille","lat":43.28215,"lon":5.38634,"is_reserved":false,"is_disabled":false,"rental_uris":{"android":"levelo://app?vid=dbee49ee-a6a4-424c-8899-e49861d4509e","ios":"levelo://app?vid=dbee49ee-a6a4-424c-8899-e49861d4509e"},"vehicle_type_id":"4","last_reported":1762510312,"current_range_meters":19600,"station_id":"","pricing_plan_id":"cebpf4jnsgd1na2vs0mg"},{"bike_id":"a7074784-7394-4575-9b19-f3061e86a019","system_id":"levelo_inurba_marseille","lat":43.25932,"lon":5.40885,"is_reserved":false,"is_disabled":false,"rental_uris":{"android":"levelo://app?vid=a7074784-7394-4575-9b19-f3061e86a019","ios":"levelo://app?vid=a7074784-7394-4575-9b19-f3061e86a019"},"vehicle_type_id":"4","last_reported":1762510312,"current_range_meters":19600,"station_id":"ce4bhm92rcd13ifvqglg","pricing_plan_id":"cebpf4jnsgd1na2vs0mg"},{"bike_id":"9dd1cd83-17be-490b-acba-0640a7408c5b","system_id":"levelo_inurba_marseille","lat":43.29024,"lon":5.38137,"is_reserved":false,"is_disabled":false,"rental_uris":{"android":"levelo://app?vid=9dd1cd83-17be-490b-acba-0640a7408c5b","ios":"levelo://app?vid=9dd1cd83-17be-490b-acba-0640a7408c5b"},"vehicle_type_id":"4","last_reported":1762510312,"current_range_meters":19600,"station_id":"ce4bh4p2rcd13ifvqe1g","pricing_plan_id":"cebpf4jnsgd1na2vs0mg"},{"bike_id":"23afc398-ebc7-4f17-8e5c-af4dc8f4738e","system_id":"levelo_inurba_marseille","lat":43.249955,"lon":5.389339,"is_reserved":false,"is_disabled":false,"rental_uris":{"android":"levelo://app?vid=23afc398-ebc7-4f17-8e5c-af4dc8f4738e","ios":"levelo://app?vid=23afc398-ebc7-4f17-8e5c-af4dc8f4738e"},"vehicle_type_id":"4","last_reported":1762510312,"current_range_meters":20000,"station_id":"ce4bhgp2rcd13ifvqfd0","pricing_plan_id":"cebpf4jnsgd1na2vs0mg"},{"bike_id":"b11572fd-1740-4982-bbb5-67f8f63a81b2","system_id":"levelo_inurba_marseille","lat":43.30461,"lon":5.3791,"is_reserved":false,"is_disabled":false,"rental_uris":{"android":"levelo://app?vid=b11572fd-1740-4982-bbb5-67f8f63a81b2","ios":"levelo://app?vid=b11572fd-1740-4982-bbb5-67f8f63a81b2"},"vehicle_type_id":"4","last_reported":1762510312,"current_range_meters":20000,"station_id":"ce4bgup2rcd13ifvqcn0","pricing_plan_id":"cebpf4jnsgd1na2vs0mg"},{"bike_id":"58df984d-f6ad-47ef-818a-7818e887c7c9","system_id":"levelo_inurba_marseille","lat":43.30123,"lon":5.43119,"is_reserved":false,"is_disabled":false,"rental_uris":{"android":"levelo://app?vid=58df984d-f6ad-47ef-818a-7818e887c7c9","ios":"levelo://app?vid=58df984d-f6ad-47ef-818a-7818e887c7c9"},"vehicle_type_id":"4","last_reported":1762510312,"current_range_meters":20000,"station_id":"st_d3js3co5814s73ftftug","pricing_plan_id":"cebpf4jnsgd1na2vs0mg"},{"bike_id":"adc728c4-7d88-468c-be89-220c19218372","system_id":"levelo_inurba_marseille","lat":43.31626,"lon":5.38291,"is_reserved":false,"is_disabled":false,"rental_uris":{"android":"levelo://app?vid=adc728c4-7d88-468c-be89-220c19218372","ios":"levelo://app?vid=adc728c4-7d88-468c-be89-220c19218372"},"vehicle_type_id":"4","last_reported":1762510312,"current_range_meters":20000,"station_id":"","pricing_plan_id":"cebpf4jnsgd1na2vs0mg"},{"bike_id":"76319e27-2d5c-4978-9970-341e068ca370","system_id":"levelo_inurba_marseille","lat":43.27937,"lon":5.41055,"is_reserved":false,"is_disabled":false,"rental_uris":{"android":"levelo://app?vid=76319e27-2d5c-4978-9970-341e068ca370","ios":"levelo://app?vid=76319e27-2d5c-4978-9970-341e068ca370"},"vehicle_type_id":"4","last_reported":1762510312,"current_range_meters":20000,"station_id":"ce4bhnp2rcd13ifvqh0g","pricing_plan_id":"cebpf4jnsgd1na2vs0mg"},{"bike_id":"5098c842-5e48-40e2-b457-cc6766f8dfac","system_id":"levelo_inurba_marseille","lat":43.257227,"lon":5.411055,"is_reserved":false,"is_disabled":false,"rental_uris":{"android":"levelo://app?vid=5098c842-5e48-40e2-b457-cc6766f8dfac","ios":"levelo://app?vid=5098c842-5e48-40e2-b457-cc6766f8dfac"},"vehicle_type_id":"4","last_reported":1762510312,"current_range_meters":20000,"station_id":"ce4bhkp2rcd13ifvqgd0","pricing_plan_id":"cebpf4jnsgd1na2vs0mg"},{"bike_id":"51bec1cf-51c2-48a5-8c14-680388401a4d","system_id":"levelo_inurba_marseille","lat":43.31489,"lon":5.37295,"is_reserved":false,"is_disabled":false,"rental_uris":{"android":"levelo://app?vid=51bec1cf-51c2-48a5-8c14-680388401a4d","ios":"levelo://app?vid=51bec1cf-51c2-48a5-8c14-680388401a4d"},"vehicle_type_id":"4","last_reported":1762510312,"current_range_meters":20000,"station_id":"ce4bgt12rcd13ifvqcd0","pricing_plan_id":"cebpf4jnsgd1na2vs0mg"},{"bike_id":"bfcf244a-7666-4977-877b-0e3653e95122","system_id":"levelo_inurba_marseille","lat":43.30552,"lon":5.36545,"is_reserved":false,"is_disabled":false,"rental_uris":{"android":"levelo://app?vid=bfcf244a-7666-4977-877b-0e3653e95122","ios":"levelo://app?vid=bfcf244a-7666-4977-877b-0e3653e95122"},"vehicle_type_id":"4","last_reported":1762510312,"current_range_meters":20000,"station_id":"ce4bgs12rcd13ifvqcag","pricing_plan_id":"cebpf4jnsgd1na2vs0mg"},{"bike_id":"d2991a60-dcfa-4252-8f9d-bfff4b1dc433","system_id":"levelo_inurba_marseille","lat":43.310583,"lon":5.371416,"is_reserved":false,"is_disabled":false,"rental_uris":{"android":"levelo://app?vid=d2991a60-dcfa-4252-8f9d-bfff4b1dc433","ios":"levelo://app?vid=d2991a60-dcfa-4252-8f9d-bfff4b1dc433"},"vehicle_type_id":"4","last_reported":1762510312,"current_range_meters":20000,"station_id":"","pricing_plan_id":"cebpf4jnsgd1na2vs0mg"},{"bike_id":"4bce02cb-bdba-488a-a39f-eae80d4c7da8","system_id":"levelo_inurba_marseille","lat":43.28215,"lon":5.39076,"is_reserved":false,"is_disabled":true,"rental_uris":{"android":"levelo://app?vid=4bce02cb-bdba-488a-a39f-eae80d4c7da8","ios":"levelo://app?vid=4bce02cb-bdba-488a-a39f-eae80d4c7da8"},"vehicle_type_id":"4","last_reported":1762510312,"current_range_meters":20000,"station_id":"ce4bhn92rcd13ifvqgsg","pricing_plan_id":"cebpf4jnsgd1na2vs0mg"},{"bike_id":"882e8496-98c1-4da3-ba9b-b573f8da5cfc","system_id":"levelo_inurba_marseille","lat":43.30145,"lon":5.37409,"is_reserved":false,"is_disabled":false,"rental_uris":{"android":"levelo://app?vid=882e8496-98c1-4da3-ba9b-b573f8da5cfc","ios":"levelo://app?vid=882e8496-98c1-4da3-ba9b-b573f8da5cfc"},"vehicle_type_id":"4","last_reported":1762510312,"current_range_meters":20000,"station_id":"ce4bgs92rcd13ifvqcc0","pricing_plan_id":"cebpf4jnsgd1na2vs0mg"},{"bike_id":"d9b70e7d-c3bc-4f53-93da-b5ce7b3e0d4f","system_id":"levelo_inurba_marseille","lat":43.30557,"lon":5.36538,"is_reserved":false,"is_disabled":false,"rental_uris":{"android":"levelo://app?vid=d9b70e7d-c3bc-4f53-93da-b5ce7b3e0d4f","ios":"levelo://app?vid=d9b70e7d-c3bc-4f53-93da-b5ce7b3e0d4f"},"vehicle_type_id":"4","last_reported":1762510312,"current_range_meters":20400,"station_id":"ce4bgs12rcd13ifvqcag","pricing_plan_id":"cebpf4jnsgd1na2vs0mg"},{"bike_id":"3df1e0c7-5e91-4645-8895-daa4d4669f50","system_id":"levelo_inurba_marseille","lat":43.2705,"lon":5.40257,"is_reserved":false,"is_disabled":false,"rental_uris":{"android":"levelo://app?vid=3df1e0c7-5e91-4645-8895-daa4d4669f50","ios":"levelo://app?vid=3df1e0c7-5e91-4645-8895-daa4d4669f50"},"vehicle_type_id":"4","last_reported":1762510312,"current_range_meters":20400,"station_id":"ce4bhk92rcd13ifvqgc0","pricing_plan_id":"cebpf4jnsgd1na2vs0mg"},{"bike_id":"cc602fe4-16eb-4cd8-b6ed-df183afd8337","system_id":"levelo_inurba_marseille","lat":43.26556,"lon":5.37285,"is_reserved":false,"is_disabled":false,"rental_uris":{"android":"levelo://app?vid=cc602fe4-16eb-4cd8-b6ed-df183afd8337","ios":"levelo://app?vid=cc602fe4-16eb-4cd8-b6ed-df183afd8337"},"vehicle_type_id":"4","last_reported":1762510312,"current_range_meters":20400,"station_id":"ce4bhg12rcd13ifvqf70","pricing_plan_id":"cebpf4jnsgd1na2vs0mg"},{"bike_id":"4b4d3471-9a72-467d-8066-5891162c3702","system_id":"levelo_inurba_marseille","lat":43.3054,"lon":5.36708,"is_reserved":false,"is_disabled":false,"rental_uris":{"android":"levelo://app?vid=4b4d3471-9a72-467d-8066-5891162c3702","ios":"levelo://app?vid=4b4d3471-9a72-467d-8066-5891162c3702"},"vehicle_type_id":"4","last_reported":1762510312,"current_range_meters":20400,"station_id":"ce4bgrp2rcd13ifvqc9g","pricing_plan_id":"cebpf4jnsgd1na2vs0mg"},{"bike_id":"66599fe4-e38e-4a94-8156-7ba53f85fe8e","system_id":"levelo_inurba_marseille","lat":43.30909,"lon":5.36853,"is_reserved":false,"is_disabled":false,"rental_uris":{"android":"levelo://app?vid=66599fe4-e38e-4a94-8156-7ba53f85fe8e","ios":"levelo://app?vid=66599fe4-e38e-4a94-8156-7ba53f85fe8e"},"vehicle_type_id":"4","last_reported":1762510312,"current_range_meters":20400,"station_id":"ce4bgn92rcd13ifvqbvg","pricing_plan_id":"cebpf4jnsgd1na2vs0mg"},{"bike_id":"b4f61776-25f6-4b55-af82-ed7be98c8abf","system_id":"levelo_inurba_marseille","lat":43.29602,"lon":5.38104,"is_reserved":false,"is_disabled":false,"rental_uris":{"android":"levelo://app?vid=b4f61776-25f6-4b55-af82-ed7be98c8abf","ios":"levelo://app?vid=b4f61776-25f6-4b55-af82-ed7be98c8abf"},"vehicle_type_id":"4","last_reported":1762510312,"current_range_meters":20400,"station_id":"ce4bgl12rcd13ifvqbo0","pricing_plan_id":"cebpf4jnsgd1na2vs0mg"},{"bike_id":"3a81bba8-fbb3-43de-9b5f-45443ccb54db","system_id":"levelo_inurba_marseille","lat":43.286194,"lon":5.351149,"is_reserved":false,"is_disabled":false,"rental_uris":{"android":"levelo://app?vid=3a81bba8-fbb3-43de-9b5f-45443ccb54db","ios":"levelo://app?vid=3a81bba8-fbb3-43de-9b5f-45443ccb54db"},"vehicle_type_id":"4","last_reported":1762510312,"current_range_meters":20400,"station_id":"ce4bhch2rcd13ifvqeug","pricing_plan_id":"cebpf4jnsgd1na2vs0mg"},{"bike_id":"721f37e4-fe4d-4ae8-ad82-a09b8ffcb1a7","system_id":"levelo_inurba_marseille","lat":43.28833,"lon":5.35787,"is_reserved":false,"is_disabled":false,"rental_uris":{"android":"levelo://app?vid=721f37e4-fe4d-4ae8-ad82-a09b8ffcb1a7","ios":"levelo://app?vid=721f37e4-fe4d-4ae8-ad82-a09b8ffcb1a7"},"vehicle_type_id":"4","last_reported":1762510312,"current_range_meters":20400,"station_id":"ce4bhb12rcd13ifvqem0","pricing_plan_id":"cebpf4jnsgd1na2vs0mg"},{"bike_id":"5ebbfdc4-4988-4f8f-860a-a23e6d29751d","system_id":"levelo_inurba_marseille","lat":43.30535,"lon":5.36538,"is_reserved":false,"is_disabled":false,"rental_uris":{"android":"levelo://app?vid=5ebbfdc4-4988-4f8f-860a-a23e6d29751d","ios":"levelo://app?vid=5ebbfdc4-4988-4f8f-860a-a23e6d29751d"},"vehicle_type_id":"4","last_reported":1762510312,"current_range_meters":20400,"station_id":"ce4bgs12rcd13ifvqcag","pricing_plan_id":"cebpf4jnsgd1na2vs0mg"},{"bike_id":"b7ea259f-7259-4680-9ac8-29a9ae72954c","system_id":"levelo_inurba_marseille","lat":43.26206,"lon":5.37484,"is_reserved":false,"is_disabled":false,"rental_uris":{"android":"levelo://app?vid=b7ea259f-7259-4680-9ac8-29a9ae72954c","ios":"levelo://app?vid=b7ea259f-7259-4680-9ac8-29a9ae72954c"},"vehicle_type_id":"4","last_reported":1762510312,"current_range_meters":20400,"station_id":"ce4bhgp2rcd13ifvqfc0","pricing_plan_id":"cebpf4jnsgd1na2vs0mg"},{"bike_id":"1bbf6c06-c4ef-4d8e-8eb1-3cca4cf1002e","system_id":"levelo_inurba_marseille","lat":43.24094,"lon":5.37772,"is_reserved":false,"is_disabled":false,"rental_uris":{"android":"levelo://app?vid=1bbf6c06-c4ef-4d8e-8eb1-3cca4cf1002e","ios":"levelo://app?vid=1bbf6c06-c4ef-4d8e-8eb1-3cca4cf1002e"},"vehicle_type_id":"4","last_reported":1762510312,"current_range_meters":20400,"station_id":"ce4bhnp2rcd13ifvqgvg","pricing_plan_id":"cebpf4jnsgd1na2vs0mg"},{"bike_id":"7d787c36-91d4-44f8-8406-006a6901f7e5","system_id":"levelo_inurba_marseille","lat":43.313808,"lon":5.366975,"is_reserved":false,"is_disabled":false,"rental_uris":{"android":"levelo://app?vid=7d787c36-91d4-44f8-8406-006a6901f7e5","ios":"levelo://app?vid=7d787c36-91d4-44f8-8406-006a6901f7e5"},"vehicle_type_id":"4","last_reported":1762510312,"current_range_meters":20400,"station_id":"ce4bgr92rcd13ifvqc6g","pricing_plan_id":"cebpf4jnsgd1na2vs0mg"},{"bike_id":"1e21d940-d33d-4603-9ff7-56233e94ef9a","system_id":"levelo_inurba_marseille","lat":43.30486,"lon":5.39591,"is_reserved":false,"is_disabled":false,"rental_uris":{"android":"levelo://app?vid=1e21d940-d33d-4603-9ff7-56233e94ef9a","ios":"levelo://app?vid=1e21d940-d33d-4603-9ff7-56233e94ef9a"},"vehicle_type_id":"4","last_reported":1762510312,"current_range_meters":20400,"station_id":"","pricing_plan_id":"cebpf4jnsgd1na2vs0mg"},{"bike_id":"56e77ceb-c0c3-47e5-bebb-5a9be1b3f2ca","system_id":"levelo_inurba_marseille","lat":43.262014,"lon":5.379383,"is_reserved":false,"is_disabled":false,"rental_uris":{"android":"levelo://app?vid=56e77ceb-c0c3-47e5-bebb-5a9be1b3f2ca","ios":"levelo://app?vid=56e77ceb-c0c3-47e5-bebb-5a9be1b3f2ca"},"vehicle_type_id":"4","last_reported":1762510312,"current_range_meters":20400,"station_id":"ce4bhjp2rcd13ifvqg90","pricing_plan_id":"cebpf4jnsgd1na2vs0mg"},{"bike_id":"5857ab86-8fa1-44f9-b1ac-2451318bffa8","system_id":"levelo_inurba_marseille","lat":43.29621,"lon":5.37742,"is_reserved":false,"is_disabled":false,"rental_uris":{"android":"levelo://app?vid=5857ab86-8fa1-44f9-b1ac-2451318bffa8","ios":"levelo://app?vid=5857ab86-8fa1-44f9-b1ac-2451318bffa8"},"vehicle_type_id":"4","last_reported":1762510312,"current_range_meters":20800,"station_id":"ce4bgi92rcd13ifvqb90","pricing_plan_id":"cebpf4jnsgd1na2vs0mg"},{"bike_id":"c49f6631-b8ff-4e1c-b24e-35ab4de4fe7f","system_id":"levelo_inurba_marseille","lat":43.268,"lon":5.39407,"is_reserved":false,"is_disabled":false,"rental_uris":{"android":"levelo://app?vid=c49f6631-b8ff-4e1c-b24e-35ab4de4fe7f","ios":"levelo://app?vid=c49f6631-b8ff-4e1c-b24e-35ab4de4fe7f"},"vehicle_type_id":"4","last_reported":1762510312,"current_range_meters":20800,"station_id":"ce4bhh12rcd13ifvqfg0","pricing_plan_id":"cebpf4jnsgd1na2vs0mg"},{"bike_id":"5d204b72-0a8a-4e15-837e-5a49b8f60d01","system_id":"levelo_inurba_marseille","lat":43.30906,"lon":5.38912,"is_reserved":false,"is_disabled":false,"rental_uris":{"android":"levelo://app?vid=5d204b72-0a8a-4e15-837e-5a49b8f60d01","ios":"levelo://app?vid=5d204b72-0a8a-4e15-837e-5a49b8f60d01"},"vehicle_type_id":"4","last_reported":1762510312,"current_range_meters":20800,"station_id":"ce4bgup2rcd13ifvqco0","pricing_plan_id":"cebpf4jnsgd1na2vs0mg"},{"bike_id":"e09d71a1-91e8-40fe-bd95-7b2ba48cf59c","system_id":"levelo_inurba_marseille","lat":43.32839,"lon":5.36581,"is_reserved":false,"is_disabled":false,"rental_uris":{"android":"levelo://app?vid=e09d71a1-91e8-40fe-bd95-7b2ba48cf59c","ios":"levelo://app?vid=e09d71a1-91e8-40fe-bd95-7b2ba48cf59c"},"vehicle_type_id":"4","last_reported":1762510312,"current_range_meters":20800,"station_id":"","pricing_plan_id":"cebpf4jnsgd1na2vs0mg"},{"bike_id":"8d7925a5-2dfc-4b14-92b8-f57b4afdb9c2","system_id":"levelo_inurba_marseille","lat":43.29839,"lon":5.36261,"is_reserved":false,"is_disabled":false,"rental_uris":{"android":"levelo://app?vid=8d7925a5-2dfc-4b14-92b8-f57b4afdb9c2","ios":"levelo://app?vid=8d7925a5-2dfc-4b14-92b8-f57b4afdb9c2"},"vehicle_type_id":"4","last_reported":1762510312,"current_range_meters":20800,"station_id":"ce4bgpp2rcd13ifvqc3g","pricing_plan_id":"cebpf4jnsgd1na2vs0mg"},{"bike_id":"45bed162-5d11-4d23-848a-69200e17e699","system_id":"levelo_inurba_marseille","lat":43.29166,"lon":5.37168,"is_reserved":false,"is_disabled":false,"rental_uris":{"android":"levelo://app?vid=45bed162-5d11-4d23-848a-69200e17e699","ios":"levelo://app?vid=45bed162-5d11-4d23-848a-69200e17e699"},"vehicle_type_id":"4","last_reported":1762510312,"current_range_meters":20800,"station_id":"ce4bha92rcd13ifvqeh0","pricing_plan_id":"cebpf4jnsgd1na2vs0mg"},{"bike_id":"1063fac4-8b5a-4514-a617-a71026d33eb4","system_id":"levelo_inurba_marseille","lat":43.31488,"lon":5.37297,"is_reserved":false,"is_disabled":false,"rental_uris":{"android":"levelo://app?vid=1063fac4-8b5a-4514-a617-a71026d33eb4","ios":"levelo://app?vid=1063fac4-8b5a-4514-a617-a71026d33eb4"},"vehicle_type_id":"4","last_reported":1762510312,"current_range_meters":20800,"station_id":"ce4bgt12rcd13ifvqcd0","pricing_plan_id":"cebpf4jnsgd1na2vs0mg"},