{"last_updated":1776846216,"ttl":60,"version":"2.2","data":{"bikes":[{"bike_id":"255ef345-0563-469b-bb5f-1d87398cf514","system_id":"levelo_inurba_marseille","lat":43.337444,"lon":5.374475,"is_reserved":false,"is_disabled":false,"rental_uris":{"android":"levelo://app?vid=255ef345-0563-469b-bb5f-1d87398cf514","ios":"levelo://app?vid=255ef345-0563-469b-bb5f-1d87398cf514"},"vehicle_type_id":"4","last_reported":1776846217,"current_range_meters":0,"station_id":"","pricing_plan_id":"cebpf4jnsgd1na2vs0mg"},{"bike_id":"58ed09d9-0aa1-471f-818a-54c432b83970","system_id":"levelo_inurba_marseille","lat":43.26597,"lon":5.42829,"is_reserved":false,"is_disabled":false,"rental_uris":{"android":"levelo://app?vid=58ed09d9-0aa1-471f-818a-54c432b83970","ios":"levelo://app?vid=58ed09d9-0aa1-471f-818a-54c432b83970"},"vehicle_type_id":"4","last_reported":1776846217,"current_range_meters":2800,"station_id":"","pricing_plan_id":"cebpf4jnsgd1na2vs0mg"},{"bike_id":"0bbddeab-79a7-4ee1-8ee9-7b449e9b0d0d","system_id":"levelo_inurba_marseille","lat":43.2922,"lon":5.38765,"is_reserved":false,"is_disabled":false,"rental_uris":{"android":"levelo://app?vid=0bbddeab-79a7-4ee1-8ee9-7b449e9b0d0d","ios":"levelo://app?vid=0bbddeab-79a7-4ee1-8ee9-7b449e9b0d0d"},"vehicle_type_id":"4","last_reported":1776846217,"current_range_meters":2800,"station_id":"","pricing_plan_id":"cebpf4jnsgd1na2vs0mg"},{"bike_id":"ae3cdbc1-046c-42e5-b909-29c9e0bcb254","system_id":"levelo_inurba_marseille","lat":43.33156,"lon":5.37712,"is_reserved":false,"is_disabled":false,"rental_uris":{"android":"levelo://app?vid=ae3cdbc1-046c-42e5-b909-29c9e0bcb254","ios":"levelo://app?vid=ae3cdbc1-046c-42e5-b909-29c9e0bcb254"},"vehicle_type_id":"4","last_reported":1776846217,"current_range_meters":2800,"station_id":"st_d46cu089ee8s73dldbu0","pricing_plan_id":"cebpf4jnsgd1na2vs0mg"},{"bike_id":"c1a263e9-9756-4cf1-a4ca-2cf469305b2d","system_id":"levelo_inurba_marseille","lat":43.24951,"lon":5.4052,"is_reserved":false,"is_disabled":false,"rental_uris":{"android":"levelo://app?vid=c1a263e9-9756-4cf1-a4ca-2cf469305b2d","ios":"levelo://app?vid=c1a263e9-9756-4cf1-a4ca-2cf469305b2d"},"vehicle_type_id":"4","last_reported":1776846217,"current_range_meters":2800,"station_id":"st_d2ngiaodas8pm72gd1h0","pricing_plan_id":"cebpf4jnsgd1na2vs0mg"},{"bike_id":"b785f7ea-cfcc-407f-b48a-6739a001a77c","system_id":"levelo_inurba_marseille","lat":43.33146,"lon":5.37705,"is_reserved":false,"is_disabled":false,"rental_uris":{"android":"levelo://app?vid=b785f7ea-cfcc-407f-b48a-6739a001a77c","ios":"levelo://app?vid=b785f7ea-cfcc-407f-b48a-6739a001a77c"},"vehicle_type_id":"4","last_reported":1776846217,"current_range_meters":2800,"station_id":"st_d46cu089ee8s73dldbu0","pricing_plan_id":"cebpf4jnsgd1na2vs0mg"},{"bike_id":"4aa5c09b-a619-437a-85de-0ed9e20258e8","system_id":"levelo_inurba_marseille","lat":43.30474,"lon":5.37914,"is_reserved":false,"is_disabled":false,"rental_uris":{"android":"levelo://app?vid=4aa5c09b-a619-437a-85de-0ed9e20258e8","ios":"levelo://app?vid=4aa5c09b-a619-437a-85de-0ed9e20258e8"},"vehicle_type_id":"4","last_reported":1776846217,"current_range_meters":2800,"station_id":"ce4bgup2rcd13ifvqcn0","pricing_plan_id":"cebpf4jnsgd1na2vs0mg"},{"bike_id":"2923d899-e487-4cd1-8eb4-a2f0428efa22","system_id":"levelo_inurba_marseille","lat":43.33152,"lon":5.37695,"is_reserved":false,"is_disabled":false,"rental_uris":{"android":"levelo://app?vid=2923d899-e487-4cd1-8eb4-a2f0428efa22","ios":"levelo://app?vid=2923d899-e487-4cd1-8eb4-a2f0428efa22"},"vehicle_type_id":"4","last_reported":1776846217,"current_range_meters":2800,"station_id":"st_d46cu089ee8s73dldbu0","pricing_plan_id":"cebpf4jnsgd1na2vs0mg"},{"bike_id":"624daf69-f815-4f9b-8f7c-0a5468b5d0f6","system_id":"levelo_inurba_marseille","lat":43.26195,"lon":5.37046,"is_reserved":false,"is_disabled":false,"rental_uris":{"android":"levelo://app?vid=624daf69-f815-4f9b-8f7c-0a5468b5d0f6","ios":"levelo://app?vid=624daf69-f815-4f9b-8f7c-0a5468b5d0f6"},"vehicle_type_id":"4","last_reported":1776846217,"current_range_meters":2800,"station_id":"","pricing_plan_id":"cebpf4jnsgd1na2vs0mg"},{"bike_id":"ce75ca81-745c-4701-8f1e-e8f85a1cece6","system_id":"levelo_inurba_marseille","lat":43.29224,"lon":5.36048,"is_reserved":false,"is_disabled":false,"rental_uris":{"android":"levelo://app?vid=ce75ca81-745c-4701-8f1e-e8f85a1cece6","ios":"levelo://app?vid=ce75ca81-745c-4701-8f1e-e8f85a1cece6"},"vehicle_type_id":"4","last_reported":1776846217,"current_range_meters":2800,"station_id":"ce4bhbh2rcd13ifvqeqg","pricing_plan_id":"cebpf4jnsgd1na2vs0mg"},{"bike_id":"dcd5e660-ed5f-40d3-b14d-73d697ebb6e8","system_id":"levelo_inurba_marseille","lat":43.21755,"lon":5.34594,"is_reserved":false,"is_disabled":false,"rental_uris":{"android":"levelo://app?vid=dcd5e660-ed5f-40d3-b14d-73d697ebb6e8","ios":"levelo://app?vid=dcd5e660-ed5f-40d3-b14d-73d697ebb6e8"},"vehicle_type_id":"4","last_reported":1776846217,"current_range_meters":3200,"station_id":"st_cvj6r9ubvosntc0bgbag","pricing_plan_id":"cebpf4jnsgd1na2vs0mg"},{"bike_id":"55b9e363-aef1-4e55-a55c-7c19ee416703","system_id":"levelo_inurba_marseille","lat":43.31227,"lon":5.37686,"is_reserved":false,"is_disabled":false,"rental_uris":{"android":"levelo://app?vid=55b9e363-aef1-4e55-a55c-7c19ee416703","ios":"levelo://app?vid=55b9e363-aef1-4e55-a55c-7c19ee416703"},"vehicle_type_id":"4","last_reported":1776846217,"current_range_meters":3200,"station_id":"","pricing_plan_id":"cebpf4jnsgd1na2vs0mg"},{"bike_id":"bb1c4c2b-c3ea-448f-8049-8fa792f834ce","system_id":"levelo_inurba_marseille","lat":43.24946,"lon":5.40473,"is_reserved":false,"is_disabled":false,"rental_uris":{"android":"levelo://app?vid=bb1c4c2b-c3ea-448f-8049-8fa792f834ce","ios":"levelo://app?vid=bb1c4c2b-c3ea-448f-8049-8fa792f834ce"},"vehicle_type_id":"4","last_reported":1776846217,"current_range_meters":3200,"station_id":"st_d2ngiaodas8pm72gd1h0","pricing_plan_id":"cebpf4jnsgd1na2vs0mg"},{"bike_id":"49fd91f1-255d-454b-bb36-9d45b10d8dd4","system_id":"levelo_inurba_marseille","lat":43.31099,"lon":5.37784,"is_reserved":false,"is_disabled":false,"rental_uris":{"android":"levelo://app?vid=49fd91f1-255d-454b-bb36-9d45b10d8dd4","ios":"levelo://app?vid=49fd91f1-255d-454b-bb36-9d45b10d8dd4"},"vehicle_type_id":"4","last_reported":1776846217,"current_range_meters":3200,"station_id":"ce4bgt92rcd13ifvqcg0","pricing_plan_id":"cebpf4jnsgd1na2vs0mg"},{"bike_id":"09b2ffa3-7889-438d-a8e4-f8148acd5b69","system_id":"levelo_inurba_marseille","lat":43.26188,"lon":5.38736,"is_reserved":false,"is_disabled":false,"rental_uris":{"android":"levelo://app?vid=09b2ffa3-7889-438d-a8e4-f8148acd5b69","ios":"levelo://app?vid=09b2ffa3-7889-438d-a8e4-f8148acd5b69"},"vehicle_type_id":"4","last_reported":1776846217,"current_range_meters":3200,"station_id":"","pricing_plan_id":"cebpf4jnsgd1na2vs0mg"},{"bike_id":"4065c284-7b54-43b3-b479-8dd87706670a","system_id":"levelo_inurba_marseille","lat":43.318857,"lon":5.367882,"is_reserved":false,"is_disabled":false,"rental_uris":{"android":"levelo://app?vid=4065c284-7b54-43b3-b479-8dd87706670a","ios":"levelo://app?vid=4065c284-7b54-43b3-b479-8dd87706670a"},"vehicle_type_id":"4","last_reported":1776846217,"current_range_meters":3600,"station_id":"st_d6o2h0d0559c73evc1b0","pricing_plan_id":"cebpf4jnsgd1na2vs0mg"},{"bike_id":"47cf7138-b028-43e8-8619-f9b1b14bdfb8","system_id":"levelo_inurba_marseille","lat":43.307536,"lon":5.384986,"is_reserved":false,"is_disabled":false,"rental_uris":{"android":"levelo://app?vid=47cf7138-b028-43e8-8619-f9b1b14bdfb8","ios":"levelo://app?vid=47cf7138-b028-43e8-8619-f9b1b14bdfb8"},"vehicle_type_id":"4","last_reported":1776846217,"current_range_meters":3600,"station_id":"ce4bgg92rcd13ifvqb30","pricing_plan_id":"cebpf4jnsgd1na2vs0mg"},{"bike_id":"2bf658ef-a912-4563-9f63-3110eb25e849","system_id":"levelo_inurba_marseille","lat":43.29715,"lon":5.35985,"is_reserved":false,"is_disabled":false,"rental_uris":{"android":"levelo://app?vid=2bf658ef-a912-4563-9f63-3110eb25e849","ios":"levelo://app?vid=2bf658ef-a912-4563-9f63-3110eb25e849"},"vehicle_type_id":"4","last_reported":1776846217,"current_range_meters":3600,"station_id":"","pricing_plan_id":"cebpf4jnsgd1na2vs0mg"},{"bike_id":"7278eae4-9ede-4ee2-afa4-5aef54634e43","system_id":"levelo_inurba_marseille","lat":43.31394,"lon":5.38607,"is_reserved":false,"is_disabled":false,"rental_uris":{"android":"levelo://app?vid=7278eae4-9ede-4ee2-afa4-5aef54634e43","ios":"levelo://app?vid=7278eae4-9ede-4ee2-afa4-5aef54634e43"},"vehicle_type_id":"4","last_reported":1776846217,"current_range_meters":3600,"station_id":"","pricing_plan_id":"cebpf4jnsgd1na2vs0mg"},{"bike_id":"e9c1c731-1912-4153-abf3-120b800b8c67","system_id":"levelo_inurba_marseille","lat":43.27198,"lon":5.3918,"is_reserved":false,"is_disabled":true,"rental_uris":{"android":"levelo://app?vid=e9c1c731-1912-4153-abf3-120b800b8c67","ios":"levelo://app?vid=e9c1c731-1912-4153-abf3-120b800b8c67"},"vehicle_type_id":"4","last_reported":1776846217,"current_range_meters":3600,"station_id":"ce4bhhp2rcd13ifvqfm0","pricing_plan_id":"cebpf4jnsgd1na2vs0mg"},{"bike_id":"fec54d59-47d4-4ddb-8655-648e0f95cb70","system_id":"levelo_inurba_marseille","lat":43.23191,"lon":5.35549,"is_reserved":false,"is_disabled":false,"rental_uris":{"android":"levelo://app?vid=fec54d59-47d4-4ddb-8655-648e0f95cb70","ios":"levelo://app?vid=fec54d59-47d4-4ddb-8655-648e0f95cb70"},"vehicle_type_id":"4","last_reported":1776846217,"current_range_meters":3600,"station_id":"ce4bhu92rcd13ifvqi70","pricing_plan_id":"cebpf4jnsgd1na2vs0mg"},{"bike_id":"00db9f9d-ec59-40e4-b9b3-0656fbc37813","system_id":"levelo_inurba_marseille","lat":43.231785,"lon":5.399832,"is_reserved":false,"is_disabled":false,"rental_uris":{"android":"levelo://app?vid=00db9f9d-ec59-40e4-b9b3-0656fbc37813","ios":"levelo://app?vid=00db9f9d-ec59-40e4-b9b3-0656fbc37813"},"vehicle_type_id":"4","last_reported":1776846217,"current_range_meters":3600,"station_id":"ce4bhn12rcd13ifvqgqg","pricing_plan_id":"cebpf4jnsgd1na2vs0mg"},{"bike_id":"301196bf-ac2a-4e36-a927-6945dd6013c8","system_id":"levelo_inurba_marseille","lat":43.28483,"lon":5.38422,"is_reserved":false,"is_disabled":false,"rental_uris":{"android":"levelo://app?vid=301196bf-ac2a-4e36-a927-6945dd6013c8","ios":"levelo://app?vid=301196bf-ac2a-4e36-a927-6945dd6013c8"},"vehicle_type_id":"4","last_reported":1776846217,"current_range_meters":3600,"station_id":"ce4bh512rcd13ifvqe3g","pricing_plan_id":"cebpf4jnsgd1na2vs0mg"},{"bike_id":"c224c9cf-d497-4bf6-82cd-eee25423f927","system_id":"levelo_inurba_marseille","lat":43.29682,"lon":5.37282,"is_reserved":false,"is_disabled":true,"rental_uris":{"android":"levelo://app?vid=c224c9cf-d497-4bf6-82cd-eee25423f927","ios":"levelo://app?vid=c224c9cf-d497-4bf6-82cd-eee25423f927"},"vehicle_type_id":"4","last_reported":1776846217,"current_range_meters":3600,"station_id":"ce4bgk12rcd13ifvqbj0","pricing_plan_id":"cebpf4jnsgd1na2vs0mg"},{"bike_id":"9a9a4238-b628-4738-9f42-647e031b96f6","system_id":"levelo_inurba_marseille","lat":43.28998,"lon":5.35611,"is_reserved":false,"is_disabled":false,"rental_uris":{"android":"levelo://app?vid=9a9a4238-b628-4738-9f42-647e031b96f6","ios":"levelo://app?vid=9a9a4238-b628-4738-9f42-647e031b96f6"},"vehicle_type_id":"4","last_reported":1776846217,"current_range_meters":4000,"station_id":"ce4bhb92rcd13ifvqen0","pricing_plan_id":"cebpf4jnsgd1na2vs0mg"},{"bike_id":"229b9f7c-53ea-4e2a-9e52-443b0210484e","system_id":"levelo_inurba_marseille","lat":43.28212,"lon":5.39042,"is_reserved":false,"is_disabled":false,"rental_uris":{"android":"levelo://app?vid=229b9f7c-53ea-4e2a-9e52-443b0210484e","ios":"levelo://app?vid=229b9f7c-53ea-4e2a-9e52-443b0210484e"},"vehicle_type_id":"4","last_reported":1776846217,"current_range_meters":4000,"station_id":"ce4bhn92rcd13ifvqgsg","pricing_plan_id":"cebpf4jnsgd1na2vs0mg"},{"bike_id":"12fda952-9902-4c8f-a1e4-397269d94965","system_id":"levelo_inurba_marseille","lat":43.3042,"lon":5.39755,"is_reserved":false,"is_disabled":false,"rental_uris":{"android":"levelo://app?vid=12fda952-9902-4c8f-a1e4-397269d94965","ios":"levelo://app?vid=12fda952-9902-4c8f-a1e4-397269d94965"},"vehicle_type_id":"4","last_reported":1776846217,"current_range_meters":4000,"station_id":"ce4bh092rcd13ifvqd20","pricing_plan_id":"cebpf4jnsgd1na2vs0mg"},{"bike_id":"14290775-1809-431a-89de-994574cdc895","system_id":"levelo_inurba_marseille","lat":43.27578,"lon":5.38641,"is_reserved":false,"is_disabled":false,"rental_uris":{"android":"levelo://app?vid=14290775-1809-431a-89de-994574cdc895","ios":"levelo://app?vid=14290775-1809-431a-89de-994574cdc895"},"vehicle_type_id":"4","last_reported":1776846217,"current_range_meters":4000,"station_id":"","pricing_plan_id":"cebpf4jnsgd1na2vs0mg"},{"bike_id":"2224c961-bce6-4c33-966e-f3361d1b2ab2","system_id":"levelo_inurba_marseille","lat":43.27521,"lon":5.41628,"is_reserved":false,"is_disabled":false,"rental_uris":{"android":"levelo://app?vid=2224c961-bce6-4c33-966e-f3361d1b2ab2","ios":"levelo://app?vid=2224c961-bce6-4c33-966e-f3361d1b2ab2"},"vehicle_type_id":"4","last_reported":1776846217,"current_range_meters":4000,"station_id":"st_d6im8g6chgec73a5pndg","pricing_plan_id":"cebpf4jnsgd1na2vs0mg"},{"bike_id":"f9e36f38-ef4d-44c9-9f31-a0f8b13d14ba","system_id":"levelo_inurba_marseille","lat":43.33165,"lon":5.37684,"is_reserved":false,"is_disabled":false,"rental_uris":{"android":"levelo://app?vid=f9e36f38-ef4d-44c9-9f31-a0f8b13d14ba","ios":"levelo://app?vid=f9e36f38-ef4d-44c9-9f31-a0f8b13d14ba"},"vehicle_type_id":"4","last_reported":1776846217,"current_range_meters":4000,"station_id":"st_d46cu089ee8s73dldbu0","pricing_plan_id":"cebpf4jnsgd1na2vs0mg"},{"bike_id":"38a0c1fe-c793-4677-abc9-44884653b8c5","system_id":"levelo_inurba_marseille","lat":43.29593,"lon":5.37776,"is_reserved":false,"is_disabled":false,"rental_uris":{"android":"levelo://app?vid=38a0c1fe-c793-4677-abc9-44884653b8c5","ios":"levelo://app?vid=38a0c1fe-c793-4677-abc9-44884653b8c5"},"vehicle_type_id":"4","last_reported":1776846217,"current_range_meters":4400,"station_id":"","pricing_plan_id":"cebpf4jnsgd1na2vs0mg"},{"bike_id":"1fd10be9-0a9a-46a4-9d74-69cc8527ad5b","system_id":"levelo_inurba_marseille","lat":43.2848,"lon":5.484,"is_reserved":false,"is_disabled":false,"rental_uris":{"android":"levelo://app?vid=1fd10be9-0a9a-46a4-9d74-69cc8527ad5b","ios":"levelo://app?vid=1fd10be9-0a9a-46a4-9d74-69cc8527ad5b"},"vehicle_type_id":"4","last_reported":1776846217,"current_range_meters":4400,"station_id":"","pricing_plan_id":"cebpf4jnsgd1na2vs0mg"},{"bike_id":"9a905e19-785b-4f51-8af1-183c7f3846a7","system_id":"levelo_inurba_marseille","lat":43.30557,"lon":5.3652,"is_reserved":false,"is_disabled":false,"rental_uris":{"android":"levelo://app?vid=9a905e19-785b-4f51-8af1-183c7f3846a7","ios":"levelo://app?vid=9a905e19-785b-4f51-8af1-183c7f3846a7"},"vehicle_type_id":"4","last_reported":1776846217,"current_range_meters":4400,"station_id":"ce4bgs12rcd13ifvqcag","pricing_plan_id":"cebpf4jnsgd1na2vs0mg"},{"bike_id":"afe6c9ff-8c7f-40d2-96bc-86354113b443","system_id":"levelo_inurba_marseille","lat":43.28481,"lon":5.484,"is_reserved":false,"is_disabled":false,"rental_uris":{"android":"levelo://app?vid=afe6c9ff-8c7f-40d2-96bc-86354113b443","ios":"levelo://app?vid=afe6c9ff-8c7f-40d2-96bc-86354113b443"},"vehicle_type_id":"4","last_reported":1776846217,"current_range_meters":4400,"station_id":"","pricing_plan_id":"cebpf4jnsgd1na2vs0mg"},{"bike_id":"41934f8d-e3a4-46a7-95a0-9ed5c13c9572","system_id":"levelo_inurba_marseille","lat":43.30144,"lon":5.37405,"is_reserved":false,"is_disabled":false,"rental_uris":{"android":"levelo://app?vid=41934f8d-e3a4-46a7-95a0-9ed5c13c9572","ios":"levelo://app?vid=41934f8d-e3a4-46a7-95a0-9ed5c13c9572"},"vehicle_type_id":"4","last_reported":1776846217,"current_range_meters":4400,"station_id":"ce4bgs92rcd13ifvqcc0","pricing_plan_id":"cebpf4jnsgd1na2vs0mg"},{"bike_id":"9850b058-325e-4905-a17d-9cdf719b7a8a","system_id":"levelo_inurba_marseille","lat":43.29288,"lon":5.37453,"is_reserved":false,"is_disabled":false,"rental_uris":{"android":"levelo://app?vid=9850b058-325e-4905-a17d-9cdf719b7a8a","ios":"levelo://app?vid=9850b058-325e-4905-a17d-9cdf719b7a8a"},"vehicle_type_id":"4","last_reported":1776846217,"current_range_meters":4800,"station_id":"ce4bgi12rcd13ifvqb70","pricing_plan_id":"cebpf4jnsgd1na2vs0mg"},{"bike_id":"17a218ae-0cbc-4023-80f0-9ffddf1324e3","system_id":"levelo_inurba_marseille","lat":43.26044,"lon":5.39787,"is_reserved":false,"is_disabled":false,"rental_uris":{"android":"levelo://app?vid=17a218ae-0cbc-4023-80f0-9ffddf1324e3","ios":"levelo://app?vid=17a218ae-0cbc-4023-80f0-9ffddf1324e3"},"vehicle_type_id":"4","last_reported":1776846217,"current_range_meters":4800,"station_id":"","pricing_plan_id":"cebpf4jnsgd1na2vs0mg"},{"bike_id":"f8886bac-06e6-4f4e-b567-d0f4cd2b25d3","system_id":"levelo_inurba_marseille","lat":43.2749,"lon":5.42443,"is_reserved":false,"is_disabled":true,"rental_uris":{"android":"levelo://app?vid=f8886bac-06e6-4f4e-b567-d0f4cd2b25d3","ios":"levelo://app?vid=f8886bac-06e6-4f4e-b567-d0f4cd2b25d3"},"vehicle_type_id":"4","last_reported":1776846217,"current_range_meters":4800,"station_id":"ce4bhn92rcd13ifvqgrg","pricing_plan_id":"cebpf4jnsgd1na2vs0mg"},{"bike_id":"415e0658-223c-4fe0-abd1-f3287f2893c2","system_id":"levelo_inurba_marseille","lat":43.31913,"lon":5.36812,"is_reserved":false,"is_disabled":false,"rental_uris":{"android":"levelo://app?vid=415e0658-223c-4fe0-abd1-f3287f2893c2","ios":"levelo://app?vid=415e0658-223c-4fe0-abd1-f3287f2893c2"},"vehicle_type_id":"4","last_reported":1776846217,"current_range_meters":4800,"station_id":"st_d6o2h0d0559c73evc1b0","pricing_plan_id":"cebpf4jnsgd1na2vs0mg"},{"bike_id":"fa67c282-4320-4694-9944-d25f35222a9c","system_id":"levelo_inurba_marseille","lat":43.30878,"lon":5.37197,"is_reserved":false,"is_disabled":false,"rental_uris":{"android":"levelo://app?vid=fa67c282-4320-4694-9944-d25f35222a9c","ios":"levelo://app?vid=fa67c282-4320-4694-9944-d25f35222a9c"},"vehicle_type_id":"4","last_reported":1776846217,"current_range_meters":4800,"station_id":"ce4bguh2rcd13ifvqckg","pricing_plan_id":"cebpf4jnsgd1na2vs0mg"},{"bike_id":"04d9f990-ead5-466c-adb0-472dbaea3d8d","system_id":"levelo_inurba_marseille","lat":43.26805,"lon":5.40267,"is_reserved":false,"is_disabled":false,"rental_uris":{"android":"levelo://app?vid=04d9f990-ead5-466c-adb0-472dbaea3d8d","ios":"levelo://app?vid=04d9f990-ead5-466c-adb0-472dbaea3d8d"},"vehicle_type_id":"4","last_reported":1776846217,"current_range_meters":4800,"station_id":"ce501612rcd8frsf0b60","pricing_plan_id":"cebpf4jnsgd1na2vs0mg"},{"bike_id":"65e45c12-87d5-4317-974f-69f1aef0f736","system_id":"levelo_inurba_marseille","lat":43.29934,"lon":5.36539,"is_reserved":false,"is_disabled":false,"rental_uris":{"android":"levelo://app?vid=65e45c12-87d5-4317-974f-69f1aef0f736","ios":"levelo://app?vid=65e45c12-87d5-4317-974f-69f1aef0f736"},"vehicle_type_id":"4","last_reported":1776846217,"current_range_meters":4800,"station_id":"ce4bgm92rcd13ifvqbr0","pricing_plan_id":"cebpf4jnsgd1na2vs0mg"},{"bike_id":"f7b8aa0c-5116-41ea-af12-4cff32db0f30","system_id":"levelo_inurba_marseille","lat":43.29645,"lon":5.37691,"is_reserved":false,"is_disabled":false,"rental_uris":{"android":"levelo://app?vid=f7b8aa0c-5116-41ea-af12-4cff32db0f30","ios":"levelo://app?vid=f7b8aa0c-5116-41ea-af12-4cff32db0f30"},"vehicle_type_id":"4","last_reported":1776846217,"current_range_meters":4800,"station_id":"ce4bgi92rcd13ifvqb90","pricing_plan_id":"cebpf4jnsgd1na2vs0mg"},{"bike_id":"ef91534f-0d0e-4809-9a35-4375555ab2b5","system_id":"levelo_inurba_marseille","lat":43.31926,"lon":5.36804,"is_reserved":false,"is_disabled":false,"rental_uris":{"android":"levelo://app?vid=ef91534f-0d0e-4809-9a35-4375555ab2b5","ios":"levelo://app?vid=ef91534f-0d0e-4809-9a35-4375555ab2b5"},"vehicle_type_id":"4","last_reported":1776846217,"current_range_meters":4800,"station_id":"st_d6o2h0d0559c73evc1b0","pricing_plan_id":"cebpf4jnsgd1na2vs0mg"},{"bike_id":"4dd90c3a-c53a-454b-ad3a-8e2561f63203","system_id":"levelo_inurba_marseille","lat":43.312301,"lon":5.36869,"is_reserved":false,"is_disabled":false,"rental_uris":{"android":"levelo://app?vid=4dd90c3a-c53a-454b-ad3a-8e2561f63203","ios":"levelo://app?vid=4dd90c3a-c53a-454b-ad3a-8e2561f63203"},"vehicle_type_id":"4","last_reported":1776846217,"current_range_meters":4800,"station_id":"","pricing_plan_id":"cebpf4jnsgd1na2vs0mg"},{"bike_id":"d0e220b8-26c6-4649-85da-36389bb1c0c1","system_id":"levelo_inurba_marseille","lat":43.30115,"lon":5.43113,"is_reserved":false,"is_disabled":false,"rental_uris":{"android":"levelo://app?vid=d0e220b8-26c6-4649-85da-36389bb1c0c1","ios":"levelo://app?vid=d0e220b8-26c6-4649-85da-36389bb1c0c1"},"vehicle_type_id":"4","last_reported":1776846217,"current_range_meters":4800,"station_id":"st_d3js3co5814s73ftftug","pricing_plan_id":"cebpf4jnsgd1na2vs0mg"},{"bike_id":"2d40a836-133e-4df4-8e94-64278280c4e2","system_id":"levelo_inurba_marseille","lat":43.28475,"lon":5.48393,"is_reserved":false,"is_disabled":false,"rental_uris":{"android":"levelo://app?vid=2d40a836-133e-4df4-8e94-64278280c4e2","ios":"levelo://app?vid=2d40a836-133e-4df4-8e94-64278280c4e2"},"vehicle_type_id":"4","last_reported":1776846217,"current_range_meters":4800,"station_id":"","pricing_plan_id":"cebpf4jnsgd1na2vs0mg"},{"bike_id":"b79dabe7-3b43-4999-bc7f-510b5ebe7b35","system_id":"levelo_inurba_marseille","lat":43.33166,"lon":5.37669,"is_reserved":false,"is_disabled":false,"rental_uris":{"android":"levelo://app?vid=b79dabe7-3b43-4999-bc7f-510b5ebe7b35","ios":"levelo://app?vid=b79dabe7-3b43-4999-bc7f-510b5ebe7b35"},"vehicle_type_id":"4","last_reported":1776846217,"current_range_meters":4800,"station_id":"st_d46cu089ee8s73dldbu0","pricing_plan_id":"cebpf4jnsgd1na2vs0mg"},{"bike_id":"53398df8-835b-4ed2-bf08-039bd71fda25","system_id":"levelo_inurba_marseille","lat":43.25928,"lon":5.38592,"is_reserved":false,"is_disabled":false,"rental_uris":{"android":"levelo://app?vid=53398df8-835b-4ed2-bf08-039bd71fda25","ios":"levelo://app?vid=53398df8-835b-4ed2-bf08-039bd71fda25"},"vehicle_type_id":"4","last_reported":1776846217,"current_range_meters":5600,"station_id":"","pricing_plan_id":"cebpf4jnsgd1na2vs0mg"},{"bike_id":"d9b51e5d-81a2-43b1-af29-6cd054e46381","system_id":"levelo_inurba_marseille","lat":43.27315,"lon":5.39072,"is_reserved":false,"is_disabled":false,"rental_uris":{"android":"levelo://app?vid=d9b51e5d-81a2-43b1-af29-6cd054e46381","ios":"levelo://app?vid=d9b51e5d-81a2-43b1-af29-6cd054e46381"},"vehicle_type_id":"4","last_reported":1776846217,"current_range_meters":5600,"station_id":"ce4bhgp2rcd13ifvqfe0","pricing_plan_id":"cebpf4jnsgd1na2vs0mg"},{"bike_id":"e84eb726-9c74-4a4b-be02-5d5f9968392a","system_id":"levelo_inurba_marseille","lat":43.30566,"lon":5.36553,"is_reserved":false,"is_disabled":false,"rental_uris":{"android":"levelo://app?vid=e84eb726-9c74-4a4b-be02-5d5f9968392a","ios":"levelo://app?vid=e84eb726-9c74-4a4b-be02-5d5f9968392a"},"vehicle_type_id":"4","last_reported":1776846217,"current_range_meters":5600,"station_id":"ce4bgs12rcd13ifvqcag","pricing_plan_id":"cebpf4jnsgd1na2vs0mg"},{"bike_id":"909929ad-6150-4e90-9010-fc5021f6e58c","system_id":"levelo_inurba_marseille","lat":43.27219,"lon":5.40099,"is_reserved":false,"is_disabled":false,"rental_uris":{"android":"levelo://app?vid=909929ad-6150-4e90-9010-fc5021f6e58c","ios":"levelo://app?vid=909929ad-6150-4e90-9010-fc5021f6e58c"},"vehicle_type_id":"4","last_reported":1776846217,"current_range_meters":6000,"station_id":"","pricing_plan_id":"cebpf4jnsgd1na2vs0mg"},{"bike_id":"37eae820-b39c-4a10-b9f1-bbf6af567e33","system_id":"levelo_inurba_marseille","lat":43.29605,"lon":5.37722,"is_reserved":false,"is_disabled":false,"rental_uris":{"android":"levelo://app?vid=37eae820-b39c-4a10-b9f1-bbf6af567e33","ios":"levelo://app?vid=37eae820-b39c-4a10-b9f1-bbf6af567e33"},"vehicle_type_id":"4","last_reported":1776846217,"current_range_meters":6000,"station_id":"ce4bgi92rcd13ifvqb90","pricing_plan_id":"cebpf4jnsgd1na2vs0mg"},{"bike_id":"0cf9c7d1-4ff6-4885-afdb-1945ed4e0993","system_id":"levelo_inurba_marseille","lat":43.29643,"lon":5.40584,"is_reserved":false,"is_disabled":true,"rental_uris":{"android":"levelo://app?vid=0cf9c7d1-4ff6-4885-afdb-1945ed4e0993","ios":"levelo://app?vid=0cf9c7d1-4ff6-4885-afdb-1945ed4e0993"},"vehicle_type_id":"4","last_reported":1776846217,"current_range_meters":6000,"station_id":"ce4bh0h2rcd13ifvqd60","pricing_plan_id":"cebpf4jnsgd1na2vs0mg"},{"bike_id":"aaa9bcab-2e99-4917-8217-8ba8dd906366","system_id":"levelo_inurba_marseille","lat":43.28701,"lon":5.37931,"is_reserved":false,"is_disabled":false,"rental_uris":{"android":"levelo://app?vid=aaa9bcab-2e99-4917-8217-8ba8dd906366","ios":"levelo://app?vid=aaa9bcab-2e99-4917-8217-8ba8dd906366"},"vehicle_type_id":"4","last_reported":1776846217,"current_range_meters":6000,"station_id":"ce4bh9p2rcd13ifvqec0","pricing_plan_id":"cebpf4jnsgd1na2vs0mg"},{"bike_id":"ba1bb3ca-1879-4a4a-8d73-adaa9b997cfc","system_id":"levelo_inurba_marseille","lat":43.27216,"lon":5.39171,"is_reserved":false,"is_disabled":false,"rental_uris":{"android":"levelo://app?vid=ba1bb3ca-1879-4a4a-8d73-adaa9b997cfc","ios":"levelo://app?vid=ba1bb3ca-1879-4a4a-8d73-adaa9b997cfc"},"vehicle_type_id":"4","last_reported":1776846217,"current_range_meters":6000,"station_id":"ce4bhhp2rcd13ifvqfm0","pricing_plan_id":"cebpf4jnsgd1na2vs0mg"},{"bike_id":"3a696f3b-cb93-42f6-97fb-27cfcc82f5e5","system_id":"levelo_inurba_marseille","lat":43.3037,"lon":5.42484,"is_reserved":false,"is_disabled":false,"rental_uris":{"android":"levelo://app?vid=3a696f3b-cb93-42f6-97fb-27cfcc82f5e5","ios":"levelo://app?vid=3a696f3b-cb93-42f6-97fb-27cfcc82f5e5"},"vehicle_type_id":"4","last_reported":1776846217,"current_range_meters":6000,"station_id":"ce4bhoh2rcd13ifvqh6g","pricing_plan_id":"cebpf4jnsgd1na2vs0mg"},{"bike_id":"69904aa1-60b2-4195-a1ba-9cd611f8d3ea","system_id":"levelo_inurba_marseille","lat":43.29842,"lon":5.36273,"is_reserved":false,"is_disabled":false,"rental_uris":{"android":"levelo://app?vid=69904aa1-60b2-4195-a1ba-9cd611f8d3ea","ios":"levelo://app?vid=69904aa1-60b2-4195-a1ba-9cd611f8d3ea"},"vehicle_type_id":"4","last_reported":1776846217,"current_range_meters":6000,"station_id":"ce4bgpp2rcd13ifvqc3g","pricing_plan_id":"cebpf4jnsgd1na2vs0mg"},{"bike_id":"dcea024f-97b1-48db-99db-04932a6072bf","system_id":"levelo_inurba_marseille","lat":43.30543,"lon":5.36702,"is_reserved":false,"is_disabled":false,"rental_uris":{"android":"levelo://app?vid=dcea024f-97b1-48db-99db-04932a6072bf","ios":"levelo://app?vid=dcea024f-97b1-48db-99db-04932a6072bf"},"vehicle_type_id":"4","last_reported":1776846217,"current_range_meters":6400,"station_id":"ce4bgrp2rcd13ifvqc9g","pricing_plan_id":"cebpf4jnsgd1na2vs0mg"},{"bike_id":"af8a1ef7-3bce-462c-8983-73c0060888a3","system_id":"levelo_inurba_marseille","lat":43.29024,"lon":5.38123,"is_reserved":false,"is_disabled":true,"rental_uris":{"android":"levelo://app?vid=af8a1ef7-3bce-462c-8983-73c0060888a3","ios":"levelo://app?vid=af8a1ef7-3bce-462c-8983-73c0060888a3"},"vehicle_type_id":"4","last_reported":1776846217,"current_range_meters":6400,"station_id":"ce4bh4p2rcd13ifvqe1g","pricing_plan_id":"cebpf4jnsgd1na2vs0mg"},{"bike_id":"a569b2de-9f86-4587-9f18-489017634274","system_id":"levelo_inurba_marseille","lat":43.29044,"lon":5.35923,"is_reserved":false,"is_disabled":false,"rental_uris":{"android":"levelo://app?vid=a569b2de-9f86-4587-9f18-489017634274","ios":"levelo://app?vid=a569b2de-9f86-4587-9f18-489017634274"},"vehicle_type_id":"4","last_reported":1776846217,"current_range_meters":6400,"station_id":"ce4bha92rcd13ifvqeg0","pricing_plan_id":"cebpf4jnsgd1na2vs0mg"},{"bike_id":"d9be86bb-6c4e-4c05-bc60-e02431cbb916","system_id":"levelo_inurba_marseille","lat":43.31901,"lon":5.36805,"is_reserved":false,"is_disabled":false,"rental_uris":{"android":"levelo://app?vid=d9be86bb-6c4e-4c05-bc60-e02431cbb916","ios":"levelo://app?vid=d9be86bb-6c4e-4c05-bc60-e02431cbb916"},"vehicle_type_id":"4","last_reported":1776846217,"current_range_meters":6400,"station_id":"st_d6o2h0d0559c73evc1b0","pricing_plan_id":"cebpf4jnsgd1na2vs0mg"},{"bike_id":"3448f0f4-d448-4b78-8559-0a980538ebbf","system_id":"levelo_inurba_marseille","lat":43.29487,"lon":5.43308,"is_reserved":false,"is_disabled":false,"rental_uris":{"android":"levelo://app?vid=3448f0f4-d448-4b78-8559-0a980538ebbf","ios":"levelo://app?vid=3448f0f4-d448-4b78-8559-0a980538ebbf"},"vehicle_type_id":"4","last_reported":1776846217,"current_range_meters":6400,"station_id":"st_d3j5ugp08ojc73fj9d10","pricing_plan_id":"cebpf4jnsgd1na2vs0mg"},{"bike_id":"5dca9a8e-83e7-4e4f-baef-b39340f4d785","system_id":"levelo_inurba_marseille","lat":43.29573,"lon":5.39965,"is_reserved":false,"is_disabled":true,"rental_uris":{"android":"levelo://app?vid=5dca9a8e-83e7-4e4f-baef-b39340f4d785","ios":"levelo://app?vid=5dca9a8e-83e7-4e4f-baef-b39340f4d785"},"vehicle_type_id":"4","last_reported":1776846217,"current_range_meters":6400,"station_id":"ce4bh312rcd13ifvqdj0","pricing_plan_id":"cebpf4jnsgd1na2vs0mg"},{"bike_id":"259873a5-a1ea-41b3-8200-d0477284c8f2","system_id":"levelo_inurba_marseille","lat":43.28533,"lon":5.44095,"is_reserved":false,"is_disabled":false,"rental_uris":{"android":"levelo://app?vid=259873a5-a1ea-41b3-8200-d0477284c8f2","ios":"levelo://app?vid=259873a5-a1ea-41b3-8200-d0477284c8f2"},"vehicle_type_id":"4","last_reported":1776846217,"current_range_meters":6400,"station_id":"st_d3j3df2ikq2c7380ej80","pricing_plan_id":"cebpf4jnsgd1na2vs0mg"},{"bike_id":"882e84be-aff7-44fe-8e03-e10b9edfe543","system_id":"levelo_inurba_marseille","lat":43.29798,"lon":5.38107,"is_reserved":false,"is_disabled":true,"rental_uris":{"android":"levelo://app?vid=882e84be-aff7-44fe-8e03-e10b9edfe543","ios":"levelo://app?vid=882e84be-aff7-44fe-8e03-e10b9edfe543"},"vehicle_type_id":"4","last_reported":1776846217,"current_range_meters":6400,"station_id":"","pricing_plan_id":"cebpf4jnsgd1na2vs0mg"},{"bike_id":"9722310c-fef7-48fb-ab23-f20467cb2e54","system_id":"levelo_inurba_marseille","lat":43.31314,"lon":5.36809,"is_reserved":false,"is_disabled":false,"rental_uris":{"android":"levelo://app?vid=9722310c-fef7-48fb-ab23-f20467cb2e54","ios":"levelo://app?vid=9722310c-fef7-48fb-ab23-f20467cb2e54"},"vehicle_type_id":"4","last_reported":1776846217,"current_range_meters":6800,"station_id":"","pricing_plan_id":"cebpf4jnsgd1na2vs0mg"},{"bike_id":"283c8d6a-0748-4da7-abf0-9b33fa13f363","system_id":"levelo_inurba_marseille","lat":43.30943,"lon":5.39021,"is_reserved":false,"is_disabled":false,"rental_uris":{"android":"levelo://app?vid=283c8d6a-0748-4da7-abf0-9b33fa13f363","ios":"levelo://app?vid=283c8d6a-0748-4da7-abf0-9b33fa13f363"},"vehicle_type_id":"4","last_reported":1776846217,"current_range_meters":6800,"station_id":"ce4bgup2rcd13ifvqco0","pricing_plan_id":"cebpf4jnsgd1na2vs0mg"},{"bike_id":"a7020a93-7c00-4fec-b1a2-4f1670bbc6d7","system_id":"levelo_inurba_marseille","lat":43.23831,"lon":5.41328,"is_reserved":false,"is_disabled":false,"rental_uris":{"android":"levelo://app?vid=a7020a93-7c00-4fec-b1a2-4f1670bbc6d7","ios":"levelo://app?vid=a7020a93-7c00-4fec-b1a2-4f1670bbc6d7"},"vehicle_type_id":"4","last_reported":1776846217,"current_range_meters":6800,"station_id":"","pricing_plan_id":"cebpf4jnsgd1na2vs0mg"},{"bike_id":"f3bfc620-e85c-452a-808d-e396fddf4a67","system_id":"levelo_inurba_marseille","lat":43.23191,"lon":5.40003,"is_reserved":false,"is_disabled":false,"rental_uris":{"android":"levelo://app?vid=f3bfc620-e85c-452a-808d-e396fddf4a67","ios":"levelo://app?vid=f3bfc620-e85c-452a-808d-e396fddf4a67"},"vehicle_type_id":"4","last_reported":1776846217,"current_range_meters":6800,"station_id":"ce4bhn12rcd13ifvqgqg","pricing_plan_id":"cebpf4jnsgd1na2vs0mg"},{"bike_id":"d204400f-8745-41a5-b8f3-30b0d4c8bfb2","system_id":"levelo_inurba_marseille","lat":43.31885,"lon":5.36822,"is_reserved":false,"is_disabled":false,"rental_uris":{"android":"levelo://app?vid=d204400f-8745-41a5-b8f3-30b0d4c8bfb2","ios":"levelo://app?vid=d204400f-8745-41a5-b8f3-30b0d4c8bfb2"},"vehicle_type_id":"4","last_reported":1776846217,"current_range_meters":6800,"station_id":"st_d6o2h0d0559c73evc1b0","pricing_plan_id":"cebpf4jnsgd1na2vs0mg"},{"bike_id":"195a9f94-4c4f-42e5-94ac-b1c04d0c9303","system_id":"levelo_inurba_marseille","lat":43.2953,"lon":5.38549,"is_reserved":false,"is_disabled":false,"rental_uris":{"android":"levelo://app?vid=195a9f94-4c4f-42e5-94ac-b1c04d0c9303","ios":"levelo://app?vid=195a9f94-4c4f-42e5-94ac-b1c04d0c9303"},"vehicle_type_id":"4","last_reported":1776846217,"current_range_meters":6800,"station_id":"ce4bgih2rcd13ifvqba0","pricing_plan_id":"cebpf4jnsgd1na2vs0mg"},{"bike_id":"3819c873-b5ac-4cae-921e-1b0cad2b097a","system_id":"levelo_inurba_marseille","lat":43.31361,"lon":5.36743,"is_reserved":false,"is_disabled":false,"rental_uris":{"android":"levelo://app?vid=3819c873-b5ac-4cae-921e-1b0cad2b097a","ios":"levelo://app?vid=3819c873-b5ac-4cae-921e-1b0cad2b097a"},"vehicle_type_id":"4","last_reported":1776846217,"current_range_meters":6800,"station_id":"ce4bgr92rcd13ifvqc6g","pricing_plan_id":"cebpf4jnsgd1na2vs0mg"},{"bike_id":"a5932d33-7fe4-4ab5-ab73-558a4a420627","system_id":"levelo_inurba_marseille","lat":43.24453,"lon":5.40043,"is_reserved":false,"is_disabled":false,"rental_uris":{"android":"levelo://app?vid=a5932d33-7fe4-4ab5-ab73-558a4a420627","ios":"levelo://app?vid=a5932d33-7fe4-4ab5-ab73-558a4a420627"},"vehicle_type_id":"4","last_reported":1776846217,"current_range_meters":6800,"station_id":"","pricing_plan_id":"cebpf4jnsgd1na2vs0mg"},{"bike_id":"2949880e-4f93-47ac-82b5-7db8bd268a34","system_id":"levelo_inurba_marseille","lat":43.30458,"lon":5.37914,"is_reserved":false,"is_disabled":false,"rental_uris":{"android":"levelo://app?vid=2949880e-4f93-47ac-82b5-7db8bd268a34","ios":"levelo://app?vid=2949880e-4f93-47ac-82b5-7db8bd268a34"},"vehicle_type_id":"4","last_reported":1776846217,"current_range_meters":6800,"station_id":"ce4bgup2rcd13ifvqcn0","pricing_plan_id":"cebpf4jnsgd1na2vs0mg"},{"bike_id":"badf4622-8d39-4c6d-8e74-cdbf9e168f9d","system_id":"levelo_inurba_marseille","lat":43.25124,"lon":5.40308,"is_reserved":false,"is_disabled":false,"rental_uris":{"android":"levelo://app?vid=badf4622-8d39-4c6d-8e74-cdbf9e168f9d","ios":"levelo://app?vid=badf4622-8d39-4c6d-8e74-cdbf9e168f9d"},"vehicle_type_id":"4","last_reported":1776846217,"current_range_meters":7200,"station_id":"ce4bhlh2rcd13ifvqgig","pricing_plan_id":"cebpf4jnsgd1na2vs0mg"},{"bike_id":"be5c4907-57d0-4c67-8ff7-ac26938c6076","system_id":"levelo_inurba_marseille","lat":43.28263,"lon":5.40683,"is_reserved":false,"is_disabled":false,"rental_uris":{"android":"levelo://app?vid=be5c4907-57d0-4c67-8ff7-ac26938c6076","ios":"levelo://app?vid=be5c4907-57d0-4c67-8ff7-ac26938c6076"},"vehicle_type_id":"4","last_reported":1776846217,"current_range_meters":7200,"station_id":"","pricing_plan_id":"cebpf4jnsgd1na2vs0mg"},{"bike_id":"156a9278-c7f8-442d-9b54-2a52d275e0c5","system_id":"levelo_inurba_marseille","lat":43.28622,"lon":5.35083,"is_reserved":false,"is_disabled":true,"rental_uris":{"android":"levelo://app?vid=156a9278-c7f8-442d-9b54-2a52d275e0c5","ios":"levelo://app?vid=156a9278-c7f8-442d-9b54-2a52d275e0c5"},"vehicle_type_id":"4","last_reported":1776846217,"current_range_meters":7200,"station_id":"ce4bhch2rcd13ifvqeug","pricing_plan_id":"cebpf4jnsgd1na2vs0mg"},{"bike_id":"e71cd18f-fdfc-4d78-b959-d4775bce4b51","system_id":"levelo_inurba_marseille","lat":43.28272,"lon":5.35066,"is_reserved":false,"is_disabled":false,"rental_uris":{"android":"levelo://app?vid=e71cd18f-fdfc-4d78-b959-d4775bce4b51","ios":"levelo://app?vid=e71cd18f-fdfc-4d78-b959-d4775bce4b51"},"vehicle_type_id":"4","last_reported":1776846217,"current_range_meters":7200,"station_id":"ce4bhbp2rcd13ifvqerg","pricing_plan_id":"cebpf4jnsgd1na2vs0mg"},{"bike_id":"23e040b3-35fa-4a67-8573-225c26842a52","system_id":"levelo_inurba_marseille","lat":43.29581,"lon":5.3752,"is_reserved":false,"is_disabled":false,"rental_uris":{"android":"levelo://app?vid=23e040b3-35fa-4a67-8573-225c26842a52","ios":"levelo://app?vid=23e040b3-35fa-4a67-8573-225c26842a52"},"vehicle_type_id":"4","last_reported":1776846217,"current_range_meters":7200,"station_id":"ce4bgh92rcd13ifvqb50","pricing_plan_id":"cebpf4jnsgd1na2vs0mg"},{"bike_id":"8194a0ff-2824-43c5-8a22-527fdaa0a136","system_id":"levelo_inurba_marseille","lat":43.27336,"lon":5.40756,"is_reserved":false,"is_disabled":false,"rental_uris":{"android":"levelo://app?vid=8194a0ff-2824-43c5-8a22-527fdaa0a136","ios":"levelo://app?vid=8194a0ff-2824-43c5-8a22-527fdaa0a136"},"vehicle_type_id":"4","last_reported":1776846217,"current_range_meters":7200,"station_id":"","pricing_plan_id":"cebpf4jnsgd1na2vs0mg"},{"bike_id":"b96727fb-fa52-44ab-847a-281a9a9755b2","system_id":"levelo_inurba_marseille","lat":43.24998,"lon":5.38916,"is_reserved":false,"is_disabled":false,"rental_uris":{"android":"levelo://app?vid=b96727fb-fa52-44ab-847a-281a9a9755b2","ios":"levelo://app?vid=b96727fb-fa52-44ab-847a-281a9a9755b2"},"vehicle_type_id":"4","last_reported":1776846217,"current_range_meters":7200,"station_id":"ce4bhgp2rcd13ifvqfd0","pricing_plan_id":"cebpf4jnsgd1na2vs0mg"},{"bike_id":"e9caef37-2ff2-45bd-8dd6-3eaecaa5256f","system_id":"levelo_inurba_marseille","lat":43.29039,"lon":5.37578,"is_reserved":false,"is_disabled":false,"rental_uris":{"android":"levelo://app?vid=e9caef37-2ff2-45bd-8dd6-3eaecaa5256f","ios":"levelo://app?vid=e9caef37-2ff2-45bd-8dd6-3eaecaa5256f"},"vehicle_type_id":"4","last_reported":1776846217,"current_range_meters":7200,"station_id":"ce4bh692rcd13ifvqe90","pricing_plan_id":"cebpf4jnsgd1na2vs0mg"},{"bike_id":"422e278e-2c8a-4b1f-bb04-debae7fe1583","system_id":"levelo_inurba_marseille","lat":43.29633,"lon":5.37706,"is_reserved":false,"is_disabled":false,"rental_uris":{"android":"levelo://app?vid=422e278e-2c8a-4b1f-bb04-debae7fe1583","ios":"levelo://app?vid=422e278e-2c8a-4b1f-bb04-debae7fe1583"},"vehicle_type_id":"4","last_reported":1776846217,"current_range_meters":7200,"station_id":"ce4bgi92rcd13ifvqb90","pricing_plan_id":"cebpf4jnsgd1na2vs0mg"},{"bike_id":"44e78d66-6974-490b-b477-835e3bc74934","system_id":"levelo_inurba_marseille","lat":43.29038,"lon":5.39954,"is_reserved":false,"is_disabled":false,"rental_uris":{"android":"levelo://app?vid=44e78d66-6974-490b-b477-835e3bc74934","ios":"levelo://app?vid=44e78d66-6974-490b-b477-835e3bc74934"},"vehicle_type_id":"4","last_reported":1776846217,"current_range_meters":7200,"station_id":"ce4bh392rcd13ifvqdm0","pricing_plan_id":"cebpf4jnsgd1na2vs0mg"},{"bike_id":"beafb519-18ba-43f5-901e-4d2a35f80af8","system_id":"levelo_inurba_marseille","lat":43.24397,"lon":5.37087,"is_reserved":false,"is_disabled":false,"rental_uris":{"android":"levelo://app?vid=beafb519-18ba-43f5-901e-4d2a35f80af8","ios":"levelo://app?vid=beafb519-18ba-43f5-901e-4d2a35f80af8"},"vehicle_type_id":"4","last_reported":1776846217,"current_range_meters":7200,"station_id":"ce4bhhh2rcd13ifvqfk0","pricing_plan_id":"cebpf4jnsgd1na2vs0mg"},{"bike_id":"468b098b-8742-43b6-94e4-77df021ec20c","system_id":"levelo_inurba_marseille","lat":43.30741,"lon":5.42464,"is_reserved":false,"is_disabled":false,"rental_uris":{"android":"levelo://app?vid=468b098b-8742-43b6-94e4-77df021ec20c","ios":"levelo://app?vid=468b098b-8742-43b6-94e4-77df021ec20c"},"vehicle_type_id":"4","last_reported":1776846217,"current_range_meters":7200,"station_id":"st_cvj6ca6bvosntc0bfgr0","pricing_plan_id":"cebpf4jnsgd1na2vs0mg"},{"bike_id":"5edcc732-b03b-4194-a969-d8ea99ab50b5","system_id":"levelo_inurba_marseille","lat":43.24164,"lon":5.39702,"is_reserved":false,"is_disabled":false,"rental_uris":{"android":"levelo://app?vid=5edcc732-b03b-4194-a969-d8ea99ab50b5","ios":"levelo://app?vid=5edcc732-b03b-4194-a969-d8ea99ab50b5"},"vehicle_type_id":"4","last_reported":1776846217,"current_range_meters":7200,"station_id":"ce4bhn12rcd13ifvqgpg","pricing_plan_id":"cebpf4jnsgd1na2vs0mg"},{"bike_id":"bacd3fe4-f48a-4afe-8c9c-99f0f1f340a2","system_id":"levelo_inurba_marseille","lat":43.27499,"lon":5.42477,"is_reserved":false,"is_disabled":false,"rental_uris":{"android":"levelo://app?vid=bacd3fe4-f48a-4afe-8c9c-99f0f1f340a2","ios":"levelo://app?vid=bacd3fe4-f48a-4afe-8c9c-99f0f1f340a2"},"vehicle_type_id":"4","last_reported":1776846217,"current_range_meters":8000,"station_id":"ce4bhn92rcd13ifvqgrg","pricing_plan_id":"cebpf4jnsgd1na2vs0mg"},{"bike_id":"fc83597b-c92a-4d6b-9ec3-85cccb5b70a7","system_id":"levelo_inurba_marseille","lat":43.31941,"lon":5.36831,"is_reserved":false,"is_disabled":false,"rental_uris":{"android":"levelo://app?vid=fc83597b-c92a-4d6b-9ec3-85cccb5b70a7","ios":"levelo://app?vid=fc83597b-c92a-4d6b-9ec3-85cccb5b70a7"},"vehicle_type_id":"4","last_reported":1776846217,"current_range_meters":8000,"station_id":"","pricing_plan_id":"cebpf4jnsgd1na2vs0mg"},{"bike_id":"04257b95-4499-46e1-a4e3-88ab526291ba","system_id":"levelo_inurba_marseille","lat":43.28474,"lon":5.48403,"is_reserved":false,"is_disabled":false,"rental_uris":{"android":"levelo://app?vid=04257b95-4499-46e1-a4e3-88ab526291ba","ios":"levelo://app?vid=04257b95-4499-46e1-a4e3-88ab526291ba"},"vehicle_type_id":"4","last_reported":1776846217,"current_range_meters":8000,"station_id":"","pricing_plan_id":"cebpf4jnsgd1na2vs0mg"},{"bike_id":"ab441cdc-9cd1-4c8e-b69e-34bb46fece34","system_id":"levelo_inurba_marseille","lat":43.29391,"lon":5.363,"is_reserved":false,"is_disabled":false,"rental_uris":{"android":"levelo://app?vid=ab441cdc-9cd1-4c8e-b69e-34bb46fece34","ios":"levelo://app?vid=ab441cdc-9cd1-4c8e-b69e-34bb46fece34"},"vehicle_type_id":"4","last_reported":1776846217,"current_range_meters":8000,"station_id":"","pricing_plan_id":"cebpf4jnsgd1na2vs0mg"},{"bike_id":"42bc5912-9f51-49f0-a597-ebcfd7df5cbb","system_id":"levelo_inurba_marseille","lat":43.2971,"lon":5.36619,"is_reserved":false,"is_disabled":true,"rental_uris":{"android":"levelo://app?vid=42bc5912-9f51-49f0-a597-ebcfd7df5cbb","ios":"levelo://app?vid=42bc5912-9f51-49f0-a597-ebcfd7df5cbb"},"vehicle_type_id":"4","last_reported":1776846217,"current_range_meters":8000,"station_id":"ce4bgn12rcd13ifvqbt0","pricing_plan_id":"cebpf4jnsgd1na2vs0mg"},{"bike_id":"ff422c07-4472-471c-ab0d-dcb023acae97","system_id":"levelo_inurba_marseille","lat":43.30595,"lon":5.37207,"is_reserved":false,"is_disabled":false,"rental_uris":{"android":"levelo://app?vid=ff422c07-4472-471c-ab0d-dcb023acae97","ios":"levelo://app?vid=ff422c07-4472-471c-ab0d-dcb023acae97"},"vehicle_type_id":"4","last_reported":1776846217,"current_range_meters":8000,"station_id":"ce4bgqh2rcd13ifvqc4g","pricing_plan_id":"cebpf4jnsgd1na2vs0mg"},{"bike_id":"53ac9b94-d2b8-401a-8133-9009372f217e","system_id":"levelo_inurba_marseille","lat":43.28471,"lon":5.48391,"is_reserved":false,"is_disabled":false,"rental_uris":{"android":"levelo://app?vid=53ac9b94-d2b8-401a-8133-9009372f217e","ios":"levelo://app?vid=53ac9b94-d2b8-401a-8133-9009372f217e"},"vehicle_type_id":"4","last_reported":1776846217,"current_range_meters":8000,"station_id":"","pricing_plan_id":"cebpf4jnsgd1na2vs0mg"},{"bike_id":"51e7d8cf-63e3-43c5-b2d1-971f18e79ea6","system_id":"levelo_inurba_marseille","lat":43.30931,"lon":5.40151,"is_reserved":false,"is_disabled":true,"rental_uris":{"android":"levelo://app?vid=51e7d8cf-63e3-43c5-b2d1-971f18e79ea6","ios":"levelo://app?vid=51e7d8cf-63e3-43c5-b2d1-971f18e79ea6"},"vehicle_type_id":"4","last_reported":1776846217,"current_range_meters":8000,"station_id":"ce4bgvp2rcd13ifvqct0","pricing_plan_id":"cebpf4jnsgd1na2vs0mg"},{"bike_id":"c9c1a884-0494-49db-9628-0ceb15fdb145","system_id":"levelo_inurba_marseille","lat":43.30956,"lon":5.39072,"is_reserved":false,"is_disabled":false,"rental_uris":{"android":"levelo://app?vid=c9c1a884-0494-49db-9628-0ceb15fdb145","ios":"levelo://app?vid=c9c1a884-0494-49db-9628-0ceb15fdb145"},"vehicle_type_id":"4","last_reported":1776846217,"current_range_meters":8000,"station_id":"ce4bgup2rcd13ifvqco0","pricing_plan_id":"cebpf4jnsgd1na2vs0mg"},{"bike_id":"be5e5aab-0ce2-49df-8ebf-9b0940bcfc85","system_id":"levelo_inurba_marseille","lat":43.2465,"lon":5.38159,"is_reserved":false,"is_disabled":false,"rental_uris":{"android":"levelo://app?vid=be5e5aab-0ce2-49df-8ebf-9b0940bcfc85","ios":"levelo://app?vid=be5e5aab-0ce2-49df-8ebf-9b0940bcfc85"},"vehicle_type_id":"4","last_reported":1776846217,"current_range_meters":8000,"station_id":"ce4bhih2rcd13ifvqfr0","pricing_plan_id":"cebpf4jnsgd1na2vs0mg"},{"bike_id":"8039cb9a-48d0-4777-8a7e-f7f4b18a83eb","system_id":"levelo_inurba_marseille","lat":43.28861,"lon":5.42509,"is_reserved":false,"is_disabled":false,"rental_uris":{"android":"levelo://app?vid=8039cb9a-48d0-4777-8a7e-f7f4b18a83eb","ios":"levelo://app?vid=8039cb9a-48d0-4777-8a7e-f7f4b18a83eb"},"vehicle_type_id":"4","last_reported":1776846217,"current_range_meters":8000,"station_id":"st_d3b462108ojc7389ooeg","pricing_plan_id":"cebpf4jnsgd1na2vs0mg"},{"bike_id":"36d4b845-dc91-444c-8c71-647922599c31","system_id":"levelo_inurba_marseille","lat":43.30959,"lon":5.39033,"is_reserved":false,"is_disabled":false,"rental_uris":{"android":"levelo://app?vid=36d4b845-dc91-444c-8c71-647922599c31","ios":"levelo://app?vid=36d4b845-dc91-444c-8c71-647922599c31"},"vehicle_type_id":"4","last_reported":1776846217,"current_range_meters":8000,"station_id":"ce4bgup2rcd13ifvqco0","pricing_plan_id":"cebpf4jnsgd1na2vs0mg"},{"bike_id":"3e0baa1a-0bc1-439f-8032-8cb1d90de44c","system_id":"levelo_inurba_marseille","lat":43.30802,"lon":5.38149,"is_reserved":false,"is_disabled":false,"rental_uris":{"android":"levelo://app?vid=3e0baa1a-0bc1-439f-8032-8cb1d90de44c","ios":"levelo://app?vid=3e0baa1a-0bc1-439f-8032-8cb1d90de44c"},"vehicle_type_id":"4","last_reported":1776846217,"current_range_meters":8400,"station_id":"ce4bgt12rcd13ifvqce0","pricing_plan_id":"cebpf4jnsgd1na2vs0mg"},{"bike_id":"1c4db81e-e54e-450a-b910-a202dc639503","system_id":"levelo_inurba_marseille","lat":43.28471,"lon":5.48404,"is_reserved":false,"is_disabled":false,"rental_uris":{"android":"levelo://app?vid=1c4db81e-e54e-450a-b910-a202dc639503","ios":"levelo://app?vid=1c4db81e-e54e-450a-b910-a202dc639503"},"vehicle_type_id":"4","last_reported":1776846217,"current_range_meters":8400,"station_id":"","pricing_plan_id":"cebpf4jnsgd1na2vs0mg"},{"bike_id":"09459e4f-6410-45bd-8888-d29de1bd71b3","system_id":"levelo_inurba_marseille","lat":43.29041,"lon":5.39962,"is_reserved":false,"is_disabled":false,"rental_uris":{"android":"levelo://app?vid=09459e4f-6410-45bd-8888-d29de1bd71b3","ios":"levelo://app?vid=09459e4f-6410-45bd-8888-d29de1bd71b3"},"vehicle_type_id":"4","last_reported":1776846217,"current_range_meters":8400,"station_id":"ce4bh392rcd13ifvqdm0","pricing_plan_id":"cebpf4jnsgd1na2vs0mg"},{"bike_id":"73d436be-8bb5-400c-b5b8-edfd7e8d5913","system_id":"levelo_inurba_marseille","lat":43.337444,"lon":5.374475,"is_reserved":false,"is_disabled":false,"rental_uris":{"android":"levelo://app?vid=73d436be-8bb5-400c-b5b8-edfd7e8d5913","ios":"levelo://app?vid=73d436be-8bb5-400c-b5b8-edfd7e8d5913"},"vehicle_type_id":"4","last_reported":1776846217,"current_range_meters":8400,"station_id":"ce4bhgp2rcd13ifvqfc0","pricing_plan_id":"cebpf4jnsgd1na2vs0mg"},{"bike_id":"ac881409-e7c1-4dc7-868f-5470aa726fd2","system_id":"levelo_inurba_marseille","lat":43.29811,"lon":5.44063,"is_reserved":false,"is_disabled":false,"rental_uris":{"android":"levelo://app?vid=ac881409-e7c1-4dc7-868f-5470aa726fd2","ios":"levelo://app?vid=ac881409-e7c1-4dc7-868f-5470aa726fd2"},"vehicle_type_id":"4","last_reported":1776846217,"current_range_meters":8400,"station_id":"st_d3jp68qikq2c7381ktn0","pricing_plan_id":"cebpf4jnsgd1na2vs0mg"},{"bike_id":"50918bbe-8b4a-4832-b89d-ffef40c798ba","system_id":"levelo_inurba_marseille","lat":43.3235,"lon":5.3673,"is_reserved":false,"is_disabled":false,"rental_uris":{"android":"levelo://app?vid=50918bbe-8b4a-4832-b89d-ffef40c798ba","ios":"levelo://app?vid=50918bbe-8b4a-4832-b89d-ffef40c798ba"},"vehicle_type_id":"4","last_reported":1776846217,"current_range_meters":8400,"station_id":"ce4bhsh2rcd13ifvqi2g","pricing_plan_id":"cebpf4jnsgd1na2vs0mg"},{"bike_id":"c7ff1d8c-9f80-4101-92ef-2f0b68fb525f","system_id":"levelo_inurba_marseille","lat":43.27601,"lon":5.39514,"is_reserved":false,"is_disabled":false,"rental_uris":{"android":"levelo://app?vid=c7ff1d8c-9f80-4101-92ef-2f0b68fb525f","ios":"levelo://app?vid=c7ff1d8c-9f80-4101-92ef-2f0b68fb525f"},"vehicle_type_id":"4","last_reported":1776846217,"current_range_meters":8400,"station_id":"","pricing_plan_id":"cebpf4jnsgd1na2vs0mg"},{"bike_id":"36e7aa08-bcb4-4084-bd85-f41ade11c368","system_id":"levelo_inurba_marseille","lat":43.28868,"lon":5.42519,"is_reserved":false,"is_disabled":false,"rental_uris":{"android":"levelo://app?vid=36e7aa08-bcb4-4084-bd85-f41ade11c368","ios":"levelo://app?vid=36e7aa08-bcb4-4084-bd85-f41ade11c368"},"vehicle_type_id":"4","last_reported":1776846217,"current_range_meters":8400,"station_id":"st_d3b462108ojc7389ooeg","pricing_plan_id":"cebpf4jnsgd1na2vs0mg"},{"bike_id":"d1fda486-70ba-4609-b998-7713b50defe1","system_id":"levelo_inurba_marseille","lat":43.27054,"lon":5.40053,"is_reserved":false,"is_disabled":false,"rental_uris":{"android":"levelo://app?vid=d1fda486-70ba-4609-b998-7713b50defe1","ios":"levelo://app?vid=d1fda486-70ba-4609-b998-7713b50defe1"},"vehicle_type_id":"4","last_reported":1776846217,"current_range_meters":8400,"station_id":"","pricing_plan_id":"cebpf4jnsgd1na2vs0mg"},{"bike_id":"12d4166e-2b50-4206-bee8-a669b8ee33a0","system_id":"levelo_inurba_marseille","lat":43.31356,"lon":5.36699,"is_reserved":false,"is_disabled":false,"rental_uris":{"android":"levelo://app?vid=12d4166e-2b50-4206-bee8-a669b8ee33a0","ios":"levelo://app?vid=12d4166e-2b50-4206-bee8-a669b8ee33a0"},"vehicle_type_id":"4","last_reported":1776846217,"current_range_meters":8400,"station_id":"ce4bgr92rcd13ifvqc6g","pricing_plan_id":"cebpf4jnsgd1na2vs0mg"},{"bike_id":"a94d236d-eba8-4733-81ef-6d7a05120d94","system_id":"levelo_inurba_marseille","lat":43.24876,"lon":5.39419,"is_reserved":false,"is_disabled":false,"rental_uris":{"android":"levelo://app?vid=a94d236d-eba8-4733-81ef-6d7a05120d94","ios":"levelo://app?vid=a94d236d-eba8-4733-81ef-6d7a05120d94"},"vehicle_type_id":"4","last_reported":1776846217,"current_range_meters":8400,"station_id":"","pricing_plan_id":"cebpf4jnsgd1na2vs0mg"},{"bike_id":"747314a1-d922-494b-b494-5021441d8ddd","system_id":"levelo_inurba_marseille","lat":43.30552,"lon":5.36532,"is_reserved":false,"is_disabled":false,"rental_uris":{"android":"levelo://app?vid=747314a1-d922-494b-b494-5021441d8ddd","ios":"levelo://app?vid=747314a1-d922-494b-b494-5021441d8ddd"},"vehicle_type_id":"4","last_reported":1776846217,"current_range_meters":8400,"station_id":"ce4bgs12rcd13ifvqcag","pricing_plan_id":"cebpf4jnsgd1na2vs0mg"},{"bike_id":"97640678-22eb-456e-8a6b-8940edbd10ca","system_id":"levelo_inurba_marseille","lat":43.23919,"lon":5.41469,"is_reserved":false,"is_disabled":false,"rental_uris":{"android":"levelo://app?vid=97640678-22eb-456e-8a6b-8940edbd10ca","ios":"levelo://app?vid=97640678-22eb-456e-8a6b-8940edbd10ca"},"vehicle_type_id":"4","last_reported":1776846217,"current_range_meters":8400,"station_id":"","pricing_plan_id":"cebpf4jnsgd1na2vs0mg"},{"bike_id":"5c183b24-e94c-43aa-ae87-f9626d3b7cf3","system_id":"levelo_inurba_marseille","lat":43.32499,"lon":5.38283,"is_reserved":false,"is_disabled":false,"rental_uris":{"android":"levelo://app?vid=5c183b24-e94c-43aa-ae87-f9626d3b7cf3","ios":"levelo://app?vid=5c183b24-e94c-43aa-ae87-f9626d3b7cf3"},"vehicle_type_id":"4","last_reported":1776846217,"current_range_meters":8400,"station_id":"st_d4asgbiv49dc73anf9m0","pricing_plan_id":"cebpf4jnsgd1na2vs0mg"},{"bike_id":"e0e6a07f-23e1-4637-a09e-f939446f08c6","system_id":"levelo_inurba_marseille","lat":43.26681,"lon":5.3826,"is_reserved":false,"is_disabled":false,"rental_uris":{"android":"levelo://app?vid=e0e6a07f-23e1-4637-a09e-f939446f08c6","ios":"levelo://app?vid=e0e6a07f-23e1-4637-a09e-f939446f08c6"},"vehicle_type_id":"4","last_reported":1776846217,"current_range_meters":8400,"station_id":"ce4bhg92rcd13ifvqf90","pricing_plan_id":"cebpf4jnsgd1na2vs0mg"},{"bike_id":"82bcc0e6-14a4-4c90-93f5-0c68b5821945","system_id":"levelo_inurba_marseille","lat":43.286,"lon":5.39897,"is_reserved":false,"is_disabled":false,"rental_uris":{"android":"levelo://app?vid=82bcc0e6-14a4-4c90-93f5-0c68b5821945","ios":"levelo://app?vid=82bcc0e6-14a4-4c90-93f5-0c68b5821945"},"vehicle_type_id":"4","last_reported":1776846217,"current_range_meters":8400,"station_id":"st_d4a7ka997mjs738ck50g","pricing_plan_id":"cebpf4jnsgd1na2vs0mg"},{"bike_id":"1ab25768-bc23-4ea7-b3d9-cf825ed9a029","system_id":"levelo_inurba_marseille","lat":43.30907,"lon":5.36855,"is_reserved":false,"is_disabled":false,"rental_uris":{"android":"levelo://app?vid=1ab25768-bc23-4ea7-b3d9-cf825ed9a029","ios":"levelo://app?vid=1ab25768-bc23-4ea7-b3d9-cf825ed9a029"},"vehicle_type_id":"4","last_reported":1776846217,"current_range_meters":8400,"station_id":"ce4bgn92rcd13ifvqbvg","pricing_plan_id":"cebpf4jnsgd1na2vs0mg"},{"bike_id":"b255c82c-7d13-42b6-bf33-eaab1db77bce","system_id":"levelo_inurba_marseille","lat":43.30949,"lon":5.39029,"is_reserved":false,"is_disabled":false,"rental_uris":{"android":"levelo://app?vid=b255c82c-7d13-42b6-bf33-eaab1db77bce","ios":"levelo://app?vid=b255c82c-7d13-42b6-bf33-eaab1db77bce"},"vehicle_type_id":"4","last_reported":1776846217,"current_range_meters":8400,"station_id":"ce4bgup2rcd13ifvqco0","pricing_plan_id":"cebpf4jnsgd1na2vs0mg"},{"bike_id":"059b4ad8-665d-46df-9a3f-e9b9a20a1c99","system_id":"levelo_inurba_marseille","lat":43.33557,"lon":5.37461,"is_reserved":false,"is_disabled":false,"rental_uris":{"android":"levelo://app?vid=059b4ad8-665d-46df-9a3f-e9b9a20a1c99","ios":"levelo://app?vid=059b4ad8-665d-46df-9a3f-e9b9a20a1c99"},"vehicle_type_id":"4","last_reported":1776846217,"current_range_meters":8400,"station_id":"st_d46tts09ee8s73dlu43g","pricing_plan_id":"cebpf4jnsgd1na2vs0mg"},{"bike_id":"6ee75b1e-3389-452c-805f-052a7231f6b2","system_id":"levelo_inurba_marseille","lat":43.28868,"lon":5.42515,"is_reserved":false,"is_disabled":false,"rental_uris":{"android":"levelo://app?vid=6ee75b1e-3389-452c-805f-052a7231f6b2","ios":"levelo://app?vid=6ee75b1e-3389-452c-805f-052a7231f6b2"},"vehicle_type_id":"4","last_reported":1776846217,"current_range_meters":8800,"station_id":"st_d3b462108ojc7389ooeg","pricing_plan_id":"cebpf4jnsgd1na2vs0mg"},{"bike_id":"54158463-085c-499f-9d12-01f94070f32c","system_id":"levelo_inurba_marseille","lat":43.23797,"lon":5.36636,"is_reserved":false,"is_disabled":false,"rental_uris":{"android":"levelo://app?vid=54158463-085c-499f-9d12-01f94070f32c","ios":"levelo://app?vid=54158463-085c-499f-9d12-01f94070f32c"},"vehicle_type_id":"4","last_reported":1776846217,"current_range_meters":8800,"station_id":"st_d3nk18o9ro0c73en2l3g","pricing_plan_id":"cebpf4jnsgd1na2vs0mg"},{"bike_id":"0314d703-439a-4d24-aa77-23665c947c59","system_id":"levelo_inurba_marseille","lat":43.28967,"lon":5.37846,"is_reserved":false,"is_disabled":false,"rental_uris":{"android":"levelo://app?vid=0314d703-439a-4d24-aa77-23665c947c59","ios":"levelo://app?vid=0314d703-439a-4d24-aa77-23665c947c59"},"vehicle_type_id":"4","last_reported":1776846217,"current_range_meters":8800,"station_id":"ce4bh9p2rcd13ifvqed0","pricing_plan_id":"cebpf4jnsgd1na2vs0mg"},{"bike_id":"4b93ce64-eeff-4ea5-b6d7-5f4311a5471f","system_id":"levelo_inurba_marseille","lat":43.30532,"lon":5.36693,"is_reserved":false,"is_disabled":false,"rental_uris":{"android":"levelo://app?vid=4b93ce64-eeff-4ea5-b6d7-5f4311a5471f","ios":"levelo://app?vid=4b93ce64-eeff-4ea5-b6d7-5f4311a5471f"},"vehicle_type_id":"4","last_reported":1776846217,"current_range_meters":8800,"station_id":"ce4bgrp2rcd13ifvqc9g","pricing_plan_id":"cebpf4jnsgd1na2vs0mg"},{"bike_id":"a05bfb6f-02f3-41c0-be48-84958ecb07a4","system_id":"levelo_inurba_marseille","lat":43.25932,"lon":5.40918,"is_reserved":false,"is_disabled":false,"rental_uris":{"android":"levelo://app?vid=a05bfb6f-02f3-41c0-be48-84958ecb07a4","ios":"levelo://app?vid=a05bfb6f-02f3-41c0-be48-84958ecb07a4"},"vehicle_type_id":"4","last_reported":1776846217,"current_range_meters":8800,"station_id":"ce4bhm92rcd13ifvqglg","pricing_plan_id":"cebpf4jnsgd1na2vs0mg"},{"bike_id":"d3ded5dd-684f-4bcc-861a-76a959da5727","system_id":"levelo_inurba_marseille","lat":43.31358,"lon":5.36715,"is_reserved":false,"is_disabled":false,"rental_uris":{"android":"levelo://app?vid=d3ded5dd-684f-4bcc-861a-76a959da5727","ios":"levelo://app?vid=d3ded5dd-684f-4bcc-861a-76a959da5727"},"vehicle_type_id":"4","last_reported":1776846217,"current_range_meters":8800,"station_id":"ce4bgr92rcd13ifvqc6g","pricing_plan_id":"cebpf4jnsgd1na2vs0mg"},{"bike_id":"12d1ddb5-1e2c-4b2d-a0d4-dafdec917212","system_id":"levelo_inurba_marseille","lat":43.28485,"lon":5.484,"is_reserved":false,"is_disabled":false,"rental_uris":{"android":"levelo://app?vid=12d1ddb5-1e2c-4b2d-a0d4-dafdec917212","ios":"levelo://app?vid=12d1ddb5-1e2c-4b2d-a0d4-dafdec917212"},"vehicle_type_id":"4","last_reported":1776846217,"current_range_meters":8800,"station_id":"","pricing_plan_id":"cebpf4jnsgd1na2vs0mg"},{"bike_id":"923b87f1-b066-476c-9dac-fbfbdd7a8e12","system_id":"levelo_inurba_marseille","lat":43.27692,"lon":5.39425,"is_reserved":false,"is_disabled":false,"rental_uris":{"android":"levelo://app?vid=923b87f1-b066-476c-9dac-fbfbdd7a8e12","ios":"levelo://app?vid=923b87f1-b066-476c-9dac-fbfbdd7a8e12"},"vehicle_type_id":"4","last_reported":1776846217,"current_range_meters":8800,"station_id":"","pricing_plan_id":"cebpf4jnsgd1na2vs0mg"},{"bike_id":"bd13bc00-12c5-4da2-91ea-ddbdc11a15b7","system_id":"levelo_inurba_marseille","lat":43.28538,"lon":5.40193,"is_reserved":false,"is_disabled":false,"rental_uris":{"android":"levelo://app?vid=bd13bc00-12c5-4da2-91ea-ddbdc11a15b7","ios":"levelo://app?vid=bd13bc00-12c5-4da2-91ea-ddbdc11a15b7"},"vehicle_type_id":"4","last_reported":1776846217,"current_range_meters":8800,"station_id":"","pricing_plan_id":"cebpf4jnsgd1na2vs0mg"},{"bike_id":"13e8a1fb-acbf-4743-869e-4ec5f0dc6c5b","system_id":"levelo_inurba_marseille","lat":43.27066,"lon":5.42277,"is_reserved":false,"is_disabled":false,"rental_uris":{"android":"levelo://app?vid=13e8a1fb-acbf-4743-869e-4ec5f0dc6c5b","ios":"levelo://app?vid=13e8a1fb-acbf-4743-869e-4ec5f0dc6c5b"},"vehicle_type_id":"4","last_reported":1776846217,"current_range_meters":8800,"station_id":"ce4bhk92rcd13ifvqgb0","pricing_plan_id":"cebpf4jnsgd1na2vs0mg"},{"bike_id":"2ac15ea7-1904-4a69-9f5e-f4cb7754354f","system_id":"levelo_inurba_marseille","lat":43.24088,"lon":5.37758,"is_reserved":false,"is_disabled":false,"rental_uris":{"android":"levelo://app?vid=2ac15ea7-1904-4a69-9f5e-f4cb7754354f","ios":"levelo://app?vid=2ac15ea7-1904-4a69-9f5e-f4cb7754354f"},"vehicle_type_id":"4","last_reported":1776846217,"current_range_meters":8800,"station_id":"ce4bhnp2rcd13ifvqgvg","pricing_plan_id":"cebpf4jnsgd1na2vs0mg"},{"bike_id":"cfcc8dcf-6816-46a1-945d-fdf5ccf50752","system_id":"levelo_inurba_marseille","lat":43.30933,"lon":5.4118,"is_reserved":false,"is_disabled":false,"rental_uris":{"android":"levelo://app?vid=cfcc8dcf-6816-46a1-945d-fdf5ccf50752","ios":"levelo://app?vid=cfcc8dcf-6816-46a1-945d-fdf5ccf50752"},"vehicle_type_id":"4","last_reported":1776846217,"current_range_meters":8800,"station_id":"","pricing_plan_id":"cebpf4jnsgd1na2vs0mg"},{"bike_id":"4ec0d99f-069f-4343-a14e-06b28059e112","system_id":"levelo_inurba_marseille","lat":43.31342,"lon":5.36727,"is_reserved":false,"is_disabled":false,"rental_uris":{"android":"levelo://app?vid=4ec0d99f-069f-4343-a14e-06b28059e112","ios":"levelo://app?vid=4ec0d99f-069f-4343-a14e-06b28059e112"},"vehicle_type_id":"4","last_reported":1776846217,"current_range_meters":8800,"station_id":"ce4bgr92rcd13ifvqc6g","pricing_plan_id":"cebpf4jnsgd1na2vs0mg"},{"bike_id":"5e8a1310-65dc-40be-9df6-afc9b211b2fc","system_id":"levelo_inurba_marseille","lat":43.30456,"lon":5.37912,"is_reserved":false,"is_disabled":false,"rental_uris":{"android":"levelo://app?vid=5e8a1310-65dc-40be-9df6-afc9b211b2fc","ios":"levelo://app?vid=5e8a1310-65dc-40be-9df6-afc9b211b2fc"},"vehicle_type_id":"4","last_reported":1776846217,"current_range_meters":8800,"station_id":"ce4bgup2rcd13ifvqcn0","pricing_plan_id":"cebpf4jnsgd1na2vs0mg"},{"bike_id":"5b422ce3-c685-4d66-8b20-e5016b2d27a5","system_id":"levelo_inurba_marseille","lat":43.29194,"lon":5.35796,"is_reserved":false,"is_disabled":false,"rental_uris":{"android":"levelo://app?vid=5b422ce3-c685-4d66-8b20-e5016b2d27a5","ios":"levelo://app?vid=5b422ce3-c685-4d66-8b20-e5016b2d27a5"},"vehicle_type_id":"4","last_reported":1776846217,"current_range_meters":9200,"station_id":"ce4bhb12rcd13ifvqel0","pricing_plan_id":"cebpf4jnsgd1na2vs0mg"},{"bike_id":"b0292b57-bc6e-4d3d-855f-2c85d8c85123","system_id":"levelo_inurba_marseille","lat":43.29321,"lon":5.36256,"is_reserved":false,"is_disabled":false,"rental_uris":{"android":"levelo://app?vid=b0292b57-bc6e-4d3d-855f-2c85d8c85123","ios":"levelo://app?vid=b0292b57-bc6e-4d3d-855f-2c85d8c85123"},"vehicle_type_id":"4","last_reported":1776846217,"current_range_meters":9200,"station_id":"","pricing_plan_id":"cebpf4jnsgd1na2vs0mg"},{"bike_id":"f9f4dea5-fb5a-48a1-a672-5e571cae2d66","system_id":"levelo_inurba_marseille","lat":43.30139,"lon":5.38098,"is_reserved":false,"is_disabled":false,"rental_uris":{"android":"levelo://app?vid=f9f4dea5-fb5a-48a1-a672-5e571cae2d66","ios":"levelo://app?vid=f9f4dea5-fb5a-48a1-a672-5e571cae2d66"},"vehicle_type_id":"4","last_reported":1776846217,"current_range_meters":9200,"station_id":"ce4bgjp2rcd13ifvqbh0","pricing_plan_id":"cebpf4jnsgd1na2vs0mg"},{"bike_id":"b2875641-c480-4604-b654-e4a99d4cd09b","system_id":"levelo_inurba_marseille","lat":43.28486,"lon":5.38414,"is_reserved":false,"is_disabled":false,"rental_uris":{"android":"levelo://app?vid=b2875641-c480-4604-b654-e4a99d4cd09b","ios":"levelo://app?vid=b2875641-c480-4604-b654-e4a99d4cd09b"},"vehicle_type_id":"4","last_reported":1776846217,"current_range_meters":9200,"station_id":"ce4bh512rcd13ifvqe3g","pricing_plan_id":"cebpf4jnsgd1na2vs0mg"},{"bike_id":"16f7fe35-694a-4eb9-9cc6-4679694d07e2","system_id":"levelo_inurba_marseille","lat":43.3125,"lon":5.37929,"is_reserved":false,"is_disabled":false,"rental_uris":{"android":"levelo://app?vid=16f7fe35-694a-4eb9-9cc6-4679694d07e2","ios":"levelo://app?vid=16f7fe35-694a-4eb9-9cc6-4679694d07e2"},"vehicle_type_id":"4","last_reported":1776846217,"current_range_meters":9200,"station_id":"","pricing_plan_id":"cebpf4jnsgd1na2vs0mg"},{"bike_id":"b07df4a8-3a84-4a6f-8930-a25b3ebe2fc3","system_id":"levelo_inurba_marseille","lat":43.3102,"lon":5.37718,"is_reserved":false,"is_disabled":false,"rental_uris":{"android":"levelo://app?vid=b07df4a8-3a84-4a6f-8930-a25b3ebe2fc3","ios":"levelo://app?vid=b07df4a8-3a84-4a6f-8930-a25b3ebe2fc3"},"vehicle_type_id":"4","last_reported":1776846217,"current_range_meters":9200,"station_id":"","pricing_plan_id":"cebpf4jnsgd1na2vs0mg"},{"bike_id":"226ece2b-87fc-494b-b9b1-29d4f3a23456","system_id":"levelo_inurba_marseille","lat":43.28334,"lon":5.42663,"is_reserved":false,"is_disabled":false,"rental_uris":{"android":"levelo://app?vid=226ece2b-87fc-494b-b9b1-29d4f3a23456","ios":"levelo://app?vid=226ece2b-87fc-494b-b9b1-29d4f3a23456"},"vehicle_type_id":"4","last_reported":1776846217,"current_range_meters":9200,"station_id":"","pricing_plan_id":"cebpf4jnsgd1na2vs0mg"},{"bike_id":"f8d46f57-68ae-42a5-9479-ae67d8834276","system_id":"levelo_inurba_marseille","lat":43.29997,"lon":5.37069,"is_reserved":false,"is_disabled":false,"rental_uris":{"android":"levelo://app?vid=f8d46f57-68ae-42a5-9479-ae67d8834276","ios":"levelo://app?vid=f8d46f57-68ae-42a5-9479-ae67d8834276"},"vehicle_type_id":"4","last_reported":1776846217,"current_range_meters":9200,"station_id":"","pricing_plan_id":"cebpf4jnsgd1na2vs0mg"},{"bike_id":"6b23908a-27fc-400a-b1b6-9daa8d6ab014","system_id":"levelo_inurba_marseille","lat":43.33707,"lon":5.39819,"is_reserved":false,"is_disabled":false,"rental_uris":{"android":"levelo://app?vid=6b23908a-27fc-400a-b1b6-9daa8d6ab014","ios":"levelo://app?vid=6b23908a-27fc-400a-b1b6-9daa8d6ab014"},"vehicle_type_id":"4","last_reported":1776846217,"current_range_meters":9200,"station_id":"","pricing_plan_id":"cebpf4jnsgd1na2vs0mg"},{"bike_id":"b4f74c97-3f91-4820-ad7f-9c6dd916e9f6","system_id":"levelo_inurba_marseille","lat":43.31352,"lon":5.36717,"is_reserved":false,"is_disabled":false,"rental_uris":{"android":"levelo://app?vid=b4f74c97-3f91-4820-ad7f-9c6dd916e9f6","ios":"levelo://app?vid=b4f74c97-3f91-4820-ad7f-9c6dd916e9f6"},"vehicle_type_id":"4","last_reported":1776846217,"current_range_meters":9200,"station_id":"ce4bgr92rcd13ifvqc6g","pricing_plan_id":"cebpf4jnsgd1na2vs0mg"},{"bike_id":"feed4a04-c5ce-43b3-ad36-3ec210ca31bb","system_id":"levelo_inurba_marseille","lat":43.26537,"lon":5.37306,"is_reserved":false,"is_disabled":false,"rental_uris":{"android":"levelo://app?vid=feed4a04-c5ce-43b3-ad36-3ec210ca31bb","ios":"levelo://app?vid=feed4a04-c5ce-43b3-ad36-3ec210ca31bb"},"vehicle_type_id":"4","last_reported":1776846217,"current_range_meters":9200,"station_id":"ce4bhg12rcd13ifvqf70","pricing_plan_id":"cebpf4jnsgd1na2vs0mg"},{"bike_id":"2a043756-cf7b-4982-be3f-7f5485ea3789","system_id":"levelo_inurba_marseille","lat":43.29503,"lon":5.38757,"is_reserved":false,"is_disabled":false,"rental_uris":{"android":"levelo://app?vid=2a043756-cf7b-4982-be3f-7f5485ea3789","ios":"levelo://app?vid=2a043756-cf7b-4982-be3f-7f5485ea3789"},"vehicle_type_id":"4","last_reported":1776846217,"current_range_meters":9600,"station_id":"","pricing_plan_id":"cebpf4jnsgd1na2vs0mg"},{"bike_id":"6f061c2d-e294-44c5-a556-1fdc3d57ab50","system_id":"levelo_inurba_marseille","lat":43.31701,"lon":5.40477,"is_reserved":false,"is_disabled":false,"rental_uris":{"android":"levelo://app?vid=6f061c2d-e294-44c5-a556-1fdc3d57ab50","ios":"levelo://app?vid=6f061c2d-e294-44c5-a556-1fdc3d57ab50"},"vehicle_type_id":"4","last_reported":1776846217,"current_range_meters":9600,"station_id":"ce4bh012rcd13ifvqd00","pricing_plan_id":"cebpf4jnsgd1na2vs0mg"},{"bike_id":"0a3f04e7-cf02-4e3f-b938-54cbd3c1d649","system_id":"levelo_inurba_marseille","lat":43.29856,"lon":5.36279,"is_reserved":false,"is_disabled":false,"rental_uris":{"android":"levelo://app?vid=0a3f04e7-cf02-4e3f-b938-54cbd3c1d649","ios":"levelo://app?vid=0a3f04e7-cf02-4e3f-b938-54cbd3c1d649"},"vehicle_type_id":"4","last_reported":1776846217,"current_range_meters":9600,"station_id":"ce4bgpp2rcd13ifvqc3g","pricing_plan_id":"cebpf4jnsgd1na2vs0mg"},{"bike_id":"d6f0718b-772c-4ed1-b53c-ac520f7ff322","system_id":"levelo_inurba_marseille","lat":43.30151,"lon":5.38083,"is_reserved":false,"is_disabled":false,"rental_uris":{"android":"levelo://app?vid=d6f0718b-772c-4ed1-b53c-ac520f7ff322","ios":"levelo://app?vid=d6f0718b-772c-4ed1-b53c-ac520f7ff322"},"vehicle_type_id":"4","last_reported":1776846217,"current_range_meters":9600,"station_id":"ce4bgjp2rcd13ifvqbh0","pricing_plan_id":"cebpf4jnsgd1na2vs0mg"},{"bike_id":"a53ca8dd-6661-4e2c-b703-27d0bb7c3113","system_id":"levelo_inurba_marseille","lat":43.29166,"lon":5.3714,"is_reserved":false,"is_disabled":false,"rental_uris":{"android":"levelo://app?vid=a53ca8dd-6661-4e2c-b703-27d0bb7c3113","ios":"levelo://app?vid=a53ca8dd-6661-4e2c-b703-27d0bb7c3113"},"vehicle_type_id":"4","last_reported":1776846217,"current_range_meters":9600,"station_id":"ce4bha92rcd13ifvqeh0","pricing_plan_id":"cebpf4jnsgd1na2vs0mg"},{"bike_id":"09012acd-7e2a-4e46-b00e-3df38d87fafc","system_id":"levelo_inurba_marseille","lat":43.24859,"lon":5.4065,"is_reserved":false,"is_disabled":false,"rental_uris":{"android":"levelo://app?vid=09012acd-7e2a-4e46-b00e-3df38d87fafc","ios":"levelo://app?vid=09012acd-7e2a-4e46-b00e-3df38d87fafc"},"vehicle_type_id":"4","last_reported":1776846217,"current_range_meters":9600,"station_id":"","pricing_plan_id":"cebpf4jnsgd1na2vs0mg"},{"bike_id":"3e36abd9-8c82-4c8b-91e5-0723067a4e7e","system_id":"levelo_inurba_marseille","lat":43.29631,"lon":5.37153,"is_reserved":false,"is_disabled":false,"rental_uris":{"android":"levelo://app?vid=3e36abd9-8c82-4c8b-91e5-0723067a4e7e","ios":"levelo://app?vid=3e36abd9-8c82-4c8b-91e5-0723067a4e7e"},"vehicle_type_id":"4","last_reported":1776846217,"current_range_meters":9600,"station_id":"ce4bgnh2rcd13ifvqc0g","pricing_plan_id":"cebpf4jnsgd1na2vs0mg"},{"bike_id":"f073afee-cba8-40f3-8cbe-a4d3aba602f4","system_id":"levelo_inurba_marseille","lat":43.28275,"lon":5.35066,"is_reserved":false,"is_disabled":true,"rental_uris":{"android":"levelo://app?vid=f073afee-cba8-40f3-8cbe-a4d3aba602f4","ios":"levelo://app?vid=f073afee-cba8-40f3-8cbe-a4d3aba602f4"},"vehicle_type_id":"4","last_reported":1776846217,"current_range_meters":9600,"station_id":"ce4bhbp2rcd13ifvqerg","pricing_plan_id":"cebpf4jnsgd1na2vs0mg"},{"bike_id":"9fb54bca-ba88-4da0-9bed-a5b2efdfb47c","system_id":"levelo_inurba_marseille","lat":43.30306,"lon":5.36857,"is_reserved":false,"is_disabled":false,"rental_uris":{"android":"levelo://app?vid=9fb54bca-ba88-4da0-9bed-a5b2efdfb47c","ios":"levelo://app?vid=9fb54bca-ba88-4da0-9bed-a5b2efdfb47c"},"vehicle_type_id":"4","last_reported":1776846217,"current_range_meters":9600,"station_id":"ce4bgqh2rcd13ifvqc5g","pricing_plan_id":"cebpf4jnsgd1na2vs0mg"},{"bike_id":"0de7df04-d8b3-4067-877f-601c2822cd0f","system_id":"levelo_inurba_marseille","lat":43.2972,"lon":5.37696,"is_reserved":false,"is_disabled":false,"rental_uris":{"android":"levelo://app?vid=0de7df04-d8b3-4067-877f-601c2822cd0f","ios":"levelo://app?vid=0de7df04-d8b3-4067-877f-601c2822cd0f"},"vehicle_type_id":"4","last_reported":1776846217,"current_range_meters":9600,"station_id":"ce4bgkh2rcd13ifvqbl0","pricing_plan_id":"cebpf4jnsgd1na2vs0mg"},{"bike_id":"1c21b5e4-18ba-4d77-b990-0019b8294ddb","system_id":"levelo_inurba_marseille","lat":43.26549,"lon":5.39657,"is_reserved":false,"is_disabled":false,"rental_uris":{"android":"levelo://app?vid=1c21b5e4-18ba-4d77-b990-0019b8294ddb","ios":"levelo://app?vid=1c21b5e4-18ba-4d77-b990-0019b8294ddb"},"vehicle_type_id":"4","last_reported":1776846217,"current_range_meters":9600,"station_id":"","pricing_plan_id":"cebpf4jnsgd1na2vs0mg"},{"bike_id":"7af19307-88ba-4f26-8f95-a2adf190dff7","system_id":"levelo_inurba_marseille","lat":43.30422,"lon":5.4008,"is_reserved":false,"is_disabled":false,"rental_uris":{"android":"levelo://app?vid=7af19307-88ba-4f26-8f95-a2adf190dff7","ios":"levelo://app?vid=7af19307-88ba-4f26-8f95-a2adf190dff7"},"vehicle_type_id":"4","last_reported":1776846217,"current_range_meters":9600,"station_id":"","pricing_plan_id":"cebpf4jnsgd1na2vs0mg"},{"bike_id":"a56889e7-37d7-487e-a661-9c8461fe50da","system_id":"levelo_inurba_marseille","lat":43.30902,"lon":5.36846,"is_reserved":false,"is_disabled":false,"rental_uris":{"android":"levelo://app?vid=a56889e7-37d7-487e-a661-9c8461fe50da","ios":"levelo://app?vid=a56889e7-37d7-487e-a661-9c8461fe50da"},"vehicle_type_id":"4","last_reported":1776846217,"current_range_meters":9600,"station_id":"ce4bgn92rcd13ifvqbvg","pricing_plan_id":"cebpf4jnsgd1na2vs0mg"},{"bike_id":"c4ce6f17-ac36-4f95-9d2a-b2f1cc934876","system_id":"levelo_inurba_marseille","lat":43.26366,"lon":5.41079,"is_reserved":false,"is_disabled":false,"rental_uris":{"android":"levelo://app?vid=c4ce6f17-ac36-4f95-9d2a-b2f1cc934876","ios":"levelo://app?vid=c4ce6f17-ac36-4f95-9d2a-b2f1cc934876"},"vehicle_type_id":"4","last_reported":1776846217,"current_range_meters":9600,"station_id":"st_d4e5ca6na9uc73bfl5fg","pricing_plan_id":"cebpf4jnsgd1na2vs0mg"},{"bike_id":"0d8738c8-efd5-4f83-bedf-81eb9a1d6096","system_id":"levelo_inurba_marseille","lat":43.33166,"lon":5.36172,"is_reserved":false,"is_disabled":false,"rental_uris":{"android":"levelo://app?vid=0d8738c8-efd5-4f83-bedf-81eb9a1d6096","ios":"levelo://app?vid=0d8738c8-efd5-4f83-bedf-81eb9a1d6096"},"vehicle_type_id":"4","last_reported":1776846217,"current_range_meters":9600,"station_id":"","pricing_plan_id":"cebpf4jnsgd1na2vs0mg"},{"bike_id":"fb495226-2c6e-4c6b-b095-ab9f9fc7ab62","system_id":"levelo_inurba_marseille","lat":43.26202,"lon":5.37919,"is_reserved":false,"is_disabled":false,"rental_uris":{"android":"levelo://app?vid=fb495226-2c6e-4c6b-b095-ab9f9fc7ab62","ios":"levelo://app?vid=fb495226-2c6e-4c6b-b095-ab9f9fc7ab62"},"vehicle_type_id":"4","last_reported":1776846217,"current_range_meters":9600,"station_id":"ce4bhjp2rcd13ifvqg90","pricing_plan_id":"cebpf4jnsgd1na2vs0mg"},{"bike_id":"7c2d4cbd-4710-4158-8d5e-3ef9174bf26f","system_id":"levelo_inurba_marseille","lat":43.28134,"lon":5.42273,"is_reserved":false,"is_disabled":true,"rental_uris":{"android":"levelo://app?vid=7c2d4cbd-4710-4158-8d5e-3ef9174bf26f","ios":"levelo://app?vid=7c2d4cbd-4710-4158-8d5e-3ef9174bf26f"},"vehicle_type_id":"4","last_reported":1776846217,"current_range_meters":9600,"station_id":"","pricing_plan_id":"cebpf4jnsgd1na2vs0mg"},{"bike_id":"25931435-472d-4946-9b9a-fc67e50f018d","system_id":"levelo_inurba_marseille","lat":43.2303,"lon":5.44476,"is_reserved":false,"is_disabled":false,"rental_uris":{"android":"levelo://app?vid=25931435-472d-4946-9b9a-fc67e50f018d","ios":"levelo://app?vid=25931435-472d-4946-9b9a-fc67e50f018d"},"vehicle_type_id":"4","last_reported":1776846217,"current_range_meters":9600,"station_id":"","pricing_plan_id":"cebpf4jnsgd1na2vs0mg"},{"bike_id":"772652df-39a3-4a7d-ab76-86683fdc6511","system_id":"levelo_inurba_marseille","lat":43.28888,"lon":5.36857,"is_reserved":false,"is_disabled":false,"rental_uris":{"android":"levelo://app?vid=772652df-39a3-4a7d-ab76-86683fdc6511","ios":"levelo://app?vid=772652df-39a3-4a7d-ab76-86683fdc6511"},"vehicle_type_id":"4","last_reported":1776846217,"current_range_meters":9600,"station_id":"","pricing_plan_id":"cebpf4jnsgd1na2vs0mg"},{"bike_id":"0afa6f25-3789-426c-9c47-3f14c5d58b41","system_id":"levelo_inurba_marseille","lat":43.26191,"lon":5.37453,"is_reserved":false,"is_disabled":true,"rental_uris":{"android":"levelo://app?vid=0afa6f25-3789-426c-9c47-3f14c5d58b41","ios":"levelo://app?vid=0afa6f25-3789-426c-9c47-3f14c5d58b41"},"vehicle_type_id":"4","last_reported":1776846217,"current_range_meters":10000,"station_id":"ce4bhgp2rcd13ifvqfc0","pricing_plan_id":"cebpf4jnsgd1na2vs0mg"},{"bike_id":"9d915dd2-9581-4939-a738-eb00946df007","system_id":"levelo_inurba_marseille","lat":43.26209,"lon":5.37922,"is_reserved":false,"is_disabled":false,"rental_uris":{"android":"levelo://app?vid=9d915dd2-9581-4939-a738-eb00946df007","ios":"levelo://app?vid=9d915dd2-9581-4939-a738-eb00946df007"},"vehicle_type_id":"4","last_reported":1776846217,"current_range_meters":10000,"station_id":"ce4bhjp2rcd13ifvqg90","pricing_plan_id":"cebpf4jnsgd1na2vs0mg"},{"bike_id":"3f50794c-c430-4b89-94ad-5c0aa9eea65c","system_id":"levelo_inurba_marseille","lat":43.27833,"lon":5.4071,"is_reserved":false,"is_disabled":true,"rental_uris":{"android":"levelo://app?vid=3f50794c-c430-4b89-94ad-5c0aa9eea65c","ios":"levelo://app?vid=3f50794c-c430-4b89-94ad-5c0aa9eea65c"},"vehicle_type_id":"4","last_reported":1776846217,"current_range_meters":10000,"station_id":"ce4bhnh2rcd13ifvqgtg","pricing_plan_id":"cebpf4jnsgd1na2vs0mg"},{"bike_id":"6ffc15b8-1554-41c5-bb1b-9ba599c4e6bd","system_id":"levelo_inurba_marseille","lat":43.28147,"lon":5.36364,"is_reserved":false,"is_disabled":false,"rental_uris":{"android":"levelo://app?vid=6ffc15b8-1554-41c5-bb1b-9ba599c4e6bd","ios":"levelo://app?vid=6ffc15b8-1554-41c5-bb1b-9ba599c4e6bd"},"vehicle_type_id":"4","last_reported":1776846217,"current_range_meters":10000,"station_id":"","pricing_plan_id":"cebpf4jnsgd1na2vs0mg"},{"bike_id":"c9d6a56c-612e-42dd-97a2-0ec073bd10b6","system_id":"levelo_inurba_marseille","lat":43.30419,"lon":5.41286,"is_reserved":false,"is_disabled":true,"rental_uris":{"android":"levelo://app?vid=c9d6a56c-612e-42dd-97a2-0ec073bd10b6","ios":"levelo://app?vid=c9d6a56c-612e-42dd-97a2-0ec073bd10b6"},"vehicle_type_id":"4","last_reported":1776846217,"current_range_meters":10000,"station_id":"","pricing_plan_id":"cebpf4jnsgd1na2vs0mg"},{"bike_id":"500638d0-cf5c-4061-b413-99b5dc6f2377","system_id":"levelo_inurba_marseille","lat":43.27439,"lon":5.42475,"is_reserved":false,"is_disabled":false,"rental_uris":{"android":"levelo://app?vid=500638d0-cf5c-4061-b413-99b5dc6f2377","ios":"levelo://app?vid=500638d0-cf5c-4061-b413-99b5dc6f2377"},"vehicle_type_id":"4","last_reported":1776846217,"current_range_meters":10000,"station_id":"","pricing_plan_id":"cebpf4jnsgd1na2vs0mg"},{"bike_id":"97ef517c-a3ac-4c23-a634-ba556e45220a","system_id":"levelo_inurba_marseille","lat":43.29637,"lon":5.37157,"is_reserved":false,"is_disabled":false,"rental_uris":{"android":"levelo://app?vid=97ef517c-a3ac-4c23-a634-ba556e45220a","ios":"levelo://app?vid=97ef517c-a3ac-4c23-a634-ba556e45220a"},"vehicle_type_id":"4","last_reported":1776846217,"current_range_meters":10000,"station_id":"ce4bgnh2rcd13ifvqc0g","pricing_plan_id":"cebpf4jnsgd1na2vs0mg"},{"bike_id":"0d30d1ee-6910-4aa6-9fbb-9e4f13b5fea9","system_id":"levelo_inurba_marseille","lat":43.32093,"lon":5.36812,"is_reserved":false,"is_disabled":false,"rental_uris":{"android":"levelo://app?vid=0d30d1ee-6910-4aa6-9fbb-9e4f13b5fea9","ios":"levelo://app?vid=0d30d1ee-6910-4aa6-9fbb-9e4f13b5fea9"},"vehicle_type_id":"4","last_reported":1776846217,"current_range_meters":10000,"station_id":"ce4bhrh2rcd13ifvqhug","pricing_plan_id":"cebpf4jnsgd1na2vs0mg"},{"bike_id":"32fd39c8-747f-4e51-ab12-cdc3c3974430","system_id":"levelo_inurba_marseille","lat":43.27912,"lon":5.39566,"is_reserved":false,"is_disabled":false,"rental_uris":{"android":"levelo://app?vid=32fd39c8-747f-4e51-ab12-cdc3c3974430","ios":"levelo://app?vid=32fd39c8-747f-4e51-ab12-cdc3c3974430"},"vehicle_type_id":"4","last_reported":1776846217,"current_range_meters":10000,"station_id":"ce4bhf92rcd13ifvqf40","pricing_plan_id":"cebpf4jnsgd1na2vs0mg"},{"bike_id":"c0adfae4-9449-43eb-969c-7250a1d11591","system_id":"levelo_inurba_marseille","lat":43.2588,"lon":5.40941,"is_reserved":false,"is_disabled":false,"rental_uris":{"android":"levelo://app?vid=c0adfae4-9449-43eb-969c-7250a1d11591","ios":"levelo://app?vid=c0adfae4-9449-43eb-969c-7250a1d11591"},"vehicle_type_id":"4","last_reported":1776846217,"current_range_meters":10000,"station_id":"ce4bhm92rcd13ifvqglg","pricing_plan_id":"cebpf4jnsgd1na2vs0mg"},{"bike_id":"cb74c37c-0349-47b3-85df-080ebdd748d7","system_id":"levelo_inurba_marseille","lat":43.26772,"lon":5.37496,"is_reserved":false,"is_disabled":false,"rental_uris":{"android":"levelo://app?vid=cb74c37c-0349-47b3-85df-080ebdd748d7","ios":"levelo://app?vid=cb74c37c-0349-47b3-85df-080ebdd748d7"},"vehicle_type_id":"4","last_reported":1776846217,"current_range_meters":10000,"station_id":"","pricing_plan_id":"cebpf4jnsgd1na2vs0mg"},{"bike_id":"76f79e84-4e82-417e-b9f7-586af1328d81","system_id":"levelo_inurba_marseille","lat":43.24587,"lon":5.42095,"is_reserved":false,"is_disabled":false,"rental_uris":{"android":"levelo://app?vid=76f79e84-4e82-417e-b9f7-586af1328d81","ios":"levelo://app?vid=76f79e84-4e82-417e-b9f7-586af1328d81"},"vehicle_type_id":"4","last_reported":1776846217,"current_range_meters":10000,"station_id":"","pricing_plan_id":"cebpf4jnsgd1na2vs0mg"},{"bike_id":"f1e17ef2-58da-4c6a-aab7-1db097bb104c","system_id":"levelo_inurba_marseille","lat":43.27085,"lon":5.36315,"is_reserved":false,"is_disabled":true,"rental_uris":{"android":"levelo://app?vid=f1e17ef2-58da-4c6a-aab7-1db097bb104c","ios":"levelo://app?vid=f1e17ef2-58da-4c6a-aab7-1db097bb104c"},"vehicle_type_id":"4","last_reported":1776846217,"current_range_meters":10000,"station_id":"","pricing_plan_id":"cebpf4jnsgd1na2vs0mg"},{"bike_id":"c196994c-5fc4-40ae-9a40-dd553c13c77b","system_id":"levelo_inurba_marseille","lat":43.31215,"lon":5.3691,"is_reserved":false,"is_disabled":false,"rental_uris":{"android":"levelo://app?vid=c196994c-5fc4-40ae-9a40-dd553c13c77b","ios":"levelo://app?vid=c196994c-5fc4-40ae-9a40-dd553c13c77b"},"vehicle_type_id":"4","last_reported":1776846217,"current_range_meters":10000,"station_id":"ce4bgl92rcd13ifvqbq0","pricing_plan_id":"cebpf4jnsgd1na2vs0mg"},{"bike_id":"dc7147ac-dbec-4cec-9368-a4559240fe68","system_id":"levelo_inurba_marseille","lat":43.24318,"lon":5.38517,"is_reserved":false,"is_disabled":false,"rental_uris":{"android":"levelo://app?vid=dc7147ac-dbec-4cec-9368-a4559240fe68","ios":"levelo://app?vid=dc7147ac-dbec-4cec-9368-a4559240fe68"},"vehicle_type_id":"4","last_reported":1776846217,"current_range_meters":10000,"station_id":"","pricing_plan_id":"cebpf4jnsgd1na2vs0mg"},{"bike_id":"608fa9b0-9a88-453f-a7e7-35fdba098462","system_id":"levelo_inurba_marseille","lat":43.25573,"lon":5.38224,"is_reserved":false,"is_disabled":false,"rental_uris":{"android":"levelo://app?vid=608fa9b0-9a88-453f-a7e7-35fdba098462","ios":"levelo://app?vid=608fa9b0-9a88-453f-a7e7-35fdba098462"},"vehicle_type_id":"4","last_reported":1776846217,"current_range_meters":10800,"station_id":"ce4bhih2rcd13ifvqfs0","pricing_plan_id":"cebpf4jnsgd1na2vs0mg"},{"bike_id":"41d5f6c1-06ec-4683-af0e-380e4b3dfc5d","system_id":"levelo_inurba_marseille","lat":43.33755,"lon":5.37434,"is_reserved":false,"is_disabled":false,"rental_uris":{"android":"levelo://app?vid=41d5f6c1-06ec-4683-af0e-380e4b3dfc5d","ios":"levelo://app?vid=41d5f6c1-06ec-4683-af0e-380e4b3dfc5d"},"vehicle_type_id":"4","last_reported":1776846217,"current_range_meters":10800,"station_id":"","pricing_plan_id":"cebpf4jnsgd1na2vs0mg"},{"bike_id":"bf2a9420-01b1-4fa6-8cfb-6a413e6e2a7a","system_id":"levelo_inurba_marseille","lat":43.30946,"lon":5.39032,"is_reserved":false,"is_disabled":false,"rental_uris":{"android":"levelo://app?vid=bf2a9420-01b1-4fa6-8cfb-6a413e6e2a7a","ios":"levelo://app?vid=bf2a9420-01b1-4fa6-8cfb-6a413e6e2a7a"},"vehicle_type_id":"4","last_reported":1776846217,"current_range_meters":10800,"station_id":"ce4bgup2rcd13ifvqco0","pricing_plan_id":"cebpf4jnsgd1na2vs0mg"},{"bike_id":"205eefac-f379-49f9-b02e-ad048a493b05","system_id":"levelo_inurba_marseille","lat":43.27107,"lon":5.42557,"is_reserved":false,"is_disabled":false,"rental_uris":{"android":"levelo://app?vid=205eefac-f379-49f9-b02e-ad048a493b05","ios":"levelo://app?vid=205eefac-f379-49f9-b02e-ad048a493b05"},"vehicle_type_id":"4","last_reported":1776846217,"current_range_meters":10800,"station_id":"","pricing_plan_id":"cebpf4jnsgd1na2vs0mg"},{"bike_id":"b355dfe6-6158-4f35-8d0c-89ff716d9ded","system_id":"levelo_inurba_marseille","lat":43.29031,"lon":5.3996,"is_reserved":false,"is_disabled":false,"rental_uris":{"android":"levelo://app?vid=b355dfe6-6158-4f35-8d0c-89ff716d9ded","ios":"levelo://app?vid=b355dfe6-6158-4f35-8d0c-89ff716d9ded"},"vehicle_type_id":"4","last_reported":1776846217,"current_range_meters":10800,"station_id":"ce4bh392rcd13ifvqdm0","pricing_plan_id":"cebpf4jnsgd1na2vs0mg"},{"bike_id":"d9917341-c4c4-4a62-ba94-3d9d17221425","system_id":"levelo_inurba_marseille","lat":43.28668,"lon":5.3635,"is_reserved":false,"is_disabled":false,"rental_uris":{"android":"levelo://app?vid=d9917341-c4c4-4a62-ba94-3d9d17221425","ios":"levelo://app?vid=d9917341-c4c4-4a62-ba94-3d9d17221425"},"vehicle_type_id":"4","last_reported":1776846217,"current_range_meters":10800,"station_id":"ce4bhah2rcd13ifvqej0","pricing_plan_id":"cebpf4jnsgd1na2vs0mg"},{"bike_id":"e46e9e9f-b203-47e2-a855-d495a6c6d52b","system_id":"levelo_inurba_marseille","lat":43.26694,"lon":5.38254,"is_reserved":false,"is_disabled":false,"rental_uris":{"android":"levelo://app?vid=e46e9e9f-b203-47e2-a855-d495a6c6d52b","ios":"levelo://app?vid=e46e9e9f-b203-47e2-a855-d495a6c6d52b"},"vehicle_type_id":"4","last_reported":1776846217,"current_range_meters":10800,"station_id":"ce4bhg92rcd13ifvqf90","pricing_plan_id":"cebpf4jnsgd1na2vs0mg"},{"bike_id":"52d848d3-e124-40a2-855d-fb7f07415aa4","system_id":"levelo_inurba_marseille","lat":43.28408,"lon":5.37521,"is_reserved":false,"is_disabled":true,"rental_uris":{"android":"levelo://app?vid=52d848d3-e124-40a2-855d-fb7f07415aa4","ios":"levelo://app?vid=52d848d3-e124-40a2-855d-fb7f07415aa4"},"vehicle_type_id":"4","last_reported":1776846217,"current_range_meters":10800,"station_id":"ce4bh412rcd13ifvqds0","pricing_plan_id":"cebpf4jnsgd1na2vs0mg"},{"bike_id":"bb1a1058-fc96-47d8-8be0-892f416528db","system_id":"levelo_inurba_marseille","lat":43.28476,"lon":5.38416,"is_reserved":false,"is_disabled":false,"rental_uris":{"android":"levelo://app?vid=bb1a1058-fc96-47d8-8be0-892f416528db","ios":"levelo://app?vid=bb1a1058-fc96-47d8-8be0-892f416528db"},"vehicle_type_id":"4","last_reported":1776846217,"current_range_meters":10800,"station_id":"ce4bh512rcd13ifvqe3g","pricing_plan_id":"cebpf4jnsgd1na2vs0mg"},{"bike_id":"89186ed9-a65f-4018-bd19-6dfa9a8570f7","system_id":"levelo_inurba_marseille","lat":43.28425,"lon":5.39181,"is_reserved":false,"is_disabled":false,"rental_uris":{"android":"levelo://app?vid=89186ed9-a65f-4018-bd19-6dfa9a8570f7","ios":"levelo://app?vid=89186ed9-a65f-4018-bd19-6dfa9a8570f7"},"vehicle_type_id":"4","last_reported":1776846217,"current_range_meters":10800,"station_id":"ce4bhoh2rcd13ifvqh5g","pricing_plan_id":"cebpf4jnsgd1na2vs0mg"},{"bike_id":"9c3677d0-627f-49f8-bd9c-64ba96ef4fce","system_id":"levelo_inurba_marseille","lat":43.2847,"lon":5.48402,"is_reserved":false,"is_disabled":false,"rental_uris":{"android":"levelo://app?vid=9c3677d0-627f-49f8-bd9c-64ba96ef4fce","ios":"levelo://app?vid=9c3677d0-627f-49f8-bd9c-64ba96ef4fce"},"vehicle_type_id":"4","last_reported":1776846217,"current_range_meters":10800,"station_id":"","pricing_plan_id":"cebpf4jnsgd1na2vs0mg"},{"bike_id":"deb2231e-0861-4602-8eeb-c5067b2ff42f","system_id":"levelo_inurba_marseille","lat":43.27499,"lon":5.42444,"is_reserved":false,"is_disabled":false,"rental_uris":{"android":"levelo://app?vid=deb2231e-0861-4602-8eeb-c5067b2ff42f","ios":"levelo://app?vid=deb2231e-0861-4602-8eeb-c5067b2ff42f"},"vehicle_type_id":"4","last_reported":1776846217,"current_range_meters":10800,"station_id":"ce4bhn92rcd13ifvqgrg","pricing_plan_id":"cebpf4jnsgd1na2vs0mg"},{"bike_id":"dfa9056e-9f33-4218-90b6-c4a06d8b3910","system_id":"levelo_inurba_marseille","lat":43.31884,"lon":5.36787,"is_reserved":false,"is_disabled":false,"rental_uris":{"android":"levelo://app?vid=dfa9056e-9f33-4218-90b6-c4a06d8b3910","ios":"levelo://app?vid=dfa9056e-9f33-4218-90b6-c4a06d8b3910"},"vehicle_type_id":"4","last_reported":1776846217,"current_range_meters":10800,"station_id":"st_d6o2h0d0559c73evc1b0","pricing_plan_id":"cebpf4jnsgd1na2vs0mg"},{"bike_id":"8aba1266-43ed-4424-983f-04374684eebb","system_id":"levelo_inurba_marseille","lat":43.29934,"lon":5.36538,"is_reserved":false,"is_disabled":false,"rental_uris":{"android":"levelo://app?vid=8aba1266-43ed-4424-983f-04374684eebb","ios":"levelo://app?vid=8aba1266-43ed-4424-983f-04374684eebb"},"vehicle_type_id":"4","last_reported":1776846217,"current_range_meters":10800,"station_id":"ce4bgm92rcd13ifvqbr0","pricing_plan_id":"cebpf4jnsgd1na2vs0mg"},{"bike_id":"46335186-6bd7-4461-9e78-da17046593c8","system_id":"levelo_inurba_marseille","lat":43.28411,"lon":5.3848,"is_reserved":false,"is_disabled":false,"rental_uris":{"android":"levelo://app?vid=46335186-6bd7-4461-9e78-da17046593c8","ios":"levelo://app?vid=46335186-6bd7-4461-9e78-da17046593c8"},"vehicle_type_id":"4","last_reported":1776846217,"current_range_meters":10800,"station_id":"","pricing_plan_id":"cebpf4jnsgd1na2vs0mg"},{"bike_id":"4a4a0df8-5f31-45c3-a76c-fd61c25cab78","system_id":"levelo_inurba_marseille","lat":43.31282,"lon":5.40162,"is_reserved":false,"is_disabled":false,"rental_uris":{"android":"levelo://app?vid=4a4a0df8-5f31-45c3-a76c-fd61c25cab78","ios":"levelo://app?vid=4a4a0df8-5f31-45c3-a76c-fd61c25cab78"},"vehicle_type_id":"4","last_reported":1776846217,"current_range_meters":11200,"station_id":"ce4bh092rcd13ifvqd30","pricing_plan_id":"cebpf4jnsgd1na2vs0mg"},{"bike_id":"be4346df-2820-4d8d-a15f-30141b0b234e","system_id":"levelo_inurba_marseille","lat":43.27315,"lon":5.39082,"is_reserved":false,"is_disabled":false,"rental_uris":{"android":"levelo://app?vid=be4346df-2820-4d8d-a15f-30141b0b234e","ios":"levelo://app?vid=be4346df-2820-4d8d-a15f-30141b0b234e"},"vehicle_type_id":"4","last_reported":1776846217,"current_range_meters":11200,"station_id":"ce4bhgp2rcd13ifvqfe0","pricing_plan_id":"cebpf4jnsgd1na2vs0mg"},{"bike_id":"9e49397d-b15f-42ca-b438-81f289c696f0","system_id":"levelo_inurba_marseille","lat":43.23161,"lon":5.43684,"is_reserved":false,"is_disabled":true,"rental_uris":{"android":"levelo://app?vid=9e49397d-b15f-42ca-b438-81f289c696f0","ios":"levelo://app?vid=9e49397d-b15f-42ca-b438-81f289c696f0"},"vehicle_type_id":"4","last_reported":1776846217,"current_range_meters":11200,"station_id":"ce4bhmp2rcd13ifvqgog","pricing_plan_id":"cebpf4jnsgd1na2vs0mg"},{"bike_id":"f13ecd57-6258-4e4c-bbcc-3ea8e22e9f09","system_id":"levelo_inurba_marseille","lat":43.23145,"lon":5.43724,"is_reserved":false,"is_disabled":false,"rental_uris":{"android":"levelo://app?vid=f13ecd57-6258-4e4c-bbcc-3ea8e22e9f09","ios":"levelo://app?vid=f13ecd57-6258-4e4c-bbcc-3ea8e22e9f09"},"vehicle_type_id":"4","last_reported":1776846217,"current_range_meters":11200,"station_id":"ce4bhmp2rcd13ifvqgog","pricing_plan_id":"cebpf4jnsgd1na2vs0mg"},{"bike_id":"68e86292-e11d-49d5-888c-58848729cc3c","system_id":"levelo_inurba_marseille","lat":43.28311,"lon":5.38698,"is_reserved":false,"is_disabled":false,"rental_uris":{"android":"levelo://app?vid=68e86292-e11d-49d5-888c-58848729cc3c","ios":"levelo://app?vid=68e86292-e11d-49d5-888c-58848729cc3c"},"vehicle_type_id":"4","last_reported":1776846217,"current_range_meters":11200,"station_id":"","pricing_plan_id":"cebpf4jnsgd1na2vs0mg"},{"bike_id":"2352d752-797d-4001-bdca-663ce0d901b0","system_id":"levelo_inurba_marseille","lat":43.28708,"lon":5.37929,"is_reserved":false,"is_disabled":false,"rental_uris":{"android":"levelo://app?vid=2352d752-797d-4001-bdca-663ce0d901b0","ios":"levelo://app?vid=2352d752-797d-4001-bdca-663ce0d901b0"},"vehicle_type_id":"4","last_reported":1776846217,"current_range_meters":11200,"station_id":"ce4bh9p2rcd13ifvqec0","pricing_plan_id":"cebpf4jnsgd1na2vs0mg"},{"bike_id":"dc9c2d18-358e-4616-a589-636e5e2c1512","system_id":"levelo_inurba_marseille","lat":43.30554,"lon":5.36682,"is_reserved":false,"is_disabled":false,"rental_uris":{"android":"levelo://app?vid=dc9c2d18-358e-4616-a589-636e5e2c1512","ios":"levelo://app?vid=dc9c2d18-358e-4616-a589-636e5e2c1512"},"vehicle_type_id":"4","last_reported":1776846217,"current_range_meters":11200,"station_id":"ce4bgrp2rcd13ifvqc9g","pricing_plan_id":"cebpf4jnsgd1na2vs0mg"},{"bike_id":"8331af0f-100e-470f-9e36-7657fa113fe2","system_id":"levelo_inurba_marseille","lat":43.31232,"lon":5.36865,"is_reserved":false,"is_disabled":false,"rental_uris":{"android":"levelo://app?vid=8331af0f-100e-470f-9e36-7657fa113fe2","ios":"levelo://app?vid=8331af0f-100e-470f-9e36-7657fa113fe2"},"vehicle_type_id":"4","last_reported":1776846217,"current_range_meters":11200,"station_id":"ce4bgl92rcd13ifvqbq0","pricing_plan_id":"cebpf4jnsgd1na2vs0mg"},{"bike_id":"af2f07c2-2765-459d-a576-4ba56a342ba6","system_id":"levelo_inurba_marseille","lat":43.26803,"lon":5.39401,"is_reserved":false,"is_disabled":true,"rental_uris":{"android":"levelo://app?vid=af2f07c2-2765-459d-a576-4ba56a342ba6","ios":"levelo://app?vid=af2f07c2-2765-459d-a576-4ba56a342ba6"},"vehicle_type_id":"4","last_reported":1776846217,"current_range_meters":11200,"station_id":"ce4bhh12rcd13ifvqfg0","pricing_plan_id":"cebpf4jnsgd1na2vs0mg"},{"bike_id":"cf6006cd-b52f-419a-8a97-563f9a7a9362","system_id":"levelo_inurba_marseille","lat":43.31357,"lon":5.36701,"is_reserved":false,"is_disabled":false,"rental_uris":{"android":"levelo://app?vid=cf6006cd-b52f-419a-8a97-563f9a7a9362","ios":"levelo://app?vid=cf6006cd-b52f-419a-8a97-563f9a7a9362"},"vehicle_type_id":"4","last_reported":1776846217,"current_range_meters":11200,"station_id":"ce4bgr92rcd13ifvqc6g","pricing_plan_id":"cebpf4jnsgd1na2vs0mg"},{"bike_id":"f850b6c8-0749-4e01-ba82-a6372c598ffe","system_id":"levelo_inurba_marseille","lat":43.30541,"lon":5.36703,"is_reserved":false,"is_disabled":false,"rental_uris":{"android":"levelo://app?vid=f850b6c8-0749-4e01-ba82-a6372c598ffe","ios":"levelo://app?vid=f850b6c8-0749-4e01-ba82-a6372c598ffe"},"vehicle_type_id":"4","last_reported":1776846217,"current_range_meters":11200,"station_id":"ce4bgrp2rcd13ifvqc9g","pricing_plan_id":"cebpf4jnsgd1na2vs0mg"},{"bike_id":"b71566b6-96af-41e6-a0d0-296c6899fcd5","system_id":"levelo_inurba_marseille","lat":43.28862,"lon":5.42515,"is_reserved":false,"is_disabled":false,"rental_uris":{"android":"levelo://app?vid=b71566b6-96af-41e6-a0d0-296c6899fcd5","ios":"levelo://app?vid=b71566b6-96af-41e6-a0d0-296c6899fcd5"},"vehicle_type_id":"4","last_reported":1776846217,"current_range_meters":11200,"station_id":"st_d3b462108ojc7389ooeg","pricing_plan_id":"cebpf4jnsgd1na2vs0mg"},{"bike_id":"cce9e933-3790-4ced-9eef-b5ac537ec700","system_id":"levelo_inurba_marseille","lat":43.28631,"lon":5.38322,"is_reserved":false,"is_disabled":false,"rental_uris":{"android":"levelo://app?vid=cce9e933-3790-4ced-9eef-b5ac537ec700","ios":"levelo://app?vid=cce9e933-3790-4ced-9eef-b5ac537ec700"},"vehicle_type_id":"4","last_reported":1776846217,"current_range_meters":11200,"station_id":"","pricing_plan_id":"cebpf4jnsgd1na2vs0mg"},{"bike_id":"48ff8779-6221-4f57-83b2-6b16c84f3d03","system_id":"levelo_inurba_marseille","lat":43.23388,"lon":5.41249,"is_reserved":false,"is_disabled":false,"rental_uris":{"android":"levelo://app?vid=48ff8779-6221-4f57-83b2-6b16c84f3d03","ios":"levelo://app?vid=48ff8779-6221-4f57-83b2-6b16c84f3d03"},"vehicle_type_id":"4","last_reported":1776846217,"current_range_meters":11200,"station_id":"st_d75pvndhf9lc73cqq3eg","pricing_plan_id":"cebpf4jnsgd1na2vs0mg"},{"bike_id":"75da28ab-8813-4425-829f-ceaedfe0d4f6","system_id":"levelo_inurba_marseille","lat":43.23056,"lon":5.35498,"is_reserved":false,"is_disabled":false,"rental_uris":{"android":"levelo://app?vid=75da28ab-8813-4425-829f-ceaedfe0d4f6","ios":"levelo://app?vid=75da28ab-8813-4425-829f-ceaedfe0d4f6"},"vehicle_type_id":"4","last_reported":1776846217,"current_range_meters":11200,"station_id":"cpo3342slgdg3j2ifvpg","pricing_plan_id":"cebpf4jnsgd1na2vs0mg"},{"bike_id":"cf0a5410-a39d-47b2-bf3a-fd16e7781904","system_id":"levelo_inurba_marseille","lat":43.23184,"lon":5.39993,"is_reserved":false,"is_disabled":false,"rental_uris":{"android":"levelo://app?vid=cf0a5410-a39d-47b2-bf3a-fd16e7781904","ios":"levelo://app?vid=cf0a5410-a39d-47b2-bf3a-fd16e7781904"},"vehicle_type_id":"4","last_reported":1776846217,"current_range_meters":11600,"station_id":"ce4bhn12rcd13ifvqgqg","pricing_plan_id":"cebpf4jnsgd1na2vs0mg"},{"bike_id":"97563811-de7e-4fb9-bbc8-59c1cb66a0eb","system_id":"levelo_inurba_marseille","lat":43.243839,"lon":5.370514,"is_reserved":false,"is_disabled":false,"rental_uris":{"android":"levelo://app?vid=97563811-de7e-4fb9-bbc8-59c1cb66a0eb","ios":"levelo://app?vid=97563811-de7e-4fb9-bbc8-59c1cb66a0eb"},"vehicle_type_id":"4","last_reported":1776846217,"current_range_meters":11600,"station_id":"ce4bhhh2rcd13ifvqfk0","pricing_plan_id":"cebpf4jnsgd1na2vs0mg"},{"bike_id":"64e2a547-4730-436a-9218-c5f3eba4ec67","system_id":"levelo_inurba_marseille","lat":43.337444,"lon":5.374475,"is_reserved":false,"is_disabled":true,"rental_uris":{"android":"levelo://app?vid=64e2a547-4730-436a-9218-c5f3eba4ec67","ios":"levelo://app?vid=64e2a547-4730-436a-9218-c5f3eba4ec67"},"vehicle_type_id":"4","last_reported":1776846217,"current_range_meters":11600,"station_id":"","pricing_plan_id":"cebpf4jnsgd1na2vs0mg"},{"bike_id":"a22050df-25c3-4424-8c45-565af661de82","system_id":"levelo_inurba_marseille","lat":43.28494,"lon":5.48374,"is_reserved":false,"is_disabled":false,"rental_uris":{"android":"levelo://app?vid=a22050df-25c3-4424-8c45-565af661de82","ios":"levelo://app?vid=a22050df-25c3-4424-8c45-565af661de82"},"vehicle_type_id":"4","last_reported":1776846217,"current_range_meters":11600,"station_id":"","pricing_plan_id":"cebpf4jnsgd1na2vs0mg"},{"bike_id":"286127ee-0e7a-446a-9589-26c86ff47100","system_id":"levelo_inurba_marseille","lat":43.28929,"lon":5.3961,"is_reserved":false,"is_disabled":false,"rental_uris":{"android":"levelo://app?vid=286127ee-0e7a-446a-9589-26c86ff47100","ios":"levelo://app?vid=286127ee-0e7a-446a-9589-26c86ff47100"},"vehicle_type_id":"4","last_reported":1776846217,"current_range_meters":11600,"station_id":"ce4bh3h2rcd13ifvqdn0","pricing_plan_id":"cebpf4jnsgd1na2vs0mg"},{"bike_id":"01cc2e1e-61f2-49f9-bb98-16df1936082f","system_id":"levelo_inurba_marseille","lat":43.32286,"lon":5.38266,"is_reserved":false,"is_disabled":false,"rental_uris":{"android":"levelo://app?vid=01cc2e1e-61f2-49f9-bb98-16df1936082f","ios":"levelo://app?vid=01cc2e1e-61f2-49f9-bb98-16df1936082f"},"vehicle_type_id":"4","last_reported":1776846217,"current_range_meters":11600,"station_id":"ce4bhr12rcd13ifvqhqg","pricing_plan_id":"cebpf4jnsgd1na2vs0mg"},{"bike_id":"67289915-4714-4312-886f-964db5d2fd72","system_id":"levelo_inurba_marseille","lat":43.290438,"lon":5.359144,"is_reserved":false,"is_disabled":false,"rental_uris":{"android":"levelo://app?vid=67289915-4714-4312-886f-964db5d2fd72","ios":"levelo://app?vid=67289915-4714-4312-886f-964db5d2fd72"},"vehicle_type_id":"4","last_reported":1776846217,"current_range_meters":11600,"station_id":"cki0cbj6b192h4jlfktg","pricing_plan_id":"cebpf4jnsgd1na2vs0mg"},{"bike_id":"ce592dee-14cf-4975-837f-871405aceb21","system_id":"levelo_inurba_marseille","lat":43.29554,"lon":5.42285,"is_reserved":false,"is_disabled":false,"rental_uris":{"android":"levelo://app?vid=ce592dee-14cf-4975-837f-871405aceb21","ios":"levelo://app?vid=ce592dee-14cf-4975-837f-871405aceb21"},"vehicle_type_id":"4","last_reported":1776846217,"current_range_meters":12000,"station_id":"ce4bhph2rcd13ifvqhdg","pricing_plan_id":"cebpf4jnsgd1na2vs0mg"},{"bike_id":"d486e5ae-c501-4cc2-94cd-d03ead7b7702","system_id":"levelo_inurba_marseille","lat":43.28037,"lon":5.37508,"is_reserved":false,"is_disabled":false,"rental_uris":{"android":"levelo://app?vid=d486e5ae-c501-4cc2-94cd-d03ead7b7702","ios":"levelo://app?vid=d486e5ae-c501-4cc2-94cd-d03ead7b7702"},"vehicle_type_id":"4","last_reported":1776846217,"current_range_meters":12000,"station_id":"","pricing_plan_id":"cebpf4jnsgd1na2vs0mg"},{"bike_id":"89cb976b-df3a-46fc-a9ef-0025de561630","system_id":"levelo_inurba_marseille","lat":43.29521,"lon":5.43306,"is_reserved":false,"is_disabled":false,"rental_uris":{"android":"levelo://app?vid=89cb976b-df3a-46fc-a9ef-0025de561630","ios":"levelo://app?vid=89cb976b-df3a-46fc-a9ef-0025de561630"},"vehicle_type_id":"4","last_reported":1776846217,"current_range_meters":12000,"station_id":"st_d3j5ugp08ojc73fj9d10","pricing_plan_id":"cebpf4jnsgd1na2vs0mg"},{"bike_id":"ec2f52b2-de50-405f-83a0-7ecaecfa0e30","system_id":"levelo_inurba_marseille","lat":43.31204,"lon":5.36841,"is_reserved":false,"is_disabled":false,"rental_uris":{"android":"levelo://app?vid=ec2f52b2-de50-405f-83a0-7ecaecfa0e30","ios":"levelo://app?vid=ec2f52b2-de50-405f-83a0-7ecaecfa0e30"},"vehicle_type_id":"4","last_reported":1776846217,"current_range_meters":12000,"station_id":"ce4bgl92rcd13ifvqbq0","pricing_plan_id":"cebpf4jnsgd1na2vs0mg"},{"bike_id":"4694ae73-0fe2-48eb-a1ee-8627b5552964","system_id":"levelo_inurba_marseille","lat":43.25937,"lon":5.40901,"is_reserved":false,"is_disabled":false,"rental_uris":{"android":"levelo://app?vid=4694ae73-0fe2-48eb-a1ee-8627b5552964","ios":"levelo://app?vid=4694ae73-0fe2-48eb-a1ee-8627b5552964"},"vehicle_type_id":"4","last_reported":1776846217,"current_range_meters":12000,"station_id":"ce4bhm92rcd13ifvqglg","pricing_plan_id":"cebpf4jnsgd1na2vs0mg"},{"bike_id":"3ae28211-f91b-49a5-b585-e18c78c32835","system_id":"levelo_inurba_marseille","lat":43.29573,"lon":5.36729,"is_reserved":false,"is_disabled":false,"rental_uris":{"android":"levelo://app?vid=3ae28211-f91b-49a5-b585-e18c78c32835","ios":"levelo://app?vid=3ae28211-f91b-49a5-b585-e18c78c32835"},"vehicle_type_id":"4","last_reported":1776846217,"current_range_meters":12000,"station_id":"ce4bgph2rcd13ifvqc2g","pricing_plan_id":"cebpf4jnsgd1na2vs0mg"},{"bike_id":"9cc49caa-f52c-4b9e-bd5f-fde2e32ef823","system_id":"levelo_inurba_marseille","lat":43.29615,"lon":5.37152,"is_reserved":false,"is_disabled":false,"rental_uris":{"android":"levelo://app?vid=9cc49caa-f52c-4b9e-bd5f-fde2e32ef823","ios":"levelo://app?vid=9cc49caa-f52c-4b9e-bd5f-fde2e32ef823"},