{"last_updated":1684904797,"ttl":30,"version":"2.2","data":{"bikes":[{"bike_id":"41892a07-6a1f-4061-ab05-7c3547d27e02","system_id":"levelo_inurba_marseille","lat":43.312239,"lon":5.368562,"is_reserved":false,"is_disabled":false,"rental_uris":{"android":"levelo://app?vid=41892a07-6a1f-4061-ab05-7c3547d27e02","ios":"levelo://app?vid=41892a07-6a1f-4061-ab05-7c3547d27e02"},"vehicle_type_id":"4","last_reported":1684904798,"current_range_meters":30000,"station_id":"ce4bgl92rcd13ifvqbq0","pricing_plan_id":"free"},{"bike_id":"b2f97a86-c5fc-442c-92b6-7fa3617be4eb","system_id":"levelo_inurba_marseille","lat":43.312239,"lon":5.368562,"is_reserved":false,"is_disabled":false,"rental_uris":{"android":"levelo://app?vid=b2f97a86-c5fc-442c-92b6-7fa3617be4eb","ios":"levelo://app?vid=b2f97a86-c5fc-442c-92b6-7fa3617be4eb"},"vehicle_type_id":"4","last_reported":1684904798,"current_range_meters":0,"station_id":"ce4bgl92rcd13ifvqbq0","pricing_plan_id":"free"},{"bike_id":"1d2c0dfe-2ad4-4a69-99f7-dc4c8915b439","system_id":"levelo_inurba_marseille","lat":43.312239,"lon":5.368562,"is_reserved":false,"is_disabled":false,"rental_uris":{"android":"levelo://app?vid=1d2c0dfe-2ad4-4a69-99f7-dc4c8915b439","ios":"levelo://app?vid=1d2c0dfe-2ad4-4a69-99f7-dc4c8915b439"},"vehicle_type_id":"4","last_reported":1684904798,"current_range_meters":29600,"station_id":"ce4bgl92rcd13ifvqbq0","pricing_plan_id":"free"},{"bike_id":"5a16e723-0ca2-42ad-95b7-62acc2000690","system_id":"levelo_inurba_marseille","lat":43.309076,"lon":5.368465,"is_reserved":false,"is_disabled":false,"rental_uris":{"android":"levelo://app?vid=5a16e723-0ca2-42ad-95b7-62acc2000690","ios":"levelo://app?vid=5a16e723-0ca2-42ad-95b7-62acc2000690"},"vehicle_type_id":"4","last_reported":1684904798,"current_range_meters":24000,"station_id":"ce4bgn92rcd13ifvqbvg","pricing_plan_id":"free"},{"bike_id":"3a263ddf-cdba-4d72-88d0-679a5e8ac013","system_id":"levelo_inurba_marseille","lat":43.314811,"lon":5.373103,"is_reserved":false,"is_disabled":false,"rental_uris":{"android":"levelo://app?vid=3a263ddf-cdba-4d72-88d0-679a5e8ac013","ios":"levelo://app?vid=3a263ddf-cdba-4d72-88d0-679a5e8ac013"},"vehicle_type_id":"4","last_reported":1684904798,"current_range_meters":28800,"station_id":"ce4bgt12rcd13ifvqcd0","pricing_plan_id":"free"},{"bike_id":"19204805-aa03-4f0c-ae90-7533744c11dc","system_id":"levelo_inurba_marseille","lat":43.314811,"lon":5.373104,"is_reserved":false,"is_disabled":false,"rental_uris":{"android":"levelo://app?vid=19204805-aa03-4f0c-ae90-7533744c11dc","ios":"levelo://app?vid=19204805-aa03-4f0c-ae90-7533744c11dc"},"vehicle_type_id":"4","last_reported":1684904798,"current_range_meters":31600,"station_id":"ce4bgt12rcd13ifvqcd0","pricing_plan_id":"free"},{"bike_id":"1fba2bea-21eb-4559-8086-8b56151a2867","system_id":"levelo_inurba_marseille","lat":43.314811,"lon":5.373104,"is_reserved":false,"is_disabled":false,"rental_uris":{"android":"levelo://app?vid=1fba2bea-21eb-4559-8086-8b56151a2867","ios":"levelo://app?vid=1fba2bea-21eb-4559-8086-8b56151a2867"},"vehicle_type_id":"4","last_reported":1684904798,"current_range_meters":30800,"station_id":"ce4bgt12rcd13ifvqcd0","pricing_plan_id":"free"},{"bike_id":"d4a95210-eee9-42ea-b41c-a3d4d2a45ed8","system_id":"levelo_inurba_marseille","lat":43.305368,"lon":5.367343,"is_reserved":false,"is_disabled":false,"rental_uris":{"android":"levelo://app?vid=d4a95210-eee9-42ea-b41c-a3d4d2a45ed8","ios":"levelo://app?vid=d4a95210-eee9-42ea-b41c-a3d4d2a45ed8"},"vehicle_type_id":"4","last_reported":1684904798,"current_range_meters":31200,"station_id":"ce4bgrp2rcd13ifvqc9g","pricing_plan_id":"free"},{"bike_id":"59ce19b0-f1d4-4b5f-ba78-977caf17327a","system_id":"levelo_inurba_marseille","lat":43.305368,"lon":5.367343,"is_reserved":false,"is_disabled":false,"rental_uris":{"android":"levelo://app?vid=59ce19b0-f1d4-4b5f-ba78-977caf17327a","ios":"levelo://app?vid=59ce19b0-f1d4-4b5f-ba78-977caf17327a"},"vehicle_type_id":"4","last_reported":1684904798,"current_range_meters":20400,"station_id":"ce4bgrp2rcd13ifvqc9g","pricing_plan_id":"free"},{"bike_id":"e52fa197-a55c-42ad-80cd-d0868906299c","system_id":"levelo_inurba_marseille","lat":43.30538,"lon":5.36709,"is_reserved":false,"is_disabled":false,"rental_uris":{"android":"levelo://app?vid=e52fa197-a55c-42ad-80cd-d0868906299c","ios":"levelo://app?vid=e52fa197-a55c-42ad-80cd-d0868906299c"},"vehicle_type_id":"4","last_reported":1684904798,"current_range_meters":28000,"station_id":"","pricing_plan_id":"free"},{"bike_id":"07227a11-6157-4e48-9bdb-e2b003c1a364","system_id":"levelo_inurba_marseille","lat":43.305706,"lon":5.365654,"is_reserved":false,"is_disabled":false,"rental_uris":{"android":"levelo://app?vid=07227a11-6157-4e48-9bdb-e2b003c1a364","ios":"levelo://app?vid=07227a11-6157-4e48-9bdb-e2b003c1a364"},"vehicle_type_id":"4","last_reported":1684904798,"current_range_meters":10000,"station_id":"ce4bgs12rcd13ifvqcag","pricing_plan_id":"free"},{"bike_id":"a3d51322-963b-48a9-9c84-adaa405ab597","system_id":"levelo_inurba_marseille","lat":43.305706,"lon":5.365654,"is_reserved":false,"is_disabled":false,"rental_uris":{"android":"levelo://app?vid=a3d51322-963b-48a9-9c84-adaa405ab597","ios":"levelo://app?vid=a3d51322-963b-48a9-9c84-adaa405ab597"},"vehicle_type_id":"4","last_reported":1684904798,"current_range_meters":22400,"station_id":"ce4bgs12rcd13ifvqcag","pricing_plan_id":"free"},{"bike_id":"b197d8d0-1301-495b-83cb-e80e22e009eb","system_id":"levelo_inurba_marseille","lat":43.305706,"lon":5.365654,"is_reserved":false,"is_disabled":false,"rental_uris":{"android":"levelo://app?vid=b197d8d0-1301-495b-83cb-e80e22e009eb","ios":"levelo://app?vid=b197d8d0-1301-495b-83cb-e80e22e009eb"},"vehicle_type_id":"4","last_reported":1684904798,"current_range_meters":15200,"station_id":"ce4bgs12rcd13ifvqcag","pricing_plan_id":"free"},{"bike_id":"cf181879-b182-4216-9335-90ca07f1917a","system_id":"levelo_inurba_marseille","lat":43.31128,"lon":5.37762,"is_reserved":false,"is_disabled":false,"rental_uris":{"android":"levelo://app?vid=cf181879-b182-4216-9335-90ca07f1917a","ios":"levelo://app?vid=cf181879-b182-4216-9335-90ca07f1917a"},"vehicle_type_id":"4","last_reported":1684904798,"current_range_meters":22000,"station_id":"ce4bgt92rcd13ifvqcg0","pricing_plan_id":"free"},{"bike_id":"41cb5030-83b7-4d50-ac03-24a3a770e8bc","system_id":"levelo_inurba_marseille","lat":43.31125,"lon":5.37769,"is_reserved":false,"is_disabled":false,"rental_uris":{"android":"levelo://app?vid=41cb5030-83b7-4d50-ac03-24a3a770e8bc","ios":"levelo://app?vid=41cb5030-83b7-4d50-ac03-24a3a770e8bc"},"vehicle_type_id":"4","last_reported":1684904798,"current_range_meters":20400,"station_id":"ce4bgt92rcd13ifvqcg0","pricing_plan_id":"free"},{"bike_id":"2872aa79-7c87-4ecb-801f-c8147b52e23d","system_id":"levelo_inurba_marseille","lat":43.311131,"lon":5.377651,"is_reserved":false,"is_disabled":false,"rental_uris":{"android":"levelo://app?vid=2872aa79-7c87-4ecb-801f-c8147b52e23d","ios":"levelo://app?vid=2872aa79-7c87-4ecb-801f-c8147b52e23d"},"vehicle_type_id":"4","last_reported":1684904798,"current_range_meters":3600,"station_id":"ce4bgt92rcd13ifvqcg0","pricing_plan_id":"free"},{"bike_id":"6a1a3047-3c9f-42c6-9fae-39bee4ab2bbb","system_id":"levelo_inurba_marseille","lat":43.311131,"lon":5.377651,"is_reserved":false,"is_disabled":false,"rental_uris":{"android":"levelo://app?vid=6a1a3047-3c9f-42c6-9fae-39bee4ab2bbb","ios":"levelo://app?vid=6a1a3047-3c9f-42c6-9fae-39bee4ab2bbb"},"vehicle_type_id":"4","last_reported":1684904798,"current_range_meters":27200,"station_id":"ce4bgt92rcd13ifvqcg0","pricing_plan_id":"free"},{"bike_id":"91733e52-2da5-440a-b8c3-275cf67a5b98","system_id":"levelo_inurba_marseille","lat":43.317075,"lon":5.377367,"is_reserved":false,"is_disabled":false,"rental_uris":{"android":"levelo://app?vid=91733e52-2da5-440a-b8c3-275cf67a5b98","ios":"levelo://app?vid=91733e52-2da5-440a-b8c3-275cf67a5b98"},"vehicle_type_id":"4","last_reported":1684904798,"current_range_meters":30400,"station_id":"ce4bgth2rcd13ifvqch0","pricing_plan_id":"free"},{"bike_id":"725fdaf0-d18a-4817-82e7-216b57da6c3f","system_id":"levelo_inurba_marseille","lat":43.317075,"lon":5.377367,"is_reserved":false,"is_disabled":false,"rental_uris":{"android":"levelo://app?vid=725fdaf0-d18a-4817-82e7-216b57da6c3f","ios":"levelo://app?vid=725fdaf0-d18a-4817-82e7-216b57da6c3f"},"vehicle_type_id":"4","last_reported":1684904798,"current_range_meters":31600,"station_id":"ce4bgth2rcd13ifvqch0","pricing_plan_id":"free"},{"bike_id":"71564ce8-da8f-4a6a-9a31-dcb4b866566d","system_id":"levelo_inurba_marseille","lat":43.303046,"lon":5.368981,"is_reserved":false,"is_disabled":false,"rental_uris":{"android":"levelo://app?vid=71564ce8-da8f-4a6a-9a31-dcb4b866566d","ios":"levelo://app?vid=71564ce8-da8f-4a6a-9a31-dcb4b866566d"},"vehicle_type_id":"4","last_reported":1684904798,"current_range_meters":26000,"station_id":"ce4bgqh2rcd13ifvqc5g","pricing_plan_id":"free"},{"bike_id":"c8407b09-5fd3-450e-8818-b255f95a522d","system_id":"levelo_inurba_marseille","lat":43.303046,"lon":5.368981,"is_reserved":false,"is_disabled":false,"rental_uris":{"android":"levelo://app?vid=c8407b09-5fd3-450e-8818-b255f95a522d","ios":"levelo://app?vid=c8407b09-5fd3-450e-8818-b255f95a522d"},"vehicle_type_id":"4","last_reported":1684904798,"current_range_meters":28800,"station_id":"ce4bgqh2rcd13ifvqc5g","pricing_plan_id":"free"},{"bike_id":"6ef366f7-589a-4d81-a682-24602510e870","system_id":"levelo_inurba_marseille","lat":43.303046,"lon":5.368981,"is_reserved":false,"is_disabled":false,"rental_uris":{"android":"levelo://app?vid=6ef366f7-589a-4d81-a682-24602510e870","ios":"levelo://app?vid=6ef366f7-589a-4d81-a682-24602510e870"},"vehicle_type_id":"4","last_reported":1684904798,"current_range_meters":31200,"station_id":"ce4bgqh2rcd13ifvqc5g","pricing_plan_id":"free"},{"bike_id":"b2fb8e11-ab40-4027-9707-e2bda2441bcc","system_id":"levelo_inurba_marseille","lat":43.303046,"lon":5.368981,"is_reserved":false,"is_disabled":false,"rental_uris":{"android":"levelo://app?vid=b2fb8e11-ab40-4027-9707-e2bda2441bcc","ios":"levelo://app?vid=b2fb8e11-ab40-4027-9707-e2bda2441bcc"},"vehicle_type_id":"4","last_reported":1684904798,"current_range_meters":24400,"station_id":"ce4bgqh2rcd13ifvqc5g","pricing_plan_id":"free"},{"bike_id":"b93e65d6-9ac3-46d6-a04e-48491fe9b565","system_id":"levelo_inurba_marseille","lat":43.303046,"lon":5.368981,"is_reserved":false,"is_disabled":false,"rental_uris":{"android":"levelo://app?vid=b93e65d6-9ac3-46d6-a04e-48491fe9b565","ios":"levelo://app?vid=b93e65d6-9ac3-46d6-a04e-48491fe9b565"},"vehicle_type_id":"4","last_reported":1684904798,"current_range_meters":28400,"station_id":"ce4bgqh2rcd13ifvqc5g","pricing_plan_id":"free"},{"bike_id":"f53edd6c-97f5-4ebb-b4b1-b3db4b5cf5e4","system_id":"levelo_inurba_marseille","lat":43.303046,"lon":5.368981,"is_reserved":false,"is_disabled":false,"rental_uris":{"android":"levelo://app?vid=f53edd6c-97f5-4ebb-b4b1-b3db4b5cf5e4","ios":"levelo://app?vid=f53edd6c-97f5-4ebb-b4b1-b3db4b5cf5e4"},"vehicle_type_id":"4","last_reported":1684904798,"current_range_meters":31200,"station_id":"ce4bgqh2rcd13ifvqc5g","pricing_plan_id":"free"},{"bike_id":"790119bb-79b7-4ba9-805d-a80ff92b80f0","system_id":"levelo_inurba_marseille","lat":43.315289,"lon":5.380349,"is_reserved":false,"is_disabled":false,"rental_uris":{"android":"levelo://app?vid=790119bb-79b7-4ba9-805d-a80ff92b80f0","ios":"levelo://app?vid=790119bb-79b7-4ba9-805d-a80ff92b80f0"},"vehicle_type_id":"4","last_reported":1684904798,"current_range_meters":30400,"station_id":"ce4bhsp2rcd13ifvqi50","pricing_plan_id":"free"},{"bike_id":"5d6b7210-ac96-414e-9692-1a40f5b7d754","system_id":"levelo_inurba_marseille","lat":43.315289,"lon":5.380349,"is_reserved":false,"is_disabled":false,"rental_uris":{"android":"levelo://app?vid=5d6b7210-ac96-414e-9692-1a40f5b7d754","ios":"levelo://app?vid=5d6b7210-ac96-414e-9692-1a40f5b7d754"},"vehicle_type_id":"4","last_reported":1684904798,"current_range_meters":26400,"station_id":"ce4bhsp2rcd13ifvqi50","pricing_plan_id":"free"},{"bike_id":"c9461532-81ed-4526-b6ba-b7bd13132531","system_id":"levelo_inurba_marseille","lat":43.315289,"lon":5.380349,"is_reserved":false,"is_disabled":false,"rental_uris":{"android":"levelo://app?vid=c9461532-81ed-4526-b6ba-b7bd13132531","ios":"levelo://app?vid=c9461532-81ed-4526-b6ba-b7bd13132531"},"vehicle_type_id":"4","last_reported":1684904798,"current_range_meters":30400,"station_id":"ce4bhsp2rcd13ifvqi50","pricing_plan_id":"free"},{"bike_id":"e4ddf4c1-6177-4538-8b58-75117487e999","system_id":"levelo_inurba_marseille","lat":43.315293,"lon":5.380349,"is_reserved":false,"is_disabled":false,"rental_uris":{"android":"levelo://app?vid=e4ddf4c1-6177-4538-8b58-75117487e999","ios":"levelo://app?vid=e4ddf4c1-6177-4538-8b58-75117487e999"},"vehicle_type_id":"4","last_reported":1684904798,"current_range_meters":29200,"station_id":"ce4bhsp2rcd13ifvqi50","pricing_plan_id":"free"},{"bike_id":"9bae9840-ed93-44fb-a5d4-fae1df29a1de","system_id":"levelo_inurba_marseille","lat":43.31033,"lon":5.38185,"is_reserved":false,"is_disabled":false,"rental_uris":{"android":"levelo://app?vid=9bae9840-ed93-44fb-a5d4-fae1df29a1de","ios":"levelo://app?vid=9bae9840-ed93-44fb-a5d4-fae1df29a1de"},"vehicle_type_id":"4","last_reported":1684904798,"current_range_meters":17200,"station_id":"","pricing_plan_id":"free"},{"bike_id":"dcdf474c-d064-4bc8-83e8-00529dbbe80b","system_id":"levelo_inurba_marseille","lat":43.30809,"lon":5.38153,"is_reserved":false,"is_disabled":false,"rental_uris":{"android":"levelo://app?vid=dcdf474c-d064-4bc8-83e8-00529dbbe80b","ios":"levelo://app?vid=dcdf474c-d064-4bc8-83e8-00529dbbe80b"},"vehicle_type_id":"4","last_reported":1684904798,"current_range_meters":0,"station_id":"ce4bgt12rcd13ifvqce0","pricing_plan_id":"free"},{"bike_id":"31323976-9028-496b-8a5b-e6c50db1b33d","system_id":"levelo_inurba_marseille","lat":43.304629,"lon":5.379,"is_reserved":false,"is_disabled":false,"rental_uris":{"android":"levelo://app?vid=31323976-9028-496b-8a5b-e6c50db1b33d","ios":"levelo://app?vid=31323976-9028-496b-8a5b-e6c50db1b33d"},"vehicle_type_id":"4","last_reported":1684904798,"current_range_meters":8800,"station_id":"","pricing_plan_id":"free"},{"bike_id":"93feb877-e7b2-42aa-a54d-4e8fafc7e059","system_id":"levelo_inurba_marseille","lat":43.304606,"lon":5.379026,"is_reserved":false,"is_disabled":false,"rental_uris":{"android":"levelo://app?vid=93feb877-e7b2-42aa-a54d-4e8fafc7e059","ios":"levelo://app?vid=93feb877-e7b2-42aa-a54d-4e8fafc7e059"},"vehicle_type_id":"4","last_reported":1684904798,"current_range_meters":30000,"station_id":"ce4bgup2rcd13ifvqcn0","pricing_plan_id":"free"},{"bike_id":"6c30620c-eb63-42f7-8b55-e907d50ccb94","system_id":"levelo_inurba_marseille","lat":43.304606,"lon":5.379026,"is_reserved":false,"is_disabled":false,"rental_uris":{"android":"levelo://app?vid=6c30620c-eb63-42f7-8b55-e907d50ccb94","ios":"levelo://app?vid=6c30620c-eb63-42f7-8b55-e907d50ccb94"},"vehicle_type_id":"4","last_reported":1684904798,"current_range_meters":12000,"station_id":"ce4bgup2rcd13ifvqcn0","pricing_plan_id":"free"},{"bike_id":"3a9da52e-8a0c-4f08-988b-cdd5414775a9","system_id":"levelo_inurba_marseille","lat":43.304606,"lon":5.379026,"is_reserved":false,"is_disabled":false,"rental_uris":{"android":"levelo://app?vid=3a9da52e-8a0c-4f08-988b-cdd5414775a9","ios":"levelo://app?vid=3a9da52e-8a0c-4f08-988b-cdd5414775a9"},"vehicle_type_id":"4","last_reported":1684904798,"current_range_meters":25200,"station_id":"ce4bgup2rcd13ifvqcn0","pricing_plan_id":"free"},{"bike_id":"14c5410f-aeb0-4911-a7b9-91d66f831320","system_id":"levelo_inurba_marseille","lat":43.304606,"lon":5.379026,"is_reserved":false,"is_disabled":false,"rental_uris":{"android":"levelo://app?vid=14c5410f-aeb0-4911-a7b9-91d66f831320","ios":"levelo://app?vid=14c5410f-aeb0-4911-a7b9-91d66f831320"},"vehicle_type_id":"4","last_reported":1684904798,"current_range_meters":10400,"station_id":"ce4bgup2rcd13ifvqcn0","pricing_plan_id":"free"},{"bike_id":"ed31b3b5-0ee6-4e7e-a2c7-dbc2ec324a0f","system_id":"levelo_inurba_marseille","lat":43.304606,"lon":5.379026,"is_reserved":false,"is_disabled":false,"rental_uris":{"android":"levelo://app?vid=ed31b3b5-0ee6-4e7e-a2c7-dbc2ec324a0f","ios":"levelo://app?vid=ed31b3b5-0ee6-4e7e-a2c7-dbc2ec324a0f"},"vehicle_type_id":"4","last_reported":1684904798,"current_range_meters":4800,"station_id":"ce4bgup2rcd13ifvqcn0","pricing_plan_id":"free"},{"bike_id":"f550e117-6c3b-4fe4-afb0-909208be16e7","system_id":"levelo_inurba_marseille","lat":43.304606,"lon":5.379026,"is_reserved":false,"is_disabled":false,"rental_uris":{"android":"levelo://app?vid=f550e117-6c3b-4fe4-afb0-909208be16e7","ios":"levelo://app?vid=f550e117-6c3b-4fe4-afb0-909208be16e7"},"vehicle_type_id":"4","last_reported":1684904798,"current_range_meters":22000,"station_id":"ce4bgup2rcd13ifvqcn0","pricing_plan_id":"free"},{"bike_id":"141713ff-0e7c-4d0f-b4a1-8803de6c0669","system_id":"levelo_inurba_marseille","lat":43.304606,"lon":5.379026,"is_reserved":false,"is_disabled":false,"rental_uris":{"android":"levelo://app?vid=141713ff-0e7c-4d0f-b4a1-8803de6c0669","ios":"levelo://app?vid=141713ff-0e7c-4d0f-b4a1-8803de6c0669"},"vehicle_type_id":"4","last_reported":1684904798,"current_range_meters":19200,"station_id":"ce4bgup2rcd13ifvqcn0","pricing_plan_id":"free"},{"bike_id":"627e1f87-f166-4725-a7c8-7b3f39426a0d","system_id":"levelo_inurba_marseille","lat":43.304606,"lon":5.379026,"is_reserved":false,"is_disabled":false,"rental_uris":{"android":"levelo://app?vid=627e1f87-f166-4725-a7c8-7b3f39426a0d","ios":"levelo://app?vid=627e1f87-f166-4725-a7c8-7b3f39426a0d"},"vehicle_type_id":"4","last_reported":1684904798,"current_range_meters":26400,"station_id":"ce4bgup2rcd13ifvqcn0","pricing_plan_id":"free"},{"bike_id":"1d5ae5cb-c76f-4590-a056-8e524622aba8","system_id":"levelo_inurba_marseille","lat":43.304606,"lon":5.379026,"is_reserved":false,"is_disabled":false,"rental_uris":{"android":"levelo://app?vid=1d5ae5cb-c76f-4590-a056-8e524622aba8","ios":"levelo://app?vid=1d5ae5cb-c76f-4590-a056-8e524622aba8"},"vehicle_type_id":"4","last_reported":1684904798,"current_range_meters":0,"station_id":"ce4bgup2rcd13ifvqcn0","pricing_plan_id":"free"},{"bike_id":"47c0a1ab-5c4c-4499-8fcf-26e08e633b72","system_id":"levelo_inurba_marseille","lat":43.304606,"lon":5.379026,"is_reserved":false,"is_disabled":false,"rental_uris":{"android":"levelo://app?vid=47c0a1ab-5c4c-4499-8fcf-26e08e633b72","ios":"levelo://app?vid=47c0a1ab-5c4c-4499-8fcf-26e08e633b72"},"vehicle_type_id":"4","last_reported":1684904798,"current_range_meters":12800,"station_id":"ce4bgup2rcd13ifvqcn0","pricing_plan_id":"free"},{"bike_id":"83ec1c4f-2833-429f-8cf2-3d36b1b9538c","system_id":"levelo_inurba_marseille","lat":43.304606,"lon":5.379026,"is_reserved":false,"is_disabled":false,"rental_uris":{"android":"levelo://app?vid=83ec1c4f-2833-429f-8cf2-3d36b1b9538c","ios":"levelo://app?vid=83ec1c4f-2833-429f-8cf2-3d36b1b9538c"},"vehicle_type_id":"4","last_reported":1684904798,"current_range_meters":24000,"station_id":"ce4bgup2rcd13ifvqcn0","pricing_plan_id":"free"},{"bike_id":"da893150-345a-42c2-bf69-62809f6e449e","system_id":"levelo_inurba_marseille","lat":43.30147,"lon":5.37406,"is_reserved":false,"is_disabled":false,"rental_uris":{"android":"levelo://app?vid=da893150-345a-42c2-bf69-62809f6e449e","ios":"levelo://app?vid=da893150-345a-42c2-bf69-62809f6e449e"},"vehicle_type_id":"4","last_reported":1684904798,"current_range_meters":22000,"station_id":"","pricing_plan_id":"free"},{"bike_id":"fe86a46d-67b3-4aa0-afa4-77047d9713e8","system_id":"levelo_inurba_marseille","lat":43.30143,"lon":5.37409,"is_reserved":false,"is_disabled":false,"rental_uris":{"android":"levelo://app?vid=fe86a46d-67b3-4aa0-afa4-77047d9713e8","ios":"levelo://app?vid=fe86a46d-67b3-4aa0-afa4-77047d9713e8"},"vehicle_type_id":"4","last_reported":1684904798,"current_range_meters":18800,"station_id":"","pricing_plan_id":"free"},{"bike_id":"d8ca3118-7122-430b-b7f3-db3b4924908d","system_id":"levelo_inurba_marseille","lat":43.30144,"lon":5.37415,"is_reserved":false,"is_disabled":false,"rental_uris":{"android":"levelo://app?vid=d8ca3118-7122-430b-b7f3-db3b4924908d","ios":"levelo://app?vid=d8ca3118-7122-430b-b7f3-db3b4924908d"},"vehicle_type_id":"4","last_reported":1684904798,"current_range_meters":18000,"station_id":"","pricing_plan_id":"free"},{"bike_id":"30a37701-e3b4-4434-93c2-13ebaedcd785","system_id":"levelo_inurba_marseille","lat":43.319935,"lon":5.381699,"is_reserved":false,"is_disabled":false,"rental_uris":{"android":"levelo://app?vid=30a37701-e3b4-4434-93c2-13ebaedcd785","ios":"levelo://app?vid=30a37701-e3b4-4434-93c2-13ebaedcd785"},"vehicle_type_id":"4","last_reported":1684904798,"current_range_meters":11600,"station_id":"ce4bhr12rcd13ifvqhpg","pricing_plan_id":"free"},{"bike_id":"4bdc3ba6-87ef-41d2-8f67-88669efaedb9","system_id":"levelo_inurba_marseille","lat":43.319935,"lon":5.381699,"is_reserved":false,"is_disabled":false,"rental_uris":{"android":"levelo://app?vid=4bdc3ba6-87ef-41d2-8f67-88669efaedb9","ios":"levelo://app?vid=4bdc3ba6-87ef-41d2-8f67-88669efaedb9"},"vehicle_type_id":"4","last_reported":1684904798,"current_range_meters":17600,"station_id":"ce4bhr12rcd13ifvqhpg","pricing_plan_id":"free"},{"bike_id":"e13f48db-f4f6-48c2-8df8-a752fcd43e65","system_id":"levelo_inurba_marseille","lat":43.319935,"lon":5.381699,"is_reserved":false,"is_disabled":false,"rental_uris":{"android":"levelo://app?vid=e13f48db-f4f6-48c2-8df8-a752fcd43e65","ios":"levelo://app?vid=e13f48db-f4f6-48c2-8df8-a752fcd43e65"},"vehicle_type_id":"4","last_reported":1684904798,"current_range_meters":9600,"station_id":"ce4bhr12rcd13ifvqhpg","pricing_plan_id":"free"},{"bike_id":"e2b09657-3223-45c0-8972-f51487d9add9","system_id":"levelo_inurba_marseille","lat":43.313571,"lon":5.384829,"is_reserved":false,"is_disabled":false,"rental_uris":{"android":"levelo://app?vid=e2b09657-3223-45c0-8972-f51487d9add9","ios":"levelo://app?vid=e2b09657-3223-45c0-8972-f51487d9add9"},"vehicle_type_id":"4","last_reported":1684904798,"current_range_meters":31600,"station_id":"ce4bgt92rcd13ifvqcf0","pricing_plan_id":"free"},{"bike_id":"78de777b-1e37-4ea0-912d-dfb4987f31ae","system_id":"levelo_inurba_marseille","lat":43.3136,"lon":5.38495,"is_reserved":false,"is_disabled":false,"rental_uris":{"android":"levelo://app?vid=78de777b-1e37-4ea0-912d-dfb4987f31ae","ios":"levelo://app?vid=78de777b-1e37-4ea0-912d-dfb4987f31ae"},"vehicle_type_id":"4","last_reported":1684904798,"current_range_meters":28400,"station_id":"ce4bgt92rcd13ifvqcf0","pricing_plan_id":"free"},{"bike_id":"e86d6283-8d92-4567-8c84-dd1b9f66f001","system_id":"levelo_inurba_marseille","lat":43.313571,"lon":5.384829,"is_reserved":false,"is_disabled":false,"rental_uris":{"android":"levelo://app?vid=e86d6283-8d92-4567-8c84-dd1b9f66f001","ios":"levelo://app?vid=e86d6283-8d92-4567-8c84-dd1b9f66f001"},"vehicle_type_id":"4","last_reported":1684904798,"current_range_meters":27600,"station_id":"ce4bgt92rcd13ifvqcf0","pricing_plan_id":"free"},{"bike_id":"acf20d30-2c0c-4d96-bb32-3843daf91dd3","system_id":"levelo_inurba_marseille","lat":43.31373,"lon":5.38495,"is_reserved":false,"is_disabled":false,"rental_uris":{"android":"levelo://app?vid=acf20d30-2c0c-4d96-bb32-3843daf91dd3","ios":"levelo://app?vid=acf20d30-2c0c-4d96-bb32-3843daf91dd3"},"vehicle_type_id":"4","last_reported":1684904798,"current_range_meters":31200,"station_id":"ce4bgt92rcd13ifvqcf0","pricing_plan_id":"free"},{"bike_id":"e38c9518-8622-434a-ad6c-0b5bec666c16","system_id":"levelo_inurba_marseille","lat":43.31364,"lon":5.38496,"is_reserved":false,"is_disabled":false,"rental_uris":{"android":"levelo://app?vid=e38c9518-8622-434a-ad6c-0b5bec666c16","ios":"levelo://app?vid=e38c9518-8622-434a-ad6c-0b5bec666c16"},"vehicle_type_id":"4","last_reported":1684904798,"current_range_meters":27200,"station_id":"ce4bgt92rcd13ifvqcf0","pricing_plan_id":"free"},{"bike_id":"89aee25a-d04e-43dd-bf69-a808b7abe903","system_id":"levelo_inurba_marseille","lat":43.31371,"lon":5.38519,"is_reserved":false,"is_disabled":false,"rental_uris":{"android":"levelo://app?vid=89aee25a-d04e-43dd-bf69-a808b7abe903","ios":"levelo://app?vid=89aee25a-d04e-43dd-bf69-a808b7abe903"},"vehicle_type_id":"4","last_reported":1684904798,"current_range_meters":9200,"station_id":"","pricing_plan_id":"free"},{"bike_id":"b5aaf8f7-2ca8-493c-b967-dfbf4007569e","system_id":"levelo_inurba_marseille","lat":43.32207,"lon":5.38095,"is_reserved":false,"is_disabled":false,"rental_uris":{"android":"levelo://app?vid=b5aaf8f7-2ca8-493c-b967-dfbf4007569e","ios":"levelo://app?vid=b5aaf8f7-2ca8-493c-b967-dfbf4007569e"},"vehicle_type_id":"4","last_reported":1684904798,"current_range_meters":30800,"station_id":"","pricing_plan_id":"free"},{"bike_id":"3081cd74-8ac4-44ba-b5a7-850346814a65","system_id":"levelo_inurba_marseille","lat":43.305364,"lon":5.384119,"is_reserved":false,"is_disabled":false,"rental_uris":{"android":"levelo://app?vid=3081cd74-8ac4-44ba-b5a7-850346814a65","ios":"levelo://app?vid=3081cd74-8ac4-44ba-b5a7-850346814a65"},"vehicle_type_id":"4","last_reported":1684904798,"current_range_meters":21600,"station_id":"ce4bgg92rcd13ifvqb30","pricing_plan_id":"free"},{"bike_id":"43fc0082-9e98-4346-b413-a4cadc757bc5","system_id":"levelo_inurba_marseille","lat":43.29925,"lon":5.37453,"is_reserved":false,"is_disabled":false,"rental_uris":{"android":"levelo://app?vid=43fc0082-9e98-4346-b413-a4cadc757bc5","ios":"levelo://app?vid=43fc0082-9e98-4346-b413-a4cadc757bc5"},"vehicle_type_id":"4","last_reported":1684904798,"current_range_meters":11600,"station_id":"ce4bgjh2rcd13ifvqbg0","pricing_plan_id":"free"},{"bike_id":"76d6eea9-72dc-47ab-a062-978ecebe90dd","system_id":"levelo_inurba_marseille","lat":43.299243,"lon":5.374807,"is_reserved":false,"is_disabled":false,"rental_uris":{"android":"levelo://app?vid=76d6eea9-72dc-47ab-a062-978ecebe90dd","ios":"levelo://app?vid=76d6eea9-72dc-47ab-a062-978ecebe90dd"},"vehicle_type_id":"4","last_reported":1684904798,"current_range_meters":25600,"station_id":"ce4bgjh2rcd13ifvqbg0","pricing_plan_id":"free"},{"bike_id":"9c20e747-77ed-4497-adc4-7d31d688b312","system_id":"levelo_inurba_marseille","lat":43.299243,"lon":5.374807,"is_reserved":false,"is_disabled":false,"rental_uris":{"android":"levelo://app?vid=9c20e747-77ed-4497-adc4-7d31d688b312","ios":"levelo://app?vid=9c20e747-77ed-4497-adc4-7d31d688b312"},"vehicle_type_id":"4","last_reported":1684904798,"current_range_meters":28800,"station_id":"ce4bgjh2rcd13ifvqbg0","pricing_plan_id":"free"},{"bike_id":"f67aab31-159c-4a90-9816-7dceb6359479","system_id":"levelo_inurba_marseille","lat":43.299243,"lon":5.37481,"is_reserved":false,"is_disabled":false,"rental_uris":{"android":"levelo://app?vid=f67aab31-159c-4a90-9816-7dceb6359479","ios":"levelo://app?vid=f67aab31-159c-4a90-9816-7dceb6359479"},"vehicle_type_id":"4","last_reported":1684904798,"current_range_meters":29200,"station_id":"ce4bgjh2rcd13ifvqbg0","pricing_plan_id":"free"},{"bike_id":"dcec28ec-fe0f-4308-af46-e4f8861838d3","system_id":"levelo_inurba_marseille","lat":43.298433,"lon":5.362774,"is_reserved":false,"is_disabled":false,"rental_uris":{"android":"levelo://app?vid=dcec28ec-fe0f-4308-af46-e4f8861838d3","ios":"levelo://app?vid=dcec28ec-fe0f-4308-af46-e4f8861838d3"},"vehicle_type_id":"4","last_reported":1684904798,"current_range_meters":23600,"station_id":"ce4bgpp2rcd13ifvqc3g","pricing_plan_id":"free"},{"bike_id":"6d189dad-016e-4209-9d4a-d0a9dc95b558","system_id":"levelo_inurba_marseille","lat":43.305364,"lon":5.384119,"is_reserved":false,"is_disabled":false,"rental_uris":{"android":"levelo://app?vid=6d189dad-016e-4209-9d4a-d0a9dc95b558","ios":"levelo://app?vid=6d189dad-016e-4209-9d4a-d0a9dc95b558"},"vehicle_type_id":"4","last_reported":1684904798,"current_range_meters":6800,"station_id":"ce4bgg92rcd13ifvqb30","pricing_plan_id":"free"},{"bike_id":"66ca897f-abef-440b-be7d-cc6243570f5a","system_id":"levelo_inurba_marseille","lat":43.297774,"lon":5.370875,"is_reserved":false,"is_disabled":false,"rental_uris":{"android":"levelo://app?vid=66ca897f-abef-440b-be7d-cc6243570f5a","ios":"levelo://app?vid=66ca897f-abef-440b-be7d-cc6243570f5a"},"vehicle_type_id":"4","last_reported":1684904798,"current_range_meters":27600,"station_id":"ce4bgop2rcd13ifvqc1g","pricing_plan_id":"free"},{"bike_id":"296d39af-da6b-4e61-bb8b-a70e75a72367","system_id":"levelo_inurba_marseille","lat":43.297794,"lon":5.370888,"is_reserved":false,"is_disabled":false,"rental_uris":{"android":"levelo://app?vid=296d39af-da6b-4e61-bb8b-a70e75a72367","ios":"levelo://app?vid=296d39af-da6b-4e61-bb8b-a70e75a72367"},"vehicle_type_id":"4","last_reported":1684904798,"current_range_meters":20000,"station_id":"ce4bgop2rcd13ifvqc1g","pricing_plan_id":"free"},{"bike_id":"9634efb1-2b80-4307-86a0-a99949fdbef5","system_id":"levelo_inurba_marseille","lat":43.297794,"lon":5.370888,"is_reserved":false,"is_disabled":false,"rental_uris":{"android":"levelo://app?vid=9634efb1-2b80-4307-86a0-a99949fdbef5","ios":"levelo://app?vid=9634efb1-2b80-4307-86a0-a99949fdbef5"},"vehicle_type_id":"4","last_reported":1684904798,"current_range_meters":31600,"station_id":"ce4bgop2rcd13ifvqc1g","pricing_plan_id":"free"},{"bike_id":"74534dfe-554f-459f-8413-0330bd999681","system_id":"levelo_inurba_marseille","lat":43.297774,"lon":5.370875,"is_reserved":false,"is_disabled":false,"rental_uris":{"android":"levelo://app?vid=74534dfe-554f-459f-8413-0330bd999681","ios":"levelo://app?vid=74534dfe-554f-459f-8413-0330bd999681"},"vehicle_type_id":"4","last_reported":1684904798,"current_range_meters":29600,"station_id":"ce4bgop2rcd13ifvqc1g","pricing_plan_id":"free"},{"bike_id":"b4f2240a-5ded-411b-9d31-83026cde91dc","system_id":"levelo_inurba_marseille","lat":43.297774,"lon":5.370875,"is_reserved":false,"is_disabled":false,"rental_uris":{"android":"levelo://app?vid=b4f2240a-5ded-411b-9d31-83026cde91dc","ios":"levelo://app?vid=b4f2240a-5ded-411b-9d31-83026cde91dc"},"vehicle_type_id":"4","last_reported":1684904798,"current_range_meters":21200,"station_id":"ce4bgop2rcd13ifvqc1g","pricing_plan_id":"free"},{"bike_id":"5657bed7-8f61-4bbe-87e9-5bab0f9ef44f","system_id":"levelo_inurba_marseille","lat":43.297774,"lon":5.370875,"is_reserved":false,"is_disabled":false,"rental_uris":{"android":"levelo://app?vid=5657bed7-8f61-4bbe-87e9-5bab0f9ef44f","ios":"levelo://app?vid=5657bed7-8f61-4bbe-87e9-5bab0f9ef44f"},"vehicle_type_id":"4","last_reported":1684904798,"current_range_meters":28800,"station_id":"ce4bgop2rcd13ifvqc1g","pricing_plan_id":"free"},{"bike_id":"ecd3752f-e644-4de1-9bf9-ca655f3ce742","system_id":"levelo_inurba_marseille","lat":43.297794,"lon":5.370888,"is_reserved":false,"is_disabled":false,"rental_uris":{"android":"levelo://app?vid=ecd3752f-e644-4de1-9bf9-ca655f3ce742","ios":"levelo://app?vid=ecd3752f-e644-4de1-9bf9-ca655f3ce742"},"vehicle_type_id":"4","last_reported":1684904798,"current_range_meters":26000,"station_id":"ce4bgop2rcd13ifvqc1g","pricing_plan_id":"free"},{"bike_id":"9d5352f3-6e0e-4567-9397-5162e6432cd8","system_id":"levelo_inurba_marseille","lat":43.297774,"lon":5.370875,"is_reserved":false,"is_disabled":false,"rental_uris":{"android":"levelo://app?vid=9d5352f3-6e0e-4567-9397-5162e6432cd8","ios":"levelo://app?vid=9d5352f3-6e0e-4567-9397-5162e6432cd8"},"vehicle_type_id":"4","last_reported":1684904798,"current_range_meters":23600,"station_id":"ce4bgop2rcd13ifvqc1g","pricing_plan_id":"free"},{"bike_id":"71912573-ed42-4e6c-8171-898f3e2a9fae","system_id":"levelo_inurba_marseille","lat":43.297774,"lon":5.370875,"is_reserved":false,"is_disabled":false,"rental_uris":{"android":"levelo://app?vid=71912573-ed42-4e6c-8171-898f3e2a9fae","ios":"levelo://app?vid=71912573-ed42-4e6c-8171-898f3e2a9fae"},"vehicle_type_id":"4","last_reported":1684904798,"current_range_meters":29200,"station_id":"ce4bgop2rcd13ifvqc1g","pricing_plan_id":"free"},{"bike_id":"927606e9-217b-4c05-86c9-a5111d57eccf","system_id":"levelo_inurba_marseille","lat":43.297794,"lon":5.370888,"is_reserved":false,"is_disabled":false,"rental_uris":{"android":"levelo://app?vid=927606e9-217b-4c05-86c9-a5111d57eccf","ios":"levelo://app?vid=927606e9-217b-4c05-86c9-a5111d57eccf"},"vehicle_type_id":"4","last_reported":1684904798,"current_range_meters":29200,"station_id":"ce4bgop2rcd13ifvqc1g","pricing_plan_id":"free"},{"bike_id":"7af17c78-23a8-4413-9ffe-4caea6dfd1a6","system_id":"levelo_inurba_marseille","lat":43.297794,"lon":5.370888,"is_reserved":false,"is_disabled":false,"rental_uris":{"android":"levelo://app?vid=7af17c78-23a8-4413-9ffe-4caea6dfd1a6","ios":"levelo://app?vid=7af17c78-23a8-4413-9ffe-4caea6dfd1a6"},"vehicle_type_id":"4","last_reported":1684904798,"current_range_meters":18000,"station_id":"ce4bgop2rcd13ifvqc1g","pricing_plan_id":"free"},{"bike_id":"07d0f5f8-594a-4c99-bd5f-efd86e16327f","system_id":"levelo_inurba_marseille","lat":43.328371,"lon":5.366912,"is_reserved":false,"is_disabled":false,"rental_uris":{"android":"levelo://app?vid=07d0f5f8-594a-4c99-bd5f-efd86e16327f","ios":"levelo://app?vid=07d0f5f8-594a-4c99-bd5f-efd86e16327f"},"vehicle_type_id":"4","last_reported":1684904798,"current_range_meters":17600,"station_id":"ce4bhs92rcd13ifvqi0g","pricing_plan_id":"free"},{"bike_id":"a72cd3ab-e87f-4964-a87c-25d1d90e9843","system_id":"levelo_inurba_marseille","lat":43.328371,"lon":5.366912,"is_reserved":false,"is_disabled":false,"rental_uris":{"android":"levelo://app?vid=a72cd3ab-e87f-4964-a87c-25d1d90e9843","ios":"levelo://app?vid=a72cd3ab-e87f-4964-a87c-25d1d90e9843"},"vehicle_type_id":"4","last_reported":1684904798,"current_range_meters":24000,"station_id":"ce4bhs92rcd13ifvqi0g","pricing_plan_id":"free"},{"bike_id":"e3e28a0c-7e9d-486f-8073-6f555a5f5068","system_id":"levelo_inurba_marseille","lat":43.2972,"lon":5.36616,"is_reserved":false,"is_disabled":false,"rental_uris":{"android":"levelo://app?vid=e3e28a0c-7e9d-486f-8073-6f555a5f5068","ios":"levelo://app?vid=e3e28a0c-7e9d-486f-8073-6f555a5f5068"},"vehicle_type_id":"4","last_reported":1684904798,"current_range_meters":0,"station_id":"","pricing_plan_id":"free"},{"bike_id":"fad50468-bff6-4eb0-bc39-08e7203bec60","system_id":"levelo_inurba_marseille","lat":43.328371,"lon":5.366912,"is_reserved":false,"is_disabled":false,"rental_uris":{"android":"levelo://app?vid=fad50468-bff6-4eb0-bc39-08e7203bec60","ios":"levelo://app?vid=fad50468-bff6-4eb0-bc39-08e7203bec60"},"vehicle_type_id":"4","last_reported":1684904798,"current_range_meters":23600,"station_id":"ce4bhs92rcd13ifvqi0g","pricing_plan_id":"free"},{"bike_id":"8055edff-007a-433c-bb5b-643f9582a0ba","system_id":"levelo_inurba_marseille","lat":43.328371,"lon":5.366909,"is_reserved":false,"is_disabled":false,"rental_uris":{"android":"levelo://app?vid=8055edff-007a-433c-bb5b-643f9582a0ba","ios":"levelo://app?vid=8055edff-007a-433c-bb5b-643f9582a0ba"},"vehicle_type_id":"4","last_reported":1684904798,"current_range_meters":15200,"station_id":"ce4bhs92rcd13ifvqi0g","pricing_plan_id":"free"},{"bike_id":"4a74cade-446d-4477-8c3b-839cd9ca8bff","system_id":"levelo_inurba_marseille","lat":43.31518,"lon":5.38958,"is_reserved":false,"is_disabled":false,"rental_uris":{"android":"levelo://app?vid=4a74cade-446d-4477-8c3b-839cd9ca8bff","ios":"levelo://app?vid=4a74cade-446d-4477-8c3b-839cd9ca8bff"},"vehicle_type_id":"4","last_reported":1684904798,"current_range_meters":30800,"station_id":"","pricing_plan_id":"free"},{"bike_id":"0022c8e0-b57f-4a16-94cb-1fbd25366096","system_id":"levelo_inurba_marseille","lat":43.29619,"lon":5.37151,"is_reserved":false,"is_disabled":false,"rental_uris":{"android":"levelo://app?vid=0022c8e0-b57f-4a16-94cb-1fbd25366096","ios":"levelo://app?vid=0022c8e0-b57f-4a16-94cb-1fbd25366096"},"vehicle_type_id":"4","last_reported":1684904798,"current_range_meters":28000,"station_id":"","pricing_plan_id":"free"},{"bike_id":"9c2bcf8d-4381-4a5a-860d-0053a21da296","system_id":"levelo_inurba_marseille","lat":43.29904,"lon":5.38143,"is_reserved":false,"is_disabled":false,"rental_uris":{"android":"levelo://app?vid=9c2bcf8d-4381-4a5a-860d-0053a21da296","ios":"levelo://app?vid=9c2bcf8d-4381-4a5a-860d-0053a21da296"},"vehicle_type_id":"4","last_reported":1684904798,"current_range_meters":23200,"station_id":"ce4bgj12rcd13ifvqbc0","pricing_plan_id":"free"},{"bike_id":"22c4de7b-224a-4e34-9b55-398a6c4f5c1b","system_id":"levelo_inurba_marseille","lat":43.296935,"lon":5.376544,"is_reserved":false,"is_disabled":false,"rental_uris":{"android":"levelo://app?vid=22c4de7b-224a-4e34-9b55-398a6c4f5c1b","ios":"levelo://app?vid=22c4de7b-224a-4e34-9b55-398a6c4f5c1b"},"vehicle_type_id":"4","last_reported":1684904798,"current_range_meters":28800,"station_id":"ce4bgkh2rcd13ifvqbl0","pricing_plan_id":"free"},{"bike_id":"4dd12e1a-131c-4b48-865b-f24828c5e015","system_id":"levelo_inurba_marseille","lat":43.309589,"lon":5.390258,"is_reserved":false,"is_disabled":false,"rental_uris":{"android":"levelo://app?vid=4dd12e1a-131c-4b48-865b-f24828c5e015","ios":"levelo://app?vid=4dd12e1a-131c-4b48-865b-f24828c5e015"},"vehicle_type_id":"4","last_reported":1684904798,"current_range_meters":30800,"station_id":"ce4bgup2rcd13ifvqco0","pricing_plan_id":"free"},{"bike_id":"baf357f3-0334-4a25-a04c-972cc92ee93a","system_id":"levelo_inurba_marseille","lat":43.296935,"lon":5.376544,"is_reserved":false,"is_disabled":false,"rental_uris":{"android":"levelo://app?vid=baf357f3-0334-4a25-a04c-972cc92ee93a","ios":"levelo://app?vid=baf357f3-0334-4a25-a04c-972cc92ee93a"},"vehicle_type_id":"4","last_reported":1684904798,"current_range_meters":23600,"station_id":"ce4bgkh2rcd13ifvqbl0","pricing_plan_id":"free"},{"bike_id":"f0eb448b-c195-4e68-afa6-65f21b4eafdd","system_id":"levelo_inurba_marseille","lat":43.309589,"lon":5.390258,"is_reserved":false,"is_disabled":false,"rental_uris":{"android":"levelo://app?vid=f0eb448b-c195-4e68-afa6-65f21b4eafdd","ios":"levelo://app?vid=f0eb448b-c195-4e68-afa6-65f21b4eafdd"},"vehicle_type_id":"4","last_reported":1684904798,"current_range_meters":26400,"station_id":"ce4bgup2rcd13ifvqco0","pricing_plan_id":"free"},{"bike_id":"57927a99-8484-4848-aa55-81084d7c1d22","system_id":"levelo_inurba_marseille","lat":43.309589,"lon":5.390258,"is_reserved":false,"is_disabled":false,"rental_uris":{"android":"levelo://app?vid=57927a99-8484-4848-aa55-81084d7c1d22","ios":"levelo://app?vid=57927a99-8484-4848-aa55-81084d7c1d22"},"vehicle_type_id":"4","last_reported":1684904798,"current_range_meters":31600,"station_id":"ce4bgup2rcd13ifvqco0","pricing_plan_id":"free"},{"bike_id":"09b7cffd-5ae1-4a72-ae40-6a9a40df8a58","system_id":"levelo_inurba_marseille","lat":43.309589,"lon":5.390258,"is_reserved":false,"is_disabled":false,"rental_uris":{"android":"levelo://app?vid=09b7cffd-5ae1-4a72-ae40-6a9a40df8a58","ios":"levelo://app?vid=09b7cffd-5ae1-4a72-ae40-6a9a40df8a58"},"vehicle_type_id":"4","last_reported":1684904798,"current_range_meters":27200,"station_id":"ce4bgup2rcd13ifvqco0","pricing_plan_id":"free"},{"bike_id":"5e0e51cb-a381-40fe-9168-c80dea3c6a9d","system_id":"levelo_inurba_marseille","lat":43.317557,"lon":5.390173,"is_reserved":false,"is_disabled":false,"rental_uris":{"android":"levelo://app?vid=5e0e51cb-a381-40fe-9168-c80dea3c6a9d","ios":"levelo://app?vid=5e0e51cb-a381-40fe-9168-c80dea3c6a9d"},"vehicle_type_id":"4","last_reported":1684904798,"current_range_meters":28800,"station_id":"ce4bhqp2rcd13ifvqhng","pricing_plan_id":"free"},{"bike_id":"2bb9a8aa-d109-4f4d-b0e9-d9ecb1da0046","system_id":"levelo_inurba_marseille","lat":43.317557,"lon":5.390173,"is_reserved":false,"is_disabled":false,"rental_uris":{"android":"levelo://app?vid=2bb9a8aa-d109-4f4d-b0e9-d9ecb1da0046","ios":"levelo://app?vid=2bb9a8aa-d109-4f4d-b0e9-d9ecb1da0046"},"vehicle_type_id":"4","last_reported":1684904798,"current_range_meters":23200,"station_id":"ce4bhqp2rcd13ifvqhng","pricing_plan_id":"free"},{"bike_id":"ce63b0b0-741d-4269-b782-bb63e586d7cb","system_id":"levelo_inurba_marseille","lat":43.317557,"lon":5.390173,"is_reserved":false,"is_disabled":false,"rental_uris":{"android":"levelo://app?vid=ce63b0b0-741d-4269-b782-bb63e586d7cb","ios":"levelo://app?vid=ce63b0b0-741d-4269-b782-bb63e586d7cb"},"vehicle_type_id":"4","last_reported":1684904798,"current_range_meters":31200,"station_id":"ce4bhqp2rcd13ifvqhng","pricing_plan_id":"free"},{"bike_id":"17e9231a-3b51-4021-897d-99e7f67bb168","system_id":"levelo_inurba_marseille","lat":43.31755,"lon":5.3902,"is_reserved":false,"is_disabled":false,"rental_uris":{"android":"levelo://app?vid=17e9231a-3b51-4021-897d-99e7f67bb168","ios":"levelo://app?vid=17e9231a-3b51-4021-897d-99e7f67bb168"},"vehicle_type_id":"4","last_reported":1684904798,"current_range_meters":27200,"station_id":"ce4bhqp2rcd13ifvqhng","pricing_plan_id":"free"},{"bike_id":"d8071ab0-fb1e-4a4f-a57a-c5ef288e3e98","system_id":"levelo_inurba_marseille","lat":43.317557,"lon":5.390173,"is_reserved":false,"is_disabled":false,"rental_uris":{"android":"levelo://app?vid=d8071ab0-fb1e-4a4f-a57a-c5ef288e3e98","ios":"levelo://app?vid=d8071ab0-fb1e-4a4f-a57a-c5ef288e3e98"},"vehicle_type_id":"4","last_reported":1684904798,"current_range_meters":22400,"station_id":"ce4bhqp2rcd13ifvqhng","pricing_plan_id":"free"},{"bike_id":"9366fdf5-1407-44bb-9153-d6f7d92846f9","system_id":"levelo_inurba_marseille","lat":43.29801,"lon":5.38088,"is_reserved":false,"is_disabled":false,"rental_uris":{"android":"levelo://app?vid=9366fdf5-1407-44bb-9153-d6f7d92846f9","ios":"levelo://app?vid=9366fdf5-1407-44bb-9153-d6f7d92846f9"},"vehicle_type_id":"4","last_reported":1684904798,"current_range_meters":28000,"station_id":"ce4bgip2rcd13ifvqbb0","pricing_plan_id":"free"},{"bike_id":"cb5b1119-ac38-4c6a-9431-3b5117142c31","system_id":"levelo_inurba_marseille","lat":43.304274,"lon":5.388873,"is_reserved":false,"is_disabled":false,"rental_uris":{"android":"levelo://app?vid=cb5b1119-ac38-4c6a-9431-3b5117142c31","ios":"levelo://app?vid=cb5b1119-ac38-4c6a-9431-3b5117142c31"},"vehicle_type_id":"4","last_reported":1684904798,"current_range_meters":22400,"station_id":"ce4bgk12rcd13ifvqbi0","pricing_plan_id":"free"},{"bike_id":"8f405896-6196-4084-90af-fdecae214aed","system_id":"levelo_inurba_marseille","lat":43.304274,"lon":5.388873,"is_reserved":false,"is_disabled":false,"rental_uris":{"android":"levelo://app?vid=8f405896-6196-4084-90af-fdecae214aed","ios":"levelo://app?vid=8f405896-6196-4084-90af-fdecae214aed"},"vehicle_type_id":"4","last_reported":1684904798,"current_range_meters":30400,"station_id":"ce4bgk12rcd13ifvqbi0","pricing_plan_id":"free"},{"bike_id":"c79bf59d-a4c4-4a1d-9c89-6f9737efa96f","system_id":"levelo_inurba_marseille","lat":43.295763,"lon":5.375157,"is_reserved":false,"is_disabled":false,"rental_uris":{"android":"levelo://app?vid=c79bf59d-a4c4-4a1d-9c89-6f9737efa96f","ios":"levelo://app?vid=c79bf59d-a4c4-4a1d-9c89-6f9737efa96f"},"vehicle_type_id":"4","last_reported":1684904798,"current_range_meters":4000,"station_id":"","pricing_plan_id":"free"},{"bike_id":"a03ab63c-b081-4e47-b429-23dc4de2739d","system_id":"levelo_inurba_marseille","lat":43.295748,"lon":5.37522,"is_reserved":false,"is_disabled":false,"rental_uris":{"android":"levelo://app?vid=a03ab63c-b081-4e47-b429-23dc4de2739d","ios":"levelo://app?vid=a03ab63c-b081-4e47-b429-23dc4de2739d"},"vehicle_type_id":"4","last_reported":1684904798,"current_range_meters":24000,"station_id":"ce4bgh92rcd13ifvqb50","pricing_plan_id":"free"},{"bike_id":"44f1cbd8-3b2b-472e-8a34-cbf6c8fa33d9","system_id":"levelo_inurba_marseille","lat":43.295748,"lon":5.37522,"is_reserved":false,"is_disabled":false,"rental_uris":{"android":"levelo://app?vid=44f1cbd8-3b2b-472e-8a34-cbf6c8fa33d9","ios":"levelo://app?vid=44f1cbd8-3b2b-472e-8a34-cbf6c8fa33d9"},"vehicle_type_id":"4","last_reported":1684904798,"current_range_meters":22400,"station_id":"ce4bgh92rcd13ifvqb50","pricing_plan_id":"free"},{"bike_id":"d875bcac-d27d-4bb1-a95d-3a5c8711325e","system_id":"levelo_inurba_marseille","lat":43.295748,"lon":5.37522,"is_reserved":false,"is_disabled":false,"rental_uris":{"android":"levelo://app?vid=d875bcac-d27d-4bb1-a95d-3a5c8711325e","ios":"levelo://app?vid=d875bcac-d27d-4bb1-a95d-3a5c8711325e"},"vehicle_type_id":"4","last_reported":1684904798,"current_range_meters":25600,"station_id":"ce4bgh92rcd13ifvqb50","pricing_plan_id":"free"},{"bike_id":"696f66a1-2d25-4e58-b6b7-1173465c6541","system_id":"levelo_inurba_marseille","lat":43.304274,"lon":5.388873,"is_reserved":false,"is_disabled":false,"rental_uris":{"android":"levelo://app?vid=696f66a1-2d25-4e58-b6b7-1173465c6541","ios":"levelo://app?vid=696f66a1-2d25-4e58-b6b7-1173465c6541"},"vehicle_type_id":"4","last_reported":1684904798,"current_range_meters":31200,"station_id":"ce4bgk12rcd13ifvqbi0","pricing_plan_id":"free"},{"bike_id":"7541f50c-5cb0-4220-be63-197a169ce420","system_id":"levelo_inurba_marseille","lat":43.29791,"lon":5.38116,"is_reserved":false,"is_disabled":false,"rental_uris":{"android":"levelo://app?vid=7541f50c-5cb0-4220-be63-197a169ce420","ios":"levelo://app?vid=7541f50c-5cb0-4220-be63-197a169ce420"},"vehicle_type_id":"4","last_reported":1684904798,"current_range_meters":28000,"station_id":"ce4bgip2rcd13ifvqbb0","pricing_plan_id":"free"},{"bike_id":"63dd4adc-dccd-46d7-aff6-3253254db396","system_id":"levelo_inurba_marseille","lat":43.29971,"lon":5.38489,"is_reserved":false,"is_disabled":false,"rental_uris":{"android":"levelo://app?vid=63dd4adc-dccd-46d7-aff6-3253254db396","ios":"levelo://app?vid=63dd4adc-dccd-46d7-aff6-3253254db396"},"vehicle_type_id":"4","last_reported":1684904798,"current_range_meters":0,"station_id":"ce4bgj92rcd13ifvqbd0","pricing_plan_id":"free"},{"bike_id":"d08580f2-e011-42b3-a9e9-78969f789498","system_id":"levelo_inurba_marseille","lat":43.32362,"lon":5.38877,"is_reserved":false,"is_disabled":false,"rental_uris":{"android":"levelo://app?vid=d08580f2-e011-42b3-a9e9-78969f789498","ios":"levelo://app?vid=d08580f2-e011-42b3-a9e9-78969f789498"},"vehicle_type_id":"4","last_reported":1684904798,"current_range_meters":28800,"station_id":"ce4bhqp2rcd13ifvqhog","pricing_plan_id":"free"},{"bike_id":"f2371f63-e4eb-48fe-aaa9-64cb538c1f31","system_id":"levelo_inurba_marseille","lat":43.32361,"lon":5.38882,"is_reserved":false,"is_disabled":false,"rental_uris":{"android":"levelo://app?vid=f2371f63-e4eb-48fe-aaa9-64cb538c1f31","ios":"levelo://app?vid=f2371f63-e4eb-48fe-aaa9-64cb538c1f31"},"vehicle_type_id":"4","last_reported":1684904798,"current_range_meters":27600,"station_id":"ce4bhqp2rcd13ifvqhog","pricing_plan_id":"free"},{"bike_id":"c43523df-276e-4694-adcf-a8b0c16542e3","system_id":"levelo_inurba_marseille","lat":43.32364,"lon":5.3888,"is_reserved":false,"is_disabled":false,"rental_uris":{"android":"levelo://app?vid=c43523df-276e-4694-adcf-a8b0c16542e3","ios":"levelo://app?vid=c43523df-276e-4694-adcf-a8b0c16542e3"},"vehicle_type_id":"4","last_reported":1684904798,"current_range_meters":16400,"station_id":"ce4bhqp2rcd13ifvqhog","pricing_plan_id":"free"},{"bike_id":"435efeae-a7e4-48dc-9ebe-ef72d32dbddd","system_id":"levelo_inurba_marseille","lat":43.32363,"lon":5.38883,"is_reserved":false,"is_disabled":false,"rental_uris":{"android":"levelo://app?vid=435efeae-a7e4-48dc-9ebe-ef72d32dbddd","ios":"levelo://app?vid=435efeae-a7e4-48dc-9ebe-ef72d32dbddd"},"vehicle_type_id":"4","last_reported":1684904798,"current_range_meters":20000,"station_id":"ce4bhqp2rcd13ifvqhog","pricing_plan_id":"free"},{"bike_id":"6e929eea-ce83-4051-9199-c8d1e6f83d61","system_id":"levelo_inurba_marseille","lat":43.32367,"lon":5.38881,"is_reserved":false,"is_disabled":false,"rental_uris":{"android":"levelo://app?vid=6e929eea-ce83-4051-9199-c8d1e6f83d61","ios":"levelo://app?vid=6e929eea-ce83-4051-9199-c8d1e6f83d61"},"vehicle_type_id":"4","last_reported":1684904798,"current_range_meters":10800,"station_id":"ce4bhqp2rcd13ifvqhog","pricing_plan_id":"free"},{"bike_id":"c491bbd1-3514-426e-8563-fc0fefddf0f3","system_id":"levelo_inurba_marseille","lat":43.32365,"lon":5.38883,"is_reserved":false,"is_disabled":false,"rental_uris":{"android":"levelo://app?vid=c491bbd1-3514-426e-8563-fc0fefddf0f3","ios":"levelo://app?vid=c491bbd1-3514-426e-8563-fc0fefddf0f3"},"vehicle_type_id":"4","last_reported":1684904798,"current_range_meters":24400,"station_id":"ce4bhqp2rcd13ifvqhog","pricing_plan_id":"free"},{"bike_id":"3f8c51b1-976c-4389-91e4-6aba882bdcd1","system_id":"levelo_inurba_marseille","lat":43.32366,"lon":5.38883,"is_reserved":false,"is_disabled":false,"rental_uris":{"android":"levelo://app?vid=3f8c51b1-976c-4389-91e4-6aba882bdcd1","ios":"levelo://app?vid=3f8c51b1-976c-4389-91e4-6aba882bdcd1"},"vehicle_type_id":"4","last_reported":1684904798,"current_range_meters":12800,"station_id":"ce4bhqp2rcd13ifvqhog","pricing_plan_id":"free"},{"bike_id":"b2239e09-41dc-4cde-9b2f-b27fe7d0a355","system_id":"levelo_inurba_marseille","lat":43.32367,"lon":5.388836,"is_reserved":false,"is_disabled":false,"rental_uris":{"android":"levelo://app?vid=b2239e09-41dc-4cde-9b2f-b27fe7d0a355","ios":"levelo://app?vid=b2239e09-41dc-4cde-9b2f-b27fe7d0a355"},"vehicle_type_id":"4","last_reported":1684904798,"current_range_meters":18400,"station_id":"ce4bhqp2rcd13ifvqhog","pricing_plan_id":"free"},{"bike_id":"01d401da-ad68-4b2e-a4ac-24f3f8771d91","system_id":"levelo_inurba_marseille","lat":43.32367,"lon":5.388836,"is_reserved":false,"is_disabled":false,"rental_uris":{"android":"levelo://app?vid=01d401da-ad68-4b2e-a4ac-24f3f8771d91","ios":"levelo://app?vid=01d401da-ad68-4b2e-a4ac-24f3f8771d91"},"vehicle_type_id":"4","last_reported":1684904798,"current_range_meters":24400,"station_id":"ce4bhqp2rcd13ifvqhog","pricing_plan_id":"free"},{"bike_id":"c562c012-d578-4171-bd11-c8f2b06d99d8","system_id":"levelo_inurba_marseille","lat":43.29301,"lon":5.37439,"is_reserved":false,"is_disabled":false,"rental_uris":{"android":"levelo://app?vid=c562c012-d578-4171-bd11-c8f2b06d99d8","ios":"levelo://app?vid=c562c012-d578-4171-bd11-c8f2b06d99d8"},"vehicle_type_id":"4","last_reported":1684904798,"current_range_meters":26400,"station_id":"ce4bgi12rcd13ifvqb70","pricing_plan_id":"free"},{"bike_id":"55ba41da-9574-4539-b16e-2a28dd90df87","system_id":"levelo_inurba_marseille","lat":43.29226,"lon":5.36062,"is_reserved":false,"is_disabled":false,"rental_uris":{"android":"levelo://app?vid=55ba41da-9574-4539-b16e-2a28dd90df87","ios":"levelo://app?vid=55ba41da-9574-4539-b16e-2a28dd90df87"},"vehicle_type_id":"4","last_reported":1684904798,"current_range_meters":22400,"station_id":"ce4bhbh2rcd13ifvqeqg","pricing_plan_id":"free"},{"bike_id":"4efe0607-c817-4529-9aa3-acbbf4d14668","system_id":"levelo_inurba_marseille","lat":43.32774,"lon":5.3881,"is_reserved":false,"is_disabled":false,"rental_uris":{"android":"levelo://app?vid=4efe0607-c817-4529-9aa3-acbbf4d14668","ios":"levelo://app?vid=4efe0607-c817-4529-9aa3-acbbf4d14668"},"vehicle_type_id":"4","last_reported":1684904798,"current_range_meters":12000,"station_id":"","pricing_plan_id":"free"},{"bike_id":"1eb3c035-ef3c-4fb7-80ab-12677b0d6ac3","system_id":"levelo_inurba_marseille","lat":43.291994,"lon":5.357886,"is_reserved":false,"is_disabled":false,"rental_uris":{"android":"levelo://app?vid=1eb3c035-ef3c-4fb7-80ab-12677b0d6ac3","ios":"levelo://app?vid=1eb3c035-ef3c-4fb7-80ab-12677b0d6ac3"},"vehicle_type_id":"4","last_reported":1684904798,"current_range_meters":30800,"station_id":"ce4bhb12rcd13ifvqel0","pricing_plan_id":"free"},{"bike_id":"125374ce-6218-4cd2-8f40-4672ac369bcb","system_id":"levelo_inurba_marseille","lat":43.30881,"lon":5.39637,"is_reserved":false,"is_disabled":false,"rental_uris":{"android":"levelo://app?vid=125374ce-6218-4cd2-8f40-4672ac369bcb","ios":"levelo://app?vid=125374ce-6218-4cd2-8f40-4672ac369bcb"},"vehicle_type_id":"4","last_reported":1684904798,"current_range_meters":14000,"station_id":"","pricing_plan_id":"free"},{"bike_id":"2306df84-8ca6-40ae-9914-69aa6b40656b","system_id":"levelo_inurba_marseille","lat":43.3088,"lon":5.39637,"is_reserved":false,"is_disabled":false,"rental_uris":{"android":"levelo://app?vid=2306df84-8ca6-40ae-9914-69aa6b40656b","ios":"levelo://app?vid=2306df84-8ca6-40ae-9914-69aa6b40656b"},"vehicle_type_id":"4","last_reported":1684904798,"current_range_meters":22400,"station_id":"","pricing_plan_id":"free"},{"bike_id":"54c6f172-54d1-46b0-a9c1-bc128b7d13ec","system_id":"levelo_inurba_marseille","lat":43.309038,"lon":5.396546,"is_reserved":false,"is_disabled":false,"rental_uris":{"android":"levelo://app?vid=54c6f172-54d1-46b0-a9c1-bc128b7d13ec","ios":"levelo://app?vid=54c6f172-54d1-46b0-a9c1-bc128b7d13ec"},"vehicle_type_id":"4","last_reported":1684904798,"current_range_meters":28000,"station_id":"ce4bh012rcd13ifvqcv0","pricing_plan_id":"free"},{"bike_id":"44cb98f5-1dd5-4085-9d37-159ebf1bc69c","system_id":"levelo_inurba_marseille","lat":43.313291,"lon":5.396838,"is_reserved":false,"is_disabled":false,"rental_uris":{"android":"levelo://app?vid=44cb98f5-1dd5-4085-9d37-159ebf1bc69c","ios":"levelo://app?vid=44cb98f5-1dd5-4085-9d37-159ebf1bc69c"},"vehicle_type_id":"4","last_reported":1684904798,"current_range_meters":11200,"station_id":"ce4bgvp2rcd13ifvqcu0","pricing_plan_id":"free"},{"bike_id":"8abb052a-54d7-406c-ab0f-a49d41527023","system_id":"levelo_inurba_marseille","lat":43.313291,"lon":5.396838,"is_reserved":false,"is_disabled":false,"rental_uris":{"android":"levelo://app?vid=8abb052a-54d7-406c-ab0f-a49d41527023","ios":"levelo://app?vid=8abb052a-54d7-406c-ab0f-a49d41527023"},"vehicle_type_id":"4","last_reported":1684904798,"current_range_meters":31200,"station_id":"ce4bgvp2rcd13ifvqcu0","pricing_plan_id":"free"},{"bike_id":"c5acdd90-7174-48da-bf24-dce574cabd8f","system_id":"levelo_inurba_marseille","lat":43.309038,"lon":5.396546,"is_reserved":false,"is_disabled":false,"rental_uris":{"android":"levelo://app?vid=c5acdd90-7174-48da-bf24-dce574cabd8f","ios":"levelo://app?vid=c5acdd90-7174-48da-bf24-dce574cabd8f"},"vehicle_type_id":"4","last_reported":1684904798,"current_range_meters":10800,"station_id":"ce4bh012rcd13ifvqcv0","pricing_plan_id":"free"},{"bike_id":"4f7c8bed-1bf8-4a63-8c02-f7954328d701","system_id":"levelo_inurba_marseille","lat":43.30881,"lon":5.39642,"is_reserved":false,"is_disabled":false,"rental_uris":{"android":"levelo://app?vid=4f7c8bed-1bf8-4a63-8c02-f7954328d701","ios":"levelo://app?vid=4f7c8bed-1bf8-4a63-8c02-f7954328d701"},"vehicle_type_id":"4","last_reported":1684904798,"current_range_meters":12400,"station_id":"","pricing_plan_id":"free"},{"bike_id":"2c665ebf-313d-4e9d-b836-a6b59fda5c98","system_id":"levelo_inurba_marseille","lat":43.313291,"lon":5.396838,"is_reserved":false,"is_disabled":false,"rental_uris":{"android":"levelo://app?vid=2c665ebf-313d-4e9d-b836-a6b59fda5c98","ios":"levelo://app?vid=2c665ebf-313d-4e9d-b836-a6b59fda5c98"},"vehicle_type_id":"4","last_reported":1684904798,"current_range_meters":31200,"station_id":"ce4bgvp2rcd13ifvqcu0","pricing_plan_id":"free"},{"bike_id":"3e7c7ecc-c6fa-450b-90f1-23fcfce19293","system_id":"levelo_inurba_marseille","lat":43.31334,"lon":5.39692,"is_reserved":false,"is_disabled":false,"rental_uris":{"android":"levelo://app?vid=3e7c7ecc-c6fa-450b-90f1-23fcfce19293","ios":"levelo://app?vid=3e7c7ecc-c6fa-450b-90f1-23fcfce19293"},"vehicle_type_id":"4","last_reported":1684904798,"current_range_meters":0,"station_id":"ce4bgvp2rcd13ifvqcu0","pricing_plan_id":"free"},{"bike_id":"689d641b-e2d6-421d-a1a4-1aed3ab15277","system_id":"levelo_inurba_marseille","lat":43.313291,"lon":5.396838,"is_reserved":false,"is_disabled":false,"rental_uris":{"android":"levelo://app?vid=689d641b-e2d6-421d-a1a4-1aed3ab15277","ios":"levelo://app?vid=689d641b-e2d6-421d-a1a4-1aed3ab15277"},"vehicle_type_id":"4","last_reported":1684904798,"current_range_meters":12800,"station_id":"ce4bgvp2rcd13ifvqcu0","pricing_plan_id":"free"},{"bike_id":"4c1e3b57-92b1-4105-b6ab-3cfb2eef35ca","system_id":"levelo_inurba_marseille","lat":43.313109,"lon":5.396952,"is_reserved":false,"is_disabled":false,"rental_uris":{"android":"levelo://app?vid=4c1e3b57-92b1-4105-b6ab-3cfb2eef35ca","ios":"levelo://app?vid=4c1e3b57-92b1-4105-b6ab-3cfb2eef35ca"},"vehicle_type_id":"4","last_reported":1684904798,"current_range_meters":0,"station_id":"","pricing_plan_id":"free"},{"bike_id":"6b01b672-ca16-4c8c-a609-eaa448a62259","system_id":"levelo_inurba_marseille","lat":43.313291,"lon":5.396838,"is_reserved":false,"is_disabled":false,"rental_uris":{"android":"levelo://app?vid=6b01b672-ca16-4c8c-a609-eaa448a62259","ios":"levelo://app?vid=6b01b672-ca16-4c8c-a609-eaa448a62259"},"vehicle_type_id":"4","last_reported":1684904798,"current_range_meters":28400,"station_id":"ce4bgvp2rcd13ifvqcu0","pricing_plan_id":"free"},{"bike_id":"d36ff719-ee23-4ad9-b679-77e774f836ef","system_id":"levelo_inurba_marseille","lat":43.313291,"lon":5.396838,"is_reserved":false,"is_disabled":false,"rental_uris":{"android":"levelo://app?vid=d36ff719-ee23-4ad9-b679-77e774f836ef","ios":"levelo://app?vid=d36ff719-ee23-4ad9-b679-77e774f836ef"},"vehicle_type_id":"4","last_reported":1684904798,"current_range_meters":30800,"station_id":"ce4bgvp2rcd13ifvqcu0","pricing_plan_id":"free"},{"bike_id":"dc23d398-a0e1-4c1e-b3e2-79924dcb61c1","system_id":"levelo_inurba_marseille","lat":43.313291,"lon":5.396838,"is_reserved":false,"is_disabled":false,"rental_uris":{"android":"levelo://app?vid=dc23d398-a0e1-4c1e-b3e2-79924dcb61c1","ios":"levelo://app?vid=dc23d398-a0e1-4c1e-b3e2-79924dcb61c1"},"vehicle_type_id":"4","last_reported":1684904798,"current_range_meters":31200,"station_id":"ce4bgvp2rcd13ifvqcu0","pricing_plan_id":"free"},{"bike_id":"75f6bd3c-59f4-4cfc-9b8e-d75de06e04aa","system_id":"levelo_inurba_marseille","lat":43.30884,"lon":5.3965,"is_reserved":false,"is_disabled":false,"rental_uris":{"android":"levelo://app?vid=75f6bd3c-59f4-4cfc-9b8e-d75de06e04aa","ios":"levelo://app?vid=75f6bd3c-59f4-4cfc-9b8e-d75de06e04aa"},"vehicle_type_id":"4","last_reported":1684904798,"current_range_meters":10800,"station_id":"ce4bh012rcd13ifvqcv0","pricing_plan_id":"free"},{"bike_id":"e51623fe-c624-4c27-8da1-76f132393614","system_id":"levelo_inurba_marseille","lat":43.30871,"lon":5.39649,"is_reserved":false,"is_disabled":false,"rental_uris":{"android":"levelo://app?vid=e51623fe-c624-4c27-8da1-76f132393614","ios":"levelo://app?vid=e51623fe-c624-4c27-8da1-76f132393614"},"vehicle_type_id":"4","last_reported":1684904798,"current_range_meters":10400,"station_id":"","pricing_plan_id":"free"},{"bike_id":"5925df28-a498-47da-a418-b93f47662a24","system_id":"levelo_inurba_marseille","lat":43.302008,"lon":5.394694,"is_reserved":false,"is_disabled":false,"rental_uris":{"android":"levelo://app?vid=5925df28-a498-47da-a418-b93f47662a24","ios":"levelo://app?vid=5925df28-a498-47da-a418-b93f47662a24"},"vehicle_type_id":"4","last_reported":1684904798,"current_range_meters":9600,"station_id":"ce4bh0p2rcd13ifvqd70","pricing_plan_id":"free"},{"bike_id":"c00c10ba-bf1c-4884-9085-ab49342c17cc","system_id":"levelo_inurba_marseille","lat":43.31015,"lon":5.39816,"is_reserved":false,"is_disabled":false,"rental_uris":{"android":"levelo://app?vid=c00c10ba-bf1c-4884-9085-ab49342c17cc","ios":"levelo://app?vid=c00c10ba-bf1c-4884-9085-ab49342c17cc"},"vehicle_type_id":"4","last_reported":1684904798,"current_range_meters":26000,"station_id":"","pricing_plan_id":"free"},{"bike_id":"7d98a2a3-0803-4c01-935d-35d45d96ba94","system_id":"levelo_inurba_marseille","lat":43.290631,"lon":5.359244,"is_reserved":false,"is_disabled":false,"rental_uris":{"android":"levelo://app?vid=7d98a2a3-0803-4c01-935d-35d45d96ba94","ios":"levelo://app?vid=7d98a2a3-0803-4c01-935d-35d45d96ba94"},"vehicle_type_id":"4","last_reported":1684904798,"current_range_meters":29200,"station_id":"ce4bha92rcd13ifvqeg0","pricing_plan_id":"free"},{"bike_id":"2a8952b5-14aa-4abd-90f2-aae39ed2ebe1","system_id":"levelo_inurba_marseille","lat":43.290631,"lon":5.359244,"is_reserved":false,"is_disabled":false,"rental_uris":{"android":"levelo://app?vid=2a8952b5-14aa-4abd-90f2-aae39ed2ebe1","ios":"levelo://app?vid=2a8952b5-14aa-4abd-90f2-aae39ed2ebe1"},"vehicle_type_id":"4","last_reported":1684904798,"current_range_meters":30800,"station_id":"ce4bha92rcd13ifvqeg0","pricing_plan_id":"free"},{"bike_id":"1642125e-f634-49ff-8312-210f51505601","system_id":"levelo_inurba_marseille","lat":43.290631,"lon":5.359244,"is_reserved":false,"is_disabled":false,"rental_uris":{"android":"levelo://app?vid=1642125e-f634-49ff-8312-210f51505601","ios":"levelo://app?vid=1642125e-f634-49ff-8312-210f51505601"},"vehicle_type_id":"4","last_reported":1684904798,"current_range_meters":30400,"station_id":"ce4bha92rcd13ifvqeg0","pricing_plan_id":"free"},{"bike_id":"ae5a3a83-fd34-46b0-b676-43df5adc9e80","system_id":"levelo_inurba_marseille","lat":43.290631,"lon":5.359244,"is_reserved":false,"is_disabled":false,"rental_uris":{"android":"levelo://app?vid=ae5a3a83-fd34-46b0-b676-43df5adc9e80","ios":"levelo://app?vid=ae5a3a83-fd34-46b0-b676-43df5adc9e80"},"vehicle_type_id":"4","last_reported":1684904798,"current_range_meters":31600,"station_id":"ce4bha92rcd13ifvqeg0","pricing_plan_id":"free"},{"bike_id":"77481f80-4bbb-40b0-b09d-3d3a32f10cfa","system_id":"levelo_inurba_marseille","lat":43.290319,"lon":5.375732,"is_reserved":false,"is_disabled":false,"rental_uris":{"android":"levelo://app?vid=77481f80-4bbb-40b0-b09d-3d3a32f10cfa","ios":"levelo://app?vid=77481f80-4bbb-40b0-b09d-3d3a32f10cfa"},"vehicle_type_id":"4","last_reported":1684904798,"current_range_meters":24800,"station_id":"ce4bh692rcd13ifvqe90","pricing_plan_id":"free"},{"bike_id":"42ac9ba7-bc56-4104-bf70-571eb3cb0f80","system_id":"levelo_inurba_marseille","lat":43.289184,"lon":5.366408,"is_reserved":false,"is_disabled":false,"rental_uris":{"android":"levelo://app?vid=42ac9ba7-bc56-4104-bf70-571eb3cb0f80","ios":"levelo://app?vid=42ac9ba7-bc56-4104-bf70-571eb3cb0f80"},"vehicle_type_id":"4","last_reported":1684904798,"current_range_meters":31600,"station_id":"ce4bhap2rcd13ifvqek0","pricing_plan_id":"free"},{"bike_id":"109ae847-d1e5-44b4-93cf-8f55ec3daa82","system_id":"levelo_inurba_marseille","lat":43.2893,"lon":5.36633,"is_reserved":false,"is_disabled":false,"rental_uris":{"android":"levelo://app?vid=109ae847-d1e5-44b4-93cf-8f55ec3daa82","ios":"levelo://app?vid=109ae847-d1e5-44b4-93cf-8f55ec3daa82"},"vehicle_type_id":"4","last_reported":1684904798,"current_range_meters":31200,"station_id":"ce4bhap2rcd13ifvqek0","pricing_plan_id":"free"},{"bike_id":"c2c9218e-b7a4-44bb-950c-f9106bfa52ed","system_id":"levelo_inurba_marseille","lat":43.289468,"lon":5.363719,"is_reserved":false,"is_disabled":false,"rental_uris":{"android":"levelo://app?vid=c2c9218e-b7a4-44bb-950c-f9106bfa52ed","ios":"levelo://app?vid=c2c9218e-b7a4-44bb-950c-f9106bfa52ed"},"vehicle_type_id":"4","last_reported":1684904798,"current_range_meters":27600,"station_id":"ce4bhc92rcd13ifvqetg","pricing_plan_id":"free"},{"bike_id":"48c046e4-835e-429c-b10f-d9095236d429","system_id":"levelo_inurba_marseille","lat":43.28928,"lon":5.36631,"is_reserved":false,"is_disabled":false,"rental_uris":{"android":"levelo://app?vid=48c046e4-835e-429c-b10f-d9095236d429","ios":"levelo://app?vid=48c046e4-835e-429c-b10f-d9095236d429"},"vehicle_type_id":"4","last_reported":1684904798,"current_range_meters":31200,"station_id":"ce4bhap2rcd13ifvqek0","pricing_plan_id":"free"},{"bike_id":"f2c0f78e-5359-40cc-b104-9a27e1849cfb","system_id":"levelo_inurba_marseille","lat":43.28928,"lon":5.36628,"is_reserved":false,"is_disabled":false,"rental_uris":{"android":"levelo://app?vid=f2c0f78e-5359-40cc-b104-9a27e1849cfb","ios":"levelo://app?vid=f2c0f78e-5359-40cc-b104-9a27e1849cfb"},"vehicle_type_id":"4","last_reported":1684904798,"current_range_meters":28400,"station_id":"ce4bhap2rcd13ifvqek0","pricing_plan_id":"free"},{"bike_id":"e65cb25c-ab0e-4160-9964-9586a04606af","system_id":"levelo_inurba_marseille","lat":43.289468,"lon":5.363719,"is_reserved":false,"is_disabled":false,"rental_uris":{"android":"levelo://app?vid=e65cb25c-ab0e-4160-9964-9586a04606af","ios":"levelo://app?vid=e65cb25c-ab0e-4160-9964-9586a04606af"},"vehicle_type_id":"4","last_reported":1684904798,"current_range_meters":22000,"station_id":"ce4bhc92rcd13ifvqetg","pricing_plan_id":"free"},{"bike_id":"d0e291c4-07c2-406e-a73e-eac1eac34cd0","system_id":"levelo_inurba_marseille","lat":43.304313,"lon":5.397438,"is_reserved":false,"is_disabled":false,"rental_uris":{"android":"levelo://app?vid=d0e291c4-07c2-406e-a73e-eac1eac34cd0","ios":"levelo://app?vid=d0e291c4-07c2-406e-a73e-eac1eac34cd0"},"vehicle_type_id":"4","last_reported":1684904798,"current_range_meters":12000,"station_id":"ce4bh092rcd13ifvqd20","pricing_plan_id":"free"},{"bike_id":"7903c7d5-3fb3-4112-bcab-7146c5db279b","system_id":"levelo_inurba_marseille","lat":43.304274,"lon":5.397513,"is_reserved":false,"is_disabled":false,"rental_uris":{"android":"levelo://app?vid=7903c7d5-3fb3-4112-bcab-7146c5db279b","ios":"levelo://app?vid=7903c7d5-3fb3-4112-bcab-7146c5db279b"},"vehicle_type_id":"4","last_reported":1684904798,"current_range_meters":31600,"station_id":"ce4bh092rcd13ifvqd20","pricing_plan_id":"free"},{"bike_id":"649048bb-3e9b-48e2-8ce7-87a550e114e9","system_id":"levelo_inurba_marseille","lat":43.304274,"lon":5.397513,"is_reserved":false,"is_disabled":false,"rental_uris":{"android":"levelo://app?vid=649048bb-3e9b-48e2-8ce7-87a550e114e9","ios":"levelo://app?vid=649048bb-3e9b-48e2-8ce7-87a550e114e9"},"vehicle_type_id":"4","last_reported":1684904798,"current_range_meters":3200,"station_id":"ce4bh092rcd13ifvqd20","pricing_plan_id":"free"},{"bike_id":"10173f54-ce03-47c2-aa4d-d9bd41a6cd92","system_id":"levelo_inurba_marseille","lat":43.30425,"lon":5.39752,"is_reserved":false,"is_disabled":false,"rental_uris":{"android":"levelo://app?vid=10173f54-ce03-47c2-aa4d-d9bd41a6cd92","ios":"levelo://app?vid=10173f54-ce03-47c2-aa4d-d9bd41a6cd92"},"vehicle_type_id":"4","last_reported":1684904798,"current_range_meters":11600,"station_id":"ce4bh092rcd13ifvqd20","pricing_plan_id":"free"},{"bike_id":"888e22a2-99d9-4fc1-abcd-75c70d66bbbe","system_id":"levelo_inurba_marseille","lat":43.30422,"lon":5.39753,"is_reserved":false,"is_disabled":false,"rental_uris":{"android":"levelo://app?vid=888e22a2-99d9-4fc1-abcd-75c70d66bbbe","ios":"levelo://app?vid=888e22a2-99d9-4fc1-abcd-75c70d66bbbe"},"vehicle_type_id":"4","last_reported":1684904798,"current_range_meters":30000,"station_id":"ce4bh092rcd13ifvqd20","pricing_plan_id":"free"},{"bike_id":"5be9e55d-723c-4686-bba5-7790c5ed9d51","system_id":"levelo_inurba_marseille","lat":43.304274,"lon":5.397513,"is_reserved":false,"is_disabled":false,"rental_uris":{"android":"levelo://app?vid=5be9e55d-723c-4686-bba5-7790c5ed9d51","ios":"levelo://app?vid=5be9e55d-723c-4686-bba5-7790c5ed9d51"},"vehicle_type_id":"4","last_reported":1684904798,"current_range_meters":31600,"station_id":"ce4bh092rcd13ifvqd20","pricing_plan_id":"free"},{"bike_id":"45aaff14-30f8-4b70-a373-c6895ac91015","system_id":"levelo_inurba_marseille","lat":43.292644,"lon":5.384257,"is_reserved":false,"is_disabled":false,"rental_uris":{"android":"levelo://app?vid=45aaff14-30f8-4b70-a373-c6895ac91015","ios":"levelo://app?vid=45aaff14-30f8-4b70-a373-c6895ac91015"},"vehicle_type_id":"4","last_reported":1684904798,"current_range_meters":25200,"station_id":"ce4bh692rcd13ifvqea0","pricing_plan_id":"free"},{"bike_id":"1185e6ef-9bac-40e6-8b2a-ad5b72702c2f","system_id":"levelo_inurba_marseille","lat":43.30422,"lon":5.39754,"is_reserved":false,"is_disabled":false,"rental_uris":{"android":"levelo://app?vid=1185e6ef-9bac-40e6-8b2a-ad5b72702c2f","ios":"levelo://app?vid=1185e6ef-9bac-40e6-8b2a-ad5b72702c2f"},"vehicle_type_id":"4","last_reported":1684904798,"current_range_meters":10800,"station_id":"ce4bh092rcd13ifvqd20","pricing_plan_id":"free"},{"bike_id":"3adf8e5c-286a-4182-b7b0-67c891443512","system_id":"levelo_inurba_marseille","lat":43.304274,"lon":5.397513,"is_reserved":false,"is_disabled":false,"rental_uris":{"android":"levelo://app?vid=3adf8e5c-286a-4182-b7b0-67c891443512","ios":"levelo://app?vid=3adf8e5c-286a-4182-b7b0-67c891443512"},"vehicle_type_id":"4","last_reported":1684904798,"current_range_meters":10800,"station_id":"ce4bh092rcd13ifvqd20","pricing_plan_id":"free"},{"bike_id":"18d95485-f0c6-4aa8-8383-16c87a3a57e1","system_id":"levelo_inurba_marseille","lat":43.30419,"lon":5.39758,"is_reserved":false,"is_disabled":false,"rental_uris":{"android":"levelo://app?vid=18d95485-f0c6-4aa8-8383-16c87a3a57e1","ios":"levelo://app?vid=18d95485-f0c6-4aa8-8383-16c87a3a57e1"},"vehicle_type_id":"4","last_reported":1684904798,"current_range_meters":5200,"station_id":"ce4bh092rcd13ifvqd20","pricing_plan_id":"free"},{"bike_id":"da0227a2-f348-4adf-9631-c90153ea939f","system_id":"levelo_inurba_marseille","lat":43.30419,"lon":5.39759,"is_reserved":false,"is_disabled":false,"rental_uris":{"android":"levelo://app?vid=da0227a2-f348-4adf-9631-c90153ea939f","ios":"levelo://app?vid=da0227a2-f348-4adf-9631-c90153ea939f"},"vehicle_type_id":"4","last_reported":1684904798,"current_range_meters":4000,"station_id":"ce4bh092rcd13ifvqd20","pricing_plan_id":"free"},{"bike_id":"96712b4a-6e3e-4157-920b-b8141c678f09","system_id":"levelo_inurba_marseille","lat":43.33043,"lon":5.38916,"is_reserved":false,"is_disabled":false,"rental_uris":{"android":"levelo://app?vid=96712b4a-6e3e-4157-920b-b8141c678f09","ios":"levelo://app?vid=96712b4a-6e3e-4157-920b-b8141c678f09"},"vehicle_type_id":"4","last_reported":1684904798,"current_range_meters":15600,"station_id":"ce4bhr92rcd13ifvqhrg","pricing_plan_id":"free"},{"bike_id":"772c2fec-0c60-4a29-9bc6-550f431238ed","system_id":"levelo_inurba_marseille","lat":43.33045,"lon":5.38913,"is_reserved":false,"is_disabled":false,"rental_uris":{"android":"levelo://app?vid=772c2fec-0c60-4a29-9bc6-550f431238ed","ios":"levelo://app?vid=772c2fec-0c60-4a29-9bc6-550f431238ed"},"vehicle_type_id":"4","last_reported":1684904798,"current_range_meters":12400,"station_id":"ce4bhr92rcd13ifvqhrg","pricing_plan_id":"free"},{"bike_id":"3df805b3-2810-48e9-b919-b057d3b27e81","system_id":"levelo_inurba_marseille","lat":43.33046,"lon":5.38913,"is_reserved":false,"is_disabled":false,"rental_uris":{"android":"levelo://app?vid=3df805b3-2810-48e9-b919-b057d3b27e81","ios":"levelo://app?vid=3df805b3-2810-48e9-b919-b057d3b27e81"},"vehicle_type_id":"4","last_reported":1684904798,"current_range_meters":23600,"station_id":"ce4bhr92rcd13ifvqhrg","pricing_plan_id":"free"},{"bike_id":"89436d2a-e1c6-4c5d-8c21-4f5ddca0c3e6","system_id":"levelo_inurba_marseille","lat":43.33046,"lon":5.38916,"is_reserved":false,"is_disabled":false,"rental_uris":{"android":"levelo://app?vid=89436d2a-e1c6-4c5d-8c21-4f5ddca0c3e6","ios":"levelo://app?vid=89436d2a-e1c6-4c5d-8c21-4f5ddca0c3e6"},"vehicle_type_id":"4","last_reported":1684904798,"current_range_meters":18000,"station_id":"ce4bhr92rcd13ifvqhrg","pricing_plan_id":"free"},{"bike_id":"059cda82-0846-4038-905a-99d9954541c9","system_id":"levelo_inurba_marseille","lat":43.290995,"lon":5.381361,"is_reserved":false,"is_disabled":false,"rental_uris":{"android":"levelo://app?vid=059cda82-0846-4038-905a-99d9954541c9","ios":"levelo://app?vid=059cda82-0846-4038-905a-99d9954541c9"},"vehicle_type_id":"4","last_reported":1684904798,"current_range_meters":11600,"station_id":"ce4bh512rcd13ifvqe2g","pricing_plan_id":"free"},{"bike_id":"5bdfcb69-a712-4fdb-aaca-35c9a327a274","system_id":"levelo_inurba_marseille","lat":43.297814,"lon":5.393513,"is_reserved":false,"is_disabled":false,"rental_uris":{"android":"levelo://app?vid=5bdfcb69-a712-4fdb-aaca-35c9a327a274","ios":"levelo://app?vid=5bdfcb69-a712-4fdb-aaca-35c9a327a274"},"vehicle_type_id":"4","last_reported":1684904798,"current_range_meters":11600,"station_id":"chh1huq6cuj3fo74tm60","pricing_plan_id":"free"},{"bike_id":"44751f6c-f3eb-45e1-b024-f70ba1609ebc","system_id":"levelo_inurba_marseille","lat":43.297814,"lon":5.393513,"is_reserved":false,"is_disabled":false,"rental_uris":{"android":"levelo://app?vid=44751f6c-f3eb-45e1-b024-f70ba1609ebc","ios":"levelo://app?vid=44751f6c-f3eb-45e1-b024-f70ba1609ebc"},"vehicle_type_id":"4","last_reported":1684904798,"current_range_meters":15200,"station_id":"chh1huq6cuj3fo74tm60","pricing_plan_id":"free"},{"bike_id":"6c0a4d9b-5a94-4e51-b059-4b459ad653bc","system_id":"levelo_inurba_marseille","lat":43.28871,"lon":5.35845,"is_reserved":false,"is_disabled":false,"rental_uris":{"android":"levelo://app?vid=6c0a4d9b-5a94-4e51-b059-4b459ad653bc","ios":"levelo://app?vid=6c0a4d9b-5a94-4e51-b059-4b459ad653bc"},"vehicle_type_id":"4","last_reported":1684904798,"current_range_meters":4800,"station_id":"ce4bhb12rcd13ifvqem0","pricing_plan_id":"free"},{"bike_id":"66de6ca6-7055-46fb-bc4a-a80af7ee7037","system_id":"levelo_inurba_marseille","lat":43.30507,"lon":5.39937,"is_reserved":false,"is_disabled":false,"rental_uris":{"android":"levelo://app?vid=66de6ca6-7055-46fb-bc4a-a80af7ee7037","ios":"levelo://app?vid=66de6ca6-7055-46fb-bc4a-a80af7ee7037"},"vehicle_type_id":"4","last_reported":1684904798,"current_range_meters":2400,"station_id":"","pricing_plan_id":"free"},{"bike_id":"3141cfac-d7ef-4a24-b276-c8b50671e026","system_id":"levelo_inurba_marseille","lat":43.28866,"lon":5.35834,"is_reserved":false,"is_disabled":false,"rental_uris":{"android":"levelo://app?vid=3141cfac-d7ef-4a24-b276-c8b50671e026","ios":"levelo://app?vid=3141cfac-d7ef-4a24-b276-c8b50671e026"},"vehicle_type_id":"4","last_reported":1684904798,"current_range_meters":30400,"station_id":"ce4bhb12rcd13ifvqem0","pricing_plan_id":"free"},{"bike_id":"9dbc1396-3608-44a6-bdd8-432cfce81c48","system_id":"levelo_inurba_marseille","lat":43.28864,"lon":5.35838,"is_reserved":false,"is_disabled":false,"rental_uris":{"android":"levelo://app?vid=9dbc1396-3608-44a6-bdd8-432cfce81c48","ios":"levelo://app?vid=9dbc1396-3608-44a6-bdd8-432cfce81c48"},"vehicle_type_id":"4","last_reported":1684904798,"current_range_meters":27200,"station_id":"","pricing_plan_id":"free"},{"bike_id":"fa8aa980-3d66-469a-9738-e2e7d6b7aad7","system_id":"levelo_inurba_marseille","lat":43.33751,"lon":5.3744,"is_reserved":false,"is_disabled":false,"rental_uris":{"android":"levelo://app?vid=fa8aa980-3d66-469a-9738-e2e7d6b7aad7","ios":"levelo://app?vid=fa8aa980-3d66-469a-9738-e2e7d6b7aad7"},"vehicle_type_id":"4","last_reported":1684904798,"current_range_meters":30000,"station_id":"","pricing_plan_id":"free"},{"bike_id":"7df7a62c-f249-4aee-a961-7f8771c1e324","system_id":"levelo_inurba_marseille","lat":43.33752,"lon":5.37446,"is_reserved":false,"is_disabled":false,"rental_uris":{"android":"levelo://app?vid=7df7a62c-f249-4aee-a961-7f8771c1e324","ios":"levelo://app?vid=7df7a62c-f249-4aee-a961-7f8771c1e324"},"vehicle_type_id":"4","last_reported":1684904798,"current_range_meters":26000,"station_id":"","pricing_plan_id":"free"},{"bike_id":"45506292-f55c-467e-bcf7-ca72fe20e71c","system_id":"levelo_inurba_marseille","lat":43.3064,"lon":5.40072,"is_reserved":false,"is_disabled":false,"rental_uris":{"android":"levelo://app?vid=45506292-f55c-467e-bcf7-ca72fe20e71c","ios":"levelo://app?vid=45506292-f55c-467e-bcf7-ca72fe20e71c"},"vehicle_type_id":"4","last_reported":1684904798,"current_range_meters":13200,"station_id":"ce4bh112rcd13ifvqda0","pricing_plan_id":"free"},{"bike_id":"33d14251-098d-417f-aa25-a478d24baec7","system_id":"levelo_inurba_marseille","lat":43.33756,"lon":5.37446,"is_reserved":false,"is_disabled":false,"rental_uris":{"android":"levelo://app?vid=33d14251-098d-417f-aa25-a478d24baec7","ios":"levelo://app?vid=33d14251-098d-417f-aa25-a478d24baec7"},"vehicle_type_id":"4","last_reported":1684904798,"current_range_meters":0,"station_id":"","pricing_plan_id":"free"},{"bike_id":"1ac24e68-a37c-4cda-b4be-62da7389de56","system_id":"levelo_inurba_marseille","lat":43.33765,"lon":5.37431,"is_reserved":false,"is_disabled":false,"rental_uris":{"android":"levelo://app?vid=1ac24e68-a37c-4cda-b4be-62da7389de56","ios":"levelo://app?vid=1ac24e68-a37c-4cda-b4be-62da7389de56"},"vehicle_type_id":"4","last_reported":1684904798,"current_range_meters":15600,"station_id":"","pricing_plan_id":"free"},{"bike_id":"e123cd43-562a-427d-b741-98d33ce5dea2","system_id":"levelo_inurba_marseille","lat":43.33774,"lon":5.37431,"is_reserved":false,"is_disabled":false,"rental_uris":{"android":"levelo://app?vid=e123cd43-562a-427d-b741-98d33ce5dea2","ios":"levelo://app?vid=e123cd43-562a-427d-b741-98d33ce5dea2"},"vehicle_type_id":"4","last_reported":1684904798,"current_range_meters":31600,"station_id":"","pricing_plan_id":"free"},{"bike_id":"06902aca-77ad-4368-be1c-8c2f1a00eadd","system_id":"levelo_inurba_marseille","lat":43.298681,"lon":5.397225,"is_reserved":false,"is_disabled":false,"rental_uris":{"android":"levelo://app?vid=06902aca-77ad-4368-be1c-8c2f1a00eadd","ios":"levelo://app?vid=06902aca-77ad-4368-be1c-8c2f1a00eadd"},"vehicle_type_id":"4","last_reported":1684904798,"current_range_meters":18400,"station_id":"ce4bh0h2rcd13ifvqd50","pricing_plan_id":"free"},{"bike_id":"69b9a307-3679-4251-af69-c2a8f0a206cb","system_id":"levelo_inurba_marseille","lat":43.286591,"lon":5.363346,"is_reserved":false,"is_disabled":false,"rental_uris":{"android":"levelo://app?vid=69b9a307-3679-4251-af69-c2a8f0a206cb","ios":"levelo://app?vid=69b9a307-3679-4251-af69-c2a8f0a206cb"},"vehicle_type_id":"4","last_reported":1684904798,"current_range_meters":31600,"station_id":"ce4bhah2rcd13ifvqej0","pricing_plan_id":"free"},{"bike_id":"f88821db-c576-4401-b7b3-13289cb9d77e","system_id":"levelo_inurba_marseille","lat":43.286591,"lon":5.363346,"is_reserved":false,"is_disabled":false,"rental_uris":{"android":"levelo://app?vid=f88821db-c576-4401-b7b3-13289cb9d77e","ios":"levelo://app?vid=f88821db-c576-4401-b7b3-13289cb9d77e"},"vehicle_type_id":"4","last_reported":1684904798,"current_range_meters":29200,"station_id":"ce4bhah2rcd13ifvqej0","pricing_plan_id":"free"},{"bike_id":"1532a28d-24fd-4a7f-9258-baaa3b063c49","system_id":"levelo_inurba_marseille","lat":43.286591,"lon":5.363346,"is_reserved":false,"is_disabled":false,"rental_uris":{"android":"levelo://app?vid=1532a28d-24fd-4a7f-9258-baaa3b063c49","ios":"levelo://app?vid=1532a28d-24fd-4a7f-9258-baaa3b063c49"},"vehicle_type_id":"4","last_reported":1684904798,"current_range_meters":18400,"station_id":"ce4bhah2rcd13ifvqej0","pricing_plan_id":"free"},{"bike_id":"73889b9b-b71f-4f7d-941b-a2d090107a94","system_id":"levelo_inurba_marseille","lat":43.3043,"lon":5.401,"is_reserved":false,"is_disabled":false,"rental_uris":{"android":"levelo://app?vid=73889b9b-b71f-4f7d-941b-a2d090107a94","ios":"levelo://app?vid=73889b9b-b71f-4f7d-941b-a2d090107a94"},"vehicle_type_id":"4","last_reported":1684904798,"current_range_meters":22400,"station_id":"","pricing_plan_id":"free"},{"bike_id":"5913b661-430e-4b79-947b-67fc67f7f40b","system_id":"levelo_inurba_marseille","lat":43.286591,"lon":5.363346,"is_reserved":false,"is_disabled":false,"rental_uris":{"android":"levelo://app?vid=5913b661-430e-4b79-947b-67fc67f7f40b","ios":"levelo://app?vid=5913b661-430e-4b79-947b-67fc67f7f40b"},"vehicle_type_id":"4","last_reported":1684904798,"current_range_meters":31600,"station_id":"ce4bhah2rcd13ifvqej0","pricing_plan_id":"free"},{"bike_id":"be01e501-4ce7-4020-ac6a-90047ed27e2c","system_id":"levelo_inurba_marseille","lat":43.286593,"lon":5.363346,"is_reserved":false,"is_disabled":false,"rental_uris":{"android":"levelo://app?vid=be01e501-4ce7-4020-ac6a-90047ed27e2c","ios":"levelo://app?vid=be01e501-4ce7-4020-ac6a-90047ed27e2c"},"vehicle_type_id":"4","last_reported":1684904798,"current_range_meters":31600,"station_id":"ce4bhah2rcd13ifvqej0","pricing_plan_id":"free"},{"bike_id":"81a880a8-df4d-4194-b95c-810e0a465987","system_id":"levelo_inurba_marseille","lat":43.298681,"lon":5.397225,"is_reserved":false,"is_disabled":false,"rental_uris":{"android":"levelo://app?vid=81a880a8-df4d-4194-b95c-810e0a465987","ios":"levelo://app?vid=81a880a8-df4d-4194-b95c-810e0a465987"},"vehicle_type_id":"4","last_reported":1684904798,"current_range_meters":0,"station_id":"ce4bh0h2rcd13ifvqd50","pricing_plan_id":"free"},{"bike_id":"5dea5d4c-76c4-48bb-baf3-87d441f40cf1","system_id":"levelo_inurba_marseille","lat":43.286591,"lon":5.363346,"is_reserved":false,"is_disabled":false,"rental_uris":{"android":"levelo://app?vid=5dea5d4c-76c4-48bb-baf3-87d441f40cf1","ios":"levelo://app?vid=5dea5d4c-76c4-48bb-baf3-87d441f40cf1"},"vehicle_type_id":"4","last_reported":1684904798,"current_range_meters":30000,"station_id":"ce4bhah2rcd13ifvqej0","pricing_plan_id":"free"},{"bike_id":"44e782fd-a942-4618-8122-c09833c081b9","system_id":"levelo_inurba_marseille","lat":43.286593,"lon":5.363346,"is_reserved":false,"is_disabled":false,"rental_uris":{"android":"levelo://app?vid=44e782fd-a942-4618-8122-c09833c081b9","ios":"levelo://app?vid=44e782fd-a942-4618-8122-c09833c081b9"},"vehicle_type_id":"4","last_reported":1684904798,"current_range_meters":30400,"station_id":"ce4bhah2rcd13ifvqej0","pricing_plan_id":"free"},{"bike_id":"20f8981e-69e2-475d-b416-11457ff35fc0","system_id":"levelo_inurba_marseille","lat":43.286591,"lon":5.363346,"is_reserved":false,"is_disabled":false,"rental_uris":{"android":"levelo://app?vid=20f8981e-69e2-475d-b416-11457ff35fc0","ios":"levelo://app?vid=20f8981e-69e2-475d-b416-11457ff35fc0"},"vehicle_type_id":"4","last_reported":1684904798,"current_range_meters":31200,"station_id":"ce4bhah2rcd13ifvqej0","pricing_plan_id":"free"},{"bike_id":"651f95b8-bd06-43e6-a773-2bed2468d127","system_id":"levelo_inurba_marseille","lat":43.286591,"lon":5.363346,"is_reserved":false,"is_disabled":false,"rental_uris":{"android":"levelo://app?vid=651f95b8-bd06-43e6-a773-2bed2468d127","ios":"levelo://app?vid=651f95b8-bd06-43e6-a773-2bed2468d127"},"vehicle_type_id":"4","last_reported":1684904798,"current_range_meters":24800,"station_id":"ce4bhah2rcd13ifvqej0","pricing_plan_id":"free"},{"bike_id":"abbb07c1-ed9e-4b09-8541-a088bb42b6a6","system_id":"levelo_inurba_marseille","lat":43.286591,"lon":5.363346,"is_reserved":false,"is_disabled":false,"rental_uris":{"android":"levelo://app?vid=abbb07c1-ed9e-4b09-8541-a088bb42b6a6","ios":"levelo://app?vid=abbb07c1-ed9e-4b09-8541-a088bb42b6a6"},"vehicle_type_id":"4","last_reported":1684904798,"current_range_meters":30000,"station_id":"ce4bhah2rcd13ifvqej0","pricing_plan_id":"free"},{"bike_id":"4eb8372d-5c1a-4748-9f11-0bfa85041de8","system_id":"levelo_inurba_marseille","lat":43.298681,"lon":5.397225,"is_reserved":false,"is_disabled":false,"rental_uris":{"android":"levelo://app?vid=4eb8372d-5c1a-4748-9f11-0bfa85041de8","ios":"levelo://app?vid=4eb8372d-5c1a-4748-9f11-0bfa85041de8"},"vehicle_type_id":"4","last_reported":1684904798,"current_range_meters":16400,"station_id":"ce4bh0h2rcd13ifvqd50","pricing_plan_id":"free"},{"bike_id":"b4b80226-83c8-4c7f-916b-33846d482e4e","system_id":"levelo_inurba_marseille","lat":43.286593,"lon":5.363346,"is_reserved":false,"is_disabled":false,"rental_uris":{"android":"levelo://app?vid=b4b80226-83c8-4c7f-916b-33846d482e4e","ios":"levelo://app?vid=b4b80226-83c8-4c7f-916b-33846d482e4e"},"vehicle_type_id":"4","last_reported":1684904798,"current_range_meters":31600,"station_id":"ce4bhah2rcd13ifvqej0","pricing_plan_id":"free"},{"bike_id":"70fe74c8-2580-4e8e-8f74-5bea4c0e210c","system_id":"levelo_inurba_marseille","lat":43.286593,"lon":5.363346,"is_reserved":false,"is_disabled":false,"rental_uris":{"android":"levelo://app?vid=70fe74c8-2580-4e8e-8f74-5bea4c0e210c","ios":"levelo://app?vid=70fe74c8-2580-4e8e-8f74-5bea4c0e210c"},"vehicle_type_id":"4","last_reported":1684904798,"current_range_meters":3600,"station_id":"ce4bhah2rcd13ifvqej0","pricing_plan_id":"free"},{"bike_id":"10499af1-2806-4e28-a7c5-e4dc26aef808","system_id":"levelo_inurba_marseille","lat":43.30423,"lon":5.40105,"is_reserved":false,"is_disabled":false,"rental_uris":{"android":"levelo://app?vid=10499af1-2806-4e28-a7c5-e4dc26aef808","ios":"levelo://app?vid=10499af1-2806-4e28-a7c5-e4dc26aef808"},"vehicle_type_id":"4","last_reported":1684904798,"current_range_meters":7600,"station_id":"","pricing_plan_id":"free"},{"bike_id":"8c3e0d6f-395a-42bc-b3d4-134beb35fe06","system_id":"levelo_inurba_marseille","lat":43.298681,"lon":5.397225,"is_reserved":false,"is_disabled":false,"rental_uris":{"android":"levelo://app?vid=8c3e0d6f-395a-42bc-b3d4-134beb35fe06","ios":"levelo://app?vid=8c3e0d6f-395a-42bc-b3d4-134beb35fe06"},"vehicle_type_id":"4","last_reported":1684904798,"current_range_meters":31600,"station_id":"ce4bh0h2rcd13ifvqd50","pricing_plan_id":"free"},{"bike_id":"cb16073c-318f-4b34-a23a-b5380a1388b6","system_id":"levelo_inurba_marseille","lat":43.295212,"lon":5.3941,"is_reserved":false,"is_disabled":false,"rental_uris":{"android":"levelo://app?vid=cb16073c-318f-4b34-a23a-b5380a1388b6","ios":"levelo://app?vid=cb16073c-318f-4b34-a23a-b5380a1388b6"},"vehicle_type_id":"4","last_reported":1684904798,"current_range_meters":0,"station_id":"ce4bh292rcd13ifvqdf0","pricing_plan_id":"free"},{"bike_id":"f2c4288d-0771-4498-ae73-8eddb47b28b3","system_id":"levelo_inurba_marseille","lat":43.302759,"lon":5.400793,"is_reserved":false,"is_disabled":false,"rental_uris":{"android":"levelo://app?vid=f2c4288d-0771-4498-ae73-8eddb47b28b3","ios":"levelo://app?vid=f2c4288d-0771-4498-ae73-8eddb47b28b3"},"vehicle_type_id":"4","last_reported":1684904798,"current_range_meters":29200,"station_id":"ce4bgvh2rcd13ifvqcs0","pricing_plan_id":"free"},{"bike_id":"37e0ba86-92a3-4dad-b511-68d44cb7861a","system_id":"levelo_inurba_marseille","lat":43.302759,"lon":5.400793,"is_reserved":false,"is_disabled":false,"rental_uris":{"android":"levelo://app?vid=37e0ba86-92a3-4dad-b511-68d44cb7861a","ios":"levelo://app?vid=37e0ba86-92a3-4dad-b511-68d44cb7861a"},"vehicle_type_id":"4","last_reported":1684904798,"current_range_meters":26800,"station_id":"ce4bgvh2rcd13ifvqcs0","pricing_plan_id":"free"},{"bike_id":"7a0692ae-8ac0-4b20-a477-cfdddb0d5cb8","system_id":"levelo_inurba_marseille","lat":43.30259,"lon":5.40077,"is_reserved":false,"is_disabled":false,"rental_uris":{"android":"levelo://app?vid=7a0692ae-8ac0-4b20-a477-cfdddb0d5cb8","ios":"levelo://app?vid=7a0692ae-8ac0-4b20-a477-cfdddb0d5cb8"},"vehicle_type_id":"4","last_reported":1684904798,"current_range_meters":24400,"station_id":"ce4bgvh2rcd13ifvqcs0","pricing_plan_id":"free"},{"bike_id":"ca9d350f-1f60-40b4-bd4a-8d281b1abad1","system_id":"levelo_inurba_marseille","lat":43.286039,"lon":5.370679,"is_reserved":false,"is_disabled":false,"rental_uris":{"android":"levelo://app?vid=ca9d350f-1f60-40b4-bd4a-8d281b1abad1","ios":"levelo://app?vid=ca9d350f-1f60-40b4-bd4a-8d281b1abad1"},"vehicle_type_id":"4","last_reported":1684904798,"current_range_meters":28000,"station_id":"ce4bht12rcd13ifvqi60","pricing_plan_id":"free"},{"bike_id":"0dda87a3-a992-4dcc-ba58-e0b1af84287f","system_id":"levelo_inurba_marseille","lat":43.28613,"lon":5.37067,"is_reserved":false,"is_disabled":false,"rental_uris":{"android":"levelo://app?vid=0dda87a3-a992-4dcc-ba58-e0b1af84287f","ios":"levelo://app?vid=0dda87a3-a992-4dcc-ba58-e0b1af84287f"},"vehicle_type_id":"4","last_reported":1684904798,"current_range_meters":1200,"station_id":"ce4bht12rcd13ifvqi60","pricing_plan_id":"free"},{"bike_id":"df33b3a4-f376-4743-8817-cf1221c21c34","system_id":"levelo_inurba_marseille","lat":43.287184,"lon":5.37937,"is_reserved":false,"is_disabled":false,"rental_uris":{"android":"levelo://app?vid=df33b3a4-f376-4743-8817-cf1221c21c34","ios":"levelo://app?vid=df33b3a4-f376-4743-8817-cf1221c21c34"},"vehicle_type_id":"4","last_reported":1684904798,"current_range_meters":26400,"station_id":"ce4bh9p2rcd13ifvqec0","pricing_plan_id":"free"},{"bike_id":"7bf7dbc2-bf3c-4813-b4ef-b3973040ef2f","system_id":"levelo_inurba_marseille","lat":43.287184,"lon":5.37937,"is_reserved":false,"is_disabled":false,"rental_uris":{"android":"levelo://app?vid=7bf7dbc2-bf3c-4813-b4ef-b3973040ef2f","ios":"levelo://app?vid=7bf7dbc2-bf3c-4813-b4ef-b3973040ef2f"},"vehicle_type_id":"4","last_reported":1684904798,"current_range_meters":24000,"station_id":"ce4bh9p2rcd13ifvqec0","pricing_plan_id":"free"},{"bike_id":"53278427-cff7-4539-8def-4f1a9cd5e6b4","system_id":"levelo_inurba_marseille","lat":43.287184,"lon":5.37937,"is_reserved":false,"is_disabled":false,"rental_uris":{"android":"levelo://app?vid=53278427-cff7-4539-8def-4f1a9cd5e6b4","ios":"levelo://app?vid=53278427-cff7-4539-8def-4f1a9cd5e6b4"},"vehicle_type_id":"4","last_reported":1684904798,"current_range_meters":14400,"station_id":"ce4bh9p2rcd13ifvqec0","pricing_plan_id":"free"},{"bike_id":"2b98a86c-82f6-4f76-bc37-de03cc56a2bb","system_id":"levelo_inurba_marseille","lat":43.287184,"lon":5.37937,"is_reserved":false,"is_disabled":false,"rental_uris":{"android":"levelo://app?vid=2b98a86c-82f6-4f76-bc37-de03cc56a2bb","ios":"levelo://app?vid=2b98a86c-82f6-4f76-bc37-de03cc56a2bb"},"vehicle_type_id":"4","last_reported":1684904798,"current_range_meters":31600,"station_id":"ce4bh9p2rcd13ifvqec0","pricing_plan_id":"free"},{"bike_id":"011c6b9e-4cb7-4681-89e4-b816ae1ab7b9","system_id":"levelo_inurba_marseille","lat":43.287185,"lon":5.379373,"is_reserved":false,"is_disabled":false,"rental_uris":{"android":"levelo://app?vid=011c6b9e-4cb7-4681-89e4-b816ae1ab7b9","ios":"levelo://app?vid=011c6b9e-4cb7-4681-89e4-b816ae1ab7b9"},"vehicle_type_id":"4","last_reported":1684904798,"current_range_meters":13200,"station_id":"ce4bh9p2rcd13ifvqec0","pricing_plan_id":"free"},{"bike_id":"89d45e58-6498-4d95-a788-46ec52a6fabf","system_id":"levelo_inurba_marseille","lat":43.287185,"lon":5.379373,"is_reserved":false,"is_disabled":false,"rental_uris":{"android":"levelo://app?vid=89d45e58-6498-4d95-a788-46ec52a6fabf","ios":"levelo://app?vid=89d45e58-6498-4d95-a788-46ec52a6fabf"},"vehicle_type_id":"4","last_reported":1684904798,"current_range_meters":18000,"station_id":"ce4bh9p2rcd13ifvqec0","pricing_plan_id":"free"},{"bike_id":"1452636e-f392-44e9-bf2c-3ac12c16b690","system_id":"levelo_inurba_marseille","lat":43.287185,"lon":5.379373,"is_reserved":false,"is_disabled":false,"rental_uris":{"android":"levelo://app?vid=1452636e-f392-44e9-bf2c-3ac12c16b690","ios":"levelo://app?vid=1452636e-f392-44e9-bf2c-3ac12c16b690"},"vehicle_type_id":"4","last_reported":1684904798,"current_range_meters":31600,"station_id":"ce4bh9p2rcd13ifvqec0","pricing_plan_id":"free"},{"bike_id":"76121621-4191-47a6-a793-670335ead76e","system_id":"levelo_inurba_marseille","lat":43.287185,"lon":5.379373,"is_reserved":false,"is_disabled":false,"rental_uris":{"android":"levelo://app?vid=76121621-4191-47a6-a793-670335ead76e","ios":"levelo://app?vid=76121621-4191-47a6-a793-670335ead76e"},"vehicle_type_id":"4","last_reported":1684904798,"current_range_meters":31200,"station_id":"ce4bh9p2rcd13ifvqec0","pricing_plan_id":"free"},{"bike_id":"12c72002-6376-437a-bd0f-13d0729a50a2","system_id":"levelo_inurba_marseille","lat":43.28706,"lon":5.3795,"is_reserved":false,"is_disabled":false,"rental_uris":{"android":"levelo://app?vid=12c72002-6376-437a-bd0f-13d0729a50a2","ios":"levelo://app?vid=12c72002-6376-437a-bd0f-13d0729a50a2"},"vehicle_type_id":"4","last_reported":1684904798,"current_range_meters":30000,"station_id":"ce4bh9p2rcd13ifvqec0","pricing_plan_id":"free"},{"bike_id":"62d5ded5-8dea-41ee-8574-dc187e707a81","system_id":"levelo_inurba_marseille","lat":43.2879,"lon":5.38274,"is_reserved":false,"is_disabled":false,"rental_uris":{"android":"levelo://app?vid=62d5ded5-8dea-41ee-8574-dc187e707a81","ios":"levelo://app?vid=62d5ded5-8dea-41ee-8574-dc187e707a81"},"vehicle_type_id":"4","last_reported":1684904798,"current_range_meters":6000,"station_id":"","pricing_plan_id":"free"},{"bike_id":"d4925b87-5465-49d7-98de-4f6b40bc44b3","system_id":"levelo_inurba_marseille","lat":43.31647,"lon":5.4043,"is_reserved":false,"is_disabled":false,"rental_uris":{"android":"levelo://app?vid=d4925b87-5465-49d7-98de-4f6b40bc44b3","ios":"levelo://app?vid=d4925b87-5465-49d7-98de-4f6b40bc44b3"},"vehicle_type_id":"4","last_reported":1684904798,"current_range_meters":0,"station_id":"ce4bh012rcd13ifvqd00","pricing_plan_id":"free"},{"bike_id":"cb8e2cf5-8da3-457b-8d07-99f139cd3802","system_id":"levelo_inurba_marseille","lat":43.316517,"lon":5.404375,"is_reserved":false,"is_disabled":false,"rental_uris":{"android":"levelo://app?vid=cb8e2cf5-8da3-457b-8d07-99f139cd3802","ios":"levelo://app?vid=cb8e2cf5-8da3-457b-8d07-99f139cd3802"},"vehicle_type_id":"4","last_reported":1684904798,"current_range_meters":9200,"station_id":"ce4bh012rcd13ifvqd00","pricing_plan_id":"free"},{"bike_id":"9bca0271-d2ec-49ba-a6d9-a406c9cdab05","system_id":"levelo_inurba_marseille","lat":43.316517,"lon":5.404375,"is_reserved":false,"is_disabled":false,"rental_uris":{"android":"levelo://app?vid=9bca0271-d2ec-49ba-a6d9-a406c9cdab05","ios":"levelo://app?vid=9bca0271-d2ec-49ba-a6d9-a406c9cdab05"},"vehicle_type_id":"4","last_reported":1684904798,"current_range_meters":3200,"station_id":"ce4bh012rcd13ifvqd00","pricing_plan_id":"free"},{"bike_id":"9a3b2189-2803-44b0-a912-d3cc4951e0ab","system_id":"levelo_inurba_marseille","lat":43.291994,"lon":5.392907,"is_reserved":false,"is_disabled":false,"rental_uris":{"android":"levelo://app?vid=9a3b2189-2803-44b0-a912-d3cc4951e0ab","ios":"levelo://app?vid=9a3b2189-2803-44b0-a912-d3cc4951e0ab"},"vehicle_type_id":"4","last_reported":1684904798,"current_range_meters":26400,"station_id":"ce4bh192rcd13ifvqdd0","pricing_plan_id":"free"},{"bike_id":"d2626e12-92ef-4e8b-98f7-f7f7d8432194","system_id":"levelo_inurba_marseille","lat":43.29195,"lon":5.39311,"is_reserved":false,"is_disabled":false,"rental_uris":{"android":"levelo://app?vid=d2626e12-92ef-4e8b-98f7-f7f7d8432194","ios":"levelo://app?vid=d2626e12-92ef-4e8b-98f7-f7f7d8432194"},"vehicle_type_id":"4","last_reported":1684904798,"current_range_meters":800,"station_id":"ce4bh192rcd13ifvqdd0","pricing_plan_id":"free"},{"bike_id":"fbf5927b-921b-4f1f-9c4e-64b4bea86076","system_id":"levelo_inurba_marseille","lat":43.291994,"lon":5.392907,"is_reserved":false,"is_disabled":false,"rental_uris":{"android":"levelo://app?vid=fbf5927b-921b-4f1f-9c4e-64b4bea86076","ios":"levelo://app?vid=fbf5927b-921b-4f1f-9c4e-64b4bea86076"},"vehicle_type_id":"4","last_reported":1684904798,"current_range_meters":25600,"station_id":"ce4bh192rcd13ifvqdd0","pricing_plan_id":"free"},{"bike_id":"91baa219-7894-4665-a987-b982ab33a75b","system_id":"levelo_inurba_marseille","lat":43.291994,"lon":5.392907,"is_reserved":false,"is_disabled":false,"rental_uris":{"android":"levelo://app?vid=91baa219-7894-4665-a987-b982ab33a75b","ios":"levelo://app?vid=91baa219-7894-4665-a987-b982ab33a75b"},"vehicle_type_id":"4","last_reported":1684904798,"current_range_meters":1200,"station_id":"ce4bh192rcd13ifvqdd0","pricing_plan_id":"free"},{"bike_id":"246310d4-111c-466a-a242-a80b7e0325dd","system_id":"levelo_inurba_marseille","lat":43.284534,"lon":5.358662,"is_reserved":false,"is_disabled":false,"rental_uris":{"android":"levelo://app?vid=246310d4-111c-466a-a242-a80b7e0325dd","ios":"levelo://app?vid=246310d4-111c-466a-a242-a80b7e0325dd"},"vehicle_type_id":"4","last_reported":1684904798,"current_range_meters":24000,"station_id":"ce4bhah2rcd13ifvqei0","pricing_plan_id":"free"},{"bike_id":"24a9f437-3f10-4ec5-811e-48a2ceb23afc","system_id":"levelo_inurba_marseille","lat":43.284534,"lon":5.358662,"is_reserved":false,"is_disabled":false,"rental_uris":{"android":"levelo://app?vid=24a9f437-3f10-4ec5-811e-48a2ceb23afc","ios":"levelo://app?vid=24a9f437-3f10-4ec5-811e-48a2ceb23afc"},"vehicle_type_id":"4","last_reported":1684904798,"current_range_meters":15600,"station_id":"ce4bhah2rcd13ifvqei0","pricing_plan_id":"free"},{"bike_id":"1b95c390-f78b-4c4d-b02a-107b3d641731","system_id":"levelo_inurba_marseille","lat":43.28468,"lon":5.35883,"is_reserved":false,"is_disabled":false,"rental_uris":{"android":"levelo://app?vid=1b95c390-f78b-4c4d-b02a-107b3d641731","ios":"levelo://app?vid=1b95c390-f78b-4c4d-b02a-107b3d641731"},"vehicle_type_id":"4","last_reported":1684904798,"current_range_meters":18800,"station_id":"ce4bhah2rcd13ifvqei0","pricing_plan_id":"free"},{"bike_id":"a0c19ad0-e657-4cfd-a81b-2a096e6fac1b","system_id":"levelo_inurba_marseille","lat":43.28467,"lon":5.35888,"is_reserved":false,"is_disabled":false,"rental_uris":{"android":"levelo://app?vid=a0c19ad0-e657-4cfd-a81b-2a096e6fac1b","ios":"levelo://app?vid=a0c19ad0-e657-4cfd-a81b-2a096e6fac1b"},"vehicle_type_id":"4","last_reported":1684904798,"current_range_meters":9600,"station_id":"ce4bhah2rcd13ifvqei0","pricing_plan_id":"free"},{"bike_id":"3ab430b9-35e4-440a-9289-df17dedebaf0","system_id":"levelo_inurba_marseille","lat":43.284534,"lon":5.358662,"is_reserved":false,"is_disabled":false,"rental_uris":{"android":"levelo://app?vid=3ab430b9-35e4-440a-9289-df17dedebaf0","ios":"levelo://app?vid=3ab430b9-35e4-440a-9289-df17dedebaf0"},"vehicle_type_id":"4","last_reported":1684904798,"current_range_meters":24400,"station_id":"ce4bhah2rcd13ifvqei0","pricing_plan_id":"free"},{"bike_id":"218976a2-047c-46c9-b969-9a9fb079e238","system_id":"levelo_inurba_marseille","lat":43.284534,"lon":5.358662,"is_reserved":false,"is_disabled":false,"rental_uris":{"android":"levelo://app?vid=218976a2-047c-46c9-b969-9a9fb079e238","ios":"levelo://app?vid=218976a2-047c-46c9-b969-9a9fb079e238"},"vehicle_type_id":"4","last_reported":1684904798,"current_range_meters":24000,"station_id":"ce4bhah2rcd13ifvqei0","pricing_plan_id":"free"},{"bike_id":"a9952965-61e6-4bba-9631-ae54b2ddd031","system_id":"levelo_inurba_marseille","lat":43.284534,"lon":5.358662,"is_reserved":false,"is_disabled":false,"rental_uris":{"android":"levelo://app?vid=a9952965-61e6-4bba-9631-ae54b2ddd031","ios":"levelo://app?vid=a9952965-61e6-4bba-9631-ae54b2ddd031"},"vehicle_type_id":"4","last_reported":1684904798,"current_range_meters":31200,"station_id":"ce4bhah2rcd13ifvqei0","pricing_plan_id":"free"},{"bike_id":"da5bad9a-7da4-44f5-b7cc-17e8365b3e35","system_id":"levelo_inurba_marseille","lat":43.284534,"lon":5.358662,"is_reserved":false,"is_disabled":false,"rental_uris":{"android":"levelo://app?vid=da5bad9a-7da4-44f5-b7cc-17e8365b3e35","ios":"levelo://app?vid=da5bad9a-7da4-44f5-b7cc-17e8365b3e35"},"vehicle_type_id":"4","last_reported":1684904798,"current_range_meters":14400,"station_id":"ce4bhah2rcd13ifvqei0","pricing_plan_id":"free"},{"bike_id":"1e2d7091-9927-4f62-9087-bfb3d6cdce85","system_id":"levelo_inurba_marseille","lat":43.284534,"lon":5.358662,"is_reserved":false,"is_disabled":false,"rental_uris":{"android":"levelo://app?vid=1e2d7091-9927-4f62-9087-bfb3d6cdce85","ios":"levelo://app?vid=1e2d7091-9927-4f62-9087-bfb3d6cdce85"},"vehicle_type_id":"4","last_reported":1684904798,"current_range_meters":14800,"station_id":"ce4bhah2rcd13ifvqei0","pricing_plan_id":"free"},{"bike_id":"59e35aed-2436-4ff7-a3f6-cb7e03bdb2e5","system_id":"levelo_inurba_marseille","lat":43.28461,"lon":5.35895,"is_reserved":false,"is_disabled":false,"rental_uris":{"android":"levelo://app?vid=59e35aed-2436-4ff7-a3f6-cb7e03bdb2e5","ios":"levelo://app?vid=59e35aed-2436-4ff7-a3f6-cb7e03bdb2e5"},"vehicle_type_id":"4","last_reported":1684904798,"current_range_meters":0,"station_id":"ce4bhah2rcd13ifvqei0","pricing_plan_id":"free"},{"bike_id":"b15ac710-d89a-47d0-89ad-51703bc79cd0","system_id":"levelo_inurba_marseille","lat":43.284534,"lon":5.358662,"is_reserved":false,"is_disabled":false,"rental_uris":{"android":"levelo://app?vid=b15ac710-d89a-47d0-89ad-51703bc79cd0","ios":"levelo://app?vid=b15ac710-d89a-47d0-89ad-51703bc79cd0"},"vehicle_type_id":"4","last_reported":1684904798,"current_range_meters":26000,"station_id":"ce4bhah2rcd13ifvqei0","pricing_plan_id":"free"},{"bike_id":"f3f2e139-9f9c-43e7-8983-fd74cc64e2c7","system_id":"levelo_inurba_marseille","lat":43.28461,"lon":5.3589,"is_reserved":false,"is_disabled":false,"rental_uris":{"android":"levelo://app?vid=f3f2e139-9f9c-43e7-8983-fd74cc64e2c7","ios":"levelo://app?vid=f3f2e139-9f9c-43e7-8983-fd74cc64e2c7"},"vehicle_type_id":"4","last_reported":1684904798,"current_range_meters":30800,"station_id":"ce4bhah2rcd13ifvqei0","pricing_plan_id":"free"},{"bike_id":"4606f08e-6fad-43c1-8281-21cc9f25663f","system_id":"levelo_inurba_marseille","lat":43.284534,"lon":5.358662,"is_reserved":false,"is_disabled":false,"rental_uris":{"android":"levelo://app?vid=4606f08e-6fad-43c1-8281-21cc9f25663f","ios":"levelo://app?vid=4606f08e-6fad-43c1-8281-21cc9f25663f"},"vehicle_type_id":"4","last_reported":1684904798,"current_range_meters":31200,"station_id":"ce4bhah2rcd13ifvqei0","pricing_plan_id":"free"},