{"last_updated":1729786278,"ttl":60,"version":"2.2","data":{"bikes":[{"bike_id":"4e718520-217c-4986-8e4a-4dbcae9b7210","system_id":"levelo_inurba_marseille","lat":43.27995,"lon":5.4166,"is_reserved":false,"is_disabled":false,"rental_uris":{"android":"levelo://app?vid=4e718520-217c-4986-8e4a-4dbcae9b7210","ios":"levelo://app?vid=4e718520-217c-4986-8e4a-4dbcae9b7210"},"vehicle_type_id":"4","last_reported":1729786278,"current_range_meters":8800,"station_id":"ce4bho12rcd13ifvqh1g","pricing_plan_id":"cebpf4jnsgd1na2vs0mg"},{"bike_id":"0b6f3fe5-37f3-4742-8142-c5445bb4b8ff","system_id":"levelo_inurba_marseille","lat":43.26212,"lon":5.3744,"is_reserved":false,"is_disabled":false,"rental_uris":{"android":"levelo://app?vid=0b6f3fe5-37f3-4742-8142-c5445bb4b8ff","ios":"levelo://app?vid=0b6f3fe5-37f3-4742-8142-c5445bb4b8ff"},"vehicle_type_id":"4","last_reported":1729786278,"current_range_meters":25200,"station_id":"ce4bhgp2rcd13ifvqfc0","pricing_plan_id":"cebpf4jnsgd1na2vs0mg"},{"bike_id":"396e419d-6bed-439f-a3ec-2c1a59697c36","system_id":"levelo_inurba_marseille","lat":43.23967,"lon":5.36634,"is_reserved":false,"is_disabled":false,"rental_uris":{"android":"levelo://app?vid=396e419d-6bed-439f-a3ec-2c1a59697c36","ios":"levelo://app?vid=396e419d-6bed-439f-a3ec-2c1a59697c36"},"vehicle_type_id":"4","last_reported":1729786278,"current_range_meters":18000,"station_id":"ce4bhi12rcd13ifvqfp0","pricing_plan_id":"cebpf4jnsgd1na2vs0mg"},{"bike_id":"7b02f0d7-640b-40b5-8091-81530a5c0434","system_id":"levelo_inurba_marseille","lat":43.31761,"lon":5.39014,"is_reserved":false,"is_disabled":false,"rental_uris":{"android":"levelo://app?vid=7b02f0d7-640b-40b5-8091-81530a5c0434","ios":"levelo://app?vid=7b02f0d7-640b-40b5-8091-81530a5c0434"},"vehicle_type_id":"4","last_reported":1729786278,"current_range_meters":15200,"station_id":"ce4bhqp2rcd13ifvqhng","pricing_plan_id":"cebpf4jnsgd1na2vs0mg"},{"bike_id":"9d52f651-4853-4c79-af4d-46a9f2e46239","system_id":"levelo_inurba_marseille","lat":43.26676,"lon":5.38268,"is_reserved":false,"is_disabled":false,"rental_uris":{"android":"levelo://app?vid=9d52f651-4853-4c79-af4d-46a9f2e46239","ios":"levelo://app?vid=9d52f651-4853-4c79-af4d-46a9f2e46239"},"vehicle_type_id":"4","last_reported":1729786278,"current_range_meters":4000,"station_id":"ce4bhg92rcd13ifvqf90","pricing_plan_id":"cebpf4jnsgd1na2vs0mg"},{"bike_id":"e5821906-5ed2-4c47-9bcc-cf644d37828f","system_id":"levelo_inurba_marseille","lat":43.31327,"lon":5.39695,"is_reserved":false,"is_disabled":false,"rental_uris":{"android":"levelo://app?vid=e5821906-5ed2-4c47-9bcc-cf644d37828f","ios":"levelo://app?vid=e5821906-5ed2-4c47-9bcc-cf644d37828f"},"vehicle_type_id":"4","last_reported":1729786278,"current_range_meters":26000,"station_id":"ce4bgvp2rcd13ifvqcu0","pricing_plan_id":"cebpf4jnsgd1na2vs0mg"},{"bike_id":"9379528d-dc27-4009-8b9a-b522c1a3eceb","system_id":"levelo_inurba_marseille","lat":43.33708,"lon":5.39191,"is_reserved":false,"is_disabled":false,"rental_uris":{"android":"levelo://app?vid=9379528d-dc27-4009-8b9a-b522c1a3eceb","ios":"levelo://app?vid=9379528d-dc27-4009-8b9a-b522c1a3eceb"},"vehicle_type_id":"4","last_reported":1729786278,"current_range_meters":11200,"station_id":"ce4bhr92rcd13ifvqhsg","pricing_plan_id":"cebpf4jnsgd1na2vs0mg"},{"bike_id":"0d8af398-8b4f-4eef-956f-feb595c301f8","system_id":"levelo_inurba_marseille","lat":43.286195,"lon":5.386037,"is_reserved":false,"is_disabled":false,"rental_uris":{"android":"levelo://app?vid=0d8af398-8b4f-4eef-956f-feb595c301f8","ios":"levelo://app?vid=0d8af398-8b4f-4eef-956f-feb595c301f8"},"vehicle_type_id":"4","last_reported":1729786278,"current_range_meters":33600,"station_id":"ce4bh3h2rcd13ifvqdo0","pricing_plan_id":"cebpf4jnsgd1na2vs0mg"},{"bike_id":"47a19fde-02f6-4e65-b311-f9f69bb8af07","system_id":"levelo_inurba_marseille","lat":43.26031,"lon":5.37548,"is_reserved":false,"is_disabled":false,"rental_uris":{"android":"levelo://app?vid=47a19fde-02f6-4e65-b311-f9f69bb8af07","ios":"levelo://app?vid=47a19fde-02f6-4e65-b311-f9f69bb8af07"},"vehicle_type_id":"4","last_reported":1729786278,"current_range_meters":4000,"station_id":"ce4bhgh2rcd13ifvqfa0","pricing_plan_id":"cebpf4jnsgd1na2vs0mg"},{"bike_id":"e130cf78-8420-42ef-935c-589ad91611cf","system_id":"levelo_inurba_marseille","lat":43.3266,"lon":5.40995,"is_reserved":false,"is_disabled":false,"rental_uris":{"android":"levelo://app?vid=e130cf78-8420-42ef-935c-589ad91611cf","ios":"levelo://app?vid=e130cf78-8420-42ef-935c-589ad91611cf"},"vehicle_type_id":"4","last_reported":1729786278,"current_range_meters":20400,"station_id":"ce4bhpp2rcd13ifvqhgg","pricing_plan_id":"cebpf4jnsgd1na2vs0mg"},{"bike_id":"393085bf-fe91-4106-9489-d2069c675eed","system_id":"levelo_inurba_marseille","lat":43.30258,"lon":5.37762,"is_reserved":false,"is_disabled":false,"rental_uris":{"android":"levelo://app?vid=393085bf-fe91-4106-9489-d2069c675eed","ios":"levelo://app?vid=393085bf-fe91-4106-9489-d2069c675eed"},"vehicle_type_id":"4","last_reported":1729786278,"current_range_meters":38800,"station_id":"ce4bgt12rcd13ifvqcd0","pricing_plan_id":"cebpf4jnsgd1na2vs0mg"},{"bike_id":"5d7e855d-d0e4-4cc3-8449-d0b666ee367d","system_id":"levelo_inurba_marseille","lat":43.337444,"lon":5.374475,"is_reserved":false,"is_disabled":false,"rental_uris":{"android":"levelo://app?vid=5d7e855d-d0e4-4cc3-8449-d0b666ee367d","ios":"levelo://app?vid=5d7e855d-d0e4-4cc3-8449-d0b666ee367d"},"vehicle_type_id":"4","last_reported":1729786278,"current_range_meters":3200,"station_id":"","pricing_plan_id":"cebpf4jnsgd1na2vs0mg"},{"bike_id":"6b8602cc-4eb5-44a5-bf3c-7af9a7b25d57","system_id":"levelo_inurba_marseille","lat":43.27995,"lon":5.41663,"is_reserved":false,"is_disabled":false,"rental_uris":{"android":"levelo://app?vid=6b8602cc-4eb5-44a5-bf3c-7af9a7b25d57","ios":"levelo://app?vid=6b8602cc-4eb5-44a5-bf3c-7af9a7b25d57"},"vehicle_type_id":"4","last_reported":1729786278,"current_range_meters":35600,"station_id":"ce4bho12rcd13ifvqh1g","pricing_plan_id":"cebpf4jnsgd1na2vs0mg"},{"bike_id":"3e6dacef-7721-4fd6-908f-05fbf9bc0354","system_id":"levelo_inurba_marseille","lat":43.23197,"lon":5.35559,"is_reserved":false,"is_disabled":false,"rental_uris":{"android":"levelo://app?vid=3e6dacef-7721-4fd6-908f-05fbf9bc0354","ios":"levelo://app?vid=3e6dacef-7721-4fd6-908f-05fbf9bc0354"},"vehicle_type_id":"4","last_reported":1729786278,"current_range_meters":38800,"station_id":"ce4bhu92rcd13ifvqi70","pricing_plan_id":"cebpf4jnsgd1na2vs0mg"},{"bike_id":"9ef30684-a14b-4df3-85ce-7824e36cca4e","system_id":"levelo_inurba_marseille","lat":43.2657,"lon":5.39012,"is_reserved":false,"is_disabled":false,"rental_uris":{"android":"levelo://app?vid=9ef30684-a14b-4df3-85ce-7824e36cca4e","ios":"levelo://app?vid=9ef30684-a14b-4df3-85ce-7824e36cca4e"},"vehicle_type_id":"4","last_reported":1729786278,"current_range_meters":27600,"station_id":"ce4bhe12rcd13ifvqf30","pricing_plan_id":"cebpf4jnsgd1na2vs0mg"},{"bike_id":"811ae695-1905-426d-9521-d87a3c8795c2","system_id":"levelo_inurba_marseille","lat":43.31729,"lon":5.40429,"is_reserved":false,"is_disabled":false,"rental_uris":{"android":"levelo://app?vid=811ae695-1905-426d-9521-d87a3c8795c2","ios":"levelo://app?vid=811ae695-1905-426d-9521-d87a3c8795c2"},"vehicle_type_id":"4","last_reported":1729786278,"current_range_meters":31200,"station_id":"ce4bh012rcd13ifvqd00","pricing_plan_id":"cebpf4jnsgd1na2vs0mg"},{"bike_id":"97ce6431-cdfe-4c86-8575-534875aed7f5","system_id":"levelo_inurba_marseille","lat":43.3053,"lon":5.36659,"is_reserved":false,"is_disabled":false,"rental_uris":{"android":"levelo://app?vid=97ce6431-cdfe-4c86-8575-534875aed7f5","ios":"levelo://app?vid=97ce6431-cdfe-4c86-8575-534875aed7f5"},"vehicle_type_id":"4","last_reported":1729786278,"current_range_meters":6400,"station_id":"","pricing_plan_id":"cebpf4jnsgd1na2vs0mg"},{"bike_id":"8f703631-4ec7-48e9-8b5c-f106111b51c5","system_id":"levelo_inurba_marseille","lat":43.28851,"lon":5.35859,"is_reserved":false,"is_disabled":false,"rental_uris":{"android":"levelo://app?vid=8f703631-4ec7-48e9-8b5c-f106111b51c5","ios":"levelo://app?vid=8f703631-4ec7-48e9-8b5c-f106111b51c5"},"vehicle_type_id":"4","last_reported":1729786278,"current_range_meters":38800,"station_id":"ce4bhb12rcd13ifvqem0","pricing_plan_id":"cebpf4jnsgd1na2vs0mg"},{"bike_id":"a4d2c2fd-16ed-4747-a8c9-a6214153acce","system_id":"levelo_inurba_marseille","lat":43.29639,"lon":5.40591,"is_reserved":false,"is_disabled":false,"rental_uris":{"android":"levelo://app?vid=a4d2c2fd-16ed-4747-a8c9-a6214153acce","ios":"levelo://app?vid=a4d2c2fd-16ed-4747-a8c9-a6214153acce"},"vehicle_type_id":"4","last_reported":1729786278,"current_range_meters":27600,"station_id":"ce4bh0h2rcd13ifvqd60","pricing_plan_id":"cebpf4jnsgd1na2vs0mg"},{"bike_id":"c8fba783-12e2-4e07-a926-bcffe47c2613","system_id":"levelo_inurba_marseille","lat":43.26803,"lon":5.40266,"is_reserved":false,"is_disabled":false,"rental_uris":{"android":"levelo://app?vid=c8fba783-12e2-4e07-a926-bcffe47c2613","ios":"levelo://app?vid=c8fba783-12e2-4e07-a926-bcffe47c2613"},"vehicle_type_id":"4","last_reported":1729786278,"current_range_meters":29600,"station_id":"ce501612rcd8frsf0b60","pricing_plan_id":"cebpf4jnsgd1na2vs0mg"},{"bike_id":"b69d0c64-0724-4563-ab4e-cdb5166b1cd5","system_id":"levelo_inurba_marseille","lat":43.331207,"lon":5.38212,"is_reserved":false,"is_disabled":false,"rental_uris":{"android":"levelo://app?vid=b69d0c64-0724-4563-ab4e-cdb5166b1cd5","ios":"levelo://app?vid=b69d0c64-0724-4563-ab4e-cdb5166b1cd5"},"vehicle_type_id":"4","last_reported":1729786278,"current_range_meters":19600,"station_id":"","pricing_plan_id":"cebpf4jnsgd1na2vs0mg"},{"bike_id":"c2595379-579a-45bf-b9e9-1576551dd694","system_id":"levelo_inurba_marseille","lat":43.25486,"lon":5.37648,"is_reserved":false,"is_disabled":false,"rental_uris":{"android":"levelo://app?vid=c2595379-579a-45bf-b9e9-1576551dd694","ios":"levelo://app?vid=c2595379-579a-45bf-b9e9-1576551dd694"},"vehicle_type_id":"4","last_reported":1729786278,"current_range_meters":16400,"station_id":"ce4bhh12rcd13ifvqff0","pricing_plan_id":"cebpf4jnsgd1na2vs0mg"},{"bike_id":"c47ee947-2909-41a5-bbe0-603cbb5c8694","system_id":"levelo_inurba_marseille","lat":43.27954,"lon":5.41051,"is_reserved":false,"is_disabled":false,"rental_uris":{"android":"levelo://app?vid=c47ee947-2909-41a5-bbe0-603cbb5c8694","ios":"levelo://app?vid=c47ee947-2909-41a5-bbe0-603cbb5c8694"},"vehicle_type_id":"4","last_reported":1729786278,"current_range_meters":17200,"station_id":"ce4bhnp2rcd13ifvqh0g","pricing_plan_id":"cebpf4jnsgd1na2vs0mg"},{"bike_id":"7769aa55-c888-416f-89c1-8bbc8d219b92","system_id":"levelo_inurba_marseille","lat":43.30182,"lon":5.36629,"is_reserved":false,"is_disabled":false,"rental_uris":{"android":"levelo://app?vid=7769aa55-c888-416f-89c1-8bbc8d219b92","ios":"levelo://app?vid=7769aa55-c888-416f-89c1-8bbc8d219b92"},"vehicle_type_id":"4","last_reported":1729786278,"current_range_meters":30400,"station_id":"ce4bgrh2rcd13ifvqc8g","pricing_plan_id":"cebpf4jnsgd1na2vs0mg"},{"bike_id":"7fe8c0a1-a1f1-4ebb-8373-df5500e6f333","system_id":"levelo_inurba_marseille","lat":43.26199,"lon":5.37446,"is_reserved":false,"is_disabled":false,"rental_uris":{"android":"levelo://app?vid=7fe8c0a1-a1f1-4ebb-8373-df5500e6f333","ios":"levelo://app?vid=7fe8c0a1-a1f1-4ebb-8373-df5500e6f333"},"vehicle_type_id":"4","last_reported":1729786278,"current_range_meters":30000,"station_id":"ce4bhgp2rcd13ifvqfc0","pricing_plan_id":"cebpf4jnsgd1na2vs0mg"},{"bike_id":"ae4ca401-796b-45f6-8096-0ba2a3db22c7","system_id":"levelo_inurba_marseille","lat":43.31112,"lon":5.37782,"is_reserved":false,"is_disabled":false,"rental_uris":{"android":"levelo://app?vid=ae4ca401-796b-45f6-8096-0ba2a3db22c7","ios":"levelo://app?vid=ae4ca401-796b-45f6-8096-0ba2a3db22c7"},"vehicle_type_id":"4","last_reported":1729786278,"current_range_meters":30000,"station_id":"ce4bgt92rcd13ifvqcg0","pricing_plan_id":"cebpf4jnsgd1na2vs0mg"},{"bike_id":"2e617184-582c-402f-964b-8d6c8931ad26","system_id":"levelo_inurba_marseille","lat":43.2657,"lon":5.39013,"is_reserved":false,"is_disabled":false,"rental_uris":{"android":"levelo://app?vid=2e617184-582c-402f-964b-8d6c8931ad26","ios":"levelo://app?vid=2e617184-582c-402f-964b-8d6c8931ad26"},"vehicle_type_id":"4","last_reported":1729786278,"current_range_meters":9200,"station_id":"ce4bhe12rcd13ifvqf30","pricing_plan_id":"cebpf4jnsgd1na2vs0mg"},{"bike_id":"82dad649-de8a-4c91-bdfb-7d255cf88ae3","system_id":"levelo_inurba_marseille","lat":43.3019,"lon":5.36627,"is_reserved":false,"is_disabled":false,"rental_uris":{"android":"levelo://app?vid=82dad649-de8a-4c91-bdfb-7d255cf88ae3","ios":"levelo://app?vid=82dad649-de8a-4c91-bdfb-7d255cf88ae3"},"vehicle_type_id":"4","last_reported":1729786278,"current_range_meters":19600,"station_id":"","pricing_plan_id":"cebpf4jnsgd1na2vs0mg"},{"bike_id":"2ffd1f6e-29b5-4192-a269-4607f610a02b","system_id":"levelo_inurba_marseille","lat":43.27976,"lon":5.38758,"is_reserved":false,"is_disabled":false,"rental_uris":{"android":"levelo://app?vid=2ffd1f6e-29b5-4192-a269-4607f610a02b","ios":"levelo://app?vid=2ffd1f6e-29b5-4192-a269-4607f610a02b"},"vehicle_type_id":"4","last_reported":1729786278,"current_range_meters":6400,"station_id":"ce4bhg12rcd13ifvqf80","pricing_plan_id":"cebpf4jnsgd1na2vs0mg"},{"bike_id":"3b7ae4fa-cf0b-46da-9eb8-373b042de218","system_id":"levelo_inurba_marseille","lat":43.287457,"lon":5.397545,"is_reserved":false,"is_disabled":false,"rental_uris":{"android":"levelo://app?vid=3b7ae4fa-cf0b-46da-9eb8-373b042de218","ios":"levelo://app?vid=3b7ae4fa-cf0b-46da-9eb8-373b042de218"},"vehicle_type_id":"4","last_reported":1729786278,"current_range_meters":5600,"station_id":"ce4bh2p2rcd13ifvqdi0","pricing_plan_id":"cebpf4jnsgd1na2vs0mg"},{"bike_id":"e09c1358-9673-47a1-836f-e003cfcf7805","system_id":"levelo_inurba_marseille","lat":43.28466,"lon":5.35876,"is_reserved":false,"is_disabled":false,"rental_uris":{"android":"levelo://app?vid=e09c1358-9673-47a1-836f-e003cfcf7805","ios":"levelo://app?vid=e09c1358-9673-47a1-836f-e003cfcf7805"},"vehicle_type_id":"4","last_reported":1729786278,"current_range_meters":20000,"station_id":"ce4bhah2rcd13ifvqei0","pricing_plan_id":"cebpf4jnsgd1na2vs0mg"},{"bike_id":"640e9788-fb48-4506-b792-e20186cbd5fb","system_id":"levelo_inurba_marseille","lat":43.28939,"lon":5.36389,"is_reserved":false,"is_disabled":false,"rental_uris":{"android":"levelo://app?vid=640e9788-fb48-4506-b792-e20186cbd5fb","ios":"levelo://app?vid=640e9788-fb48-4506-b792-e20186cbd5fb"},"vehicle_type_id":"4","last_reported":1729786278,"current_range_meters":38800,"station_id":"ce4bhc92rcd13ifvqetg","pricing_plan_id":"cebpf4jnsgd1na2vs0mg"},{"bike_id":"16005272-c10d-45d7-be5c-b509e2e60221","system_id":"levelo_inurba_marseille","lat":43.28668,"lon":5.36358,"is_reserved":false,"is_disabled":false,"rental_uris":{"android":"levelo://app?vid=16005272-c10d-45d7-be5c-b509e2e60221","ios":"levelo://app?vid=16005272-c10d-45d7-be5c-b509e2e60221"},"vehicle_type_id":"4","last_reported":1729786278,"current_range_meters":26000,"station_id":"ce4bhah2rcd13ifvqej0","pricing_plan_id":"cebpf4jnsgd1na2vs0mg"},{"bike_id":"d4c96e24-4bae-4c1a-bd3a-5bdabc26251e","system_id":"levelo_inurba_marseille","lat":43.25495,"lon":5.37651,"is_reserved":false,"is_disabled":false,"rental_uris":{"android":"levelo://app?vid=d4c96e24-4bae-4c1a-bd3a-5bdabc26251e","ios":"levelo://app?vid=d4c96e24-4bae-4c1a-bd3a-5bdabc26251e"},"vehicle_type_id":"4","last_reported":1729786278,"current_range_meters":34000,"station_id":"ce4bhh12rcd13ifvqff0","pricing_plan_id":"cebpf4jnsgd1na2vs0mg"},{"bike_id":"12c09f9d-3a62-483b-955b-35f396d7d398","system_id":"levelo_inurba_marseille","lat":43.2987,"lon":5.39737,"is_reserved":false,"is_disabled":false,"rental_uris":{"android":"levelo://app?vid=12c09f9d-3a62-483b-955b-35f396d7d398","ios":"levelo://app?vid=12c09f9d-3a62-483b-955b-35f396d7d398"},"vehicle_type_id":"4","last_reported":1729786278,"current_range_meters":28400,"station_id":"ce4bh0h2rcd13ifvqd50","pricing_plan_id":"cebpf4jnsgd1na2vs0mg"},{"bike_id":"27f31a06-d021-4e2a-9140-9c6fce09e875","system_id":"levelo_inurba_marseille","lat":43.2841,"lon":5.34979,"is_reserved":false,"is_disabled":false,"rental_uris":{"android":"levelo://app?vid=27f31a06-d021-4e2a-9140-9c6fce09e875","ios":"levelo://app?vid=27f31a06-d021-4e2a-9140-9c6fce09e875"},"vehicle_type_id":"4","last_reported":1729786278,"current_range_meters":29600,"station_id":"ce4bhbh2rcd13ifvqepg","pricing_plan_id":"cebpf4jnsgd1na2vs0mg"},{"bike_id":"be8fbca4-3dcd-4e0e-96d2-8c570f59713c","system_id":"levelo_inurba_marseille","lat":43.32488,"lon":5.36571,"is_reserved":false,"is_disabled":false,"rental_uris":{"android":"levelo://app?vid=be8fbca4-3dcd-4e0e-96d2-8c570f59713c","ios":"levelo://app?vid=be8fbca4-3dcd-4e0e-96d2-8c570f59713c"},"vehicle_type_id":"4","last_reported":1729786278,"current_range_meters":24400,"station_id":"ce4bhs12rcd13ifvqhvg","pricing_plan_id":"cebpf4jnsgd1na2vs0mg"},{"bike_id":"31b4d754-1564-47e6-a4ad-0ed0d79d7d44","system_id":"levelo_inurba_marseille","lat":43.294067,"lon":5.386309,"is_reserved":false,"is_disabled":false,"rental_uris":{"android":"levelo://app?vid=31b4d754-1564-47e6-a4ad-0ed0d79d7d44","ios":"levelo://app?vid=31b4d754-1564-47e6-a4ad-0ed0d79d7d44"},"vehicle_type_id":"4","last_reported":1729786278,"current_range_meters":19200,"station_id":"ce4bh0h2rcd13ifvqd40","pricing_plan_id":"cebpf4jnsgd1na2vs0mg"},{"bike_id":"3a798783-b747-47d0-8ed8-04593bec0194","system_id":"levelo_inurba_marseille","lat":43.231922,"lon":5.355489,"is_reserved":false,"is_disabled":false,"rental_uris":{"android":"levelo://app?vid=3a798783-b747-47d0-8ed8-04593bec0194","ios":"levelo://app?vid=3a798783-b747-47d0-8ed8-04593bec0194"},"vehicle_type_id":"4","last_reported":1729786278,"current_range_meters":15200,"station_id":"ce4bhu92rcd13ifvqi70","pricing_plan_id":"cebpf4jnsgd1na2vs0mg"},{"bike_id":"32745b13-c55b-4aa9-82ac-9fbdcc1e90be","system_id":"levelo_inurba_marseille","lat":43.28619,"lon":5.40122,"is_reserved":false,"is_disabled":false,"rental_uris":{"android":"levelo://app?vid=32745b13-c55b-4aa9-82ac-9fbdcc1e90be","ios":"levelo://app?vid=32745b13-c55b-4aa9-82ac-9fbdcc1e90be"},"vehicle_type_id":"4","last_reported":1729786278,"current_range_meters":4000,"station_id":"","pricing_plan_id":"cebpf4jnsgd1na2vs0mg"},{"bike_id":"3ce3acbd-ed8b-498c-b0d6-32a330a449a8","system_id":"levelo_inurba_marseille","lat":43.29792,"lon":5.37101,"is_reserved":false,"is_disabled":false,"rental_uris":{"android":"levelo://app?vid=3ce3acbd-ed8b-498c-b0d6-32a330a449a8","ios":"levelo://app?vid=3ce3acbd-ed8b-498c-b0d6-32a330a449a8"},"vehicle_type_id":"4","last_reported":1729786278,"current_range_meters":38400,"station_id":"ce4bgop2rcd13ifvqc1g","pricing_plan_id":"cebpf4jnsgd1na2vs0mg"},{"bike_id":"a389a759-ac16-41bb-a668-b8d634b74462","system_id":"levelo_inurba_marseille","lat":43.27185,"lon":5.40996,"is_reserved":false,"is_disabled":false,"rental_uris":{"android":"levelo://app?vid=a389a759-ac16-41bb-a668-b8d634b74462","ios":"levelo://app?vid=a389a759-ac16-41bb-a668-b8d634b74462"},"vehicle_type_id":"4","last_reported":1729786278,"current_range_meters":11200,"station_id":"ce4bhl12rcd13ifvqgf0","pricing_plan_id":"cebpf4jnsgd1na2vs0mg"},{"bike_id":"ec7d4d24-e5ff-4ca4-9fb2-be24c89315b2","system_id":"levelo_inurba_marseille","lat":43.29191,"lon":5.35802,"is_reserved":false,"is_disabled":false,"rental_uris":{"android":"levelo://app?vid=ec7d4d24-e5ff-4ca4-9fb2-be24c89315b2","ios":"levelo://app?vid=ec7d4d24-e5ff-4ca4-9fb2-be24c89315b2"},"vehicle_type_id":"4","last_reported":1729786278,"current_range_meters":12400,"station_id":"ce4bhb12rcd13ifvqel0","pricing_plan_id":"cebpf4jnsgd1na2vs0mg"},{"bike_id":"63f59f5b-e6ff-474a-8422-2088cd61e81f","system_id":"levelo_inurba_marseille","lat":43.28717,"lon":5.399878,"is_reserved":false,"is_disabled":false,"rental_uris":{"android":"levelo://app?vid=63f59f5b-e6ff-474a-8422-2088cd61e81f","ios":"levelo://app?vid=63f59f5b-e6ff-474a-8422-2088cd61e81f"},"vehicle_type_id":"4","last_reported":1729786278,"current_range_meters":27200,"station_id":"ce4bho92rcd13ifvqh3g","pricing_plan_id":"cebpf4jnsgd1na2vs0mg"},{"bike_id":"30c33710-81c1-44f1-824d-bd7ec3807329","system_id":"levelo_inurba_marseille","lat":43.304588,"lon":5.393267,"is_reserved":false,"is_disabled":false,"rental_uris":{"android":"levelo://app?vid=30c33710-81c1-44f1-824d-bd7ec3807329","ios":"levelo://app?vid=30c33710-81c1-44f1-824d-bd7ec3807329"},"vehicle_type_id":"4","last_reported":1729786278,"current_range_meters":16800,"station_id":"ce4bh0p2rcd13ifvqd80","pricing_plan_id":"cebpf4jnsgd1na2vs0mg"},{"bike_id":"9f10b58d-f55f-45ab-aac6-158c0e70f236","system_id":"levelo_inurba_marseille","lat":43.28156,"lon":5.42651,"is_reserved":false,"is_disabled":false,"rental_uris":{"android":"levelo://app?vid=9f10b58d-f55f-45ab-aac6-158c0e70f236","ios":"levelo://app?vid=9f10b58d-f55f-45ab-aac6-158c0e70f236"},"vehicle_type_id":"4","last_reported":1729786278,"current_range_meters":13600,"station_id":"ce4bhnh2rcd13ifvqgug","pricing_plan_id":"cebpf4jnsgd1na2vs0mg"},{"bike_id":"309bf172-f8ce-4458-b0b5-4beeae716b7e","system_id":"levelo_inurba_marseille","lat":43.27186,"lon":5.40998,"is_reserved":false,"is_disabled":false,"rental_uris":{"android":"levelo://app?vid=309bf172-f8ce-4458-b0b5-4beeae716b7e","ios":"levelo://app?vid=309bf172-f8ce-4458-b0b5-4beeae716b7e"},"vehicle_type_id":"4","last_reported":1729786278,"current_range_meters":25200,"station_id":"ce4bhl12rcd13ifvqgf0","pricing_plan_id":"cebpf4jnsgd1na2vs0mg"},{"bike_id":"97b0f0f7-6e8b-4bc3-bd9c-0463e172252c","system_id":"levelo_inurba_marseille","lat":43.29873,"lon":5.3974,"is_reserved":false,"is_disabled":false,"rental_uris":{"android":"levelo://app?vid=97b0f0f7-6e8b-4bc3-bd9c-0463e172252c","ios":"levelo://app?vid=97b0f0f7-6e8b-4bc3-bd9c-0463e172252c"},"vehicle_type_id":"4","last_reported":1729786278,"current_range_meters":38000,"station_id":"ce4bh0h2rcd13ifvqd50","pricing_plan_id":"cebpf4jnsgd1na2vs0mg"},{"bike_id":"53036ec7-ffb3-4479-9bbe-24daad223a27","system_id":"levelo_inurba_marseille","lat":43.25508,"lon":5.3765,"is_reserved":false,"is_disabled":false,"rental_uris":{"android":"levelo://app?vid=53036ec7-ffb3-4479-9bbe-24daad223a27","ios":"levelo://app?vid=53036ec7-ffb3-4479-9bbe-24daad223a27"},"vehicle_type_id":"4","last_reported":1729786278,"current_range_meters":8000,"station_id":"ce4bhh12rcd13ifvqff0","pricing_plan_id":"cebpf4jnsgd1na2vs0mg"},{"bike_id":"f0851022-c132-4e7f-9c4a-4c8259812094","system_id":"levelo_inurba_marseille","lat":43.28405,"lon":5.37519,"is_reserved":false,"is_disabled":false,"rental_uris":{"android":"levelo://app?vid=f0851022-c132-4e7f-9c4a-4c8259812094","ios":"levelo://app?vid=f0851022-c132-4e7f-9c4a-4c8259812094"},"vehicle_type_id":"4","last_reported":1729786278,"current_range_meters":4800,"station_id":"ce4bh412rcd13ifvqds0","pricing_plan_id":"cebpf4jnsgd1na2vs0mg"},{"bike_id":"f0a286fa-865c-404e-97de-1da8f4125132","system_id":"levelo_inurba_marseille","lat":43.29551,"lon":5.423,"is_reserved":false,"is_disabled":false,"rental_uris":{"android":"levelo://app?vid=f0a286fa-865c-404e-97de-1da8f4125132","ios":"levelo://app?vid=f0a286fa-865c-404e-97de-1da8f4125132"},"vehicle_type_id":"4","last_reported":1729786278,"current_range_meters":28000,"station_id":"ce4bhph2rcd13ifvqhdg","pricing_plan_id":"cebpf4jnsgd1na2vs0mg"},{"bike_id":"2af88b45-dfbe-4c70-af61-123a91c2672c","system_id":"levelo_inurba_marseille","lat":43.23963,"lon":5.36645,"is_reserved":false,"is_disabled":false,"rental_uris":{"android":"levelo://app?vid=2af88b45-dfbe-4c70-af61-123a91c2672c","ios":"levelo://app?vid=2af88b45-dfbe-4c70-af61-123a91c2672c"},"vehicle_type_id":"4","last_reported":1729786278,"current_range_meters":38000,"station_id":"ce4bhi12rcd13ifvqfp0","pricing_plan_id":"cebpf4jnsgd1na2vs0mg"},{"bike_id":"2d0131b9-189a-46fa-a119-264f41499517","system_id":"levelo_inurba_marseille","lat":43.29572,"lon":5.3999,"is_reserved":false,"is_disabled":false,"rental_uris":{"android":"levelo://app?vid=2d0131b9-189a-46fa-a119-264f41499517","ios":"levelo://app?vid=2d0131b9-189a-46fa-a119-264f41499517"},"vehicle_type_id":"4","last_reported":1729786278,"current_range_meters":10000,"station_id":"ce4bh312rcd13ifvqdj0","pricing_plan_id":"cebpf4jnsgd1na2vs0mg"},{"bike_id":"15759400-7f6a-41c6-a2d3-4862e0c529f0","system_id":"levelo_inurba_marseille","lat":43.27826,"lon":5.39203,"is_reserved":false,"is_disabled":false,"rental_uris":{"android":"levelo://app?vid=15759400-7f6a-41c6-a2d3-4862e0c529f0","ios":"levelo://app?vid=15759400-7f6a-41c6-a2d3-4862e0c529f0"},"vehicle_type_id":"4","last_reported":1729786278,"current_range_meters":33200,"station_id":"ce4bhjp2rcd13ifvqga0","pricing_plan_id":"cebpf4jnsgd1na2vs0mg"},{"bike_id":"5c304411-1ec7-484f-acd9-34110518da7d","system_id":"levelo_inurba_marseille","lat":43.25489,"lon":5.37647,"is_reserved":false,"is_disabled":false,"rental_uris":{"android":"levelo://app?vid=5c304411-1ec7-484f-acd9-34110518da7d","ios":"levelo://app?vid=5c304411-1ec7-484f-acd9-34110518da7d"},"vehicle_type_id":"4","last_reported":1729786278,"current_range_meters":28400,"station_id":"ce4bhh12rcd13ifvqff0","pricing_plan_id":"cebpf4jnsgd1na2vs0mg"},{"bike_id":"d2b1bdf2-4357-4fe1-9310-b780934b2159","system_id":"levelo_inurba_marseille","lat":43.341336,"lon":5.409235,"is_reserved":false,"is_disabled":false,"rental_uris":{"android":"levelo://app?vid=d2b1bdf2-4357-4fe1-9310-b780934b2159","ios":"levelo://app?vid=d2b1bdf2-4357-4fe1-9310-b780934b2159"},"vehicle_type_id":"4","last_reported":1729786278,"current_range_meters":36800,"station_id":"ce4bhq92rcd13ifvqhkg","pricing_plan_id":"cebpf4jnsgd1na2vs0mg"},{"bike_id":"ea8f37b7-c903-4312-bdc5-0e05822d2af1","system_id":"levelo_inurba_marseille","lat":43.30138,"lon":5.3987,"is_reserved":false,"is_disabled":false,"rental_uris":{"android":"levelo://app?vid=ea8f37b7-c903-4312-bdc5-0e05822d2af1","ios":"levelo://app?vid=ea8f37b7-c903-4312-bdc5-0e05822d2af1"},"vehicle_type_id":"4","last_reported":1729786278,"current_range_meters":37600,"station_id":"ce4bh0h2rcd13ifvqd40","pricing_plan_id":"cebpf4jnsgd1na2vs0mg"},{"bike_id":"2244819a-fafc-41ad-9dfb-cd4524381ec4","system_id":"levelo_inurba_marseille","lat":43.28418,"lon":5.3498,"is_reserved":false,"is_disabled":false,"rental_uris":{"android":"levelo://app?vid=2244819a-fafc-41ad-9dfb-cd4524381ec4","ios":"levelo://app?vid=2244819a-fafc-41ad-9dfb-cd4524381ec4"},"vehicle_type_id":"4","last_reported":1729786278,"current_range_meters":29600,"station_id":"ce4bhbh2rcd13ifvqepg","pricing_plan_id":"cebpf4jnsgd1na2vs0mg"},{"bike_id":"d3e2f2eb-7c3f-42d5-84f2-9aeb0d59e8f5","system_id":"levelo_inurba_marseille","lat":43.23965,"lon":5.36635,"is_reserved":false,"is_disabled":false,"rental_uris":{"android":"levelo://app?vid=d3e2f2eb-7c3f-42d5-84f2-9aeb0d59e8f5","ios":"levelo://app?vid=d3e2f2eb-7c3f-42d5-84f2-9aeb0d59e8f5"},"vehicle_type_id":"4","last_reported":1729786278,"current_range_meters":9600,"station_id":"ce4bhi12rcd13ifvqfp0","pricing_plan_id":"cebpf4jnsgd1na2vs0mg"},{"bike_id":"141541dd-0d5c-48a5-a946-a61bfe0ac923","system_id":"levelo_inurba_marseille","lat":43.3053,"lon":5.38436,"is_reserved":false,"is_disabled":false,"rental_uris":{"android":"levelo://app?vid=141541dd-0d5c-48a5-a946-a61bfe0ac923","ios":"levelo://app?vid=141541dd-0d5c-48a5-a946-a61bfe0ac923"},"vehicle_type_id":"4","last_reported":1729786278,"current_range_meters":5600,"station_id":"ce4bgg92rcd13ifvqb30","pricing_plan_id":"cebpf4jnsgd1na2vs0mg"},{"bike_id":"91bfa645-9cfa-4568-8072-595cbd3b9c72","system_id":"levelo_inurba_marseille","lat":43.28911,"lon":5.36107,"is_reserved":false,"is_disabled":false,"rental_uris":{"android":"levelo://app?vid=91bfa645-9cfa-4568-8072-595cbd3b9c72","ios":"levelo://app?vid=91bfa645-9cfa-4568-8072-595cbd3b9c72"},"vehicle_type_id":"4","last_reported":1729786278,"current_range_meters":22800,"station_id":"","pricing_plan_id":"cebpf4jnsgd1na2vs0mg"},{"bike_id":"856d115a-8f1b-4d78-a4f5-e6563030d0a3","system_id":"levelo_inurba_marseille","lat":43.23961,"lon":5.36632,"is_reserved":false,"is_disabled":false,"rental_uris":{"android":"levelo://app?vid=856d115a-8f1b-4d78-a4f5-e6563030d0a3","ios":"levelo://app?vid=856d115a-8f1b-4d78-a4f5-e6563030d0a3"},"vehicle_type_id":"4","last_reported":1729786278,"current_range_meters":38000,"station_id":"ce4bhi12rcd13ifvqfp0","pricing_plan_id":"cebpf4jnsgd1na2vs0mg"},{"bike_id":"8b51373f-370c-47d7-a8fa-e4b0e57d3947","system_id":"levelo_inurba_marseille","lat":43.28425,"lon":5.37506,"is_reserved":false,"is_disabled":false,"rental_uris":{"android":"levelo://app?vid=8b51373f-370c-47d7-a8fa-e4b0e57d3947","ios":"levelo://app?vid=8b51373f-370c-47d7-a8fa-e4b0e57d3947"},"vehicle_type_id":"4","last_reported":1729786278,"current_range_meters":16400,"station_id":"ce4bh412rcd13ifvqds0","pricing_plan_id":"cebpf4jnsgd1na2vs0mg"},{"bike_id":"8c01defb-6b9e-450a-9979-f6626c18c6fc","system_id":"levelo_inurba_marseille","lat":43.28412,"lon":5.34991,"is_reserved":false,"is_disabled":false,"rental_uris":{"android":"levelo://app?vid=8c01defb-6b9e-450a-9979-f6626c18c6fc","ios":"levelo://app?vid=8c01defb-6b9e-450a-9979-f6626c18c6fc"},"vehicle_type_id":"4","last_reported":1729786278,"current_range_meters":11600,"station_id":"ce4bhbh2rcd13ifvqepg","pricing_plan_id":"cebpf4jnsgd1na2vs0mg"},{"bike_id":"ac607088-0940-44e0-bd2e-4aa6d1e40af8","system_id":"levelo_inurba_marseille","lat":43.29005,"lon":5.35612,"is_reserved":false,"is_disabled":false,"rental_uris":{"android":"levelo://app?vid=ac607088-0940-44e0-bd2e-4aa6d1e40af8","ios":"levelo://app?vid=ac607088-0940-44e0-bd2e-4aa6d1e40af8"},"vehicle_type_id":"4","last_reported":1729786278,"current_range_meters":12400,"station_id":"ce4bhb92rcd13ifvqen0","pricing_plan_id":"cebpf4jnsgd1na2vs0mg"},{"bike_id":"b5c3b480-bce8-439b-940f-f8e1dbd29364","system_id":"levelo_inurba_marseille","lat":43.27048,"lon":5.40262,"is_reserved":false,"is_disabled":false,"rental_uris":{"android":"levelo://app?vid=b5c3b480-bce8-439b-940f-f8e1dbd29364","ios":"levelo://app?vid=b5c3b480-bce8-439b-940f-f8e1dbd29364"},"vehicle_type_id":"4","last_reported":1729786278,"current_range_meters":28400,"station_id":"ce4bhk92rcd13ifvqgc0","pricing_plan_id":"cebpf4jnsgd1na2vs0mg"},{"bike_id":"3e1f03ac-5caf-407c-a6b7-afc161387c4d","system_id":"levelo_inurba_marseille","lat":43.2737,"lon":5.36262,"is_reserved":false,"is_disabled":false,"rental_uris":{"android":"levelo://app?vid=3e1f03ac-5caf-407c-a6b7-afc161387c4d","ios":"levelo://app?vid=3e1f03ac-5caf-407c-a6b7-afc161387c4d"},"vehicle_type_id":"4","last_reported":1729786278,"current_range_meters":20400,"station_id":"ce4bhbh2rcd13ifvqeo0","pricing_plan_id":"cebpf4jnsgd1na2vs0mg"},{"bike_id":"6eee0336-cd0e-4b12-b980-c29bed28e134","system_id":"levelo_inurba_marseille","lat":43.29966,"lon":5.38501,"is_reserved":false,"is_disabled":false,"rental_uris":{"android":"levelo://app?vid=6eee0336-cd0e-4b12-b980-c29bed28e134","ios":"levelo://app?vid=6eee0336-cd0e-4b12-b980-c29bed28e134"},"vehicle_type_id":"4","last_reported":1729786278,"current_range_meters":22800,"station_id":"ce4bgj92rcd13ifvqbd0","pricing_plan_id":"cebpf4jnsgd1na2vs0mg"},{"bike_id":"080955c6-6640-47b3-a1ea-309f78463fca","system_id":"levelo_inurba_marseille","lat":43.29626,"lon":5.37151,"is_reserved":false,"is_disabled":false,"rental_uris":{"android":"levelo://app?vid=080955c6-6640-47b3-a1ea-309f78463fca","ios":"levelo://app?vid=080955c6-6640-47b3-a1ea-309f78463fca"},"vehicle_type_id":"4","last_reported":1729786278,"current_range_meters":38000,"station_id":"ce4bgnh2rcd13ifvqc0g","pricing_plan_id":"cebpf4jnsgd1na2vs0mg"},{"bike_id":"580cda15-3b40-4a6a-830d-f80a75156a9e","system_id":"levelo_inurba_marseille","lat":43.29277,"lon":5.39062,"is_reserved":false,"is_disabled":false,"rental_uris":{"android":"levelo://app?vid=580cda15-3b40-4a6a-830d-f80a75156a9e","ios":"levelo://app?vid=580cda15-3b40-4a6a-830d-f80a75156a9e"},"vehicle_type_id":"4","last_reported":1729786278,"current_range_meters":19600,"station_id":"","pricing_plan_id":"cebpf4jnsgd1na2vs0mg"},{"bike_id":"9c980766-3696-42be-8e1a-d22fb6edb5c5","system_id":"levelo_inurba_marseille","lat":43.30667,"lon":5.38169,"is_reserved":false,"is_disabled":false,"rental_uris":{"android":"levelo://app?vid=9c980766-3696-42be-8e1a-d22fb6edb5c5","ios":"levelo://app?vid=9c980766-3696-42be-8e1a-d22fb6edb5c5"},"vehicle_type_id":"4","last_reported":1729786278,"current_range_meters":27600,"station_id":"","pricing_plan_id":"cebpf4jnsgd1na2vs0mg"},{"bike_id":"db9b0d12-76bd-4d91-b33d-d74a01381fc8","system_id":"levelo_inurba_marseille","lat":43.2826,"lon":5.35075,"is_reserved":false,"is_disabled":false,"rental_uris":{"android":"levelo://app?vid=db9b0d12-76bd-4d91-b33d-d74a01381fc8","ios":"levelo://app?vid=db9b0d12-76bd-4d91-b33d-d74a01381fc8"},"vehicle_type_id":"4","last_reported":1729786278,"current_range_meters":38800,"station_id":"ce4bhbp2rcd13ifvqerg","pricing_plan_id":"cebpf4jnsgd1na2vs0mg"},{"bike_id":"ae711be2-da63-42ff-b861-686a2bb4ec70","system_id":"levelo_inurba_marseille","lat":43.29956,"lon":5.38505,"is_reserved":false,"is_disabled":false,"rental_uris":{"android":"levelo://app?vid=ae711be2-da63-42ff-b861-686a2bb4ec70","ios":"levelo://app?vid=ae711be2-da63-42ff-b861-686a2bb4ec70"},"vehicle_type_id":"4","last_reported":1729786278,"current_range_meters":35600,"station_id":"ce4bgj92rcd13ifvqbd0","pricing_plan_id":"cebpf4jnsgd1na2vs0mg"},{"bike_id":"52f0e4a5-d535-4f96-b297-18be6815ac33","system_id":"levelo_inurba_marseille","lat":43.33722,"lon":5.39193,"is_reserved":false,"is_disabled":false,"rental_uris":{"android":"levelo://app?vid=52f0e4a5-d535-4f96-b297-18be6815ac33","ios":"levelo://app?vid=52f0e4a5-d535-4f96-b297-18be6815ac33"},"vehicle_type_id":"4","last_reported":1729786278,"current_range_meters":19200,"station_id":"ce4bhr92rcd13ifvqhsg","pricing_plan_id":"cebpf4jnsgd1na2vs0mg"},{"bike_id":"9fde5303-59df-436b-84d4-ac0a3d8d6711","system_id":"levelo_inurba_marseille","lat":43.30334,"lon":5.365,"is_reserved":false,"is_disabled":false,"rental_uris":{"android":"levelo://app?vid=9fde5303-59df-436b-84d4-ac0a3d8d6711","ios":"levelo://app?vid=9fde5303-59df-436b-84d4-ac0a3d8d6711"},"vehicle_type_id":"4","last_reported":1729786278,"current_range_meters":32800,"station_id":"","pricing_plan_id":"cebpf4jnsgd1na2vs0mg"},{"bike_id":"b7898f07-45c7-4858-84e4-ac61f6e66417","system_id":"levelo_inurba_marseille","lat":43.29567,"lon":5.37524,"is_reserved":false,"is_disabled":false,"rental_uris":{"android":"levelo://app?vid=b7898f07-45c7-4858-84e4-ac61f6e66417","ios":"levelo://app?vid=b7898f07-45c7-4858-84e4-ac61f6e66417"},"vehicle_type_id":"4","last_reported":1729786278,"current_range_meters":4800,"station_id":"ce4bgh92rcd13ifvqb50","pricing_plan_id":"cebpf4jnsgd1na2vs0mg"},{"bike_id":"aaed41c8-3c8b-4b4c-9f37-de80c603c984","system_id":"levelo_inurba_marseille","lat":43.29864,"lon":5.39745,"is_reserved":false,"is_disabled":false,"rental_uris":{"android":"levelo://app?vid=aaed41c8-3c8b-4b4c-9f37-de80c603c984","ios":"levelo://app?vid=aaed41c8-3c8b-4b4c-9f37-de80c603c984"},"vehicle_type_id":"4","last_reported":1729786278,"current_range_meters":5600,"station_id":"ce4bh0h2rcd13ifvqd50","pricing_plan_id":"cebpf4jnsgd1na2vs0mg"},{"bike_id":"5406d865-115d-45c9-a3e2-4e04bb12c1d8","system_id":"levelo_inurba_marseille","lat":43.29451,"lon":5.39743,"is_reserved":false,"is_disabled":false,"rental_uris":{"android":"levelo://app?vid=5406d865-115d-45c9-a3e2-4e04bb12c1d8","ios":"levelo://app?vid=5406d865-115d-45c9-a3e2-4e04bb12c1d8"},"vehicle_type_id":"4","last_reported":1729786278,"current_range_meters":30000,"station_id":"ce4bh3h2rcd13ifvqdo0","pricing_plan_id":"cebpf4jnsgd1na2vs0mg"},{"bike_id":"b603efab-0da2-480f-b7f2-861c36e90698","system_id":"levelo_inurba_marseille","lat":43.28941,"lon":5.36382,"is_reserved":false,"is_disabled":false,"rental_uris":{"android":"levelo://app?vid=b603efab-0da2-480f-b7f2-861c36e90698","ios":"levelo://app?vid=b603efab-0da2-480f-b7f2-861c36e90698"},"vehicle_type_id":"4","last_reported":1729786278,"current_range_meters":28400,"station_id":"ce4bhc92rcd13ifvqetg","pricing_plan_id":"cebpf4jnsgd1na2vs0mg"},{"bike_id":"7a8769e9-3d2b-450f-9d30-4bba7cd2c6bd","system_id":"levelo_inurba_marseille","lat":43.28696,"lon":5.37391,"is_reserved":false,"is_disabled":false,"rental_uris":{"android":"levelo://app?vid=7a8769e9-3d2b-450f-9d30-4bba7cd2c6bd","ios":"levelo://app?vid=7a8769e9-3d2b-450f-9d30-4bba7cd2c6bd"},"vehicle_type_id":"4","last_reported":1729786278,"current_range_meters":31200,"station_id":"ce4bh3p2rcd13ifvqdq0","pricing_plan_id":"cebpf4jnsgd1na2vs0mg"},{"bike_id":"53d6cdff-14b3-4127-947a-7fbbec4d4d37","system_id":"levelo_inurba_marseille","lat":43.28999,"lon":5.35621,"is_reserved":false,"is_disabled":false,"rental_uris":{"android":"levelo://app?vid=53d6cdff-14b3-4127-947a-7fbbec4d4d37","ios":"levelo://app?vid=53d6cdff-14b3-4127-947a-7fbbec4d4d37"},"vehicle_type_id":"4","last_reported":1729786278,"current_range_meters":3600,"station_id":"ce4bhb92rcd13ifvqen0","pricing_plan_id":"cebpf4jnsgd1na2vs0mg"},{"bike_id":"ead5af65-b2d8-4fc2-8885-fb771aa92466","system_id":"levelo_inurba_marseille","lat":43.28948,"lon":5.36379,"is_reserved":false,"is_disabled":false,"rental_uris":{"android":"levelo://app?vid=ead5af65-b2d8-4fc2-8885-fb771aa92466","ios":"levelo://app?vid=ead5af65-b2d8-4fc2-8885-fb771aa92466"},"vehicle_type_id":"4","last_reported":1729786278,"current_range_meters":37600,"station_id":"ce4bhc92rcd13ifvqetg","pricing_plan_id":"cebpf4jnsgd1na2vs0mg"},{"bike_id":"14cec377-7827-4686-b5f3-ffafa4bcb451","system_id":"levelo_inurba_marseille","lat":43.29558,"lon":5.42298,"is_reserved":false,"is_disabled":false,"rental_uris":{"android":"levelo://app?vid=14cec377-7827-4686-b5f3-ffafa4bcb451","ios":"levelo://app?vid=14cec377-7827-4686-b5f3-ffafa4bcb451"},"vehicle_type_id":"4","last_reported":1729786278,"current_range_meters":12800,"station_id":"ce4bhph2rcd13ifvqhdg","pricing_plan_id":"cebpf4jnsgd1na2vs0mg"},{"bike_id":"70227702-9df9-42cc-83b0-e58cc73f765f","system_id":"levelo_inurba_marseille","lat":43.24179,"lon":5.39739,"is_reserved":false,"is_disabled":false,"rental_uris":{"android":"levelo://app?vid=70227702-9df9-42cc-83b0-e58cc73f765f","ios":"levelo://app?vid=70227702-9df9-42cc-83b0-e58cc73f765f"},"vehicle_type_id":"4","last_reported":1729786278,"current_range_meters":6000,"station_id":"ce4bhn12rcd13ifvqgpg","pricing_plan_id":"cebpf4jnsgd1na2vs0mg"},{"bike_id":"7691659f-eea1-4b4d-8db5-2728fcde3a23","system_id":"levelo_inurba_marseille","lat":43.32334,"lon":5.38508,"is_reserved":false,"is_disabled":false,"rental_uris":{"android":"levelo://app?vid=7691659f-eea1-4b4d-8db5-2728fcde3a23","ios":"levelo://app?vid=7691659f-eea1-4b4d-8db5-2728fcde3a23"},"vehicle_type_id":"4","last_reported":1729786278,"current_range_meters":28000,"station_id":"","pricing_plan_id":"cebpf4jnsgd1na2vs0mg"},{"bike_id":"dba4148a-77e9-4027-9bce-7448a540566b","system_id":"levelo_inurba_marseille","lat":43.29282,"lon":5.4012,"is_reserved":false,"is_disabled":false,"rental_uris":{"android":"levelo://app?vid=dba4148a-77e9-4027-9bce-7448a540566b","ios":"levelo://app?vid=dba4148a-77e9-4027-9bce-7448a540566b"},"vehicle_type_id":"4","last_reported":1729786278,"current_range_meters":2000,"station_id":"ce4bh312rcd13ifvqdk0","pricing_plan_id":"cebpf4jnsgd1na2vs0mg"},{"bike_id":"04c65914-75b0-4e7b-915c-e78ebf87ac08","system_id":"levelo_inurba_marseille","lat":43.28157,"lon":5.42643,"is_reserved":false,"is_disabled":false,"rental_uris":{"android":"levelo://app?vid=04c65914-75b0-4e7b-915c-e78ebf87ac08","ios":"levelo://app?vid=04c65914-75b0-4e7b-915c-e78ebf87ac08"},"vehicle_type_id":"4","last_reported":1729786278,"current_range_meters":22000,"station_id":"ce4bhnh2rcd13ifvqgug","pricing_plan_id":"cebpf4jnsgd1na2vs0mg"},{"bike_id":"228c2a65-a88a-474e-baae-39029ce20359","system_id":"levelo_inurba_marseille","lat":43.24079,"lon":5.37755,"is_reserved":false,"is_disabled":false,"rental_uris":{"android":"levelo://app?vid=228c2a65-a88a-474e-baae-39029ce20359","ios":"levelo://app?vid=228c2a65-a88a-474e-baae-39029ce20359"},"vehicle_type_id":"4","last_reported":1729786278,"current_range_meters":18800,"station_id":"ce4bhnp2rcd13ifvqgvg","pricing_plan_id":"cebpf4jnsgd1na2vs0mg"},{"bike_id":"4b6769f0-9d52-4427-92eb-85214df0463d","system_id":"levelo_inurba_marseille","lat":43.232,"lon":5.35559,"is_reserved":false,"is_disabled":false,"rental_uris":{"android":"levelo://app?vid=4b6769f0-9d52-4427-92eb-85214df0463d","ios":"levelo://app?vid=4b6769f0-9d52-4427-92eb-85214df0463d"},"vehicle_type_id":"4","last_reported":1729786278,"current_range_meters":38800,"station_id":"ce4bhu92rcd13ifvqi70","pricing_plan_id":"cebpf4jnsgd1na2vs0mg"},{"bike_id":"0ac2b4b1-8b19-423d-8023-dbb94d38427f","system_id":"levelo_inurba_marseille","lat":43.24071,"lon":5.37764,"is_reserved":false,"is_disabled":false,"rental_uris":{"android":"levelo://app?vid=0ac2b4b1-8b19-423d-8023-dbb94d38427f","ios":"levelo://app?vid=0ac2b4b1-8b19-423d-8023-dbb94d38427f"},"vehicle_type_id":"4","last_reported":1729786278,"current_range_meters":4800,"station_id":"ce4bhnp2rcd13ifvqgvg","pricing_plan_id":"cebpf4jnsgd1na2vs0mg"},{"bike_id":"303bfd12-09b7-400e-9f0e-8535d468050c","system_id":"levelo_inurba_marseille","lat":43.28413,"lon":5.34997,"is_reserved":false,"is_disabled":false,"rental_uris":{"android":"levelo://app?vid=303bfd12-09b7-400e-9f0e-8535d468050c","ios":"levelo://app?vid=303bfd12-09b7-400e-9f0e-8535d468050c"},"vehicle_type_id":"4","last_reported":1729786278,"current_range_meters":17600,"station_id":"ce4bhbh2rcd13ifvqepg","pricing_plan_id":"cebpf4jnsgd1na2vs0mg"},{"bike_id":"103ed008-6f4b-4142-8ae0-e6b210d9a427","system_id":"levelo_inurba_marseille","lat":43.22928,"lon":5.35374,"is_reserved":false,"is_disabled":false,"rental_uris":{"android":"levelo://app?vid=103ed008-6f4b-4142-8ae0-e6b210d9a427","ios":"levelo://app?vid=103ed008-6f4b-4142-8ae0-e6b210d9a427"},"vehicle_type_id":"4","last_reported":1729786278,"current_range_meters":10000,"station_id":"cpo3532slgdg3j2ikp40","pricing_plan_id":"cebpf4jnsgd1na2vs0mg"},{"bike_id":"f26798d4-99f9-4e3f-bb19-8c23d2d351d9","system_id":"levelo_inurba_marseille","lat":43.28697,"lon":5.39993,"is_reserved":false,"is_disabled":false,"rental_uris":{"android":"levelo://app?vid=f26798d4-99f9-4e3f-bb19-8c23d2d351d9","ios":"levelo://app?vid=f26798d4-99f9-4e3f-bb19-8c23d2d351d9"},"vehicle_type_id":"4","last_reported":1729786278,"current_range_meters":14000,"station_id":"ce4bho92rcd13ifvqh3g","pricing_plan_id":"cebpf4jnsgd1na2vs0mg"},{"bike_id":"24df3e74-5eba-4c29-9e72-551ffe956af6","system_id":"levelo_inurba_marseille","lat":43.28855,"lon":5.39328,"is_reserved":false,"is_disabled":false,"rental_uris":{"android":"levelo://app?vid=24df3e74-5eba-4c29-9e72-551ffe956af6","ios":"levelo://app?vid=24df3e74-5eba-4c29-9e72-551ffe956af6"},"vehicle_type_id":"4","last_reported":1729786278,"current_range_meters":2800,"station_id":"ce4bh2p2rcd13ifvqdi0","pricing_plan_id":"cebpf4jnsgd1na2vs0mg"},{"bike_id":"0bc90dc2-cf8c-457e-a6aa-9b91de95f992","system_id":"levelo_inurba_marseille","lat":43.22759,"lon":5.41588,"is_reserved":false,"is_disabled":false,"rental_uris":{"android":"levelo://app?vid=0bc90dc2-cf8c-457e-a6aa-9b91de95f992","ios":"levelo://app?vid=0bc90dc2-cf8c-457e-a6aa-9b91de95f992"},"vehicle_type_id":"4","last_reported":1729786278,"current_range_meters":32000,"station_id":"","pricing_plan_id":"cebpf4jnsgd1na2vs0mg"},{"bike_id":"78cd86d1-a015-438e-8ecd-36a0159a1498","system_id":"levelo_inurba_marseille","lat":43.3088,"lon":5.37193,"is_reserved":false,"is_disabled":false,"rental_uris":{"android":"levelo://app?vid=78cd86d1-a015-438e-8ecd-36a0159a1498","ios":"levelo://app?vid=78cd86d1-a015-438e-8ecd-36a0159a1498"},"vehicle_type_id":"4","last_reported":1729786278,"current_range_meters":23200,"station_id":"ce4bguh2rcd13ifvqckg","pricing_plan_id":"cebpf4jnsgd1na2vs0mg"},{"bike_id":"cc8eb2c0-7f09-4818-8999-04c92dc1833d","system_id":"levelo_inurba_marseille","lat":43.292786,"lon":5.368056,"is_reserved":false,"is_disabled":false,"rental_uris":{"android":"levelo://app?vid=cc8eb2c0-7f09-4818-8999-04c92dc1833d","ios":"levelo://app?vid=cc8eb2c0-7f09-4818-8999-04c92dc1833d"},"vehicle_type_id":"4","last_reported":1729786278,"current_range_meters":29600,"station_id":"ce4bhb12rcd13ifvqel0","pricing_plan_id":"cebpf4jnsgd1na2vs0mg"},{"bike_id":"558500c4-5b78-451b-b7fa-fc5420cc422e","system_id":"levelo_inurba_marseille","lat":43.32298,"lon":5.3856,"is_reserved":false,"is_disabled":false,"rental_uris":{"android":"levelo://app?vid=558500c4-5b78-451b-b7fa-fc5420cc422e","ios":"levelo://app?vid=558500c4-5b78-451b-b7fa-fc5420cc422e"},"vehicle_type_id":"4","last_reported":1729786278,"current_range_meters":26800,"station_id":"ce4bhqp2rcd13ifvqhog","pricing_plan_id":"cebpf4jnsgd1na2vs0mg"},{"bike_id":"9d37ddd4-2b61-4713-8a62-0d4f3fabcc3e","system_id":"levelo_inurba_marseille","lat":43.30881,"lon":5.39653,"is_reserved":false,"is_disabled":false,"rental_uris":{"android":"levelo://app?vid=9d37ddd4-2b61-4713-8a62-0d4f3fabcc3e","ios":"levelo://app?vid=9d37ddd4-2b61-4713-8a62-0d4f3fabcc3e"},"vehicle_type_id":"4","last_reported":1729786278,"current_range_meters":9200,"station_id":"ce4bh012rcd13ifvqcv0","pricing_plan_id":"cebpf4jnsgd1na2vs0mg"},{"bike_id":"efac78e9-0266-4b69-98b3-62caaa3b7a37","system_id":"levelo_inurba_marseille","lat":43.30803,"lon":5.43523,"is_reserved":false,"is_disabled":false,"rental_uris":{"android":"levelo://app?vid=efac78e9-0266-4b69-98b3-62caaa3b7a37","ios":"levelo://app?vid=efac78e9-0266-4b69-98b3-62caaa3b7a37"},"vehicle_type_id":"4","last_reported":1729786278,"current_range_meters":2000,"station_id":"ce4bhph2rcd13ifvqheg","pricing_plan_id":"cebpf4jnsgd1na2vs0mg"},{"bike_id":"3a5434f0-436d-4022-b83d-0f54fd6611f1","system_id":"levelo_inurba_marseille","lat":43.30546,"lon":5.36548,"is_reserved":false,"is_disabled":false,"rental_uris":{"android":"levelo://app?vid=3a5434f0-436d-4022-b83d-0f54fd6611f1","ios":"levelo://app?vid=3a5434f0-436d-4022-b83d-0f54fd6611f1"},"vehicle_type_id":"4","last_reported":1729786278,"current_range_meters":30400,"station_id":"ce4bgs12rcd13ifvqcag","pricing_plan_id":"cebpf4jnsgd1na2vs0mg"},{"bike_id":"9cc86360-5eab-45ae-a458-952e8a91e43e","system_id":"levelo_inurba_marseille","lat":43.22933,"lon":5.35379,"is_reserved":false,"is_disabled":false,"rental_uris":{"android":"levelo://app?vid=9cc86360-5eab-45ae-a458-952e8a91e43e","ios":"levelo://app?vid=9cc86360-5eab-45ae-a458-952e8a91e43e"},"vehicle_type_id":"4","last_reported":1729786278,"current_range_meters":16000,"station_id":"cpo3532slgdg3j2ikp40","pricing_plan_id":"cebpf4jnsgd1na2vs0mg"},{"bike_id":"f7a0de5f-0ab0-462c-9f8c-f233935f432b","system_id":"levelo_inurba_marseille","lat":43.23191,"lon":5.35559,"is_reserved":false,"is_disabled":false,"rental_uris":{"android":"levelo://app?vid=f7a0de5f-0ab0-462c-9f8c-f233935f432b","ios":"levelo://app?vid=f7a0de5f-0ab0-462c-9f8c-f233935f432b"},"vehicle_type_id":"4","last_reported":1729786278,"current_range_meters":30800,"station_id":"ce4bhu92rcd13ifvqi70","pricing_plan_id":"cebpf4jnsgd1na2vs0mg"},{"bike_id":"56804446-1b6b-4a40-81a8-5ca1116f71fd","system_id":"levelo_inurba_marseille","lat":43.28416,"lon":5.34989,"is_reserved":false,"is_disabled":false,"rental_uris":{"android":"levelo://app?vid=56804446-1b6b-4a40-81a8-5ca1116f71fd","ios":"levelo://app?vid=56804446-1b6b-4a40-81a8-5ca1116f71fd"},"vehicle_type_id":"4","last_reported":1729786278,"current_range_meters":28000,"station_id":"ce4bhbh2rcd13ifvqepg","pricing_plan_id":"cebpf4jnsgd1na2vs0mg"},{"bike_id":"e41b6947-ebe4-436b-bf03-3eb8ba8a23c5","system_id":"levelo_inurba_marseille","lat":43.30418,"lon":5.41278,"is_reserved":false,"is_disabled":false,"rental_uris":{"android":"levelo://app?vid=e41b6947-ebe4-436b-bf03-3eb8ba8a23c5","ios":"levelo://app?vid=e41b6947-ebe4-436b-bf03-3eb8ba8a23c5"},"vehicle_type_id":"4","last_reported":1729786278,"current_range_meters":4800,"station_id":"ce4bhop2rcd13ifvqh8g","pricing_plan_id":"cebpf4jnsgd1na2vs0mg"},{"bike_id":"29e9097e-db13-42b2-a315-21c897fefd6b","system_id":"levelo_inurba_marseille","lat":43.292725,"lon":5.368408,"is_reserved":false,"is_disabled":false,"rental_uris":{"android":"levelo://app?vid=29e9097e-db13-42b2-a315-21c897fefd6b","ios":"levelo://app?vid=29e9097e-db13-42b2-a315-21c897fefd6b"},"vehicle_type_id":"4","last_reported":1729786278,"current_range_meters":32800,"station_id":"ce4bhbp2rcd13ifvqesg","pricing_plan_id":"cebpf4jnsgd1na2vs0mg"},{"bike_id":"38715b1e-f926-44c6-95a4-278c2ad8cdb5","system_id":"levelo_inurba_marseille","lat":43.27175,"lon":5.41002,"is_reserved":false,"is_disabled":false,"rental_uris":{"android":"levelo://app?vid=38715b1e-f926-44c6-95a4-278c2ad8cdb5","ios":"levelo://app?vid=38715b1e-f926-44c6-95a4-278c2ad8cdb5"},"vehicle_type_id":"4","last_reported":1729786278,"current_range_meters":18800,"station_id":"ce4bhl12rcd13ifvqgf0","pricing_plan_id":"cebpf4jnsgd1na2vs0mg"},{"bike_id":"7e9e853b-6d3a-47ce-9252-0c3d8babdc12","system_id":"levelo_inurba_marseille","lat":43.24388,"lon":5.3706,"is_reserved":false,"is_disabled":false,"rental_uris":{"android":"levelo://app?vid=7e9e853b-6d3a-47ce-9252-0c3d8babdc12","ios":"levelo://app?vid=7e9e853b-6d3a-47ce-9252-0c3d8babdc12"},"vehicle_type_id":"4","last_reported":1729786278,"current_range_meters":10000,"station_id":"ce4bhhh2rcd13ifvqfk0","pricing_plan_id":"cebpf4jnsgd1na2vs0mg"},{"bike_id":"36856ec2-b80b-4ae8-abff-10088c18f7e8","system_id":"levelo_inurba_marseille","lat":43.24167,"lon":5.36398,"is_reserved":false,"is_disabled":false,"rental_uris":{"android":"levelo://app?vid=36856ec2-b80b-4ae8-abff-10088c18f7e8","ios":"levelo://app?vid=36856ec2-b80b-4ae8-abff-10088c18f7e8"},"vehicle_type_id":"4","last_reported":1729786278,"current_range_meters":38800,"station_id":"cpo36qri1sfpv3e86is0","pricing_plan_id":"cebpf4jnsgd1na2vs0mg"},{"bike_id":"a64f9a6a-8960-4b10-9d7b-716c7b06f7fd","system_id":"levelo_inurba_marseille","lat":43.29893,"lon":5.43667,"is_reserved":false,"is_disabled":false,"rental_uris":{"android":"levelo://app?vid=a64f9a6a-8960-4b10-9d7b-716c7b06f7fd","ios":"levelo://app?vid=a64f9a6a-8960-4b10-9d7b-716c7b06f7fd"},"vehicle_type_id":"4","last_reported":1729786278,"current_range_meters":18800,"station_id":"ce4bhpp2rcd13ifvqhfg","pricing_plan_id":"cebpf4jnsgd1na2vs0mg"},{"bike_id":"03eb4b92-e548-4edf-bc60-b1e3954ee90a","system_id":"levelo_inurba_marseille","lat":43.31222,"lon":5.36849,"is_reserved":false,"is_disabled":false,"rental_uris":{"android":"levelo://app?vid=03eb4b92-e548-4edf-bc60-b1e3954ee90a","ios":"levelo://app?vid=03eb4b92-e548-4edf-bc60-b1e3954ee90a"},"vehicle_type_id":"4","last_reported":1729786278,"current_range_meters":15200,"station_id":"ce4bgl92rcd13ifvqbq0","pricing_plan_id":"cebpf4jnsgd1na2vs0mg"},{"bike_id":"3a526fc6-5f14-429c-8829-287dc38ef285","system_id":"levelo_inurba_marseille","lat":43.22931,"lon":5.35374,"is_reserved":false,"is_disabled":false,"rental_uris":{"android":"levelo://app?vid=3a526fc6-5f14-429c-8829-287dc38ef285","ios":"levelo://app?vid=3a526fc6-5f14-429c-8829-287dc38ef285"},"vehicle_type_id":"4","last_reported":1729786278,"current_range_meters":30400,"station_id":"cpo3532slgdg3j2ikp40","pricing_plan_id":"cebpf4jnsgd1na2vs0mg"},{"bike_id":"ed51ba6f-d8d5-4e39-8c63-d7a482a33181","system_id":"levelo_inurba_marseille","lat":43.28934,"lon":5.36634,"is_reserved":false,"is_disabled":false,"rental_uris":{"android":"levelo://app?vid=ed51ba6f-d8d5-4e39-8c63-d7a482a33181","ios":"levelo://app?vid=ed51ba6f-d8d5-4e39-8c63-d7a482a33181"},"vehicle_type_id":"4","last_reported":1729786278,"current_range_meters":17600,"station_id":"ce4bhap2rcd13ifvqek0","pricing_plan_id":"cebpf4jnsgd1na2vs0mg"},{"bike_id":"d4fb6027-6259-445e-b731-b4ad16898114","system_id":"levelo_inurba_marseille","lat":43.28724,"lon":5.36091,"is_reserved":false,"is_disabled":false,"rental_uris":{"android":"levelo://app?vid=d4fb6027-6259-445e-b731-b4ad16898114","ios":"levelo://app?vid=d4fb6027-6259-445e-b731-b4ad16898114"},"vehicle_type_id":"4","last_reported":1729786278,"current_range_meters":34800,"station_id":"cki0cbj6b192h4jlfktg","pricing_plan_id":"cebpf4jnsgd1na2vs0mg"},{"bike_id":"5c5fedb6-5a4f-4881-ad56-c5bac3af94b4","system_id":"levelo_inurba_marseille","lat":43.26946,"lon":5.40255,"is_reserved":false,"is_disabled":false,"rental_uris":{"android":"levelo://app?vid=5c5fedb6-5a4f-4881-ad56-c5bac3af94b4","ios":"levelo://app?vid=5c5fedb6-5a4f-4881-ad56-c5bac3af94b4"},"vehicle_type_id":"4","last_reported":1729786278,"current_range_meters":9200,"station_id":"cjm6bp8fraef2m0cb0m0","pricing_plan_id":"cebpf4jnsgd1na2vs0mg"},{"bike_id":"365a5e76-e012-4983-b8a9-1a07480bde83","system_id":"levelo_inurba_marseille","lat":43.23192,"lon":5.35547,"is_reserved":false,"is_disabled":false,"rental_uris":{"android":"levelo://app?vid=365a5e76-e012-4983-b8a9-1a07480bde83","ios":"levelo://app?vid=365a5e76-e012-4983-b8a9-1a07480bde83"},"vehicle_type_id":"4","last_reported":1729786278,"current_range_meters":38800,"station_id":"ce4bhu92rcd13ifvqi70","pricing_plan_id":"cebpf4jnsgd1na2vs0mg"},{"bike_id":"76ffb259-d803-4a23-9811-e222d0331618","system_id":"levelo_inurba_marseille","lat":43.24802,"lon":5.37459,"is_reserved":false,"is_disabled":false,"rental_uris":{"android":"levelo://app?vid=76ffb259-d803-4a23-9811-e222d0331618","ios":"levelo://app?vid=76ffb259-d803-4a23-9811-e222d0331618"},"vehicle_type_id":"4","last_reported":1729786278,"current_range_meters":27200,"station_id":"ce4bhgh2rcd13ifvqfb0","pricing_plan_id":"cebpf4jnsgd1na2vs0mg"},{"bike_id":"9ce679d4-a68b-4b9d-94eb-fd4f7f313adf","system_id":"levelo_inurba_marseille","lat":43.294281,"lon":5.386092,"is_reserved":false,"is_disabled":false,"rental_uris":{"android":"levelo://app?vid=9ce679d4-a68b-4b9d-94eb-fd4f7f313adf","ios":"levelo://app?vid=9ce679d4-a68b-4b9d-94eb-fd4f7f313adf"},"vehicle_type_id":"4","last_reported":1729786278,"current_range_meters":2000,"station_id":"ce4bh4p2rcd13ifvqe0g","pricing_plan_id":"cebpf4jnsgd1na2vs0mg"},{"bike_id":"3a54ce3d-639a-409e-8369-7940f1360b58","system_id":"levelo_inurba_marseille","lat":43.3026,"lon":5.40081,"is_reserved":false,"is_disabled":false,"rental_uris":{"android":"levelo://app?vid=3a54ce3d-639a-409e-8369-7940f1360b58","ios":"levelo://app?vid=3a54ce3d-639a-409e-8369-7940f1360b58"},"vehicle_type_id":"4","last_reported":1729786278,"current_range_meters":13600,"station_id":"ce4bgvh2rcd13ifvqcs0","pricing_plan_id":"cebpf4jnsgd1na2vs0mg"},{"bike_id":"3dc2eb7e-15a4-47fb-81be-d850bbd51ccf","system_id":"levelo_inurba_marseille","lat":43.33767,"lon":5.37425,"is_reserved":false,"is_disabled":false,"rental_uris":{"android":"levelo://app?vid=3dc2eb7e-15a4-47fb-81be-d850bbd51ccf","ios":"levelo://app?vid=3dc2eb7e-15a4-47fb-81be-d850bbd51ccf"},"vehicle_type_id":"4","last_reported":1729786278,"current_range_meters":35200,"station_id":"","pricing_plan_id":"cebpf4jnsgd1na2vs0mg"},{"bike_id":"18111989-1a86-43e5-bb91-b135420736d2","system_id":"levelo_inurba_marseille","lat":43.312103,"lon":5.401381,"is_reserved":false,"is_disabled":false,"rental_uris":{"android":"levelo://app?vid=18111989-1a86-43e5-bb91-b135420736d2","ios":"levelo://app?vid=18111989-1a86-43e5-bb91-b135420736d2"},"vehicle_type_id":"4","last_reported":1729786278,"current_range_meters":1600,"station_id":"ce4bh092rcd13ifvqd30","pricing_plan_id":"cebpf4jnsgd1na2vs0mg"},{"bike_id":"f867206c-7709-4d4a-89a4-f5b9a7e8d0ab","system_id":"levelo_inurba_marseille","lat":43.2962,"lon":5.37168,"is_reserved":false,"is_disabled":false,"rental_uris":{"android":"levelo://app?vid=f867206c-7709-4d4a-89a4-f5b9a7e8d0ab","ios":"levelo://app?vid=f867206c-7709-4d4a-89a4-f5b9a7e8d0ab"},"vehicle_type_id":"4","last_reported":1729786278,"current_range_meters":25600,"station_id":"ce4bgnh2rcd13ifvqc0g","pricing_plan_id":"cebpf4jnsgd1na2vs0mg"},{"bike_id":"8f20c90d-ac36-40d0-bb2f-f170a888d7d0","system_id":"levelo_inurba_marseille","lat":43.29897,"lon":5.43662,"is_reserved":false,"is_disabled":false,"rental_uris":{"android":"levelo://app?vid=8f20c90d-ac36-40d0-bb2f-f170a888d7d0","ios":"levelo://app?vid=8f20c90d-ac36-40d0-bb2f-f170a888d7d0"},"vehicle_type_id":"4","last_reported":1729786278,"current_range_meters":38800,"station_id":"ce4bhpp2rcd13ifvqhfg","pricing_plan_id":"cebpf4jnsgd1na2vs0mg"},{"bike_id":"2ed5a069-a87e-4f3e-b2a1-d383ca9ee0dc","system_id":"levelo_inurba_marseille","lat":43.29775,"lon":5.37091,"is_reserved":false,"is_disabled":false,"rental_uris":{"android":"levelo://app?vid=2ed5a069-a87e-4f3e-b2a1-d383ca9ee0dc","ios":"levelo://app?vid=2ed5a069-a87e-4f3e-b2a1-d383ca9ee0dc"},"vehicle_type_id":"4","last_reported":1729786278,"current_range_meters":38800,"station_id":"ce4bgop2rcd13ifvqc1g","pricing_plan_id":"cebpf4jnsgd1na2vs0mg"},{"bike_id":"0e5ff133-53e0-4524-a622-bae3c50c3545","system_id":"levelo_inurba_marseille","lat":43.24387,"lon":5.37059,"is_reserved":false,"is_disabled":false,"rental_uris":{"android":"levelo://app?vid=0e5ff133-53e0-4524-a622-bae3c50c3545","ios":"levelo://app?vid=0e5ff133-53e0-4524-a622-bae3c50c3545"},"vehicle_type_id":"4","last_reported":1729786278,"current_range_meters":28400,"station_id":"ce4bhhh2rcd13ifvqfk0","pricing_plan_id":"cebpf4jnsgd1na2vs0mg"},{"bike_id":"6ae4de9e-49af-416c-8214-d97fd43fa0b9","system_id":"levelo_inurba_marseille","lat":43.32283,"lon":5.38578,"is_reserved":false,"is_disabled":false,"rental_uris":{"android":"levelo://app?vid=6ae4de9e-49af-416c-8214-d97fd43fa0b9","ios":"levelo://app?vid=6ae4de9e-49af-416c-8214-d97fd43fa0b9"},"vehicle_type_id":"4","last_reported":1729786278,"current_range_meters":8400,"station_id":"","pricing_plan_id":"cebpf4jnsgd1na2vs0mg"},{"bike_id":"041849db-b192-4ed6-b6df-e18aeaa0d45f","system_id":"levelo_inurba_marseille","lat":43.28415,"lon":5.34992,"is_reserved":false,"is_disabled":false,"rental_uris":{"android":"levelo://app?vid=041849db-b192-4ed6-b6df-e18aeaa0d45f","ios":"levelo://app?vid=041849db-b192-4ed6-b6df-e18aeaa0d45f"},"vehicle_type_id":"4","last_reported":1729786278,"current_range_meters":22400,"station_id":"ce4bhbh2rcd13ifvqepg","pricing_plan_id":"cebpf4jnsgd1na2vs0mg"},{"bike_id":"efc0390e-89a6-4376-9792-b84409151065","system_id":"levelo_inurba_marseille","lat":43.304718,"lon":5.3728,"is_reserved":false,"is_disabled":false,"rental_uris":{"android":"levelo://app?vid=efc0390e-89a6-4376-9792-b84409151065","ios":"levelo://app?vid=efc0390e-89a6-4376-9792-b84409151065"},"vehicle_type_id":"4","last_reported":1729786278,"current_range_meters":12400,"station_id":"","pricing_plan_id":"cebpf4jnsgd1na2vs0mg"},{"bike_id":"a4fce494-4318-4683-8c22-b74278d80aff","system_id":"levelo_inurba_marseille","lat":43.31116,"lon":5.37782,"is_reserved":false,"is_disabled":false,"rental_uris":{"android":"levelo://app?vid=a4fce494-4318-4683-8c22-b74278d80aff","ios":"levelo://app?vid=a4fce494-4318-4683-8c22-b74278d80aff"},"vehicle_type_id":"4","last_reported":1729786278,"current_range_meters":3600,"station_id":"ce4bgt92rcd13ifvqcg0","pricing_plan_id":"cebpf4jnsgd1na2vs0mg"},{"bike_id":"1d15b532-a3f0-4b74-a898-8e8e406728c6","system_id":"levelo_inurba_marseille","lat":43.29275,"lon":5.40128,"is_reserved":false,"is_disabled":false,"rental_uris":{"android":"levelo://app?vid=1d15b532-a3f0-4b74-a898-8e8e406728c6","ios":"levelo://app?vid=1d15b532-a3f0-4b74-a898-8e8e406728c6"},"vehicle_type_id":"4","last_reported":1729786278,"current_range_meters":3200,"station_id":"ce4bh312rcd13ifvqdk0","pricing_plan_id":"cebpf4jnsgd1na2vs0mg"},{"bike_id":"0ace7e20-835f-478c-b4af-c68dd61fb683","system_id":"levelo_inurba_marseille","lat":43.29302,"lon":5.37178,"is_reserved":false,"is_disabled":false,"rental_uris":{"android":"levelo://app?vid=0ace7e20-835f-478c-b4af-c68dd61fb683","ios":"levelo://app?vid=0ace7e20-835f-478c-b4af-c68dd61fb683"},"vehicle_type_id":"4","last_reported":1729786278,"current_range_meters":21600,"station_id":"ce4bgh92rcd13ifvqb40","pricing_plan_id":"cebpf4jnsgd1na2vs0mg"},{"bike_id":"57bb5f8d-1e87-4769-9c41-8f46c442bbab","system_id":"levelo_inurba_marseille","lat":43.29608,"lon":5.38102,"is_reserved":false,"is_disabled":false,"rental_uris":{"android":"levelo://app?vid=57bb5f8d-1e87-4769-9c41-8f46c442bbab","ios":"levelo://app?vid=57bb5f8d-1e87-4769-9c41-8f46c442bbab"},"vehicle_type_id":"4","last_reported":1729786278,"current_range_meters":34800,"station_id":"ce4bgl12rcd13ifvqbo0","pricing_plan_id":"cebpf4jnsgd1na2vs0mg"},{"bike_id":"efd2f797-61a6-4f4c-be34-02fc70eb345e","system_id":"levelo_inurba_marseille","lat":43.30949,"lon":5.39031,"is_reserved":false,"is_disabled":false,"rental_uris":{"android":"levelo://app?vid=efd2f797-61a6-4f4c-be34-02fc70eb345e","ios":"levelo://app?vid=efd2f797-61a6-4f4c-be34-02fc70eb345e"},"vehicle_type_id":"4","last_reported":1729786278,"current_range_meters":32800,"station_id":"ce4bgup2rcd13ifvqco0","pricing_plan_id":"cebpf4jnsgd1na2vs0mg"},{"bike_id":"33ecba21-d738-43ee-b6b2-e2919e9cfbfd","system_id":"levelo_inurba_marseille","lat":43.31477,"lon":5.37311,"is_reserved":false,"is_disabled":false,"rental_uris":{"android":"levelo://app?vid=33ecba21-d738-43ee-b6b2-e2919e9cfbfd","ios":"levelo://app?vid=33ecba21-d738-43ee-b6b2-e2919e9cfbfd"},"vehicle_type_id":"4","last_reported":1729786278,"current_range_meters":22400,"station_id":"ce4bgt12rcd13ifvqcd0","pricing_plan_id":"cebpf4jnsgd1na2vs0mg"},{"bike_id":"64b170f8-2500-48ef-96a3-25f7c0707542","system_id":"levelo_inurba_marseille","lat":43.337444,"lon":5.374475,"is_reserved":false,"is_disabled":false,"rental_uris":{"android":"levelo://app?vid=64b170f8-2500-48ef-96a3-25f7c0707542","ios":"levelo://app?vid=64b170f8-2500-48ef-96a3-25f7c0707542"},"vehicle_type_id":"4","last_reported":1729786278,"current_range_meters":6400,"station_id":"","pricing_plan_id":"cebpf4jnsgd1na2vs0mg"},{"bike_id":"cd466746-d56f-4cb7-bf43-3f6db9352208","system_id":"levelo_inurba_marseille","lat":43.24074,"lon":5.37761,"is_reserved":false,"is_disabled":false,"rental_uris":{"android":"levelo://app?vid=cd466746-d56f-4cb7-bf43-3f6db9352208","ios":"levelo://app?vid=cd466746-d56f-4cb7-bf43-3f6db9352208"},"vehicle_type_id":"4","last_reported":1729786278,"current_range_meters":37600,"station_id":"ce4bhnp2rcd13ifvqgvg","pricing_plan_id":"cebpf4jnsgd1na2vs0mg"},{"bike_id":"4f409860-e0f7-4877-99ee-a24fed7f0e97","system_id":"levelo_inurba_marseille","lat":43.2781,"lon":5.40718,"is_reserved":false,"is_disabled":false,"rental_uris":{"android":"levelo://app?vid=4f409860-e0f7-4877-99ee-a24fed7f0e97","ios":"levelo://app?vid=4f409860-e0f7-4877-99ee-a24fed7f0e97"},"vehicle_type_id":"4","last_reported":1729786278,"current_range_meters":36400,"station_id":"ce4bhnh2rcd13ifvqgtg","pricing_plan_id":"cebpf4jnsgd1na2vs0mg"},{"bike_id":"2fcdd798-e778-4442-9a04-c4ae9c6da565","system_id":"levelo_inurba_marseille","lat":43.2926,"lon":5.40919,"is_reserved":false,"is_disabled":false,"rental_uris":{"android":"levelo://app?vid=2fcdd798-e778-4442-9a04-c4ae9c6da565","ios":"levelo://app?vid=2fcdd798-e778-4442-9a04-c4ae9c6da565"},"vehicle_type_id":"4","last_reported":1729786278,"current_range_meters":18000,"station_id":"ce4bh192rcd13ifvqdc0","pricing_plan_id":"cebpf4jnsgd1na2vs0mg"},{"bike_id":"d86d9b25-9894-4853-a422-1be6249c8c5b","system_id":"levelo_inurba_marseille","lat":43.28414,"lon":5.34993,"is_reserved":false,"is_disabled":false,"rental_uris":{"android":"levelo://app?vid=d86d9b25-9894-4853-a422-1be6249c8c5b","ios":"levelo://app?vid=d86d9b25-9894-4853-a422-1be6249c8c5b"},"vehicle_type_id":"4","last_reported":1729786278,"current_range_meters":38800,"station_id":"ce4bhbh2rcd13ifvqepg","pricing_plan_id":"cebpf4jnsgd1na2vs0mg"},{"bike_id":"3261aeed-f526-4f98-833c-04ca5b85aa2d","system_id":"levelo_inurba_marseille","lat":43.29443,"lon":5.39753,"is_reserved":false,"is_disabled":false,"rental_uris":{"android":"levelo://app?vid=3261aeed-f526-4f98-833c-04ca5b85aa2d","ios":"levelo://app?vid=3261aeed-f526-4f98-833c-04ca5b85aa2d"},"vehicle_type_id":"4","last_reported":1729786278,"current_range_meters":34000,"station_id":"ce4bh3h2rcd13ifvqdo0","pricing_plan_id":"cebpf4jnsgd1na2vs0mg"},{"bike_id":"956fd551-c271-40d9-9e2c-095718e935fc","system_id":"levelo_inurba_marseille","lat":43.29919,"lon":5.3734,"is_reserved":false,"is_disabled":false,"rental_uris":{"android":"levelo://app?vid=956fd551-c271-40d9-9e2c-095718e935fc","ios":"levelo://app?vid=956fd551-c271-40d9-9e2c-095718e935fc"},"vehicle_type_id":"4","last_reported":1729786278,"current_range_meters":16400,"station_id":"ce4bh2h2rcd13ifvqdh0","pricing_plan_id":"cebpf4jnsgd1na2vs0mg"},{"bike_id":"3aba3dfa-860f-47f8-9b26-b937da7cdf76","system_id":"levelo_inurba_marseille","lat":43.33022,"lon":5.39049,"is_reserved":false,"is_disabled":false,"rental_uris":{"android":"levelo://app?vid=3aba3dfa-860f-47f8-9b26-b937da7cdf76","ios":"levelo://app?vid=3aba3dfa-860f-47f8-9b26-b937da7cdf76"},"vehicle_type_id":"4","last_reported":1729786278,"current_range_meters":6400,"station_id":"ce4bhr92rcd13ifvqhrg","pricing_plan_id":"cebpf4jnsgd1na2vs0mg"},{"bike_id":"bc8c62f4-834c-476d-8a17-1d8ced36bcb8","system_id":"levelo_inurba_marseille","lat":43.297195,"lon":5.365852,"is_reserved":false,"is_disabled":false,"rental_uris":{"android":"levelo://app?vid=bc8c62f4-834c-476d-8a17-1d8ced36bcb8","ios":"levelo://app?vid=bc8c62f4-834c-476d-8a17-1d8ced36bcb8"},"vehicle_type_id":"4","last_reported":1729786278,"current_range_meters":27600,"station_id":"ce4bgn12rcd13ifvqbt0","pricing_plan_id":"cebpf4jnsgd1na2vs0mg"},{"bike_id":"0f9b9ad0-afce-4bfd-bf57-931acb265786","system_id":"levelo_inurba_marseille","lat":43.24804,"lon":5.37459,"is_reserved":false,"is_disabled":false,"rental_uris":{"android":"levelo://app?vid=0f9b9ad0-afce-4bfd-bf57-931acb265786","ios":"levelo://app?vid=0f9b9ad0-afce-4bfd-bf57-931acb265786"},"vehicle_type_id":"4","last_reported":1729786278,"current_range_meters":9200,"station_id":"ce4bhgh2rcd13ifvqfb0","pricing_plan_id":"cebpf4jnsgd1na2vs0mg"},{"bike_id":"b8c3b4c6-d594-4441-98f6-fecdaa70e588","system_id":"levelo_inurba_marseille","lat":43.23155,"lon":5.43718,"is_reserved":false,"is_disabled":false,"rental_uris":{"android":"levelo://app?vid=b8c3b4c6-d594-4441-98f6-fecdaa70e588","ios":"levelo://app?vid=b8c3b4c6-d594-4441-98f6-fecdaa70e588"},"vehicle_type_id":"4","last_reported":1729786278,"current_range_meters":4000,"station_id":"ce4bhmp2rcd13ifvqgog","pricing_plan_id":"cebpf4jnsgd1na2vs0mg"},{"bike_id":"f66c49db-64af-4c96-b152-a46552b9b947","system_id":"levelo_inurba_marseille","lat":43.30599,"lon":5.37232,"is_reserved":false,"is_disabled":false,"rental_uris":{"android":"levelo://app?vid=f66c49db-64af-4c96-b152-a46552b9b947","ios":"levelo://app?vid=f66c49db-64af-4c96-b152-a46552b9b947"},"vehicle_type_id":"4","last_reported":1729786278,"current_range_meters":33200,"station_id":"ce4bgqh2rcd13ifvqc4g","pricing_plan_id":"cebpf4jnsgd1na2vs0mg"},{"bike_id":"97c7d666-fc46-4579-afe6-73f465d2d92a","system_id":"levelo_inurba_marseille","lat":43.31464,"lon":5.3921,"is_reserved":false,"is_disabled":false,"rental_uris":{"android":"levelo://app?vid=97c7d666-fc46-4579-afe6-73f465d2d92a","ios":"levelo://app?vid=97c7d666-fc46-4579-afe6-73f465d2d92a"},"vehicle_type_id":"4","last_reported":1729786278,"current_range_meters":13600,"station_id":"","pricing_plan_id":"cebpf4jnsgd1na2vs0mg"},{"bike_id":"27771b5c-bc4f-49c3-acaa-6ee2964fb25d","system_id":"levelo_inurba_marseille","lat":43.26214,"lon":5.37441,"is_reserved":false,"is_disabled":false,"rental_uris":{"android":"levelo://app?vid=27771b5c-bc4f-49c3-acaa-6ee2964fb25d","ios":"levelo://app?vid=27771b5c-bc4f-49c3-acaa-6ee2964fb25d"},"vehicle_type_id":"4","last_reported":1729786278,"current_range_meters":38800,"station_id":"ce4bhgp2rcd13ifvqfc0","pricing_plan_id":"cebpf4jnsgd1na2vs0mg"},{"bike_id":"5bdc74ff-59ea-4102-a6e7-ef6794079d59","system_id":"levelo_inurba_marseille","lat":43.29288,"lon":5.4012,"is_reserved":false,"is_disabled":false,"rental_uris":{"android":"levelo://app?vid=5bdc74ff-59ea-4102-a6e7-ef6794079d59","ios":"levelo://app?vid=5bdc74ff-59ea-4102-a6e7-ef6794079d59"},"vehicle_type_id":"4","last_reported":1729786278,"current_range_meters":8000,"station_id":"ce4bh312rcd13ifvqdk0","pricing_plan_id":"cebpf4jnsgd1na2vs0mg"},{"bike_id":"56cf299d-df05-4c09-bb92-35d31026d89f","system_id":"levelo_inurba_marseille","lat":43.29257,"lon":5.40901,"is_reserved":false,"is_disabled":false,"rental_uris":{"android":"levelo://app?vid=56cf299d-df05-4c09-bb92-35d31026d89f","ios":"levelo://app?vid=56cf299d-df05-4c09-bb92-35d31026d89f"},"vehicle_type_id":"4","last_reported":1729786278,"current_range_meters":4800,"station_id":"ce4bh192rcd13ifvqdc0","pricing_plan_id":"cebpf4jnsgd1na2vs0mg"},{"bike_id":"b2a18900-caa3-4a02-bf84-8debd076459d","system_id":"levelo_inurba_marseille","lat":43.29791,"lon":5.39348,"is_reserved":false,"is_disabled":false,"rental_uris":{"android":"levelo://app?vid=b2a18900-caa3-4a02-bf84-8debd076459d","ios":"levelo://app?vid=b2a18900-caa3-4a02-bf84-8debd076459d"},"vehicle_type_id":"4","last_reported":1729786278,"current_range_meters":34800,"station_id":"chh1huq6cuj3fo74tm60","pricing_plan_id":"cebpf4jnsgd1na2vs0mg"},{"bike_id":"c8e86df4-b164-416a-a595-7aad4d23509b","system_id":"levelo_inurba_marseille","lat":43.31083,"lon":5.42434,"is_reserved":false,"is_disabled":false,"rental_uris":{"android":"levelo://app?vid=c8e86df4-b164-416a-a595-7aad4d23509b","ios":"levelo://app?vid=c8e86df4-b164-416a-a595-7aad4d23509b"},"vehicle_type_id":"4","last_reported":1729786278,"current_range_meters":6000,"station_id":"ce4bhp92rcd13ifvqhag","pricing_plan_id":"cebpf4jnsgd1na2vs0mg"},{"bike_id":"f6b036b1-ad4d-49b0-88ec-0d3a2a5aa2de","system_id":"levelo_inurba_marseille","lat":43.33718,"lon":5.39173,"is_reserved":false,"is_disabled":false,"rental_uris":{"android":"levelo://app?vid=f6b036b1-ad4d-49b0-88ec-0d3a2a5aa2de","ios":"levelo://app?vid=f6b036b1-ad4d-49b0-88ec-0d3a2a5aa2de"},"vehicle_type_id":"4","last_reported":1729786278,"current_range_meters":4400,"station_id":"ce4bhr92rcd13ifvqhsg","pricing_plan_id":"cebpf4jnsgd1na2vs0mg"},{"bike_id":"807e98e3-c05c-42d0-b77c-7c8989c5bdc4","system_id":"levelo_inurba_marseille","lat":43.32481,"lon":5.36581,"is_reserved":false,"is_disabled":false,"rental_uris":{"android":"levelo://app?vid=807e98e3-c05c-42d0-b77c-7c8989c5bdc4","ios":"levelo://app?vid=807e98e3-c05c-42d0-b77c-7c8989c5bdc4"},"vehicle_type_id":"4","last_reported":1729786278,"current_range_meters":38800,"station_id":"ce4bhs12rcd13ifvqhvg","pricing_plan_id":"cebpf4jnsgd1na2vs0mg"},{"bike_id":"e55c9a04-0821-4cb4-ad8f-be06c59d7cb8","system_id":"levelo_inurba_marseille","lat":43.30428,"lon":5.39731,"is_reserved":false,"is_disabled":false,"rental_uris":{"android":"levelo://app?vid=e55c9a04-0821-4cb4-ad8f-be06c59d7cb8","ios":"levelo://app?vid=e55c9a04-0821-4cb4-ad8f-be06c59d7cb8"},"vehicle_type_id":"4","last_reported":1729786278,"current_range_meters":16400,"station_id":"ce4bh092rcd13ifvqd20","pricing_plan_id":"cebpf4jnsgd1na2vs0mg"},{"bike_id":"fa00d74b-845d-4366-b187-9a6f849d2b64","system_id":"levelo_inurba_marseille","lat":43.25501,"lon":5.37649,"is_reserved":false,"is_disabled":false,"rental_uris":{"android":"levelo://app?vid=fa00d74b-845d-4366-b187-9a6f849d2b64","ios":"levelo://app?vid=fa00d74b-845d-4366-b187-9a6f849d2b64"},"vehicle_type_id":"4","last_reported":1729786278,"current_range_meters":8800,"station_id":"ce4bhh12rcd13ifvqff0","pricing_plan_id":"cebpf4jnsgd1na2vs0mg"},{"bike_id":"6c5e0e54-165e-4325-96c9-66a8e483f89a","system_id":"levelo_inurba_marseille","lat":43.29959,"lon":5.41316,"is_reserved":false,"is_disabled":false,"rental_uris":{"android":"levelo://app?vid=6c5e0e54-165e-4325-96c9-66a8e483f89a","ios":"levelo://app?vid=6c5e0e54-165e-4325-96c9-66a8e483f89a"},"vehicle_type_id":"4","last_reported":1729786278,"current_range_meters":38800,"station_id":"ce4bhp12rcd13ifvqh9g","pricing_plan_id":"cebpf4jnsgd1na2vs0mg"},{"bike_id":"8f7856b2-c668-4f5d-940a-4d5f309812ca","system_id":"levelo_inurba_marseille","lat":43.24073,"lon":5.37759,"is_reserved":false,"is_disabled":false,"rental_uris":{"android":"levelo://app?vid=8f7856b2-c668-4f5d-940a-4d5f309812ca","ios":"levelo://app?vid=8f7856b2-c668-4f5d-940a-4d5f309812ca"},"vehicle_type_id":"4","last_reported":1729786278,"current_range_meters":33200,"station_id":"ce4bhnp2rcd13ifvqgvg","pricing_plan_id":"cebpf4jnsgd1na2vs0mg"},{"bike_id":"51689844-4a98-4859-a82c-b7e1991346ff","system_id":"levelo_inurba_marseille","lat":43.28723,"lon":5.36097,"is_reserved":false,"is_disabled":false,"rental_uris":{"android":"levelo://app?vid=51689844-4a98-4859-a82c-b7e1991346ff","ios":"levelo://app?vid=51689844-4a98-4859-a82c-b7e1991346ff"},"vehicle_type_id":"4","last_reported":1729786278,"current_range_meters":28000,"station_id":"cki0cbj6b192h4jlfktg","pricing_plan_id":"cebpf4jnsgd1na2vs0mg"},{"bike_id":"f2efbe0b-fce4-4d48-8838-e394dabb4cc9","system_id":"levelo_inurba_marseille","lat":43.24648,"lon":5.38893,"is_reserved":false,"is_disabled":false,"rental_uris":{"android":"levelo://app?vid=f2efbe0b-fce4-4d48-8838-e394dabb4cc9","ios":"levelo://app?vid=f2efbe0b-fce4-4d48-8838-e394dabb4cc9"},"vehicle_type_id":"4","last_reported":1729786278,"current_range_meters":37600,"station_id":"ce4bhg12rcd13ifvqf60","pricing_plan_id":"cebpf4jnsgd1na2vs0mg"},{"bike_id":"a4151c57-958d-41d3-b78c-e67da5a4fbea","system_id":"levelo_inurba_marseille","lat":43.29006,"lon":5.35619,"is_reserved":false,"is_disabled":false,"rental_uris":{"android":"levelo://app?vid=a4151c57-958d-41d3-b78c-e67da5a4fbea","ios":"levelo://app?vid=a4151c57-958d-41d3-b78c-e67da5a4fbea"},"vehicle_type_id":"4","last_reported":1729786278,"current_range_meters":20400,"station_id":"ce4bhb92rcd13ifvqen0","pricing_plan_id":"cebpf4jnsgd1na2vs0mg"},{"bike_id":"95733e5a-8b3e-4962-936b-99d3322943be","system_id":"levelo_inurba_marseille","lat":43.27617,"lon":5.36104,"is_reserved":false,"is_disabled":false,"rental_uris":{"android":"levelo://app?vid=95733e5a-8b3e-4962-936b-99d3322943be","ios":"levelo://app?vid=95733e5a-8b3e-4962-936b-99d3322943be"},"vehicle_type_id":"4","last_reported":1729786278,"current_range_meters":38800,"station_id":"ce4bgj92rcd13ifvqbe0","pricing_plan_id":"cebpf4jnsgd1na2vs0mg"},{"bike_id":"055026e7-aca3-466f-b7b0-f1dd313c923a","system_id":"levelo_inurba_marseille","lat":43.32483,"lon":5.36579,"is_reserved":false,"is_disabled":false,"rental_uris":{"android":"levelo://app?vid=055026e7-aca3-466f-b7b0-f1dd313c923a","ios":"levelo://app?vid=055026e7-aca3-466f-b7b0-f1dd313c923a"},"vehicle_type_id":"4","last_reported":1729786278,"current_range_meters":38800,"station_id":"ce4bhs12rcd13ifvqhvg","pricing_plan_id":"cebpf4jnsgd1na2vs0mg"},{"bike_id":"e4afe354-71f0-40c3-a5b7-9054aebfd434","system_id":"levelo_inurba_marseille","lat":43.29594,"lon":5.40318,"is_reserved":false,"is_disabled":false,"rental_uris":{"android":"levelo://app?vid=e4afe354-71f0-40c3-a5b7-9054aebfd434","ios":"levelo://app?vid=e4afe354-71f0-40c3-a5b7-9054aebfd434"},"vehicle_type_id":"4","last_reported":1729786278,"current_range_meters":9200,"station_id":"ce4bh312rcd13ifvqdj0","pricing_plan_id":"cebpf4jnsgd1na2vs0mg"},{"bike_id":"5dac752b-5f3e-449b-8933-09241deb391d","system_id":"levelo_inurba_marseille","lat":43.26823,"lon":5.41113,"is_reserved":false,"is_disabled":false,"rental_uris":{"android":"levelo://app?vid=5dac752b-5f3e-449b-8933-09241deb391d","ios":"levelo://app?vid=5dac752b-5f3e-449b-8933-09241deb391d"},"vehicle_type_id":"4","last_reported":1729786278,"current_range_meters":14000,"station_id":"","pricing_plan_id":"cebpf4jnsgd1na2vs0mg"},{"bike_id":"40dc231b-aaaf-4b71-a020-83bd7e2bd61d","system_id":"levelo_inurba_marseille","lat":43.24548,"lon":5.39528,"is_reserved":false,"is_disabled":false,"rental_uris":{"android":"levelo://app?vid=40dc231b-aaaf-4b71-a020-83bd7e2bd61d","ios":"levelo://app?vid=40dc231b-aaaf-4b71-a020-83bd7e2bd61d"},"vehicle_type_id":"4","last_reported":1729786278,"current_range_meters":6800,"station_id":"ce4bhlp2rcd13ifvqgjg","pricing_plan_id":"cebpf4jnsgd1na2vs0mg"},{"bike_id":"9e95d439-9569-40c1-b687-113928f42469","system_id":"levelo_inurba_marseille","lat":43.28852,"lon":5.35846,"is_reserved":false,"is_disabled":false,"rental_uris":{"android":"levelo://app?vid=9e95d439-9569-40c1-b687-113928f42469","ios":"levelo://app?vid=9e95d439-9569-40c1-b687-113928f42469"},"vehicle_type_id":"4","last_reported":1729786278,"current_range_meters":16400,"station_id":"ce4bhb12rcd13ifvqem0","pricing_plan_id":"cebpf4jnsgd1na2vs0mg"},{"bike_id":"cd8cc058-0f4c-4b68-9703-804e3ffc3c30","system_id":"levelo_inurba_marseille","lat":43.31083,"lon":5.42436,"is_reserved":false,"is_disabled":false,"rental_uris":{"android":"levelo://app?vid=cd8cc058-0f4c-4b68-9703-804e3ffc3c30","ios":"levelo://app?vid=cd8cc058-0f4c-4b68-9703-804e3ffc3c30"},"vehicle_type_id":"4","last_reported":1729786278,"current_range_meters":26800,"station_id":"ce4bhp92rcd13ifvqhag","pricing_plan_id":"cebpf4jnsgd1na2vs0mg"},{"bike_id":"f6f847d6-e5a1-47ab-987a-589142ec2097","system_id":"levelo_inurba_marseille","lat":43.29614,"lon":5.37726,"is_reserved":false,"is_disabled":false,"rental_uris":{"android":"levelo://app?vid=f6f847d6-e5a1-47ab-987a-589142ec2097","ios":"levelo://app?vid=f6f847d6-e5a1-47ab-987a-589142ec2097"},"vehicle_type_id":"4","last_reported":1729786278,"current_range_meters":24400,"station_id":"ce4bgi92rcd13ifvqb90","pricing_plan_id":"cebpf4jnsgd1na2vs0mg"},{"bike_id":"45c13d4a-8eb2-4f2d-ba4a-8e28ae7f81e3","system_id":"levelo_inurba_marseille","lat":43.29533,"lon":5.39029,"is_reserved":false,"is_disabled":false,"rental_uris":{"android":"levelo://app?vid=45c13d4a-8eb2-4f2d-ba4a-8e28ae7f81e3","ios":"levelo://app?vid=45c13d4a-8eb2-4f2d-ba4a-8e28ae7f81e3"},"vehicle_type_id":"4","last_reported":1729786278,"current_range_meters":9600,"station_id":"ce4bh3p2rcd13ifvqdp0","pricing_plan_id":"cebpf4jnsgd1na2vs0mg"},{"bike_id":"d544de61-f834-4b8b-af31-6963a82e8674","system_id":"levelo_inurba_marseille","lat":43.302531,"lon":5.400628,"is_reserved":false,"is_disabled":false,"rental_uris":{"android":"levelo://app?vid=d544de61-f834-4b8b-af31-6963a82e8674","ios":"levelo://app?vid=d544de61-f834-4b8b-af31-6963a82e8674"},"vehicle_type_id":"4","last_reported":1729786278,"current_range_meters":16000,"station_id":"ce4bgvh2rcd13ifvqcs0","pricing_plan_id":"cebpf4jnsgd1na2vs0mg"},{"bike_id":"40670dd6-b6b3-4075-aefc-6af82cc6a566","system_id":"levelo_inurba_marseille","lat":43.27369,"lon":5.36263,"is_reserved":false,"is_disabled":false,"rental_uris":{"android":"levelo://app?vid=40670dd6-b6b3-4075-aefc-6af82cc6a566","ios":"levelo://app?vid=40670dd6-b6b3-4075-aefc-6af82cc6a566"},"vehicle_type_id":"4","last_reported":1729786278,"current_range_meters":30400,"station_id":"ce4bhbh2rcd13ifvqeo0","pricing_plan_id":"cebpf4jnsgd1na2vs0mg"},{"bike_id":"5b1b7108-7e79-4b69-acc2-0f811f1fad6b","system_id":"levelo_inurba_marseille","lat":43.30883,"lon":5.39655,"is_reserved":false,"is_disabled":false,"rental_uris":{"android":"levelo://app?vid=5b1b7108-7e79-4b69-acc2-0f811f1fad6b","ios":"levelo://app?vid=5b1b7108-7e79-4b69-acc2-0f811f1fad6b"},"vehicle_type_id":"4","last_reported":1729786278,"current_range_meters":3200,"station_id":"ce4bh012rcd13ifvqcv0","pricing_plan_id":"cebpf4jnsgd1na2vs0mg"},{"bike_id":"7df21c7c-acf9-4e69-b82e-6f5b53e9fce4","system_id":"levelo_inurba_marseille","lat":43.30639,"lon":5.4011,"is_reserved":false,"is_disabled":false,"rental_uris":{"android":"levelo://app?vid=7df21c7c-acf9-4e69-b82e-6f5b53e9fce4","ios":"levelo://app?vid=7df21c7c-acf9-4e69-b82e-6f5b53e9fce4"},"vehicle_type_id":"4","last_reported":1729786278,"current_range_meters":36400,"station_id":"ce4bh112rcd13ifvqda0","pricing_plan_id":"cebpf4jnsgd1na2vs0mg"},{"bike_id":"c47c20e3-dce5-44fd-86a6-ef6b46242f44","system_id":"levelo_inurba_marseille","lat":43.30554,"lon":5.36535,"is_reserved":false,"is_disabled":false,"rental_uris":{"android":"levelo://app?vid=c47c20e3-dce5-44fd-86a6-ef6b46242f44","ios":"levelo://app?vid=c47c20e3-dce5-44fd-86a6-ef6b46242f44"},"vehicle_type_id":"4","last_reported":1729786278,"current_range_meters":16000,"station_id":"ce4bgs12rcd13ifvqcag","pricing_plan_id":"cebpf4jnsgd1na2vs0mg"},{"bike_id":"fb47bc2c-a7e1-4460-b597-41949cb673f8","system_id":"levelo_inurba_marseille","lat":43.32046,"lon":5.4155,"is_reserved":false,"is_disabled":false,"rental_uris":{"android":"levelo://app?vid=fb47bc2c-a7e1-4460-b597-41949cb673f8","ios":"levelo://app?vid=fb47bc2c-a7e1-4460-b597-41949cb673f8"},"vehicle_type_id":"4","last_reported":1729786278,"current_range_meters":17200,"station_id":"ce4bhq92rcd13ifvqhkg","pricing_plan_id":"cebpf4jnsgd1na2vs0mg"},{"bike_id":"ed9ecdf4-5682-4599-add5-3d43cc9dbfce","system_id":"levelo_inurba_marseille","lat":43.32657,"lon":5.40993,"is_reserved":false,"is_disabled":false,"rental_uris":{"android":"levelo://app?vid=ed9ecdf4-5682-4599-add5-3d43cc9dbfce","ios":"levelo://app?vid=ed9ecdf4-5682-4599-add5-3d43cc9dbfce"},"vehicle_type_id":"4","last_reported":1729786278,"current_range_meters":10800,"station_id":"ce4bhpp2rcd13ifvqhgg","pricing_plan_id":"cebpf4jnsgd1na2vs0mg"},{"bike_id":"cb70b970-8c35-4410-a1b9-ce2ca1cf5b36","system_id":"levelo_inurba_marseille","lat":43.28463,"lon":5.3589,"is_reserved":false,"is_disabled":false,"rental_uris":{"android":"levelo://app?vid=cb70b970-8c35-4410-a1b9-ce2ca1cf5b36","ios":"levelo://app?vid=cb70b970-8c35-4410-a1b9-ce2ca1cf5b36"},"vehicle_type_id":"4","last_reported":1729786278,"current_range_meters":20800,"station_id":"ce4bhah2rcd13ifvqei0","pricing_plan_id":"cebpf4jnsgd1na2vs0mg"},{"bike_id":"7e033481-1712-41f6-9485-cd72a13e9fa5","system_id":"levelo_inurba_marseille","lat":43.25497,"lon":5.3766,"is_reserved":false,"is_disabled":false,"rental_uris":{"android":"levelo://app?vid=7e033481-1712-41f6-9485-cd72a13e9fa5","ios":"levelo://app?vid=7e033481-1712-41f6-9485-cd72a13e9fa5"},"vehicle_type_id":"4","last_reported":1729786278,"current_range_meters":9600,"station_id":"ce4bhh12rcd13ifvqff0","pricing_plan_id":"cebpf4jnsgd1na2vs0mg"},{"bike_id":"5307b28b-1a59-4922-a370-56ca515d4816","system_id":"levelo_inurba_marseille","lat":43.29298,"lon":5.37466,"is_reserved":false,"is_disabled":false,"rental_uris":{"android":"levelo://app?vid=5307b28b-1a59-4922-a370-56ca515d4816","ios":"levelo://app?vid=5307b28b-1a59-4922-a370-56ca515d4816"},"vehicle_type_id":"4","last_reported":1729786278,"current_range_meters":30400,"station_id":"ce4bgi12rcd13ifvqb70","pricing_plan_id":"cebpf4jnsgd1na2vs0mg"},{"bike_id":"045df023-db1b-43cc-8228-4890b727be9f","system_id":"levelo_inurba_marseille","lat":43.29366,"lon":5.37866,"is_reserved":false,"is_disabled":false,"rental_uris":{"android":"levelo://app?vid=045df023-db1b-43cc-8228-4890b727be9f","ios":"levelo://app?vid=045df023-db1b-43cc-8228-4890b727be9f"},"vehicle_type_id":"4","last_reported":1729786278,"current_range_meters":24000,"station_id":"ce4bgjh2rcd13ifvqbf0","pricing_plan_id":"cebpf4jnsgd1na2vs0mg"},{"bike_id":"150efb5c-745c-4c78-911d-0acbe1e6aa17","system_id":"levelo_inurba_marseille","lat":43.33023,"lon":5.3904,"is_reserved":false,"is_disabled":false,"rental_uris":{"android":"levelo://app?vid=150efb5c-745c-4c78-911d-0acbe1e6aa17","ios":"levelo://app?vid=150efb5c-745c-4c78-911d-0acbe1e6aa17"},"vehicle_type_id":"4","last_reported":1729786278,"current_range_meters":4800,"station_id":"ce4bhr92rcd13ifvqhrg","pricing_plan_id":"cebpf4jnsgd1na2vs0mg"},{"bike_id":"b3eecd07-1ba2-462f-a29f-83946f241d53","system_id":"levelo_inurba_marseille","lat":43.2931,"lon":5.37027,"is_reserved":false,"is_disabled":false,"rental_uris":{"android":"levelo://app?vid=b3eecd07-1ba2-462f-a29f-83946f241d53","ios":"levelo://app?vid=b3eecd07-1ba2-462f-a29f-83946f241d53"},"vehicle_type_id":"4","last_reported":1729786278,"current_range_meters":34000,"station_id":"ce4bgh92rcd13ifvqb40","pricing_plan_id":"cebpf4jnsgd1na2vs0mg"},{"bike_id":"77b67b4b-2a17-4d24-af32-24e63eddb390","system_id":"levelo_inurba_marseille","lat":43.31721,"lon":5.42395,"is_reserved":false,"is_disabled":false,"rental_uris":{"android":"levelo://app?vid=77b67b4b-2a17-4d24-af32-24e63eddb390","ios":"levelo://app?vid=77b67b4b-2a17-4d24-af32-24e63eddb390"},"vehicle_type_id":"4","last_reported":1729786278,"current_range_meters":29600,"station_id":"ce4bhp92rcd13ifvqhbg","pricing_plan_id":"cebpf4jnsgd1na2vs0mg"},{"bike_id":"971e0cca-76ff-457a-b351-cf119ca16d5a","system_id":"levelo_inurba_marseille","lat":43.28409,"lon":5.37526,"is_reserved":false,"is_disabled":false,"rental_uris":{"android":"levelo://app?vid=971e0cca-76ff-457a-b351-cf119ca16d5a","ios":"levelo://app?vid=971e0cca-76ff-457a-b351-cf119ca16d5a"},"vehicle_type_id":"4","last_reported":1729786278,"current_range_meters":12800,"station_id":"ce4bh412rcd13ifvqds0","pricing_plan_id":"cebpf4jnsgd1na2vs0mg"},{"bike_id":"4330b8cd-92b7-4941-bd30-f2676a473a31","system_id":"levelo_inurba_marseille","lat":43.28938,"lon":5.36641,"is_reserved":false,"is_disabled":false,"rental_uris":{"android":"levelo://app?vid=4330b8cd-92b7-4941-bd30-f2676a473a31","ios":"levelo://app?vid=4330b8cd-92b7-4941-bd30-f2676a473a31"},"vehicle_type_id":"4","last_reported":1729786278,"current_range_meters":18800,"station_id":"ce4bhap2rcd13ifvqek0","pricing_plan_id":"cebpf4jnsgd1na2vs0mg"},{"bike_id":"cac8e821-5da4-4fad-9f1b-41116efb9f03","system_id":"levelo_inurba_marseille","lat":43.287108,"lon":5.375124,"is_reserved":false,"is_disabled":false,"rental_uris":{"android":"levelo://app?vid=cac8e821-5da4-4fad-9f1b-41116efb9f03","ios":"levelo://app?vid=cac8e821-5da4-4fad-9f1b-41116efb9f03"},"vehicle_type_id":"4","last_reported":1729786278,"current_range_meters":19200,"station_id":"ce4bh3p2rcd13ifvqdq0","pricing_plan_id":"cebpf4jnsgd1na2vs0mg"},{"bike_id":"8fb77f9b-dfb2-4c5a-9f98-a9d8bda92bed","system_id":"levelo_inurba_marseille","lat":43.32482,"lon":5.36565,"is_reserved":false,"is_disabled":false,"rental_uris":{"android":"levelo://app?vid=8fb77f9b-dfb2-4c5a-9f98-a9d8bda92bed","ios":"levelo://app?vid=8fb77f9b-dfb2-4c5a-9f98-a9d8bda92bed"},"vehicle_type_id":"4","last_reported":1729786278,"current_range_meters":39200,"station_id":"ce4bhs12rcd13ifvqhvg","pricing_plan_id":"cebpf4jnsgd1na2vs0mg"},{"bike_id":"460aeebd-463f-45ec-88a7-9befe21c7487","system_id":"levelo_inurba_marseille","lat":43.29796,"lon":5.404,"is_reserved":false,"is_disabled":false,"rental_uris":{"android":"levelo://app?vid=460aeebd-463f-45ec-88a7-9befe21c7487","ios":"levelo://app?vid=460aeebd-463f-45ec-88a7-9befe21c7487"},"vehicle_type_id":"4","last_reported":1729786278,"current_range_meters":21600,"station_id":"ce4bh112rcd13ifvqd90","pricing_plan_id":"cebpf4jnsgd1na2vs0mg"},{"bike_id":"a0da52c0-1f92-4940-9c4b-1d1bbfd38381","system_id":"levelo_inurba_marseille","lat":43.27993,"lon":5.41665,"is_reserved":false,"is_disabled":false,"rental_uris":{"android":"levelo://app?vid=a0da52c0-1f92-4940-9c4b-1d1bbfd38381","ios":"levelo://app?vid=a0da52c0-1f92-4940-9c4b-1d1bbfd38381"},"vehicle_type_id":"4","last_reported":1729786278,"current_range_meters":16800,"station_id":"ce4bho12rcd13ifvqh1g","pricing_plan_id":"cebpf4jnsgd1na2vs0mg"},{"bike_id":"30c18f73-f2bf-45d4-91b7-8902d41db213","system_id":"levelo_inurba_marseille","lat":43.28665,"lon":5.36365,"is_reserved":false,"is_disabled":false,"rental_uris":{"android":"levelo://app?vid=30c18f73-f2bf-45d4-91b7-8902d41db213","ios":"levelo://app?vid=30c18f73-f2bf-45d4-91b7-8902d41db213"},"vehicle_type_id":"4","last_reported":1729786278,"current_range_meters":17200,"station_id":"ce4bhah2rcd13ifvqej0","pricing_plan_id":"cebpf4jnsgd1na2vs0mg"},{"bike_id":"d0b1b71e-a962-4930-9f71-34cc242a4eb3","system_id":"levelo_inurba_marseille","lat":43.24075,"lon":5.37761,"is_reserved":false,"is_disabled":false,"rental_uris":{"android":"levelo://app?vid=d0b1b71e-a962-4930-9f71-34cc242a4eb3","ios":"levelo://app?vid=d0b1b71e-a962-4930-9f71-34cc242a4eb3"},"vehicle_type_id":"4","last_reported":1729786278,"current_range_meters":14000,"station_id":"ce4bhnp2rcd13ifvqgvg","pricing_plan_id":"cebpf4jnsgd1na2vs0mg"},{"bike_id":"0d57c40c-0a0a-441a-bcec-7bf1ebbd69ba","system_id":"levelo_inurba_marseille","lat":43.28414,"lon":5.34993,"is_reserved":false,"is_disabled":false,"rental_uris":{"android":"levelo://app?vid=0d57c40c-0a0a-441a-bcec-7bf1ebbd69ba","ios":"levelo://app?vid=0d57c40c-0a0a-441a-bcec-7bf1ebbd69ba"},"vehicle_type_id":"4","last_reported":1729786278,"current_range_meters":4400,"station_id":"ce4bhbh2rcd13ifvqepg","pricing_plan_id":"cebpf4jnsgd1na2vs0mg"},{"bike_id":"b6c37f4c-5991-42f6-a799-9dc40c9ec471","system_id":"levelo_inurba_marseille","lat":43.24387,"lon":5.37064,"is_reserved":false,"is_disabled":false,"rental_uris":{"android":"levelo://app?vid=b6c37f4c-5991-42f6-a799-9dc40c9ec471","ios":"levelo://app?vid=b6c37f4c-5991-42f6-a799-9dc40c9ec471"},"vehicle_type_id":"4","last_reported":1729786278,"current_range_meters":4000,"station_id":"ce4bhhh2rcd13ifvqfk0","pricing_plan_id":"cebpf4jnsgd1na2vs0mg"},{"bike_id":"c14de97c-66cf-4748-a84b-f42887f918c6","system_id":"levelo_inurba_marseille","lat":43.30461,"lon":5.37896,"is_reserved":false,"is_disabled":false,"rental_uris":{"android":"levelo://app?vid=c14de97c-66cf-4748-a84b-f42887f918c6","ios":"levelo://app?vid=c14de97c-66cf-4748-a84b-f42887f918c6"},"vehicle_type_id":"4","last_reported":1729786278,"current_range_meters":9200,"station_id":"ce4bgup2rcd13ifvqcn0","pricing_plan_id":"cebpf4jnsgd1na2vs0mg"},{"bike_id":"2c5b43ed-8694-4c95-b40a-b4931f886ccb","system_id":"levelo_inurba_marseille","lat":43.308023,"lon":5.381637,"is_reserved":false,"is_disabled":false,"rental_uris":{"android":"levelo://app?vid=2c5b43ed-8694-4c95-b40a-b4931f886ccb","ios":"levelo://app?vid=2c5b43ed-8694-4c95-b40a-b4931f886ccb"},"vehicle_type_id":"4","last_reported":1729786278,"current_range_meters":26000,"station_id":"ce4bgt12rcd13ifvqce0","pricing_plan_id":"cebpf4jnsgd1na2vs0mg"},{"bike_id":"cfbc5c19-4583-4fbe-b3e1-55b636314b49","system_id":"levelo_inurba_marseille","lat":43.29747,"lon":5.38053,"is_reserved":false,"is_disabled":false,"rental_uris":{"android":"levelo://app?vid=cfbc5c19-4583-4fbe-b3e1-55b636314b49","ios":"levelo://app?vid=cfbc5c19-4583-4fbe-b3e1-55b636314b49"},"vehicle_type_id":"4","last_reported":1729786278,"current_range_meters":17600,"station_id":"ce4bh092rcd13ifvqd20","pricing_plan_id":"cebpf4jnsgd1na2vs0mg"},{"bike_id":"513008f5-dcbd-4120-b6ac-2d8dcc3aea89","system_id":"levelo_inurba_marseille","lat":43.26063,"lon":5.394,"is_reserved":false,"is_disabled":false,"rental_uris":{"android":"levelo://app?vid=513008f5-dcbd-4120-b6ac-2d8dcc3aea89","ios":"levelo://app?vid=513008f5-dcbd-4120-b6ac-2d8dcc3aea89"},"vehicle_type_id":"4","last_reported":1729786278,"current_range_meters":38800,"station_id":"ce4bhh92rcd13ifvqfj0","pricing_plan_id":"cebpf4jnsgd1na2vs0mg"},{"bike_id":"6a910c2f-3db2-4d92-a117-f4e834ae5f71","system_id":"levelo_inurba_marseille","lat":43.29189,"lon":5.35804,"is_reserved":false,"is_disabled":false,"rental_uris":{"android":"levelo://app?vid=6a910c2f-3db2-4d92-a117-f4e834ae5f71","ios":"levelo://app?vid=6a910c2f-3db2-4d92-a117-f4e834ae5f71"},"vehicle_type_id":"4","last_reported":1729786278,"current_range_meters":9600,"station_id":"ce4bhb12rcd13ifvqel0","pricing_plan_id":"cebpf4jnsgd1na2vs0mg"},{"bike_id":"04e4f0dd-90e3-4060-90f8-6bfe5f6bbe7e","system_id":"levelo_inurba_marseille","lat":43.31176,"lon":5.38714,"is_reserved":false,"is_disabled":false,"rental_uris":{"android":"levelo://app?vid=04e4f0dd-90e3-4060-90f8-6bfe5f6bbe7e","ios":"levelo://app?vid=04e4f0dd-90e3-4060-90f8-6bfe5f6bbe7e"},"vehicle_type_id":"4","last_reported":1729786278,"current_range_meters":25200,"station_id":"ce4bgv12rcd13ifvqcp0","pricing_plan_id":"cebpf4jnsgd1na2vs0mg"},{"bike_id":"db9fdc7e-9810-4f8c-a6cb-98ee5b2a5c33","system_id":"levelo_inurba_marseille","lat":43.29265,"lon":5.40899,"is_reserved":false,"is_disabled":false,"rental_uris":{"android":"levelo://app?vid=db9fdc7e-9810-4f8c-a6cb-98ee5b2a5c33","ios":"levelo://app?vid=db9fdc7e-9810-4f8c-a6cb-98ee5b2a5c33"},"vehicle_type_id":"4","last_reported":1729786278,"current_range_meters":9200,"station_id":"ce4bh192rcd13ifvqdc0","pricing_plan_id":"cebpf4jnsgd1na2vs0mg"},{"bike_id":"03e45602-3457-49c3-8ea9-56adf2020130","system_id":"levelo_inurba_marseille","lat":43.33599,"lon":5.41021,"is_reserved":false,"is_disabled":false,"rental_uris":{"android":"levelo://app?vid=03e45602-3457-49c3-8ea9-56adf2020130","ios":"levelo://app?vid=03e45602-3457-49c3-8ea9-56adf2020130"},"vehicle_type_id":"4","last_reported":1729786278,"current_range_meters":26000,"station_id":"ce4bhqh2rcd13ifvqhmg","pricing_plan_id":"cebpf4jnsgd1na2vs0mg"},{"bike_id":"15a25176-7f98-4fc6-a3ce-bb689344a431","system_id":"levelo_inurba_marseille","lat":43.27185,"lon":5.41001,"is_reserved":false,"is_disabled":false,"rental_uris":{"android":"levelo://app?vid=15a25176-7f98-4fc6-a3ce-bb689344a431","ios":"levelo://app?vid=15a25176-7f98-4fc6-a3ce-bb689344a431"},"vehicle_type_id":"4","last_reported":1729786278,"current_range_meters":38800,"station_id":"ce4bhl12rcd13ifvqgf0","pricing_plan_id":"cebpf4jnsgd1na2vs0mg"},{"bike_id":"d4cf926e-9ba1-486a-8d82-7b8da5c92459","system_id":"levelo_inurba_marseille","lat":43.27623,"lon":5.36111,"is_reserved":false,"is_disabled":false,"rental_uris":{"android":"levelo://app?vid=d4cf926e-9ba1-486a-8d82-7b8da5c92459","ios":"levelo://app?vid=d4cf926e-9ba1-486a-8d82-7b8da5c92459"},"vehicle_type_id":"4","last_reported":1729786278,"current_range_meters":36800,"station_id":"ce4bgj92rcd13ifvqbe0","pricing_plan_id":"cebpf4jnsgd1na2vs0mg"},{"bike_id":"44e54e83-369d-4529-9a88-37f222342f49","system_id":"levelo_inurba_marseille","lat":43.28413,"lon":5.34984,"is_reserved":false,"is_disabled":false,"rental_uris":{"android":"levelo://app?vid=44e54e83-369d-4529-9a88-37f222342f49","ios":"levelo://app?vid=44e54e83-369d-4529-9a88-37f222342f49"},"vehicle_type_id":"4","last_reported":1729786278,"current_range_meters":2000,"station_id":"ce4bhbh2rcd13ifvqepg","pricing_plan_id":"cebpf4jnsgd1na2vs0mg"},{"bike_id":"ca7fce99-b52e-4a9c-a0eb-e48678cdf4de","system_id":"levelo_inurba_marseille","lat":43.29612,"lon":5.38113,"is_reserved":false,"is_disabled":false,"rental_uris":{"android":"levelo://app?vid=ca7fce99-b52e-4a9c-a0eb-e48678cdf4de","ios":"levelo://app?vid=ca7fce99-b52e-4a9c-a0eb-e48678cdf4de"},"vehicle_type_id":"4","last_reported":1729786278,"current_range_meters":8400,"station_id":"ce4bgl12rcd13ifvqbo0","pricing_plan_id":"cebpf4jnsgd1na2vs0mg"},{"bike_id":"27cbc744-392b-4450-b7bf-8b5634733924","system_id":"levelo_inurba_marseille","lat":43.30653,"lon":5.40102,"is_reserved":false,"is_disabled":false,"rental_uris":{"android":"levelo://app?vid=27cbc744-392b-4450-b7bf-8b5634733924","ios":"levelo://app?vid=27cbc744-392b-4450-b7bf-8b5634733924"},"vehicle_type_id":"4","last_reported":1729786278,"current_range_meters":19600,"station_id":"ce4bh112rcd13ifvqda0","pricing_plan_id":"cebpf4jnsgd1na2vs0mg"},{"bike_id":"e664614b-c4ce-421a-a995-44435dbdb663","system_id":"levelo_inurba_marseille","lat":43.30327,"lon":5.40441,"is_reserved":false,"is_disabled":false,"rental_uris":{"android":"levelo://app?vid=e664614b-c4ce-421a-a995-44435dbdb663","ios":"levelo://app?vid=e664614b-c4ce-421a-a995-44435dbdb663"},"vehicle_type_id":"4","last_reported":1729786278,"current_range_meters":4800,"station_id":"ce4bh012rcd13ifvqd10","pricing_plan_id":"cebpf4jnsgd1na2vs0mg"},{"bike_id":"f6a622be-7b2f-4e6e-b4c1-c60b3ae2648e","system_id":"levelo_inurba_marseille","lat":43.306493,"lon":5.381903,"is_reserved":false,"is_disabled":false,"rental_uris":{"android":"levelo://app?vid=f6a622be-7b2f-4e6e-b4c1-c60b3ae2648e","ios":"levelo://app?vid=f6a622be-7b2f-4e6e-b4c1-c60b3ae2648e"},"vehicle_type_id":"4","last_reported":1729786278,"current_range_meters":22800,"station_id":"","pricing_plan_id":"cebpf4jnsgd1na2vs0mg"},{"bike_id":"289bbdad-7c11-4523-b950-cc46423e8afd","system_id":"levelo_inurba_marseille","lat":43.28697,"lon":5.37382,"is_reserved":false,"is_disabled":false,"rental_uris":{"android":"levelo://app?vid=289bbdad-7c11-4523-b950-cc46423e8afd","ios":"levelo://app?vid=289bbdad-7c11-4523-b950-cc46423e8afd"},"vehicle_type_id":"4","last_reported":1729786278,"current_range_meters":5600,"station_id":"ce4bh3p2rcd13ifvqdq0","pricing_plan_id":"cebpf4jnsgd1na2vs0mg"},{"bike_id":"497c246b-4020-4a00-a116-b81478086f35","system_id":"levelo_inurba_marseille","lat":43.29269,"lon":5.38436,"is_reserved":false,"is_disabled":false,"rental_uris":{"android":"levelo://app?vid=497c246b-4020-4a00-a116-b81478086f35","ios":"levelo://app?vid=497c246b-4020-4a00-a116-b81478086f35"},"vehicle_type_id":"4","last_reported":1729786278,"current_range_meters":33600,"station_id":"ce4bh692rcd13ifvqea0","pricing_plan_id":"cebpf4jnsgd1na2vs0mg"},{"bike_id":"10256f2f-1857-403a-890c-19d356ba878f","system_id":"levelo_inurba_marseille","lat":43.29795,"lon":5.39351,"is_reserved":false,"is_disabled":false,"rental_uris":{"android":"levelo://app?vid=10256f2f-1857-403a-890c-19d356ba878f","ios":"levelo://app?vid=10256f2f-1857-403a-890c-19d356ba878f"},"vehicle_type_id":"4","last_reported":1729786278,"current_range_meters":38800,"station_id":"chh1huq6cuj3fo74tm60","pricing_plan_id":"cebpf4jnsgd1na2vs0mg"},{"bike_id":"d4710a5f-7581-42a3-8248-225afe0d63c9","system_id":"levelo_inurba_marseille","lat":43.29708,"lon":5.36613,"is_reserved":false,"is_disabled":false,"rental_uris":{"android":"levelo://app?vid=d4710a5f-7581-42a3-8248-225afe0d63c9","ios":"levelo://app?vid=d4710a5f-7581-42a3-8248-225afe0d63c9"},"vehicle_type_id":"4","last_reported":1729786278,"current_range_meters":38800,"station_id":"ce4bgn12rcd13ifvqbt0","pricing_plan_id":"cebpf4jnsgd1na2vs0mg"},{"bike_id":"7885cbf5-08cc-4190-a473-73565d5545fa","system_id":"levelo_inurba_marseille","lat":43.2842,"lon":5.3498,"is_reserved":false,"is_disabled":false,"rental_uris":{"android":"levelo://app?vid=7885cbf5-08cc-4190-a473-73565d5545fa","ios":"levelo://app?vid=7885cbf5-08cc-4190-a473-73565d5545fa"},"vehicle_type_id":"4","last_reported":1729786278,"current_range_meters":35600,"station_id":"ce4bhbh2rcd13ifvqepg","pricing_plan_id":"cebpf4jnsgd1na2vs0mg"},{"bike_id":"532cac34-a545-4fa8-b5ef-1668895ab1ef","system_id":"levelo_inurba_marseille","lat":43.3014,"lon":5.39858,"is_reserved":false,"is_disabled":false,"rental_uris":{"android":"levelo://app?vid=532cac34-a545-4fa8-b5ef-1668895ab1ef","ios":"levelo://app?vid=532cac34-a545-4fa8-b5ef-1668895ab1ef"},"vehicle_type_id":"4","last_reported":1729786278,"current_range_meters":28000,"station_id":"ce4bh0h2rcd13ifvqd40","pricing_plan_id":"cebpf4jnsgd1na2vs0mg"},{"bike_id":"566c3f78-b119-41dc-8ce6-d1bacd6a4945","system_id":"levelo_inurba_marseille","lat":43.24077,"lon":5.37757,"is_reserved":false,"is_disabled":false,"rental_uris":{"android":"levelo://app?vid=566c3f78-b119-41dc-8ce6-d1bacd6a4945","ios":"levelo://app?vid=566c3f78-b119-41dc-8ce6-d1bacd6a4945"},"vehicle_type_id":"4","last_reported":1729786278,"current_range_meters":20000,"station_id":"ce4bhnp2rcd13ifvqgvg","pricing_plan_id":"cebpf4jnsgd1na2vs0mg"},{"bike_id":"43262a64-ad1f-4f26-b10e-b59db509daff","system_id":"levelo_inurba_marseille","lat":43.29038,"lon":5.3592,"is_reserved":false,"is_disabled":false,"rental_uris":{"android":"levelo://app?vid=43262a64-ad1f-4f26-b10e-b59db509daff","ios":"levelo://app?vid=43262a64-ad1f-4f26-b10e-b59db509daff"},"vehicle_type_id":"4","last_reported":1729786278,"current_range_meters":31200,"station_id":"ce4bha92rcd13ifvqeg0","pricing_plan_id":"cebpf4jnsgd1na2vs0mg"},{"bike_id":"6ab9b2d9-ac0f-4c57-85b9-015ccc4e5854","system_id":"levelo_inurba_marseille","lat":43.32481,"lon":5.36575,"is_reserved":false,"is_disabled":false,"rental_uris":{"android":"levelo://app?vid=6ab9b2d9-ac0f-4c57-85b9-015ccc4e5854","ios":"levelo://app?vid=6ab9b2d9-ac0f-4c57-85b9-015ccc4e5854"},"vehicle_type_id":"4","last_reported":1729786278,"current_range_meters":28000,"station_id":"ce4bhs12rcd13ifvqhvg","pricing_plan_id":"cebpf4jnsgd1na2vs0mg"},{"bike_id":"2a3bc9a9-ae9d-4e90-815b-7ffc3e1eba37","system_id":"levelo_inurba_marseille","lat":43.29004,"lon":5.35613,"is_reserved":false,"is_disabled":false,"rental_uris":{"android":"levelo://app?vid=2a3bc9a9-ae9d-4e90-815b-7ffc3e1eba37","ios":"levelo://app?vid=2a3bc9a9-ae9d-4e90-815b-7ffc3e1eba37"},"vehicle_type_id":"4","last_reported":1729786278,"current_range_meters":38800,"station_id":"ce4bhb92rcd13ifvqen0","pricing_plan_id":"cebpf4jnsgd1na2vs0mg"},