{"last_updated":1757862479,"ttl":60,"version":"2.2","data":{"bikes":[{"bike_id":"ea6dbac5-099f-4465-bf4c-a2e3ae16d628","system_id":"levelo_inurba_marseille","lat":43.21187,"lon":5.35076,"is_reserved":false,"is_disabled":false,"rental_uris":{"android":"levelo://app?vid=ea6dbac5-099f-4465-bf4c-a2e3ae16d628","ios":"levelo://app?vid=ea6dbac5-099f-4465-bf4c-a2e3ae16d628"},"vehicle_type_id":"4","last_reported":1757862479,"current_range_meters":2800,"station_id":"st_cvj6sg6p6f1abm77japg","pricing_plan_id":"cebpf4jnsgd1na2vs0mg"},{"bike_id":"f8e9d5e0-8a73-480e-98e1-4e62674c363a","system_id":"levelo_inurba_marseille","lat":43.26195,"lon":5.37933,"is_reserved":false,"is_disabled":false,"rental_uris":{"android":"levelo://app?vid=f8e9d5e0-8a73-480e-98e1-4e62674c363a","ios":"levelo://app?vid=f8e9d5e0-8a73-480e-98e1-4e62674c363a"},"vehicle_type_id":"4","last_reported":1757862479,"current_range_meters":2800,"station_id":"ce4bhjp2rcd13ifvqg90","pricing_plan_id":"cebpf4jnsgd1na2vs0mg"},{"bike_id":"c6facc4c-2ef2-42fe-bd18-1fc2cdadfa51","system_id":"levelo_inurba_marseille","lat":43.21742,"lon":5.34596,"is_reserved":false,"is_disabled":false,"rental_uris":{"android":"levelo://app?vid=c6facc4c-2ef2-42fe-bd18-1fc2cdadfa51","ios":"levelo://app?vid=c6facc4c-2ef2-42fe-bd18-1fc2cdadfa51"},"vehicle_type_id":"4","last_reported":1757862479,"current_range_meters":2800,"station_id":"st_cvj6r9ubvosntc0bgbag","pricing_plan_id":"cebpf4jnsgd1na2vs0mg"},{"bike_id":"2a5e27b6-1228-4061-8287-cf97cf70ec38","system_id":"levelo_inurba_marseille","lat":43.29964,"lon":5.38489,"is_reserved":false,"is_disabled":false,"rental_uris":{"android":"levelo://app?vid=2a5e27b6-1228-4061-8287-cf97cf70ec38","ios":"levelo://app?vid=2a5e27b6-1228-4061-8287-cf97cf70ec38"},"vehicle_type_id":"4","last_reported":1757862479,"current_range_meters":2000,"station_id":"ce4bgj92rcd13ifvqbd0","pricing_plan_id":"cebpf4jnsgd1na2vs0mg"},{"bike_id":"a619d907-0f54-4005-991f-b80c12a2def8","system_id":"levelo_inurba_marseille","lat":43.3021,"lon":5.39462,"is_reserved":false,"is_disabled":false,"rental_uris":{"android":"levelo://app?vid=a619d907-0f54-4005-991f-b80c12a2def8","ios":"levelo://app?vid=a619d907-0f54-4005-991f-b80c12a2def8"},"vehicle_type_id":"4","last_reported":1757862479,"current_range_meters":2800,"station_id":"ce4bh0p2rcd13ifvqd70","pricing_plan_id":"cebpf4jnsgd1na2vs0mg"},{"bike_id":"4216ca79-3b5b-4715-95f7-61255e20edc5","system_id":"levelo_inurba_marseille","lat":43.30418,"lon":5.39738,"is_reserved":false,"is_disabled":false,"rental_uris":{"android":"levelo://app?vid=4216ca79-3b5b-4715-95f7-61255e20edc5","ios":"levelo://app?vid=4216ca79-3b5b-4715-95f7-61255e20edc5"},"vehicle_type_id":"4","last_reported":1757862479,"current_range_meters":2800,"station_id":"ce4bh092rcd13ifvqd20","pricing_plan_id":"cebpf4jnsgd1na2vs0mg"},{"bike_id":"71bafe24-4b9c-420a-9b70-53377b12ffb7","system_id":"levelo_inurba_marseille","lat":43.299356,"lon":5.365588,"is_reserved":false,"is_disabled":false,"rental_uris":{"android":"levelo://app?vid=71bafe24-4b9c-420a-9b70-53377b12ffb7","ios":"levelo://app?vid=71bafe24-4b9c-420a-9b70-53377b12ffb7"},"vehicle_type_id":"4","last_reported":1757862479,"current_range_meters":2800,"station_id":"ce4bgm92rcd13ifvqbr0","pricing_plan_id":"cebpf4jnsgd1na2vs0mg"},{"bike_id":"5cb2804a-eac6-48e5-83a4-26437e3ea9e9","system_id":"levelo_inurba_marseille","lat":43.21181,"lon":5.35075,"is_reserved":false,"is_disabled":false,"rental_uris":{"android":"levelo://app?vid=5cb2804a-eac6-48e5-83a4-26437e3ea9e9","ios":"levelo://app?vid=5cb2804a-eac6-48e5-83a4-26437e3ea9e9"},"vehicle_type_id":"4","last_reported":1757862479,"current_range_meters":2800,"station_id":"st_cvj6sg6p6f1abm77japg","pricing_plan_id":"cebpf4jnsgd1na2vs0mg"},{"bike_id":"662d0e79-92cb-42fa-bfc7-f19c7103b161","system_id":"levelo_inurba_marseille","lat":43.29702,"lon":5.37689,"is_reserved":false,"is_disabled":false,"rental_uris":{"android":"levelo://app?vid=662d0e79-92cb-42fa-bfc7-f19c7103b161","ios":"levelo://app?vid=662d0e79-92cb-42fa-bfc7-f19c7103b161"},"vehicle_type_id":"4","last_reported":1757862479,"current_range_meters":2800,"station_id":"ce4bgkh2rcd13ifvqbl0","pricing_plan_id":"cebpf4jnsgd1na2vs0mg"},{"bike_id":"3fe9a975-a977-4bb9-a8fe-622d31b114a0","system_id":"levelo_inurba_marseille","lat":43.28476,"lon":5.38418,"is_reserved":false,"is_disabled":false,"rental_uris":{"android":"levelo://app?vid=3fe9a975-a977-4bb9-a8fe-622d31b114a0","ios":"levelo://app?vid=3fe9a975-a977-4bb9-a8fe-622d31b114a0"},"vehicle_type_id":"4","last_reported":1757862479,"current_range_meters":2800,"station_id":"ce4bh512rcd13ifvqe3g","pricing_plan_id":"cebpf4jnsgd1na2vs0mg"},{"bike_id":"33109199-8681-4110-976a-4d0f4cc1e955","system_id":"levelo_inurba_marseille","lat":43.2558,"lon":5.38222,"is_reserved":false,"is_disabled":false,"rental_uris":{"android":"levelo://app?vid=33109199-8681-4110-976a-4d0f4cc1e955","ios":"levelo://app?vid=33109199-8681-4110-976a-4d0f4cc1e955"},"vehicle_type_id":"4","last_reported":1757862479,"current_range_meters":2800,"station_id":"ce4bhih2rcd13ifvqfs0","pricing_plan_id":"cebpf4jnsgd1na2vs0mg"},{"bike_id":"55cf4104-4fe4-4a8c-b0f5-afc2dbb66b38","system_id":"levelo_inurba_marseille","lat":43.28621,"lon":5.35095,"is_reserved":false,"is_disabled":false,"rental_uris":{"android":"levelo://app?vid=55cf4104-4fe4-4a8c-b0f5-afc2dbb66b38","ios":"levelo://app?vid=55cf4104-4fe4-4a8c-b0f5-afc2dbb66b38"},"vehicle_type_id":"4","last_reported":1757862479,"current_range_meters":2800,"station_id":"ce4bhch2rcd13ifvqeug","pricing_plan_id":"cebpf4jnsgd1na2vs0mg"},{"bike_id":"6fa6cd3b-2dfe-436f-92a2-631a29602fd6","system_id":"levelo_inurba_marseille","lat":43.286142,"lon":5.350968,"is_reserved":false,"is_disabled":false,"rental_uris":{"android":"levelo://app?vid=6fa6cd3b-2dfe-436f-92a2-631a29602fd6","ios":"levelo://app?vid=6fa6cd3b-2dfe-436f-92a2-631a29602fd6"},"vehicle_type_id":"4","last_reported":1757862479,"current_range_meters":3200,"station_id":"ce4bhch2rcd13ifvqeug","pricing_plan_id":"cebpf4jnsgd1na2vs0mg"},{"bike_id":"d8556865-0184-4d5f-8297-5d9a3e322958","system_id":"levelo_inurba_marseille","lat":43.30422,"lon":5.38887,"is_reserved":false,"is_disabled":false,"rental_uris":{"android":"levelo://app?vid=d8556865-0184-4d5f-8297-5d9a3e322958","ios":"levelo://app?vid=d8556865-0184-4d5f-8297-5d9a3e322958"},"vehicle_type_id":"4","last_reported":1757862479,"current_range_meters":3200,"station_id":"ce4bgk12rcd13ifvqbi0","pricing_plan_id":"cebpf4jnsgd1na2vs0mg"},{"bike_id":"2af2cc48-9a81-4cfa-a5c5-96e46a1191e7","system_id":"levelo_inurba_marseille","lat":43.28691,"lon":5.37396,"is_reserved":false,"is_disabled":false,"rental_uris":{"android":"levelo://app?vid=2af2cc48-9a81-4cfa-a5c5-96e46a1191e7","ios":"levelo://app?vid=2af2cc48-9a81-4cfa-a5c5-96e46a1191e7"},"vehicle_type_id":"4","last_reported":1757862479,"current_range_meters":3200,"station_id":"ce4bh3p2rcd13ifvqdq0","pricing_plan_id":"cebpf4jnsgd1na2vs0mg"},{"bike_id":"ee8ed6b6-2a54-482d-bf6b-31c565a98940","system_id":"levelo_inurba_marseille","lat":43.29033,"lon":5.38649,"is_reserved":false,"is_disabled":false,"rental_uris":{"android":"levelo://app?vid=ee8ed6b6-2a54-482d-bf6b-31c565a98940","ios":"levelo://app?vid=ee8ed6b6-2a54-482d-bf6b-31c565a98940"},"vehicle_type_id":"4","last_reported":1757862479,"current_range_meters":3200,"station_id":"ce4bh4p2rcd13ifvqe0g","pricing_plan_id":"cebpf4jnsgd1na2vs0mg"},{"bike_id":"06cc1ea3-a589-4f95-a7cd-84c3e322b7bc","system_id":"levelo_inurba_marseille","lat":43.303024,"lon":5.391939,"is_reserved":false,"is_disabled":false,"rental_uris":{"android":"levelo://app?vid=06cc1ea3-a589-4f95-a7cd-84c3e322b7bc","ios":"levelo://app?vid=06cc1ea3-a589-4f95-a7cd-84c3e322b7bc"},"vehicle_type_id":"4","last_reported":1757862479,"current_range_meters":3200,"station_id":"ce4bgkh2rcd13ifvqbk0","pricing_plan_id":"cebpf4jnsgd1na2vs0mg"},{"bike_id":"5715893c-97b7-40cc-bbb5-a335cf13ee68","system_id":"levelo_inurba_marseille","lat":43.30155,"lon":5.38095,"is_reserved":false,"is_disabled":false,"rental_uris":{"android":"levelo://app?vid=5715893c-97b7-40cc-bbb5-a335cf13ee68","ios":"levelo://app?vid=5715893c-97b7-40cc-bbb5-a335cf13ee68"},"vehicle_type_id":"4","last_reported":1757862479,"current_range_meters":3200,"station_id":"ce4bgjp2rcd13ifvqbh0","pricing_plan_id":"cebpf4jnsgd1na2vs0mg"},{"bike_id":"91b3f2dc-4abf-48ed-b368-3d69313f30e0","system_id":"levelo_inurba_marseille","lat":43.27365,"lon":5.36248,"is_reserved":false,"is_disabled":false,"rental_uris":{"android":"levelo://app?vid=91b3f2dc-4abf-48ed-b368-3d69313f30e0","ios":"levelo://app?vid=91b3f2dc-4abf-48ed-b368-3d69313f30e0"},"vehicle_type_id":"4","last_reported":1757862479,"current_range_meters":3200,"station_id":"ce4bhbh2rcd13ifvqeo0","pricing_plan_id":"cebpf4jnsgd1na2vs0mg"},{"bike_id":"c6a6b7d0-aceb-4513-a8b4-025d897e0cf4","system_id":"levelo_inurba_marseille","lat":43.282743,"lon":5.350643,"is_reserved":false,"is_disabled":false,"rental_uris":{"android":"levelo://app?vid=c6a6b7d0-aceb-4513-a8b4-025d897e0cf4","ios":"levelo://app?vid=c6a6b7d0-aceb-4513-a8b4-025d897e0cf4"},"vehicle_type_id":"4","last_reported":1757862479,"current_range_meters":1600,"station_id":"ce4bhbp2rcd13ifvqerg","pricing_plan_id":"cebpf4jnsgd1na2vs0mg"},{"bike_id":"799a6230-2523-45af-91cf-35420eb07f5d","system_id":"levelo_inurba_marseille","lat":43.28849,"lon":5.35862,"is_reserved":false,"is_disabled":false,"rental_uris":{"android":"levelo://app?vid=799a6230-2523-45af-91cf-35420eb07f5d","ios":"levelo://app?vid=799a6230-2523-45af-91cf-35420eb07f5d"},"vehicle_type_id":"4","last_reported":1757862479,"current_range_meters":3600,"station_id":"ce4bhb12rcd13ifvqem0","pricing_plan_id":"cebpf4jnsgd1na2vs0mg"},{"bike_id":"3d78301d-e0c4-459b-9999-bb19bd2df99c","system_id":"levelo_inurba_marseille","lat":43.2396,"lon":5.36622,"is_reserved":false,"is_disabled":true,"rental_uris":{"android":"levelo://app?vid=3d78301d-e0c4-459b-9999-bb19bd2df99c","ios":"levelo://app?vid=3d78301d-e0c4-459b-9999-bb19bd2df99c"},"vehicle_type_id":"4","last_reported":1757862479,"current_range_meters":3600,"station_id":"ce4bhi12rcd13ifvqfp0","pricing_plan_id":"cebpf4jnsgd1na2vs0mg"},{"bike_id":"fcc00b55-47e8-49a6-831f-48ff8380e0d8","system_id":"levelo_inurba_marseille","lat":43.258683,"lon":5.398994,"is_reserved":false,"is_disabled":false,"rental_uris":{"android":"levelo://app?vid=fcc00b55-47e8-49a6-831f-48ff8380e0d8","ios":"levelo://app?vid=fcc00b55-47e8-49a6-831f-48ff8380e0d8"},"vehicle_type_id":"4","last_reported":1757862479,"current_range_meters":3600,"station_id":"ce4bhl92rcd13ifvqghg","pricing_plan_id":"cebpf4jnsgd1na2vs0mg"},{"bike_id":"210510cb-bf26-432a-ae03-5f7d77ddfcf5","system_id":"levelo_inurba_marseille","lat":43.28152,"lon":5.42644,"is_reserved":false,"is_disabled":false,"rental_uris":{"android":"levelo://app?vid=210510cb-bf26-432a-ae03-5f7d77ddfcf5","ios":"levelo://app?vid=210510cb-bf26-432a-ae03-5f7d77ddfcf5"},"vehicle_type_id":"4","last_reported":1757862479,"current_range_meters":3600,"station_id":"ce4bhnh2rcd13ifvqgug","pricing_plan_id":"cebpf4jnsgd1na2vs0mg"},{"bike_id":"29939e1d-7683-455b-aa01-8621cf17f4fa","system_id":"levelo_inurba_marseille","lat":43.24942,"lon":5.40496,"is_reserved":false,"is_disabled":false,"rental_uris":{"android":"levelo://app?vid=29939e1d-7683-455b-aa01-8621cf17f4fa","ios":"levelo://app?vid=29939e1d-7683-455b-aa01-8621cf17f4fa"},"vehicle_type_id":"4","last_reported":1757862479,"current_range_meters":4000,"station_id":"st_d2ngiaodas8pm72gd1h0","pricing_plan_id":"cebpf4jnsgd1na2vs0mg"},{"bike_id":"972b4c5f-3a00-4bb2-9116-b81f2cecc9f2","system_id":"levelo_inurba_marseille","lat":43.33764,"lon":5.37483,"is_reserved":false,"is_disabled":false,"rental_uris":{"android":"levelo://app?vid=972b4c5f-3a00-4bb2-9116-b81f2cecc9f2","ios":"levelo://app?vid=972b4c5f-3a00-4bb2-9116-b81f2cecc9f2"},"vehicle_type_id":"4","last_reported":1757862479,"current_range_meters":4000,"station_id":"","pricing_plan_id":"cebpf4jnsgd1na2vs0mg"},{"bike_id":"92e52362-2a57-47aa-ab84-d38aedb5bbbc","system_id":"levelo_inurba_marseille","lat":43.29821,"lon":5.37641,"is_reserved":false,"is_disabled":false,"rental_uris":{"android":"levelo://app?vid=92e52362-2a57-47aa-ab84-d38aedb5bbbc","ios":"levelo://app?vid=92e52362-2a57-47aa-ab84-d38aedb5bbbc"},"vehicle_type_id":"4","last_reported":1757862479,"current_range_meters":4000,"station_id":"","pricing_plan_id":"cebpf4jnsgd1na2vs0mg"},{"bike_id":"91989f11-c907-4f9a-995f-859adced19aa","system_id":"levelo_inurba_marseille","lat":43.29965,"lon":5.38485,"is_reserved":false,"is_disabled":false,"rental_uris":{"android":"levelo://app?vid=91989f11-c907-4f9a-995f-859adced19aa","ios":"levelo://app?vid=91989f11-c907-4f9a-995f-859adced19aa"},"vehicle_type_id":"4","last_reported":1757862479,"current_range_meters":4000,"station_id":"ce4bgj92rcd13ifvqbd0","pricing_plan_id":"cebpf4jnsgd1na2vs0mg"},{"bike_id":"9807277f-48d0-424c-b1b3-0c92e476bf26","system_id":"levelo_inurba_marseille","lat":43.28266,"lon":5.35074,"is_reserved":false,"is_disabled":false,"rental_uris":{"android":"levelo://app?vid=9807277f-48d0-424c-b1b3-0c92e476bf26","ios":"levelo://app?vid=9807277f-48d0-424c-b1b3-0c92e476bf26"},"vehicle_type_id":"4","last_reported":1757862479,"current_range_meters":4000,"station_id":"ce4bhbp2rcd13ifvqerg","pricing_plan_id":"cebpf4jnsgd1na2vs0mg"},{"bike_id":"0ff70c94-50a6-4a77-ba46-31b336bd9f5e","system_id":"levelo_inurba_marseille","lat":43.29525,"lon":5.38532,"is_reserved":false,"is_disabled":false,"rental_uris":{"android":"levelo://app?vid=0ff70c94-50a6-4a77-ba46-31b336bd9f5e","ios":"levelo://app?vid=0ff70c94-50a6-4a77-ba46-31b336bd9f5e"},"vehicle_type_id":"4","last_reported":1757862479,"current_range_meters":4000,"station_id":"ce4bgih2rcd13ifvqba0","pricing_plan_id":"cebpf4jnsgd1na2vs0mg"},{"bike_id":"a3977072-5f91-4a68-b0d6-dc3cb909a337","system_id":"levelo_inurba_marseille","lat":43.33764,"lon":5.37467,"is_reserved":false,"is_disabled":false,"rental_uris":{"android":"levelo://app?vid=a3977072-5f91-4a68-b0d6-dc3cb909a337","ios":"levelo://app?vid=a3977072-5f91-4a68-b0d6-dc3cb909a337"},"vehicle_type_id":"4","last_reported":1757862479,"current_range_meters":4400,"station_id":"","pricing_plan_id":"cebpf4jnsgd1na2vs0mg"},{"bike_id":"3da0ea96-3356-45ba-a9f6-e01e99e61b1b","system_id":"levelo_inurba_marseille","lat":43.26196,"lon":5.37933,"is_reserved":false,"is_disabled":false,"rental_uris":{"android":"levelo://app?vid=3da0ea96-3356-45ba-a9f6-e01e99e61b1b","ios":"levelo://app?vid=3da0ea96-3356-45ba-a9f6-e01e99e61b1b"},"vehicle_type_id":"4","last_reported":1757862479,"current_range_meters":4400,"station_id":"ce4bhjp2rcd13ifvqg90","pricing_plan_id":"cebpf4jnsgd1na2vs0mg"},{"bike_id":"a9367779-e5e9-4b3f-bd61-bda2a381f6ee","system_id":"levelo_inurba_marseille","lat":43.29368,"lon":5.37833,"is_reserved":false,"is_disabled":false,"rental_uris":{"android":"levelo://app?vid=a9367779-e5e9-4b3f-bd61-bda2a381f6ee","ios":"levelo://app?vid=a9367779-e5e9-4b3f-bd61-bda2a381f6ee"},"vehicle_type_id":"4","last_reported":1757862479,"current_range_meters":4400,"station_id":"ce4bgjh2rcd13ifvqbf0","pricing_plan_id":"cebpf4jnsgd1na2vs0mg"},{"bike_id":"cf02462f-aa08-4ecd-8c7c-fe6efcf61243","system_id":"levelo_inurba_marseille","lat":43.28922,"lon":5.38404,"is_reserved":false,"is_disabled":false,"rental_uris":{"android":"levelo://app?vid=cf02462f-aa08-4ecd-8c7c-fe6efcf61243","ios":"levelo://app?vid=cf02462f-aa08-4ecd-8c7c-fe6efcf61243"},"vehicle_type_id":"4","last_reported":1757862479,"current_range_meters":4400,"station_id":"ce4bh612rcd13ifvqe6g","pricing_plan_id":"cebpf4jnsgd1na2vs0mg"},{"bike_id":"1958ac2f-8c83-440b-b106-5d656dae9bf2","system_id":"levelo_inurba_marseille","lat":43.2872,"lon":5.37934,"is_reserved":false,"is_disabled":false,"rental_uris":{"android":"levelo://app?vid=1958ac2f-8c83-440b-b106-5d656dae9bf2","ios":"levelo://app?vid=1958ac2f-8c83-440b-b106-5d656dae9bf2"},"vehicle_type_id":"4","last_reported":1757862479,"current_range_meters":4400,"station_id":"ce4bh9p2rcd13ifvqec0","pricing_plan_id":"cebpf4jnsgd1na2vs0mg"},{"bike_id":"cda61121-bee1-46d9-8b81-325704e62655","system_id":"levelo_inurba_marseille","lat":43.23961,"lon":5.36625,"is_reserved":false,"is_disabled":false,"rental_uris":{"android":"levelo://app?vid=cda61121-bee1-46d9-8b81-325704e62655","ios":"levelo://app?vid=cda61121-bee1-46d9-8b81-325704e62655"},"vehicle_type_id":"4","last_reported":1757862479,"current_range_meters":4400,"station_id":"ce4bhi12rcd13ifvqfp0","pricing_plan_id":"cebpf4jnsgd1na2vs0mg"},{"bike_id":"726653a4-3c9d-4762-b621-e567d8230c24","system_id":"levelo_inurba_marseille","lat":43.30429,"lon":5.3889,"is_reserved":false,"is_disabled":false,"rental_uris":{"android":"levelo://app?vid=726653a4-3c9d-4762-b621-e567d8230c24","ios":"levelo://app?vid=726653a4-3c9d-4762-b621-e567d8230c24"},"vehicle_type_id":"4","last_reported":1757862479,"current_range_meters":4800,"station_id":"ce4bgk12rcd13ifvqbi0","pricing_plan_id":"cebpf4jnsgd1na2vs0mg"},{"bike_id":"3bd595b7-af3b-43b1-8697-1bcb2a61af6f","system_id":"levelo_inurba_marseille","lat":43.279946,"lon":5.400148,"is_reserved":false,"is_disabled":true,"rental_uris":{"android":"levelo://app?vid=3bd595b7-af3b-43b1-8697-1bcb2a61af6f","ios":"levelo://app?vid=3bd595b7-af3b-43b1-8697-1bcb2a61af6f"},"vehicle_type_id":"4","last_reported":1757862479,"current_range_meters":4800,"station_id":"ce4bho92rcd13ifvqh4g","pricing_plan_id":"cebpf4jnsgd1na2vs0mg"},{"bike_id":"e03bd15c-c472-4f08-bc2f-c1b8a57b70fb","system_id":"levelo_inurba_marseille","lat":43.32949,"lon":5.3899,"is_reserved":false,"is_disabled":false,"rental_uris":{"android":"levelo://app?vid=e03bd15c-c472-4f08-bc2f-c1b8a57b70fb","ios":"levelo://app?vid=e03bd15c-c472-4f08-bc2f-c1b8a57b70fb"},"vehicle_type_id":"4","last_reported":1757862479,"current_range_meters":4800,"station_id":"","pricing_plan_id":"cebpf4jnsgd1na2vs0mg"},{"bike_id":"7b675a2a-11f5-4286-91a2-b784fd2e1388","system_id":"levelo_inurba_marseille","lat":43.27841,"lon":5.39192,"is_reserved":false,"is_disabled":false,"rental_uris":{"android":"levelo://app?vid=7b675a2a-11f5-4286-91a2-b784fd2e1388","ios":"levelo://app?vid=7b675a2a-11f5-4286-91a2-b784fd2e1388"},"vehicle_type_id":"4","last_reported":1757862479,"current_range_meters":4400,"station_id":"ce4bhjp2rcd13ifvqga0","pricing_plan_id":"cebpf4jnsgd1na2vs0mg"},{"bike_id":"149dd90e-4583-4bb5-9268-778ab2889dd7","system_id":"levelo_inurba_marseille","lat":43.29041,"lon":5.35921,"is_reserved":false,"is_disabled":false,"rental_uris":{"android":"levelo://app?vid=149dd90e-4583-4bb5-9268-778ab2889dd7","ios":"levelo://app?vid=149dd90e-4583-4bb5-9268-778ab2889dd7"},"vehicle_type_id":"4","last_reported":1757862479,"current_range_meters":4800,"station_id":"ce4bha92rcd13ifvqeg0","pricing_plan_id":"cebpf4jnsgd1na2vs0mg"},{"bike_id":"d13f74d4-3c1f-4fe8-8f34-0890821be5cc","system_id":"levelo_inurba_marseille","lat":43.30497,"lon":5.3657,"is_reserved":false,"is_disabled":false,"rental_uris":{"android":"levelo://app?vid=d13f74d4-3c1f-4fe8-8f34-0890821be5cc","ios":"levelo://app?vid=d13f74d4-3c1f-4fe8-8f34-0890821be5cc"},"vehicle_type_id":"4","last_reported":1757862479,"current_range_meters":4800,"station_id":"ce4bgs12rcd13ifvqcag","pricing_plan_id":"cebpf4jnsgd1na2vs0mg"},{"bike_id":"775af279-8ac9-4585-9121-809be9b13265","system_id":"levelo_inurba_marseille","lat":43.337775,"lon":5.374412,"is_reserved":false,"is_disabled":false,"rental_uris":{"android":"levelo://app?vid=775af279-8ac9-4585-9121-809be9b13265","ios":"levelo://app?vid=775af279-8ac9-4585-9121-809be9b13265"},"vehicle_type_id":"4","last_reported":1757862479,"current_range_meters":5600,"station_id":"","pricing_plan_id":"cebpf4jnsgd1na2vs0mg"},{"bike_id":"348adc76-c25a-4959-ac49-d6207af2e7eb","system_id":"levelo_inurba_marseille","lat":43.30416,"lon":5.41275,"is_reserved":false,"is_disabled":false,"rental_uris":{"android":"levelo://app?vid=348adc76-c25a-4959-ac49-d6207af2e7eb","ios":"levelo://app?vid=348adc76-c25a-4959-ac49-d6207af2e7eb"},"vehicle_type_id":"4","last_reported":1757862479,"current_range_meters":5600,"station_id":"ce4bhop2rcd13ifvqh8g","pricing_plan_id":"cebpf4jnsgd1na2vs0mg"},{"bike_id":"92f37189-7143-47f0-8ff6-9e05c53d7c25","system_id":"levelo_inurba_marseille","lat":43.2962,"lon":5.37717,"is_reserved":false,"is_disabled":false,"rental_uris":{"android":"levelo://app?vid=92f37189-7143-47f0-8ff6-9e05c53d7c25","ios":"levelo://app?vid=92f37189-7143-47f0-8ff6-9e05c53d7c25"},"vehicle_type_id":"4","last_reported":1757862479,"current_range_meters":4000,"station_id":"ce4bgi92rcd13ifvqb90","pricing_plan_id":"cebpf4jnsgd1na2vs0mg"},{"bike_id":"5af81ba1-91ea-4ada-abc9-d1c3b014de25","system_id":"levelo_inurba_marseille","lat":43.28402,"lon":5.34973,"is_reserved":false,"is_disabled":false,"rental_uris":{"android":"levelo://app?vid=5af81ba1-91ea-4ada-abc9-d1c3b014de25","ios":"levelo://app?vid=5af81ba1-91ea-4ada-abc9-d1c3b014de25"},"vehicle_type_id":"4","last_reported":1757862479,"current_range_meters":5600,"station_id":"ce4bhbh2rcd13ifvqepg","pricing_plan_id":"cebpf4jnsgd1na2vs0mg"},{"bike_id":"137836a5-a9e1-4771-88d3-e87403e51c7e","system_id":"levelo_inurba_marseille","lat":43.30156,"lon":5.38096,"is_reserved":false,"is_disabled":false,"rental_uris":{"android":"levelo://app?vid=137836a5-a9e1-4771-88d3-e87403e51c7e","ios":"levelo://app?vid=137836a5-a9e1-4771-88d3-e87403e51c7e"},"vehicle_type_id":"4","last_reported":1757862479,"current_range_meters":6000,"station_id":"ce4bgjp2rcd13ifvqbh0","pricing_plan_id":"cebpf4jnsgd1na2vs0mg"},{"bike_id":"485dd20d-150c-4061-9b3c-173c8fb2312d","system_id":"levelo_inurba_marseille","lat":43.28461,"lon":5.35885,"is_reserved":false,"is_disabled":false,"rental_uris":{"android":"levelo://app?vid=485dd20d-150c-4061-9b3c-173c8fb2312d","ios":"levelo://app?vid=485dd20d-150c-4061-9b3c-173c8fb2312d"},"vehicle_type_id":"4","last_reported":1757862479,"current_range_meters":6000,"station_id":"ce4bhah2rcd13ifvqei0","pricing_plan_id":"cebpf4jnsgd1na2vs0mg"},{"bike_id":"d8efb46c-909b-4905-b50d-2f7f7c5ff1d2","system_id":"levelo_inurba_marseille","lat":43.29003,"lon":5.35609,"is_reserved":false,"is_disabled":false,"rental_uris":{"android":"levelo://app?vid=d8efb46c-909b-4905-b50d-2f7f7c5ff1d2","ios":"levelo://app?vid=d8efb46c-909b-4905-b50d-2f7f7c5ff1d2"},"vehicle_type_id":"4","last_reported":1757862479,"current_range_meters":6000,"station_id":"ce4bhb92rcd13ifvqen0","pricing_plan_id":"cebpf4jnsgd1na2vs0mg"},{"bike_id":"c17c212d-4efe-4f9e-a66d-96e9210cac7d","system_id":"levelo_inurba_marseille","lat":43.2844,"lon":5.39207,"is_reserved":false,"is_disabled":false,"rental_uris":{"android":"levelo://app?vid=c17c212d-4efe-4f9e-a66d-96e9210cac7d","ios":"levelo://app?vid=c17c212d-4efe-4f9e-a66d-96e9210cac7d"},"vehicle_type_id":"4","last_reported":1757862479,"current_range_meters":6000,"station_id":"ce4bhoh2rcd13ifvqh5g","pricing_plan_id":"cebpf4jnsgd1na2vs0mg"},{"bike_id":"d6b8e9b0-de8c-405e-8c55-e7c96dd46cd7","system_id":"levelo_inurba_marseille","lat":43.26562,"lon":5.39002,"is_reserved":false,"is_disabled":false,"rental_uris":{"android":"levelo://app?vid=d6b8e9b0-de8c-405e-8c55-e7c96dd46cd7","ios":"levelo://app?vid=d6b8e9b0-de8c-405e-8c55-e7c96dd46cd7"},"vehicle_type_id":"4","last_reported":1757862479,"current_range_meters":6000,"station_id":"ce4bhe12rcd13ifvqf30","pricing_plan_id":"cebpf4jnsgd1na2vs0mg"},{"bike_id":"49c0ae98-5208-4681-aab0-bb00281e26e9","system_id":"levelo_inurba_marseille","lat":43.30948,"lon":5.40174,"is_reserved":false,"is_disabled":false,"rental_uris":{"android":"levelo://app?vid=49c0ae98-5208-4681-aab0-bb00281e26e9","ios":"levelo://app?vid=49c0ae98-5208-4681-aab0-bb00281e26e9"},"vehicle_type_id":"4","last_reported":1757862479,"current_range_meters":6400,"station_id":"ce4bgvp2rcd13ifvqct0","pricing_plan_id":"cebpf4jnsgd1na2vs0mg"},{"bike_id":"a0a499a1-40d9-4765-bfe4-d2dc90ec93df","system_id":"levelo_inurba_marseille","lat":43.21747,"lon":5.34596,"is_reserved":false,"is_disabled":false,"rental_uris":{"android":"levelo://app?vid=a0a499a1-40d9-4765-bfe4-d2dc90ec93df","ios":"levelo://app?vid=a0a499a1-40d9-4765-bfe4-d2dc90ec93df"},"vehicle_type_id":"4","last_reported":1757862479,"current_range_meters":6400,"station_id":"st_cvj6r9ubvosntc0bgbag","pricing_plan_id":"cebpf4jnsgd1na2vs0mg"},{"bike_id":"8a35eec4-19c1-4bbd-a1d8-d38239b6f87f","system_id":"levelo_inurba_marseille","lat":43.29093,"lon":5.38137,"is_reserved":false,"is_disabled":false,"rental_uris":{"android":"levelo://app?vid=8a35eec4-19c1-4bbd-a1d8-d38239b6f87f","ios":"levelo://app?vid=8a35eec4-19c1-4bbd-a1d8-d38239b6f87f"},"vehicle_type_id":"4","last_reported":1757862479,"current_range_meters":6400,"station_id":"ce4bh512rcd13ifvqe2g","pricing_plan_id":"cebpf4jnsgd1na2vs0mg"},{"bike_id":"5c570a90-b568-4b3f-bb7a-fae8e423261c","system_id":"levelo_inurba_marseille","lat":43.281541,"lon":5.426414,"is_reserved":false,"is_disabled":false,"rental_uris":{"android":"levelo://app?vid=5c570a90-b568-4b3f-bb7a-fae8e423261c","ios":"levelo://app?vid=5c570a90-b568-4b3f-bb7a-fae8e423261c"},"vehicle_type_id":"4","last_reported":1757862479,"current_range_meters":6400,"station_id":"ce4bhnh2rcd13ifvqgug","pricing_plan_id":"cebpf4jnsgd1na2vs0mg"},{"bike_id":"ae2200e0-55fa-4d16-87bf-72ca65d67371","system_id":"levelo_inurba_marseille","lat":43.28373,"lon":5.38465,"is_reserved":false,"is_disabled":false,"rental_uris":{"android":"levelo://app?vid=ae2200e0-55fa-4d16-87bf-72ca65d67371","ios":"levelo://app?vid=ae2200e0-55fa-4d16-87bf-72ca65d67371"},"vehicle_type_id":"4","last_reported":1757862479,"current_range_meters":6400,"station_id":"","pricing_plan_id":"cebpf4jnsgd1na2vs0mg"},{"bike_id":"32823382-1a20-43af-94ab-b2aa2f69840d","system_id":"levelo_inurba_marseille","lat":43.29681,"lon":5.37287,"is_reserved":false,"is_disabled":false,"rental_uris":{"android":"levelo://app?vid=32823382-1a20-43af-94ab-b2aa2f69840d","ios":"levelo://app?vid=32823382-1a20-43af-94ab-b2aa2f69840d"},"vehicle_type_id":"4","last_reported":1757862479,"current_range_meters":6400,"station_id":"ce4bgk12rcd13ifvqbj0","pricing_plan_id":"cebpf4jnsgd1na2vs0mg"},{"bike_id":"799abdac-8495-45a0-8bb6-09e6179469d5","system_id":"levelo_inurba_marseille","lat":43.25495,"lon":5.37658,"is_reserved":false,"is_disabled":true,"rental_uris":{"android":"levelo://app?vid=799abdac-8495-45a0-8bb6-09e6179469d5","ios":"levelo://app?vid=799abdac-8495-45a0-8bb6-09e6179469d5"},"vehicle_type_id":"4","last_reported":1757862479,"current_range_meters":6800,"station_id":"ce4bhh12rcd13ifvqff0","pricing_plan_id":"cebpf4jnsgd1na2vs0mg"},{"bike_id":"0eac0c05-dbf1-4c0b-af6d-53c5df91e290","system_id":"levelo_inurba_marseille","lat":43.2968,"lon":5.37136,"is_reserved":false,"is_disabled":false,"rental_uris":{"android":"levelo://app?vid=0eac0c05-dbf1-4c0b-af6d-53c5df91e290","ios":"levelo://app?vid=0eac0c05-dbf1-4c0b-af6d-53c5df91e290"},"vehicle_type_id":"4","last_reported":1757862479,"current_range_meters":6800,"station_id":"","pricing_plan_id":"cebpf4jnsgd1na2vs0mg"},{"bike_id":"d616e001-2841-4a14-bdd4-e83957060c35","system_id":"levelo_inurba_marseille","lat":43.28369,"lon":5.38638,"is_reserved":false,"is_disabled":false,"rental_uris":{"android":"levelo://app?vid=d616e001-2841-4a14-bdd4-e83957060c35","ios":"levelo://app?vid=d616e001-2841-4a14-bdd4-e83957060c35"},"vehicle_type_id":"4","last_reported":1757862479,"current_range_meters":6800,"station_id":"ce4bh492rcd13ifvqdvg","pricing_plan_id":"cebpf4jnsgd1na2vs0mg"},{"bike_id":"aa787883-b1da-45d9-ae66-c1e145e56a0f","system_id":"levelo_inurba_marseille","lat":43.28408,"lon":5.34974,"is_reserved":false,"is_disabled":false,"rental_uris":{"android":"levelo://app?vid=aa787883-b1da-45d9-ae66-c1e145e56a0f","ios":"levelo://app?vid=aa787883-b1da-45d9-ae66-c1e145e56a0f"},"vehicle_type_id":"4","last_reported":1757862479,"current_range_meters":6800,"station_id":"ce4bhbh2rcd13ifvqepg","pricing_plan_id":"cebpf4jnsgd1na2vs0mg"},{"bike_id":"0f780b04-576f-41ea-a8b3-e3a7c2e009da","system_id":"levelo_inurba_marseille","lat":43.31333,"lon":5.39692,"is_reserved":false,"is_disabled":false,"rental_uris":{"android":"levelo://app?vid=0f780b04-576f-41ea-a8b3-e3a7c2e009da","ios":"levelo://app?vid=0f780b04-576f-41ea-a8b3-e3a7c2e009da"},"vehicle_type_id":"4","last_reported":1757862479,"current_range_meters":6800,"station_id":"ce4bgvp2rcd13ifvqcu0","pricing_plan_id":"cebpf4jnsgd1na2vs0mg"},{"bike_id":"e1d2e4b0-dcc3-4ec6-8f60-71a0707cd0fe","system_id":"levelo_inurba_marseille","lat":43.21745,"lon":5.34607,"is_reserved":false,"is_disabled":true,"rental_uris":{"android":"levelo://app?vid=e1d2e4b0-dcc3-4ec6-8f60-71a0707cd0fe","ios":"levelo://app?vid=e1d2e4b0-dcc3-4ec6-8f60-71a0707cd0fe"},"vehicle_type_id":"4","last_reported":1757862479,"current_range_meters":6800,"station_id":"st_cvj6r9ubvosntc0bgbag","pricing_plan_id":"cebpf4jnsgd1na2vs0mg"},{"bike_id":"472f9f03-d60b-4ddc-a573-3b260bf6b41b","system_id":"levelo_inurba_marseille","lat":43.3233,"lon":5.40622,"is_reserved":false,"is_disabled":false,"rental_uris":{"android":"levelo://app?vid=472f9f03-d60b-4ddc-a573-3b260bf6b41b","ios":"levelo://app?vid=472f9f03-d60b-4ddc-a573-3b260bf6b41b"},"vehicle_type_id":"4","last_reported":1757862479,"current_range_meters":6800,"station_id":"ce4bhq92rcd13ifvqhjg","pricing_plan_id":"cebpf4jnsgd1na2vs0mg"},{"bike_id":"0c682373-fd97-40fe-9afe-f90fa06502b9","system_id":"levelo_inurba_marseille","lat":43.29896,"lon":5.387392,"is_reserved":false,"is_disabled":false,"rental_uris":{"android":"levelo://app?vid=0c682373-fd97-40fe-9afe-f90fa06502b9","ios":"levelo://app?vid=0c682373-fd97-40fe-9afe-f90fa06502b9"},"vehicle_type_id":"4","last_reported":1757862479,"current_range_meters":7200,"station_id":"ce4bh392rcd13ifvqdl0","pricing_plan_id":"cebpf4jnsgd1na2vs0mg"},{"bike_id":"a24c4696-920b-4645-847f-87e0b46915a6","system_id":"levelo_inurba_marseille","lat":43.3241,"lon":5.42487,"is_reserved":false,"is_disabled":false,"rental_uris":{"android":"levelo://app?vid=a24c4696-920b-4645-847f-87e0b46915a6","ios":"levelo://app?vid=a24c4696-920b-4645-847f-87e0b46915a6"},"vehicle_type_id":"4","last_reported":1757862479,"current_range_meters":7200,"station_id":"","pricing_plan_id":"cebpf4jnsgd1na2vs0mg"},{"bike_id":"6ce1075d-41b6-4b1e-b4e4-60671be1d1bb","system_id":"levelo_inurba_marseille","lat":43.28416,"lon":5.34983,"is_reserved":false,"is_disabled":false,"rental_uris":{"android":"levelo://app?vid=6ce1075d-41b6-4b1e-b4e4-60671be1d1bb","ios":"levelo://app?vid=6ce1075d-41b6-4b1e-b4e4-60671be1d1bb"},"vehicle_type_id":"4","last_reported":1757862479,"current_range_meters":7200,"station_id":"ce4bhbh2rcd13ifvqepg","pricing_plan_id":"cebpf4jnsgd1na2vs0mg"},{"bike_id":"94f81f39-3c51-4c7c-9f88-5224c18d3bd6","system_id":"levelo_inurba_marseille","lat":43.318981,"lon":5.407208,"is_reserved":false,"is_disabled":false,"rental_uris":{"android":"levelo://app?vid=94f81f39-3c51-4c7c-9f88-5224c18d3bd6","ios":"levelo://app?vid=94f81f39-3c51-4c7c-9f88-5224c18d3bd6"},"vehicle_type_id":"4","last_reported":1757862479,"current_range_meters":7200,"station_id":"ce4bhq12rcd13ifvqhig","pricing_plan_id":"cebpf4jnsgd1na2vs0mg"},{"bike_id":"3902cec7-8b46-4f26-b764-865d6764818e","system_id":"levelo_inurba_marseille","lat":43.29768,"lon":5.37099,"is_reserved":false,"is_disabled":false,"rental_uris":{"android":"levelo://app?vid=3902cec7-8b46-4f26-b764-865d6764818e","ios":"levelo://app?vid=3902cec7-8b46-4f26-b764-865d6764818e"},"vehicle_type_id":"4","last_reported":1757862479,"current_range_meters":7200,"station_id":"ce4bgop2rcd13ifvqc1g","pricing_plan_id":"cebpf4jnsgd1na2vs0mg"},{"bike_id":"ffb10511-78b3-4cf6-94ce-c8b269384e29","system_id":"levelo_inurba_marseille","lat":43.29303,"lon":5.37174,"is_reserved":false,"is_disabled":false,"rental_uris":{"android":"levelo://app?vid=ffb10511-78b3-4cf6-94ce-c8b269384e29","ios":"levelo://app?vid=ffb10511-78b3-4cf6-94ce-c8b269384e29"},"vehicle_type_id":"4","last_reported":1757862479,"current_range_meters":7200,"station_id":"ce4bgh92rcd13ifvqb40","pricing_plan_id":"cebpf4jnsgd1na2vs0mg"},{"bike_id":"4cb5f2a0-80dd-45b1-ab8d-1c90daf16e7a","system_id":"levelo_inurba_marseille","lat":43.21742,"lon":5.34592,"is_reserved":false,"is_disabled":false,"rental_uris":{"android":"levelo://app?vid=4cb5f2a0-80dd-45b1-ab8d-1c90daf16e7a","ios":"levelo://app?vid=4cb5f2a0-80dd-45b1-ab8d-1c90daf16e7a"},"vehicle_type_id":"4","last_reported":1757862479,"current_range_meters":7200,"station_id":"st_cvj6r9ubvosntc0bgbag","pricing_plan_id":"cebpf4jnsgd1na2vs0mg"},{"bike_id":"d8b383c1-46da-4ab5-a2cb-a927d9ddd56c","system_id":"levelo_inurba_marseille","lat":43.30521,"lon":5.36549,"is_reserved":false,"is_disabled":false,"rental_uris":{"android":"levelo://app?vid=d8b383c1-46da-4ab5-a2cb-a927d9ddd56c","ios":"levelo://app?vid=d8b383c1-46da-4ab5-a2cb-a927d9ddd56c"},"vehicle_type_id":"4","last_reported":1757862479,"current_range_meters":8000,"station_id":"ce4bgs12rcd13ifvqcag","pricing_plan_id":"cebpf4jnsgd1na2vs0mg"},{"bike_id":"78c4761b-e3ff-483a-9df7-a29ffc7bdeb1","system_id":"levelo_inurba_marseille","lat":43.30151,"lon":5.38073,"is_reserved":false,"is_disabled":false,"rental_uris":{"android":"levelo://app?vid=78c4761b-e3ff-483a-9df7-a29ffc7bdeb1","ios":"levelo://app?vid=78c4761b-e3ff-483a-9df7-a29ffc7bdeb1"},"vehicle_type_id":"4","last_reported":1757862479,"current_range_meters":8000,"station_id":"ce4bgjp2rcd13ifvqbh0","pricing_plan_id":"cebpf4jnsgd1na2vs0mg"},{"bike_id":"fbcaa5be-76d1-41b1-8be1-f8ff6820e3ae","system_id":"levelo_inurba_marseille","lat":43.32339,"lon":5.4063,"is_reserved":false,"is_disabled":false,"rental_uris":{"android":"levelo://app?vid=fbcaa5be-76d1-41b1-8be1-f8ff6820e3ae","ios":"levelo://app?vid=fbcaa5be-76d1-41b1-8be1-f8ff6820e3ae"},"vehicle_type_id":"4","last_reported":1757862479,"current_range_meters":8000,"station_id":"ce4bhq92rcd13ifvqhjg","pricing_plan_id":"cebpf4jnsgd1na2vs0mg"},{"bike_id":"8c2c4ca1-e2d8-4cf6-94d6-963467695610","system_id":"levelo_inurba_marseille","lat":43.3113,"lon":5.38569,"is_reserved":false,"is_disabled":false,"rental_uris":{"android":"levelo://app?vid=8c2c4ca1-e2d8-4cf6-94d6-963467695610","ios":"levelo://app?vid=8c2c4ca1-e2d8-4cf6-94d6-963467695610"},"vehicle_type_id":"4","last_reported":1757862479,"current_range_meters":8000,"station_id":"","pricing_plan_id":"cebpf4jnsgd1na2vs0mg"},{"bike_id":"f0d99367-52d2-486f-8390-9ecc9706ae39","system_id":"levelo_inurba_marseille","lat":43.29622,"lon":5.3772,"is_reserved":false,"is_disabled":false,"rental_uris":{"android":"levelo://app?vid=f0d99367-52d2-486f-8390-9ecc9706ae39","ios":"levelo://app?vid=f0d99367-52d2-486f-8390-9ecc9706ae39"},"vehicle_type_id":"4","last_reported":1757862479,"current_range_meters":8000,"station_id":"ce4bgi92rcd13ifvqb90","pricing_plan_id":"cebpf4jnsgd1na2vs0mg"},{"bike_id":"463345a6-2d4f-4448-8488-9cab1efda713","system_id":"levelo_inurba_marseille","lat":43.25444,"lon":5.40138,"is_reserved":false,"is_disabled":false,"rental_uris":{"android":"levelo://app?vid=463345a6-2d4f-4448-8488-9cab1efda713","ios":"levelo://app?vid=463345a6-2d4f-4448-8488-9cab1efda713"},"vehicle_type_id":"4","last_reported":1757862479,"current_range_meters":8000,"station_id":"","pricing_plan_id":"cebpf4jnsgd1na2vs0mg"},{"bike_id":"596d3904-3526-405c-acd9-5bf6276cfea2","system_id":"levelo_inurba_marseille","lat":43.2549,"lon":5.37652,"is_reserved":false,"is_disabled":false,"rental_uris":{"android":"levelo://app?vid=596d3904-3526-405c-acd9-5bf6276cfea2","ios":"levelo://app?vid=596d3904-3526-405c-acd9-5bf6276cfea2"},"vehicle_type_id":"4","last_reported":1757862479,"current_range_meters":8000,"station_id":"ce4bhh12rcd13ifvqff0","pricing_plan_id":"cebpf4jnsgd1na2vs0mg"},{"bike_id":"421ad8a1-0975-4870-805f-7d686d45acab","system_id":"levelo_inurba_marseille","lat":43.28406,"lon":5.34967,"is_reserved":false,"is_disabled":false,"rental_uris":{"android":"levelo://app?vid=421ad8a1-0975-4870-805f-7d686d45acab","ios":"levelo://app?vid=421ad8a1-0975-4870-805f-7d686d45acab"},"vehicle_type_id":"4","last_reported":1757862479,"current_range_meters":8000,"station_id":"ce4bhbh2rcd13ifvqepg","pricing_plan_id":"cebpf4jnsgd1na2vs0mg"},{"bike_id":"5941cbe8-05b1-41c7-b1fa-a5efdc87904b","system_id":"levelo_inurba_marseille","lat":43.2862,"lon":5.35098,"is_reserved":false,"is_disabled":false,"rental_uris":{"android":"levelo://app?vid=5941cbe8-05b1-41c7-b1fa-a5efdc87904b","ios":"levelo://app?vid=5941cbe8-05b1-41c7-b1fa-a5efdc87904b"},"vehicle_type_id":"4","last_reported":1757862479,"current_range_meters":8000,"station_id":"ce4bhch2rcd13ifvqeug","pricing_plan_id":"cebpf4jnsgd1na2vs0mg"},{"bike_id":"eaa220fb-5349-44c0-849a-e1e199bab0e0","system_id":"levelo_inurba_marseille","lat":43.30461,"lon":5.36725,"is_reserved":false,"is_disabled":true,"rental_uris":{"android":"levelo://app?vid=eaa220fb-5349-44c0-849a-e1e199bab0e0","ios":"levelo://app?vid=eaa220fb-5349-44c0-849a-e1e199bab0e0"},"vehicle_type_id":"4","last_reported":1757862479,"current_range_meters":8400,"station_id":"","pricing_plan_id":"cebpf4jnsgd1na2vs0mg"},{"bike_id":"172ec5ba-f2c7-4dbe-aea5-a9ab112e0d51","system_id":"levelo_inurba_marseille","lat":43.29525,"lon":5.38548,"is_reserved":false,"is_disabled":false,"rental_uris":{"android":"levelo://app?vid=172ec5ba-f2c7-4dbe-aea5-a9ab112e0d51","ios":"levelo://app?vid=172ec5ba-f2c7-4dbe-aea5-a9ab112e0d51"},"vehicle_type_id":"4","last_reported":1757862479,"current_range_meters":8400,"station_id":"ce4bgih2rcd13ifvqba0","pricing_plan_id":"cebpf4jnsgd1na2vs0mg"},{"bike_id":"11cb9b20-172d-4502-9fe2-f6f294d683b2","system_id":"levelo_inurba_marseille","lat":43.27368,"lon":5.36256,"is_reserved":false,"is_disabled":false,"rental_uris":{"android":"levelo://app?vid=11cb9b20-172d-4502-9fe2-f6f294d683b2","ios":"levelo://app?vid=11cb9b20-172d-4502-9fe2-f6f294d683b2"},"vehicle_type_id":"4","last_reported":1757862479,"current_range_meters":8400,"station_id":"ce4bhbh2rcd13ifvqeo0","pricing_plan_id":"cebpf4jnsgd1na2vs0mg"},{"bike_id":"4891d751-b66c-4a3d-89d5-78926b795844","system_id":"levelo_inurba_marseille","lat":43.30255,"lon":5.44827,"is_reserved":false,"is_disabled":false,"rental_uris":{"android":"levelo://app?vid=4891d751-b66c-4a3d-89d5-78926b795844","ios":"levelo://app?vid=4891d751-b66c-4a3d-89d5-78926b795844"},"vehicle_type_id":"4","last_reported":1757862479,"current_range_meters":8400,"station_id":"","pricing_plan_id":"cebpf4jnsgd1na2vs0mg"},{"bike_id":"84be000e-b186-4e60-8aaa-b7a0f42a7175","system_id":"levelo_inurba_marseille","lat":43.337616,"lon":5.374353,"is_reserved":false,"is_disabled":false,"rental_uris":{"android":"levelo://app?vid=84be000e-b186-4e60-8aaa-b7a0f42a7175","ios":"levelo://app?vid=84be000e-b186-4e60-8aaa-b7a0f42a7175"},"vehicle_type_id":"4","last_reported":1757862479,"current_range_meters":8400,"station_id":"","pricing_plan_id":"cebpf4jnsgd1na2vs0mg"},{"bike_id":"78f84639-56f9-4c15-8768-49ed5cee722d","system_id":"levelo_inurba_marseille","lat":43.2602,"lon":5.37555,"is_reserved":false,"is_disabled":true,"rental_uris":{"android":"levelo://app?vid=78f84639-56f9-4c15-8768-49ed5cee722d","ios":"levelo://app?vid=78f84639-56f9-4c15-8768-49ed5cee722d"},"vehicle_type_id":"4","last_reported":1757862479,"current_range_meters":8400,"station_id":"ce4bhgh2rcd13ifvqfa0","pricing_plan_id":"cebpf4jnsgd1na2vs0mg"},{"bike_id":"40ac544e-ff5d-462e-860a-9cd1fec8b397","system_id":"levelo_inurba_marseille","lat":43.24799,"lon":5.37468,"is_reserved":false,"is_disabled":false,"rental_uris":{"android":"levelo://app?vid=40ac544e-ff5d-462e-860a-9cd1fec8b397","ios":"levelo://app?vid=40ac544e-ff5d-462e-860a-9cd1fec8b397"},"vehicle_type_id":"4","last_reported":1757862479,"current_range_meters":8400,"station_id":"ce4bhgh2rcd13ifvqfb0","pricing_plan_id":"cebpf4jnsgd1na2vs0mg"},{"bike_id":"5215e896-bb19-404d-b7e3-dcfcfa299dd4","system_id":"levelo_inurba_marseille","lat":43.23062,"lon":5.35488,"is_reserved":false,"is_disabled":false,"rental_uris":{"android":"levelo://app?vid=5215e896-bb19-404d-b7e3-dcfcfa299dd4","ios":"levelo://app?vid=5215e896-bb19-404d-b7e3-dcfcfa299dd4"},"vehicle_type_id":"4","last_reported":1757862479,"current_range_meters":8800,"station_id":"cpo3342slgdg3j2ifvpg","pricing_plan_id":"cebpf4jnsgd1na2vs0mg"},{"bike_id":"a1bcdbdb-d4d4-4df3-a93c-5f4c7b4e51bf","system_id":"levelo_inurba_marseille","lat":43.30618,"lon":5.36583,"is_reserved":false,"is_disabled":false,"rental_uris":{"android":"levelo://app?vid=a1bcdbdb-d4d4-4df3-a93c-5f4c7b4e51bf","ios":"levelo://app?vid=a1bcdbdb-d4d4-4df3-a93c-5f4c7b4e51bf"},"vehicle_type_id":"4","last_reported":1757862479,"current_range_meters":8800,"station_id":"","pricing_plan_id":"cebpf4jnsgd1na2vs0mg"},{"bike_id":"0835212b-a354-41e2-ae36-bbfc0a086195","system_id":"levelo_inurba_marseille","lat":43.30278,"lon":5.377,"is_reserved":false,"is_disabled":false,"rental_uris":{"android":"levelo://app?vid=0835212b-a354-41e2-ae36-bbfc0a086195","ios":"levelo://app?vid=0835212b-a354-41e2-ae36-bbfc0a086195"},"vehicle_type_id":"4","last_reported":1757862479,"current_range_meters":8800,"station_id":"ce4bguh2rcd13ifvqcj0","pricing_plan_id":"cebpf4jnsgd1na2vs0mg"},{"bike_id":"d449723d-686f-4346-82da-983ae5973c06","system_id":"levelo_inurba_marseille","lat":43.24071,"lon":5.37759,"is_reserved":false,"is_disabled":false,"rental_uris":{"android":"levelo://app?vid=d449723d-686f-4346-82da-983ae5973c06","ios":"levelo://app?vid=d449723d-686f-4346-82da-983ae5973c06"},"vehicle_type_id":"4","last_reported":1757862479,"current_range_meters":8800,"station_id":"ce4bhnp2rcd13ifvqgvg","pricing_plan_id":"cebpf4jnsgd1na2vs0mg"},{"bike_id":"37080b01-5194-4b6d-b2d2-45dc695aaaa1","system_id":"levelo_inurba_marseille","lat":43.30926,"lon":5.40142,"is_reserved":false,"is_disabled":false,"rental_uris":{"android":"levelo://app?vid=37080b01-5194-4b6d-b2d2-45dc695aaaa1","ios":"levelo://app?vid=37080b01-5194-4b6d-b2d2-45dc695aaaa1"},"vehicle_type_id":"4","last_reported":1757862479,"current_range_meters":8800,"station_id":"ce4bgvp2rcd13ifvqct0","pricing_plan_id":"cebpf4jnsgd1na2vs0mg"},{"bike_id":"38193a70-2ce0-4df3-8e83-dbda80bb6624","system_id":"levelo_inurba_marseille","lat":43.30133,"lon":5.39867,"is_reserved":false,"is_disabled":false,"rental_uris":{"android":"levelo://app?vid=38193a70-2ce0-4df3-8e83-dbda80bb6624","ios":"levelo://app?vid=38193a70-2ce0-4df3-8e83-dbda80bb6624"},"vehicle_type_id":"4","last_reported":1757862479,"current_range_meters":8800,"station_id":"","pricing_plan_id":"cebpf4jnsgd1na2vs0mg"},{"bike_id":"6aacc5fe-dda9-4650-a0be-78def261cdd5","system_id":"levelo_inurba_marseille","lat":43.29026,"lon":5.38637,"is_reserved":false,"is_disabled":false,"rental_uris":{"android":"levelo://app?vid=6aacc5fe-dda9-4650-a0be-78def261cdd5","ios":"levelo://app?vid=6aacc5fe-dda9-4650-a0be-78def261cdd5"},"vehicle_type_id":"4","last_reported":1757862479,"current_range_meters":8800,"station_id":"ce4bh4p2rcd13ifvqe0g","pricing_plan_id":"cebpf4jnsgd1na2vs0mg"},{"bike_id":"d5c98035-fc72-4062-a3ec-13203f68e8ed","system_id":"levelo_inurba_marseille","lat":43.28859,"lon":5.42501,"is_reserved":false,"is_disabled":false,"rental_uris":{"android":"levelo://app?vid=d5c98035-fc72-4062-a3ec-13203f68e8ed","ios":"levelo://app?vid=d5c98035-fc72-4062-a3ec-13203f68e8ed"},"vehicle_type_id":"4","last_reported":1757862479,"current_range_meters":8800,"station_id":"","pricing_plan_id":"cebpf4jnsgd1na2vs0mg"},{"bike_id":"02dbb44c-70e3-4a7a-b86e-6159cc35ba47","system_id":"levelo_inurba_marseille","lat":43.29587,"lon":5.38689,"is_reserved":false,"is_disabled":false,"rental_uris":{"android":"levelo://app?vid=02dbb44c-70e3-4a7a-b86e-6159cc35ba47","ios":"levelo://app?vid=02dbb44c-70e3-4a7a-b86e-6159cc35ba47"},"vehicle_type_id":"4","last_reported":1757862479,"current_range_meters":8800,"station_id":"ce4bgih2rcd13ifvqba0","pricing_plan_id":"cebpf4jnsgd1na2vs0mg"},{"bike_id":"11a618ea-a101-48f8-bfbd-dd81c5f8fe9b","system_id":"levelo_inurba_marseille","lat":43.31357,"lon":5.38494,"is_reserved":false,"is_disabled":false,"rental_uris":{"android":"levelo://app?vid=11a618ea-a101-48f8-bfbd-dd81c5f8fe9b","ios":"levelo://app?vid=11a618ea-a101-48f8-bfbd-dd81c5f8fe9b"},"vehicle_type_id":"4","last_reported":1757862479,"current_range_meters":8800,"station_id":"ce4bgt92rcd13ifvqcf0","pricing_plan_id":"cebpf4jnsgd1na2vs0mg"},{"bike_id":"58e4d2c3-ca5a-414f-acc3-c631f749869c","system_id":"levelo_inurba_marseille","lat":43.31357,"lon":5.38495,"is_reserved":false,"is_disabled":true,"rental_uris":{"android":"levelo://app?vid=58e4d2c3-ca5a-414f-acc3-c631f749869c","ios":"levelo://app?vid=58e4d2c3-ca5a-414f-acc3-c631f749869c"},"vehicle_type_id":"4","last_reported":1757862479,"current_range_meters":9200,"station_id":"ce4bgt92rcd13ifvqcf0","pricing_plan_id":"cebpf4jnsgd1na2vs0mg"},{"bike_id":"6515536f-56de-4109-b7a1-24c742aed225","system_id":"levelo_inurba_marseille","lat":43.31997,"lon":5.37234,"is_reserved":false,"is_disabled":false,"rental_uris":{"android":"levelo://app?vid=6515536f-56de-4109-b7a1-24c742aed225","ios":"levelo://app?vid=6515536f-56de-4109-b7a1-24c742aed225"},"vehicle_type_id":"4","last_reported":1757862479,"current_range_meters":9200,"station_id":"","pricing_plan_id":"cebpf4jnsgd1na2vs0mg"},{"bike_id":"55d59e02-f5a5-4e1a-9360-556e842fa2a4","system_id":"levelo_inurba_marseille","lat":43.33764,"lon":5.37496,"is_reserved":false,"is_disabled":false,"rental_uris":{"android":"levelo://app?vid=55d59e02-f5a5-4e1a-9360-556e842fa2a4","ios":"levelo://app?vid=55d59e02-f5a5-4e1a-9360-556e842fa2a4"},"vehicle_type_id":"4","last_reported":1757862479,"current_range_meters":9200,"station_id":"","pricing_plan_id":"cebpf4jnsgd1na2vs0mg"},{"bike_id":"182289c1-d8ed-492c-a287-70c8f4e5e1b2","system_id":"levelo_inurba_marseille","lat":43.32371,"lon":5.38874,"is_reserved":false,"is_disabled":false,"rental_uris":{"android":"levelo://app?vid=182289c1-d8ed-492c-a287-70c8f4e5e1b2","ios":"levelo://app?vid=182289c1-d8ed-492c-a287-70c8f4e5e1b2"},"vehicle_type_id":"4","last_reported":1757862479,"current_range_meters":9200,"station_id":"ce4bhqp2rcd13ifvqhog","pricing_plan_id":"cebpf4jnsgd1na2vs0mg"},{"bike_id":"1c3c9ec8-ab6b-498f-a32d-4ab338ab6cb2","system_id":"levelo_inurba_marseille","lat":43.2827,"lon":5.35064,"is_reserved":false,"is_disabled":false,"rental_uris":{"android":"levelo://app?vid=1c3c9ec8-ab6b-498f-a32d-4ab338ab6cb2","ios":"levelo://app?vid=1c3c9ec8-ab6b-498f-a32d-4ab338ab6cb2"},"vehicle_type_id":"4","last_reported":1757862479,"current_range_meters":9200,"station_id":"ce4bhbp2rcd13ifvqerg","pricing_plan_id":"cebpf4jnsgd1na2vs0mg"},{"bike_id":"406f6607-363d-4cf0-95ae-26829ed0307c","system_id":"levelo_inurba_marseille","lat":43.26219,"lon":5.40451,"is_reserved":false,"is_disabled":true,"rental_uris":{"android":"levelo://app?vid=406f6607-363d-4cf0-95ae-26829ed0307c","ios":"levelo://app?vid=406f6607-363d-4cf0-95ae-26829ed0307c"},"vehicle_type_id":"4","last_reported":1757862479,"current_range_meters":9200,"station_id":"ce4bhmh2rcd13ifvqgmg","pricing_plan_id":"cebpf4jnsgd1na2vs0mg"},{"bike_id":"6622dc9c-3b32-423a-ae57-d6f7f267b88f","system_id":"levelo_inurba_marseille","lat":43.28482,"lon":5.38557,"is_reserved":false,"is_disabled":false,"rental_uris":{"android":"levelo://app?vid=6622dc9c-3b32-423a-ae57-d6f7f267b88f","ios":"levelo://app?vid=6622dc9c-3b32-423a-ae57-d6f7f267b88f"},"vehicle_type_id":"4","last_reported":1757862479,"current_range_meters":9200,"station_id":"ce4bh8p2rcd13ifvqeb0","pricing_plan_id":"cebpf4jnsgd1na2vs0mg"},{"bike_id":"af855c88-100f-429f-ba0c-3dad51b30928","system_id":"levelo_inurba_marseille","lat":43.21194,"lon":5.35069,"is_reserved":false,"is_disabled":true,"rental_uris":{"android":"levelo://app?vid=af855c88-100f-429f-ba0c-3dad51b30928","ios":"levelo://app?vid=af855c88-100f-429f-ba0c-3dad51b30928"},"vehicle_type_id":"4","last_reported":1757862479,"current_range_meters":9600,"station_id":"","pricing_plan_id":"cebpf4jnsgd1na2vs0mg"},{"bike_id":"49e09061-fa7e-430c-b2a4-fcc34d072b44","system_id":"levelo_inurba_marseille","lat":43.26135,"lon":5.37502,"is_reserved":false,"is_disabled":false,"rental_uris":{"android":"levelo://app?vid=49e09061-fa7e-430c-b2a4-fcc34d072b44","ios":"levelo://app?vid=49e09061-fa7e-430c-b2a4-fcc34d072b44"},"vehicle_type_id":"4","last_reported":1757862479,"current_range_meters":9600,"station_id":"","pricing_plan_id":"cebpf4jnsgd1na2vs0mg"},{"bike_id":"3c9a8a95-033f-4825-94f6-d7495977b674","system_id":"levelo_inurba_marseille","lat":43.28266,"lon":5.35067,"is_reserved":false,"is_disabled":false,"rental_uris":{"android":"levelo://app?vid=3c9a8a95-033f-4825-94f6-d7495977b674","ios":"levelo://app?vid=3c9a8a95-033f-4825-94f6-d7495977b674"},"vehicle_type_id":"4","last_reported":1757862479,"current_range_meters":9600,"station_id":"ce4bhbp2rcd13ifvqerg","pricing_plan_id":"cebpf4jnsgd1na2vs0mg"},{"bike_id":"e4f2a232-cae3-4b97-8491-6bba185d6f8a","system_id":"levelo_inurba_marseille","lat":43.28668,"lon":5.38673,"is_reserved":false,"is_disabled":false,"rental_uris":{"android":"levelo://app?vid=e4f2a232-cae3-4b97-8491-6bba185d6f8a","ios":"levelo://app?vid=e4f2a232-cae3-4b97-8491-6bba185d6f8a"},"vehicle_type_id":"4","last_reported":1757862479,"current_range_meters":9600,"station_id":"ce4bh492rcd13ifvqdug","pricing_plan_id":"cebpf4jnsgd1na2vs0mg"},{"bike_id":"d5fe8587-d577-4927-9f03-bf5f1fa338f3","system_id":"levelo_inurba_marseille","lat":43.32575,"lon":5.37562,"is_reserved":false,"is_disabled":false,"rental_uris":{"android":"levelo://app?vid=d5fe8587-d577-4927-9f03-bf5f1fa338f3","ios":"levelo://app?vid=d5fe8587-d577-4927-9f03-bf5f1fa338f3"},"vehicle_type_id":"4","last_reported":1757862479,"current_range_meters":9600,"station_id":"","pricing_plan_id":"cebpf4jnsgd1na2vs0mg"},{"bike_id":"20fee8fc-fb92-4c0f-9535-a2749893db72","system_id":"levelo_inurba_marseille","lat":43.2119,"lon":5.35072,"is_reserved":false,"is_disabled":false,"rental_uris":{"android":"levelo://app?vid=20fee8fc-fb92-4c0f-9535-a2749893db72","ios":"levelo://app?vid=20fee8fc-fb92-4c0f-9535-a2749893db72"},"vehicle_type_id":"4","last_reported":1757862479,"current_range_meters":9600,"station_id":"st_cvj6sg6p6f1abm77japg","pricing_plan_id":"cebpf4jnsgd1na2vs0mg"},{"bike_id":"5a911145-b84b-420d-bc81-9bcc5d942f2f","system_id":"levelo_inurba_marseille","lat":43.2904,"lon":5.35902,"is_reserved":false,"is_disabled":false,"rental_uris":{"android":"levelo://app?vid=5a911145-b84b-420d-bc81-9bcc5d942f2f","ios":"levelo://app?vid=5a911145-b84b-420d-bc81-9bcc5d942f2f"},"vehicle_type_id":"4","last_reported":1757862479,"current_range_meters":9600,"station_id":"ce4bha92rcd13ifvqeg0","pricing_plan_id":"cebpf4jnsgd1na2vs0mg"},{"bike_id":"d9c11a94-d122-4240-b95b-24fdee8810ac","system_id":"levelo_inurba_marseille","lat":43.28276,"lon":5.39883,"is_reserved":false,"is_disabled":false,"rental_uris":{"android":"levelo://app?vid=d9c11a94-d122-4240-b95b-24fdee8810ac","ios":"levelo://app?vid=d9c11a94-d122-4240-b95b-24fdee8810ac"},"vehicle_type_id":"4","last_reported":1757862479,"current_range_meters":9600,"station_id":"","pricing_plan_id":"cebpf4jnsgd1na2vs0mg"},{"bike_id":"31f4578e-18c6-48fb-9fec-123fce0578f9","system_id":"levelo_inurba_marseille","lat":43.33783,"lon":5.37429,"is_reserved":false,"is_disabled":false,"rental_uris":{"android":"levelo://app?vid=31f4578e-18c6-48fb-9fec-123fce0578f9","ios":"levelo://app?vid=31f4578e-18c6-48fb-9fec-123fce0578f9"},"vehicle_type_id":"4","last_reported":1757862479,"current_range_meters":9600,"station_id":"","pricing_plan_id":"cebpf4jnsgd1na2vs0mg"},{"bike_id":"fe5429c7-3bc4-4ceb-ba41-e248808b40d2","system_id":"levelo_inurba_marseille","lat":43.2952,"lon":5.39033,"is_reserved":false,"is_disabled":false,"rental_uris":{"android":"levelo://app?vid=fe5429c7-3bc4-4ceb-ba41-e248808b40d2","ios":"levelo://app?vid=fe5429c7-3bc4-4ceb-ba41-e248808b40d2"},"vehicle_type_id":"4","last_reported":1757862479,"current_range_meters":9600,"station_id":"ce4bh3p2rcd13ifvqdp0","pricing_plan_id":"cebpf4jnsgd1na2vs0mg"},{"bike_id":"96aff586-d263-498b-83d6-0e34ff2bdbba","system_id":"levelo_inurba_marseille","lat":43.23962,"lon":5.36642,"is_reserved":false,"is_disabled":false,"rental_uris":{"android":"levelo://app?vid=96aff586-d263-498b-83d6-0e34ff2bdbba","ios":"levelo://app?vid=96aff586-d263-498b-83d6-0e34ff2bdbba"},"vehicle_type_id":"4","last_reported":1757862479,"current_range_meters":9600,"station_id":"ce4bhi12rcd13ifvqfp0","pricing_plan_id":"cebpf4jnsgd1na2vs0mg"},{"bike_id":"974e0192-4f9e-4803-b6bc-e5f6e12940e1","system_id":"levelo_inurba_marseille","lat":43.316765,"lon":5.389165,"is_reserved":false,"is_disabled":false,"rental_uris":{"android":"levelo://app?vid=974e0192-4f9e-4803-b6bc-e5f6e12940e1","ios":"levelo://app?vid=974e0192-4f9e-4803-b6bc-e5f6e12940e1"},"vehicle_type_id":"4","last_reported":1757862479,"current_range_meters":10000,"station_id":"","pricing_plan_id":"cebpf4jnsgd1na2vs0mg"},{"bike_id":"cd104b68-7370-4e88-ba9c-1edeee0f6c77","system_id":"levelo_inurba_marseille","lat":43.25231,"lon":5.42516,"is_reserved":false,"is_disabled":true,"rental_uris":{"android":"levelo://app?vid=cd104b68-7370-4e88-ba9c-1edeee0f6c77","ios":"levelo://app?vid=cd104b68-7370-4e88-ba9c-1edeee0f6c77"},"vehicle_type_id":"4","last_reported":1757862479,"current_range_meters":10000,"station_id":"","pricing_plan_id":"cebpf4jnsgd1na2vs0mg"},{"bike_id":"a6bb5433-9262-4693-ac9f-ce47017b4d18","system_id":"levelo_inurba_marseille","lat":43.2119,"lon":5.35061,"is_reserved":false,"is_disabled":false,"rental_uris":{"android":"levelo://app?vid=a6bb5433-9262-4693-ac9f-ce47017b4d18","ios":"levelo://app?vid=a6bb5433-9262-4693-ac9f-ce47017b4d18"},"vehicle_type_id":"4","last_reported":1757862479,"current_range_meters":10000,"station_id":"st_cvj6sg6p6f1abm77japg","pricing_plan_id":"cebpf4jnsgd1na2vs0mg"},{"bike_id":"7e6f8834-af2a-4c33-8175-0cff373c8e02","system_id":"levelo_inurba_marseille","lat":43.28343,"lon":5.3862,"is_reserved":false,"is_disabled":false,"rental_uris":{"android":"levelo://app?vid=7e6f8834-af2a-4c33-8175-0cff373c8e02","ios":"levelo://app?vid=7e6f8834-af2a-4c33-8175-0cff373c8e02"},"vehicle_type_id":"4","last_reported":1757862479,"current_range_meters":10000,"station_id":"ce4bh492rcd13ifvqdvg","pricing_plan_id":"cebpf4jnsgd1na2vs0mg"},{"bike_id":"ee42c31a-b74b-4b2d-917a-cd50dc10c6ce","system_id":"levelo_inurba_marseille","lat":43.32928,"lon":5.38967,"is_reserved":false,"is_disabled":false,"rental_uris":{"android":"levelo://app?vid=ee42c31a-b74b-4b2d-917a-cd50dc10c6ce","ios":"levelo://app?vid=ee42c31a-b74b-4b2d-917a-cd50dc10c6ce"},"vehicle_type_id":"4","last_reported":1757862479,"current_range_meters":10000,"station_id":"","pricing_plan_id":"cebpf4jnsgd1na2vs0mg"},{"bike_id":"843f7bb9-0ca9-4e64-b575-b5edf549fd80","system_id":"levelo_inurba_marseille","lat":43.29006,"lon":5.35607,"is_reserved":false,"is_disabled":false,"rental_uris":{"android":"levelo://app?vid=843f7bb9-0ca9-4e64-b575-b5edf549fd80","ios":"levelo://app?vid=843f7bb9-0ca9-4e64-b575-b5edf549fd80"},"vehicle_type_id":"4","last_reported":1757862479,"current_range_meters":10000,"station_id":"ce4bhb92rcd13ifvqen0","pricing_plan_id":"cebpf4jnsgd1na2vs0mg"},{"bike_id":"f07d1a34-6972-4c1d-8ed8-100dd0fc1e78","system_id":"levelo_inurba_marseille","lat":43.32985,"lon":5.39052,"is_reserved":false,"is_disabled":false,"rental_uris":{"android":"levelo://app?vid=f07d1a34-6972-4c1d-8ed8-100dd0fc1e78","ios":"levelo://app?vid=f07d1a34-6972-4c1d-8ed8-100dd0fc1e78"},"vehicle_type_id":"4","last_reported":1757862479,"current_range_meters":10000,"station_id":"ce4bhr92rcd13ifvqhrg","pricing_plan_id":"cebpf4jnsgd1na2vs0mg"},{"bike_id":"f054a220-2a11-4bfe-9898-2b390f50b412","system_id":"levelo_inurba_marseille","lat":43.284767,"lon":5.384171,"is_reserved":false,"is_disabled":true,"rental_uris":{"android":"levelo://app?vid=f054a220-2a11-4bfe-9898-2b390f50b412","ios":"levelo://app?vid=f054a220-2a11-4bfe-9898-2b390f50b412"},"vehicle_type_id":"4","last_reported":1757862479,"current_range_meters":10000,"station_id":"ce4bh512rcd13ifvqe3g","pricing_plan_id":"cebpf4jnsgd1na2vs0mg"},{"bike_id":"54756892-40fc-40da-862a-36f475f86070","system_id":"levelo_inurba_marseille","lat":43.29673,"lon":5.37144,"is_reserved":false,"is_disabled":false,"rental_uris":{"android":"levelo://app?vid=54756892-40fc-40da-862a-36f475f86070","ios":"levelo://app?vid=54756892-40fc-40da-862a-36f475f86070"},"vehicle_type_id":"4","last_reported":1757862479,"current_range_meters":10000,"station_id":"","pricing_plan_id":"cebpf4jnsgd1na2vs0mg"},{"bike_id":"df41bfb5-751e-4d4d-9862-e3f77512c772","system_id":"levelo_inurba_marseille","lat":43.29556,"lon":5.42273,"is_reserved":false,"is_disabled":false,"rental_uris":{"android":"levelo://app?vid=df41bfb5-751e-4d4d-9862-e3f77512c772","ios":"levelo://app?vid=df41bfb5-751e-4d4d-9862-e3f77512c772"},"vehicle_type_id":"4","last_reported":1757862479,"current_range_meters":10800,"station_id":"ce4bhph2rcd13ifvqhdg","pricing_plan_id":"cebpf4jnsgd1na2vs0mg"},{"bike_id":"81178cdb-131f-42bb-a25b-f1ff353f6fb2","system_id":"levelo_inurba_marseille","lat":43.28406,"lon":5.34971,"is_reserved":false,"is_disabled":false,"rental_uris":{"android":"levelo://app?vid=81178cdb-131f-42bb-a25b-f1ff353f6fb2","ios":"levelo://app?vid=81178cdb-131f-42bb-a25b-f1ff353f6fb2"},"vehicle_type_id":"4","last_reported":1757862479,"current_range_meters":10800,"station_id":"ce4bhbh2rcd13ifvqepg","pricing_plan_id":"cebpf4jnsgd1na2vs0mg"},{"bike_id":"2a2497be-b987-492b-a17c-d497933a8aed","system_id":"levelo_inurba_marseille","lat":43.32276,"lon":5.36583,"is_reserved":false,"is_disabled":false,"rental_uris":{"android":"levelo://app?vid=2a2497be-b987-492b-a17c-d497933a8aed","ios":"levelo://app?vid=2a2497be-b987-492b-a17c-d497933a8aed"},"vehicle_type_id":"4","last_reported":1757862479,"current_range_meters":10800,"station_id":"","pricing_plan_id":"cebpf4jnsgd1na2vs0mg"},{"bike_id":"24486260-c949-4fa0-999a-d6c3ecab05ec","system_id":"levelo_inurba_marseille","lat":43.32364,"lon":5.3677,"is_reserved":false,"is_disabled":false,"rental_uris":{"android":"levelo://app?vid=24486260-c949-4fa0-999a-d6c3ecab05ec","ios":"levelo://app?vid=24486260-c949-4fa0-999a-d6c3ecab05ec"},"vehicle_type_id":"4","last_reported":1757862479,"current_range_meters":10800,"station_id":"ce4bhsh2rcd13ifvqi2g","pricing_plan_id":"cebpf4jnsgd1na2vs0mg"},{"bike_id":"16572620-16f0-40a6-8afc-79d0b1846f64","system_id":"levelo_inurba_marseille","lat":43.28186,"lon":5.42592,"is_reserved":false,"is_disabled":false,"rental_uris":{"android":"levelo://app?vid=16572620-16f0-40a6-8afc-79d0b1846f64","ios":"levelo://app?vid=16572620-16f0-40a6-8afc-79d0b1846f64"},"vehicle_type_id":"4","last_reported":1757862479,"current_range_meters":10800,"station_id":"","pricing_plan_id":"cebpf4jnsgd1na2vs0mg"},{"bike_id":"c3b80fbf-ffbe-4a88-8ee1-f810535f1272","system_id":"levelo_inurba_marseille","lat":43.28416,"lon":5.37507,"is_reserved":false,"is_disabled":false,"rental_uris":{"android":"levelo://app?vid=c3b80fbf-ffbe-4a88-8ee1-f810535f1272","ios":"levelo://app?vid=c3b80fbf-ffbe-4a88-8ee1-f810535f1272"},"vehicle_type_id":"4","last_reported":1757862479,"current_range_meters":10800,"station_id":"ce4bh412rcd13ifvqds0","pricing_plan_id":"cebpf4jnsgd1na2vs0mg"},{"bike_id":"c9cfbcbf-ff29-46f9-82f8-c351091b2f90","system_id":"levelo_inurba_marseille","lat":43.30145,"lon":5.38074,"is_reserved":false,"is_disabled":false,"rental_uris":{"android":"levelo://app?vid=c9cfbcbf-ff29-46f9-82f8-c351091b2f90","ios":"levelo://app?vid=c9cfbcbf-ff29-46f9-82f8-c351091b2f90"},"vehicle_type_id":"4","last_reported":1757862479,"current_range_meters":10800,"station_id":"ce4bgjp2rcd13ifvqbh0","pricing_plan_id":"cebpf4jnsgd1na2vs0mg"},{"bike_id":"c5cba6d7-e282-4417-a818-5fc0802dcb08","system_id":"levelo_inurba_marseille","lat":43.33761,"lon":5.3745,"is_reserved":false,"is_disabled":false,"rental_uris":{"android":"levelo://app?vid=c5cba6d7-e282-4417-a818-5fc0802dcb08","ios":"levelo://app?vid=c5cba6d7-e282-4417-a818-5fc0802dcb08"},"vehicle_type_id":"4","last_reported":1757862479,"current_range_meters":10800,"station_id":"","pricing_plan_id":"cebpf4jnsgd1na2vs0mg"},{"bike_id":"d16230ff-2955-426b-a6aa-84f8e2e13648","system_id":"levelo_inurba_marseille","lat":43.28865,"lon":5.42503,"is_reserved":false,"is_disabled":false,"rental_uris":{"android":"levelo://app?vid=d16230ff-2955-426b-a6aa-84f8e2e13648","ios":"levelo://app?vid=d16230ff-2955-426b-a6aa-84f8e2e13648"},"vehicle_type_id":"4","last_reported":1757862479,"current_range_meters":10800,"station_id":"","pricing_plan_id":"cebpf4jnsgd1na2vs0mg"},{"bike_id":"e7a329bd-ed66-4ac7-aaba-63f2810ddd86","system_id":"levelo_inurba_marseille","lat":43.31917,"lon":5.37203,"is_reserved":false,"is_disabled":false,"rental_uris":{"android":"levelo://app?vid=e7a329bd-ed66-4ac7-aaba-63f2810ddd86","ios":"levelo://app?vid=e7a329bd-ed66-4ac7-aaba-63f2810ddd86"},"vehicle_type_id":"4","last_reported":1757862479,"current_range_meters":11200,"station_id":"","pricing_plan_id":"cebpf4jnsgd1na2vs0mg"},{"bike_id":"73b0458f-7154-48e9-b327-1d1d515a2ff6","system_id":"levelo_inurba_marseille","lat":43.23972,"lon":5.36626,"is_reserved":false,"is_disabled":false,"rental_uris":{"android":"levelo://app?vid=73b0458f-7154-48e9-b327-1d1d515a2ff6","ios":"levelo://app?vid=73b0458f-7154-48e9-b327-1d1d515a2ff6"},"vehicle_type_id":"4","last_reported":1757862479,"current_range_meters":11200,"station_id":"ce4bhi12rcd13ifvqfp0","pricing_plan_id":"cebpf4jnsgd1na2vs0mg"},{"bike_id":"c682ef70-00bc-4415-9b10-9a35bd5ddcc1","system_id":"levelo_inurba_marseille","lat":43.27498,"lon":5.42447,"is_reserved":false,"is_disabled":false,"rental_uris":{"android":"levelo://app?vid=c682ef70-00bc-4415-9b10-9a35bd5ddcc1","ios":"levelo://app?vid=c682ef70-00bc-4415-9b10-9a35bd5ddcc1"},"vehicle_type_id":"4","last_reported":1757862479,"current_range_meters":11600,"station_id":"ce4bhn92rcd13ifvqgrg","pricing_plan_id":"cebpf4jnsgd1na2vs0mg"},{"bike_id":"5c1e55d9-decd-426f-89d8-b98a558f3809","system_id":"levelo_inurba_marseille","lat":43.31695,"lon":5.40474,"is_reserved":false,"is_disabled":true,"rental_uris":{"android":"levelo://app?vid=5c1e55d9-decd-426f-89d8-b98a558f3809","ios":"levelo://app?vid=5c1e55d9-decd-426f-89d8-b98a558f3809"},"vehicle_type_id":"4","last_reported":1757862479,"current_range_meters":11600,"station_id":"ce4bh012rcd13ifvqd00","pricing_plan_id":"cebpf4jnsgd1na2vs0mg"},{"bike_id":"e4c9556c-a778-4324-8394-b64a687eb9f9","system_id":"levelo_inurba_marseille","lat":43.29036,"lon":5.38126,"is_reserved":false,"is_disabled":false,"rental_uris":{"android":"levelo://app?vid=e4c9556c-a778-4324-8394-b64a687eb9f9","ios":"levelo://app?vid=e4c9556c-a778-4324-8394-b64a687eb9f9"},"vehicle_type_id":"4","last_reported":1757862479,"current_range_meters":11200,"station_id":"ce4bh4p2rcd13ifvqe1g","pricing_plan_id":"cebpf4jnsgd1na2vs0mg"},{"bike_id":"2f10d643-d5be-40f3-be65-91b231ef05ac","system_id":"levelo_inurba_marseille","lat":43.286926,"lon":5.373902,"is_reserved":false,"is_disabled":false,"rental_uris":{"android":"levelo://app?vid=2f10d643-d5be-40f3-be65-91b231ef05ac","ios":"levelo://app?vid=2f10d643-d5be-40f3-be65-91b231ef05ac"},"vehicle_type_id":"4","last_reported":1757862479,"current_range_meters":11600,"station_id":"ce4bh3p2rcd13ifvqdq0","pricing_plan_id":"cebpf4jnsgd1na2vs0mg"},{"bike_id":"983b2d9f-7a9e-48b6-8c31-9efa827e7882","system_id":"levelo_inurba_marseille","lat":43.30148,"lon":5.38082,"is_reserved":false,"is_disabled":false,"rental_uris":{"android":"levelo://app?vid=983b2d9f-7a9e-48b6-8c31-9efa827e7882","ios":"levelo://app?vid=983b2d9f-7a9e-48b6-8c31-9efa827e7882"},"vehicle_type_id":"4","last_reported":1757862479,"current_range_meters":11600,"station_id":"ce4bgjp2rcd13ifvqbh0","pricing_plan_id":"cebpf4jnsgd1na2vs0mg"},{"bike_id":"3bc338fd-b3c5-4caa-b6e6-3c70a52689ba","system_id":"levelo_inurba_marseille","lat":43.31507,"lon":5.38844,"is_reserved":false,"is_disabled":false,"rental_uris":{"android":"levelo://app?vid=3bc338fd-b3c5-4caa-b6e6-3c70a52689ba","ios":"levelo://app?vid=3bc338fd-b3c5-4caa-b6e6-3c70a52689ba"},"vehicle_type_id":"4","last_reported":1757862479,"current_range_meters":11600,"station_id":"","pricing_plan_id":"cebpf4jnsgd1na2vs0mg"},{"bike_id":"61242a27-0db1-42cc-9fb5-dd86bf5c6a93","system_id":"levelo_inurba_marseille","lat":43.24646,"lon":5.38896,"is_reserved":false,"is_disabled":false,"rental_uris":{"android":"levelo://app?vid=61242a27-0db1-42cc-9fb5-dd86bf5c6a93","ios":"levelo://app?vid=61242a27-0db1-42cc-9fb5-dd86bf5c6a93"},"vehicle_type_id":"4","last_reported":1757862479,"current_range_meters":11600,"station_id":"ce4bhg12rcd13ifvqf60","pricing_plan_id":"cebpf4jnsgd1na2vs0mg"},{"bike_id":"5b08033c-e596-407a-ada4-49eb3a516099","system_id":"levelo_inurba_marseille","lat":43.25826,"lon":5.39411,"is_reserved":false,"is_disabled":false,"rental_uris":{"android":"levelo://app?vid=5b08033c-e596-407a-ada4-49eb3a516099","ios":"levelo://app?vid=5b08033c-e596-407a-ada4-49eb3a516099"},"vehicle_type_id":"4","last_reported":1757862479,"current_range_meters":12000,"station_id":"ce4bhip2rcd13ifvqft0","pricing_plan_id":"cebpf4jnsgd1na2vs0mg"},{"bike_id":"b86dc104-c99c-4937-965f-74e315474804","system_id":"levelo_inurba_marseille","lat":43.24161,"lon":5.36406,"is_reserved":false,"is_disabled":false,"rental_uris":{"android":"levelo://app?vid=b86dc104-c99c-4937-965f-74e315474804","ios":"levelo://app?vid=b86dc104-c99c-4937-965f-74e315474804"},"vehicle_type_id":"4","last_reported":1757862479,"current_range_meters":12000,"station_id":"cpo36qri1sfpv3e86is0","pricing_plan_id":"cebpf4jnsgd1na2vs0mg"},{"bike_id":"261c10c9-6edd-4598-991a-c2ba9bb7b4e1","system_id":"levelo_inurba_marseille","lat":43.26685,"lon":5.38272,"is_reserved":false,"is_disabled":false,"rental_uris":{"android":"levelo://app?vid=261c10c9-6edd-4598-991a-c2ba9bb7b4e1","ios":"levelo://app?vid=261c10c9-6edd-4598-991a-c2ba9bb7b4e1"},"vehicle_type_id":"4","last_reported":1757862479,"current_range_meters":12000,"station_id":"ce4bhg92rcd13ifvqf90","pricing_plan_id":"cebpf4jnsgd1na2vs0mg"},{"bike_id":"90b99ccf-2b3c-4d75-9e45-7dd3a550aac1","system_id":"levelo_inurba_marseille","lat":43.23569,"lon":5.39891,"is_reserved":false,"is_disabled":false,"rental_uris":{"android":"levelo://app?vid=90b99ccf-2b3c-4d75-9e45-7dd3a550aac1","ios":"levelo://app?vid=90b99ccf-2b3c-4d75-9e45-7dd3a550aac1"},"vehicle_type_id":"4","last_reported":1757862479,"current_range_meters":12000,"station_id":"","pricing_plan_id":"cebpf4jnsgd1na2vs0mg"},{"bike_id":"79d8f533-b5eb-45ef-a6ec-dfd443ea0dbe","system_id":"levelo_inurba_marseille","lat":43.21741,"lon":5.34581,"is_reserved":false,"is_disabled":false,"rental_uris":{"android":"levelo://app?vid=79d8f533-b5eb-45ef-a6ec-dfd443ea0dbe","ios":"levelo://app?vid=79d8f533-b5eb-45ef-a6ec-dfd443ea0dbe"},"vehicle_type_id":"4","last_reported":1757862479,"current_range_meters":12000,"station_id":"st_cvj6r9ubvosntc0bgbag","pricing_plan_id":"cebpf4jnsgd1na2vs0mg"},{"bike_id":"9d64b5f8-42a9-4b44-a76b-1732da5588f2","system_id":"levelo_inurba_marseille","lat":43.23962,"lon":5.3664,"is_reserved":false,"is_disabled":false,"rental_uris":{"android":"levelo://app?vid=9d64b5f8-42a9-4b44-a76b-1732da5588f2","ios":"levelo://app?vid=9d64b5f8-42a9-4b44-a76b-1732da5588f2"},"vehicle_type_id":"4","last_reported":1757862479,"current_range_meters":12000,"station_id":"ce4bhi12rcd13ifvqfp0","pricing_plan_id":"cebpf4jnsgd1na2vs0mg"},{"bike_id":"e2a53a0f-2e2e-4985-9ad9-6caeaffd8dfc","system_id":"levelo_inurba_marseille","lat":43.28283,"lon":5.3505,"is_reserved":false,"is_disabled":false,"rental_uris":{"android":"levelo://app?vid=e2a53a0f-2e2e-4985-9ad9-6caeaffd8dfc","ios":"levelo://app?vid=e2a53a0f-2e2e-4985-9ad9-6caeaffd8dfc"},"vehicle_type_id":"4","last_reported":1757862479,"current_range_meters":12000,"station_id":"ce4bhbp2rcd13ifvqerg","pricing_plan_id":"cebpf4jnsgd1na2vs0mg"},{"bike_id":"7a9ac902-2cd0-4b37-a8b5-5c9732268df2","system_id":"levelo_inurba_marseille","lat":43.29515,"lon":5.39037,"is_reserved":false,"is_disabled":false,"rental_uris":{"android":"levelo://app?vid=7a9ac902-2cd0-4b37-a8b5-5c9732268df2","ios":"levelo://app?vid=7a9ac902-2cd0-4b37-a8b5-5c9732268df2"},"vehicle_type_id":"4","last_reported":1757862479,"current_range_meters":12000,"station_id":"ce4bh3p2rcd13ifvqdp0","pricing_plan_id":"cebpf4jnsgd1na2vs0mg"},{"bike_id":"b0a5bccb-e2b0-489b-80b6-0f49ae79fae0","system_id":"levelo_inurba_marseille","lat":43.29963,"lon":5.38496,"is_reserved":false,"is_disabled":false,"rental_uris":{"android":"levelo://app?vid=b0a5bccb-e2b0-489b-80b6-0f49ae79fae0","ios":"levelo://app?vid=b0a5bccb-e2b0-489b-80b6-0f49ae79fae0"},"vehicle_type_id":"4","last_reported":1757862479,"current_range_meters":12400,"station_id":"ce4bgj92rcd13ifvqbd0","pricing_plan_id":"cebpf4jnsgd1na2vs0mg"},{"bike_id":"dde4ea32-87c6-4a50-876c-edd73ae13809","system_id":"levelo_inurba_marseille","lat":43.21739,"lon":5.34589,"is_reserved":false,"is_disabled":false,"rental_uris":{"android":"levelo://app?vid=dde4ea32-87c6-4a50-876c-edd73ae13809","ios":"levelo://app?vid=dde4ea32-87c6-4a50-876c-edd73ae13809"},"vehicle_type_id":"4","last_reported":1757862479,"current_range_meters":12400,"station_id":"st_cvj6r9ubvosntc0bgbag","pricing_plan_id":"cebpf4jnsgd1na2vs0mg"},{"bike_id":"86615938-c32d-4943-a32c-e051e1baf17c","system_id":"levelo_inurba_marseille","lat":43.230654,"lon":5.354914,"is_reserved":false,"is_disabled":false,"rental_uris":{"android":"levelo://app?vid=86615938-c32d-4943-a32c-e051e1baf17c","ios":"levelo://app?vid=86615938-c32d-4943-a32c-e051e1baf17c"},"vehicle_type_id":"4","last_reported":1757862479,"current_range_meters":12400,"station_id":"cpo3342slgdg3j2ifvpg","pricing_plan_id":"cebpf4jnsgd1na2vs0mg"},{"bike_id":"41983b35-ac22-4c4f-9002-3bd90e4e8ec0","system_id":"levelo_inurba_marseille","lat":43.26932,"lon":5.40253,"is_reserved":false,"is_disabled":false,"rental_uris":{"android":"levelo://app?vid=41983b35-ac22-4c4f-9002-3bd90e4e8ec0","ios":"levelo://app?vid=41983b35-ac22-4c4f-9002-3bd90e4e8ec0"},"vehicle_type_id":"4","last_reported":1757862479,"current_range_meters":12000,"station_id":"cjm6bp8fraef2m0cb0m0","pricing_plan_id":"cebpf4jnsgd1na2vs0mg"},{"bike_id":"f09b7791-455c-4d24-ae78-c850d3c21ea7","system_id":"levelo_inurba_marseille","lat":43.27169,"lon":5.4099,"is_reserved":false,"is_disabled":false,"rental_uris":{"android":"levelo://app?vid=f09b7791-455c-4d24-ae78-c850d3c21ea7","ios":"levelo://app?vid=f09b7791-455c-4d24-ae78-c850d3c21ea7"},"vehicle_type_id":"4","last_reported":1757862479,"current_range_meters":12400,"station_id":"ce4bhl12rcd13ifvqgf0","pricing_plan_id":"cebpf4jnsgd1na2vs0mg"},{"bike_id":"d0a1739a-c22f-4203-9f71-a089f4b367e4","system_id":"levelo_inurba_marseille","lat":43.32003,"lon":5.38141,"is_reserved":false,"is_disabled":true,"rental_uris":{"android":"levelo://app?vid=d0a1739a-c22f-4203-9f71-a089f4b367e4","ios":"levelo://app?vid=d0a1739a-c22f-4203-9f71-a089f4b367e4"},"vehicle_type_id":"4","last_reported":1757862479,"current_range_meters":12800,"station_id":"ce4bhr12rcd13ifvqhpg","pricing_plan_id":"cebpf4jnsgd1na2vs0mg"},{"bike_id":"8e3a9e83-812e-4b5d-8c7b-5119699e81be","system_id":"levelo_inurba_marseille","lat":43.31596,"lon":5.40572,"is_reserved":false,"is_disabled":false,"rental_uris":{"android":"levelo://app?vid=8e3a9e83-812e-4b5d-8c7b-5119699e81be","ios":"levelo://app?vid=8e3a9e83-812e-4b5d-8c7b-5119699e81be"},"vehicle_type_id":"4","last_reported":1757862479,"current_range_meters":12800,"station_id":"","pricing_plan_id":"cebpf4jnsgd1na2vs0mg"},{"bike_id":"8ab60a89-bd14-40d7-b359-020ea126cfef","system_id":"levelo_inurba_marseille","lat":43.32362,"lon":5.36754,"is_reserved":false,"is_disabled":false,"rental_uris":{"android":"levelo://app?vid=8ab60a89-bd14-40d7-b359-020ea126cfef","ios":"levelo://app?vid=8ab60a89-bd14-40d7-b359-020ea126cfef"},"vehicle_type_id":"4","last_reported":1757862479,"current_range_meters":12800,"station_id":"ce4bhsh2rcd13ifvqi2g","pricing_plan_id":"cebpf4jnsgd1na2vs0mg"},{"bike_id":"2238dd80-da25-4394-9e7e-e6d9c6e345eb","system_id":"levelo_inurba_marseille","lat":43.23185,"lon":5.35565,"is_reserved":false,"is_disabled":false,"rental_uris":{"android":"levelo://app?vid=2238dd80-da25-4394-9e7e-e6d9c6e345eb","ios":"levelo://app?vid=2238dd80-da25-4394-9e7e-e6d9c6e345eb"},"vehicle_type_id":"4","last_reported":1757862479,"current_range_meters":12800,"station_id":"ce4bhu92rcd13ifvqi70","pricing_plan_id":"cebpf4jnsgd1na2vs0mg"},{"bike_id":"d9901259-6656-4fe1-a408-f47078b35d67","system_id":"levelo_inurba_marseille","lat":43.23178,"lon":5.3999,"is_reserved":false,"is_disabled":false,"rental_uris":{"android":"levelo://app?vid=d9901259-6656-4fe1-a408-f47078b35d67","ios":"levelo://app?vid=d9901259-6656-4fe1-a408-f47078b35d67"},"vehicle_type_id":"4","last_reported":1757862479,"current_range_meters":12800,"station_id":"ce4bhn12rcd13ifvqgqg","pricing_plan_id":"cebpf4jnsgd1na2vs0mg"},{"bike_id":"da339fb0-b69b-4d3f-a510-101c283938f3","system_id":"levelo_inurba_marseille","lat":43.29963,"lon":5.41323,"is_reserved":false,"is_disabled":false,"rental_uris":{"android":"levelo://app?vid=da339fb0-b69b-4d3f-a510-101c283938f3","ios":"levelo://app?vid=da339fb0-b69b-4d3f-a510-101c283938f3"},"vehicle_type_id":"4","last_reported":1757862479,"current_range_meters":12800,"station_id":"ce4bhp12rcd13ifvqh9g","pricing_plan_id":"cebpf4jnsgd1na2vs0mg"},{"bike_id":"f3ddf6aa-05b7-4fc9-b256-d8d563eebb98","system_id":"levelo_inurba_marseille","lat":43.26207,"lon":5.37441,"is_reserved":false,"is_disabled":false,"rental_uris":{"android":"levelo://app?vid=f3ddf6aa-05b7-4fc9-b256-d8d563eebb98","ios":"levelo://app?vid=f3ddf6aa-05b7-4fc9-b256-d8d563eebb98"},"vehicle_type_id":"4","last_reported":1757862479,"current_range_meters":13600,"station_id":"ce4bhgp2rcd13ifvqfc0","pricing_plan_id":"cebpf4jnsgd1na2vs0mg"},{"bike_id":"a282ef96-a62c-4603-a854-cbd0cb9c23fb","system_id":"levelo_inurba_marseille","lat":43.2396,"lon":5.36628,"is_reserved":false,"is_disabled":false,"rental_uris":{"android":"levelo://app?vid=a282ef96-a62c-4603-a854-cbd0cb9c23fb","ios":"levelo://app?vid=a282ef96-a62c-4603-a854-cbd0cb9c23fb"},"vehicle_type_id":"4","last_reported":1757862479,"current_range_meters":13600,"station_id":"ce4bhi12rcd13ifvqfp0","pricing_plan_id":"cebpf4jnsgd1na2vs0mg"},{"bike_id":"85db8ab9-6b24-4c23-8762-109e948df9cd","system_id":"levelo_inurba_marseille","lat":43.306001,"lon":5.404673,"is_reserved":false,"is_disabled":false,"rental_uris":{"android":"levelo://app?vid=85db8ab9-6b24-4c23-8762-109e948df9cd","ios":"levelo://app?vid=85db8ab9-6b24-4c23-8762-109e948df9cd"},"vehicle_type_id":"4","last_reported":1757862479,"current_range_meters":13600,"station_id":"","pricing_plan_id":"cebpf4jnsgd1na2vs0mg"},{"bike_id":"d24c566a-f834-403c-8798-1cafe199dccc","system_id":"levelo_inurba_marseille","lat":43.21748,"lon":5.34618,"is_reserved":false,"is_disabled":false,"rental_uris":{"android":"levelo://app?vid=d24c566a-f834-403c-8798-1cafe199dccc","ios":"levelo://app?vid=d24c566a-f834-403c-8798-1cafe199dccc"},"vehicle_type_id":"4","last_reported":1757862479,"current_range_meters":13600,"station_id":"st_cvj6r9ubvosntc0bgbag","pricing_plan_id":"cebpf4jnsgd1na2vs0mg"},{"bike_id":"9c341390-bfd6-4e87-9935-649468d66f92","system_id":"levelo_inurba_marseille","lat":43.290273,"lon":5.386523,"is_reserved":false,"is_disabled":false,"rental_uris":{"android":"levelo://app?vid=9c341390-bfd6-4e87-9935-649468d66f92","ios":"levelo://app?vid=9c341390-bfd6-4e87-9935-649468d66f92"},"vehicle_type_id":"4","last_reported":1757862479,"current_range_meters":13600,"station_id":"","pricing_plan_id":"cebpf4jnsgd1na2vs0mg"},{"bike_id":"d9c4202c-de13-4428-8c40-40d90faf1618","system_id":"levelo_inurba_marseille","lat":43.31356,"lon":5.3707,"is_reserved":false,"is_disabled":false,"rental_uris":{"android":"levelo://app?vid=d9c4202c-de13-4428-8c40-40d90faf1618","ios":"levelo://app?vid=d9c4202c-de13-4428-8c40-40d90faf1618"},"vehicle_type_id":"4","last_reported":1757862479,"current_range_meters":14000,"station_id":"","pricing_plan_id":"cebpf4jnsgd1na2vs0mg"},{"bike_id":"0a3dd152-47b7-4ac1-bc19-f14a28939368","system_id":"levelo_inurba_marseille","lat":43.2828,"lon":5.35075,"is_reserved":false,"is_disabled":false,"rental_uris":{"android":"levelo://app?vid=0a3dd152-47b7-4ac1-bc19-f14a28939368","ios":"levelo://app?vid=0a3dd152-47b7-4ac1-bc19-f14a28939368"},"vehicle_type_id":"4","last_reported":1757862479,"current_range_meters":14000,"station_id":"ce4bhbp2rcd13ifvqerg","pricing_plan_id":"cebpf4jnsgd1na2vs0mg"},{"bike_id":"2d4f8702-f871-4299-b471-061f32bc7f69","system_id":"levelo_inurba_marseille","lat":43.22572,"lon":5.41668,"is_reserved":false,"is_disabled":false,"rental_uris":{"android":"levelo://app?vid=2d4f8702-f871-4299-b471-061f32bc7f69","ios":"levelo://app?vid=2d4f8702-f871-4299-b471-061f32bc7f69"},"vehicle_type_id":"4","last_reported":1757862479,"current_range_meters":14000,"station_id":"st_d2o4gvlbi1j2169b742g","pricing_plan_id":"cebpf4jnsgd1na2vs0mg"},{"bike_id":"78237f29-9b6f-412b-af75-ed66a41f0ebd","system_id":"levelo_inurba_marseille","lat":43.21747,"lon":5.34606,"is_reserved":false,"is_disabled":false,"rental_uris":{"android":"levelo://app?vid=78237f29-9b6f-412b-af75-ed66a41f0ebd","ios":"levelo://app?vid=78237f29-9b6f-412b-af75-ed66a41f0ebd"},"vehicle_type_id":"4","last_reported":1757862479,"current_range_meters":14000,"station_id":"st_cvj6r9ubvosntc0bgbag","pricing_plan_id":"cebpf4jnsgd1na2vs0mg"},{"bike_id":"69a1a46a-0fa5-4309-9bb5-cfeb789d66b0","system_id":"levelo_inurba_marseille","lat":43.29256,"lon":5.40892,"is_reserved":false,"is_disabled":false,"rental_uris":{"android":"levelo://app?vid=69a1a46a-0fa5-4309-9bb5-cfeb789d66b0","ios":"levelo://app?vid=69a1a46a-0fa5-4309-9bb5-cfeb789d66b0"},"vehicle_type_id":"4","last_reported":1757862479,"current_range_meters":13600,"station_id":"ce4bh192rcd13ifvqdc0","pricing_plan_id":"cebpf4jnsgd1na2vs0mg"},{"bike_id":"c11d7448-afa7-44b8-acea-a15a225574ef","system_id":"levelo_inurba_marseille","lat":43.28422,"lon":5.35004,"is_reserved":false,"is_disabled":false,"rental_uris":{"android":"levelo://app?vid=c11d7448-afa7-44b8-acea-a15a225574ef","ios":"levelo://app?vid=c11d7448-afa7-44b8-acea-a15a225574ef"},"vehicle_type_id":"4","last_reported":1757862479,"current_range_meters":14000,"station_id":"ce4bhbh2rcd13ifvqepg","pricing_plan_id":"cebpf4jnsgd1na2vs0mg"},{"bike_id":"1a163e9d-a32f-43d1-865c-528535139d85","system_id":"levelo_inurba_marseille","lat":43.23963,"lon":5.36615,"is_reserved":false,"is_disabled":false,"rental_uris":{"android":"levelo://app?vid=1a163e9d-a32f-43d1-865c-528535139d85","ios":"levelo://app?vid=1a163e9d-a32f-43d1-865c-528535139d85"},"vehicle_type_id":"4","last_reported":1757862479,"current_range_meters":14400,"station_id":"ce4bhi12rcd13ifvqfp0","pricing_plan_id":"cebpf4jnsgd1na2vs0mg"},{"bike_id":"4d6e6605-7f16-44fa-a19a-c138ee7cb360","system_id":"levelo_inurba_marseille","lat":43.33799,"lon":5.37446,"is_reserved":false,"is_disabled":false,"rental_uris":{"android":"levelo://app?vid=4d6e6605-7f16-44fa-a19a-c138ee7cb360","ios":"levelo://app?vid=4d6e6605-7f16-44fa-a19a-c138ee7cb360"},"vehicle_type_id":"4","last_reported":1757862479,"current_range_meters":14400,"station_id":"","pricing_plan_id":"cebpf4jnsgd1na2vs0mg"},{"bike_id":"531710ea-735d-4bd3-b30d-adba75edcc49","system_id":"levelo_inurba_marseille","lat":43.25476,"lon":5.37644,"is_reserved":false,"is_disabled":false,"rental_uris":{"android":"levelo://app?vid=531710ea-735d-4bd3-b30d-adba75edcc49","ios":"levelo://app?vid=531710ea-735d-4bd3-b30d-adba75edcc49"},"vehicle_type_id":"4","last_reported":1757862479,"current_range_meters":14400,"station_id":"ce4bhh12rcd13ifvqff0","pricing_plan_id":"cebpf4jnsgd1na2vs0mg"},{"bike_id":"bf7fa1df-50d1-4332-8015-9b461c829930","system_id":"levelo_inurba_marseille","lat":43.26544,"lon":5.37275,"is_reserved":false,"is_disabled":false,"rental_uris":{"android":"levelo://app?vid=bf7fa1df-50d1-4332-8015-9b461c829930","ios":"levelo://app?vid=bf7fa1df-50d1-4332-8015-9b461c829930"},"vehicle_type_id":"4","last_reported":1757862479,"current_range_meters":14400,"station_id":"ce4bhg12rcd13ifvqf70","pricing_plan_id":"cebpf4jnsgd1na2vs0mg"},{"bike_id":"a26421e4-307f-4ce8-baa5-60f9681e67fa","system_id":"levelo_inurba_marseille","lat":43.28262,"lon":5.35054,"is_reserved":false,"is_disabled":false,"rental_uris":{"android":"levelo://app?vid=a26421e4-307f-4ce8-baa5-60f9681e67fa","ios":"levelo://app?vid=a26421e4-307f-4ce8-baa5-60f9681e67fa"},"vehicle_type_id":"4","last_reported":1757862479,"current_range_meters":14800,"station_id":"ce4bhbp2rcd13ifvqerg","pricing_plan_id":"cebpf4jnsgd1na2vs0mg"},{"bike_id":"4955a604-af0c-4acb-b892-574c39c673c0","system_id":"levelo_inurba_marseille","lat":43.28423,"lon":5.34988,"is_reserved":false,"is_disabled":false,"rental_uris":{"android":"levelo://app?vid=4955a604-af0c-4acb-b892-574c39c673c0","ios":"levelo://app?vid=4955a604-af0c-4acb-b892-574c39c673c0"},"vehicle_type_id":"4","last_reported":1757862479,"current_range_meters":14800,"station_id":"ce4bhbh2rcd13ifvqepg","pricing_plan_id":"cebpf4jnsgd1na2vs0mg"},{"bike_id":"e8930cfa-2c36-4dbf-ab3e-6afdedf38824","system_id":"levelo_inurba_marseille","lat":43.22563,"lon":5.41603,"is_reserved":false,"is_disabled":false,"rental_uris":{"android":"levelo://app?vid=e8930cfa-2c36-4dbf-ab3e-6afdedf38824","ios":"levelo://app?vid=e8930cfa-2c36-4dbf-ab3e-6afdedf38824"},"vehicle_type_id":"4","last_reported":1757862479,"current_range_meters":14800,"station_id":"st_d2o4gvlbi1j2169b742g","pricing_plan_id":"cebpf4jnsgd1na2vs0mg"},{"bike_id":"712ebe8e-7860-49e9-b445-89c63a426aff","system_id":"levelo_inurba_marseille","lat":43.281525,"lon":5.426496,"is_reserved":false,"is_disabled":false,"rental_uris":{"android":"levelo://app?vid=712ebe8e-7860-49e9-b445-89c63a426aff","ios":"levelo://app?vid=712ebe8e-7860-49e9-b445-89c63a426aff"},"vehicle_type_id":"4","last_reported":1757862479,"current_range_meters":14800,"station_id":"ce4bhnh2rcd13ifvqgug","pricing_plan_id":"cebpf4jnsgd1na2vs0mg"},{"bike_id":"e06d2e94-3ae2-4b4b-9d7e-05d3f806365a","system_id":"levelo_inurba_marseille","lat":43.25807,"lon":5.39431,"is_reserved":false,"is_disabled":false,"rental_uris":{"android":"levelo://app?vid=e06d2e94-3ae2-4b4b-9d7e-05d3f806365a","ios":"levelo://app?vid=e06d2e94-3ae2-4b4b-9d7e-05d3f806365a"},"vehicle_type_id":"4","last_reported":1757862479,"current_range_meters":14800,"station_id":"ce4bhip2rcd13ifvqft0","pricing_plan_id":"cebpf4jnsgd1na2vs0mg"},{"bike_id":"f57245bb-ec07-45a1-bfcb-432e5ec88da0","system_id":"levelo_inurba_marseille","lat":43.25004,"lon":5.38914,"is_reserved":false,"is_disabled":false,"rental_uris":{"android":"levelo://app?vid=f57245bb-ec07-45a1-bfcb-432e5ec88da0","ios":"levelo://app?vid=f57245bb-ec07-45a1-bfcb-432e5ec88da0"},"vehicle_type_id":"4","last_reported":1757862479,"current_range_meters":14800,"station_id":"ce4bhgp2rcd13ifvqfd0","pricing_plan_id":"cebpf4jnsgd1na2vs0mg"},{"bike_id":"7d7b03c9-f46f-4377-b089-b2019aae399f","system_id":"levelo_inurba_marseille","lat":43.23194,"lon":5.39969,"is_reserved":false,"is_disabled":true,"rental_uris":{"android":"levelo://app?vid=7d7b03c9-f46f-4377-b089-b2019aae399f","ios":"levelo://app?vid=7d7b03c9-f46f-4377-b089-b2019aae399f"},"vehicle_type_id":"4","last_reported":1757862479,"current_range_meters":14800,"station_id":"ce4bhn12rcd13ifvqgqg","pricing_plan_id":"cebpf4jnsgd1na2vs0mg"},{"bike_id":"1cf4af4d-6ec9-4120-a525-7c9ad3628375","system_id":"levelo_inurba_marseille","lat":43.25816,"lon":5.39432,"is_reserved":false,"is_disabled":false,"rental_uris":{"android":"levelo://app?vid=1cf4af4d-6ec9-4120-a525-7c9ad3628375","ios":"levelo://app?vid=1cf4af4d-6ec9-4120-a525-7c9ad3628375"},"vehicle_type_id":"4","last_reported":1757862479,"current_range_meters":14800,"station_id":"ce4bhip2rcd13ifvqft0","pricing_plan_id":"cebpf4jnsgd1na2vs0mg"},{"bike_id":"cd67a361-75fd-4b6b-8766-2a32dc1745c7","system_id":"levelo_inurba_marseille","lat":43.28151,"lon":5.42646,"is_reserved":false,"is_disabled":false,"rental_uris":{"android":"levelo://app?vid=cd67a361-75fd-4b6b-8766-2a32dc1745c7","ios":"levelo://app?vid=cd67a361-75fd-4b6b-8766-2a32dc1745c7"},"vehicle_type_id":"4","last_reported":1757862479,"current_range_meters":14800,"station_id":"ce4bhnh2rcd13ifvqgug","pricing_plan_id":"cebpf4jnsgd1na2vs0mg"},{"bike_id":"5e4fe2e5-9b69-4800-86b5-ea88fd67023a","system_id":"levelo_inurba_marseille","lat":43.230685,"lon":5.354929,"is_reserved":false,"is_disabled":false,"rental_uris":{"android":"levelo://app?vid=5e4fe2e5-9b69-4800-86b5-ea88fd67023a","ios":"levelo://app?vid=5e4fe2e5-9b69-4800-86b5-ea88fd67023a"},"vehicle_type_id":"4","last_reported":1757862479,"current_range_meters":15200,"station_id":"cpo3342slgdg3j2ifvpg","pricing_plan_id":"cebpf4jnsgd1na2vs0mg"},{"bike_id":"d779e998-cad0-4e25-9ad7-dcc6c266f281","system_id":"levelo_inurba_marseille","lat":43.2465,"lon":5.38892,"is_reserved":false,"is_disabled":false,"rental_uris":{"android":"levelo://app?vid=d779e998-cad0-4e25-9ad7-dcc6c266f281","ios":"levelo://app?vid=d779e998-cad0-4e25-9ad7-dcc6c266f281"},"vehicle_type_id":"4","last_reported":1757862479,"current_range_meters":15200,"station_id":"ce4bhg12rcd13ifvqf60","pricing_plan_id":"cebpf4jnsgd1na2vs0mg"},{"bike_id":"d9a7c4bd-53f2-4cde-a7f4-552208dff846","system_id":"levelo_inurba_marseille","lat":43.25073,"lon":5.39506,"is_reserved":false,"is_disabled":false,"rental_uris":{"android":"levelo://app?vid=d9a7c4bd-53f2-4cde-a7f4-552208dff846","ios":"levelo://app?vid=d9a7c4bd-53f2-4cde-a7f4-552208dff846"},"vehicle_type_id":"4","last_reported":1757862479,"current_range_meters":15200,"station_id":"ce4bhm12rcd13ifvqgkg","pricing_plan_id":"cebpf4jnsgd1na2vs0mg"},{"bike_id":"ee7440d9-aace-4b1c-813b-7b7fc50c2313","system_id":"levelo_inurba_marseille","lat":43.24175,"lon":5.39734,"is_reserved":false,"is_disabled":false,"rental_uris":{"android":"levelo://app?vid=ee7440d9-aace-4b1c-813b-7b7fc50c2313","ios":"levelo://app?vid=ee7440d9-aace-4b1c-813b-7b7fc50c2313"},"vehicle_type_id":"4","last_reported":1757862479,"current_range_meters":15200,"station_id":"ce4bhn12rcd13ifvqgpg","pricing_plan_id":"cebpf4jnsgd1na2vs0mg"},{"bike_id":"dd554ac4-4801-4728-83df-00e3c23d2041","system_id":"levelo_inurba_marseille","lat":43.26557,"lon":5.37271,"is_reserved":false,"is_disabled":false,"rental_uris":{"android":"levelo://app?vid=dd554ac4-4801-4728-83df-00e3c23d2041","ios":"levelo://app?vid=dd554ac4-4801-4728-83df-00e3c23d2041"},"vehicle_type_id":"4","last_reported":1757862479,"current_range_meters":15200,"station_id":"ce4bhg12rcd13ifvqf70","pricing_plan_id":"cebpf4jnsgd1na2vs0mg"},{"bike_id":"746f8f66-7f46-4e2a-8f64-942936320bf9","system_id":"levelo_inurba_marseille","lat":43.23962,"lon":5.36621,"is_reserved":false,"is_disabled":true,"rental_uris":{"android":"levelo://app?vid=746f8f66-7f46-4e2a-8f64-942936320bf9","ios":"levelo://app?vid=746f8f66-7f46-4e2a-8f64-942936320bf9"},"vehicle_type_id":"4","last_reported":1757862479,"current_range_meters":15200,"station_id":"ce4bhi12rcd13ifvqfp0","pricing_plan_id":"cebpf4jnsgd1na2vs0mg"},{"bike_id":"2a081559-d45b-4944-91e1-cf13ad53d2f0","system_id":"levelo_inurba_marseille","lat":43.25002,"lon":5.38934,"is_reserved":false,"is_disabled":false,"rental_uris":{"android":"levelo://app?vid=2a081559-d45b-4944-91e1-cf13ad53d2f0","ios":"levelo://app?vid=2a081559-d45b-4944-91e1-cf13ad53d2f0"},"vehicle_type_id":"4","last_reported":1757862479,"current_range_meters":16000,"station_id":"ce4bhgp2rcd13ifvqfd0","pricing_plan_id":"cebpf4jnsgd1na2vs0mg"},{"bike_id":"d27a5be8-d7fd-4827-a8b4-c4cbf1e10c7d","system_id":"levelo_inurba_marseille","lat":43.27378,"lon":5.36257,"is_reserved":false,"is_disabled":false,"rental_uris":{"android":"levelo://app?vid=d27a5be8-d7fd-4827-a8b4-c4cbf1e10c7d","ios":"levelo://app?vid=d27a5be8-d7fd-4827-a8b4-c4cbf1e10c7d"},"vehicle_type_id":"4","last_reported":1757862479,"current_range_meters":16000,"station_id":"ce4bhbh2rcd13ifvqeo0","pricing_plan_id":"cebpf4jnsgd1na2vs0mg"},{"bike_id":"aae03a19-bede-4cc1-ae0c-cc148d5ade7d","system_id":"levelo_inurba_marseille","lat":43.25585,"lon":5.38233,"is_reserved":false,"is_disabled":false,"rental_uris":{"android":"levelo://app?vid=aae03a19-bede-4cc1-ae0c-cc148d5ade7d","ios":"levelo://app?vid=aae03a19-bede-4cc1-ae0c-cc148d5ade7d"},"vehicle_type_id":"4","last_reported":1757862479,"current_range_meters":16000,"station_id":"ce4bhih2rcd13ifvqfs0","pricing_plan_id":"cebpf4jnsgd1na2vs0mg"},{"bike_id":"f75319f4-d3a6-440f-9c89-5af7f4acd041","system_id":"levelo_inurba_marseille","lat":43.22554,"lon":5.41609,"is_reserved":false,"is_disabled":false,"rental_uris":{"android":"levelo://app?vid=f75319f4-d3a6-440f-9c89-5af7f4acd041","ios":"levelo://app?vid=f75319f4-d3a6-440f-9c89-5af7f4acd041"},"vehicle_type_id":"4","last_reported":1757862479,"current_range_meters":16000,"station_id":"st_d2o4gvlbi1j2169b742g","pricing_plan_id":"cebpf4jnsgd1na2vs0mg"},{"bike_id":"b002a392-08fa-4b2e-b212-3e002cd96c5d","system_id":"levelo_inurba_marseille","lat":43.239598,"lon":5.366318,"is_reserved":false,"is_disabled":false,"rental_uris":{"android":"levelo://app?vid=b002a392-08fa-4b2e-b212-3e002cd96c5d","ios":"levelo://app?vid=b002a392-08fa-4b2e-b212-3e002cd96c5d"},"vehicle_type_id":"4","last_reported":1757862479,"current_range_meters":16000,"station_id":"ce4bhi12rcd13ifvqfp0","pricing_plan_id":"cebpf4jnsgd1na2vs0mg"},{"bike_id":"48d78278-5d78-458d-b60e-3a04d388a817","system_id":"levelo_inurba_marseille","lat":43.21744,"lon":5.34597,"is_reserved":false,"is_disabled":false,"rental_uris":{"android":"levelo://app?vid=48d78278-5d78-458d-b60e-3a04d388a817","ios":"levelo://app?vid=48d78278-5d78-458d-b60e-3a04d388a817"},"vehicle_type_id":"4","last_reported":1757862479,"current_range_meters":16000,"station_id":"st_cvj6r9ubvosntc0bgbag","pricing_plan_id":"cebpf4jnsgd1na2vs0mg"},{"bike_id":"f28d4169-eadb-49df-b448-01bd73b2162d","system_id":"levelo_inurba_marseille","lat":43.28085,"lon":5.39657,"is_reserved":false,"is_disabled":false,"rental_uris":{"android":"levelo://app?vid=f28d4169-eadb-49df-b448-01bd73b2162d","ios":"levelo://app?vid=f28d4169-eadb-49df-b448-01bd73b2162d"},"vehicle_type_id":"4","last_reported":1757862479,"current_range_meters":16000,"station_id":"ce4bho12rcd13ifvqh2g","pricing_plan_id":"cebpf4jnsgd1na2vs0mg"},{"bike_id":"53e261c9-8d2a-4316-ba8f-ee6d9e6b7616","system_id":"levelo_inurba_marseille","lat":43.28617,"lon":5.35104,"is_reserved":false,"is_disabled":true,"rental_uris":{"android":"levelo://app?vid=53e261c9-8d2a-4316-ba8f-ee6d9e6b7616","ios":"levelo://app?vid=53e261c9-8d2a-4316-ba8f-ee6d9e6b7616"},"vehicle_type_id":"4","last_reported":1757862479,"current_range_meters":16000,"station_id":"ce4bhch2rcd13ifvqeug","pricing_plan_id":"cebpf4jnsgd1na2vs0mg"},{"bike_id":"b2fba456-5a3b-40c6-8765-ad84661db187","system_id":"levelo_inurba_marseille","lat":43.257205,"lon":5.411136,"is_reserved":false,"is_disabled":true,"rental_uris":{"android":"levelo://app?vid=b2fba456-5a3b-40c6-8765-ad84661db187","ios":"levelo://app?vid=b2fba456-5a3b-40c6-8765-ad84661db187"},"vehicle_type_id":"4","last_reported":1757862479,"current_range_meters":16000,"station_id":"ce4bhkp2rcd13ifvqgd0","pricing_plan_id":"cebpf4jnsgd1na2vs0mg"},{"bike_id":"de8b4017-41c8-4b24-a64c-29688ae293b6","system_id":"levelo_inurba_marseille","lat":43.25495,"lon":5.37645,"is_reserved":false,"is_disabled":false,"rental_uris":{"android":"levelo://app?vid=de8b4017-41c8-4b24-a64c-29688ae293b6","ios":"levelo://app?vid=de8b4017-41c8-4b24-a64c-29688ae293b6"},"vehicle_type_id":"4","last_reported":1757862479,"current_range_meters":15200,"station_id":"ce4bhh12rcd13ifvqff0","pricing_plan_id":"cebpf4jnsgd1na2vs0mg"},{"bike_id":"918db860-8eb8-4234-b0ad-22f51b212488","system_id":"levelo_inurba_marseille","lat":43.27919,"lon":5.39577,"is_reserved":false,"is_disabled":false,"rental_uris":{"android":"levelo://app?vid=918db860-8eb8-4234-b0ad-22f51b212488","ios":"levelo://app?vid=918db860-8eb8-4234-b0ad-22f51b212488"},"vehicle_type_id":"4","last_reported":1757862479,"current_range_meters":16000,"station_id":"ce4bhf92rcd13ifvqf40","pricing_plan_id":"cebpf4jnsgd1na2vs0mg"},{"bike_id":"afb9a5ff-60a7-4cd3-8986-595160b86226","system_id":"levelo_inurba_marseille","lat":43.28424,"lon":5.34976,"is_reserved":false,"is_disabled":false,"rental_uris":{"android":"levelo://app?vid=afb9a5ff-60a7-4cd3-8986-595160b86226","ios":"levelo://app?vid=afb9a5ff-60a7-4cd3-8986-595160b86226"},"vehicle_type_id":"4","last_reported":1757862479,"current_range_meters":16000,"station_id":"ce4bhbh2rcd13ifvqepg","pricing_plan_id":"cebpf4jnsgd1na2vs0mg"},{"bike_id":"ffdd2e29-5479-45ca-a3f9-e1c037d4543f","system_id":"levelo_inurba_marseille","lat":43.27617,"lon":5.361,"is_reserved":false,"is_disabled":false,"rental_uris":{"android":"levelo://app?vid=ffdd2e29-5479-45ca-a3f9-e1c037d4543f","ios":"levelo://app?vid=ffdd2e29-5479-45ca-a3f9-e1c037d4543f"},"vehicle_type_id":"4","last_reported":1757862479,"current_range_meters":16000,"station_id":"ce4bgj92rcd13ifvqbe0","pricing_plan_id":"cebpf4jnsgd1na2vs0mg"},{"bike_id":"950a5f0c-6122-4d8d-a42b-4763023d14f2","system_id":"levelo_inurba_marseille","lat":43.25481,"lon":5.37664,"is_reserved":false,"is_disabled":true,"rental_uris":{"android":"levelo://app?vid=950a5f0c-6122-4d8d-a42b-4763023d14f2","ios":"levelo://app?vid=950a5f0c-6122-4d8d-a42b-4763023d14f2"},"vehicle_type_id":"4","last_reported":1757862479,"current_range_meters":16800,"station_id":"ce4bhh12rcd13ifvqff0","pricing_plan_id":"cebpf4jnsgd1na2vs0mg"},{"bike_id":"e05eea5e-3ede-4b75-8a49-e9854c3d159d","system_id":"levelo_inurba_marseille","lat":43.28614,"lon":5.35101,"is_reserved":false,"is_disabled":true,"rental_uris":{"android":"levelo://app?vid=e05eea5e-3ede-4b75-8a49-e9854c3d159d","ios":"levelo://app?vid=e05eea5e-3ede-4b75-8a49-e9854c3d159d"},"vehicle_type_id":"4","last_reported":1757862479,"current_range_meters":16400,"station_id":"ce4bhch2rcd13ifvqeug","pricing_plan_id":"cebpf4jnsgd1na2vs0mg"},{"bike_id":"15c12f1b-150c-43be-9134-ac05fb9a1bef","system_id":"levelo_inurba_marseille","lat":43.29076,"lon":5.37144,"is_reserved":false,"is_disabled":true,"rental_uris":{"android":"levelo://app?vid=15c12f1b-150c-43be-9134-ac05fb9a1bef","ios":"levelo://app?vid=15c12f1b-150c-43be-9134-ac05fb9a1bef"},"vehicle_type_id":"4","last_reported":1757862479,"current_range_meters":16400,"station_id":"ce4bh5p2rcd13ifvqe4g","pricing_plan_id":"cebpf4jnsgd1na2vs0mg"},{"bike_id":"5f4adae9-c2d1-4c82-8665-c793df5665c7","system_id":"levelo_inurba_marseille","lat":43.28695,"lon":5.37389,"is_reserved":false,"is_disabled":false,"rental_uris":{"android":"levelo://app?vid=5f4adae9-c2d1-4c82-8665-c793df5665c7","ios":"levelo://app?vid=5f4adae9-c2d1-4c82-8665-c793df5665c7"},"vehicle_type_id":"4","last_reported":1757862479,"current_range_meters":16400,"station_id":"ce4bh3p2rcd13ifvqdq0","pricing_plan_id":"cebpf4jnsgd1na2vs0mg"},{"bike_id":"853a4893-339d-477d-bd8c-74a3256e3b0a","system_id":"levelo_inurba_marseille","lat":43.28417,"lon":5.34967,"is_reserved":false,"is_disabled":false,"rental_uris":{"android":"levelo://app?vid=853a4893-339d-477d-bd8c-74a3256e3b0a","ios":"levelo://app?vid=853a4893-339d-477d-bd8c-74a3256e3b0a"},"vehicle_type_id":"4","last_reported":1757862479,"current_range_meters":16400,"station_id":"ce4bhbh2rcd13ifvqepg","pricing_plan_id":"cebpf4jnsgd1na2vs0mg"},{"bike_id":"12f1394b-bb48-4fbe-ac41-fe01aa9a3d00","system_id":"levelo_inurba_marseille","lat":43.23966,"lon":5.36632,"is_reserved":false,"is_disabled":false,"rental_uris":{"android":"levelo://app?vid=12f1394b-bb48-4fbe-ac41-fe01aa9a3d00","ios":"levelo://app?vid=12f1394b-bb48-4fbe-ac41-fe01aa9a3d00"},"vehicle_type_id":"4","last_reported":1757862479,"current_range_meters":16400,"station_id":"ce4bhi12rcd13ifvqfp0","pricing_plan_id":"cebpf4jnsgd1na2vs0mg"},{"bike_id":"846d2a08-39dd-4347-a5c1-190fdcefd8df","system_id":"levelo_inurba_marseille","lat":43.26559,"lon":5.39007,"is_reserved":false,"is_disabled":false,"rental_uris":{"android":"levelo://app?vid=846d2a08-39dd-4347-a5c1-190fdcefd8df","ios":"levelo://app?vid=846d2a08-39dd-4347-a5c1-190fdcefd8df"},"vehicle_type_id":"4","last_reported":1757862479,"current_range_meters":16400,"station_id":"ce4bhe12rcd13ifvqf30","pricing_plan_id":"cebpf4jnsgd1na2vs0mg"},{"bike_id":"95251c11-6699-4aa0-8909-a444151e2dc9","system_id":"levelo_inurba_marseille","lat":43.24094,"lon":5.37754,"is_reserved":false,"is_disabled":false,"rental_uris":{"android":"levelo://app?vid=95251c11-6699-4aa0-8909-a444151e2dc9","ios":"levelo://app?vid=95251c11-6699-4aa0-8909-a444151e2dc9"},"vehicle_type_id":"4","last_reported":1757862479,"current_range_meters":16800,"station_id":"ce4bhnp2rcd13ifvqgvg","pricing_plan_id":"cebpf4jnsgd1na2vs0mg"},{"bike_id":"777ff417-3a86-45a9-9277-be4920b499e5","system_id":"levelo_inurba_marseille","lat":43.248,"lon":5.37453,"is_reserved":false,"is_disabled":false,"rental_uris":{"android":"levelo://app?vid=777ff417-3a86-45a9-9277-be4920b499e5","ios":"levelo://app?vid=777ff417-3a86-45a9-9277-be4920b499e5"},"vehicle_type_id":"4","last_reported":1757862479,"current_range_meters":16800,"station_id":"ce4bhgh2rcd13ifvqfb0","pricing_plan_id":"cebpf4jnsgd1na2vs0mg"},{"bike_id":"9c4a3355-f95a-419a-aa42-062ba5d94a37","system_id":"levelo_inurba_marseille","lat":43.28969,"lon":5.37831,"is_reserved":false,"is_disabled":false,"rental_uris":{"android":"levelo://app?vid=9c4a3355-f95a-419a-aa42-062ba5d94a37","ios":"levelo://app?vid=9c4a3355-f95a-419a-aa42-062ba5d94a37"},"vehicle_type_id":"4","last_reported":1757862479,"current_range_meters":16800,"station_id":"ce4bh9p2rcd13ifvqed0","pricing_plan_id":"cebpf4jnsgd1na2vs0mg"},{"bike_id":"ce2894bd-79c1-40ae-85e2-650fecc9b7e6","system_id":"levelo_inurba_marseille","lat":43.27377,"lon":5.36246,"is_reserved":false,"is_disabled":false,"rental_uris":{"android":"levelo://app?vid=ce2894bd-79c1-40ae-85e2-650fecc9b7e6","ios":"levelo://app?vid=ce2894bd-79c1-40ae-85e2-650fecc9b7e6"},"vehicle_type_id":"4","last_reported":1757862479,"current_range_meters":16800,"station_id":"ce4bhbh2rcd13ifvqeo0","pricing_plan_id":"cebpf4jnsgd1na2vs0mg"},{"bike_id":"52df5ee4-a4e8-44a6-b6b5-b849378d1ce3","system_id":"levelo_inurba_marseille","lat":43.32341,"lon":5.4063,"is_reserved":false,"is_disabled":false,"rental_uris":{"android":"levelo://app?vid=52df5ee4-a4e8-44a6-b6b5-b849378d1ce3","ios":"levelo://app?vid=52df5ee4-a4e8-44a6-b6b5-b849378d1ce3"},"vehicle_type_id":"4","last_reported":1757862479,"current_range_meters":16800,"station_id":"ce4bhq92rcd13ifvqhjg","pricing_plan_id":"cebpf4jnsgd1na2vs0mg"},{"bike_id":"d7888f4f-3e0e-42ad-8e1f-74344957c259","system_id":"levelo_inurba_marseille","lat":43.28261,"lon":5.35052,"is_reserved":false,"is_disabled":false,"rental_uris":{"android":"levelo://app?vid=d7888f4f-3e0e-42ad-8e1f-74344957c259","ios":"levelo://app?vid=d7888f4f-3e0e-42ad-8e1f-74344957c259"},"vehicle_type_id":"4","last_reported":1757862479,"current_range_meters":16800,"station_id":"ce4bhbp2rcd13ifvqerg","pricing_plan_id":"cebpf4jnsgd1na2vs0mg"},{"bike_id":"aad1d370-78d5-4e35-a04f-e74148325d68","system_id":"levelo_inurba_marseille","lat":43.28968,"lon":5.40186,"is_reserved":false,"is_disabled":true,"rental_uris":{"android":"levelo://app?vid=aad1d370-78d5-4e35-a04f-e74148325d68","ios":"levelo://app?vid=aad1d370-78d5-4e35-a04f-e74148325d68"},"vehicle_type_id":"4","last_reported":1757862479,"current_range_meters":16800,"station_id":"","pricing_plan_id":"cebpf4jnsgd1na2vs0mg"},{"bike_id":"a2a9e70a-c4ff-4147-80bb-641e2d519899","system_id":"levelo_inurba_marseille","lat":43.24167,"lon":5.36397,"is_reserved":false,"is_disabled":false,"rental_uris":{"android":"levelo://app?vid=a2a9e70a-c4ff-4147-80bb-641e2d519899","ios":"levelo://app?vid=a2a9e70a-c4ff-4147-80bb-641e2d519899"},"vehicle_type_id":"4","last_reported":1757862479,"current_range_meters":16800,"station_id":"cpo36qri1sfpv3e86is0","pricing_plan_id":"cebpf4jnsgd1na2vs0mg"},{"bike_id":"6452070b-4452-4c6f-9cf8-3604ee67cab1","system_id":"levelo_inurba_marseille","lat":43.230657,"lon":5.354807,"is_reserved":false,"is_disabled":false,"rental_uris":{"android":"levelo://app?vid=6452070b-4452-4c6f-9cf8-3604ee67cab1","ios":"levelo://app?vid=6452070b-4452-4c6f-9cf8-3604ee67cab1"},"vehicle_type_id":"4","last_reported":1757862479,"current_range_meters":16800,"station_id":"cpo3342slgdg3j2ifvpg","pricing_plan_id":"cebpf4jnsgd1na2vs0mg"},