{"last_updated":1767723443,"ttl":60,"version":"2.2","data":{"bikes":[{"bike_id":"3f4936a1-51a0-4cc0-905d-15676dda0b53","system_id":"levelo_inurba_marseille","lat":43.28856,"lon":5.42524,"is_reserved":false,"is_disabled":false,"rental_uris":{"android":"levelo://app?vid=3f4936a1-51a0-4cc0-905d-15676dda0b53","ios":"levelo://app?vid=3f4936a1-51a0-4cc0-905d-15676dda0b53"},"vehicle_type_id":"4","last_reported":1767723444,"current_range_meters":2800,"station_id":"st_d3b462108ojc7389ooeg","pricing_plan_id":"cebpf4jnsgd1na2vs0mg"},{"bike_id":"2299f6f8-489b-427e-9484-81efc5a9abcb","system_id":"levelo_inurba_marseille","lat":43.23155,"lon":5.43694,"is_reserved":false,"is_disabled":false,"rental_uris":{"android":"levelo://app?vid=2299f6f8-489b-427e-9484-81efc5a9abcb","ios":"levelo://app?vid=2299f6f8-489b-427e-9484-81efc5a9abcb"},"vehicle_type_id":"4","last_reported":1767723444,"current_range_meters":2800,"station_id":"ce4bhmp2rcd13ifvqgog","pricing_plan_id":"cebpf4jnsgd1na2vs0mg"},{"bike_id":"4475b542-ba01-401d-a805-cfef4e4f235c","system_id":"levelo_inurba_marseille","lat":43.296131,"lon":5.377087,"is_reserved":false,"is_disabled":false,"rental_uris":{"android":"levelo://app?vid=4475b542-ba01-401d-a805-cfef4e4f235c","ios":"levelo://app?vid=4475b542-ba01-401d-a805-cfef4e4f235c"},"vehicle_type_id":"4","last_reported":1767723444,"current_range_meters":2800,"station_id":"ce4bgi92rcd13ifvqb90","pricing_plan_id":"cebpf4jnsgd1na2vs0mg"},{"bike_id":"a9d496c8-5506-4b4f-a998-1de06b457e15","system_id":"levelo_inurba_marseille","lat":43.31335,"lon":5.36745,"is_reserved":false,"is_disabled":false,"rental_uris":{"android":"levelo://app?vid=a9d496c8-5506-4b4f-a998-1de06b457e15","ios":"levelo://app?vid=a9d496c8-5506-4b4f-a998-1de06b457e15"},"vehicle_type_id":"4","last_reported":1767723444,"current_range_meters":2800,"station_id":"ce4bgr92rcd13ifvqc6g","pricing_plan_id":"cebpf4jnsgd1na2vs0mg"},{"bike_id":"40707d19-1578-4bca-9a90-567e6b76cbbc","system_id":"levelo_inurba_marseille","lat":43.28078,"lon":5.396645,"is_reserved":false,"is_disabled":false,"rental_uris":{"android":"levelo://app?vid=40707d19-1578-4bca-9a90-567e6b76cbbc","ios":"levelo://app?vid=40707d19-1578-4bca-9a90-567e6b76cbbc"},"vehicle_type_id":"4","last_reported":1767723444,"current_range_meters":2800,"station_id":"ce4bho12rcd13ifvqh2g","pricing_plan_id":"cebpf4jnsgd1na2vs0mg"},{"bike_id":"269faeda-f958-4c96-a603-702591889c06","system_id":"levelo_inurba_marseille","lat":43.27085,"lon":5.423,"is_reserved":false,"is_disabled":false,"rental_uris":{"android":"levelo://app?vid=269faeda-f958-4c96-a603-702591889c06","ios":"levelo://app?vid=269faeda-f958-4c96-a603-702591889c06"},"vehicle_type_id":"4","last_reported":1767723444,"current_range_meters":2800,"station_id":"ce4bhk92rcd13ifvqgb0","pricing_plan_id":"cebpf4jnsgd1na2vs0mg"},{"bike_id":"d6ccf16b-4ef4-4a54-926d-ad2dbfc1dc2c","system_id":"levelo_inurba_marseille","lat":43.28482,"lon":5.48393,"is_reserved":false,"is_disabled":false,"rental_uris":{"android":"levelo://app?vid=d6ccf16b-4ef4-4a54-926d-ad2dbfc1dc2c","ios":"levelo://app?vid=d6ccf16b-4ef4-4a54-926d-ad2dbfc1dc2c"},"vehicle_type_id":"4","last_reported":1767723444,"current_range_meters":2800,"station_id":"","pricing_plan_id":"cebpf4jnsgd1na2vs0mg"},{"bike_id":"656670ba-5e4f-457a-85f6-083a3a61d4d8","system_id":"levelo_inurba_marseille","lat":43.256554,"lon":5.382478,"is_reserved":false,"is_disabled":false,"rental_uris":{"android":"levelo://app?vid=656670ba-5e4f-457a-85f6-083a3a61d4d8","ios":"levelo://app?vid=656670ba-5e4f-457a-85f6-083a3a61d4d8"},"vehicle_type_id":"4","last_reported":1767723444,"current_range_meters":2800,"station_id":"ce4bgi12rcd13ifvqb70","pricing_plan_id":"cebpf4jnsgd1na2vs0mg"},{"bike_id":"b803863f-5ac3-4c63-b045-8d317025a1bf","system_id":"levelo_inurba_marseille","lat":43.29925,"lon":5.38005,"is_reserved":false,"is_disabled":false,"rental_uris":{"android":"levelo://app?vid=b803863f-5ac3-4c63-b045-8d317025a1bf","ios":"levelo://app?vid=b803863f-5ac3-4c63-b045-8d317025a1bf"},"vehicle_type_id":"4","last_reported":1767723444,"current_range_meters":2800,"station_id":"","pricing_plan_id":"cebpf4jnsgd1na2vs0mg"},{"bike_id":"5e1196df-a1bf-46c7-b3fb-720984afef29","system_id":"levelo_inurba_marseille","lat":43.26693,"lon":5.38286,"is_reserved":false,"is_disabled":false,"rental_uris":{"android":"levelo://app?vid=5e1196df-a1bf-46c7-b3fb-720984afef29","ios":"levelo://app?vid=5e1196df-a1bf-46c7-b3fb-720984afef29"},"vehicle_type_id":"4","last_reported":1767723444,"current_range_meters":2800,"station_id":"ce4bhg92rcd13ifvqf90","pricing_plan_id":"cebpf4jnsgd1na2vs0mg"},{"bike_id":"ab879403-7aaa-4924-8e9e-09193a082159","system_id":"levelo_inurba_marseille","lat":43.28481,"lon":5.48412,"is_reserved":false,"is_disabled":false,"rental_uris":{"android":"levelo://app?vid=ab879403-7aaa-4924-8e9e-09193a082159","ios":"levelo://app?vid=ab879403-7aaa-4924-8e9e-09193a082159"},"vehicle_type_id":"4","last_reported":1767723444,"current_range_meters":2800,"station_id":"","pricing_plan_id":"cebpf4jnsgd1na2vs0mg"},{"bike_id":"353e7cf9-caeb-4f66-a929-6ba9791edb43","system_id":"levelo_inurba_marseille","lat":43.32099,"lon":5.367744,"is_reserved":false,"is_disabled":false,"rental_uris":{"android":"levelo://app?vid=353e7cf9-caeb-4f66-a929-6ba9791edb43","ios":"levelo://app?vid=353e7cf9-caeb-4f66-a929-6ba9791edb43"},"vehicle_type_id":"4","last_reported":1767723444,"current_range_meters":2800,"station_id":"ce4bhrh2rcd13ifvqhug","pricing_plan_id":"cebpf4jnsgd1na2vs0mg"},{"bike_id":"4b0eb6bf-8d2a-46a3-875c-0677ddbf0536","system_id":"levelo_inurba_marseille","lat":43.22559,"lon":5.41623,"is_reserved":false,"is_disabled":false,"rental_uris":{"android":"levelo://app?vid=4b0eb6bf-8d2a-46a3-875c-0677ddbf0536","ios":"levelo://app?vid=4b0eb6bf-8d2a-46a3-875c-0677ddbf0536"},"vehicle_type_id":"4","last_reported":1767723444,"current_range_meters":2800,"station_id":"st_d2o4gvlbi1j2169b742g","pricing_plan_id":"cebpf4jnsgd1na2vs0mg"},{"bike_id":"445c0dfb-3931-4cf1-b184-a3eca62d01a2","system_id":"levelo_inurba_marseille","lat":43.29624,"lon":5.37739,"is_reserved":false,"is_disabled":false,"rental_uris":{"android":"levelo://app?vid=445c0dfb-3931-4cf1-b184-a3eca62d01a2","ios":"levelo://app?vid=445c0dfb-3931-4cf1-b184-a3eca62d01a2"},"vehicle_type_id":"4","last_reported":1767723444,"current_range_meters":3200,"station_id":"ce4bgi92rcd13ifvqb90","pricing_plan_id":"cebpf4jnsgd1na2vs0mg"},{"bike_id":"ef9486a8-55b3-4d01-af92-b8413b69e516","system_id":"levelo_inurba_marseille","lat":43.28214,"lon":5.39028,"is_reserved":false,"is_disabled":false,"rental_uris":{"android":"levelo://app?vid=ef9486a8-55b3-4d01-af92-b8413b69e516","ios":"levelo://app?vid=ef9486a8-55b3-4d01-af92-b8413b69e516"},"vehicle_type_id":"4","last_reported":1767723444,"current_range_meters":3200,"station_id":"ce4bhn92rcd13ifvqgsg","pricing_plan_id":"cebpf4jnsgd1na2vs0mg"},{"bike_id":"744d77df-00b1-4d5a-99ac-f09a8caf3533","system_id":"levelo_inurba_marseille","lat":43.29005,"lon":5.35616,"is_reserved":false,"is_disabled":false,"rental_uris":{"android":"levelo://app?vid=744d77df-00b1-4d5a-99ac-f09a8caf3533","ios":"levelo://app?vid=744d77df-00b1-4d5a-99ac-f09a8caf3533"},"vehicle_type_id":"4","last_reported":1767723444,"current_range_meters":3200,"station_id":"ce4bhb92rcd13ifvqen0","pricing_plan_id":"cebpf4jnsgd1na2vs0mg"},{"bike_id":"4f2c689a-4a53-40c3-a47b-8769cd65f14c","system_id":"levelo_inurba_marseille","lat":43.27217,"lon":5.3919,"is_reserved":false,"is_disabled":false,"rental_uris":{"android":"levelo://app?vid=4f2c689a-4a53-40c3-a47b-8769cd65f14c","ios":"levelo://app?vid=4f2c689a-4a53-40c3-a47b-8769cd65f14c"},"vehicle_type_id":"4","last_reported":1767723444,"current_range_meters":3200,"station_id":"ce4bh5p2rcd13ifvqe4g","pricing_plan_id":"cebpf4jnsgd1na2vs0mg"},{"bike_id":"f26ff975-07a0-4c80-ba97-925c8b28de6d","system_id":"levelo_inurba_marseille","lat":43.25946,"lon":5.40861,"is_reserved":false,"is_disabled":true,"rental_uris":{"android":"levelo://app?vid=f26ff975-07a0-4c80-ba97-925c8b28de6d","ios":"levelo://app?vid=f26ff975-07a0-4c80-ba97-925c8b28de6d"},"vehicle_type_id":"4","last_reported":1767723444,"current_range_meters":3200,"station_id":"ce4bhm92rcd13ifvqglg","pricing_plan_id":"cebpf4jnsgd1na2vs0mg"},{"bike_id":"ebb75531-7719-4351-9c5e-1ff8c7592cb4","system_id":"levelo_inurba_marseille","lat":43.2923,"lon":5.36061,"is_reserved":false,"is_disabled":false,"rental_uris":{"android":"levelo://app?vid=ebb75531-7719-4351-9c5e-1ff8c7592cb4","ios":"levelo://app?vid=ebb75531-7719-4351-9c5e-1ff8c7592cb4"},"vehicle_type_id":"4","last_reported":1767723444,"current_range_meters":3200,"station_id":"ce4bhbh2rcd13ifvqeqg","pricing_plan_id":"cebpf4jnsgd1na2vs0mg"},{"bike_id":"8120dcd1-aeba-4da3-b3a6-5919c684828d","system_id":"levelo_inurba_marseille","lat":43.285686,"lon":5.394855,"is_reserved":false,"is_disabled":false,"rental_uris":{"android":"levelo://app?vid=8120dcd1-aeba-4da3-b3a6-5919c684828d","ios":"levelo://app?vid=8120dcd1-aeba-4da3-b3a6-5919c684828d"},"vehicle_type_id":"4","last_reported":1767723444,"current_range_meters":3200,"station_id":"ce4bh292rcd13ifvqdg0","pricing_plan_id":"cebpf4jnsgd1na2vs0mg"},{"bike_id":"b29b9a15-6ba4-4fba-bac4-0a3d69441926","system_id":"levelo_inurba_marseille","lat":43.27997,"lon":5.40001,"is_reserved":false,"is_disabled":false,"rental_uris":{"android":"levelo://app?vid=b29b9a15-6ba4-4fba-bac4-0a3d69441926","ios":"levelo://app?vid=b29b9a15-6ba4-4fba-bac4-0a3d69441926"},"vehicle_type_id":"4","last_reported":1767723444,"current_range_meters":3200,"station_id":"ce4bho92rcd13ifvqh4g","pricing_plan_id":"cebpf4jnsgd1na2vs0mg"},{"bike_id":"e10d2e97-3324-4923-8226-ed68a3a3ab41","system_id":"levelo_inurba_marseille","lat":43.298596,"lon":5.362835,"is_reserved":false,"is_disabled":false,"rental_uris":{"android":"levelo://app?vid=e10d2e97-3324-4923-8226-ed68a3a3ab41","ios":"levelo://app?vid=e10d2e97-3324-4923-8226-ed68a3a3ab41"},"vehicle_type_id":"4","last_reported":1767723444,"current_range_meters":3600,"station_id":"ce4bgpp2rcd13ifvqc3g","pricing_plan_id":"cebpf4jnsgd1na2vs0mg"},{"bike_id":"44e7a6b0-32f7-43dc-9ef2-3f4cc856431d","system_id":"levelo_inurba_marseille","lat":43.23958,"lon":5.36627,"is_reserved":false,"is_disabled":false,"rental_uris":{"android":"levelo://app?vid=44e7a6b0-32f7-43dc-9ef2-3f4cc856431d","ios":"levelo://app?vid=44e7a6b0-32f7-43dc-9ef2-3f4cc856431d"},"vehicle_type_id":"4","last_reported":1767723444,"current_range_meters":3600,"station_id":"ce4bhi12rcd13ifvqfp0","pricing_plan_id":"cebpf4jnsgd1na2vs0mg"},{"bike_id":"b68c8432-ad2c-4279-a8d8-78fad8660d3a","system_id":"levelo_inurba_marseille","lat":43.295205,"lon":5.374464,"is_reserved":false,"is_disabled":false,"rental_uris":{"android":"levelo://app?vid=b68c8432-ad2c-4279-a8d8-78fad8660d3a","ios":"levelo://app?vid=b68c8432-ad2c-4279-a8d8-78fad8660d3a"},"vehicle_type_id":"4","last_reported":1767723444,"current_range_meters":3600,"station_id":"","pricing_plan_id":"cebpf4jnsgd1na2vs0mg"},{"bike_id":"4b4a53ce-6685-4c48-92e4-9aa87114a53f","system_id":"levelo_inurba_marseille","lat":43.278112,"lon":5.40714,"is_reserved":false,"is_disabled":false,"rental_uris":{"android":"levelo://app?vid=4b4a53ce-6685-4c48-92e4-9aa87114a53f","ios":"levelo://app?vid=4b4a53ce-6685-4c48-92e4-9aa87114a53f"},"vehicle_type_id":"4","last_reported":1767723444,"current_range_meters":3600,"station_id":"","pricing_plan_id":"cebpf4jnsgd1na2vs0mg"},{"bike_id":"3317214f-4e94-4167-ad14-c165fcac1f32","system_id":"levelo_inurba_marseille","lat":43.28964,"lon":5.37849,"is_reserved":false,"is_disabled":false,"rental_uris":{"android":"levelo://app?vid=3317214f-4e94-4167-ad14-c165fcac1f32","ios":"levelo://app?vid=3317214f-4e94-4167-ad14-c165fcac1f32"},"vehicle_type_id":"4","last_reported":1767723444,"current_range_meters":3600,"station_id":"ce4bh9p2rcd13ifvqed0","pricing_plan_id":"cebpf4jnsgd1na2vs0mg"},{"bike_id":"238d648a-e098-4396-88de-0b43e9b9c05f","system_id":"levelo_inurba_marseille","lat":43.26707,"lon":5.40204,"is_reserved":false,"is_disabled":false,"rental_uris":{"android":"levelo://app?vid=238d648a-e098-4396-88de-0b43e9b9c05f","ios":"levelo://app?vid=238d648a-e098-4396-88de-0b43e9b9c05f"},"vehicle_type_id":"4","last_reported":1767723444,"current_range_meters":3600,"station_id":"","pricing_plan_id":"cebpf4jnsgd1na2vs0mg"},{"bike_id":"6503a4f5-f715-4c35-b564-ed314852eb58","system_id":"levelo_inurba_marseille","lat":43.24813,"lon":5.37459,"is_reserved":false,"is_disabled":false,"rental_uris":{"android":"levelo://app?vid=6503a4f5-f715-4c35-b564-ed314852eb58","ios":"levelo://app?vid=6503a4f5-f715-4c35-b564-ed314852eb58"},"vehicle_type_id":"4","last_reported":1767723444,"current_range_meters":3600,"station_id":"ce4bhgh2rcd13ifvqfb0","pricing_plan_id":"cebpf4jnsgd1na2vs0mg"},{"bike_id":"09fbfb7b-c8e1-4883-b44a-dbaf2bf5f197","system_id":"levelo_inurba_marseille","lat":43.25338,"lon":5.42175,"is_reserved":false,"is_disabled":false,"rental_uris":{"android":"levelo://app?vid=09fbfb7b-c8e1-4883-b44a-dbaf2bf5f197","ios":"levelo://app?vid=09fbfb7b-c8e1-4883-b44a-dbaf2bf5f197"},"vehicle_type_id":"4","last_reported":1767723444,"current_range_meters":3600,"station_id":"st_d2m65c5bi1j21697t3ng","pricing_plan_id":"cebpf4jnsgd1na2vs0mg"},{"bike_id":"9cb6f7b6-d231-4e4c-b752-c02687b48f97","system_id":"levelo_inurba_marseille","lat":43.28866,"lon":5.42505,"is_reserved":false,"is_disabled":false,"rental_uris":{"android":"levelo://app?vid=9cb6f7b6-d231-4e4c-b752-c02687b48f97","ios":"levelo://app?vid=9cb6f7b6-d231-4e4c-b752-c02687b48f97"},"vehicle_type_id":"4","last_reported":1767723444,"current_range_meters":3600,"station_id":"st_d3b462108ojc7389ooeg","pricing_plan_id":"cebpf4jnsgd1na2vs0mg"},{"bike_id":"78e2864f-f734-48a5-a69c-1ba0ebe24f90","system_id":"levelo_inurba_marseille","lat":43.29761,"lon":5.37782,"is_reserved":false,"is_disabled":false,"rental_uris":{"android":"levelo://app?vid=78e2864f-f734-48a5-a69c-1ba0ebe24f90","ios":"levelo://app?vid=78e2864f-f734-48a5-a69c-1ba0ebe24f90"},"vehicle_type_id":"4","last_reported":1767723444,"current_range_meters":3600,"station_id":"","pricing_plan_id":"cebpf4jnsgd1na2vs0mg"},{"bike_id":"a8833fa1-2764-4a11-a658-a5a8e425f924","system_id":"levelo_inurba_marseille","lat":43.25513,"lon":5.37653,"is_reserved":false,"is_disabled":false,"rental_uris":{"android":"levelo://app?vid=a8833fa1-2764-4a11-a658-a5a8e425f924","ios":"levelo://app?vid=a8833fa1-2764-4a11-a658-a5a8e425f924"},"vehicle_type_id":"4","last_reported":1767723444,"current_range_meters":3600,"station_id":"ce4bhh12rcd13ifvqff0","pricing_plan_id":"cebpf4jnsgd1na2vs0mg"},{"bike_id":"91f215fe-a0b7-4449-aae0-f5ea9a48d5cc","system_id":"levelo_inurba_marseille","lat":43.25083,"lon":5.39512,"is_reserved":false,"is_disabled":false,"rental_uris":{"android":"levelo://app?vid=91f215fe-a0b7-4449-aae0-f5ea9a48d5cc","ios":"levelo://app?vid=91f215fe-a0b7-4449-aae0-f5ea9a48d5cc"},"vehicle_type_id":"4","last_reported":1767723444,"current_range_meters":3600,"station_id":"ce4bhm12rcd13ifvqgkg","pricing_plan_id":"cebpf4jnsgd1na2vs0mg"},{"bike_id":"c579c5ce-7a15-4dc8-a202-6ec7ea4354cc","system_id":"levelo_inurba_marseille","lat":43.31047,"lon":5.39377,"is_reserved":false,"is_disabled":false,"rental_uris":{"android":"levelo://app?vid=c579c5ce-7a15-4dc8-a202-6ec7ea4354cc","ios":"levelo://app?vid=c579c5ce-7a15-4dc8-a202-6ec7ea4354cc"},"vehicle_type_id":"4","last_reported":1767723444,"current_range_meters":3600,"station_id":"","pricing_plan_id":"cebpf4jnsgd1na2vs0mg"},{"bike_id":"3bc88049-fe85-4f81-88f2-4fe0073c7893","system_id":"levelo_inurba_marseille","lat":43.29624,"lon":5.38961,"is_reserved":false,"is_disabled":false,"rental_uris":{"android":"levelo://app?vid=3bc88049-fe85-4f81-88f2-4fe0073c7893","ios":"levelo://app?vid=3bc88049-fe85-4f81-88f2-4fe0073c7893"},"vehicle_type_id":"4","last_reported":1767723444,"current_range_meters":3600,"station_id":"ce4bgqh2rcd13ifvqc5g","pricing_plan_id":"cebpf4jnsgd1na2vs0mg"},{"bike_id":"6a6ced44-fe6b-447f-95fe-11bcb7b002ea","system_id":"levelo_inurba_marseille","lat":43.29751,"lon":5.37649,"is_reserved":false,"is_disabled":false,"rental_uris":{"android":"levelo://app?vid=6a6ced44-fe6b-447f-95fe-11bcb7b002ea","ios":"levelo://app?vid=6a6ced44-fe6b-447f-95fe-11bcb7b002ea"},"vehicle_type_id":"4","last_reported":1767723444,"current_range_meters":3600,"station_id":"ce4bgkh2rcd13ifvqbl0","pricing_plan_id":"cebpf4jnsgd1na2vs0mg"},{"bike_id":"32d43fc1-b5cc-4f93-84c8-0faa1d935387","system_id":"levelo_inurba_marseille","lat":43.24634,"lon":5.43141,"is_reserved":false,"is_disabled":false,"rental_uris":{"android":"levelo://app?vid=32d43fc1-b5cc-4f93-84c8-0faa1d935387","ios":"levelo://app?vid=32d43fc1-b5cc-4f93-84c8-0faa1d935387"},"vehicle_type_id":"4","last_reported":1767723444,"current_range_meters":3600,"station_id":"st_d2m6c4gdas8pm72e190g","pricing_plan_id":"cebpf4jnsgd1na2vs0mg"},{"bike_id":"3c8cd6af-4397-4a6a-a9f4-c097068fb96d","system_id":"levelo_inurba_marseille","lat":43.26277,"lon":5.39799,"is_reserved":false,"is_disabled":false,"rental_uris":{"android":"levelo://app?vid=3c8cd6af-4397-4a6a-a9f4-c097068fb96d","ios":"levelo://app?vid=3c8cd6af-4397-4a6a-a9f4-c097068fb96d"},"vehicle_type_id":"4","last_reported":1767723444,"current_range_meters":3600,"station_id":"","pricing_plan_id":"cebpf4jnsgd1na2vs0mg"},{"bike_id":"1d66bfcd-9404-46f6-8da1-909c97a5c04d","system_id":"levelo_inurba_marseille","lat":43.29728,"lon":5.37691,"is_reserved":false,"is_disabled":false,"rental_uris":{"android":"levelo://app?vid=1d66bfcd-9404-46f6-8da1-909c97a5c04d","ios":"levelo://app?vid=1d66bfcd-9404-46f6-8da1-909c97a5c04d"},"vehicle_type_id":"4","last_reported":1767723444,"current_range_meters":4000,"station_id":"ce4bgkh2rcd13ifvqbl0","pricing_plan_id":"cebpf4jnsgd1na2vs0mg"},{"bike_id":"d026db6e-9638-4b95-ac99-9fd478c6bf8a","system_id":"levelo_inurba_marseille","lat":43.29008,"lon":5.35612,"is_reserved":false,"is_disabled":false,"rental_uris":{"android":"levelo://app?vid=d026db6e-9638-4b95-ac99-9fd478c6bf8a","ios":"levelo://app?vid=d026db6e-9638-4b95-ac99-9fd478c6bf8a"},"vehicle_type_id":"4","last_reported":1767723444,"current_range_meters":4000,"station_id":"ce4bhb92rcd13ifvqen0","pricing_plan_id":"cebpf4jnsgd1na2vs0mg"},{"bike_id":"8c027c37-5603-4f97-a186-de2bd2bce474","system_id":"levelo_inurba_marseille","lat":43.31212,"lon":5.36841,"is_reserved":false,"is_disabled":false,"rental_uris":{"android":"levelo://app?vid=8c027c37-5603-4f97-a186-de2bd2bce474","ios":"levelo://app?vid=8c027c37-5603-4f97-a186-de2bd2bce474"},"vehicle_type_id":"4","last_reported":1767723444,"current_range_meters":4000,"station_id":"ce4bgl92rcd13ifvqbq0","pricing_plan_id":"cebpf4jnsgd1na2vs0mg"},{"bike_id":"63252917-268b-45e0-88bf-f8b582d2ade2","system_id":"levelo_inurba_marseille","lat":43.29598,"lon":5.36744,"is_reserved":false,"is_disabled":false,"rental_uris":{"android":"levelo://app?vid=63252917-268b-45e0-88bf-f8b582d2ade2","ios":"levelo://app?vid=63252917-268b-45e0-88bf-f8b582d2ade2"},"vehicle_type_id":"4","last_reported":1767723444,"current_range_meters":4000,"station_id":"ce4bgph2rcd13ifvqc2g","pricing_plan_id":"cebpf4jnsgd1na2vs0mg"},{"bike_id":"868f69bf-a7b0-45d1-8bcf-5a8d8ec63388","system_id":"levelo_inurba_marseille","lat":43.296142,"lon":5.377252,"is_reserved":false,"is_disabled":false,"rental_uris":{"android":"levelo://app?vid=868f69bf-a7b0-45d1-8bcf-5a8d8ec63388","ios":"levelo://app?vid=868f69bf-a7b0-45d1-8bcf-5a8d8ec63388"},"vehicle_type_id":"4","last_reported":1767723444,"current_range_meters":4000,"station_id":"ce4bgi92rcd13ifvqb90","pricing_plan_id":"cebpf4jnsgd1na2vs0mg"},{"bike_id":"c9b87726-8bf1-4969-9d96-4aed66906683","system_id":"levelo_inurba_marseille","lat":43.25518,"lon":5.3765,"is_reserved":false,"is_disabled":false,"rental_uris":{"android":"levelo://app?vid=c9b87726-8bf1-4969-9d96-4aed66906683","ios":"levelo://app?vid=c9b87726-8bf1-4969-9d96-4aed66906683"},"vehicle_type_id":"4","last_reported":1767723444,"current_range_meters":4000,"station_id":"ce4bhh12rcd13ifvqff0","pricing_plan_id":"cebpf4jnsgd1na2vs0mg"},{"bike_id":"6470287d-a8df-45ef-a85f-2e447246a04d","system_id":"levelo_inurba_marseille","lat":43.31699,"lon":5.3999,"is_reserved":false,"is_disabled":false,"rental_uris":{"android":"levelo://app?vid=6470287d-a8df-45ef-a85f-2e447246a04d","ios":"levelo://app?vid=6470287d-a8df-45ef-a85f-2e447246a04d"},"vehicle_type_id":"4","last_reported":1767723444,"current_range_meters":4000,"station_id":"","pricing_plan_id":"cebpf4jnsgd1na2vs0mg"},{"bike_id":"64cf0efb-83a2-48da-adf6-516927c39a91","system_id":"levelo_inurba_marseille","lat":43.23145,"lon":5.43701,"is_reserved":false,"is_disabled":false,"rental_uris":{"android":"levelo://app?vid=64cf0efb-83a2-48da-adf6-516927c39a91","ios":"levelo://app?vid=64cf0efb-83a2-48da-adf6-516927c39a91"},"vehicle_type_id":"4","last_reported":1767723444,"current_range_meters":4000,"station_id":"ce4bhmp2rcd13ifvqgog","pricing_plan_id":"cebpf4jnsgd1na2vs0mg"},{"bike_id":"69304a06-c31d-4f90-bee5-5152895d3519","system_id":"levelo_inurba_marseille","lat":43.27175,"lon":5.40995,"is_reserved":false,"is_disabled":true,"rental_uris":{"android":"levelo://app?vid=69304a06-c31d-4f90-bee5-5152895d3519","ios":"levelo://app?vid=69304a06-c31d-4f90-bee5-5152895d3519"},"vehicle_type_id":"4","last_reported":1767723444,"current_range_meters":4000,"station_id":"ce4bhl12rcd13ifvqgf0","pricing_plan_id":"cebpf4jnsgd1na2vs0mg"},{"bike_id":"9e75e4df-3863-4065-b371-91603a64bae0","system_id":"levelo_inurba_marseille","lat":43.23121,"lon":5.43689,"is_reserved":false,"is_disabled":false,"rental_uris":{"android":"levelo://app?vid=9e75e4df-3863-4065-b371-91603a64bae0","ios":"levelo://app?vid=9e75e4df-3863-4065-b371-91603a64bae0"},"vehicle_type_id":"4","last_reported":1767723444,"current_range_meters":4000,"station_id":"ce4bhmp2rcd13ifvqgog","pricing_plan_id":"cebpf4jnsgd1na2vs0mg"},{"bike_id":"e6a49a5c-db63-4cfd-b2e9-06ff5ab0f326","system_id":"levelo_inurba_marseille","lat":43.27205,"lon":5.3918,"is_reserved":false,"is_disabled":false,"rental_uris":{"android":"levelo://app?vid=e6a49a5c-db63-4cfd-b2e9-06ff5ab0f326","ios":"levelo://app?vid=e6a49a5c-db63-4cfd-b2e9-06ff5ab0f326"},"vehicle_type_id":"4","last_reported":1767723444,"current_range_meters":4000,"station_id":"ce4bhhp2rcd13ifvqfm0","pricing_plan_id":"cebpf4jnsgd1na2vs0mg"},{"bike_id":"9dfe4740-42e1-4c4a-b44f-adaa22690e62","system_id":"levelo_inurba_marseille","lat":43.25573,"lon":5.3823,"is_reserved":false,"is_disabled":false,"rental_uris":{"android":"levelo://app?vid=9dfe4740-42e1-4c4a-b44f-adaa22690e62","ios":"levelo://app?vid=9dfe4740-42e1-4c4a-b44f-adaa22690e62"},"vehicle_type_id":"4","last_reported":1767723444,"current_range_meters":4000,"station_id":"ce4bhih2rcd13ifvqfs0","pricing_plan_id":"cebpf4jnsgd1na2vs0mg"},{"bike_id":"56d62e0c-5b75-4ffd-906f-6c8a0578d3ff","system_id":"levelo_inurba_marseille","lat":43.27376,"lon":5.36251,"is_reserved":false,"is_disabled":false,"rental_uris":{"android":"levelo://app?vid=56d62e0c-5b75-4ffd-906f-6c8a0578d3ff","ios":"levelo://app?vid=56d62e0c-5b75-4ffd-906f-6c8a0578d3ff"},"vehicle_type_id":"4","last_reported":1767723444,"current_range_meters":4000,"station_id":"ce4bhbh2rcd13ifvqeo0","pricing_plan_id":"cebpf4jnsgd1na2vs0mg"},{"bike_id":"0a64404d-5550-4e46-a919-732e775da9fe","system_id":"levelo_inurba_marseille","lat":43.296663,"lon":5.379434,"is_reserved":false,"is_disabled":false,"rental_uris":{"android":"levelo://app?vid=0a64404d-5550-4e46-a919-732e775da9fe","ios":"levelo://app?vid=0a64404d-5550-4e46-a919-732e775da9fe"},"vehicle_type_id":"4","last_reported":1767723444,"current_range_meters":4000,"station_id":"ce4bgl92rcd13ifvqbq0","pricing_plan_id":"cebpf4jnsgd1na2vs0mg"},{"bike_id":"083b93d2-b3c9-427c-b766-b080ed5faf54","system_id":"levelo_inurba_marseille","lat":43.291914,"lon":5.357886,"is_reserved":false,"is_disabled":false,"rental_uris":{"android":"levelo://app?vid=083b93d2-b3c9-427c-b766-b080ed5faf54","ios":"levelo://app?vid=083b93d2-b3c9-427c-b766-b080ed5faf54"},"vehicle_type_id":"4","last_reported":1767723444,"current_range_meters":4000,"station_id":"ce4bhb12rcd13ifvqel0","pricing_plan_id":"cebpf4jnsgd1na2vs0mg"},{"bike_id":"58432d52-3928-4d1c-ab95-fb6c11ada18b","system_id":"levelo_inurba_marseille","lat":43.31116,"lon":5.37838,"is_reserved":false,"is_disabled":false,"rental_uris":{"android":"levelo://app?vid=58432d52-3928-4d1c-ab95-fb6c11ada18b","ios":"levelo://app?vid=58432d52-3928-4d1c-ab95-fb6c11ada18b"},"vehicle_type_id":"4","last_reported":1767723444,"current_range_meters":4000,"station_id":"","pricing_plan_id":"cebpf4jnsgd1na2vs0mg"},{"bike_id":"b6e4cde8-9808-496c-b0cc-09c8208190b6","system_id":"levelo_inurba_marseille","lat":43.30648,"lon":5.40083,"is_reserved":false,"is_disabled":false,"rental_uris":{"android":"levelo://app?vid=b6e4cde8-9808-496c-b0cc-09c8208190b6","ios":"levelo://app?vid=b6e4cde8-9808-496c-b0cc-09c8208190b6"},"vehicle_type_id":"4","last_reported":1767723444,"current_range_meters":4400,"station_id":"ce4bh112rcd13ifvqda0","pricing_plan_id":"cebpf4jnsgd1na2vs0mg"},{"bike_id":"ac7ecae8-3adc-42b6-8786-58adb88ffea6","system_id":"levelo_inurba_marseille","lat":43.295272,"lon":5.385533,"is_reserved":false,"is_disabled":false,"rental_uris":{"android":"levelo://app?vid=ac7ecae8-3adc-42b6-8786-58adb88ffea6","ios":"levelo://app?vid=ac7ecae8-3adc-42b6-8786-58adb88ffea6"},"vehicle_type_id":"4","last_reported":1767723444,"current_range_meters":4400,"station_id":"ce4bgih2rcd13ifvqba0","pricing_plan_id":"cebpf4jnsgd1na2vs0mg"},{"bike_id":"96f162c5-01fb-4c22-9924-40912f12cd97","system_id":"levelo_inurba_marseille","lat":43.30791,"lon":5.38146,"is_reserved":false,"is_disabled":false,"rental_uris":{"android":"levelo://app?vid=96f162c5-01fb-4c22-9924-40912f12cd97","ios":"levelo://app?vid=96f162c5-01fb-4c22-9924-40912f12cd97"},"vehicle_type_id":"4","last_reported":1767723444,"current_range_meters":4400,"station_id":"ce4bgt12rcd13ifvqce0","pricing_plan_id":"cebpf4jnsgd1na2vs0mg"},{"bike_id":"1d1aa57c-101c-4cf2-9f41-6e829b5c2500","system_id":"levelo_inurba_marseille","lat":43.30298,"lon":5.36893,"is_reserved":false,"is_disabled":false,"rental_uris":{"android":"levelo://app?vid=1d1aa57c-101c-4cf2-9f41-6e829b5c2500","ios":"levelo://app?vid=1d1aa57c-101c-4cf2-9f41-6e829b5c2500"},"vehicle_type_id":"4","last_reported":1767723444,"current_range_meters":4400,"station_id":"ce4bgqh2rcd13ifvqc5g","pricing_plan_id":"cebpf4jnsgd1na2vs0mg"},{"bike_id":"df7337f7-a443-485f-946c-e99819254d4e","system_id":"levelo_inurba_marseille","lat":43.31065,"lon":5.40073,"is_reserved":false,"is_disabled":false,"rental_uris":{"android":"levelo://app?vid=df7337f7-a443-485f-946c-e99819254d4e","ios":"levelo://app?vid=df7337f7-a443-485f-946c-e99819254d4e"},"vehicle_type_id":"4","last_reported":1767723444,"current_range_meters":4400,"station_id":"","pricing_plan_id":"cebpf4jnsgd1na2vs0mg"},{"bike_id":"70daa543-1773-4fc8-a39b-865bf2d12adc","system_id":"levelo_inurba_marseille","lat":43.29451,"lon":5.37934,"is_reserved":false,"is_disabled":true,"rental_uris":{"android":"levelo://app?vid=70daa543-1773-4fc8-a39b-865bf2d12adc","ios":"levelo://app?vid=70daa543-1773-4fc8-a39b-865bf2d12adc"},"vehicle_type_id":"4","last_reported":1767723444,"current_range_meters":4400,"station_id":"","pricing_plan_id":"cebpf4jnsgd1na2vs0mg"},{"bike_id":"802fe12d-f14a-45a9-ab39-7a7c51870c15","system_id":"levelo_inurba_marseille","lat":43.31701,"lon":5.39838,"is_reserved":false,"is_disabled":false,"rental_uris":{"android":"levelo://app?vid=802fe12d-f14a-45a9-ab39-7a7c51870c15","ios":"levelo://app?vid=802fe12d-f14a-45a9-ab39-7a7c51870c15"},"vehicle_type_id":"4","last_reported":1767723444,"current_range_meters":4400,"station_id":"","pricing_plan_id":"cebpf4jnsgd1na2vs0mg"},{"bike_id":"48c3b1f1-425a-4a4e-acf8-0c26c129b96e","system_id":"levelo_inurba_marseille","lat":43.25826,"lon":5.39435,"is_reserved":false,"is_disabled":false,"rental_uris":{"android":"levelo://app?vid=48c3b1f1-425a-4a4e-acf8-0c26c129b96e","ios":"levelo://app?vid=48c3b1f1-425a-4a4e-acf8-0c26c129b96e"},"vehicle_type_id":"4","last_reported":1767723444,"current_range_meters":4400,"station_id":"ce4bhip2rcd13ifvqft0","pricing_plan_id":"cebpf4jnsgd1na2vs0mg"},{"bike_id":"654dcc92-3dea-4c1b-a1da-8a10a2486974","system_id":"levelo_inurba_marseille","lat":43.297924,"lon":5.381149,"is_reserved":false,"is_disabled":false,"rental_uris":{"android":"levelo://app?vid=654dcc92-3dea-4c1b-a1da-8a10a2486974","ios":"levelo://app?vid=654dcc92-3dea-4c1b-a1da-8a10a2486974"},"vehicle_type_id":"4","last_reported":1767723444,"current_range_meters":4400,"station_id":"ce4bgip2rcd13ifvqbb0","pricing_plan_id":"cebpf4jnsgd1na2vs0mg"},{"bike_id":"549fcf99-9fc4-402c-a3ba-950d6ff96ead","system_id":"levelo_inurba_marseille","lat":43.29506,"lon":5.39043,"is_reserved":false,"is_disabled":false,"rental_uris":{"android":"levelo://app?vid=549fcf99-9fc4-402c-a3ba-950d6ff96ead","ios":"levelo://app?vid=549fcf99-9fc4-402c-a3ba-950d6ff96ead"},"vehicle_type_id":"4","last_reported":1767723444,"current_range_meters":4400,"station_id":"ce4bh3p2rcd13ifvqdp0","pricing_plan_id":"cebpf4jnsgd1na2vs0mg"},{"bike_id":"11adeb41-b6f2-4469-9a2e-d919f37cca89","system_id":"levelo_inurba_marseille","lat":43.24471,"lon":5.42529,"is_reserved":false,"is_disabled":false,"rental_uris":{"android":"levelo://app?vid=11adeb41-b6f2-4469-9a2e-d919f37cca89","ios":"levelo://app?vid=11adeb41-b6f2-4469-9a2e-d919f37cca89"},"vehicle_type_id":"4","last_reported":1767723444,"current_range_meters":4400,"station_id":"st_d4a3vfp97mjs738cd8kg","pricing_plan_id":"cebpf4jnsgd1na2vs0mg"},{"bike_id":"6c6c2beb-34e7-41f4-806d-300db39ef2db","system_id":"levelo_inurba_marseille","lat":43.24394,"lon":5.37062,"is_reserved":false,"is_disabled":false,"rental_uris":{"android":"levelo://app?vid=6c6c2beb-34e7-41f4-806d-300db39ef2db","ios":"levelo://app?vid=6c6c2beb-34e7-41f4-806d-300db39ef2db"},"vehicle_type_id":"4","last_reported":1767723444,"current_range_meters":4400,"station_id":"ce4bhhh2rcd13ifvqfk0","pricing_plan_id":"cebpf4jnsgd1na2vs0mg"},{"bike_id":"d11172e4-299d-49d5-a8f0-7356cf6ca8b1","system_id":"levelo_inurba_marseille","lat":43.284698,"lon":5.380485,"is_reserved":false,"is_disabled":false,"rental_uris":{"android":"levelo://app?vid=d11172e4-299d-49d5-a8f0-7356cf6ca8b1","ios":"levelo://app?vid=d11172e4-299d-49d5-a8f0-7356cf6ca8b1"},"vehicle_type_id":"4","last_reported":1767723444,"current_range_meters":4400,"station_id":"ce4bh412rcd13ifvqdr0","pricing_plan_id":"cebpf4jnsgd1na2vs0mg"},{"bike_id":"b9f7b50d-4eff-4b3c-b608-f2267a320ec1","system_id":"levelo_inurba_marseille","lat":43.28848,"lon":5.42523,"is_reserved":false,"is_disabled":false,"rental_uris":{"android":"levelo://app?vid=b9f7b50d-4eff-4b3c-b608-f2267a320ec1","ios":"levelo://app?vid=b9f7b50d-4eff-4b3c-b608-f2267a320ec1"},"vehicle_type_id":"4","last_reported":1767723444,"current_range_meters":4400,"station_id":"st_d3b462108ojc7389ooeg","pricing_plan_id":"cebpf4jnsgd1na2vs0mg"},{"bike_id":"a96d205f-7eee-47b8-a634-8765767ae108","system_id":"levelo_inurba_marseille","lat":43.25572,"lon":5.38226,"is_reserved":false,"is_disabled":false,"rental_uris":{"android":"levelo://app?vid=a96d205f-7eee-47b8-a634-8765767ae108","ios":"levelo://app?vid=a96d205f-7eee-47b8-a634-8765767ae108"},"vehicle_type_id":"4","last_reported":1767723444,"current_range_meters":4400,"station_id":"ce4bhih2rcd13ifvqfs0","pricing_plan_id":"cebpf4jnsgd1na2vs0mg"},{"bike_id":"4250a9d6-b0a9-443a-8d24-a5d61f39c768","system_id":"levelo_inurba_marseille","lat":43.30198,"lon":5.36629,"is_reserved":false,"is_disabled":false,"rental_uris":{"android":"levelo://app?vid=4250a9d6-b0a9-443a-8d24-a5d61f39c768","ios":"levelo://app?vid=4250a9d6-b0a9-443a-8d24-a5d61f39c768"},"vehicle_type_id":"4","last_reported":1767723444,"current_range_meters":4400,"station_id":"ce4bgrh2rcd13ifvqc8g","pricing_plan_id":"cebpf4jnsgd1na2vs0mg"},{"bike_id":"d25c1254-5ba5-4cef-9983-c90b3ec9b80a","system_id":"levelo_inurba_marseille","lat":43.30475,"lon":5.4106,"is_reserved":false,"is_disabled":false,"rental_uris":{"android":"levelo://app?vid=d25c1254-5ba5-4cef-9983-c90b3ec9b80a","ios":"levelo://app?vid=d25c1254-5ba5-4cef-9983-c90b3ec9b80a"},"vehicle_type_id":"4","last_reported":1767723444,"current_range_meters":4800,"station_id":"","pricing_plan_id":"cebpf4jnsgd1na2vs0mg"},{"bike_id":"0f293502-121a-4187-becd-00c74b272d97","system_id":"levelo_inurba_marseille","lat":43.211933,"lon":5.350746,"is_reserved":false,"is_disabled":false,"rental_uris":{"android":"levelo://app?vid=0f293502-121a-4187-becd-00c74b272d97","ios":"levelo://app?vid=0f293502-121a-4187-becd-00c74b272d97"},"vehicle_type_id":"4","last_reported":1767723444,"current_range_meters":4800,"station_id":"st_cvj6sg6p6f1abm77japg","pricing_plan_id":"cebpf4jnsgd1na2vs0mg"},{"bike_id":"1af2e362-7fe9-44e8-b51c-b385360caabf","system_id":"levelo_inurba_marseille","lat":43.29274,"lon":5.3684,"is_reserved":false,"is_disabled":false,"rental_uris":{"android":"levelo://app?vid=1af2e362-7fe9-44e8-b51c-b385360caabf","ios":"levelo://app?vid=1af2e362-7fe9-44e8-b51c-b385360caabf"},"vehicle_type_id":"4","last_reported":1767723444,"current_range_meters":4800,"station_id":"ce4bhbp2rcd13ifvqesg","pricing_plan_id":"cebpf4jnsgd1na2vs0mg"},{"bike_id":"40ef5c73-5486-43cb-8929-d818e25dffa6","system_id":"levelo_inurba_marseille","lat":43.32652,"lon":5.41944,"is_reserved":false,"is_disabled":false,"rental_uris":{"android":"levelo://app?vid=40ef5c73-5486-43cb-8929-d818e25dffa6","ios":"levelo://app?vid=40ef5c73-5486-43cb-8929-d818e25dffa6"},"vehicle_type_id":"4","last_reported":1767723444,"current_range_meters":4800,"station_id":"","pricing_plan_id":"cebpf4jnsgd1na2vs0mg"},{"bike_id":"e99285a1-2e4a-470a-bc95-1420a4d0f59c","system_id":"levelo_inurba_marseille","lat":43.27823,"lon":5.39206,"is_reserved":false,"is_disabled":false,"rental_uris":{"android":"levelo://app?vid=e99285a1-2e4a-470a-bc95-1420a4d0f59c","ios":"levelo://app?vid=e99285a1-2e4a-470a-bc95-1420a4d0f59c"},"vehicle_type_id":"4","last_reported":1767723444,"current_range_meters":4800,"station_id":"ce4bhjp2rcd13ifvqga0","pricing_plan_id":"cebpf4jnsgd1na2vs0mg"},{"bike_id":"671729d8-1472-46e6-9234-dc84c6097a13","system_id":"levelo_inurba_marseille","lat":43.24013,"lon":5.40725,"is_reserved":false,"is_disabled":false,"rental_uris":{"android":"levelo://app?vid=671729d8-1472-46e6-9234-dc84c6097a13","ios":"levelo://app?vid=671729d8-1472-46e6-9234-dc84c6097a13"},"vehicle_type_id":"4","last_reported":1767723444,"current_range_meters":4800,"station_id":"","pricing_plan_id":"cebpf4jnsgd1na2vs0mg"},{"bike_id":"4f40e737-5642-48f4-8019-f7528c6fb8a5","system_id":"levelo_inurba_marseille","lat":43.285767,"lon":5.395066,"is_reserved":false,"is_disabled":false,"rental_uris":{"android":"levelo://app?vid=4f40e737-5642-48f4-8019-f7528c6fb8a5","ios":"levelo://app?vid=4f40e737-5642-48f4-8019-f7528c6fb8a5"},"vehicle_type_id":"4","last_reported":1767723444,"current_range_meters":4800,"station_id":"ce4bh292rcd13ifvqdg0","pricing_plan_id":"cebpf4jnsgd1na2vs0mg"},{"bike_id":"341fa175-b404-4e99-a30d-b02f1e1adee4","system_id":"levelo_inurba_marseille","lat":43.24391,"lon":5.37077,"is_reserved":false,"is_disabled":false,"rental_uris":{"android":"levelo://app?vid=341fa175-b404-4e99-a30d-b02f1e1adee4","ios":"levelo://app?vid=341fa175-b404-4e99-a30d-b02f1e1adee4"},"vehicle_type_id":"4","last_reported":1767723444,"current_range_meters":4800,"station_id":"","pricing_plan_id":"cebpf4jnsgd1na2vs0mg"},{"bike_id":"8f1dcf1e-ec47-4cfd-9ca8-b695074a8473","system_id":"levelo_inurba_marseille","lat":43.239645,"lon":5.366258,"is_reserved":false,"is_disabled":false,"rental_uris":{"android":"levelo://app?vid=8f1dcf1e-ec47-4cfd-9ca8-b695074a8473","ios":"levelo://app?vid=8f1dcf1e-ec47-4cfd-9ca8-b695074a8473"},"vehicle_type_id":"4","last_reported":1767723444,"current_range_meters":4800,"station_id":"ce4bhi12rcd13ifvqfp0","pricing_plan_id":"cebpf4jnsgd1na2vs0mg"},{"bike_id":"77c6e077-c5cf-4e32-a75b-b4333f5b5292","system_id":"levelo_inurba_marseille","lat":43.31051,"lon":5.37169,"is_reserved":false,"is_disabled":false,"rental_uris":{"android":"levelo://app?vid=77c6e077-c5cf-4e32-a75b-b4333f5b5292","ios":"levelo://app?vid=77c6e077-c5cf-4e32-a75b-b4333f5b5292"},"vehicle_type_id":"4","last_reported":1767723444,"current_range_meters":4800,"station_id":"st_d4kl2rp97mjs73e7tdfg","pricing_plan_id":"cebpf4jnsgd1na2vs0mg"},{"bike_id":"6ab5dc12-676b-4308-ad4a-bc536aac0b39","system_id":"levelo_inurba_marseille","lat":43.31272,"lon":5.37391,"is_reserved":false,"is_disabled":false,"rental_uris":{"android":"levelo://app?vid=6ab5dc12-676b-4308-ad4a-bc536aac0b39","ios":"levelo://app?vid=6ab5dc12-676b-4308-ad4a-bc536aac0b39"},"vehicle_type_id":"4","last_reported":1767723444,"current_range_meters":5600,"station_id":"","pricing_plan_id":"cebpf4jnsgd1na2vs0mg"},{"bike_id":"85f3a20d-d8f5-4866-91c3-88ca4361a07a","system_id":"levelo_inurba_marseille","lat":43.271828,"lon":5.409933,"is_reserved":false,"is_disabled":false,"rental_uris":{"android":"levelo://app?vid=85f3a20d-d8f5-4866-91c3-88ca4361a07a","ios":"levelo://app?vid=85f3a20d-d8f5-4866-91c3-88ca4361a07a"},"vehicle_type_id":"4","last_reported":1767723444,"current_range_meters":5600,"station_id":"ce4bhl12rcd13ifvqgf0","pricing_plan_id":"cebpf4jnsgd1na2vs0mg"},{"bike_id":"9f9b4746-71c5-448b-9590-8fd8371c1599","system_id":"levelo_inurba_marseille","lat":43.22552,"lon":5.41636,"is_reserved":false,"is_disabled":false,"rental_uris":{"android":"levelo://app?vid=9f9b4746-71c5-448b-9590-8fd8371c1599","ios":"levelo://app?vid=9f9b4746-71c5-448b-9590-8fd8371c1599"},"vehicle_type_id":"4","last_reported":1767723444,"current_range_meters":5600,"station_id":"st_d2o4gvlbi1j2169b742g","pricing_plan_id":"cebpf4jnsgd1na2vs0mg"},{"bike_id":"78399c66-07bf-4f4a-b2dc-de9b40e72c5f","system_id":"levelo_inurba_marseille","lat":43.23961,"lon":5.36649,"is_reserved":false,"is_disabled":false,"rental_uris":{"android":"levelo://app?vid=78399c66-07bf-4f4a-b2dc-de9b40e72c5f","ios":"levelo://app?vid=78399c66-07bf-4f4a-b2dc-de9b40e72c5f"},"vehicle_type_id":"4","last_reported":1767723444,"current_range_meters":5600,"station_id":"ce4bhi12rcd13ifvqfp0","pricing_plan_id":"cebpf4jnsgd1na2vs0mg"},{"bike_id":"eda26c9e-1de5-46d8-8133-e4e92339d527","system_id":"levelo_inurba_marseille","lat":43.24399,"lon":5.3705,"is_reserved":false,"is_disabled":false,"rental_uris":{"android":"levelo://app?vid=eda26c9e-1de5-46d8-8133-e4e92339d527","ios":"levelo://app?vid=eda26c9e-1de5-46d8-8133-e4e92339d527"},"vehicle_type_id":"4","last_reported":1767723444,"current_range_meters":5600,"station_id":"ce4bhhh2rcd13ifvqfk0","pricing_plan_id":"cebpf4jnsgd1na2vs0mg"},{"bike_id":"be7227e2-45a4-4771-9323-92bb1a731453","system_id":"levelo_inurba_marseille","lat":43.29922,"lon":5.36537,"is_reserved":false,"is_disabled":false,"rental_uris":{"android":"levelo://app?vid=be7227e2-45a4-4771-9323-92bb1a731453","ios":"levelo://app?vid=be7227e2-45a4-4771-9323-92bb1a731453"},"vehicle_type_id":"4","last_reported":1767723444,"current_range_meters":5600,"station_id":"ce4bgm92rcd13ifvqbr0","pricing_plan_id":"cebpf4jnsgd1na2vs0mg"},{"bike_id":"8a7311d3-8632-4704-8387-f6045f9b79c2","system_id":"levelo_inurba_marseille","lat":43.29031,"lon":5.38642,"is_reserved":false,"is_disabled":false,"rental_uris":{"android":"levelo://app?vid=8a7311d3-8632-4704-8387-f6045f9b79c2","ios":"levelo://app?vid=8a7311d3-8632-4704-8387-f6045f9b79c2"},"vehicle_type_id":"4","last_reported":1767723444,"current_range_meters":5600,"station_id":"ce4bh4p2rcd13ifvqe0g","pricing_plan_id":"cebpf4jnsgd1na2vs0mg"},{"bike_id":"41f54ea5-6f88-45f1-a241-b51bcaf483a2","system_id":"levelo_inurba_marseille","lat":43.22928,"lon":5.35371,"is_reserved":false,"is_disabled":false,"rental_uris":{"android":"levelo://app?vid=41f54ea5-6f88-45f1-a241-b51bcaf483a2","ios":"levelo://app?vid=41f54ea5-6f88-45f1-a241-b51bcaf483a2"},"vehicle_type_id":"4","last_reported":1767723444,"current_range_meters":5600,"station_id":"cpo3532slgdg3j2ikp40","pricing_plan_id":"cebpf4jnsgd1na2vs0mg"},{"bike_id":"11a9d746-21f2-472e-a773-79943d206c1e","system_id":"levelo_inurba_marseille","lat":43.29609,"lon":5.37713,"is_reserved":false,"is_disabled":false,"rental_uris":{"android":"levelo://app?vid=11a9d746-21f2-472e-a773-79943d206c1e","ios":"levelo://app?vid=11a9d746-21f2-472e-a773-79943d206c1e"},"vehicle_type_id":"4","last_reported":1767723444,"current_range_meters":5600,"station_id":"ce4bgi92rcd13ifvqb90","pricing_plan_id":"cebpf4jnsgd1na2vs0mg"},{"bike_id":"d2d5c922-3ec7-47cf-bb49-4d3b2b6af0f3","system_id":"levelo_inurba_marseille","lat":43.276662,"lon":5.388851,"is_reserved":false,"is_disabled":false,"rental_uris":{"android":"levelo://app?vid=d2d5c922-3ec7-47cf-bb49-4d3b2b6af0f3","ios":"levelo://app?vid=d2d5c922-3ec7-47cf-bb49-4d3b2b6af0f3"},"vehicle_type_id":"4","last_reported":1767723444,"current_range_meters":5600,"station_id":"ce4bhi12rcd13ifvqfo0","pricing_plan_id":"cebpf4jnsgd1na2vs0mg"},{"bike_id":"2c27ec0a-e1a6-45d7-8934-b7b3f64dcd18","system_id":"levelo_inurba_marseille","lat":43.27376,"lon":5.3872,"is_reserved":false,"is_disabled":false,"rental_uris":{"android":"levelo://app?vid=2c27ec0a-e1a6-45d7-8934-b7b3f64dcd18","ios":"levelo://app?vid=2c27ec0a-e1a6-45d7-8934-b7b3f64dcd18"},"vehicle_type_id":"4","last_reported":1767723444,"current_range_meters":5600,"station_id":"ce4bgvh2rcd13ifvqcs0","pricing_plan_id":"cebpf4jnsgd1na2vs0mg"},{"bike_id":"24b27b3a-2e02-4d8f-a39f-834b4b77e822","system_id":"levelo_inurba_marseille","lat":43.284071,"lon":5.375339,"is_reserved":false,"is_disabled":false,"rental_uris":{"android":"levelo://app?vid=24b27b3a-2e02-4d8f-a39f-834b4b77e822","ios":"levelo://app?vid=24b27b3a-2e02-4d8f-a39f-834b4b77e822"},"vehicle_type_id":"4","last_reported":1767723444,"current_range_meters":5600,"station_id":"ce4bh412rcd13ifvqds0","pricing_plan_id":"cebpf4jnsgd1na2vs0mg"},{"bike_id":"a56df372-151e-4fe2-8949-dd650d263775","system_id":"levelo_inurba_marseille","lat":43.28309,"lon":5.38929,"is_reserved":false,"is_disabled":false,"rental_uris":{"android":"levelo://app?vid=a56df372-151e-4fe2-8949-dd650d263775","ios":"levelo://app?vid=a56df372-151e-4fe2-8949-dd650d263775"},"vehicle_type_id":"4","last_reported":1767723444,"current_range_meters":5600,"station_id":"","pricing_plan_id":"cebpf4jnsgd1na2vs0mg"},{"bike_id":"323983c7-b979-40df-aae6-c34ac38ea5b5","system_id":"levelo_inurba_marseille","lat":43.28112,"lon":5.44239,"is_reserved":false,"is_disabled":false,"rental_uris":{"android":"levelo://app?vid=323983c7-b979-40df-aae6-c34ac38ea5b5","ios":"levelo://app?vid=323983c7-b979-40df-aae6-c34ac38ea5b5"},"vehicle_type_id":"4","last_reported":1767723444,"current_range_meters":5600,"station_id":"","pricing_plan_id":"cebpf4jnsgd1na2vs0mg"},{"bike_id":"b82137ac-385c-4eba-aa21-39b76bd2ce87","system_id":"levelo_inurba_marseille","lat":43.27375,"lon":5.36244,"is_reserved":false,"is_disabled":false,"rental_uris":{"android":"levelo://app?vid=b82137ac-385c-4eba-aa21-39b76bd2ce87","ios":"levelo://app?vid=b82137ac-385c-4eba-aa21-39b76bd2ce87"},"vehicle_type_id":"4","last_reported":1767723444,"current_range_meters":6000,"station_id":"ce4bhbh2rcd13ifvqeo0","pricing_plan_id":"cebpf4jnsgd1na2vs0mg"},{"bike_id":"d8c06048-428c-4885-a31f-55edb4b42195","system_id":"levelo_inurba_marseille","lat":43.2625,"lon":5.38846,"is_reserved":false,"is_disabled":false,"rental_uris":{"android":"levelo://app?vid=d8c06048-428c-4885-a31f-55edb4b42195","ios":"levelo://app?vid=d8c06048-428c-4885-a31f-55edb4b42195"},"vehicle_type_id":"4","last_reported":1767723444,"current_range_meters":6000,"station_id":"","pricing_plan_id":"cebpf4jnsgd1na2vs0mg"},{"bike_id":"14494bec-dc0c-470c-b701-ec21574c7266","system_id":"levelo_inurba_marseille","lat":43.2929,"lon":5.37185,"is_reserved":false,"is_disabled":false,"rental_uris":{"android":"levelo://app?vid=14494bec-dc0c-470c-b701-ec21574c7266","ios":"levelo://app?vid=14494bec-dc0c-470c-b701-ec21574c7266"},"vehicle_type_id":"4","last_reported":1767723444,"current_range_meters":6000,"station_id":"ce4bgh92rcd13ifvqb40","pricing_plan_id":"cebpf4jnsgd1na2vs0mg"},{"bike_id":"8114810f-0d8f-4ce9-b85e-2a6ec1830638","system_id":"levelo_inurba_marseille","lat":43.28399,"lon":5.37551,"is_reserved":false,"is_disabled":false,"rental_uris":{"android":"levelo://app?vid=8114810f-0d8f-4ce9-b85e-2a6ec1830638","ios":"levelo://app?vid=8114810f-0d8f-4ce9-b85e-2a6ec1830638"},"vehicle_type_id":"4","last_reported":1767723444,"current_range_meters":6000,"station_id":"ce4bh412rcd13ifvqds0","pricing_plan_id":"cebpf4jnsgd1na2vs0mg"},{"bike_id":"28710909-6836-4051-8df5-ac7ea21a74d1","system_id":"levelo_inurba_marseille","lat":43.31498,"lon":5.38633,"is_reserved":false,"is_disabled":false,"rental_uris":{"android":"levelo://app?vid=28710909-6836-4051-8df5-ac7ea21a74d1","ios":"levelo://app?vid=28710909-6836-4051-8df5-ac7ea21a74d1"},"vehicle_type_id":"4","last_reported":1767723444,"current_range_meters":6000,"station_id":"","pricing_plan_id":"cebpf4jnsgd1na2vs0mg"},{"bike_id":"5b953a81-9220-42b3-ad90-bf4096e13acf","system_id":"levelo_inurba_marseille","lat":43.29537,"lon":5.38539,"is_reserved":false,"is_disabled":false,"rental_uris":{"android":"levelo://app?vid=5b953a81-9220-42b3-ad90-bf4096e13acf","ios":"levelo://app?vid=5b953a81-9220-42b3-ad90-bf4096e13acf"},"vehicle_type_id":"4","last_reported":1767723444,"current_range_meters":6000,"station_id":"ce4bgih2rcd13ifvqba0","pricing_plan_id":"cebpf4jnsgd1na2vs0mg"},{"bike_id":"1e73728e-4392-47e2-968e-c94992b57df0","system_id":"levelo_inurba_marseille","lat":43.23191,"lon":5.35568,"is_reserved":false,"is_disabled":false,"rental_uris":{"android":"levelo://app?vid=1e73728e-4392-47e2-968e-c94992b57df0","ios":"levelo://app?vid=1e73728e-4392-47e2-968e-c94992b57df0"},"vehicle_type_id":"4","last_reported":1767723444,"current_range_meters":6000,"station_id":"ce4bhu92rcd13ifvqi70","pricing_plan_id":"cebpf4jnsgd1na2vs0mg"},{"bike_id":"29a48381-8f9e-4811-9ddb-836ae859e822","system_id":"levelo_inurba_marseille","lat":43.269395,"lon":5.402536,"is_reserved":false,"is_disabled":false,"rental_uris":{"android":"levelo://app?vid=29a48381-8f9e-4811-9ddb-836ae859e822","ios":"levelo://app?vid=29a48381-8f9e-4811-9ddb-836ae859e822"},"vehicle_type_id":"4","last_reported":1767723444,"current_range_meters":6000,"station_id":"cjm6bp8fraef2m0cb0m0","pricing_plan_id":"cebpf4jnsgd1na2vs0mg"},{"bike_id":"795b72f8-f05e-4bd0-8fba-d284e8bd22d7","system_id":"levelo_inurba_marseille","lat":43.31262,"lon":5.40121,"is_reserved":false,"is_disabled":false,"rental_uris":{"android":"levelo://app?vid=795b72f8-f05e-4bd0-8fba-d284e8bd22d7","ios":"levelo://app?vid=795b72f8-f05e-4bd0-8fba-d284e8bd22d7"},"vehicle_type_id":"4","last_reported":1767723444,"current_range_meters":6000,"station_id":"ce4bh092rcd13ifvqd30","pricing_plan_id":"cebpf4jnsgd1na2vs0mg"},{"bike_id":"9265da08-af6b-41f8-a564-a7a5e4a8d66e","system_id":"levelo_inurba_marseille","lat":43.28474,"lon":5.48392,"is_reserved":false,"is_disabled":false,"rental_uris":{"android":"levelo://app?vid=9265da08-af6b-41f8-a564-a7a5e4a8d66e","ios":"levelo://app?vid=9265da08-af6b-41f8-a564-a7a5e4a8d66e"},"vehicle_type_id":"4","last_reported":1767723444,"current_range_meters":6000,"station_id":"","pricing_plan_id":"cebpf4jnsgd1na2vs0mg"},{"bike_id":"38fe8d74-8399-43ad-b9ef-2d5a01f29535","system_id":"levelo_inurba_marseille","lat":43.25099,"lon":5.39521,"is_reserved":false,"is_disabled":false,"rental_uris":{"android":"levelo://app?vid=38fe8d74-8399-43ad-b9ef-2d5a01f29535","ios":"levelo://app?vid=38fe8d74-8399-43ad-b9ef-2d5a01f29535"},"vehicle_type_id":"4","last_reported":1767723444,"current_range_meters":6000,"station_id":"ce4bhm12rcd13ifvqgkg","pricing_plan_id":"cebpf4jnsgd1na2vs0mg"},{"bike_id":"bcba726c-86cc-4920-9b66-bf7117212d7c","system_id":"levelo_inurba_marseille","lat":43.29762,"lon":5.37782,"is_reserved":false,"is_disabled":false,"rental_uris":{"android":"levelo://app?vid=bcba726c-86cc-4920-9b66-bf7117212d7c","ios":"levelo://app?vid=bcba726c-86cc-4920-9b66-bf7117212d7c"},"vehicle_type_id":"4","last_reported":1767723444,"current_range_meters":6000,"station_id":"","pricing_plan_id":"cebpf4jnsgd1na2vs0mg"},{"bike_id":"438148d1-4441-4c2a-9fb4-0da67b1d1c82","system_id":"levelo_inurba_marseille","lat":43.29848,"lon":5.38541,"is_reserved":false,"is_disabled":false,"rental_uris":{"android":"levelo://app?vid=438148d1-4441-4c2a-9fb4-0da67b1d1c82","ios":"levelo://app?vid=438148d1-4441-4c2a-9fb4-0da67b1d1c82"},"vehicle_type_id":"4","last_reported":1767723444,"current_range_meters":6000,"station_id":"","pricing_plan_id":"cebpf4jnsgd1na2vs0mg"},{"bike_id":"87e8b266-b373-4616-baea-2d580c40657d","system_id":"levelo_inurba_marseille","lat":43.31692,"lon":5.37449,"is_reserved":false,"is_disabled":false,"rental_uris":{"android":"levelo://app?vid=87e8b266-b373-4616-baea-2d580c40657d","ios":"levelo://app?vid=87e8b266-b373-4616-baea-2d580c40657d"},"vehicle_type_id":"4","last_reported":1767723444,"current_range_meters":6000,"station_id":"","pricing_plan_id":"cebpf4jnsgd1na2vs0mg"},{"bike_id":"6a1f68a8-4c0d-48e4-8253-89c4ff19b6ce","system_id":"levelo_inurba_marseille","lat":43.284762,"lon":5.484006,"is_reserved":false,"is_disabled":false,"rental_uris":{"android":"levelo://app?vid=6a1f68a8-4c0d-48e4-8253-89c4ff19b6ce","ios":"levelo://app?vid=6a1f68a8-4c0d-48e4-8253-89c4ff19b6ce"},"vehicle_type_id":"4","last_reported":1767723444,"current_range_meters":6000,"station_id":"","pricing_plan_id":"cebpf4jnsgd1na2vs0mg"},{"bike_id":"71301dea-c3a1-42a9-9f97-d2ccd23f6149","system_id":"levelo_inurba_marseille","lat":43.3375,"lon":5.3919,"is_reserved":false,"is_disabled":false,"rental_uris":{"android":"levelo://app?vid=71301dea-c3a1-42a9-9f97-d2ccd23f6149","ios":"levelo://app?vid=71301dea-c3a1-42a9-9f97-d2ccd23f6149"},"vehicle_type_id":"4","last_reported":1767723444,"current_range_meters":6000,"station_id":"ce4bhr92rcd13ifvqhsg","pricing_plan_id":"cebpf4jnsgd1na2vs0mg"},{"bike_id":"27fd1dae-9b5f-4946-91a5-7e16675cd4af","system_id":"levelo_inurba_marseille","lat":43.25582,"lon":5.38234,"is_reserved":false,"is_disabled":false,"rental_uris":{"android":"levelo://app?vid=27fd1dae-9b5f-4946-91a5-7e16675cd4af","ios":"levelo://app?vid=27fd1dae-9b5f-4946-91a5-7e16675cd4af"},"vehicle_type_id":"4","last_reported":1767723444,"current_range_meters":6000,"station_id":"ce4bhih2rcd13ifvqfs0","pricing_plan_id":"cebpf4jnsgd1na2vs0mg"},{"bike_id":"67d31863-f006-4cee-b6a6-243fc15a5583","system_id":"levelo_inurba_marseille","lat":43.28036,"lon":5.36937,"is_reserved":false,"is_disabled":false,"rental_uris":{"android":"levelo://app?vid=67d31863-f006-4cee-b6a6-243fc15a5583","ios":"levelo://app?vid=67d31863-f006-4cee-b6a6-243fc15a5583"},"vehicle_type_id":"4","last_reported":1767723444,"current_range_meters":6000,"station_id":"ce4bha12rcd13ifvqef0","pricing_plan_id":"cebpf4jnsgd1na2vs0mg"},{"bike_id":"38eb26c4-343b-445a-932d-e7a20c93ed83","system_id":"levelo_inurba_marseille","lat":43.290288,"lon":5.386506,"is_reserved":false,"is_disabled":false,"rental_uris":{"android":"levelo://app?vid=38eb26c4-343b-445a-932d-e7a20c93ed83","ios":"levelo://app?vid=38eb26c4-343b-445a-932d-e7a20c93ed83"},"vehicle_type_id":"4","last_reported":1767723444,"current_range_meters":6000,"station_id":"ce4bh4p2rcd13ifvqe0g","pricing_plan_id":"cebpf4jnsgd1na2vs0mg"},{"bike_id":"a833ec77-cb7d-4361-b834-287cd5470bbc","system_id":"levelo_inurba_marseille","lat":43.28268,"lon":5.35062,"is_reserved":false,"is_disabled":false,"rental_uris":{"android":"levelo://app?vid=a833ec77-cb7d-4361-b834-287cd5470bbc","ios":"levelo://app?vid=a833ec77-cb7d-4361-b834-287cd5470bbc"},"vehicle_type_id":"4","last_reported":1767723444,"current_range_meters":6000,"station_id":"ce4bhbp2rcd13ifvqerg","pricing_plan_id":"cebpf4jnsgd1na2vs0mg"},{"bike_id":"b3d46066-d9af-4077-b1da-7d7459dbf7a5","system_id":"levelo_inurba_marseille","lat":43.29704,"lon":5.37876,"is_reserved":false,"is_disabled":false,"rental_uris":{"android":"levelo://app?vid=b3d46066-d9af-4077-b1da-7d7459dbf7a5","ios":"levelo://app?vid=b3d46066-d9af-4077-b1da-7d7459dbf7a5"},"vehicle_type_id":"4","last_reported":1767723444,"current_range_meters":6400,"station_id":"","pricing_plan_id":"cebpf4jnsgd1na2vs0mg"},{"bike_id":"f7266f96-97df-4d00-8894-b574c422868e","system_id":"levelo_inurba_marseille","lat":43.2871,"lon":5.36113,"is_reserved":false,"is_disabled":false,"rental_uris":{"android":"levelo://app?vid=f7266f96-97df-4d00-8894-b574c422868e","ios":"levelo://app?vid=f7266f96-97df-4d00-8894-b574c422868e"},"vehicle_type_id":"4","last_reported":1767723444,"current_range_meters":6400,"station_id":"cki0cbj6b192h4jlfktg","pricing_plan_id":"cebpf4jnsgd1na2vs0mg"},{"bike_id":"d09b3a65-a44b-46d5-8d1c-408888c8f37d","system_id":"levelo_inurba_marseille","lat":43.25491,"lon":5.3765,"is_reserved":false,"is_disabled":false,"rental_uris":{"android":"levelo://app?vid=d09b3a65-a44b-46d5-8d1c-408888c8f37d","ios":"levelo://app?vid=d09b3a65-a44b-46d5-8d1c-408888c8f37d"},"vehicle_type_id":"4","last_reported":1767723444,"current_range_meters":6400,"station_id":"ce4bhh12rcd13ifvqff0","pricing_plan_id":"cebpf4jnsgd1na2vs0mg"},{"bike_id":"f10b558f-7242-43aa-8400-44ba55773041","system_id":"levelo_inurba_marseille","lat":43.29704,"lon":5.36619,"is_reserved":false,"is_disabled":false,"rental_uris":{"android":"levelo://app?vid=f10b558f-7242-43aa-8400-44ba55773041","ios":"levelo://app?vid=f10b558f-7242-43aa-8400-44ba55773041"},"vehicle_type_id":"4","last_reported":1767723444,"current_range_meters":6400,"station_id":"ce4bgn12rcd13ifvqbt0","pricing_plan_id":"cebpf4jnsgd1na2vs0mg"},{"bike_id":"9429cadb-a739-4f5f-8c2b-cc91a27439eb","system_id":"levelo_inurba_marseille","lat":43.27696,"lon":5.42069,"is_reserved":false,"is_disabled":false,"rental_uris":{"android":"levelo://app?vid=9429cadb-a739-4f5f-8c2b-cc91a27439eb","ios":"levelo://app?vid=9429cadb-a739-4f5f-8c2b-cc91a27439eb"},"vehicle_type_id":"4","last_reported":1767723444,"current_range_meters":6400,"station_id":"","pricing_plan_id":"cebpf4jnsgd1na2vs0mg"},{"bike_id":"e86c54c0-f671-46b3-9822-d8e47a8f4357","system_id":"levelo_inurba_marseille","lat":43.2886,"lon":5.42509,"is_reserved":false,"is_disabled":false,"rental_uris":{"android":"levelo://app?vid=e86c54c0-f671-46b3-9822-d8e47a8f4357","ios":"levelo://app?vid=e86c54c0-f671-46b3-9822-d8e47a8f4357"},"vehicle_type_id":"4","last_reported":1767723444,"current_range_meters":6400,"station_id":"st_d3b462108ojc7389ooeg","pricing_plan_id":"cebpf4jnsgd1na2vs0mg"},{"bike_id":"49e7e4bf-d14c-455f-a285-224ffc1f66f2","system_id":"levelo_inurba_marseille","lat":43.2463,"lon":5.43152,"is_reserved":false,"is_disabled":false,"rental_uris":{"android":"levelo://app?vid=49e7e4bf-d14c-455f-a285-224ffc1f66f2","ios":"levelo://app?vid=49e7e4bf-d14c-455f-a285-224ffc1f66f2"},"vehicle_type_id":"4","last_reported":1767723444,"current_range_meters":6400,"station_id":"st_d2m6c4gdas8pm72e190g","pricing_plan_id":"cebpf4jnsgd1na2vs0mg"},{"bike_id":"5c78052d-8b4f-4e51-8ddb-87be6fb225ca","system_id":"levelo_inurba_marseille","lat":43.2319,"lon":5.35542,"is_reserved":false,"is_disabled":false,"rental_uris":{"android":"levelo://app?vid=5c78052d-8b4f-4e51-8ddb-87be6fb225ca","ios":"levelo://app?vid=5c78052d-8b4f-4e51-8ddb-87be6fb225ca"},"vehicle_type_id":"4","last_reported":1767723444,"current_range_meters":6400,"station_id":"ce4bhu92rcd13ifvqi70","pricing_plan_id":"cebpf4jnsgd1na2vs0mg"},{"bike_id":"9543aad1-f2c5-4f3f-ab6a-e1b8918ce8ce","system_id":"levelo_inurba_marseille","lat":43.29899,"lon":5.38499,"is_reserved":false,"is_disabled":false,"rental_uris":{"android":"levelo://app?vid=9543aad1-f2c5-4f3f-ab6a-e1b8918ce8ce","ios":"levelo://app?vid=9543aad1-f2c5-4f3f-ab6a-e1b8918ce8ce"},"vehicle_type_id":"4","last_reported":1767723444,"current_range_meters":6400,"station_id":"","pricing_plan_id":"cebpf4jnsgd1na2vs0mg"},{"bike_id":"8de8b2d3-f0a3-490b-9c86-39d8c84248a5","system_id":"levelo_inurba_marseille","lat":43.25575,"lon":5.38239,"is_reserved":false,"is_disabled":false,"rental_uris":{"android":"levelo://app?vid=8de8b2d3-f0a3-490b-9c86-39d8c84248a5","ios":"levelo://app?vid=8de8b2d3-f0a3-490b-9c86-39d8c84248a5"},"vehicle_type_id":"4","last_reported":1767723444,"current_range_meters":6400,"station_id":"ce4bhih2rcd13ifvqfs0","pricing_plan_id":"cebpf4jnsgd1na2vs0mg"},{"bike_id":"39e319cb-18db-4373-8b96-c6a96112582f","system_id":"levelo_inurba_marseille","lat":43.2835,"lon":5.38096,"is_reserved":false,"is_disabled":false,"rental_uris":{"android":"levelo://app?vid=39e319cb-18db-4373-8b96-c6a96112582f","ios":"levelo://app?vid=39e319cb-18db-4373-8b96-c6a96112582f"},"vehicle_type_id":"4","last_reported":1767723444,"current_range_meters":6400,"station_id":"ce4bh412rcd13ifvqdr0","pricing_plan_id":"cebpf4jnsgd1na2vs0mg"},{"bike_id":"565f99b7-e9e2-4b44-8331-6450d9ae6732","system_id":"levelo_inurba_marseille","lat":43.32097,"lon":5.36774,"is_reserved":false,"is_disabled":false,"rental_uris":{"android":"levelo://app?vid=565f99b7-e9e2-4b44-8331-6450d9ae6732","ios":"levelo://app?vid=565f99b7-e9e2-4b44-8331-6450d9ae6732"},"vehicle_type_id":"4","last_reported":1767723444,"current_range_meters":6400,"station_id":"ce4bhrh2rcd13ifvqhug","pricing_plan_id":"cebpf4jnsgd1na2vs0mg"},{"bike_id":"59c30222-41ab-40da-979f-08c128e275a9","system_id":"levelo_inurba_marseille","lat":43.246261,"lon":5.431403,"is_reserved":false,"is_disabled":false,"rental_uris":{"android":"levelo://app?vid=59c30222-41ab-40da-979f-08c128e275a9","ios":"levelo://app?vid=59c30222-41ab-40da-979f-08c128e275a9"},"vehicle_type_id":"4","last_reported":1767723444,"current_range_meters":6400,"station_id":"st_d2m6c4gdas8pm72e190g","pricing_plan_id":"cebpf4jnsgd1na2vs0mg"},{"bike_id":"c773f61c-a83f-41d9-bdd4-df8791dcab70","system_id":"levelo_inurba_marseille","lat":43.29794,"lon":5.37762,"is_reserved":false,"is_disabled":false,"rental_uris":{"android":"levelo://app?vid=c773f61c-a83f-41d9-bdd4-df8791dcab70","ios":"levelo://app?vid=c773f61c-a83f-41d9-bdd4-df8791dcab70"},"vehicle_type_id":"4","last_reported":1767723444,"current_range_meters":6400,"station_id":"","pricing_plan_id":"cebpf4jnsgd1na2vs0mg"},{"bike_id":"bf0a0489-ec91-406d-a7a0-4b4e36bfc3bb","system_id":"levelo_inurba_marseille","lat":43.229333,"lon":5.353798,"is_reserved":false,"is_disabled":false,"rental_uris":{"android":"levelo://app?vid=bf0a0489-ec91-406d-a7a0-4b4e36bfc3bb","ios":"levelo://app?vid=bf0a0489-ec91-406d-a7a0-4b4e36bfc3bb"},"vehicle_type_id":"4","last_reported":1767723444,"current_range_meters":6400,"station_id":"cpo3532slgdg3j2ikp40","pricing_plan_id":"cebpf4jnsgd1na2vs0mg"},{"bike_id":"e3c99f8d-6092-4d0c-8ee6-1034d558a568","system_id":"levelo_inurba_marseille","lat":43.323678,"lon":5.381862,"is_reserved":false,"is_disabled":false,"rental_uris":{"android":"levelo://app?vid=e3c99f8d-6092-4d0c-8ee6-1034d558a568","ios":"levelo://app?vid=e3c99f8d-6092-4d0c-8ee6-1034d558a568"},"vehicle_type_id":"4","last_reported":1767723444,"current_range_meters":6400,"station_id":"ce4bhr12rcd13ifvqhqg","pricing_plan_id":"cebpf4jnsgd1na2vs0mg"},{"bike_id":"ce6ec884-e2d3-4e7e-b386-b9c9644f40c2","system_id":"levelo_inurba_marseille","lat":43.27494,"lon":5.4245,"is_reserved":false,"is_disabled":false,"rental_uris":{"android":"levelo://app?vid=ce6ec884-e2d3-4e7e-b386-b9c9644f40c2","ios":"levelo://app?vid=ce6ec884-e2d3-4e7e-b386-b9c9644f40c2"},"vehicle_type_id":"4","last_reported":1767723444,"current_range_meters":6400,"station_id":"ce4bhn92rcd13ifvqgrg","pricing_plan_id":"cebpf4jnsgd1na2vs0mg"},{"bike_id":"a184e25a-1604-4e63-9035-4f507c575ca1","system_id":"levelo_inurba_marseille","lat":43.3138,"lon":5.37164,"is_reserved":false,"is_disabled":false,"rental_uris":{"android":"levelo://app?vid=a184e25a-1604-4e63-9035-4f507c575ca1","ios":"levelo://app?vid=a184e25a-1604-4e63-9035-4f507c575ca1"},"vehicle_type_id":"4","last_reported":1767723444,"current_range_meters":6400,"station_id":"","pricing_plan_id":"cebpf4jnsgd1na2vs0mg"},{"bike_id":"f8fa6138-13d6-49d0-bc3f-4e0461ffcbc5","system_id":"levelo_inurba_marseille","lat":43.29926,"lon":5.38592,"is_reserved":false,"is_disabled":false,"rental_uris":{"android":"levelo://app?vid=f8fa6138-13d6-49d0-bc3f-4e0461ffcbc5","ios":"levelo://app?vid=f8fa6138-13d6-49d0-bc3f-4e0461ffcbc5"},"vehicle_type_id":"4","last_reported":1767723444,"current_range_meters":6400,"station_id":"","pricing_plan_id":"cebpf4jnsgd1na2vs0mg"},{"bike_id":"a40dd9e5-1ad3-4144-882e-2b3427feade7","system_id":"levelo_inurba_marseille","lat":43.29562,"lon":5.37481,"is_reserved":false,"is_disabled":false,"rental_uris":{"android":"levelo://app?vid=a40dd9e5-1ad3-4144-882e-2b3427feade7","ios":"levelo://app?vid=a40dd9e5-1ad3-4144-882e-2b3427feade7"},"vehicle_type_id":"4","last_reported":1767723444,"current_range_meters":6400,"station_id":"ce4bgh92rcd13ifvqb50","pricing_plan_id":"cebpf4jnsgd1na2vs0mg"},{"bike_id":"e39e909d-a3c5-43e0-be4e-6cfc87e9605c","system_id":"levelo_inurba_marseille","lat":43.277,"lon":5.38889,"is_reserved":false,"is_disabled":false,"rental_uris":{"android":"levelo://app?vid=e39e909d-a3c5-43e0-be4e-6cfc87e9605c","ios":"levelo://app?vid=e39e909d-a3c5-43e0-be4e-6cfc87e9605c"},"vehicle_type_id":"4","last_reported":1767723444,"current_range_meters":6400,"station_id":"ce4bhi12rcd13ifvqfo0","pricing_plan_id":"cebpf4jnsgd1na2vs0mg"},{"bike_id":"ad9c57a4-d8a7-41c0-8bf9-21a179390ca8","system_id":"levelo_inurba_marseille","lat":43.285322,"lon":5.440922,"is_reserved":false,"is_disabled":false,"rental_uris":{"android":"levelo://app?vid=ad9c57a4-d8a7-41c0-8bf9-21a179390ca8","ios":"levelo://app?vid=ad9c57a4-d8a7-41c0-8bf9-21a179390ca8"},"vehicle_type_id":"4","last_reported":1767723444,"current_range_meters":6400,"station_id":"st_d3j3df2ikq2c7380ej80","pricing_plan_id":"cebpf4jnsgd1na2vs0mg"},{"bike_id":"f4531e82-6564-46dd-8d3c-346cac1d7fe2","system_id":"levelo_inurba_marseille","lat":43.28532,"lon":5.4413,"is_reserved":false,"is_disabled":false,"rental_uris":{"android":"levelo://app?vid=f4531e82-6564-46dd-8d3c-346cac1d7fe2","ios":"levelo://app?vid=f4531e82-6564-46dd-8d3c-346cac1d7fe2"},"vehicle_type_id":"4","last_reported":1767723444,"current_range_meters":6400,"station_id":"st_d3j3df2ikq2c7380ej80","pricing_plan_id":"cebpf4jnsgd1na2vs0mg"},{"bike_id":"0597b508-1261-4db8-9e17-c13a262518a7","system_id":"levelo_inurba_marseille","lat":43.29003,"lon":5.35612,"is_reserved":false,"is_disabled":false,"rental_uris":{"android":"levelo://app?vid=0597b508-1261-4db8-9e17-c13a262518a7","ios":"levelo://app?vid=0597b508-1261-4db8-9e17-c13a262518a7"},"vehicle_type_id":"4","last_reported":1767723444,"current_range_meters":6400,"station_id":"ce4bhb92rcd13ifvqen0","pricing_plan_id":"cebpf4jnsgd1na2vs0mg"},{"bike_id":"99ed8f74-4701-459c-9402-abc8a52eb125","system_id":"levelo_inurba_marseille","lat":43.30119,"lon":5.43121,"is_reserved":false,"is_disabled":false,"rental_uris":{"android":"levelo://app?vid=99ed8f74-4701-459c-9402-abc8a52eb125","ios":"levelo://app?vid=99ed8f74-4701-459c-9402-abc8a52eb125"},"vehicle_type_id":"4","last_reported":1767723444,"current_range_meters":6800,"station_id":"st_d3js3co5814s73ftftug","pricing_plan_id":"cebpf4jnsgd1na2vs0mg"},{"bike_id":"5e434a26-6084-4171-8078-073061d1e50d","system_id":"levelo_inurba_marseille","lat":43.28723,"lon":5.36095,"is_reserved":false,"is_disabled":false,"rental_uris":{"android":"levelo://app?vid=5e434a26-6084-4171-8078-073061d1e50d","ios":"levelo://app?vid=5e434a26-6084-4171-8078-073061d1e50d"},"vehicle_type_id":"4","last_reported":1767723444,"current_range_meters":6800,"station_id":"cki0cbj6b192h4jlfktg","pricing_plan_id":"cebpf4jnsgd1na2vs0mg"},{"bike_id":"d599e143-3cfd-4dd2-ba0d-054f2e412eda","system_id":"levelo_inurba_marseille","lat":43.28258,"lon":5.35061,"is_reserved":false,"is_disabled":false,"rental_uris":{"android":"levelo://app?vid=d599e143-3cfd-4dd2-ba0d-054f2e412eda","ios":"levelo://app?vid=d599e143-3cfd-4dd2-ba0d-054f2e412eda"},"vehicle_type_id":"4","last_reported":1767723444,"current_range_meters":6800,"station_id":"ce4bhbp2rcd13ifvqerg","pricing_plan_id":"cebpf4jnsgd1na2vs0mg"},{"bike_id":"860d18f6-ee6d-4ae4-92d3-0bf28977ee8c","system_id":"levelo_inurba_marseille","lat":43.293692,"lon":5.38341,"is_reserved":false,"is_disabled":false,"rental_uris":{"android":"levelo://app?vid=860d18f6-ee6d-4ae4-92d3-0bf28977ee8c","ios":"levelo://app?vid=860d18f6-ee6d-4ae4-92d3-0bf28977ee8c"},"vehicle_type_id":"4","last_reported":1767723444,"current_range_meters":6800,"station_id":"ce4bh112rcd13ifvqda0","pricing_plan_id":"cebpf4jnsgd1na2vs0mg"},{"bike_id":"7e9901e5-0ecb-4064-a195-f0e8bbeeaa5c","system_id":"levelo_inurba_marseille","lat":43.28478,"lon":5.38558,"is_reserved":false,"is_disabled":false,"rental_uris":{"android":"levelo://app?vid=7e9901e5-0ecb-4064-a195-f0e8bbeeaa5c","ios":"levelo://app?vid=7e9901e5-0ecb-4064-a195-f0e8bbeeaa5c"},"vehicle_type_id":"4","last_reported":1767723444,"current_range_meters":6800,"station_id":"ce4bh8p2rcd13ifvqeb0","pricing_plan_id":"cebpf4jnsgd1na2vs0mg"},{"bike_id":"391f2568-2d81-4ff2-9236-e4be12556948","system_id":"levelo_inurba_marseille","lat":43.23183,"lon":5.39989,"is_reserved":false,"is_disabled":false,"rental_uris":{"android":"levelo://app?vid=391f2568-2d81-4ff2-9236-e4be12556948","ios":"levelo://app?vid=391f2568-2d81-4ff2-9236-e4be12556948"},"vehicle_type_id":"4","last_reported":1767723444,"current_range_meters":6800,"station_id":"ce4bhn12rcd13ifvqgqg","pricing_plan_id":"cebpf4jnsgd1na2vs0mg"},{"bike_id":"1faa2c1c-623d-4c7b-b6d0-30570519c684","system_id":"levelo_inurba_marseille","lat":43.30553,"lon":5.36712,"is_reserved":false,"is_disabled":false,"rental_uris":{"android":"levelo://app?vid=1faa2c1c-623d-4c7b-b6d0-30570519c684","ios":"levelo://app?vid=1faa2c1c-623d-4c7b-b6d0-30570519c684"},"vehicle_type_id":"4","last_reported":1767723444,"current_range_meters":6800,"station_id":"ce4bgrp2rcd13ifvqc9g","pricing_plan_id":"cebpf4jnsgd1na2vs0mg"},{"bike_id":"a189c7e9-2059-416c-bc22-9ffb3c8e4803","system_id":"levelo_inurba_marseille","lat":43.2971,"lon":5.36601,"is_reserved":false,"is_disabled":false,"rental_uris":{"android":"levelo://app?vid=a189c7e9-2059-416c-bc22-9ffb3c8e4803","ios":"levelo://app?vid=a189c7e9-2059-416c-bc22-9ffb3c8e4803"},"vehicle_type_id":"4","last_reported":1767723444,"current_range_meters":6800,"station_id":"ce4bgn12rcd13ifvqbt0","pricing_plan_id":"cebpf4jnsgd1na2vs0mg"},{"bike_id":"5bf18eef-41a3-4eeb-90d3-342b87530897","system_id":"levelo_inurba_marseille","lat":43.31058,"lon":5.37168,"is_reserved":false,"is_disabled":false,"rental_uris":{"android":"levelo://app?vid=5bf18eef-41a3-4eeb-90d3-342b87530897","ios":"levelo://app?vid=5bf18eef-41a3-4eeb-90d3-342b87530897"},"vehicle_type_id":"4","last_reported":1767723444,"current_range_meters":6800,"station_id":"st_d4kl2rp97mjs73e7tdfg","pricing_plan_id":"cebpf4jnsgd1na2vs0mg"},{"bike_id":"969b1719-3fa2-4d7b-b48c-3f3c994a3da7","system_id":"levelo_inurba_marseille","lat":43.29162,"lon":5.39547,"is_reserved":false,"is_disabled":false,"rental_uris":{"android":"levelo://app?vid=969b1719-3fa2-4d7b-b48c-3f3c994a3da7","ios":"levelo://app?vid=969b1719-3fa2-4d7b-b48c-3f3c994a3da7"},"vehicle_type_id":"4","last_reported":1767723444,"current_range_meters":6800,"station_id":"","pricing_plan_id":"cebpf4jnsgd1na2vs0mg"},{"bike_id":"f236f8bf-a48c-4e01-9edf-a292131d7beb","system_id":"levelo_inurba_marseille","lat":43.25086,"lon":5.39514,"is_reserved":false,"is_disabled":false,"rental_uris":{"android":"levelo://app?vid=f236f8bf-a48c-4e01-9edf-a292131d7beb","ios":"levelo://app?vid=f236f8bf-a48c-4e01-9edf-a292131d7beb"},"vehicle_type_id":"4","last_reported":1767723444,"current_range_meters":6800,"station_id":"ce4bhm12rcd13ifvqgkg","pricing_plan_id":"cebpf4jnsgd1na2vs0mg"},{"bike_id":"fad68b58-3feb-4a99-9f33-50e6502be28a","system_id":"levelo_inurba_marseille","lat":43.337444,"lon":5.374475,"is_reserved":false,"is_disabled":false,"rental_uris":{"android":"levelo://app?vid=fad68b58-3feb-4a99-9f33-50e6502be28a","ios":"levelo://app?vid=fad68b58-3feb-4a99-9f33-50e6502be28a"},"vehicle_type_id":"4","last_reported":1767723444,"current_range_meters":6800,"station_id":"","pricing_plan_id":"cebpf4jnsgd1na2vs0mg"},{"bike_id":"51bab64f-1b87-4acc-8f72-1bf6c05e5090","system_id":"levelo_inurba_marseille","lat":43.23196,"lon":5.35551,"is_reserved":false,"is_disabled":false,"rental_uris":{"android":"levelo://app?vid=51bab64f-1b87-4acc-8f72-1bf6c05e5090","ios":"levelo://app?vid=51bab64f-1b87-4acc-8f72-1bf6c05e5090"},"vehicle_type_id":"4","last_reported":1767723444,"current_range_meters":6800,"station_id":"ce4bhu92rcd13ifvqi70","pricing_plan_id":"cebpf4jnsgd1na2vs0mg"},{"bike_id":"79050b2d-51dd-4422-b5f7-33cfc5837f53","system_id":"levelo_inurba_marseille","lat":43.31276,"lon":5.37777,"is_reserved":false,"is_disabled":false,"rental_uris":{"android":"levelo://app?vid=79050b2d-51dd-4422-b5f7-33cfc5837f53","ios":"levelo://app?vid=79050b2d-51dd-4422-b5f7-33cfc5837f53"},"vehicle_type_id":"4","last_reported":1767723444,"current_range_meters":6800,"station_id":"","pricing_plan_id":"cebpf4jnsgd1na2vs0mg"},{"bike_id":"8015c7a3-ca99-4bed-b795-854d89867176","system_id":"levelo_inurba_marseille","lat":43.300345,"lon":5.373509,"is_reserved":false,"is_disabled":false,"rental_uris":{"android":"levelo://app?vid=8015c7a3-ca99-4bed-b795-854d89867176","ios":"levelo://app?vid=8015c7a3-ca99-4bed-b795-854d89867176"},"vehicle_type_id":"4","last_reported":1767723444,"current_range_meters":6800,"station_id":"","pricing_plan_id":"cebpf4jnsgd1na2vs0mg"},{"bike_id":"999e74f3-d4b2-444d-89bc-239d909db7d5","system_id":"levelo_inurba_marseille","lat":43.30092,"lon":5.36932,"is_reserved":false,"is_disabled":false,"rental_uris":{"android":"levelo://app?vid=999e74f3-d4b2-444d-89bc-239d909db7d5","ios":"levelo://app?vid=999e74f3-d4b2-444d-89bc-239d909db7d5"},"vehicle_type_id":"4","last_reported":1767723444,"current_range_meters":6800,"station_id":"","pricing_plan_id":"cebpf4jnsgd1na2vs0mg"},{"bike_id":"5ec1f8c3-0e16-411f-9afb-0b32d03d3548","system_id":"levelo_inurba_marseille","lat":43.31329,"lon":5.40589,"is_reserved":false,"is_disabled":false,"rental_uris":{"android":"levelo://app?vid=5ec1f8c3-0e16-411f-9afb-0b32d03d3548","ios":"levelo://app?vid=5ec1f8c3-0e16-411f-9afb-0b32d03d3548"},"vehicle_type_id":"4","last_reported":1767723444,"current_range_meters":6800,"station_id":"","pricing_plan_id":"cebpf4jnsgd1na2vs0mg"},{"bike_id":"aff668a6-789b-4c4a-acc0-76076eac0fb4","system_id":"levelo_inurba_marseille","lat":43.2841,"lon":5.37499,"is_reserved":false,"is_disabled":false,"rental_uris":{"android":"levelo://app?vid=aff668a6-789b-4c4a-acc0-76076eac0fb4","ios":"levelo://app?vid=aff668a6-789b-4c4a-acc0-76076eac0fb4"},"vehicle_type_id":"4","last_reported":1767723444,"current_range_meters":6800,"station_id":"ce4bh412rcd13ifvqds0","pricing_plan_id":"cebpf4jnsgd1na2vs0mg"},{"bike_id":"b8408ccb-17d0-4ba3-b31e-918a33cf6e7d","system_id":"levelo_inurba_marseille","lat":43.24667,"lon":5.381667,"is_reserved":false,"is_disabled":true,"rental_uris":{"android":"levelo://app?vid=b8408ccb-17d0-4ba3-b31e-918a33cf6e7d","ios":"levelo://app?vid=b8408ccb-17d0-4ba3-b31e-918a33cf6e7d"},"vehicle_type_id":"4","last_reported":1767723444,"current_range_meters":6800,"station_id":"ce4bhih2rcd13ifvqfr0","pricing_plan_id":"cebpf4jnsgd1na2vs0mg"},{"bike_id":"1c443ae8-c486-4898-ba52-b5c1dcdc3e04","system_id":"levelo_inurba_marseille","lat":43.2719,"lon":5.40987,"is_reserved":false,"is_disabled":false,"rental_uris":{"android":"levelo://app?vid=1c443ae8-c486-4898-ba52-b5c1dcdc3e04","ios":"levelo://app?vid=1c443ae8-c486-4898-ba52-b5c1dcdc3e04"},"vehicle_type_id":"4","last_reported":1767723444,"current_range_meters":6800,"station_id":"ce4bhl12rcd13ifvqgf0","pricing_plan_id":"cebpf4jnsgd1na2vs0mg"},{"bike_id":"c92f9eb1-4edf-4277-a16e-c93cc6295b90","system_id":"levelo_inurba_marseille","lat":43.31419,"lon":5.40405,"is_reserved":false,"is_disabled":false,"rental_uris":{"android":"levelo://app?vid=c92f9eb1-4edf-4277-a16e-c93cc6295b90","ios":"levelo://app?vid=c92f9eb1-4edf-4277-a16e-c93cc6295b90"},"vehicle_type_id":"4","last_reported":1767723444,"current_range_meters":6800,"station_id":"","pricing_plan_id":"cebpf4jnsgd1na2vs0mg"},{"bike_id":"1252e275-234f-4ee8-90b7-4713531fdde9","system_id":"levelo_inurba_marseille","lat":43.292592,"lon":5.384179,"is_reserved":false,"is_disabled":false,"rental_uris":{"android":"levelo://app?vid=1252e275-234f-4ee8-90b7-4713531fdde9","ios":"levelo://app?vid=1252e275-234f-4ee8-90b7-4713531fdde9"},"vehicle_type_id":"4","last_reported":1767723444,"current_range_meters":6800,"station_id":"ce4bh692rcd13ifvqea0","pricing_plan_id":"cebpf4jnsgd1na2vs0mg"},{"bike_id":"e70bf914-a83b-4e49-abee-c19b73e5894b","system_id":"levelo_inurba_marseille","lat":43.31072,"lon":5.3836,"is_reserved":false,"is_disabled":false,"rental_uris":{"android":"levelo://app?vid=e70bf914-a83b-4e49-abee-c19b73e5894b","ios":"levelo://app?vid=e70bf914-a83b-4e49-abee-c19b73e5894b"},"vehicle_type_id":"4","last_reported":1767723444,"current_range_meters":6800,"station_id":"ce4bgv92rcd13ifvqcr0","pricing_plan_id":"cebpf4jnsgd1na2vs0mg"},{"bike_id":"71c53044-c0ca-48e9-968f-ab1ba6524736","system_id":"levelo_inurba_marseille","lat":43.239691,"lon":5.366071,"is_reserved":false,"is_disabled":false,"rental_uris":{"android":"levelo://app?vid=71c53044-c0ca-48e9-968f-ab1ba6524736","ios":"levelo://app?vid=71c53044-c0ca-48e9-968f-ab1ba6524736"},"vehicle_type_id":"4","last_reported":1767723444,"current_range_meters":6800,"station_id":"ce4bhi12rcd13ifvqfp0","pricing_plan_id":"cebpf4jnsgd1na2vs0mg"},{"bike_id":"03fc7c2b-df70-46bd-96eb-bd11795076fd","system_id":"levelo_inurba_marseille","lat":43.292747,"lon":5.368433,"is_reserved":false,"is_disabled":false,"rental_uris":{"android":"levelo://app?vid=03fc7c2b-df70-46bd-96eb-bd11795076fd","ios":"levelo://app?vid=03fc7c2b-df70-46bd-96eb-bd11795076fd"},"vehicle_type_id":"4","last_reported":1767723444,"current_range_meters":6800,"station_id":"ce4bhbp2rcd13ifvqesg","pricing_plan_id":"cebpf4jnsgd1na2vs0mg"},{"bike_id":"496c262d-e7e0-4aec-87e1-00a1e17e7c6f","system_id":"levelo_inurba_marseille","lat":43.25336,"lon":5.42169,"is_reserved":false,"is_disabled":false,"rental_uris":{"android":"levelo://app?vid=496c262d-e7e0-4aec-87e1-00a1e17e7c6f","ios":"levelo://app?vid=496c262d-e7e0-4aec-87e1-00a1e17e7c6f"},"vehicle_type_id":"4","last_reported":1767723444,"current_range_meters":6800,"station_id":"st_d2m65c5bi1j21697t3ng","pricing_plan_id":"cebpf4jnsgd1na2vs0mg"},{"bike_id":"aa8f7297-e96d-40f9-a7e4-e80f1ab26823","system_id":"levelo_inurba_marseille","lat":43.28799,"lon":5.38263,"is_reserved":false,"is_disabled":false,"rental_uris":{"android":"levelo://app?vid=aa8f7297-e96d-40f9-a7e4-e80f1ab26823","ios":"levelo://app?vid=aa8f7297-e96d-40f9-a7e4-e80f1ab26823"},"vehicle_type_id":"4","last_reported":1767723444,"current_range_meters":6800,"station_id":"","pricing_plan_id":"cebpf4jnsgd1na2vs0mg"},{"bike_id":"44c4dd74-c0cf-4651-9bff-e14ac2230eee","system_id":"levelo_inurba_marseille","lat":43.25862,"lon":5.39905,"is_reserved":false,"is_disabled":false,"rental_uris":{"android":"levelo://app?vid=44c4dd74-c0cf-4651-9bff-e14ac2230eee","ios":"levelo://app?vid=44c4dd74-c0cf-4651-9bff-e14ac2230eee"},"vehicle_type_id":"4","last_reported":1767723444,"current_range_meters":6800,"station_id":"ce4bhl92rcd13ifvqghg","pricing_plan_id":"cebpf4jnsgd1na2vs0mg"},{"bike_id":"c2a99736-5b8a-4a01-b28c-d47ef659a247","system_id":"levelo_inurba_marseille","lat":43.253409,"lon":5.421715,"is_reserved":false,"is_disabled":false,"rental_uris":{"android":"levelo://app?vid=c2a99736-5b8a-4a01-b28c-d47ef659a247","ios":"levelo://app?vid=c2a99736-5b8a-4a01-b28c-d47ef659a247"},"vehicle_type_id":"4","last_reported":1767723444,"current_range_meters":6800,"station_id":"st_d2m65c5bi1j21697t3ng","pricing_plan_id":"cebpf4jnsgd1na2vs0mg"},{"bike_id":"2bfe4f2a-17f6-475e-bdf8-82328baa1fde","system_id":"levelo_inurba_marseille","lat":43.27939,"lon":5.41034,"is_reserved":false,"is_disabled":false,"rental_uris":{"android":"levelo://app?vid=2bfe4f2a-17f6-475e-bdf8-82328baa1fde","ios":"levelo://app?vid=2bfe4f2a-17f6-475e-bdf8-82328baa1fde"},"vehicle_type_id":"4","last_reported":1767723444,"current_range_meters":6800,"station_id":"ce4bhnp2rcd13ifvqh0g","pricing_plan_id":"cebpf4jnsgd1na2vs0mg"},{"bike_id":"f75b0410-7374-4824-96ab-6b516b680266","system_id":"levelo_inurba_marseille","lat":43.26492,"lon":5.39567,"is_reserved":false,"is_disabled":false,"rental_uris":{"android":"levelo://app?vid=f75b0410-7374-4824-96ab-6b516b680266","ios":"levelo://app?vid=f75b0410-7374-4824-96ab-6b516b680266"},"vehicle_type_id":"4","last_reported":1767723444,"current_range_meters":7200,"station_id":"ce4bhi12rcd13ifvqfq0","pricing_plan_id":"cebpf4jnsgd1na2vs0mg"},{"bike_id":"a60e859d-20a7-4efc-ab94-0c4ccc8ad025","system_id":"levelo_inurba_marseille","lat":43.337444,"lon":5.374475,"is_reserved":false,"is_disabled":true,"rental_uris":{"android":"levelo://app?vid=a60e859d-20a7-4efc-ab94-0c4ccc8ad025","ios":"levelo://app?vid=a60e859d-20a7-4efc-ab94-0c4ccc8ad025"},"vehicle_type_id":"4","last_reported":1767723444,"current_range_meters":7200,"station_id":"","pricing_plan_id":"cebpf4jnsgd1na2vs0mg"},{"bike_id":"f3cb6086-5e80-4c80-9631-a61f6105ed91","system_id":"levelo_inurba_marseille","lat":43.31375,"lon":5.36694,"is_reserved":false,"is_disabled":false,"rental_uris":{"android":"levelo://app?vid=f3cb6086-5e80-4c80-9631-a61f6105ed91","ios":"levelo://app?vid=f3cb6086-5e80-4c80-9631-a61f6105ed91"},"vehicle_type_id":"4","last_reported":1767723444,"current_range_meters":7200,"station_id":"ce4bgr92rcd13ifvqc6g","pricing_plan_id":"cebpf4jnsgd1na2vs0mg"},{"bike_id":"0032ba1d-9238-4223-b1a7-c312da3d013b","system_id":"levelo_inurba_marseille","lat":43.27816,"lon":5.40726,"is_reserved":false,"is_disabled":false,"rental_uris":{"android":"levelo://app?vid=0032ba1d-9238-4223-b1a7-c312da3d013b","ios":"levelo://app?vid=0032ba1d-9238-4223-b1a7-c312da3d013b"},"vehicle_type_id":"4","last_reported":1767723444,"current_range_meters":7200,"station_id":"ce4bhnh2rcd13ifvqgtg","pricing_plan_id":"cebpf4jnsgd1na2vs0mg"},{"bike_id":"5489f607-ea9c-45c1-a29b-b9982299f403","system_id":"levelo_inurba_marseille","lat":43.294467,"lon":5.4317,"is_reserved":false,"is_disabled":false,"rental_uris":{"android":"levelo://app?vid=5489f607-ea9c-45c1-a29b-b9982299f403","ios":"levelo://app?vid=5489f607-ea9c-45c1-a29b-b9982299f403"},"vehicle_type_id":"4","last_reported":1767723444,"current_range_meters":7200,"station_id":"ce4bho12rcd13ifvqh2g","pricing_plan_id":"cebpf4jnsgd1na2vs0mg"},{"bike_id":"15bf6c3d-bc89-4e44-bfe7-ef27538e093c","system_id":"levelo_inurba_marseille","lat":43.24627,"lon":5.43144,"is_reserved":false,"is_disabled":false,"rental_uris":{"android":"levelo://app?vid=15bf6c3d-bc89-4e44-bfe7-ef27538e093c","ios":"levelo://app?vid=15bf6c3d-bc89-4e44-bfe7-ef27538e093c"},"vehicle_type_id":"4","last_reported":1767723444,"current_range_meters":7200,"station_id":"st_d2m6c4gdas8pm72e190g","pricing_plan_id":"cebpf4jnsgd1na2vs0mg"},{"bike_id":"6a37a502-8a4f-4bc7-83bd-16348e8cf97e","system_id":"levelo_inurba_marseille","lat":43.32111,"lon":5.36773,"is_reserved":false,"is_disabled":false,"rental_uris":{"android":"levelo://app?vid=6a37a502-8a4f-4bc7-83bd-16348e8cf97e","ios":"levelo://app?vid=6a37a502-8a4f-4bc7-83bd-16348e8cf97e"},"vehicle_type_id":"4","last_reported":1767723444,"current_range_meters":7200,"station_id":"ce4bhrh2rcd13ifvqhug","pricing_plan_id":"cebpf4jnsgd1na2vs0mg"},{"bike_id":"7730a621-41f9-407f-8b0c-5d1ce5fff2ce","system_id":"levelo_inurba_marseille","lat":43.29607,"lon":5.38101,"is_reserved":false,"is_disabled":false,"rental_uris":{"android":"levelo://app?vid=7730a621-41f9-407f-8b0c-5d1ce5fff2ce","ios":"levelo://app?vid=7730a621-41f9-407f-8b0c-5d1ce5fff2ce"},"vehicle_type_id":"4","last_reported":1767723444,"current_range_meters":7200,"station_id":"ce4bgl12rcd13ifvqbo0","pricing_plan_id":"cebpf4jnsgd1na2vs0mg"},{"bike_id":"c12ea4a3-bcf0-4ab0-a612-03910cec9930","system_id":"levelo_inurba_marseille","lat":43.280761,"lon":5.396535,"is_reserved":false,"is_disabled":false,"rental_uris":{"android":"levelo://app?vid=c12ea4a3-bcf0-4ab0-a612-03910cec9930","ios":"levelo://app?vid=c12ea4a3-bcf0-4ab0-a612-03910cec9930"},"vehicle_type_id":"4","last_reported":1767723444,"current_range_meters":7200,"station_id":"ce4bho12rcd13ifvqh2g","pricing_plan_id":"cebpf4jnsgd1na2vs0mg"},{"bike_id":"707ae7c3-e2ac-476f-95a0-ff3db6e834e6","system_id":"levelo_inurba_marseille","lat":43.296005,"lon":5.381015,"is_reserved":false,"is_disabled":false,"rental_uris":{"android":"levelo://app?vid=707ae7c3-e2ac-476f-95a0-ff3db6e834e6","ios":"levelo://app?vid=707ae7c3-e2ac-476f-95a0-ff3db6e834e6"},"vehicle_type_id":"4","last_reported":1767723444,"current_range_meters":7200,"station_id":"ce4bgl12rcd13ifvqbo0","pricing_plan_id":"cebpf4jnsgd1na2vs0mg"},{"bike_id":"1cc14a4e-8f2c-4bea-9c25-f855a4eff001","system_id":"levelo_inurba_marseille","lat":43.28615,"lon":5.35092,"is_reserved":false,"is_disabled":false,"rental_uris":{"android":"levelo://app?vid=1cc14a4e-8f2c-4bea-9c25-f855a4eff001","ios":"levelo://app?vid=1cc14a4e-8f2c-4bea-9c25-f855a4eff001"},"vehicle_type_id":"4","last_reported":1767723444,"current_range_meters":7200,"station_id":"ce4bhch2rcd13ifvqeug","pricing_plan_id":"cebpf4jnsgd1na2vs0mg"},{"bike_id":"83f5c9b2-f37e-4635-817a-992d595185c8","system_id":"levelo_inurba_marseille","lat":43.30531,"lon":5.36713,"is_reserved":false,"is_disabled":false,"rental_uris":{"android":"levelo://app?vid=83f5c9b2-f37e-4635-817a-992d595185c8","ios":"levelo://app?vid=83f5c9b2-f37e-4635-817a-992d595185c8"},"vehicle_type_id":"4","last_reported":1767723444,"current_range_meters":7200,"station_id":"ce4bgrp2rcd13ifvqc9g","pricing_plan_id":"cebpf4jnsgd1na2vs0mg"},{"bike_id":"68ecef4a-3d03-4b87-95fa-e44657e4c2a6","system_id":"levelo_inurba_marseille","lat":43.29767,"lon":5.42773,"is_reserved":false,"is_disabled":false,"rental_uris":{"android":"levelo://app?vid=68ecef4a-3d03-4b87-95fa-e44657e4c2a6","ios":"levelo://app?vid=68ecef4a-3d03-4b87-95fa-e44657e4c2a6"},"vehicle_type_id":"4","last_reported":1767723444,"current_range_meters":7200,"station_id":"st_d3md5207bmas73dh9klg","pricing_plan_id":"cebpf4jnsgd1na2vs0mg"},{"bike_id":"a3da1827-148b-41c2-bd04-cbeb3bb21a64","system_id":"levelo_inurba_marseille","lat":43.27957,"lon":5.38727,"is_reserved":false,"is_disabled":false,"rental_uris":{"android":"levelo://app?vid=a3da1827-148b-41c2-bd04-cbeb3bb21a64","ios":"levelo://app?vid=a3da1827-148b-41c2-bd04-cbeb3bb21a64"},"vehicle_type_id":"4","last_reported":1767723444,"current_range_meters":7200,"station_id":"ce4bhg12rcd13ifvqf80","pricing_plan_id":"cebpf4jnsgd1na2vs0mg"},{"bike_id":"0eae4c5c-65fb-423e-a7c1-58f6b63165a0","system_id":"levelo_inurba_marseille","lat":43.29788,"lon":5.38095,"is_reserved":false,"is_disabled":false,"rental_uris":{"android":"levelo://app?vid=0eae4c5c-65fb-423e-a7c1-58f6b63165a0","ios":"levelo://app?vid=0eae4c5c-65fb-423e-a7c1-58f6b63165a0"},"vehicle_type_id":"4","last_reported":1767723444,"current_range_meters":7200,"station_id":"ce4bgip2rcd13ifvqbb0","pricing_plan_id":"cebpf4jnsgd1na2vs0mg"},{"bike_id":"59f38118-6a4d-4e62-8844-f6df1659fc07","system_id":"levelo_inurba_marseille","lat":43.29887,"lon":5.43667,"is_reserved":false,"is_disabled":false,"rental_uris":{"android":"levelo://app?vid=59f38118-6a4d-4e62-8844-f6df1659fc07","ios":"levelo://app?vid=59f38118-6a4d-4e62-8844-f6df1659fc07"},"vehicle_type_id":"4","last_reported":1767723444,"current_range_meters":7200,"station_id":"ce4bhpp2rcd13ifvqhfg","pricing_plan_id":"cebpf4jnsgd1na2vs0mg"},{"bike_id":"b873d448-1951-4df5-bd2c-5e9d96c8aae5","system_id":"levelo_inurba_marseille","lat":43.23767,"lon":5.3664,"is_reserved":false,"is_disabled":false,"rental_uris":{"android":"levelo://app?vid=b873d448-1951-4df5-bd2c-5e9d96c8aae5","ios":"levelo://app?vid=b873d448-1951-4df5-bd2c-5e9d96c8aae5"},"vehicle_type_id":"4","last_reported":1767723444,"current_range_meters":7200,"station_id":"st_d3nk18o9ro0c73en2l3g","pricing_plan_id":"cebpf4jnsgd1na2vs0mg"},{"bike_id":"82f6d72a-169c-46dc-bf44-f03a21f411bf","system_id":"levelo_inurba_marseille","lat":43.24464,"lon":5.42541,"is_reserved":false,"is_disabled":false,"rental_uris":{"android":"levelo://app?vid=82f6d72a-169c-46dc-bf44-f03a21f411bf","ios":"levelo://app?vid=82f6d72a-169c-46dc-bf44-f03a21f411bf"},"vehicle_type_id":"4","last_reported":1767723444,"current_range_meters":7200,"station_id":"st_d4a3vfp97mjs738cd8kg","pricing_plan_id":"cebpf4jnsgd1na2vs0mg"},{"bike_id":"174e0a88-28ce-484e-8861-adcbe3a929da","system_id":"levelo_inurba_marseille","lat":43.28482,"lon":5.483879,"is_reserved":false,"is_disabled":false,"rental_uris":{"android":"levelo://app?vid=174e0a88-28ce-484e-8861-adcbe3a929da","ios":"levelo://app?vid=174e0a88-28ce-484e-8861-adcbe3a929da"},"vehicle_type_id":"4","last_reported":1767723444,"current_range_meters":7200,"station_id":"st_d3svhcjqgbts73a3dn0g","pricing_plan_id":"cebpf4jnsgd1na2vs0mg"},{"bike_id":"04d43e4b-aa2e-409e-aae9-9807b048b7cf","system_id":"levelo_inurba_marseille","lat":43.26939,"lon":5.40253,"is_reserved":false,"is_disabled":false,"rental_uris":{"android":"levelo://app?vid=04d43e4b-aa2e-409e-aae9-9807b048b7cf","ios":"levelo://app?vid=04d43e4b-aa2e-409e-aae9-9807b048b7cf"},"vehicle_type_id":"4","last_reported":1767723444,"current_range_meters":7200,"station_id":"cjm6bp8fraef2m0cb0m0","pricing_plan_id":"cebpf4jnsgd1na2vs0mg"},{"bike_id":"8cd310db-0579-4f8a-80da-3c85bf174941","system_id":"levelo_inurba_marseille","lat":43.2792,"lon":5.39583,"is_reserved":false,"is_disabled":false,"rental_uris":{"android":"levelo://app?vid=8cd310db-0579-4f8a-80da-3c85bf174941","ios":"levelo://app?vid=8cd310db-0579-4f8a-80da-3c85bf174941"},"vehicle_type_id":"4","last_reported":1767723444,"current_range_meters":7200,"station_id":"ce4bhf92rcd13ifvqf40","pricing_plan_id":"cebpf4jnsgd1na2vs0mg"},{"bike_id":"36eef32e-68eb-44a8-9d20-6cee29877c14","system_id":"levelo_inurba_marseille","lat":43.30318,"lon":5.40434,"is_reserved":false,"is_disabled":false,"rental_uris":{"android":"levelo://app?vid=36eef32e-68eb-44a8-9d20-6cee29877c14","ios":"levelo://app?vid=36eef32e-68eb-44a8-9d20-6cee29877c14"},"vehicle_type_id":"4","last_reported":1767723444,"current_range_meters":7200,"station_id":"ce4bh012rcd13ifvqd10","pricing_plan_id":"cebpf4jnsgd1na2vs0mg"},{"bike_id":"27d9b984-914c-44c6-abe9-2fee68ccfc43","system_id":"levelo_inurba_marseille","lat":43.3316,"lon":5.37684,"is_reserved":false,"is_disabled":false,"rental_uris":{"android":"levelo://app?vid=27d9b984-914c-44c6-abe9-2fee68ccfc43","ios":"levelo://app?vid=27d9b984-914c-44c6-abe9-2fee68ccfc43"},"vehicle_type_id":"4","last_reported":1767723444,"current_range_meters":7200,"station_id":"st_d46cu089ee8s73dldbu0","pricing_plan_id":"cebpf4jnsgd1na2vs0mg"},{"bike_id":"5e979a9d-bd15-4118-89ac-fcfc411881a7","system_id":"levelo_inurba_marseille","lat":43.29272,"lon":5.38443,"is_reserved":false,"is_disabled":false,"rental_uris":{"android":"levelo://app?vid=5e979a9d-bd15-4118-89ac-fcfc411881a7","ios":"levelo://app?vid=5e979a9d-bd15-4118-89ac-fcfc411881a7"},"vehicle_type_id":"4","last_reported":1767723444,"current_range_meters":7200,"station_id":"ce4bh692rcd13ifvqea0","pricing_plan_id":"cebpf4jnsgd1na2vs0mg"},{"bike_id":"4d786170-3374-40b0-82f4-0bee411a9d14","system_id":"levelo_inurba_marseille","lat":43.30305,"lon":5.39212,"is_reserved":false,"is_disabled":false,"rental_uris":{"android":"levelo://app?vid=4d786170-3374-40b0-82f4-0bee411a9d14","ios":"levelo://app?vid=4d786170-3374-40b0-82f4-0bee411a9d14"},"vehicle_type_id":"4","last_reported":1767723444,"current_range_meters":7200,"station_id":"ce4bgkh2rcd13ifvqbk0","pricing_plan_id":"cebpf4jnsgd1na2vs0mg"},{"bike_id":"50f36a1d-c45c-4245-acfa-b8e0dc758503","system_id":"levelo_inurba_marseille","lat":43.28363,"lon":5.38624,"is_reserved":false,"is_disabled":false,"rental_uris":{"android":"levelo://app?vid=50f36a1d-c45c-4245-acfa-b8e0dc758503","ios":"levelo://app?vid=50f36a1d-c45c-4245-acfa-b8e0dc758503"},"vehicle_type_id":"4","last_reported":1767723444,"current_range_meters":7200,"station_id":"ce4bh492rcd13ifvqdvg","pricing_plan_id":"cebpf4jnsgd1na2vs0mg"},{"bike_id":"10d65fdd-6284-4416-b81a-98de7b219e61","system_id":"levelo_inurba_marseille","lat":43.27554,"lon":5.38445,"is_reserved":false,"is_disabled":false,"rental_uris":{"android":"levelo://app?vid=10d65fdd-6284-4416-b81a-98de7b219e61","ios":"levelo://app?vid=10d65fdd-6284-4416-b81a-98de7b219e61"},"vehicle_type_id":"4","last_reported":1767723444,"current_range_meters":7200,"station_id":"ce4bhh92rcd13ifvqfi0","pricing_plan_id":"cebpf4jnsgd1na2vs0mg"},{"bike_id":"62875532-8fcc-4249-a23c-915a209b38fd","system_id":"levelo_inurba_marseille","lat":43.257197,"lon":5.411163,"is_reserved":false,"is_disabled":false,"rental_uris":{"android":"levelo://app?vid=62875532-8fcc-4249-a23c-915a209b38fd","ios":"levelo://app?vid=62875532-8fcc-4249-a23c-915a209b38fd"},"vehicle_type_id":"4","last_reported":1767723444,"current_range_meters":7200,"station_id":"ce4bhkp2rcd13ifvqgd0","pricing_plan_id":"cebpf4jnsgd1na2vs0mg"},{"bike_id":"7c81279a-0cb0-4649-9ace-177295bc170d","system_id":"levelo_inurba_marseille","lat":43.29881,"lon":5.39738,"is_reserved":false,"is_disabled":false,"rental_uris":{"android":"levelo://app?vid=7c81279a-0cb0-4649-9ace-177295bc170d","ios":"levelo://app?vid=7c81279a-0cb0-4649-9ace-177295bc170d"},"vehicle_type_id":"4","last_reported":1767723444,"current_range_meters":7200,"station_id":"ce4bh0h2rcd13ifvqd50","pricing_plan_id":"cebpf4jnsgd1na2vs0mg"},{"bike_id":"65abfba9-190a-4a23-89ee-b7e60341596f","system_id":"levelo_inurba_marseille","lat":43.28719,"lon":5.37935,"is_reserved":false,"is_disabled":false,"rental_uris":{"android":"levelo://app?vid=65abfba9-190a-4a23-89ee-b7e60341596f","ios":"levelo://app?vid=65abfba9-190a-4a23-89ee-b7e60341596f"},"vehicle_type_id":"4","last_reported":1767723444,"current_range_meters":7200,"station_id":"ce4bh9p2rcd13ifvqec0","pricing_plan_id":"cebpf4jnsgd1na2vs0mg"},{"bike_id":"25dbcc45-049f-4343-9bae-ee809280083a","system_id":"levelo_inurba_marseille","lat":43.28361,"lon":5.38457,"is_reserved":false,"is_disabled":false,"rental_uris":{"android":"levelo://app?vid=25dbcc45-049f-4343-9bae-ee809280083a","ios":"levelo://app?vid=25dbcc45-049f-4343-9bae-ee809280083a"},"vehicle_type_id":"4","last_reported":1767723444,"current_range_meters":7200,"station_id":"","pricing_plan_id":"cebpf4jnsgd1na2vs0mg"},{"bike_id":"2b249141-87e2-4eaa-8d21-183c28a1a8bb","system_id":"levelo_inurba_marseille","lat":43.2976,"lon":5.42791,"is_reserved":false,"is_disabled":false,"rental_uris":{"android":"levelo://app?vid=2b249141-87e2-4eaa-8d21-183c28a1a8bb","ios":"levelo://app?vid=2b249141-87e2-4eaa-8d21-183c28a1a8bb"},"vehicle_type_id":"4","last_reported":1767723444,"current_range_meters":7200,"station_id":"st_d3md5207bmas73dh9klg","pricing_plan_id":"cebpf4jnsgd1na2vs0mg"},{"bike_id":"68082996-86f2-40ce-8bc4-a7dd46f435bf","system_id":"levelo_inurba_marseille","lat":43.28561,"lon":5.36009,"is_reserved":false,"is_disabled":false,"rental_uris":{"android":"levelo://app?vid=68082996-86f2-40ce-8bc4-a7dd46f435bf","ios":"levelo://app?vid=68082996-86f2-40ce-8bc4-a7dd46f435bf"},"vehicle_type_id":"4","last_reported":1767723444,"current_range_meters":7200,"station_id":"","pricing_plan_id":"cebpf4jnsgd1na2vs0mg"},{"bike_id":"06992c46-6889-40f3-a5d1-edc32d603bfb","system_id":"levelo_inurba_marseille","lat":43.28615,"lon":5.39898,"is_reserved":false,"is_disabled":false,"rental_uris":{"android":"levelo://app?vid=06992c46-6889-40f3-a5d1-edc32d603bfb","ios":"levelo://app?vid=06992c46-6889-40f3-a5d1-edc32d603bfb"},"vehicle_type_id":"4","last_reported":1767723444,"current_range_meters":7200,"station_id":"ce4bho92rcd13ifvqh3g","pricing_plan_id":"cebpf4jnsgd1na2vs0mg"},{"bike_id":"9919d450-8a55-46ab-9cbe-c338464cad0f","system_id":"levelo_inurba_marseille","lat":43.30192,"lon":5.36614,"is_reserved":false,"is_disabled":false,"rental_uris":{"android":"levelo://app?vid=9919d450-8a55-46ab-9cbe-c338464cad0f","ios":"levelo://app?vid=9919d450-8a55-46ab-9cbe-c338464cad0f"},"vehicle_type_id":"4","last_reported":1767723444,"current_range_meters":8000,"station_id":"ce4bgrh2rcd13ifvqc8g","pricing_plan_id":"cebpf4jnsgd1na2vs0mg"},{"bike_id":"fdba4da0-6a38-4ee6-8ed8-ed4669979609","system_id":"levelo_inurba_marseille","lat":43.2606,"lon":5.39389,"is_reserved":false,"is_disabled":false,"rental_uris":{"android":"levelo://app?vid=fdba4da0-6a38-4ee6-8ed8-ed4669979609","ios":"levelo://app?vid=fdba4da0-6a38-4ee6-8ed8-ed4669979609"},"vehicle_type_id":"4","last_reported":1767723444,"current_range_meters":8000,"station_id":"ce4bhn12rcd13ifvqgpg","pricing_plan_id":"cebpf4jnsgd1na2vs0mg"},{"bike_id":"82244249-d3ef-406d-9f5c-ca1aae0b695b","system_id":"levelo_inurba_marseille","lat":43.276767,"lon":5.38873,"is_reserved":false,"is_disabled":false,"rental_uris":{"android":"levelo://app?vid=82244249-d3ef-406d-9f5c-ca1aae0b695b","ios":"levelo://app?vid=82244249-d3ef-406d-9f5c-ca1aae0b695b"},"vehicle_type_id":"4","last_reported":1767723444,"current_range_meters":8000,"station_id":"ce4bhi12rcd13ifvqfo0","pricing_plan_id":"cebpf4jnsgd1na2vs0mg"},{"bike_id":"2af0ce7c-ca3c-4dfe-9ab3-190f23e26597","system_id":"levelo_inurba_marseille","lat":43.238731,"lon":5.365227,"is_reserved":false,"is_disabled":false,"rental_uris":{"android":"levelo://app?vid=2af0ce7c-ca3c-4dfe-9ab3-190f23e26597","ios":"levelo://app?vid=2af0ce7c-ca3c-4dfe-9ab3-190f23e26597"},"vehicle_type_id":"4","last_reported":1767723444,"current_range_meters":8000,"station_id":"","pricing_plan_id":"cebpf4jnsgd1na2vs0mg"},{"bike_id":"1aab9789-bffd-4a51-8860-d68a520871ab","system_id":"levelo_inurba_marseille","lat":43.335363,"lon":5.374747,"is_reserved":false,"is_disabled":false,"rental_uris":{"android":"levelo://app?vid=1aab9789-bffd-4a51-8860-d68a520871ab","ios":"levelo://app?vid=1aab9789-bffd-4a51-8860-d68a520871ab"},"vehicle_type_id":"4","last_reported":1767723444,"current_range_meters":8000,"station_id":"st_d46tts09ee8s73dlu43g","pricing_plan_id":"cebpf4jnsgd1na2vs0mg"},{"bike_id":"cccedf1f-544a-43fc-88c9-0f2af297f59c","system_id":"levelo_inurba_marseille","lat":43.31402,"lon":5.39269,"is_reserved":false,"is_disabled":false,"rental_uris":{"android":"levelo://app?vid=cccedf1f-544a-43fc-88c9-0f2af297f59c","ios":"levelo://app?vid=cccedf1f-544a-43fc-88c9-0f2af297f59c"},"vehicle_type_id":"4","last_reported":1767723444,"current_range_meters":8000,"station_id":"","pricing_plan_id":"cebpf4jnsgd1na2vs0mg"},{"bike_id":"03bb26cc-5abe-463b-b42d-df12dfc80fb1","system_id":"levelo_inurba_marseille","lat":43.27994,"lon":5.40004,"is_reserved":false,"is_disabled":false,"rental_uris":{"android":"levelo://app?vid=03bb26cc-5abe-463b-b42d-df12dfc80fb1","ios":"levelo://app?vid=03bb26cc-5abe-463b-b42d-df12dfc80fb1"},"vehicle_type_id":"4","last_reported":1767723444,"current_range_meters":8000,"station_id":"ce4bho92rcd13ifvqh4g","pricing_plan_id":"cebpf4jnsgd1na2vs0mg"},{"bike_id":"a88d173a-f92b-4659-95e4-3a02e09985e8","system_id":"levelo_inurba_marseille","lat":43.28155,"lon":5.42643,"is_reserved":false,"is_disabled":false,"rental_uris":{"android":"levelo://app?vid=a88d173a-f92b-4659-95e4-3a02e09985e8","ios":"levelo://app?vid=a88d173a-f92b-4659-95e4-3a02e09985e8"},"vehicle_type_id":"4","last_reported":1767723444,"current_range_meters":8000,"station_id":"ce4bhnh2rcd13ifvqgug","pricing_plan_id":"cebpf4jnsgd1na2vs0mg"},{"bike_id":"3275b859-c08d-4706-afc8-86a6bdcab3a2","system_id":"levelo_inurba_marseille","lat":43.24399,"lon":5.37097,"is_reserved":false,"is_disabled":false,"rental_uris":{"android":"levelo://app?vid=3275b859-c08d-4706-afc8-86a6bdcab3a2","ios":"levelo://app?vid=3275b859-c08d-4706-afc8-86a6bdcab3a2"},"vehicle_type_id":"4","last_reported":1767723444,"current_range_meters":8000,"station_id":"ce4bhhh2rcd13ifvqfk0","pricing_plan_id":"cebpf4jnsgd1na2vs0mg"},{"bike_id":"13dbc357-c293-48c2-9008-696b0b46d240","system_id":"levelo_inurba_marseille","lat":43.2656,"lon":5.39038,"is_reserved":false,"is_disabled":false,"rental_uris":{"android":"levelo://app?vid=13dbc357-c293-48c2-9008-696b0b46d240","ios":"levelo://app?vid=13dbc357-c293-48c2-9008-696b0b46d240"},"vehicle_type_id":"4","last_reported":1767723444,"current_range_meters":8000,"station_id":"ce4bhe12rcd13ifvqf30","pricing_plan_id":"cebpf4jnsgd1na2vs0mg"},{"bike_id":"722cbb73-0ec9-4f08-89c7-c23af9aed8be","system_id":"levelo_inurba_marseille","lat":43.30512,"lon":5.36538,"is_reserved":false,"is_disabled":false,"rental_uris":{"android":"levelo://app?vid=722cbb73-0ec9-4f08-89c7-c23af9aed8be","ios":"levelo://app?vid=722cbb73-0ec9-4f08-89c7-c23af9aed8be"},"vehicle_type_id":"4","last_reported":1767723444,"current_range_meters":8000,"station_id":"","pricing_plan_id":"cebpf4jnsgd1na2vs0mg"},{"bike_id":"91f2aeb6-eb90-4d3b-b54e-f53e0d5b19f2","system_id":"levelo_inurba_marseille","lat":43.29866,"lon":5.39733,"is_reserved":false,"is_disabled":false,"rental_uris":{"android":"levelo://app?vid=91f2aeb6-eb90-4d3b-b54e-f53e0d5b19f2","ios":"levelo://app?vid=91f2aeb6-eb90-4d3b-b54e-f53e0d5b19f2"},"vehicle_type_id":"4","last_reported":1767723444,"current_range_meters":8000,"station_id":"ce4bh0h2rcd13ifvqd50","pricing_plan_id":"cebpf4jnsgd1na2vs0mg"},{"bike_id":"bcc58918-32eb-474c-8530-7b17c1e1f9a0","system_id":"levelo_inurba_marseille","lat":43.29494,"lon":5.43303,"is_reserved":false,"is_disabled":false,"rental_uris":{"android":"levelo://app?vid=bcc58918-32eb-474c-8530-7b17c1e1f9a0","ios":"levelo://app?vid=bcc58918-32eb-474c-8530-7b17c1e1f9a0"},"vehicle_type_id":"4","last_reported":1767723444,"current_range_meters":8000,"station_id":"st_d3j5ugp08ojc73fj9d10","pricing_plan_id":"cebpf4jnsgd1na2vs0mg"},{"bike_id":"9b21424a-1587-45e4-bf2a-4284accabf77","system_id":"levelo_inurba_marseille","lat":43.28478,"lon":5.48401,"is_reserved":false,"is_disabled":false,"rental_uris":{"android":"levelo://app?vid=9b21424a-1587-45e4-bf2a-4284accabf77","ios":"levelo://app?vid=9b21424a-1587-45e4-bf2a-4284accabf77"},"vehicle_type_id":"4","last_reported":1767723444,"current_range_meters":8000,"station_id":"","pricing_plan_id":"cebpf4jnsgd1na2vs0mg"},{"bike_id":"ff0c96c0-1201-49ed-b971-c326d6f212d5","system_id":"levelo_inurba_marseille","lat":43.26562,"lon":5.39018,"is_reserved":false,"is_disabled":false,"rental_uris":{"android":"levelo://app?vid=ff0c96c0-1201-49ed-b971-c326d6f212d5","ios":"levelo://app?vid=ff0c96c0-1201-49ed-b971-c326d6f212d5"},"vehicle_type_id":"4","last_reported":1767723444,"current_range_meters":8000,"station_id":"ce4bhe12rcd13ifvqf30","pricing_plan_id":"cebpf4jnsgd1na2vs0mg"},{"bike_id":"6cfe61d6-fc1a-4eb6-bdce-b76472120e6d","system_id":"levelo_inurba_marseille","lat":43.23163,"lon":5.43713,"is_reserved":false,"is_disabled":false,"rental_uris":{"android":"levelo://app?vid=6cfe61d6-fc1a-4eb6-bdce-b76472120e6d","ios":"levelo://app?vid=6cfe61d6-fc1a-4eb6-bdce-b76472120e6d"},"vehicle_type_id":"4","last_reported":1767723444,"current_range_meters":8400,"station_id":"ce4bhmp2rcd13ifvqgog","pricing_plan_id":"cebpf4jnsgd1na2vs0mg"},{"bike_id":"30bdf5f3-a661-4384-ac7f-dbac1930b152","system_id":"levelo_inurba_marseille","lat":43.23149,"lon":5.43689,"is_reserved":false,"is_disabled":false,"rental_uris":{"android":"levelo://app?vid=30bdf5f3-a661-4384-ac7f-dbac1930b152","ios":"levelo://app?vid=30bdf5f3-a661-4384-ac7f-dbac1930b152"},"vehicle_type_id":"4","last_reported":1767723444,"current_range_meters":8400,"station_id":"ce4bhmp2rcd13ifvqgog","pricing_plan_id":"cebpf4jnsgd1na2vs0mg"},{"bike_id":"a76e3835-791b-4be5-a038-787dcf30f5f9","system_id":"levelo_inurba_marseille","lat":43.28571,"lon":5.39499,"is_reserved":false,"is_disabled":false,"rental_uris":{"android":"levelo://app?vid=a76e3835-791b-4be5-a038-787dcf30f5f9","ios":"levelo://app?vid=a76e3835-791b-4be5-a038-787dcf30f5f9"},"vehicle_type_id":"4","last_reported":1767723444,"current_range_meters":8400,"station_id":"ce4bh292rcd13ifvqdg0","pricing_plan_id":"cebpf4jnsgd1na2vs0mg"},{"bike_id":"8d5c8626-9529-46c8-9196-93525ec2fef2","system_id":"levelo_inurba_marseille","lat":43.26935,"lon":5.38913,"is_reserved":false,"is_disabled":false,"rental_uris":{"android":"levelo://app?vid=8d5c8626-9529-46c8-9196-93525ec2fef2","ios":"levelo://app?vid=8d5c8626-9529-46c8-9196-93525ec2fef2"},"vehicle_type_id":"4","last_reported":1767723444,"current_range_meters":8400,"station_id":"ce4bhhh2rcd13ifvqfl0","pricing_plan_id":"cebpf4jnsgd1na2vs0mg"},