{"last_updated":1747566427,"ttl":60,"version":"2.2","data":{"bikes":[{"bike_id":"c0b9fd4f-e181-46ce-b0bf-f5119973334f","system_id":"levelo_inurba_marseille","lat":43.33771,"lon":5.37424,"is_reserved":false,"is_disabled":true,"rental_uris":{"android":"levelo://app?vid=c0b9fd4f-e181-46ce-b0bf-f5119973334f","ios":"levelo://app?vid=c0b9fd4f-e181-46ce-b0bf-f5119973334f"},"vehicle_type_id":"4","last_reported":1747566428,"current_range_meters":1200,"station_id":"","pricing_plan_id":"cebpf4jnsgd1na2vs0mg"},{"bike_id":"78a72d2e-086e-4202-8619-96d6a7e70ccc","system_id":"levelo_inurba_marseille","lat":43.283639,"lon":5.398971,"is_reserved":false,"is_disabled":true,"rental_uris":{"android":"levelo://app?vid=78a72d2e-086e-4202-8619-96d6a7e70ccc","ios":"levelo://app?vid=78a72d2e-086e-4202-8619-96d6a7e70ccc"},"vehicle_type_id":"4","last_reported":1747566428,"current_range_meters":0,"station_id":"","pricing_plan_id":"cebpf4jnsgd1na2vs0mg"},{"bike_id":"fc2577e7-1497-425b-9d4f-ab8d7dc843c6","system_id":"levelo_inurba_marseille","lat":43.33771,"lon":5.37485,"is_reserved":false,"is_disabled":true,"rental_uris":{"android":"levelo://app?vid=fc2577e7-1497-425b-9d4f-ab8d7dc843c6","ios":"levelo://app?vid=fc2577e7-1497-425b-9d4f-ab8d7dc843c6"},"vehicle_type_id":"4","last_reported":1747566428,"current_range_meters":0,"station_id":"","pricing_plan_id":"cebpf4jnsgd1na2vs0mg"},{"bike_id":"80d0d83f-909d-4568-b4e7-8a3ef4eed2de","system_id":"levelo_inurba_marseille","lat":43.254,"lon":5.41895,"is_reserved":false,"is_disabled":true,"rental_uris":{"android":"levelo://app?vid=80d0d83f-909d-4568-b4e7-8a3ef4eed2de","ios":"levelo://app?vid=80d0d83f-909d-4568-b4e7-8a3ef4eed2de"},"vehicle_type_id":"4","last_reported":1747566428,"current_range_meters":0,"station_id":"","pricing_plan_id":"cebpf4jnsgd1na2vs0mg"},{"bike_id":"1c306c3e-c8bd-4009-ac53-251079544953","system_id":"levelo_inurba_marseille","lat":43.25042,"lon":5.42689,"is_reserved":false,"is_disabled":true,"rental_uris":{"android":"levelo://app?vid=1c306c3e-c8bd-4009-ac53-251079544953","ios":"levelo://app?vid=1c306c3e-c8bd-4009-ac53-251079544953"},"vehicle_type_id":"4","last_reported":1747566428,"current_range_meters":0,"station_id":"","pricing_plan_id":"cebpf4jnsgd1na2vs0mg"},{"bike_id":"80c74edb-57e3-45c2-b9a5-b34662030b9a","system_id":"levelo_inurba_marseille","lat":43.29517,"lon":5.37501,"is_reserved":false,"is_disabled":true,"rental_uris":{"android":"levelo://app?vid=80c74edb-57e3-45c2-b9a5-b34662030b9a","ios":"levelo://app?vid=80c74edb-57e3-45c2-b9a5-b34662030b9a"},"vehicle_type_id":"4","last_reported":1747566428,"current_range_meters":0,"station_id":"","pricing_plan_id":"cebpf4jnsgd1na2vs0mg"},{"bike_id":"ce4325af-2448-4172-bdec-81d552ee0b62","system_id":"levelo_inurba_marseille","lat":43.26116,"lon":5.42078,"is_reserved":false,"is_disabled":true,"rental_uris":{"android":"levelo://app?vid=ce4325af-2448-4172-bdec-81d552ee0b62","ios":"levelo://app?vid=ce4325af-2448-4172-bdec-81d552ee0b62"},"vehicle_type_id":"4","last_reported":1747566428,"current_range_meters":0,"station_id":"","pricing_plan_id":"cebpf4jnsgd1na2vs0mg"},{"bike_id":"23939faf-d206-4b93-ade4-199417584041","system_id":"levelo_inurba_marseille","lat":43.249472,"lon":5.375417,"is_reserved":false,"is_disabled":true,"rental_uris":{"android":"levelo://app?vid=23939faf-d206-4b93-ade4-199417584041","ios":"levelo://app?vid=23939faf-d206-4b93-ade4-199417584041"},"vehicle_type_id":"4","last_reported":1747566428,"current_range_meters":0,"station_id":"","pricing_plan_id":"cebpf4jnsgd1na2vs0mg"},{"bike_id":"792567c6-0442-4011-aff0-9c05e25deb48","system_id":"levelo_inurba_marseille","lat":43.337444,"lon":5.374475,"is_reserved":false,"is_disabled":true,"rental_uris":{"android":"levelo://app?vid=792567c6-0442-4011-aff0-9c05e25deb48","ios":"levelo://app?vid=792567c6-0442-4011-aff0-9c05e25deb48"},"vehicle_type_id":"4","last_reported":1747566428,"current_range_meters":0,"station_id":"","pricing_plan_id":"cebpf4jnsgd1na2vs0mg"},{"bike_id":"bb0baa39-1e01-43e0-a77c-5ba8d631e8a2","system_id":"levelo_inurba_marseille","lat":43.27267,"lon":5.38566,"is_reserved":false,"is_disabled":true,"rental_uris":{"android":"levelo://app?vid=bb0baa39-1e01-43e0-a77c-5ba8d631e8a2","ios":"levelo://app?vid=bb0baa39-1e01-43e0-a77c-5ba8d631e8a2"},"vehicle_type_id":"4","last_reported":1747566428,"current_range_meters":0,"station_id":"","pricing_plan_id":"cebpf4jnsgd1na2vs0mg"},{"bike_id":"ecfd51e8-e0ea-4ff3-87d0-712fb4f9a24e","system_id":"levelo_inurba_marseille","lat":43.29575,"lon":5.37502,"is_reserved":false,"is_disabled":true,"rental_uris":{"android":"levelo://app?vid=ecfd51e8-e0ea-4ff3-87d0-712fb4f9a24e","ios":"levelo://app?vid=ecfd51e8-e0ea-4ff3-87d0-712fb4f9a24e"},"vehicle_type_id":"4","last_reported":1747566428,"current_range_meters":0,"station_id":"ce4bgh92rcd13ifvqb50","pricing_plan_id":"cebpf4jnsgd1na2vs0mg"},{"bike_id":"7c5cab85-3842-48b7-b03a-a57d007c3e5f","system_id":"levelo_inurba_marseille","lat":43.29801,"lon":5.38087,"is_reserved":false,"is_disabled":true,"rental_uris":{"android":"levelo://app?vid=7c5cab85-3842-48b7-b03a-a57d007c3e5f","ios":"levelo://app?vid=7c5cab85-3842-48b7-b03a-a57d007c3e5f"},"vehicle_type_id":"4","last_reported":1747566428,"current_range_meters":0,"station_id":"ce4bgip2rcd13ifvqbb0","pricing_plan_id":"cebpf4jnsgd1na2vs0mg"},{"bike_id":"a55480a4-3cbd-4879-ad3e-2d43aba3b171","system_id":"levelo_inurba_marseille","lat":43.28561,"lon":5.39493,"is_reserved":false,"is_disabled":true,"rental_uris":{"android":"levelo://app?vid=a55480a4-3cbd-4879-ad3e-2d43aba3b171","ios":"levelo://app?vid=a55480a4-3cbd-4879-ad3e-2d43aba3b171"},"vehicle_type_id":"4","last_reported":1747566428,"current_range_meters":0,"station_id":"ce4bh292rcd13ifvqdg0","pricing_plan_id":"cebpf4jnsgd1na2vs0mg"},{"bike_id":"4868206e-8b57-4193-9401-03af5c025af5","system_id":"levelo_inurba_marseille","lat":43.295418,"lon":5.374432,"is_reserved":false,"is_disabled":true,"rental_uris":{"android":"levelo://app?vid=4868206e-8b57-4193-9401-03af5c025af5","ios":"levelo://app?vid=4868206e-8b57-4193-9401-03af5c025af5"},"vehicle_type_id":"4","last_reported":1747566428,"current_range_meters":0,"station_id":"ce4bhb12rcd13ifvqel0","pricing_plan_id":"cebpf4jnsgd1na2vs0mg"},{"bike_id":"202c723a-19a2-4fd4-aa5a-dd2dbe7de04f","system_id":"levelo_inurba_marseille","lat":43.27397,"lon":5.39404,"is_reserved":false,"is_disabled":true,"rental_uris":{"android":"levelo://app?vid=202c723a-19a2-4fd4-aa5a-dd2dbe7de04f","ios":"levelo://app?vid=202c723a-19a2-4fd4-aa5a-dd2dbe7de04f"},"vehicle_type_id":"4","last_reported":1747566428,"current_range_meters":0,"station_id":"ce4bhdp2rcd13ifvqf20","pricing_plan_id":"cebpf4jnsgd1na2vs0mg"},{"bike_id":"02f6d856-3151-4de7-8e19-6f7db1333025","system_id":"levelo_inurba_marseille","lat":43.27422,"lon":5.39415,"is_reserved":false,"is_disabled":true,"rental_uris":{"android":"levelo://app?vid=02f6d856-3151-4de7-8e19-6f7db1333025","ios":"levelo://app?vid=02f6d856-3151-4de7-8e19-6f7db1333025"},"vehicle_type_id":"4","last_reported":1747566428,"current_range_meters":0,"station_id":"ce4bhdp2rcd13ifvqf20","pricing_plan_id":"cebpf4jnsgd1na2vs0mg"},{"bike_id":"2c6b1cd7-ad73-48d7-a23e-e9ea652f42f2","system_id":"levelo_inurba_marseille","lat":43.27316,"lon":5.39096,"is_reserved":false,"is_disabled":true,"rental_uris":{"android":"levelo://app?vid=2c6b1cd7-ad73-48d7-a23e-e9ea652f42f2","ios":"levelo://app?vid=2c6b1cd7-ad73-48d7-a23e-e9ea652f42f2"},"vehicle_type_id":"4","last_reported":1747566428,"current_range_meters":0,"station_id":"ce4bhgp2rcd13ifvqfe0","pricing_plan_id":"cebpf4jnsgd1na2vs0mg"},{"bike_id":"c31e7056-9264-49db-8d33-a9642cf776a3","system_id":"levelo_inurba_marseille","lat":43.27889,"lon":5.3543,"is_reserved":false,"is_disabled":true,"rental_uris":{"android":"levelo://app?vid=c31e7056-9264-49db-8d33-a9642cf776a3","ios":"levelo://app?vid=c31e7056-9264-49db-8d33-a9642cf776a3"},"vehicle_type_id":"4","last_reported":1747566428,"current_range_meters":400,"station_id":"","pricing_plan_id":"cebpf4jnsgd1na2vs0mg"},{"bike_id":"e9dd3aa4-b5e7-4480-926d-d7f537719bfa","system_id":"levelo_inurba_marseille","lat":43.23004,"lon":5.40201,"is_reserved":false,"is_disabled":true,"rental_uris":{"android":"levelo://app?vid=e9dd3aa4-b5e7-4480-926d-d7f537719bfa","ios":"levelo://app?vid=e9dd3aa4-b5e7-4480-926d-d7f537719bfa"},"vehicle_type_id":"4","last_reported":1747566428,"current_range_meters":400,"station_id":"","pricing_plan_id":"cebpf4jnsgd1na2vs0mg"},{"bike_id":"42503125-ac87-471b-a9a2-ace3db9546f1","system_id":"levelo_inurba_marseille","lat":43.29532,"lon":5.39404,"is_reserved":false,"is_disabled":true,"rental_uris":{"android":"levelo://app?vid=42503125-ac87-471b-a9a2-ace3db9546f1","ios":"levelo://app?vid=42503125-ac87-471b-a9a2-ace3db9546f1"},"vehicle_type_id":"4","last_reported":1747566428,"current_range_meters":400,"station_id":"ce4bh292rcd13ifvqdf0","pricing_plan_id":"cebpf4jnsgd1na2vs0mg"},{"bike_id":"0c2d9926-f530-48cb-8248-e1a72a69d36b","system_id":"levelo_inurba_marseille","lat":43.24164,"lon":5.36397,"is_reserved":false,"is_disabled":true,"rental_uris":{"android":"levelo://app?vid=0c2d9926-f530-48cb-8248-e1a72a69d36b","ios":"levelo://app?vid=0c2d9926-f530-48cb-8248-e1a72a69d36b"},"vehicle_type_id":"4","last_reported":1747566428,"current_range_meters":400,"station_id":"cpo36qri1sfpv3e86is0","pricing_plan_id":"cebpf4jnsgd1na2vs0mg"},{"bike_id":"6035d3fa-f930-4829-90a8-993d1603cba2","system_id":"levelo_inurba_marseille","lat":43.29298,"lon":5.37159,"is_reserved":false,"is_disabled":true,"rental_uris":{"android":"levelo://app?vid=6035d3fa-f930-4829-90a8-993d1603cba2","ios":"levelo://app?vid=6035d3fa-f930-4829-90a8-993d1603cba2"},"vehicle_type_id":"4","last_reported":1747566428,"current_range_meters":800,"station_id":"ce4bgh92rcd13ifvqb40","pricing_plan_id":"cebpf4jnsgd1na2vs0mg"},{"bike_id":"30b00c6e-3b2a-4c2a-8b13-31af73fe6fa2","system_id":"levelo_inurba_marseille","lat":43.26215,"lon":5.3744,"is_reserved":false,"is_disabled":true,"rental_uris":{"android":"levelo://app?vid=30b00c6e-3b2a-4c2a-8b13-31af73fe6fa2","ios":"levelo://app?vid=30b00c6e-3b2a-4c2a-8b13-31af73fe6fa2"},"vehicle_type_id":"4","last_reported":1747566428,"current_range_meters":800,"station_id":"ce4bhgp2rcd13ifvqfc0","pricing_plan_id":"cebpf4jnsgd1na2vs0mg"},{"bike_id":"c5c7e8bc-b45e-4fd0-b6c9-4ae74bf8133c","system_id":"levelo_inurba_marseille","lat":43.2319,"lon":5.35561,"is_reserved":false,"is_disabled":true,"rental_uris":{"android":"levelo://app?vid=c5c7e8bc-b45e-4fd0-b6c9-4ae74bf8133c","ios":"levelo://app?vid=c5c7e8bc-b45e-4fd0-b6c9-4ae74bf8133c"},"vehicle_type_id":"4","last_reported":1747566428,"current_range_meters":800,"station_id":"ce4bhu92rcd13ifvqi70","pricing_plan_id":"cebpf4jnsgd1na2vs0mg"},{"bike_id":"d11a860e-5308-4de9-8387-3b0ffa9665f9","system_id":"levelo_inurba_marseille","lat":43.2937,"lon":5.37838,"is_reserved":false,"is_disabled":true,"rental_uris":{"android":"levelo://app?vid=d11a860e-5308-4de9-8387-3b0ffa9665f9","ios":"levelo://app?vid=d11a860e-5308-4de9-8387-3b0ffa9665f9"},"vehicle_type_id":"4","last_reported":1747566428,"current_range_meters":1600,"station_id":"","pricing_plan_id":"cebpf4jnsgd1na2vs0mg"},{"bike_id":"b57d5b39-4059-4acb-9cb6-1ce8429c656c","system_id":"levelo_inurba_marseille","lat":43.28479,"lon":5.38416,"is_reserved":false,"is_disabled":true,"rental_uris":{"android":"levelo://app?vid=b57d5b39-4059-4acb-9cb6-1ce8429c656c","ios":"levelo://app?vid=b57d5b39-4059-4acb-9cb6-1ce8429c656c"},"vehicle_type_id":"4","last_reported":1747566428,"current_range_meters":1600,"station_id":"ce4bh512rcd13ifvqe3g","pricing_plan_id":"cebpf4jnsgd1na2vs0mg"},{"bike_id":"0e2bfd5c-3acd-4cbf-847e-cb09f510aeb7","system_id":"levelo_inurba_marseille","lat":43.27204,"lon":5.39172,"is_reserved":false,"is_disabled":true,"rental_uris":{"android":"levelo://app?vid=0e2bfd5c-3acd-4cbf-847e-cb09f510aeb7","ios":"levelo://app?vid=0e2bfd5c-3acd-4cbf-847e-cb09f510aeb7"},"vehicle_type_id":"4","last_reported":1747566428,"current_range_meters":1600,"station_id":"ce4bhhp2rcd13ifvqfm0","pricing_plan_id":"cebpf4jnsgd1na2vs0mg"},{"bike_id":"6ad04175-455f-472f-9dc2-5d558530fd77","system_id":"levelo_inurba_marseille","lat":43.28099,"lon":5.37839,"is_reserved":false,"is_disabled":true,"rental_uris":{"android":"levelo://app?vid=6ad04175-455f-472f-9dc2-5d558530fd77","ios":"levelo://app?vid=6ad04175-455f-472f-9dc2-5d558530fd77"},"vehicle_type_id":"4","last_reported":1747566428,"current_range_meters":2000,"station_id":"ce4bha12rcd13ifvqee0","pricing_plan_id":"cebpf4jnsgd1na2vs0mg"},{"bike_id":"00e71de8-1352-48fd-9b3a-7ada3e5279f5","system_id":"levelo_inurba_marseille","lat":43.28267,"lon":5.35061,"is_reserved":false,"is_disabled":true,"rental_uris":{"android":"levelo://app?vid=00e71de8-1352-48fd-9b3a-7ada3e5279f5","ios":"levelo://app?vid=00e71de8-1352-48fd-9b3a-7ada3e5279f5"},"vehicle_type_id":"4","last_reported":1747566428,"current_range_meters":2000,"station_id":"ce4bhbp2rcd13ifvqerg","pricing_plan_id":"cebpf4jnsgd1na2vs0mg"},{"bike_id":"4de15100-1d03-4790-8e60-b39a5dc8ce13","system_id":"levelo_inurba_marseille","lat":43.2781,"lon":5.40712,"is_reserved":false,"is_disabled":true,"rental_uris":{"android":"levelo://app?vid=4de15100-1d03-4790-8e60-b39a5dc8ce13","ios":"levelo://app?vid=4de15100-1d03-4790-8e60-b39a5dc8ce13"},"vehicle_type_id":"4","last_reported":1747566428,"current_range_meters":2000,"station_id":"ce4bhnh2rcd13ifvqgtg","pricing_plan_id":"cebpf4jnsgd1na2vs0mg"},{"bike_id":"40f57371-91bb-4905-8782-3e167d7bdc89","system_id":"levelo_inurba_marseille","lat":43.28413,"lon":5.37507,"is_reserved":false,"is_disabled":false,"rental_uris":{"android":"levelo://app?vid=40f57371-91bb-4905-8782-3e167d7bdc89","ios":"levelo://app?vid=40f57371-91bb-4905-8782-3e167d7bdc89"},"vehicle_type_id":"4","last_reported":1747566428,"current_range_meters":2800,"station_id":"ce4bh412rcd13ifvqds0","pricing_plan_id":"cebpf4jnsgd1na2vs0mg"},{"bike_id":"13ba871a-f62c-4d38-b07f-c69709ce8b12","system_id":"levelo_inurba_marseille","lat":43.29784,"lon":5.3934,"is_reserved":false,"is_disabled":false,"rental_uris":{"android":"levelo://app?vid=13ba871a-f62c-4d38-b07f-c69709ce8b12","ios":"levelo://app?vid=13ba871a-f62c-4d38-b07f-c69709ce8b12"},"vehicle_type_id":"4","last_reported":1747566428,"current_range_meters":2800,"station_id":"chh1huq6cuj3fo74tm60","pricing_plan_id":"cebpf4jnsgd1na2vs0mg"},{"bike_id":"a4063de7-3465-4b39-9bf8-ef1a75de7c2d","system_id":"levelo_inurba_marseille","lat":43.28579,"lon":5.46103,"is_reserved":false,"is_disabled":false,"rental_uris":{"android":"levelo://app?vid=a4063de7-3465-4b39-9bf8-ef1a75de7c2d","ios":"levelo://app?vid=a4063de7-3465-4b39-9bf8-ef1a75de7c2d"},"vehicle_type_id":"4","last_reported":1747566428,"current_range_meters":3200,"station_id":"","pricing_plan_id":"cebpf4jnsgd1na2vs0mg"},{"bike_id":"3fa58c22-00c6-48db-914d-ec2861a3d890","system_id":"levelo_inurba_marseille","lat":43.31062,"lon":5.40257,"is_reserved":false,"is_disabled":false,"rental_uris":{"android":"levelo://app?vid=3fa58c22-00c6-48db-914d-ec2861a3d890","ios":"levelo://app?vid=3fa58c22-00c6-48db-914d-ec2861a3d890"},"vehicle_type_id":"4","last_reported":1747566428,"current_range_meters":3200,"station_id":"","pricing_plan_id":"cebpf4jnsgd1na2vs0mg"},{"bike_id":"2308b578-e370-491a-b405-23c0e98ff072","system_id":"levelo_inurba_marseille","lat":43.23154,"lon":5.43707,"is_reserved":false,"is_disabled":false,"rental_uris":{"android":"levelo://app?vid=2308b578-e370-491a-b405-23c0e98ff072","ios":"levelo://app?vid=2308b578-e370-491a-b405-23c0e98ff072"},"vehicle_type_id":"4","last_reported":1747566428,"current_range_meters":3200,"station_id":"ce4bhmp2rcd13ifvqgog","pricing_plan_id":"cebpf4jnsgd1na2vs0mg"},{"bike_id":"e2887547-9de0-483f-af47-f12b4fc4fc8e","system_id":"levelo_inurba_marseille","lat":43.2798,"lon":5.38694,"is_reserved":false,"is_disabled":false,"rental_uris":{"android":"levelo://app?vid=e2887547-9de0-483f-af47-f12b4fc4fc8e","ios":"levelo://app?vid=e2887547-9de0-483f-af47-f12b4fc4fc8e"},"vehicle_type_id":"4","last_reported":1747566428,"current_range_meters":3600,"station_id":"ce4bhg12rcd13ifvqf80","pricing_plan_id":"cebpf4jnsgd1na2vs0mg"},{"bike_id":"70e13be6-110e-4a74-9ed4-c3c1614fcc12","system_id":"levelo_inurba_marseille","lat":43.24654,"lon":5.38155,"is_reserved":false,"is_disabled":false,"rental_uris":{"android":"levelo://app?vid=70e13be6-110e-4a74-9ed4-c3c1614fcc12","ios":"levelo://app?vid=70e13be6-110e-4a74-9ed4-c3c1614fcc12"},"vehicle_type_id":"4","last_reported":1747566428,"current_range_meters":3600,"station_id":"ce4bhih2rcd13ifvqfr0","pricing_plan_id":"cebpf4jnsgd1na2vs0mg"},{"bike_id":"6cd5c425-f8ac-4068-b8ea-a8bfbef29ee5","system_id":"levelo_inurba_marseille","lat":43.249951,"lon":5.37942,"is_reserved":false,"is_disabled":false,"rental_uris":{"android":"levelo://app?vid=6cd5c425-f8ac-4068-b8ea-a8bfbef29ee5","ios":"levelo://app?vid=6cd5c425-f8ac-4068-b8ea-a8bfbef29ee5"},"vehicle_type_id":"4","last_reported":1747566428,"current_range_meters":4000,"station_id":"","pricing_plan_id":"cebpf4jnsgd1na2vs0mg"},{"bike_id":"d2ec960f-4ff8-4c87-bc77-28324b1c8c29","system_id":"levelo_inurba_marseille","lat":43.25676,"lon":5.410631,"is_reserved":false,"is_disabled":false,"rental_uris":{"android":"levelo://app?vid=d2ec960f-4ff8-4c87-bc77-28324b1c8c29","ios":"levelo://app?vid=d2ec960f-4ff8-4c87-bc77-28324b1c8c29"},"vehicle_type_id":"4","last_reported":1747566428,"current_range_meters":4000,"station_id":"ce4bhkp2rcd13ifvqgd0","pricing_plan_id":"cebpf4jnsgd1na2vs0mg"},{"bike_id":"3b843dca-d67a-4b0e-916b-710ebb36ec6d","system_id":"levelo_inurba_marseille","lat":43.32506,"lon":5.4014,"is_reserved":false,"is_disabled":false,"rental_uris":{"android":"levelo://app?vid=3b843dca-d67a-4b0e-916b-710ebb36ec6d","ios":"levelo://app?vid=3b843dca-d67a-4b0e-916b-710ebb36ec6d"},"vehicle_type_id":"4","last_reported":1747566428,"current_range_meters":4400,"station_id":"","pricing_plan_id":"cebpf4jnsgd1na2vs0mg"},{"bike_id":"134afda0-bb06-4f6a-9cef-0452073cd309","system_id":"levelo_inurba_marseille","lat":43.30302,"lon":5.39208,"is_reserved":false,"is_disabled":false,"rental_uris":{"android":"levelo://app?vid=134afda0-bb06-4f6a-9cef-0452073cd309","ios":"levelo://app?vid=134afda0-bb06-4f6a-9cef-0452073cd309"},"vehicle_type_id":"4","last_reported":1747566428,"current_range_meters":4400,"station_id":"ce4bgkh2rcd13ifvqbk0","pricing_plan_id":"cebpf4jnsgd1na2vs0mg"},{"bike_id":"aae51abe-5bfc-4a5d-b13a-93c034b1eba1","system_id":"levelo_inurba_marseille","lat":43.29258,"lon":5.40892,"is_reserved":false,"is_disabled":false,"rental_uris":{"android":"levelo://app?vid=aae51abe-5bfc-4a5d-b13a-93c034b1eba1","ios":"levelo://app?vid=aae51abe-5bfc-4a5d-b13a-93c034b1eba1"},"vehicle_type_id":"4","last_reported":1747566428,"current_range_meters":4400,"station_id":"ce4bh192rcd13ifvqdc0","pricing_plan_id":"cebpf4jnsgd1na2vs0mg"},{"bike_id":"f1033d46-befc-4cac-80d9-e4fa25f6de03","system_id":"levelo_inurba_marseille","lat":43.27828,"lon":5.40727,"is_reserved":false,"is_disabled":false,"rental_uris":{"android":"levelo://app?vid=f1033d46-befc-4cac-80d9-e4fa25f6de03","ios":"levelo://app?vid=f1033d46-befc-4cac-80d9-e4fa25f6de03"},"vehicle_type_id":"4","last_reported":1747566428,"current_range_meters":4400,"station_id":"ce4bhnh2rcd13ifvqgtg","pricing_plan_id":"cebpf4jnsgd1na2vs0mg"},{"bike_id":"713440a0-75d9-41a2-8ea7-5e1b4d522293","system_id":"levelo_inurba_marseille","lat":43.3089,"lon":5.37167,"is_reserved":false,"is_disabled":false,"rental_uris":{"android":"levelo://app?vid=713440a0-75d9-41a2-8ea7-5e1b4d522293","ios":"levelo://app?vid=713440a0-75d9-41a2-8ea7-5e1b4d522293"},"vehicle_type_id":"4","last_reported":1747566428,"current_range_meters":4800,"station_id":"ce4bguh2rcd13ifvqckg","pricing_plan_id":"cebpf4jnsgd1na2vs0mg"},{"bike_id":"1e5a7839-d218-47a9-988d-f5fdcdfa5acb","system_id":"levelo_inurba_marseille","lat":43.25826,"lon":5.39434,"is_reserved":false,"is_disabled":false,"rental_uris":{"android":"levelo://app?vid=1e5a7839-d218-47a9-988d-f5fdcdfa5acb","ios":"levelo://app?vid=1e5a7839-d218-47a9-988d-f5fdcdfa5acb"},"vehicle_type_id":"4","last_reported":1747566428,"current_range_meters":4800,"station_id":"ce4bhip2rcd13ifvqft0","pricing_plan_id":"cebpf4jnsgd1na2vs0mg"},{"bike_id":"5d8efa3b-6206-45cb-b295-35c867d5ad37","system_id":"levelo_inurba_marseille","lat":43.25112,"lon":5.40322,"is_reserved":false,"is_disabled":false,"rental_uris":{"android":"levelo://app?vid=5d8efa3b-6206-45cb-b295-35c867d5ad37","ios":"levelo://app?vid=5d8efa3b-6206-45cb-b295-35c867d5ad37"},"vehicle_type_id":"4","last_reported":1747566428,"current_range_meters":4800,"station_id":"ce4bhlh2rcd13ifvqgig","pricing_plan_id":"cebpf4jnsgd1na2vs0mg"},{"bike_id":"bbda5443-72b0-478a-aaad-922de1a84bda","system_id":"levelo_inurba_marseille","lat":43.231539,"lon":5.437016,"is_reserved":false,"is_disabled":false,"rental_uris":{"android":"levelo://app?vid=bbda5443-72b0-478a-aaad-922de1a84bda","ios":"levelo://app?vid=bbda5443-72b0-478a-aaad-922de1a84bda"},"vehicle_type_id":"4","last_reported":1747566428,"current_range_meters":4800,"station_id":"ce4bhmp2rcd13ifvqgog","pricing_plan_id":"cebpf4jnsgd1na2vs0mg"},{"bike_id":"919fb6a1-94b8-4d5e-9e76-c6d8ee405e54","system_id":"levelo_inurba_marseille","lat":43.24177,"lon":5.3973,"is_reserved":false,"is_disabled":false,"rental_uris":{"android":"levelo://app?vid=919fb6a1-94b8-4d5e-9e76-c6d8ee405e54","ios":"levelo://app?vid=919fb6a1-94b8-4d5e-9e76-c6d8ee405e54"},"vehicle_type_id":"4","last_reported":1747566428,"current_range_meters":4800,"station_id":"ce4bhn12rcd13ifvqgpg","pricing_plan_id":"cebpf4jnsgd1na2vs0mg"},{"bike_id":"078a2c60-49ea-4f65-a702-208b3dc4fb5a","system_id":"levelo_inurba_marseille","lat":43.31531,"lon":5.38031,"is_reserved":false,"is_disabled":false,"rental_uris":{"android":"levelo://app?vid=078a2c60-49ea-4f65-a702-208b3dc4fb5a","ios":"levelo://app?vid=078a2c60-49ea-4f65-a702-208b3dc4fb5a"},"vehicle_type_id":"4","last_reported":1747566428,"current_range_meters":5600,"station_id":"ce4bhsp2rcd13ifvqi50","pricing_plan_id":"cebpf4jnsgd1na2vs0mg"},{"bike_id":"c5447e66-26cd-4db2-834d-49668067a7b7","system_id":"levelo_inurba_marseille","lat":43.29623,"lon":5.37727,"is_reserved":false,"is_disabled":false,"rental_uris":{"android":"levelo://app?vid=c5447e66-26cd-4db2-834d-49668067a7b7","ios":"levelo://app?vid=c5447e66-26cd-4db2-834d-49668067a7b7"},"vehicle_type_id":"4","last_reported":1747566428,"current_range_meters":6000,"station_id":"ce4bgi92rcd13ifvqb90","pricing_plan_id":"cebpf4jnsgd1na2vs0mg"},{"bike_id":"e69ad47b-218b-45c8-b441-f090bc793c68","system_id":"levelo_inurba_marseille","lat":43.2984,"lon":5.36263,"is_reserved":false,"is_disabled":false,"rental_uris":{"android":"levelo://app?vid=e69ad47b-218b-45c8-b441-f090bc793c68","ios":"levelo://app?vid=e69ad47b-218b-45c8-b441-f090bc793c68"},"vehicle_type_id":"4","last_reported":1747566428,"current_range_meters":6000,"station_id":"ce4bgpp2rcd13ifvqc3g","pricing_plan_id":"cebpf4jnsgd1na2vs0mg"},{"bike_id":"1918417a-5f16-4def-84e4-f87346f9f97c","system_id":"levelo_inurba_marseille","lat":43.29275,"lon":5.36842,"is_reserved":false,"is_disabled":false,"rental_uris":{"android":"levelo://app?vid=1918417a-5f16-4def-84e4-f87346f9f97c","ios":"levelo://app?vid=1918417a-5f16-4def-84e4-f87346f9f97c"},"vehicle_type_id":"4","last_reported":1747566428,"current_range_meters":6000,"station_id":"ce4bhbp2rcd13ifvqesg","pricing_plan_id":"cebpf4jnsgd1na2vs0mg"},{"bike_id":"d9977363-3a58-4e97-99d2-d5c676a9ba4d","system_id":"levelo_inurba_marseille","lat":43.28494,"lon":5.34996,"is_reserved":false,"is_disabled":false,"rental_uris":{"android":"levelo://app?vid=d9977363-3a58-4e97-99d2-d5c676a9ba4d","ios":"levelo://app?vid=d9977363-3a58-4e97-99d2-d5c676a9ba4d"},"vehicle_type_id":"4","last_reported":1747566428,"current_range_meters":6400,"station_id":"ce4bhbp2rcd13ifvqerg","pricing_plan_id":"cebpf4jnsgd1na2vs0mg"},{"bike_id":"55fb771a-6e76-45c4-a9b7-cda97a0011d0","system_id":"levelo_inurba_marseille","lat":43.28692,"lon":5.38341,"is_reserved":false,"is_disabled":false,"rental_uris":{"android":"levelo://app?vid=55fb771a-6e76-45c4-a9b7-cda97a0011d0","ios":"levelo://app?vid=55fb771a-6e76-45c4-a9b7-cda97a0011d0"},"vehicle_type_id":"4","last_reported":1747566428,"current_range_meters":6800,"station_id":"","pricing_plan_id":"cebpf4jnsgd1na2vs0mg"},{"bike_id":"5a621279-7eb9-421b-95f8-77386580cc33","system_id":"levelo_inurba_marseille","lat":43.29579,"lon":5.37519,"is_reserved":false,"is_disabled":false,"rental_uris":{"android":"levelo://app?vid=5a621279-7eb9-421b-95f8-77386580cc33","ios":"levelo://app?vid=5a621279-7eb9-421b-95f8-77386580cc33"},"vehicle_type_id":"4","last_reported":1747566428,"current_range_meters":6800,"station_id":"ce4bgh92rcd13ifvqb50","pricing_plan_id":"cebpf4jnsgd1na2vs0mg"},{"bike_id":"b8e6468b-87db-4ff6-8122-ef13bf5b7c8c","system_id":"levelo_inurba_marseille","lat":43.31379,"lon":5.37916,"is_reserved":false,"is_disabled":false,"rental_uris":{"android":"levelo://app?vid=b8e6468b-87db-4ff6-8122-ef13bf5b7c8c","ios":"levelo://app?vid=b8e6468b-87db-4ff6-8122-ef13bf5b7c8c"},"vehicle_type_id":"4","last_reported":1747566428,"current_range_meters":7200,"station_id":"","pricing_plan_id":"cebpf4jnsgd1na2vs0mg"},{"bike_id":"526e4e4e-799d-4eb3-ae3f-ceaf6ae2ab27","system_id":"levelo_inurba_marseille","lat":43.29703,"lon":5.37701,"is_reserved":false,"is_disabled":false,"rental_uris":{"android":"levelo://app?vid=526e4e4e-799d-4eb3-ae3f-ceaf6ae2ab27","ios":"levelo://app?vid=526e4e4e-799d-4eb3-ae3f-ceaf6ae2ab27"},"vehicle_type_id":"4","last_reported":1747566428,"current_range_meters":7200,"station_id":"ce4bgkh2rcd13ifvqbl0","pricing_plan_id":"cebpf4jnsgd1na2vs0mg"},{"bike_id":"294bcc6c-fea5-4ae2-856a-1f8cd0d62b11","system_id":"levelo_inurba_marseille","lat":43.26575,"lon":5.39023,"is_reserved":false,"is_disabled":false,"rental_uris":{"android":"levelo://app?vid=294bcc6c-fea5-4ae2-856a-1f8cd0d62b11","ios":"levelo://app?vid=294bcc6c-fea5-4ae2-856a-1f8cd0d62b11"},"vehicle_type_id":"4","last_reported":1747566428,"current_range_meters":7200,"station_id":"ce4bhe12rcd13ifvqf30","pricing_plan_id":"cebpf4jnsgd1na2vs0mg"},{"bike_id":"698c00d0-9d04-474a-9aca-cd5b8e8cadcb","system_id":"levelo_inurba_marseille","lat":43.26552,"lon":5.37288,"is_reserved":false,"is_disabled":false,"rental_uris":{"android":"levelo://app?vid=698c00d0-9d04-474a-9aca-cd5b8e8cadcb","ios":"levelo://app?vid=698c00d0-9d04-474a-9aca-cd5b8e8cadcb"},"vehicle_type_id":"4","last_reported":1747566428,"current_range_meters":7200,"station_id":"ce4bhg12rcd13ifvqf70","pricing_plan_id":"cebpf4jnsgd1na2vs0mg"},{"bike_id":"b07cc4a2-3d35-4cfa-8a46-23f246cc0f0c","system_id":"levelo_inurba_marseille","lat":43.23961,"lon":5.36637,"is_reserved":false,"is_disabled":false,"rental_uris":{"android":"levelo://app?vid=b07cc4a2-3d35-4cfa-8a46-23f246cc0f0c","ios":"levelo://app?vid=b07cc4a2-3d35-4cfa-8a46-23f246cc0f0c"},"vehicle_type_id":"4","last_reported":1747566428,"current_range_meters":7200,"station_id":"ce4bhi12rcd13ifvqfp0","pricing_plan_id":"cebpf4jnsgd1na2vs0mg"},{"bike_id":"456df13e-096a-4823-8eea-67f822f45ee6","system_id":"levelo_inurba_marseille","lat":43.25114,"lon":5.40313,"is_reserved":false,"is_disabled":false,"rental_uris":{"android":"levelo://app?vid=456df13e-096a-4823-8eea-67f822f45ee6","ios":"levelo://app?vid=456df13e-096a-4823-8eea-67f822f45ee6"},"vehicle_type_id":"4","last_reported":1747566428,"current_range_meters":7200,"station_id":"ce4bhlh2rcd13ifvqgig","pricing_plan_id":"cebpf4jnsgd1na2vs0mg"},{"bike_id":"3713df8b-43d5-4d70-91a2-ef15d7bcf40b","system_id":"levelo_inurba_marseille","lat":43.25107,"lon":5.40329,"is_reserved":false,"is_disabled":false,"rental_uris":{"android":"levelo://app?vid=3713df8b-43d5-4d70-91a2-ef15d7bcf40b","ios":"levelo://app?vid=3713df8b-43d5-4d70-91a2-ef15d7bcf40b"},"vehicle_type_id":"4","last_reported":1747566428,"current_range_meters":7200,"station_id":"ce4bhlh2rcd13ifvqgig","pricing_plan_id":"cebpf4jnsgd1na2vs0mg"},{"bike_id":"787e53ed-0864-4b44-9236-9ea68003f32f","system_id":"levelo_inurba_marseille","lat":43.3046,"lon":5.37903,"is_reserved":false,"is_disabled":false,"rental_uris":{"android":"levelo://app?vid=787e53ed-0864-4b44-9236-9ea68003f32f","ios":"levelo://app?vid=787e53ed-0864-4b44-9236-9ea68003f32f"},"vehicle_type_id":"4","last_reported":1747566428,"current_range_meters":8000,"station_id":"ce4bgup2rcd13ifvqcn0","pricing_plan_id":"cebpf4jnsgd1na2vs0mg"},{"bike_id":"c175803f-ba57-47d2-bbc8-9d53a3ce509f","system_id":"levelo_inurba_marseille","lat":43.291873,"lon":5.358023,"is_reserved":false,"is_disabled":false,"rental_uris":{"android":"levelo://app?vid=c175803f-ba57-47d2-bbc8-9d53a3ce509f","ios":"levelo://app?vid=c175803f-ba57-47d2-bbc8-9d53a3ce509f"},"vehicle_type_id":"4","last_reported":1747566428,"current_range_meters":8000,"station_id":"ce4bhb12rcd13ifvqel0","pricing_plan_id":"cebpf4jnsgd1na2vs0mg"},{"bike_id":"90b91ec4-9295-4740-af77-f3512896ed17","system_id":"levelo_inurba_marseille","lat":43.27371,"lon":5.36249,"is_reserved":false,"is_disabled":false,"rental_uris":{"android":"levelo://app?vid=90b91ec4-9295-4740-af77-f3512896ed17","ios":"levelo://app?vid=90b91ec4-9295-4740-af77-f3512896ed17"},"vehicle_type_id":"4","last_reported":1747566428,"current_range_meters":8000,"station_id":"ce4bhbh2rcd13ifvqeo0","pricing_plan_id":"cebpf4jnsgd1na2vs0mg"},{"bike_id":"5d64b735-a71f-4c24-bfff-31d6a7ed5f45","system_id":"levelo_inurba_marseille","lat":43.265689,"lon":5.390084,"is_reserved":false,"is_disabled":false,"rental_uris":{"android":"levelo://app?vid=5d64b735-a71f-4c24-bfff-31d6a7ed5f45","ios":"levelo://app?vid=5d64b735-a71f-4c24-bfff-31d6a7ed5f45"},"vehicle_type_id":"4","last_reported":1747566428,"current_range_meters":8000,"station_id":"ce4bhe12rcd13ifvqf30","pricing_plan_id":"cebpf4jnsgd1na2vs0mg"},{"bike_id":"5cf16f92-b693-47c2-9e9c-211b074a5ed2","system_id":"levelo_inurba_marseille","lat":43.2656,"lon":5.37283,"is_reserved":false,"is_disabled":false,"rental_uris":{"android":"levelo://app?vid=5cf16f92-b693-47c2-9e9c-211b074a5ed2","ios":"levelo://app?vid=5cf16f92-b693-47c2-9e9c-211b074a5ed2"},"vehicle_type_id":"4","last_reported":1747566428,"current_range_meters":8000,"station_id":"ce4bhg12rcd13ifvqf70","pricing_plan_id":"cebpf4jnsgd1na2vs0mg"},{"bike_id":"56877539-dec9-44ae-a12d-b87d77189da3","system_id":"levelo_inurba_marseille","lat":43.29714,"lon":5.37701,"is_reserved":false,"is_disabled":false,"rental_uris":{"android":"levelo://app?vid=56877539-dec9-44ae-a12d-b87d77189da3","ios":"levelo://app?vid=56877539-dec9-44ae-a12d-b87d77189da3"},"vehicle_type_id":"4","last_reported":1747566428,"current_range_meters":8400,"station_id":"ce4bgkh2rcd13ifvqbl0","pricing_plan_id":"cebpf4jnsgd1na2vs0mg"},{"bike_id":"e4776fcd-2842-4fbb-be21-ba32fcba6c34","system_id":"levelo_inurba_marseille","lat":43.29038,"lon":5.39959,"is_reserved":false,"is_disabled":false,"rental_uris":{"android":"levelo://app?vid=e4776fcd-2842-4fbb-be21-ba32fcba6c34","ios":"levelo://app?vid=e4776fcd-2842-4fbb-be21-ba32fcba6c34"},"vehicle_type_id":"4","last_reported":1747566428,"current_range_meters":8400,"station_id":"ce4bh392rcd13ifvqdm0","pricing_plan_id":"cebpf4jnsgd1na2vs0mg"},{"bike_id":"e5edfac4-f5cf-453a-be6b-8a13e4985f84","system_id":"levelo_inurba_marseille","lat":43.24391,"lon":5.37048,"is_reserved":false,"is_disabled":false,"rental_uris":{"android":"levelo://app?vid=e5edfac4-f5cf-453a-be6b-8a13e4985f84","ios":"levelo://app?vid=e5edfac4-f5cf-453a-be6b-8a13e4985f84"},"vehicle_type_id":"4","last_reported":1747566428,"current_range_meters":8400,"station_id":"ce4bhhh2rcd13ifvqfk0","pricing_plan_id":"cebpf4jnsgd1na2vs0mg"},{"bike_id":"eb6ad0b5-8b6e-459c-a670-56152878be7b","system_id":"levelo_inurba_marseille","lat":43.24069,"lon":5.37763,"is_reserved":false,"is_disabled":false,"rental_uris":{"android":"levelo://app?vid=eb6ad0b5-8b6e-459c-a670-56152878be7b","ios":"levelo://app?vid=eb6ad0b5-8b6e-459c-a670-56152878be7b"},"vehicle_type_id":"4","last_reported":1747566428,"current_range_meters":8400,"station_id":"ce4bhnp2rcd13ifvqgvg","pricing_plan_id":"cebpf4jnsgd1na2vs0mg"},{"bike_id":"bcc4ef9e-5d2f-4928-91f1-ed2eee2dbe30","system_id":"levelo_inurba_marseille","lat":43.32366,"lon":5.38882,"is_reserved":false,"is_disabled":false,"rental_uris":{"android":"levelo://app?vid=bcc4ef9e-5d2f-4928-91f1-ed2eee2dbe30","ios":"levelo://app?vid=bcc4ef9e-5d2f-4928-91f1-ed2eee2dbe30"},"vehicle_type_id":"4","last_reported":1747566428,"current_range_meters":8400,"station_id":"ce4bhqp2rcd13ifvqhog","pricing_plan_id":"cebpf4jnsgd1na2vs0mg"},{"bike_id":"c0db4030-ef30-480b-a735-af5435a471ed","system_id":"levelo_inurba_marseille","lat":43.27726,"lon":5.42663,"is_reserved":false,"is_disabled":false,"rental_uris":{"android":"levelo://app?vid=c0db4030-ef30-480b-a735-af5435a471ed","ios":"levelo://app?vid=c0db4030-ef30-480b-a735-af5435a471ed"},"vehicle_type_id":"4","last_reported":1747566428,"current_range_meters":8800,"station_id":"","pricing_plan_id":"cebpf4jnsgd1na2vs0mg"},{"bike_id":"c43760ab-47ec-4297-b5ba-58b487bc99e0","system_id":"levelo_inurba_marseille","lat":43.24136,"lon":5.39721,"is_reserved":false,"is_disabled":false,"rental_uris":{"android":"levelo://app?vid=c43760ab-47ec-4297-b5ba-58b487bc99e0","ios":"levelo://app?vid=c43760ab-47ec-4297-b5ba-58b487bc99e0"},"vehicle_type_id":"4","last_reported":1747566428,"current_range_meters":8800,"station_id":"ce4bhn12rcd13ifvqgpg","pricing_plan_id":"cebpf4jnsgd1na2vs0mg"},{"bike_id":"2cf95623-da6d-4ca2-89af-fed2e2d0d1d5","system_id":"levelo_inurba_marseille","lat":43.22929,"lon":5.35382,"is_reserved":false,"is_disabled":false,"rental_uris":{"android":"levelo://app?vid=2cf95623-da6d-4ca2-89af-fed2e2d0d1d5","ios":"levelo://app?vid=2cf95623-da6d-4ca2-89af-fed2e2d0d1d5"},"vehicle_type_id":"4","last_reported":1747566428,"current_range_meters":8800,"station_id":"cpo3532slgdg3j2ikp40","pricing_plan_id":"cebpf4jnsgd1na2vs0mg"},{"bike_id":"0fb02880-5c6e-4026-9e4a-07529c572b44","system_id":"levelo_inurba_marseille","lat":43.254835,"lon":5.37381,"is_reserved":false,"is_disabled":false,"rental_uris":{"android":"levelo://app?vid=0fb02880-5c6e-4026-9e4a-07529c572b44","ios":"levelo://app?vid=0fb02880-5c6e-4026-9e4a-07529c572b44"},"vehicle_type_id":"4","last_reported":1747566428,"current_range_meters":9200,"station_id":"","pricing_plan_id":"cebpf4jnsgd1na2vs0mg"},{"bike_id":"792c9dbd-158e-4661-91d4-2c1ed379e655","system_id":"levelo_inurba_marseille","lat":43.24676,"lon":5.38146,"is_reserved":false,"is_disabled":false,"rental_uris":{"android":"levelo://app?vid=792c9dbd-158e-4661-91d4-2c1ed379e655","ios":"levelo://app?vid=792c9dbd-158e-4661-91d4-2c1ed379e655"},"vehicle_type_id":"4","last_reported":1747566428,"current_range_meters":9200,"station_id":"ce4bhih2rcd13ifvqfr0","pricing_plan_id":"cebpf4jnsgd1na2vs0mg"},{"bike_id":"8711b8d0-9148-4f8e-a991-502d793d2801","system_id":"levelo_inurba_marseille","lat":43.24074,"lon":5.37758,"is_reserved":false,"is_disabled":false,"rental_uris":{"android":"levelo://app?vid=8711b8d0-9148-4f8e-a991-502d793d2801","ios":"levelo://app?vid=8711b8d0-9148-4f8e-a991-502d793d2801"},"vehicle_type_id":"4","last_reported":1747566428,"current_range_meters":9200,"station_id":"ce4bhnp2rcd13ifvqgvg","pricing_plan_id":"cebpf4jnsgd1na2vs0mg"},{"bike_id":"8e6e4749-5dae-4c8f-98db-5bf2ebcbacd3","system_id":"levelo_inurba_marseille","lat":43.24152,"lon":5.3641,"is_reserved":false,"is_disabled":false,"rental_uris":{"android":"levelo://app?vid=8e6e4749-5dae-4c8f-98db-5bf2ebcbacd3","ios":"levelo://app?vid=8e6e4749-5dae-4c8f-98db-5bf2ebcbacd3"},"vehicle_type_id":"4","last_reported":1747566428,"current_range_meters":9200,"station_id":"cpo36qri1sfpv3e86is0","pricing_plan_id":"cebpf4jnsgd1na2vs0mg"},{"bike_id":"caf4c81d-8b81-4d8d-a4f9-9d00bac7ad70","system_id":"levelo_inurba_marseille","lat":43.307776,"lon":5.428188,"is_reserved":false,"is_disabled":false,"rental_uris":{"android":"levelo://app?vid=caf4c81d-8b81-4d8d-a4f9-9d00bac7ad70","ios":"levelo://app?vid=caf4c81d-8b81-4d8d-a4f9-9d00bac7ad70"},"vehicle_type_id":"4","last_reported":1747566428,"current_range_meters":9600,"station_id":"","pricing_plan_id":"cebpf4jnsgd1na2vs0mg"},{"bike_id":"14603e41-b2dd-4757-a53c-2e366aa4f983","system_id":"levelo_inurba_marseille","lat":43.269929,"lon":5.428279,"is_reserved":false,"is_disabled":false,"rental_uris":{"android":"levelo://app?vid=14603e41-b2dd-4757-a53c-2e366aa4f983","ios":"levelo://app?vid=14603e41-b2dd-4757-a53c-2e366aa4f983"},"vehicle_type_id":"4","last_reported":1747566428,"current_range_meters":9600,"station_id":"","pricing_plan_id":"cebpf4jnsgd1na2vs0mg"},{"bike_id":"e11fa1a2-2c75-4f89-817a-918649dd500f","system_id":"levelo_inurba_marseille","lat":43.29706,"lon":5.37693,"is_reserved":false,"is_disabled":false,"rental_uris":{"android":"levelo://app?vid=e11fa1a2-2c75-4f89-817a-918649dd500f","ios":"levelo://app?vid=e11fa1a2-2c75-4f89-817a-918649dd500f"},"vehicle_type_id":"4","last_reported":1747566428,"current_range_meters":9600,"station_id":"ce4bgkh2rcd13ifvqbl0","pricing_plan_id":"cebpf4jnsgd1na2vs0mg"},{"bike_id":"4b3297d3-2f19-4578-a387-6277c6a46759","system_id":"levelo_inurba_marseille","lat":43.25708,"lon":5.4112,"is_reserved":false,"is_disabled":false,"rental_uris":{"android":"levelo://app?vid=4b3297d3-2f19-4578-a387-6277c6a46759","ios":"levelo://app?vid=4b3297d3-2f19-4578-a387-6277c6a46759"},"vehicle_type_id":"4","last_reported":1747566428,"current_range_meters":9600,"station_id":"ce4bhkp2rcd13ifvqgd0","pricing_plan_id":"cebpf4jnsgd1na2vs0mg"},{"bike_id":"5d0c204a-30d7-45a4-a38f-6cc374d60c0a","system_id":"levelo_inurba_marseille","lat":43.24159,"lon":5.36391,"is_reserved":false,"is_disabled":false,"rental_uris":{"android":"levelo://app?vid=5d0c204a-30d7-45a4-a38f-6cc374d60c0a","ios":"levelo://app?vid=5d0c204a-30d7-45a4-a38f-6cc374d60c0a"},"vehicle_type_id":"4","last_reported":1747566428,"current_range_meters":9600,"station_id":"cpo36qri1sfpv3e86is0","pricing_plan_id":"cebpf4jnsgd1na2vs0mg"},{"bike_id":"ffc3ddf2-0082-4578-9e25-c91f5b4279bc","system_id":"levelo_inurba_marseille","lat":43.28307,"lon":5.41117,"is_reserved":false,"is_disabled":false,"rental_uris":{"android":"levelo://app?vid=ffc3ddf2-0082-4578-9e25-c91f5b4279bc","ios":"levelo://app?vid=ffc3ddf2-0082-4578-9e25-c91f5b4279bc"},"vehicle_type_id":"4","last_reported":1747566428,"current_range_meters":10000,"station_id":"","pricing_plan_id":"cebpf4jnsgd1na2vs0mg"},{"bike_id":"68a035d7-4f0c-467c-b4a3-aa6ef17901b5","system_id":"levelo_inurba_marseille","lat":43.284119,"lon":5.349714,"is_reserved":false,"is_disabled":false,"rental_uris":{"android":"levelo://app?vid=68a035d7-4f0c-467c-b4a3-aa6ef17901b5","ios":"levelo://app?vid=68a035d7-4f0c-467c-b4a3-aa6ef17901b5"},"vehicle_type_id":"4","last_reported":1747566428,"current_range_meters":10000,"station_id":"ce4bhbh2rcd13ifvqepg","pricing_plan_id":"cebpf4jnsgd1na2vs0mg"},{"bike_id":"8d301145-1b3f-414a-a62f-929588279e23","system_id":"levelo_inurba_marseille","lat":43.28408,"lon":5.34976,"is_reserved":false,"is_disabled":false,"rental_uris":{"android":"levelo://app?vid=8d301145-1b3f-414a-a62f-929588279e23","ios":"levelo://app?vid=8d301145-1b3f-414a-a62f-929588279e23"},"vehicle_type_id":"4","last_reported":1747566428,"current_range_meters":10000,"station_id":"ce4bhbh2rcd13ifvqepg","pricing_plan_id":"cebpf4jnsgd1na2vs0mg"},{"bike_id":"400935c1-9993-428b-b43e-e5edf40f165c","system_id":"levelo_inurba_marseille","lat":43.23181,"lon":5.39983,"is_reserved":false,"is_disabled":false,"rental_uris":{"android":"levelo://app?vid=400935c1-9993-428b-b43e-e5edf40f165c","ios":"levelo://app?vid=400935c1-9993-428b-b43e-e5edf40f165c"},"vehicle_type_id":"4","last_reported":1747566428,"current_range_meters":10000,"station_id":"ce4bhn12rcd13ifvqgqg","pricing_plan_id":"cebpf4jnsgd1na2vs0mg"},{"bike_id":"d06b8510-75a1-4ec9-ad6d-5a326870b568","system_id":"levelo_inurba_marseille","lat":43.24172,"lon":5.36394,"is_reserved":false,"is_disabled":false,"rental_uris":{"android":"levelo://app?vid=d06b8510-75a1-4ec9-ad6d-5a326870b568","ios":"levelo://app?vid=d06b8510-75a1-4ec9-ad6d-5a326870b568"},"vehicle_type_id":"4","last_reported":1747566428,"current_range_meters":10000,"station_id":"cpo36qri1sfpv3e86is0","pricing_plan_id":"cebpf4jnsgd1na2vs0mg"},{"bike_id":"00193b85-bbc3-4638-a831-ab30d29a0300","system_id":"levelo_inurba_marseille","lat":43.29782,"lon":5.37098,"is_reserved":false,"is_disabled":false,"rental_uris":{"android":"levelo://app?vid=00193b85-bbc3-4638-a831-ab30d29a0300","ios":"levelo://app?vid=00193b85-bbc3-4638-a831-ab30d29a0300"},"vehicle_type_id":"4","last_reported":1747566428,"current_range_meters":10800,"station_id":"ce4bgop2rcd13ifvqc1g","pricing_plan_id":"cebpf4jnsgd1na2vs0mg"},{"bike_id":"ec260807-29d3-437c-b21b-e3525a6e2eeb","system_id":"levelo_inurba_marseille","lat":43.2841,"lon":5.34986,"is_reserved":false,"is_disabled":false,"rental_uris":{"android":"levelo://app?vid=ec260807-29d3-437c-b21b-e3525a6e2eeb","ios":"levelo://app?vid=ec260807-29d3-437c-b21b-e3525a6e2eeb"},"vehicle_type_id":"4","last_reported":1747566428,"current_range_meters":10800,"station_id":"ce4bhbh2rcd13ifvqepg","pricing_plan_id":"cebpf4jnsgd1na2vs0mg"},{"bike_id":"c608898e-58b6-42f7-903a-6008119c7a64","system_id":"levelo_inurba_marseille","lat":43.24054,"lon":5.37756,"is_reserved":false,"is_disabled":false,"rental_uris":{"android":"levelo://app?vid=c608898e-58b6-42f7-903a-6008119c7a64","ios":"levelo://app?vid=c608898e-58b6-42f7-903a-6008119c7a64"},"vehicle_type_id":"4","last_reported":1747566428,"current_range_meters":10800,"station_id":"ce4bhnp2rcd13ifvqgvg","pricing_plan_id":"cebpf4jnsgd1na2vs0mg"},{"bike_id":"fab970b2-6cc7-4287-8307-4e9103992343","system_id":"levelo_inurba_marseille","lat":43.32657,"lon":5.40992,"is_reserved":false,"is_disabled":false,"rental_uris":{"android":"levelo://app?vid=fab970b2-6cc7-4287-8307-4e9103992343","ios":"levelo://app?vid=fab970b2-6cc7-4287-8307-4e9103992343"},"vehicle_type_id":"4","last_reported":1747566428,"current_range_meters":10800,"station_id":"ce4bhpp2rcd13ifvqhgg","pricing_plan_id":"cebpf4jnsgd1na2vs0mg"},{"bike_id":"2fec9bab-bd43-4f16-835f-76d39d28e914","system_id":"levelo_inurba_marseille","lat":43.24169,"lon":5.36396,"is_reserved":false,"is_disabled":false,"rental_uris":{"android":"levelo://app?vid=2fec9bab-bd43-4f16-835f-76d39d28e914","ios":"levelo://app?vid=2fec9bab-bd43-4f16-835f-76d39d28e914"},"vehicle_type_id":"4","last_reported":1747566428,"current_range_meters":10800,"station_id":"cpo36qri1sfpv3e86is0","pricing_plan_id":"cebpf4jnsgd1na2vs0mg"},{"bike_id":"1a833c1f-c2c4-4d66-8985-56562dda0fd2","system_id":"levelo_inurba_marseille","lat":43.21749,"lon":5.34601,"is_reserved":false,"is_disabled":false,"rental_uris":{"android":"levelo://app?vid=1a833c1f-c2c4-4d66-8985-56562dda0fd2","ios":"levelo://app?vid=1a833c1f-c2c4-4d66-8985-56562dda0fd2"},"vehicle_type_id":"4","last_reported":1747566428,"current_range_meters":10800,"station_id":"st_cvj6r9ubvosntc0bgbag","pricing_plan_id":"cebpf4jnsgd1na2vs0mg"},{"bike_id":"6e1bd625-3ec1-43df-9657-36d71ae09f8d","system_id":"levelo_inurba_marseille","lat":43.33731,"lon":5.37467,"is_reserved":false,"is_disabled":false,"rental_uris":{"android":"levelo://app?vid=6e1bd625-3ec1-43df-9657-36d71ae09f8d","ios":"levelo://app?vid=6e1bd625-3ec1-43df-9657-36d71ae09f8d"},"vehicle_type_id":"4","last_reported":1747566428,"current_range_meters":11200,"station_id":"","pricing_plan_id":"cebpf4jnsgd1na2vs0mg"},{"bike_id":"4745dd8b-a0b2-49db-b417-8a28eecc51d4","system_id":"levelo_inurba_marseille","lat":43.243329,"lon":5.379978,"is_reserved":false,"is_disabled":false,"rental_uris":{"android":"levelo://app?vid=4745dd8b-a0b2-49db-b417-8a28eecc51d4","ios":"levelo://app?vid=4745dd8b-a0b2-49db-b417-8a28eecc51d4"},"vehicle_type_id":"4","last_reported":1747566428,"current_range_meters":11200,"station_id":"","pricing_plan_id":"cebpf4jnsgd1na2vs0mg"},{"bike_id":"60c0c413-fffe-4412-9265-d393147189a7","system_id":"levelo_inurba_marseille","lat":43.30532,"lon":5.36525,"is_reserved":false,"is_disabled":false,"rental_uris":{"android":"levelo://app?vid=60c0c413-fffe-4412-9265-d393147189a7","ios":"levelo://app?vid=60c0c413-fffe-4412-9265-d393147189a7"},"vehicle_type_id":"4","last_reported":1747566428,"current_range_meters":11600,"station_id":"ce4bgs12rcd13ifvqcag","pricing_plan_id":"cebpf4jnsgd1na2vs0mg"},{"bike_id":"b3ef6463-a5bb-4d97-b9f2-886efebf3788","system_id":"levelo_inurba_marseille","lat":43.30477,"lon":5.37902,"is_reserved":false,"is_disabled":false,"rental_uris":{"android":"levelo://app?vid=b3ef6463-a5bb-4d97-b9f2-886efebf3788","ios":"levelo://app?vid=b3ef6463-a5bb-4d97-b9f2-886efebf3788"},"vehicle_type_id":"4","last_reported":1747566428,"current_range_meters":11600,"station_id":"ce4bgup2rcd13ifvqcn0","pricing_plan_id":"cebpf4jnsgd1na2vs0mg"},{"bike_id":"cc4adbad-f954-4192-9143-8db2df8a71e2","system_id":"levelo_inurba_marseille","lat":43.28462,"lon":5.3589,"is_reserved":false,"is_disabled":false,"rental_uris":{"android":"levelo://app?vid=cc4adbad-f954-4192-9143-8db2df8a71e2","ios":"levelo://app?vid=cc4adbad-f954-4192-9143-8db2df8a71e2"},"vehicle_type_id":"4","last_reported":1747566428,"current_range_meters":11600,"station_id":"ce4bhah2rcd13ifvqei0","pricing_plan_id":"cebpf4jnsgd1na2vs0mg"},{"bike_id":"1b4a335f-32fe-4746-bbf7-08943503aa4d","system_id":"levelo_inurba_marseille","lat":43.25109,"lon":5.4032,"is_reserved":false,"is_disabled":false,"rental_uris":{"android":"levelo://app?vid=1b4a335f-32fe-4746-bbf7-08943503aa4d","ios":"levelo://app?vid=1b4a335f-32fe-4746-bbf7-08943503aa4d"},"vehicle_type_id":"4","last_reported":1747566428,"current_range_meters":11600,"station_id":"ce4bhlh2rcd13ifvqgig","pricing_plan_id":"cebpf4jnsgd1na2vs0mg"},{"bike_id":"b4120d26-9711-4974-affb-55de3623555e","system_id":"levelo_inurba_marseille","lat":43.24161,"lon":5.36398,"is_reserved":false,"is_disabled":false,"rental_uris":{"android":"levelo://app?vid=b4120d26-9711-4974-affb-55de3623555e","ios":"levelo://app?vid=b4120d26-9711-4974-affb-55de3623555e"},"vehicle_type_id":"4","last_reported":1747566428,"current_range_meters":11600,"station_id":"cpo36qri1sfpv3e86is0","pricing_plan_id":"cebpf4jnsgd1na2vs0mg"},{"bike_id":"a2e8ac07-c27d-4596-ac54-d8fb456abf0d","system_id":"levelo_inurba_marseille","lat":43.28252,"lon":5.42408,"is_reserved":false,"is_disabled":false,"rental_uris":{"android":"levelo://app?vid=a2e8ac07-c27d-4596-ac54-d8fb456abf0d","ios":"levelo://app?vid=a2e8ac07-c27d-4596-ac54-d8fb456abf0d"},"vehicle_type_id":"4","last_reported":1747566428,"current_range_meters":12000,"station_id":"","pricing_plan_id":"cebpf4jnsgd1na2vs0mg"},{"bike_id":"3a4bb201-7fa2-4f90-9ba8-20bf58eba273","system_id":"levelo_inurba_marseille","lat":43.24152,"lon":5.36375,"is_reserved":false,"is_disabled":false,"rental_uris":{"android":"levelo://app?vid=3a4bb201-7fa2-4f90-9ba8-20bf58eba273","ios":"levelo://app?vid=3a4bb201-7fa2-4f90-9ba8-20bf58eba273"},"vehicle_type_id":"4","last_reported":1747566428,"current_range_meters":12000,"station_id":"cpo36qri1sfpv3e86is0","pricing_plan_id":"cebpf4jnsgd1na2vs0mg"},{"bike_id":"84681128-9b85-4b9f-8e87-dacf51b69edb","system_id":"levelo_inurba_marseille","lat":43.21195,"lon":5.35073,"is_reserved":false,"is_disabled":false,"rental_uris":{"android":"levelo://app?vid=84681128-9b85-4b9f-8e87-dacf51b69edb","ios":"levelo://app?vid=84681128-9b85-4b9f-8e87-dacf51b69edb"},"vehicle_type_id":"4","last_reported":1747566428,"current_range_meters":12000,"station_id":"st_cvj6sg6p6f1abm77japg","pricing_plan_id":"cebpf4jnsgd1na2vs0mg"},{"bike_id":"53f19b5e-5bc8-42a2-9d83-057eaeb50837","system_id":"levelo_inurba_marseille","lat":43.305473,"lon":5.367133,"is_reserved":false,"is_disabled":false,"rental_uris":{"android":"levelo://app?vid=53f19b5e-5bc8-42a2-9d83-057eaeb50837","ios":"levelo://app?vid=53f19b5e-5bc8-42a2-9d83-057eaeb50837"},"vehicle_type_id":"4","last_reported":1747566428,"current_range_meters":12400,"station_id":"ce4bgrp2rcd13ifvqc9g","pricing_plan_id":"cebpf4jnsgd1na2vs0mg"},{"bike_id":"0be1abf5-5dc6-471d-997c-24b14f77987a","system_id":"levelo_inurba_marseille","lat":43.305497,"lon":5.365197,"is_reserved":false,"is_disabled":false,"rental_uris":{"android":"levelo://app?vid=0be1abf5-5dc6-471d-997c-24b14f77987a","ios":"levelo://app?vid=0be1abf5-5dc6-471d-997c-24b14f77987a"},"vehicle_type_id":"4","last_reported":1747566428,"current_range_meters":12400,"station_id":"ce4bgs12rcd13ifvqcag","pricing_plan_id":"cebpf4jnsgd1na2vs0mg"},{"bike_id":"ae09ee8a-6013-4413-8f85-08be7428afe3","system_id":"levelo_inurba_marseille","lat":43.28419,"lon":5.349797,"is_reserved":false,"is_disabled":false,"rental_uris":{"android":"levelo://app?vid=ae09ee8a-6013-4413-8f85-08be7428afe3","ios":"levelo://app?vid=ae09ee8a-6013-4413-8f85-08be7428afe3"},"vehicle_type_id":"4","last_reported":1747566428,"current_range_meters":12400,"station_id":"ce4bhbh2rcd13ifvqepg","pricing_plan_id":"cebpf4jnsgd1na2vs0mg"},{"bike_id":"1dac04e0-de4c-4b71-882a-ff0a3719b08f","system_id":"levelo_inurba_marseille","lat":43.28258,"lon":5.350684,"is_reserved":false,"is_disabled":false,"rental_uris":{"android":"levelo://app?vid=1dac04e0-de4c-4b71-882a-ff0a3719b08f","ios":"levelo://app?vid=1dac04e0-de4c-4b71-882a-ff0a3719b08f"},"vehicle_type_id":"4","last_reported":1747566428,"current_range_meters":12400,"station_id":"ce4bhbp2rcd13ifvqerg","pricing_plan_id":"cebpf4jnsgd1na2vs0mg"},{"bike_id":"19922b73-0b61-4d3e-a3b0-27def8b0bacb","system_id":"levelo_inurba_marseille","lat":43.28264,"lon":5.35068,"is_reserved":false,"is_disabled":false,"rental_uris":{"android":"levelo://app?vid=19922b73-0b61-4d3e-a3b0-27def8b0bacb","ios":"levelo://app?vid=19922b73-0b61-4d3e-a3b0-27def8b0bacb"},"vehicle_type_id":"4","last_reported":1747566428,"current_range_meters":12400,"station_id":"ce4bhbp2rcd13ifvqerg","pricing_plan_id":"cebpf4jnsgd1na2vs0mg"},{"bike_id":"be2c3896-fa0c-4a27-a492-db322855c4b2","system_id":"levelo_inurba_marseille","lat":43.2511,"lon":5.40312,"is_reserved":false,"is_disabled":false,"rental_uris":{"android":"levelo://app?vid=be2c3896-fa0c-4a27-a492-db322855c4b2","ios":"levelo://app?vid=be2c3896-fa0c-4a27-a492-db322855c4b2"},"vehicle_type_id":"4","last_reported":1747566428,"current_range_meters":12400,"station_id":"ce4bhlh2rcd13ifvqgig","pricing_plan_id":"cebpf4jnsgd1na2vs0mg"},{"bike_id":"55982159-14b0-423d-a8c0-c157cf2770cd","system_id":"levelo_inurba_marseille","lat":43.27778,"lon":5.3622,"is_reserved":false,"is_disabled":false,"rental_uris":{"android":"levelo://app?vid=55982159-14b0-423d-a8c0-c157cf2770cd","ios":"levelo://app?vid=55982159-14b0-423d-a8c0-c157cf2770cd"},"vehicle_type_id":"4","last_reported":1747566428,"current_range_meters":12800,"station_id":"","pricing_plan_id":"cebpf4jnsgd1na2vs0mg"},{"bike_id":"b26a0dd7-cbdc-4ab7-8def-31c4b88b224a","system_id":"levelo_inurba_marseille","lat":43.312124,"lon":5.392511,"is_reserved":false,"is_disabled":false,"rental_uris":{"android":"levelo://app?vid=b26a0dd7-cbdc-4ab7-8def-31c4b88b224a","ios":"levelo://app?vid=b26a0dd7-cbdc-4ab7-8def-31c4b88b224a"},"vehicle_type_id":"4","last_reported":1747566428,"current_range_meters":12800,"station_id":"","pricing_plan_id":"cebpf4jnsgd1na2vs0mg"},{"bike_id":"d7889e40-3a1a-4ba9-9fbb-affc901b892e","system_id":"levelo_inurba_marseille","lat":43.30273,"lon":5.37703,"is_reserved":false,"is_disabled":false,"rental_uris":{"android":"levelo://app?vid=d7889e40-3a1a-4ba9-9fbb-affc901b892e","ios":"levelo://app?vid=d7889e40-3a1a-4ba9-9fbb-affc901b892e"},"vehicle_type_id":"4","last_reported":1747566428,"current_range_meters":12800,"station_id":"ce4bguh2rcd13ifvqcj0","pricing_plan_id":"cebpf4jnsgd1na2vs0mg"},{"bike_id":"812a7e34-72c5-4d8c-b5ad-340da8ded4ca","system_id":"levelo_inurba_marseille","lat":43.29886,"lon":5.39733,"is_reserved":false,"is_disabled":false,"rental_uris":{"android":"levelo://app?vid=812a7e34-72c5-4d8c-b5ad-340da8ded4ca","ios":"levelo://app?vid=812a7e34-72c5-4d8c-b5ad-340da8ded4ca"},"vehicle_type_id":"4","last_reported":1747566428,"current_range_meters":12800,"station_id":"ce4bh0h2rcd13ifvqd50","pricing_plan_id":"cebpf4jnsgd1na2vs0mg"},{"bike_id":"09f6552c-0c7b-403d-a6be-fd30d78a513d","system_id":"levelo_inurba_marseille","lat":43.2925,"lon":5.40891,"is_reserved":false,"is_disabled":false,"rental_uris":{"android":"levelo://app?vid=09f6552c-0c7b-403d-a6be-fd30d78a513d","ios":"levelo://app?vid=09f6552c-0c7b-403d-a6be-fd30d78a513d"},"vehicle_type_id":"4","last_reported":1747566428,"current_range_meters":13600,"station_id":"ce4bh192rcd13ifvqdc0","pricing_plan_id":"cebpf4jnsgd1na2vs0mg"},{"bike_id":"7698f913-46d0-4283-89ce-e3d803d4cdb3","system_id":"levelo_inurba_marseille","lat":43.28268,"lon":5.35067,"is_reserved":false,"is_disabled":false,"rental_uris":{"android":"levelo://app?vid=7698f913-46d0-4283-89ce-e3d803d4cdb3","ios":"levelo://app?vid=7698f913-46d0-4283-89ce-e3d803d4cdb3"},"vehicle_type_id":"4","last_reported":1747566428,"current_range_meters":13600,"station_id":"ce4bhbp2rcd13ifvqerg","pricing_plan_id":"cebpf4jnsgd1na2vs0mg"},{"bike_id":"068c2813-7fd2-4239-afcd-4c47c8962183","system_id":"levelo_inurba_marseille","lat":43.28617,"lon":5.35114,"is_reserved":false,"is_disabled":false,"rental_uris":{"android":"levelo://app?vid=068c2813-7fd2-4239-afcd-4c47c8962183","ios":"levelo://app?vid=068c2813-7fd2-4239-afcd-4c47c8962183"},"vehicle_type_id":"4","last_reported":1747566428,"current_range_meters":13600,"station_id":"ce4bhch2rcd13ifvqeug","pricing_plan_id":"cebpf4jnsgd1na2vs0mg"},{"bike_id":"b14c55c3-0928-4fc8-8c58-d355bd1c787b","system_id":"levelo_inurba_marseille","lat":43.27065,"lon":5.4228,"is_reserved":false,"is_disabled":false,"rental_uris":{"android":"levelo://app?vid=b14c55c3-0928-4fc8-8c58-d355bd1c787b","ios":"levelo://app?vid=b14c55c3-0928-4fc8-8c58-d355bd1c787b"},"vehicle_type_id":"4","last_reported":1747566428,"current_range_meters":13600,"station_id":"ce4bhk92rcd13ifvqgb0","pricing_plan_id":"cebpf4jnsgd1na2vs0mg"},{"bike_id":"9f495259-929a-415b-acfb-24d1a8ab8c9e","system_id":"levelo_inurba_marseille","lat":43.23191,"lon":5.35553,"is_reserved":false,"is_disabled":false,"rental_uris":{"android":"levelo://app?vid=9f495259-929a-415b-acfb-24d1a8ab8c9e","ios":"levelo://app?vid=9f495259-929a-415b-acfb-24d1a8ab8c9e"},"vehicle_type_id":"4","last_reported":1747566428,"current_range_meters":13600,"station_id":"ce4bhu92rcd13ifvqi70","pricing_plan_id":"cebpf4jnsgd1na2vs0mg"},{"bike_id":"67f72f62-eb9d-4994-bbcf-c10b28dd838c","system_id":"levelo_inurba_marseille","lat":43.26597,"lon":5.39348,"is_reserved":false,"is_disabled":false,"rental_uris":{"android":"levelo://app?vid=67f72f62-eb9d-4994-bbcf-c10b28dd838c","ios":"levelo://app?vid=67f72f62-eb9d-4994-bbcf-c10b28dd838c"},"vehicle_type_id":"4","last_reported":1747566428,"current_range_meters":14400,"station_id":"","pricing_plan_id":"cebpf4jnsgd1na2vs0mg"},{"bike_id":"465c7c05-637a-4b0b-a5cd-b53dcf8dd68c","system_id":"levelo_inurba_marseille","lat":43.30582,"lon":5.39352,"is_reserved":false,"is_disabled":false,"rental_uris":{"android":"levelo://app?vid=465c7c05-637a-4b0b-a5cd-b53dcf8dd68c","ios":"levelo://app?vid=465c7c05-637a-4b0b-a5cd-b53dcf8dd68c"},"vehicle_type_id":"4","last_reported":1747566428,"current_range_meters":14400,"station_id":"ce4bh0p2rcd13ifvqd80","pricing_plan_id":"cebpf4jnsgd1na2vs0mg"},{"bike_id":"80867953-f566-4128-9b94-9c7908c41bfa","system_id":"levelo_inurba_marseille","lat":43.29183,"lon":5.35799,"is_reserved":false,"is_disabled":false,"rental_uris":{"android":"levelo://app?vid=80867953-f566-4128-9b94-9c7908c41bfa","ios":"levelo://app?vid=80867953-f566-4128-9b94-9c7908c41bfa"},"vehicle_type_id":"4","last_reported":1747566428,"current_range_meters":14400,"station_id":"ce4bhb12rcd13ifvqel0","pricing_plan_id":"cebpf4jnsgd1na2vs0mg"},{"bike_id":"cbcea159-2f5f-4ed0-9097-ac17b5156d07","system_id":"levelo_inurba_marseille","lat":43.27375,"lon":5.3627,"is_reserved":false,"is_disabled":false,"rental_uris":{"android":"levelo://app?vid=cbcea159-2f5f-4ed0-9097-ac17b5156d07","ios":"levelo://app?vid=cbcea159-2f5f-4ed0-9097-ac17b5156d07"},"vehicle_type_id":"4","last_reported":1747566428,"current_range_meters":14400,"station_id":"ce4bhbh2rcd13ifvqeo0","pricing_plan_id":"cebpf4jnsgd1na2vs0mg"},{"bike_id":"fe7ce46e-8754-450a-9d51-d7267bee0f61","system_id":"levelo_inurba_marseille","lat":43.29207,"lon":5.36079,"is_reserved":false,"is_disabled":false,"rental_uris":{"android":"levelo://app?vid=fe7ce46e-8754-450a-9d51-d7267bee0f61","ios":"levelo://app?vid=fe7ce46e-8754-450a-9d51-d7267bee0f61"},"vehicle_type_id":"4","last_reported":1747566428,"current_range_meters":14400,"station_id":"ce4bhbh2rcd13ifvqeqg","pricing_plan_id":"cebpf4jnsgd1na2vs0mg"},{"bike_id":"ab04b964-b007-4b1b-addb-249280fc9c01","system_id":"levelo_inurba_marseille","lat":43.26565,"lon":5.39007,"is_reserved":false,"is_disabled":false,"rental_uris":{"android":"levelo://app?vid=ab04b964-b007-4b1b-addb-249280fc9c01","ios":"levelo://app?vid=ab04b964-b007-4b1b-addb-249280fc9c01"},"vehicle_type_id":"4","last_reported":1747566428,"current_range_meters":14400,"station_id":"ce4bhe12rcd13ifvqf30","pricing_plan_id":"cebpf4jnsgd1na2vs0mg"},{"bike_id":"7a31f435-63bc-4ff6-838b-d79912959956","system_id":"levelo_inurba_marseille","lat":43.26225,"lon":5.40456,"is_reserved":false,"is_disabled":false,"rental_uris":{"android":"levelo://app?vid=7a31f435-63bc-4ff6-838b-d79912959956","ios":"levelo://app?vid=7a31f435-63bc-4ff6-838b-d79912959956"},"vehicle_type_id":"4","last_reported":1747566428,"current_range_meters":14400,"station_id":"ce4bhmh2rcd13ifvqgmg","pricing_plan_id":"cebpf4jnsgd1na2vs0mg"},{"bike_id":"0a672e4f-4d62-47b0-88d5-45b4c1c6a08c","system_id":"levelo_inurba_marseille","lat":43.29554,"lon":5.42288,"is_reserved":false,"is_disabled":false,"rental_uris":{"android":"levelo://app?vid=0a672e4f-4d62-47b0-88d5-45b4c1c6a08c","ios":"levelo://app?vid=0a672e4f-4d62-47b0-88d5-45b4c1c6a08c"},"vehicle_type_id":"4","last_reported":1747566428,"current_range_meters":14400,"station_id":"ce4bhph2rcd13ifvqhdg","pricing_plan_id":"cebpf4jnsgd1na2vs0mg"},{"bike_id":"b947e013-2e44-4d3f-95bd-7fde4f81ce7e","system_id":"levelo_inurba_marseille","lat":43.323355,"lon":5.406224,"is_reserved":false,"is_disabled":false,"rental_uris":{"android":"levelo://app?vid=b947e013-2e44-4d3f-95bd-7fde4f81ce7e","ios":"levelo://app?vid=b947e013-2e44-4d3f-95bd-7fde4f81ce7e"},"vehicle_type_id":"4","last_reported":1747566428,"current_range_meters":14400,"station_id":"ce4bhq92rcd13ifvqhjg","pricing_plan_id":"cebpf4jnsgd1na2vs0mg"},{"bike_id":"be2be7b2-37fa-4e7b-942f-4f786251b05f","system_id":"levelo_inurba_marseille","lat":43.31695,"lon":5.37784,"is_reserved":false,"is_disabled":false,"rental_uris":{"android":"levelo://app?vid=be2be7b2-37fa-4e7b-942f-4f786251b05f","ios":"levelo://app?vid=be2be7b2-37fa-4e7b-942f-4f786251b05f"},"vehicle_type_id":"4","last_reported":1747566428,"current_range_meters":14800,"station_id":"ce4bgth2rcd13ifvqch0","pricing_plan_id":"cebpf4jnsgd1na2vs0mg"},{"bike_id":"58887f66-7108-4294-a00e-551c17af804a","system_id":"levelo_inurba_marseille","lat":43.26227,"lon":5.4047,"is_reserved":false,"is_disabled":false,"rental_uris":{"android":"levelo://app?vid=58887f66-7108-4294-a00e-551c17af804a","ios":"levelo://app?vid=58887f66-7108-4294-a00e-551c17af804a"},"vehicle_type_id":"4","last_reported":1747566428,"current_range_meters":14800,"station_id":"ce4bhmh2rcd13ifvqgmg","pricing_plan_id":"cebpf4jnsgd1na2vs0mg"},{"bike_id":"2c15615b-ab1e-4027-8ab9-0113f666a8b2","system_id":"levelo_inurba_marseille","lat":43.299058,"lon":5.436498,"is_reserved":false,"is_disabled":false,"rental_uris":{"android":"levelo://app?vid=2c15615b-ab1e-4027-8ab9-0113f666a8b2","ios":"levelo://app?vid=2c15615b-ab1e-4027-8ab9-0113f666a8b2"},"vehicle_type_id":"4","last_reported":1747566428,"current_range_meters":14800,"station_id":"ce4bhpp2rcd13ifvqhfg","pricing_plan_id":"cebpf4jnsgd1na2vs0mg"},{"bike_id":"12c4d802-2c6a-4c71-888e-000ffe312a3f","system_id":"levelo_inurba_marseille","lat":43.32365,"lon":5.36763,"is_reserved":false,"is_disabled":false,"rental_uris":{"android":"levelo://app?vid=12c4d802-2c6a-4c71-888e-000ffe312a3f","ios":"levelo://app?vid=12c4d802-2c6a-4c71-888e-000ffe312a3f"},"vehicle_type_id":"4","last_reported":1747566428,"current_range_meters":14800,"station_id":"ce4bhsh2rcd13ifvqi2g","pricing_plan_id":"cebpf4jnsgd1na2vs0mg"},{"bike_id":"ed34fad4-c48e-4c1a-b9b1-8eb1cd77d573","system_id":"levelo_inurba_marseille","lat":43.30943,"lon":5.38621,"is_reserved":false,"is_disabled":false,"rental_uris":{"android":"levelo://app?vid=ed34fad4-c48e-4c1a-b9b1-8eb1cd77d573","ios":"levelo://app?vid=ed34fad4-c48e-4c1a-b9b1-8eb1cd77d573"},"vehicle_type_id":"4","last_reported":1747566428,"current_range_meters":15200,"station_id":"ce4bgv12rcd13ifvqcp0","pricing_plan_id":"cebpf4jnsgd1na2vs0mg"},{"bike_id":"63ee7651-d7fc-446f-b34b-5f1be0f0febd","system_id":"levelo_inurba_marseille","lat":43.32332,"lon":5.4062,"is_reserved":false,"is_disabled":false,"rental_uris":{"android":"levelo://app?vid=63ee7651-d7fc-446f-b34b-5f1be0f0febd","ios":"levelo://app?vid=63ee7651-d7fc-446f-b34b-5f1be0f0febd"},"vehicle_type_id":"4","last_reported":1747566428,"current_range_meters":15200,"station_id":"ce4bhq92rcd13ifvqhjg","pricing_plan_id":"cebpf4jnsgd1na2vs0mg"},{"bike_id":"bf2b2bfb-9733-4bda-908d-03391ae976cc","system_id":"levelo_inurba_marseille","lat":43.31158,"lon":5.41593,"is_reserved":false,"is_disabled":false,"rental_uris":{"android":"levelo://app?vid=bf2b2bfb-9733-4bda-908d-03391ae976cc","ios":"levelo://app?vid=bf2b2bfb-9733-4bda-908d-03391ae976cc"},"vehicle_type_id":"4","last_reported":1747566428,"current_range_meters":16000,"station_id":"","pricing_plan_id":"cebpf4jnsgd1na2vs0mg"},{"bike_id":"86603db7-b462-4e72-8622-a2dee8bb2920","system_id":"levelo_inurba_marseille","lat":43.337444,"lon":5.374475,"is_reserved":false,"is_disabled":false,"rental_uris":{"android":"levelo://app?vid=86603db7-b462-4e72-8622-a2dee8bb2920","ios":"levelo://app?vid=86603db7-b462-4e72-8622-a2dee8bb2920"},"vehicle_type_id":"4","last_reported":1747566428,"current_range_meters":16000,"station_id":"","pricing_plan_id":"cebpf4jnsgd1na2vs0mg"},{"bike_id":"5e7692d8-a1ec-4248-acac-2bd561a2e5ff","system_id":"levelo_inurba_marseille","lat":43.3053,"lon":5.36528,"is_reserved":false,"is_disabled":false,"rental_uris":{"android":"levelo://app?vid=5e7692d8-a1ec-4248-acac-2bd561a2e5ff","ios":"levelo://app?vid=5e7692d8-a1ec-4248-acac-2bd561a2e5ff"},"vehicle_type_id":"4","last_reported":1747566428,"current_range_meters":16000,"station_id":"ce4bgs12rcd13ifvqcag","pricing_plan_id":"cebpf4jnsgd1na2vs0mg"},{"bike_id":"c38c0434-7c0b-4918-a236-1841e549db1d","system_id":"levelo_inurba_marseille","lat":43.25105,"lon":5.40316,"is_reserved":false,"is_disabled":false,"rental_uris":{"android":"levelo://app?vid=c38c0434-7c0b-4918-a236-1841e549db1d","ios":"levelo://app?vid=c38c0434-7c0b-4918-a236-1841e549db1d"},"vehicle_type_id":"4","last_reported":1747566428,"current_range_meters":16000,"station_id":"ce4bhlh2rcd13ifvqgig","pricing_plan_id":"cebpf4jnsgd1na2vs0mg"},{"bike_id":"33fcd34d-24bc-4dcf-91c5-6b01f589ab2e","system_id":"levelo_inurba_marseille","lat":43.240681,"lon":5.377313,"is_reserved":false,"is_disabled":false,"rental_uris":{"android":"levelo://app?vid=33fcd34d-24bc-4dcf-91c5-6b01f589ab2e","ios":"levelo://app?vid=33fcd34d-24bc-4dcf-91c5-6b01f589ab2e"},"vehicle_type_id":"4","last_reported":1747566428,"current_range_meters":16000,"station_id":"ce4bhnp2rcd13ifvqgvg","pricing_plan_id":"cebpf4jnsgd1na2vs0mg"},{"bike_id":"1bbca78a-c83f-4de6-934f-aa529128ce36","system_id":"levelo_inurba_marseille","lat":43.24165,"lon":5.36394,"is_reserved":false,"is_disabled":false,"rental_uris":{"android":"levelo://app?vid=1bbca78a-c83f-4de6-934f-aa529128ce36","ios":"levelo://app?vid=1bbca78a-c83f-4de6-934f-aa529128ce36"},"vehicle_type_id":"4","last_reported":1747566428,"current_range_meters":16000,"station_id":"cpo36qri1sfpv3e86is0","pricing_plan_id":"cebpf4jnsgd1na2vs0mg"},{"bike_id":"19456222-7d38-48cf-a950-06daadd07927","system_id":"levelo_inurba_marseille","lat":43.25027,"lon":5.37528,"is_reserved":false,"is_disabled":false,"rental_uris":{"android":"levelo://app?vid=19456222-7d38-48cf-a950-06daadd07927","ios":"levelo://app?vid=19456222-7d38-48cf-a950-06daadd07927"},"vehicle_type_id":"4","last_reported":1747566428,"current_range_meters":16400,"station_id":"","pricing_plan_id":"cebpf4jnsgd1na2vs0mg"},{"bike_id":"541a8af5-b738-44a3-86f7-91301565b960","system_id":"levelo_inurba_marseille","lat":43.30524,"lon":5.36536,"is_reserved":false,"is_disabled":false,"rental_uris":{"android":"levelo://app?vid=541a8af5-b738-44a3-86f7-91301565b960","ios":"levelo://app?vid=541a8af5-b738-44a3-86f7-91301565b960"},"vehicle_type_id":"4","last_reported":1747566428,"current_range_meters":16400,"station_id":"ce4bgs12rcd13ifvqcag","pricing_plan_id":"cebpf4jnsgd1na2vs0mg"},{"bike_id":"e30bd62c-93cf-4589-abad-553544439191","system_id":"levelo_inurba_marseille","lat":43.28404,"lon":5.34987,"is_reserved":false,"is_disabled":false,"rental_uris":{"android":"levelo://app?vid=e30bd62c-93cf-4589-abad-553544439191","ios":"levelo://app?vid=e30bd62c-93cf-4589-abad-553544439191"},"vehicle_type_id":"4","last_reported":1747566428,"current_range_meters":16400,"station_id":"ce4bhbh2rcd13ifvqepg","pricing_plan_id":"cebpf4jnsgd1na2vs0mg"},{"bike_id":"98138392-cfa0-484d-b06e-c8ef04ffa389","system_id":"levelo_inurba_marseille","lat":43.24166,"lon":5.36394,"is_reserved":false,"is_disabled":false,"rental_uris":{"android":"levelo://app?vid=98138392-cfa0-484d-b06e-c8ef04ffa389","ios":"levelo://app?vid=98138392-cfa0-484d-b06e-c8ef04ffa389"},"vehicle_type_id":"4","last_reported":1747566428,"current_range_meters":16400,"station_id":"cpo36qri1sfpv3e86is0","pricing_plan_id":"cebpf4jnsgd1na2vs0mg"},{"bike_id":"26ae3f71-446b-4d48-9715-d0cb78472fbf","system_id":"levelo_inurba_marseille","lat":43.31192,"lon":5.3701,"is_reserved":false,"is_disabled":false,"rental_uris":{"android":"levelo://app?vid=26ae3f71-446b-4d48-9715-d0cb78472fbf","ios":"levelo://app?vid=26ae3f71-446b-4d48-9715-d0cb78472fbf"},"vehicle_type_id":"4","last_reported":1747566428,"current_range_meters":16800,"station_id":"","pricing_plan_id":"cebpf4jnsgd1na2vs0mg"},{"bike_id":"aeb26e72-6cee-49f3-af6a-174324f47236","system_id":"levelo_inurba_marseille","lat":43.287018,"lon":5.373742,"is_reserved":false,"is_disabled":false,"rental_uris":{"android":"levelo://app?vid=aeb26e72-6cee-49f3-af6a-174324f47236","ios":"levelo://app?vid=aeb26e72-6cee-49f3-af6a-174324f47236"},"vehicle_type_id":"4","last_reported":1747566428,"current_range_meters":16800,"station_id":"ce4bh3p2rcd13ifvqdq0","pricing_plan_id":"cebpf4jnsgd1na2vs0mg"},{"bike_id":"c6a0d30f-f6ed-487b-901f-1083452a38c4","system_id":"levelo_inurba_marseille","lat":43.29187,"lon":5.39312,"is_reserved":false,"is_disabled":false,"rental_uris":{"android":"levelo://app?vid=c6a0d30f-f6ed-487b-901f-1083452a38c4","ios":"levelo://app?vid=c6a0d30f-f6ed-487b-901f-1083452a38c4"},"vehicle_type_id":"4","last_reported":1747566428,"current_range_meters":17200,"station_id":"ce4bh192rcd13ifvqdd0","pricing_plan_id":"cebpf4jnsgd1na2vs0mg"},{"bike_id":"a1b4c401-1247-4edf-b830-1fa52b6ac096","system_id":"levelo_inurba_marseille","lat":43.28264,"lon":5.35059,"is_reserved":false,"is_disabled":false,"rental_uris":{"android":"levelo://app?vid=a1b4c401-1247-4edf-b830-1fa52b6ac096","ios":"levelo://app?vid=a1b4c401-1247-4edf-b830-1fa52b6ac096"},"vehicle_type_id":"4","last_reported":1747566428,"current_range_meters":17200,"station_id":"ce4bhbp2rcd13ifvqerg","pricing_plan_id":"cebpf4jnsgd1na2vs0mg"},{"bike_id":"11ee8a79-3d6d-4bc1-aba8-8cfc44716ba0","system_id":"levelo_inurba_marseille","lat":43.26231,"lon":5.40454,"is_reserved":false,"is_disabled":false,"rental_uris":{"android":"levelo://app?vid=11ee8a79-3d6d-4bc1-aba8-8cfc44716ba0","ios":"levelo://app?vid=11ee8a79-3d6d-4bc1-aba8-8cfc44716ba0"},"vehicle_type_id":"4","last_reported":1747566428,"current_range_meters":17200,"station_id":"ce4bhmh2rcd13ifvqgmg","pricing_plan_id":"cebpf4jnsgd1na2vs0mg"},{"bike_id":"de228642-35e2-4020-b09c-bdfd1e1a0232","system_id":"levelo_inurba_marseille","lat":43.23147,"lon":5.43696,"is_reserved":false,"is_disabled":false,"rental_uris":{"android":"levelo://app?vid=de228642-35e2-4020-b09c-bdfd1e1a0232","ios":"levelo://app?vid=de228642-35e2-4020-b09c-bdfd1e1a0232"},"vehicle_type_id":"4","last_reported":1747566428,"current_range_meters":17200,"station_id":"ce4bhmp2rcd13ifvqgog","pricing_plan_id":"cebpf4jnsgd1na2vs0mg"},{"bike_id":"c4e890eb-f578-4976-93dc-80dde712c486","system_id":"levelo_inurba_marseille","lat":43.24172,"lon":5.36371,"is_reserved":false,"is_disabled":false,"rental_uris":{"android":"levelo://app?vid=c4e890eb-f578-4976-93dc-80dde712c486","ios":"levelo://app?vid=c4e890eb-f578-4976-93dc-80dde712c486"},"vehicle_type_id":"4","last_reported":1747566428,"current_range_meters":17600,"station_id":"cpo36qri1sfpv3e86is0","pricing_plan_id":"cebpf4jnsgd1na2vs0mg"},{"bike_id":"25a6ab0d-3d76-40d0-bc6c-e1f216493645","system_id":"levelo_inurba_marseille","lat":43.21745,"lon":5.34603,"is_reserved":false,"is_disabled":false,"rental_uris":{"android":"levelo://app?vid=25a6ab0d-3d76-40d0-bc6c-e1f216493645","ios":"levelo://app?vid=25a6ab0d-3d76-40d0-bc6c-e1f216493645"},"vehicle_type_id":"4","last_reported":1747566428,"current_range_meters":17600,"station_id":"st_cvj6r9ubvosntc0bgbag","pricing_plan_id":"cebpf4jnsgd1na2vs0mg"},{"bike_id":"128d03be-bad5-4065-be17-53fb3b1e0632","system_id":"levelo_inurba_marseille","lat":43.30433,"lon":5.39745,"is_reserved":false,"is_disabled":false,"rental_uris":{"android":"levelo://app?vid=128d03be-bad5-4065-be17-53fb3b1e0632","ios":"levelo://app?vid=128d03be-bad5-4065-be17-53fb3b1e0632"},"vehicle_type_id":"4","last_reported":1747566428,"current_range_meters":18000,"station_id":"ce4bh092rcd13ifvqd20","pricing_plan_id":"cebpf4jnsgd1na2vs0mg"},{"bike_id":"188c0480-8788-40d0-af36-4aa2d4838ea7","system_id":"levelo_inurba_marseille","lat":43.26559,"lon":5.39004,"is_reserved":false,"is_disabled":false,"rental_uris":{"android":"levelo://app?vid=188c0480-8788-40d0-af36-4aa2d4838ea7","ios":"levelo://app?vid=188c0480-8788-40d0-af36-4aa2d4838ea7"},"vehicle_type_id":"4","last_reported":1747566428,"current_range_meters":18000,"station_id":"ce4bhe12rcd13ifvqf30","pricing_plan_id":"cebpf4jnsgd1na2vs0mg"},{"bike_id":"5a205474-2c4f-4ed9-ae7e-22db2ffc99dc","system_id":"levelo_inurba_marseille","lat":43.27809,"lon":5.40715,"is_reserved":false,"is_disabled":false,"rental_uris":{"android":"levelo://app?vid=5a205474-2c4f-4ed9-ae7e-22db2ffc99dc","ios":"levelo://app?vid=5a205474-2c4f-4ed9-ae7e-22db2ffc99dc"},"vehicle_type_id":"4","last_reported":1747566428,"current_range_meters":18000,"station_id":"ce4bhnh2rcd13ifvqgtg","pricing_plan_id":"cebpf4jnsgd1na2vs0mg"},{"bike_id":"41389e7c-6f3c-410d-88e7-f591b55a002a","system_id":"levelo_inurba_marseille","lat":43.24068,"lon":5.37766,"is_reserved":false,"is_disabled":false,"rental_uris":{"android":"levelo://app?vid=41389e7c-6f3c-410d-88e7-f591b55a002a","ios":"levelo://app?vid=41389e7c-6f3c-410d-88e7-f591b55a002a"},"vehicle_type_id":"4","last_reported":1747566428,"current_range_meters":18000,"station_id":"ce4bhnp2rcd13ifvqgvg","pricing_plan_id":"cebpf4jnsgd1na2vs0mg"},{"bike_id":"b3594d0a-6267-4611-9097-5bb94a2ba24f","system_id":"levelo_inurba_marseille","lat":43.31125,"lon":5.37002,"is_reserved":false,"is_disabled":false,"rental_uris":{"android":"levelo://app?vid=b3594d0a-6267-4611-9097-5bb94a2ba24f","ios":"levelo://app?vid=b3594d0a-6267-4611-9097-5bb94a2ba24f"},"vehicle_type_id":"4","last_reported":1747566428,"current_range_meters":18800,"station_id":"","pricing_plan_id":"cebpf4jnsgd1na2vs0mg"},{"bike_id":"90ac5c4d-5c58-4eef-a3e0-3fe1e0ae49f7","system_id":"levelo_inurba_marseille","lat":43.29006,"lon":5.35603,"is_reserved":false,"is_disabled":false,"rental_uris":{"android":"levelo://app?vid=90ac5c4d-5c58-4eef-a3e0-3fe1e0ae49f7","ios":"levelo://app?vid=90ac5c4d-5c58-4eef-a3e0-3fe1e0ae49f7"},"vehicle_type_id":"4","last_reported":1747566428,"current_range_meters":18800,"station_id":"ce4bhb92rcd13ifvqen0","pricing_plan_id":"cebpf4jnsgd1na2vs0mg"},{"bike_id":"771b2c8c-bbca-498c-9853-c988644b6b38","system_id":"levelo_inurba_marseille","lat":43.28268,"lon":5.35063,"is_reserved":false,"is_disabled":false,"rental_uris":{"android":"levelo://app?vid=771b2c8c-bbca-498c-9853-c988644b6b38","ios":"levelo://app?vid=771b2c8c-bbca-498c-9853-c988644b6b38"},"vehicle_type_id":"4","last_reported":1747566428,"current_range_meters":18800,"station_id":"ce4bhbp2rcd13ifvqerg","pricing_plan_id":"cebpf4jnsgd1na2vs0mg"},{"bike_id":"a7c4739b-82ca-4668-9c00-2159559e6ceb","system_id":"levelo_inurba_marseille","lat":43.28252,"lon":5.35067,"is_reserved":false,"is_disabled":false,"rental_uris":{"android":"levelo://app?vid=a7c4739b-82ca-4668-9c00-2159559e6ceb","ios":"levelo://app?vid=a7c4739b-82ca-4668-9c00-2159559e6ceb"},"vehicle_type_id":"4","last_reported":1747566428,"current_range_meters":18800,"station_id":"ce4bhbp2rcd13ifvqerg","pricing_plan_id":"cebpf4jnsgd1na2vs0mg"},{"bike_id":"3b061858-1250-4ae7-ac1c-fcfe6544f29b","system_id":"levelo_inurba_marseille","lat":43.25721,"lon":5.4111,"is_reserved":false,"is_disabled":false,"rental_uris":{"android":"levelo://app?vid=3b061858-1250-4ae7-ac1c-fcfe6544f29b","ios":"levelo://app?vid=3b061858-1250-4ae7-ac1c-fcfe6544f29b"},"vehicle_type_id":"4","last_reported":1747566428,"current_range_meters":18800,"station_id":"ce4bhkp2rcd13ifvqgd0","pricing_plan_id":"cebpf4jnsgd1na2vs0mg"},{"bike_id":"4bf07dda-c237-4ea8-8a68-92f3f3589f02","system_id":"levelo_inurba_marseille","lat":43.25826,"lon":5.39436,"is_reserved":false,"is_disabled":false,"rental_uris":{"android":"levelo://app?vid=4bf07dda-c237-4ea8-8a68-92f3f3589f02","ios":"levelo://app?vid=4bf07dda-c237-4ea8-8a68-92f3f3589f02"},"vehicle_type_id":"4","last_reported":1747566428,"current_range_meters":19200,"station_id":"ce4bhip2rcd13ifvqft0","pricing_plan_id":"cebpf4jnsgd1na2vs0mg"},{"bike_id":"7775f406-c4ce-4360-88b6-434b16acfa3c","system_id":"levelo_inurba_marseille","lat":43.25829,"lon":5.39413,"is_reserved":false,"is_disabled":false,"rental_uris":{"android":"levelo://app?vid=7775f406-c4ce-4360-88b6-434b16acfa3c","ios":"levelo://app?vid=7775f406-c4ce-4360-88b6-434b16acfa3c"},"vehicle_type_id":"4","last_reported":1747566428,"current_range_meters":19200,"station_id":"ce4bhip2rcd13ifvqft0","pricing_plan_id":"cebpf4jnsgd1na2vs0mg"},{"bike_id":"2d8e7071-6ffa-4dc6-8402-96d258f1bb66","system_id":"levelo_inurba_marseille","lat":43.25706,"lon":5.41156,"is_reserved":false,"is_disabled":false,"rental_uris":{"android":"levelo://app?vid=2d8e7071-6ffa-4dc6-8402-96d258f1bb66","ios":"levelo://app?vid=2d8e7071-6ffa-4dc6-8402-96d258f1bb66"},"vehicle_type_id":"4","last_reported":1747566428,"current_range_meters":19200,"station_id":"ce4bhkp2rcd13ifvqgd0","pricing_plan_id":"cebpf4jnsgd1na2vs0mg"},{"bike_id":"7c1e4a90-729c-4550-bca6-792e291de96c","system_id":"levelo_inurba_marseille","lat":43.284186,"lon":5.349813,"is_reserved":false,"is_disabled":false,"rental_uris":{"android":"levelo://app?vid=7c1e4a90-729c-4550-bca6-792e291de96c","ios":"levelo://app?vid=7c1e4a90-729c-4550-bca6-792e291de96c"},"vehicle_type_id":"4","last_reported":1747566428,"current_range_meters":19600,"station_id":"ce4bhbh2rcd13ifvqepg","pricing_plan_id":"cebpf4jnsgd1na2vs0mg"},{"bike_id":"eddc3e2f-204e-47a6-9d8f-809f554335b4","system_id":"levelo_inurba_marseille","lat":43.24077,"lon":5.37735,"is_reserved":false,"is_disabled":false,"rental_uris":{"android":"levelo://app?vid=eddc3e2f-204e-47a6-9d8f-809f554335b4","ios":"levelo://app?vid=eddc3e2f-204e-47a6-9d8f-809f554335b4"},"vehicle_type_id":"4","last_reported":1747566428,"current_range_meters":19600,"station_id":"ce4bhnp2rcd13ifvqgvg","pricing_plan_id":"cebpf4jnsgd1na2vs0mg"},{"bike_id":"b708d3b3-8ba5-4d83-8d8a-62408a21e8ee","system_id":"levelo_inurba_marseille","lat":43.29575,"lon":5.42279,"is_reserved":false,"is_disabled":false,"rental_uris":{"android":"levelo://app?vid=b708d3b3-8ba5-4d83-8d8a-62408a21e8ee","ios":"levelo://app?vid=b708d3b3-8ba5-4d83-8d8a-62408a21e8ee"},"vehicle_type_id":"4","last_reported":1747566428,"current_range_meters":19600,"station_id":"ce4bhph2rcd13ifvqhdg","pricing_plan_id":"cebpf4jnsgd1na2vs0mg"},{"bike_id":"0c4661ab-673d-4c6c-a451-f3a64ac76d71","system_id":"levelo_inurba_marseille","lat":43.282049,"lon":5.390546,"is_reserved":false,"is_disabled":false,"rental_uris":{"android":"levelo://app?vid=0c4661ab-673d-4c6c-a451-f3a64ac76d71","ios":"levelo://app?vid=0c4661ab-673d-4c6c-a451-f3a64ac76d71"},"vehicle_type_id":"4","last_reported":1747566428,"current_range_meters":20000,"station_id":"","pricing_plan_id":"cebpf4jnsgd1na2vs0mg"},{"bike_id":"bca6e7b1-784a-4342-9bae-1accd639d9f2","system_id":"levelo_inurba_marseille","lat":43.28617,"lon":5.35093,"is_reserved":false,"is_disabled":false,"rental_uris":{"android":"levelo://app?vid=bca6e7b1-784a-4342-9bae-1accd639d9f2","ios":"levelo://app?vid=bca6e7b1-784a-4342-9bae-1accd639d9f2"},"vehicle_type_id":"4","last_reported":1747566428,"current_range_meters":20000,"station_id":"ce4bhch2rcd13ifvqeug","pricing_plan_id":"cebpf4jnsgd1na2vs0mg"},{"bike_id":"a68826cf-5d65-4bbd-a1e5-167c2acb3882","system_id":"levelo_inurba_marseille","lat":43.2396,"lon":5.36627,"is_reserved":false,"is_disabled":false,"rental_uris":{"android":"levelo://app?vid=a68826cf-5d65-4bbd-a1e5-167c2acb3882","ios":"levelo://app?vid=a68826cf-5d65-4bbd-a1e5-167c2acb3882"},"vehicle_type_id":"4","last_reported":1747566428,"current_range_meters":20000,"station_id":"ce4bhi12rcd13ifvqfp0","pricing_plan_id":"cebpf4jnsgd1na2vs0mg"},{"bike_id":"9251ef08-124f-40bc-a2ea-86c47512613e","system_id":"levelo_inurba_marseille","lat":43.26186,"lon":5.4207,"is_reserved":false,"is_disabled":false,"rental_uris":{"android":"levelo://app?vid=9251ef08-124f-40bc-a2ea-86c47512613e","ios":"levelo://app?vid=9251ef08-124f-40bc-a2ea-86c47512613e"},"vehicle_type_id":"4","last_reported":1747566428,"current_range_meters":20400,"station_id":"","pricing_plan_id":"cebpf4jnsgd1na2vs0mg"},{"bike_id":"36c25226-90b4-4204-8290-f8a4434620c7","system_id":"levelo_inurba_marseille","lat":43.30547,"lon":5.36545,"is_reserved":false,"is_disabled":false,"rental_uris":{"android":"levelo://app?vid=36c25226-90b4-4204-8290-f8a4434620c7","ios":"levelo://app?vid=36c25226-90b4-4204-8290-f8a4434620c7"},"vehicle_type_id":"4","last_reported":1747566428,"current_range_meters":20400,"station_id":"ce4bgs12rcd13ifvqcag","pricing_plan_id":"cebpf4jnsgd1na2vs0mg"},{"bike_id":"3c7b1b5c-5f6e-4fde-8ada-12b07ab353a0","system_id":"levelo_inurba_marseille","lat":43.21191,"lon":5.35075,"is_reserved":false,"is_disabled":false,"rental_uris":{"android":"levelo://app?vid=3c7b1b5c-5f6e-4fde-8ada-12b07ab353a0","ios":"levelo://app?vid=3c7b1b5c-5f6e-4fde-8ada-12b07ab353a0"},"vehicle_type_id":"4","last_reported":1747566428,"current_range_meters":20400,"station_id":"st_cvj6sg6p6f1abm77japg","pricing_plan_id":"cebpf4jnsgd1na2vs0mg"},{"bike_id":"3fea7812-c4f8-4edd-9662-c0fe57c22abd","system_id":"levelo_inurba_marseille","lat":43.28462,"lon":5.35894,"is_reserved":false,"is_disabled":false,"rental_uris":{"android":"levelo://app?vid=3fea7812-c4f8-4edd-9662-c0fe57c22abd","ios":"levelo://app?vid=3fea7812-c4f8-4edd-9662-c0fe57c22abd"},"vehicle_type_id":"4","last_reported":1747566428,"current_range_meters":20800,"station_id":"ce4bhah2rcd13ifvqei0","pricing_plan_id":"cebpf4jnsgd1na2vs0mg"},{"bike_id":"efe57e5b-ae98-4fc0-9c09-c76d236fced5","system_id":"levelo_inurba_marseille","lat":43.29179,"lon":5.35795,"is_reserved":false,"is_disabled":false,"rental_uris":{"android":"levelo://app?vid=efe57e5b-ae98-4fc0-9c09-c76d236fced5","ios":"levelo://app?vid=efe57e5b-ae98-4fc0-9c09-c76d236fced5"},"vehicle_type_id":"4","last_reported":1747566428,"current_range_meters":20800,"station_id":"ce4bhb12rcd13ifvqel0","pricing_plan_id":"cebpf4jnsgd1na2vs0mg"},{"bike_id":"05c5cd8f-40d5-403c-b1b2-30003b8cd3fb","system_id":"levelo_inurba_marseille","lat":43.284119,"lon":5.34972,"is_reserved":false,"is_disabled":false,"rental_uris":{"android":"levelo://app?vid=05c5cd8f-40d5-403c-b1b2-30003b8cd3fb","ios":"levelo://app?vid=05c5cd8f-40d5-403c-b1b2-30003b8cd3fb"},"vehicle_type_id":"4","last_reported":1747566428,"current_range_meters":20800,"station_id":"ce4bhbh2rcd13ifvqepg","pricing_plan_id":"cebpf4jnsgd1na2vs0mg"},{"bike_id":"ec48a4e7-ffa2-41bb-b90e-7e8f3185be85","system_id":"levelo_inurba_marseille","lat":43.28275,"lon":5.35067,"is_reserved":false,"is_disabled":false,"rental_uris":{"android":"levelo://app?vid=ec48a4e7-ffa2-41bb-b90e-7e8f3185be85","ios":"levelo://app?vid=ec48a4e7-ffa2-41bb-b90e-7e8f3185be85"},"vehicle_type_id":"4","last_reported":1747566428,"current_range_meters":20800,"station_id":"ce4bhbp2rcd13ifvqerg","pricing_plan_id":"cebpf4jnsgd1na2vs0mg"},{"bike_id":"0d3e7f6d-c78a-497d-84c8-9c1ac9cdb3f6","system_id":"levelo_inurba_marseille","lat":43.25105,"lon":5.40337,"is_reserved":false,"is_disabled":false,"rental_uris":{"android":"levelo://app?vid=0d3e7f6d-c78a-497d-84c8-9c1ac9cdb3f6","ios":"levelo://app?vid=0d3e7f6d-c78a-497d-84c8-9c1ac9cdb3f6"},"vehicle_type_id":"4","last_reported":1747566428,"current_range_meters":20800,"station_id":"ce4bhlh2rcd13ifvqgig","pricing_plan_id":"cebpf4jnsgd1na2vs0mg"},{"bike_id":"3daabc0c-88e3-4bd8-88fa-46aa337470f8","system_id":"levelo_inurba_marseille","lat":43.299394,"lon":5.365562,"is_reserved":false,"is_disabled":false,"rental_uris":{"android":"levelo://app?vid=3daabc0c-88e3-4bd8-88fa-46aa337470f8","ios":"levelo://app?vid=3daabc0c-88e3-4bd8-88fa-46aa337470f8"},"vehicle_type_id":"4","last_reported":1747566428,"current_range_meters":21600,"station_id":"ce4bgm92rcd13ifvqbr0","pricing_plan_id":"cebpf4jnsgd1na2vs0mg"},{"bike_id":"466e1311-fd99-4d4b-bc19-996bba16aebe","system_id":"levelo_inurba_marseille","lat":43.31342,"lon":5.36723,"is_reserved":false,"is_disabled":false,"rental_uris":{"android":"levelo://app?vid=466e1311-fd99-4d4b-bc19-996bba16aebe","ios":"levelo://app?vid=466e1311-fd99-4d4b-bc19-996bba16aebe"},"vehicle_type_id":"4","last_reported":1747566428,"current_range_meters":21600,"station_id":"ce4bgr92rcd13ifvqc6g","pricing_plan_id":"cebpf4jnsgd1na2vs0mg"},{"bike_id":"90491580-71e8-41c6-8130-40024b59f35d","system_id":"levelo_inurba_marseille","lat":43.30545,"lon":5.36532,"is_reserved":false,"is_disabled":false,"rental_uris":{"android":"levelo://app?vid=90491580-71e8-41c6-8130-40024b59f35d","ios":"levelo://app?vid=90491580-71e8-41c6-8130-40024b59f35d"},"vehicle_type_id":"4","last_reported":1747566428,"current_range_meters":21600,"station_id":"ce4bgs12rcd13ifvqcag","pricing_plan_id":"cebpf4jnsgd1na2vs0mg"},{"bike_id":"5eee1e31-81ab-4170-84c0-e64528937feb","system_id":"levelo_inurba_marseille","lat":43.286195,"lon":5.351008,"is_reserved":false,"is_disabled":false,"rental_uris":{"android":"levelo://app?vid=5eee1e31-81ab-4170-84c0-e64528937feb","ios":"levelo://app?vid=5eee1e31-81ab-4170-84c0-e64528937feb"},"vehicle_type_id":"4","last_reported":1747566428,"current_range_meters":21600,"station_id":"ce4bhch2rcd13ifvqeug","pricing_plan_id":"cebpf4jnsgd1na2vs0mg"},{"bike_id":"b6c450ea-3262-445b-9be7-fa94b2b19766","system_id":"levelo_inurba_marseille","lat":43.25926,"lon":5.40918,"is_reserved":false,"is_disabled":false,"rental_uris":{"android":"levelo://app?vid=b6c450ea-3262-445b-9be7-fa94b2b19766","ios":"levelo://app?vid=b6c450ea-3262-445b-9be7-fa94b2b19766"},"vehicle_type_id":"4","last_reported":1747566428,"current_range_meters":21600,"station_id":"ce4bhm92rcd13ifvqglg","pricing_plan_id":"cebpf4jnsgd1na2vs0mg"},{"bike_id":"39e2ed66-9956-4ef6-982d-047884828e87","system_id":"levelo_inurba_marseille","lat":43.2629,"lon":5.39297,"is_reserved":false,"is_disabled":false,"rental_uris":{"android":"levelo://app?vid=39e2ed66-9956-4ef6-982d-047884828e87","ios":"levelo://app?vid=39e2ed66-9956-4ef6-982d-047884828e87"},"vehicle_type_id":"4","last_reported":1747566428,"current_range_meters":22000,"station_id":"","pricing_plan_id":"cebpf4jnsgd1na2vs0mg"},{"bike_id":"5a3840e5-8585-4fa0-b278-32fc329a1f37","system_id":"levelo_inurba_marseille","lat":43.26557,"lon":5.390067,"is_reserved":false,"is_disabled":false,"rental_uris":{"android":"levelo://app?vid=5a3840e5-8585-4fa0-b278-32fc329a1f37","ios":"levelo://app?vid=5a3840e5-8585-4fa0-b278-32fc329a1f37"},"vehicle_type_id":"4","last_reported":1747566428,"current_range_meters":22000,"station_id":"ce4bhe12rcd13ifvqf30","pricing_plan_id":"cebpf4jnsgd1na2vs0mg"},{"bike_id":"4fc85b03-6c8c-42b4-8af2-72b9f92ba008","system_id":"levelo_inurba_marseille","lat":43.27175,"lon":5.40994,"is_reserved":false,"is_disabled":false,"rental_uris":{"android":"levelo://app?vid=4fc85b03-6c8c-42b4-8af2-72b9f92ba008","ios":"levelo://app?vid=4fc85b03-6c8c-42b4-8af2-72b9f92ba008"},"vehicle_type_id":"4","last_reported":1747566428,"current_range_meters":22000,"station_id":"ce4bhl12rcd13ifvqgf0","pricing_plan_id":"cebpf4jnsgd1na2vs0mg"},{"bike_id":"e7bfcfa5-e81d-4a4d-b086-bb4d669e553b","system_id":"levelo_inurba_marseille","lat":43.28696,"lon":5.37391,"is_reserved":false,"is_disabled":false,"rental_uris":{"android":"levelo://app?vid=e7bfcfa5-e81d-4a4d-b086-bb4d669e553b","ios":"levelo://app?vid=e7bfcfa5-e81d-4a4d-b086-bb4d669e553b"},"vehicle_type_id":"4","last_reported":1747566428,"current_range_meters":22400,"station_id":"ce4bh3p2rcd13ifvqdq0","pricing_plan_id":"cebpf4jnsgd1na2vs0mg"},{"bike_id":"e095f58b-937e-44c2-ba4b-56ead681204b","system_id":"levelo_inurba_marseille","lat":43.24545,"lon":5.3952,"is_reserved":false,"is_disabled":false,"rental_uris":{"android":"levelo://app?vid=e095f58b-937e-44c2-ba4b-56ead681204b","ios":"levelo://app?vid=e095f58b-937e-44c2-ba4b-56ead681204b"},"vehicle_type_id":"4","last_reported":1747566428,"current_range_meters":22400,"station_id":"ce4bhlp2rcd13ifvqgjg","pricing_plan_id":"cebpf4jnsgd1na2vs0mg"},{"bike_id":"97d37839-ec56-4c6f-abe2-9c290a55bc29","system_id":"levelo_inurba_marseille","lat":43.23198,"lon":5.35551,"is_reserved":false,"is_disabled":false,"rental_uris":{"android":"levelo://app?vid=97d37839-ec56-4c6f-abe2-9c290a55bc29","ios":"levelo://app?vid=97d37839-ec56-4c6f-abe2-9c290a55bc29"},"vehicle_type_id":"4","last_reported":1747566428,"current_range_meters":22400,"station_id":"ce4bhu92rcd13ifvqi70","pricing_plan_id":"cebpf4jnsgd1na2vs0mg"},{"bike_id":"2d5c49ca-cea7-48c7-9dad-8618244caeef","system_id":"levelo_inurba_marseille","lat":43.24158,"lon":5.36418,"is_reserved":false,"is_disabled":false,"rental_uris":{"android":"levelo://app?vid=2d5c49ca-cea7-48c7-9dad-8618244caeef","ios":"levelo://app?vid=2d5c49ca-cea7-48c7-9dad-8618244caeef"},"vehicle_type_id":"4","last_reported":1747566428,"current_range_meters":22400,"station_id":"cpo36qri1sfpv3e86is0","pricing_plan_id":"cebpf4jnsgd1na2vs0mg"},{"bike_id":"a450b854-2dd2-4402-8770-40c2f4c3db03","system_id":"levelo_inurba_marseille","lat":43.21742,"lon":5.34604,"is_reserved":false,"is_disabled":false,"rental_uris":{"android":"levelo://app?vid=a450b854-2dd2-4402-8770-40c2f4c3db03","ios":"levelo://app?vid=a450b854-2dd2-4402-8770-40c2f4c3db03"},"vehicle_type_id":"4","last_reported":1747566428,"current_range_meters":22400,"station_id":"st_cvj6r9ubvosntc0bgbag","pricing_plan_id":"cebpf4jnsgd1na2vs0mg"},{"bike_id":"9376a124-44b0-490a-aa2f-96edc613a814","system_id":"levelo_inurba_marseille","lat":43.28377,"lon":5.3632,"is_reserved":false,"is_disabled":false,"rental_uris":{"android":"levelo://app?vid=9376a124-44b0-490a-aa2f-96edc613a814","ios":"levelo://app?vid=9376a124-44b0-490a-aa2f-96edc613a814"},"vehicle_type_id":"4","last_reported":1747566428,"current_range_meters":22800,"station_id":"","pricing_plan_id":"cebpf4jnsgd1na2vs0mg"},{"bike_id":"338ab862-3eee-46b1-9f4f-ad12443dba67","system_id":"levelo_inurba_marseille","lat":43.28929,"lon":5.36632,"is_reserved":false,"is_disabled":false,"rental_uris":{"android":"levelo://app?vid=338ab862-3eee-46b1-9f4f-ad12443dba67","ios":"levelo://app?vid=338ab862-3eee-46b1-9f4f-ad12443dba67"},"vehicle_type_id":"4","last_reported":1747566428,"current_range_meters":22800,"station_id":"","pricing_plan_id":"cebpf4jnsgd1na2vs0mg"},{"bike_id":"f652c649-3c06-4234-bfb3-decfaf14cc35","system_id":"levelo_inurba_marseille","lat":43.292603,"lon":5.376194,"is_reserved":false,"is_disabled":false,"rental_uris":{"android":"levelo://app?vid=f652c649-3c06-4234-bfb3-decfaf14cc35","ios":"levelo://app?vid=f652c649-3c06-4234-bfb3-decfaf14cc35"},"vehicle_type_id":"4","last_reported":1747566428,"current_range_meters":22800,"station_id":"ce4bgi12rcd13ifvqb80","pricing_plan_id":"cebpf4jnsgd1na2vs0mg"},{"bike_id":"3d8760ee-eb53-44af-92f6-5f81114d80be","system_id":"levelo_inurba_marseille","lat":43.30545,"lon":5.36535,"is_reserved":false,"is_disabled":false,"rental_uris":{"android":"levelo://app?vid=3d8760ee-eb53-44af-92f6-5f81114d80be","ios":"levelo://app?vid=3d8760ee-eb53-44af-92f6-5f81114d80be"},"vehicle_type_id":"4","last_reported":1747566428,"current_range_meters":22800,"station_id":"ce4bgs12rcd13ifvqcag","pricing_plan_id":"cebpf4jnsgd1na2vs0mg"},{"bike_id":"91dc555f-23a9-45a6-ba5d-36cc3ff1765d","system_id":"levelo_inurba_marseille","lat":43.2842,"lon":5.34995,"is_reserved":false,"is_disabled":false,"rental_uris":{"android":"levelo://app?vid=91dc555f-23a9-45a6-ba5d-36cc3ff1765d","ios":"levelo://app?vid=91dc555f-23a9-45a6-ba5d-36cc3ff1765d"},"vehicle_type_id":"4","last_reported":1747566428,"current_range_meters":22800,"station_id":"ce4bhbh2rcd13ifvqepg","pricing_plan_id":"cebpf4jnsgd1na2vs0mg"},{"bike_id":"e0540b4e-456a-4e62-8dc4-083e4833f834","system_id":"levelo_inurba_marseille","lat":43.29271,"lon":5.36847,"is_reserved":false,"is_disabled":false,"rental_uris":{"android":"levelo://app?vid=e0540b4e-456a-4e62-8dc4-083e4833f834","ios":"levelo://app?vid=e0540b4e-456a-4e62-8dc4-083e4833f834"},"vehicle_type_id":"4","last_reported":1747566428,"current_range_meters":22800,"station_id":"ce4bhbp2rcd13ifvqesg","pricing_plan_id":"cebpf4jnsgd1na2vs0mg"},{"bike_id":"1548ee34-fdad-414b-bf94-f9bd697fbedf","system_id":"levelo_inurba_marseille","lat":43.295581,"lon":5.422814,"is_reserved":false,"is_disabled":false,"rental_uris":{"android":"levelo://app?vid=1548ee34-fdad-414b-bf94-f9bd697fbedf","ios":"levelo://app?vid=1548ee34-fdad-414b-bf94-f9bd697fbedf"},"vehicle_type_id":"4","last_reported":1747566428,"current_range_meters":22800,"station_id":"ce4bhph2rcd13ifvqhdg","pricing_plan_id":"cebpf4jnsgd1na2vs0mg"},{"bike_id":"9db921db-996e-49fe-8f0e-9179e3128715","system_id":"levelo_inurba_marseille","lat":43.23205,"lon":5.35555,"is_reserved":false,"is_disabled":false,"rental_uris":{"android":"levelo://app?vid=9db921db-996e-49fe-8f0e-9179e3128715","ios":"levelo://app?vid=9db921db-996e-49fe-8f0e-9179e3128715"},"vehicle_type_id":"4","last_reported":1747566428,"current_range_meters":22800,"station_id":"ce4bhu92rcd13ifvqi70","pricing_plan_id":"cebpf4jnsgd1na2vs0mg"},{"bike_id":"d9cb1ad1-3e0b-485e-a7e4-524209693c82","system_id":"levelo_inurba_marseille","lat":43.21178,"lon":5.35066,"is_reserved":false,"is_disabled":false,"rental_uris":{"android":"levelo://app?vid=d9cb1ad1-3e0b-485e-a7e4-524209693c82","ios":"levelo://app?vid=d9cb1ad1-3e0b-485e-a7e4-524209693c82"},"vehicle_type_id":"4","last_reported":1747566428,"current_range_meters":22800,"station_id":"st_cvj6sg6p6f1abm77japg","pricing_plan_id":"cebpf4jnsgd1na2vs0mg"},{"bike_id":"52426331-e9c8-4e3c-97b9-907fbe19b699","system_id":"levelo_inurba_marseille","lat":43.21199,"lon":5.35085,"is_reserved":false,"is_disabled":false,"rental_uris":{"android":"levelo://app?vid=52426331-e9c8-4e3c-97b9-907fbe19b699","ios":"levelo://app?vid=52426331-e9c8-4e3c-97b9-907fbe19b699"},"vehicle_type_id":"4","last_reported":1747566428,"current_range_meters":22800,"station_id":"st_cvj6sg6p6f1abm77japg","pricing_plan_id":"cebpf4jnsgd1na2vs0mg"},{"bike_id":"e6d8c1ee-cd26-4874-8bff-4c54748db744","system_id":"levelo_inurba_marseille","lat":43.29222,"lon":5.36049,"is_reserved":false,"is_disabled":false,"rental_uris":{"android":"levelo://app?vid=e6d8c1ee-cd26-4874-8bff-4c54748db744","ios":"levelo://app?vid=e6d8c1ee-cd26-4874-8bff-4c54748db744"},"vehicle_type_id":"4","last_reported":1747566428,"current_range_meters":23200,"station_id":"ce4bhbh2rcd13ifvqeqg","pricing_plan_id":"cebpf4jnsgd1na2vs0mg"},{"bike_id":"0e643cde-b0f3-47d7-a597-578be21483ca","system_id":"levelo_inurba_marseille","lat":43.28263,"lon":5.35068,"is_reserved":false,"is_disabled":false,"rental_uris":{"android":"levelo://app?vid=0e643cde-b0f3-47d7-a597-578be21483ca","ios":"levelo://app?vid=0e643cde-b0f3-47d7-a597-578be21483ca"},"vehicle_type_id":"4","last_reported":1747566428,"current_range_meters":23200,"station_id":"ce4bhbp2rcd13ifvqerg","pricing_plan_id":"cebpf4jnsgd1na2vs0mg"},{"bike_id":"2d969ab8-3ffc-422b-a36d-4ebde17b7ef2","system_id":"levelo_inurba_marseille","lat":43.323419,"lon":5.406124,"is_reserved":false,"is_disabled":false,"rental_uris":{"android":"levelo://app?vid=2d969ab8-3ffc-422b-a36d-4ebde17b7ef2","ios":"levelo://app?vid=2d969ab8-3ffc-422b-a36d-4ebde17b7ef2"},"vehicle_type_id":"4","last_reported":1747566428,"current_range_meters":23200,"station_id":"ce4bhq92rcd13ifvqhjg","pricing_plan_id":"cebpf4jnsgd1na2vs0mg"},{"bike_id":"5248f7e3-9830-4e57-9e5a-edf5e326aa53","system_id":"levelo_inurba_marseille","lat":43.29929,"lon":5.3654,"is_reserved":false,"is_disabled":false,"rental_uris":{"android":"levelo://app?vid=5248f7e3-9830-4e57-9e5a-edf5e326aa53","ios":"levelo://app?vid=5248f7e3-9830-4e57-9e5a-edf5e326aa53"},"vehicle_type_id":"4","last_reported":1747566428,"current_range_meters":24000,"station_id":"ce4bgm92rcd13ifvqbr0","pricing_plan_id":"cebpf4jnsgd1na2vs0mg"},{"bike_id":"e21fecc0-39af-42ab-bc24-442a53a77ad6","system_id":"levelo_inurba_marseille","lat":43.3014,"lon":5.37413,"is_reserved":false,"is_disabled":false,"rental_uris":{"android":"levelo://app?vid=e21fecc0-39af-42ab-bc24-442a53a77ad6","ios":"levelo://app?vid=e21fecc0-39af-42ab-bc24-442a53a77ad6"},"vehicle_type_id":"4","last_reported":1747566428,"current_range_meters":24000,"station_id":"ce4bgs92rcd13ifvqcc0","pricing_plan_id":"cebpf4jnsgd1na2vs0mg"},{"bike_id":"0f4039e6-8870-403b-a860-f8d6eaee0c26","system_id":"levelo_inurba_marseille","lat":43.30238,"lon":5.40045,"is_reserved":false,"is_disabled":false,"rental_uris":{"android":"levelo://app?vid=0f4039e6-8870-403b-a860-f8d6eaee0c26","ios":"levelo://app?vid=0f4039e6-8870-403b-a860-f8d6eaee0c26"},"vehicle_type_id":"4","last_reported":1747566428,"current_range_meters":24000,"station_id":"ce4bgvh2rcd13ifvqcs0","pricing_plan_id":"cebpf4jnsgd1na2vs0mg"},{"bike_id":"052e5d21-8783-4947-9d2b-ad7b4d555b4f","system_id":"levelo_inurba_marseille","lat":43.28416,"lon":5.34986,"is_reserved":false,"is_disabled":false,"rental_uris":{"android":"levelo://app?vid=052e5d21-8783-4947-9d2b-ad7b4d555b4f","ios":"levelo://app?vid=052e5d21-8783-4947-9d2b-ad7b4d555b4f"},"vehicle_type_id":"4","last_reported":1747566428,"current_range_meters":24000,"station_id":"ce4bhbh2rcd13ifvqepg","pricing_plan_id":"cebpf4jnsgd1na2vs0mg"},{"bike_id":"e555e7ed-0453-4968-8ae4-22b8e0c15bc0","system_id":"levelo_inurba_marseille","lat":43.28408,"lon":5.34996,"is_reserved":false,"is_disabled":false,"rental_uris":{"android":"levelo://app?vid=e555e7ed-0453-4968-8ae4-22b8e0c15bc0","ios":"levelo://app?vid=e555e7ed-0453-4968-8ae4-22b8e0c15bc0"},"vehicle_type_id":"4","last_reported":1747566428,"current_range_meters":24000,"station_id":"ce4bhbh2rcd13ifvqepg","pricing_plan_id":"cebpf4jnsgd1na2vs0mg"},{"bike_id":"55a68db6-f1a5-46da-8cb9-a1ef28e3961a","system_id":"levelo_inurba_marseille","lat":43.28276,"lon":5.35082,"is_reserved":false,"is_disabled":false,"rental_uris":{"android":"levelo://app?vid=55a68db6-f1a5-46da-8cb9-a1ef28e3961a","ios":"levelo://app?vid=55a68db6-f1a5-46da-8cb9-a1ef28e3961a"},"vehicle_type_id":"4","last_reported":1747566428,"current_range_meters":24000,"station_id":"ce4bhbp2rcd13ifvqerg","pricing_plan_id":"cebpf4jnsgd1na2vs0mg"},{"bike_id":"c507f4c6-6ebb-4f5e-bf8b-7a2219466529","system_id":"levelo_inurba_marseille","lat":43.24546,"lon":5.39507,"is_reserved":false,"is_disabled":false,"rental_uris":{"android":"levelo://app?vid=c507f4c6-6ebb-4f5e-bf8b-7a2219466529","ios":"levelo://app?vid=c507f4c6-6ebb-4f5e-bf8b-7a2219466529"},"vehicle_type_id":"4","last_reported":1747566428,"current_range_meters":24000,"station_id":"ce4bhlp2rcd13ifvqgjg","pricing_plan_id":"cebpf4jnsgd1na2vs0mg"},{"bike_id":"3fd20220-7263-48f1-b71a-df50746f1736","system_id":"levelo_inurba_marseille","lat":43.30531,"lon":5.36552,"is_reserved":false,"is_disabled":false,"rental_uris":{"android":"levelo://app?vid=3fd20220-7263-48f1-b71a-df50746f1736","ios":"levelo://app?vid=3fd20220-7263-48f1-b71a-df50746f1736"},"vehicle_type_id":"4","last_reported":1747566428,"current_range_meters":24400,"station_id":"ce4bgs12rcd13ifvqcag","pricing_plan_id":"cebpf4jnsgd1na2vs0mg"},{"bike_id":"a1478f82-892f-411e-a864-a068877c8e85","system_id":"levelo_inurba_marseille","lat":43.31112,"lon":5.37784,"is_reserved":false,"is_disabled":false,"rental_uris":{"android":"levelo://app?vid=a1478f82-892f-411e-a864-a068877c8e85","ios":"levelo://app?vid=a1478f82-892f-411e-a864-a068877c8e85"},"vehicle_type_id":"4","last_reported":1747566428,"current_range_meters":24400,"station_id":"ce4bgt92rcd13ifvqcg0","pricing_plan_id":"cebpf4jnsgd1na2vs0mg"},{"bike_id":"94792112-fc9c-49d5-807a-19cbc8c91013","system_id":"levelo_inurba_marseille","lat":43.28416,"lon":5.34975,"is_reserved":false,"is_disabled":false,"rental_uris":{"android":"levelo://app?vid=94792112-fc9c-49d5-807a-19cbc8c91013","ios":"levelo://app?vid=94792112-fc9c-49d5-807a-19cbc8c91013"},"vehicle_type_id":"4","last_reported":1747566428,"current_range_meters":24400,"station_id":"ce4bhbh2rcd13ifvqepg","pricing_plan_id":"cebpf4jnsgd1na2vs0mg"},{"bike_id":"cf8a375d-8ce1-49bc-be40-a9eb99f7dcb4","system_id":"levelo_inurba_marseille","lat":43.24545,"lon":5.39524,"is_reserved":false,"is_disabled":false,"rental_uris":{"android":"levelo://app?vid=cf8a375d-8ce1-49bc-be40-a9eb99f7dcb4","ios":"levelo://app?vid=cf8a375d-8ce1-49bc-be40-a9eb99f7dcb4"},"vehicle_type_id":"4","last_reported":1747566428,"current_range_meters":24400,"station_id":"ce4bhlp2rcd13ifvqgjg","pricing_plan_id":"cebpf4jnsgd1na2vs0mg"},{"bike_id":"43fdbb4a-06f1-4c16-a28c-8fe154dacb06","system_id":"levelo_inurba_marseille","lat":43.2317,"lon":5.39985,"is_reserved":false,"is_disabled":false,"rental_uris":{"android":"levelo://app?vid=43fdbb4a-06f1-4c16-a28c-8fe154dacb06","ios":"levelo://app?vid=43fdbb4a-06f1-4c16-a28c-8fe154dacb06"},"vehicle_type_id":"4","last_reported":1747566428,"current_range_meters":24400,"station_id":"ce4bhn12rcd13ifvqgqg","pricing_plan_id":"cebpf4jnsgd1na2vs0mg"},{"bike_id":"e7d21e43-34f5-43d0-ad9e-e6f4fd9f2ae8","system_id":"levelo_inurba_marseille","lat":43.27497,"lon":5.42443,"is_reserved":false,"is_disabled":false,"rental_uris":{"android":"levelo://app?vid=e7d21e43-34f5-43d0-ad9e-e6f4fd9f2ae8","ios":"levelo://app?vid=e7d21e43-34f5-43d0-ad9e-e6f4fd9f2ae8"},"vehicle_type_id":"4","last_reported":1747566428,"current_range_meters":24400,"station_id":"ce4bhn92rcd13ifvqgrg","pricing_plan_id":"cebpf4jnsgd1na2vs0mg"},{"bike_id":"abdae315-cdbe-4b72-a674-818a112932af","system_id":"levelo_inurba_marseille","lat":43.24388,"lon":5.37059,"is_reserved":false,"is_disabled":false,"rental_uris":{"android":"levelo://app?vid=abdae315-cdbe-4b72-a674-818a112932af","ios":"levelo://app?vid=abdae315-cdbe-4b72-a674-818a112932af"},"vehicle_type_id":"4","last_reported":1747566428,"current_range_meters":24800,"station_id":"ce4bhhh2rcd13ifvqfk0","pricing_plan_id":"cebpf4jnsgd1na2vs0mg"},{"bike_id":"af87ed38-df9c-44d2-99b8-9a4723deea18","system_id":"levelo_inurba_marseille","lat":43.24373,"lon":5.3706,"is_reserved":false,"is_disabled":false,"rental_uris":{"android":"levelo://app?vid=af87ed38-df9c-44d2-99b8-9a4723deea18","ios":"levelo://app?vid=af87ed38-df9c-44d2-99b8-9a4723deea18"},"vehicle_type_id":"4","last_reported":1747566428,"current_range_meters":24800,"station_id":"ce4bhhh2rcd13ifvqfk0","pricing_plan_id":"cebpf4jnsgd1na2vs0mg"},{"bike_id":"c7fa045b-8abd-4bd8-ac58-69864d07dca7","system_id":"levelo_inurba_marseille","lat":43.32114,"lon":5.36773,"is_reserved":false,"is_disabled":false,"rental_uris":{"android":"levelo://app?vid=c7fa045b-8abd-4bd8-ac58-69864d07dca7","ios":"levelo://app?vid=c7fa045b-8abd-4bd8-ac58-69864d07dca7"},