{"last_updated":1726265291,"ttl":30,"version":"2.2","data":{"bikes":[{"bike_id":"bc35aeaa-3e4d-43e6-9935-c8f1110a4b4c","system_id":"levelo_inurba_marseille","lat":43.30513,"lon":5.3669,"is_reserved":false,"is_disabled":false,"rental_uris":{"android":"levelo://app?vid=bc35aeaa-3e4d-43e6-9935-c8f1110a4b4c","ios":"levelo://app?vid=bc35aeaa-3e4d-43e6-9935-c8f1110a4b4c"},"vehicle_type_id":"4","last_reported":1726265291,"current_range_meters":36400,"station_id":"ce4bgrp2rcd13ifvqc9g","pricing_plan_id":"cebpf4jnsgd1na2vs0mg"},{"bike_id":"bc7c698c-70a7-4d45-8de4-c94801319b35","system_id":"levelo_inurba_marseille","lat":43.32372,"lon":5.38893,"is_reserved":false,"is_disabled":false,"rental_uris":{"android":"levelo://app?vid=bc7c698c-70a7-4d45-8de4-c94801319b35","ios":"levelo://app?vid=bc7c698c-70a7-4d45-8de4-c94801319b35"},"vehicle_type_id":"4","last_reported":1726265291,"current_range_meters":6800,"station_id":"ce4bhqp2rcd13ifvqhog","pricing_plan_id":"cebpf4jnsgd1na2vs0mg"},{"bike_id":"a98693b4-f3c8-4ee2-b3c7-942575976148","system_id":"levelo_inurba_marseille","lat":43.29005,"lon":5.35617,"is_reserved":false,"is_disabled":false,"rental_uris":{"android":"levelo://app?vid=a98693b4-f3c8-4ee2-b3c7-942575976148","ios":"levelo://app?vid=a98693b4-f3c8-4ee2-b3c7-942575976148"},"vehicle_type_id":"4","last_reported":1726265291,"current_range_meters":34800,"station_id":"ce4bhb92rcd13ifvqen0","pricing_plan_id":"cebpf4jnsgd1na2vs0mg"},{"bike_id":"1433cc86-19c5-4d38-a0b5-c5c087739e0a","system_id":"levelo_inurba_marseille","lat":43.22932,"lon":5.35374,"is_reserved":false,"is_disabled":false,"rental_uris":{"android":"levelo://app?vid=1433cc86-19c5-4d38-a0b5-c5c087739e0a","ios":"levelo://app?vid=1433cc86-19c5-4d38-a0b5-c5c087739e0a"},"vehicle_type_id":"4","last_reported":1726265291,"current_range_meters":28400,"station_id":"cpo3532slgdg3j2ikp40","pricing_plan_id":"cebpf4jnsgd1na2vs0mg"},{"bike_id":"67468702-002a-4df5-9012-9c567f0d2e31","system_id":"levelo_inurba_marseille","lat":43.31757,"lon":5.3901,"is_reserved":false,"is_disabled":false,"rental_uris":{"android":"levelo://app?vid=67468702-002a-4df5-9012-9c567f0d2e31","ios":"levelo://app?vid=67468702-002a-4df5-9012-9c567f0d2e31"},"vehicle_type_id":"4","last_reported":1726265291,"current_range_meters":35200,"station_id":"ce4bhqp2rcd13ifvqhng","pricing_plan_id":"cebpf4jnsgd1na2vs0mg"},{"bike_id":"083984dd-1abd-4a7d-84c6-e8ceb7b63abe","system_id":"levelo_inurba_marseille","lat":43.31094,"lon":5.3777,"is_reserved":false,"is_disabled":false,"rental_uris":{"android":"levelo://app?vid=083984dd-1abd-4a7d-84c6-e8ceb7b63abe","ios":"levelo://app?vid=083984dd-1abd-4a7d-84c6-e8ceb7b63abe"},"vehicle_type_id":"4","last_reported":1726265291,"current_range_meters":38000,"station_id":"ce4bgt92rcd13ifvqcg0","pricing_plan_id":"cebpf4jnsgd1na2vs0mg"},{"bike_id":"75a6dda6-fcbf-4944-9798-3e9cd89a32d1","system_id":"levelo_inurba_marseille","lat":43.30389,"lon":5.39724,"is_reserved":false,"is_disabled":false,"rental_uris":{"android":"levelo://app?vid=75a6dda6-fcbf-4944-9798-3e9cd89a32d1","ios":"levelo://app?vid=75a6dda6-fcbf-4944-9798-3e9cd89a32d1"},"vehicle_type_id":"4","last_reported":1726265291,"current_range_meters":4800,"station_id":"","pricing_plan_id":"cebpf4jnsgd1na2vs0mg"},{"bike_id":"f2aab370-6e0a-414f-a9aa-b82870be9ba4","system_id":"levelo_inurba_marseille","lat":43.28611,"lon":5.35103,"is_reserved":false,"is_disabled":false,"rental_uris":{"android":"levelo://app?vid=f2aab370-6e0a-414f-a9aa-b82870be9ba4","ios":"levelo://app?vid=f2aab370-6e0a-414f-a9aa-b82870be9ba4"},"vehicle_type_id":"4","last_reported":1726265291,"current_range_meters":19600,"station_id":"ce4bhch2rcd13ifvqeug","pricing_plan_id":"cebpf4jnsgd1na2vs0mg"},{"bike_id":"6166a61b-1bba-4734-8af6-77dc5dabf546","system_id":"levelo_inurba_marseille","lat":43.31991,"lon":5.38156,"is_reserved":false,"is_disabled":false,"rental_uris":{"android":"levelo://app?vid=6166a61b-1bba-4734-8af6-77dc5dabf546","ios":"levelo://app?vid=6166a61b-1bba-4734-8af6-77dc5dabf546"},"vehicle_type_id":"4","last_reported":1726265291,"current_range_meters":38800,"station_id":"ce4bhr12rcd13ifvqhpg","pricing_plan_id":"cebpf4jnsgd1na2vs0mg"},{"bike_id":"665f7f03-0587-4cd8-b27d-1a24a411b9f1","system_id":"levelo_inurba_marseille","lat":43.29535,"lon":5.38545,"is_reserved":false,"is_disabled":false,"rental_uris":{"android":"levelo://app?vid=665f7f03-0587-4cd8-b27d-1a24a411b9f1","ios":"levelo://app?vid=665f7f03-0587-4cd8-b27d-1a24a411b9f1"},"vehicle_type_id":"4","last_reported":1726265291,"current_range_meters":21600,"station_id":"ce4bgih2rcd13ifvqba0","pricing_plan_id":"cebpf4jnsgd1na2vs0mg"},{"bike_id":"9769237a-f4e8-4a9f-93a0-e8512c7ffb1d","system_id":"levelo_inurba_marseille","lat":43.33603,"lon":5.41032,"is_reserved":false,"is_disabled":false,"rental_uris":{"android":"levelo://app?vid=9769237a-f4e8-4a9f-93a0-e8512c7ffb1d","ios":"levelo://app?vid=9769237a-f4e8-4a9f-93a0-e8512c7ffb1d"},"vehicle_type_id":"4","last_reported":1726265291,"current_range_meters":38800,"station_id":"ce4bhqh2rcd13ifvqhmg","pricing_plan_id":"cebpf4jnsgd1na2vs0mg"},{"bike_id":"d362d51d-5366-4644-a1ab-ebb7c7522b7d","system_id":"levelo_inurba_marseille","lat":43.25827,"lon":5.39433,"is_reserved":false,"is_disabled":false,"rental_uris":{"android":"levelo://app?vid=d362d51d-5366-4644-a1ab-ebb7c7522b7d","ios":"levelo://app?vid=d362d51d-5366-4644-a1ab-ebb7c7522b7d"},"vehicle_type_id":"4","last_reported":1726265291,"current_range_meters":8000,"station_id":"ce4bhip2rcd13ifvqft0","pricing_plan_id":"cebpf4jnsgd1na2vs0mg"},{"bike_id":"c5ed8bab-12e3-4101-81bb-39350c57310d","system_id":"levelo_inurba_marseille","lat":43.24169,"lon":5.36399,"is_reserved":false,"is_disabled":false,"rental_uris":{"android":"levelo://app?vid=c5ed8bab-12e3-4101-81bb-39350c57310d","ios":"levelo://app?vid=c5ed8bab-12e3-4101-81bb-39350c57310d"},"vehicle_type_id":"4","last_reported":1726265291,"current_range_meters":36800,"station_id":"cpo36qri1sfpv3e86is0","pricing_plan_id":"cebpf4jnsgd1na2vs0mg"},{"bike_id":"57078c0b-9beb-4ca6-9619-12066e4ed91f","system_id":"levelo_inurba_marseille","lat":43.31763,"lon":5.39015,"is_reserved":false,"is_disabled":false,"rental_uris":{"android":"levelo://app?vid=57078c0b-9beb-4ca6-9619-12066e4ed91f","ios":"levelo://app?vid=57078c0b-9beb-4ca6-9619-12066e4ed91f"},"vehicle_type_id":"4","last_reported":1726265291,"current_range_meters":39200,"station_id":"ce4bhqp2rcd13ifvqhng","pricing_plan_id":"cebpf4jnsgd1na2vs0mg"},{"bike_id":"cb603b10-f62f-4c60-83e3-e6a1cf5abbcb","system_id":"levelo_inurba_marseille","lat":43.2925,"lon":5.40909,"is_reserved":false,"is_disabled":false,"rental_uris":{"android":"levelo://app?vid=cb603b10-f62f-4c60-83e3-e6a1cf5abbcb","ios":"levelo://app?vid=cb603b10-f62f-4c60-83e3-e6a1cf5abbcb"},"vehicle_type_id":"4","last_reported":1726265291,"current_range_meters":6400,"station_id":"ce4bh192rcd13ifvqdc0","pricing_plan_id":"cebpf4jnsgd1na2vs0mg"},{"bike_id":"34157813-bdb6-4fa9-830d-d41434e0f754","system_id":"levelo_inurba_marseille","lat":43.289275,"lon":5.383889,"is_reserved":false,"is_disabled":false,"rental_uris":{"android":"levelo://app?vid=34157813-bdb6-4fa9-830d-d41434e0f754","ios":"levelo://app?vid=34157813-bdb6-4fa9-830d-d41434e0f754"},"vehicle_type_id":"4","last_reported":1726265291,"current_range_meters":38800,"station_id":"ce4bh292rcd13ifvqdf0","pricing_plan_id":"cebpf4jnsgd1na2vs0mg"},{"bike_id":"13ec4916-f0ea-4897-8afc-596425b42c42","system_id":"levelo_inurba_marseille","lat":43.23197,"lon":5.35558,"is_reserved":false,"is_disabled":false,"rental_uris":{"android":"levelo://app?vid=13ec4916-f0ea-4897-8afc-596425b42c42","ios":"levelo://app?vid=13ec4916-f0ea-4897-8afc-596425b42c42"},"vehicle_type_id":"4","last_reported":1726265291,"current_range_meters":29600,"station_id":"ce4bhu92rcd13ifvqi70","pricing_plan_id":"cebpf4jnsgd1na2vs0mg"},{"bike_id":"627d97e3-ccf7-42a3-85b5-4116cfb34a5e","system_id":"levelo_inurba_marseille","lat":43.28457,"lon":5.35892,"is_reserved":false,"is_disabled":false,"rental_uris":{"android":"levelo://app?vid=627d97e3-ccf7-42a3-85b5-4116cfb34a5e","ios":"levelo://app?vid=627d97e3-ccf7-42a3-85b5-4116cfb34a5e"},"vehicle_type_id":"4","last_reported":1726265291,"current_range_meters":38800,"station_id":"ce4bhah2rcd13ifvqei0","pricing_plan_id":"cebpf4jnsgd1na2vs0mg"},{"bike_id":"cb0eaffb-2812-4bc5-9ace-6454d6cac3eb","system_id":"levelo_inurba_marseille","lat":43.28613,"lon":5.35105,"is_reserved":false,"is_disabled":false,"rental_uris":{"android":"levelo://app?vid=cb0eaffb-2812-4bc5-9ace-6454d6cac3eb","ios":"levelo://app?vid=cb0eaffb-2812-4bc5-9ace-6454d6cac3eb"},"vehicle_type_id":"4","last_reported":1726265291,"current_range_meters":27200,"station_id":"ce4bhch2rcd13ifvqeug","pricing_plan_id":"cebpf4jnsgd1na2vs0mg"},{"bike_id":"dc21080f-fbe7-4082-b2da-a8866ca2414f","system_id":"levelo_inurba_marseille","lat":43.295011,"lon":5.375165,"is_reserved":false,"is_disabled":false,"rental_uris":{"android":"levelo://app?vid=dc21080f-fbe7-4082-b2da-a8866ca2414f","ios":"levelo://app?vid=dc21080f-fbe7-4082-b2da-a8866ca2414f"},"vehicle_type_id":"4","last_reported":1726265291,"current_range_meters":36800,"station_id":"ce4bgkp2rcd13ifvqbmg","pricing_plan_id":"cebpf4jnsgd1na2vs0mg"},{"bike_id":"3f1e932a-540c-4c5d-a4f8-ac49240977b8","system_id":"levelo_inurba_marseille","lat":43.24386,"lon":5.3706,"is_reserved":false,"is_disabled":false,"rental_uris":{"android":"levelo://app?vid=3f1e932a-540c-4c5d-a4f8-ac49240977b8","ios":"levelo://app?vid=3f1e932a-540c-4c5d-a4f8-ac49240977b8"},"vehicle_type_id":"4","last_reported":1726265291,"current_range_meters":27200,"station_id":"ce4bhhh2rcd13ifvqfk0","pricing_plan_id":"cebpf4jnsgd1na2vs0mg"},{"bike_id":"1b69e28d-b657-4802-b5dd-aa17fb5a768b","system_id":"levelo_inurba_marseille","lat":43.27126,"lon":5.42792,"is_reserved":false,"is_disabled":false,"rental_uris":{"android":"levelo://app?vid=1b69e28d-b657-4802-b5dd-aa17fb5a768b","ios":"levelo://app?vid=1b69e28d-b657-4802-b5dd-aa17fb5a768b"},"vehicle_type_id":"4","last_reported":1726265291,"current_range_meters":28800,"station_id":"","pricing_plan_id":"cebpf4jnsgd1na2vs0mg"},{"bike_id":"6c4b8086-90f2-460d-95e8-81a770bc4a47","system_id":"levelo_inurba_marseille","lat":43.2466,"lon":5.38164,"is_reserved":false,"is_disabled":false,"rental_uris":{"android":"levelo://app?vid=6c4b8086-90f2-460d-95e8-81a770bc4a47","ios":"levelo://app?vid=6c4b8086-90f2-460d-95e8-81a770bc4a47"},"vehicle_type_id":"4","last_reported":1726265291,"current_range_meters":32400,"station_id":"ce4bhih2rcd13ifvqfr0","pricing_plan_id":"cebpf4jnsgd1na2vs0mg"},{"bike_id":"ced2f676-ca95-4355-b6d0-b6b9db164111","system_id":"levelo_inurba_marseille","lat":43.31076,"lon":5.38365,"is_reserved":false,"is_disabled":false,"rental_uris":{"android":"levelo://app?vid=ced2f676-ca95-4355-b6d0-b6b9db164111","ios":"levelo://app?vid=ced2f676-ca95-4355-b6d0-b6b9db164111"},"vehicle_type_id":"4","last_reported":1726265291,"current_range_meters":34800,"station_id":"ce4bgv92rcd13ifvqcr0","pricing_plan_id":"cebpf4jnsgd1na2vs0mg"},{"bike_id":"70188dea-4ede-4e32-9e79-e30f57dedd7f","system_id":"levelo_inurba_marseille","lat":43.28251,"lon":5.37276,"is_reserved":false,"is_disabled":false,"rental_uris":{"android":"levelo://app?vid=70188dea-4ede-4e32-9e79-e30f57dedd7f","ios":"levelo://app?vid=70188dea-4ede-4e32-9e79-e30f57dedd7f"},"vehicle_type_id":"4","last_reported":1726265291,"current_range_meters":29600,"station_id":"","pricing_plan_id":"cebpf4jnsgd1na2vs0mg"},{"bike_id":"056a99de-30e4-404e-98ae-496232b2fa5a","system_id":"levelo_inurba_marseille","lat":43.23193,"lon":5.35551,"is_reserved":false,"is_disabled":false,"rental_uris":{"android":"levelo://app?vid=056a99de-30e4-404e-98ae-496232b2fa5a","ios":"levelo://app?vid=056a99de-30e4-404e-98ae-496232b2fa5a"},"vehicle_type_id":"4","last_reported":1726265291,"current_range_meters":26800,"station_id":"ce4bgs92rcd13ifvqcc0","pricing_plan_id":"cebpf4jnsgd1na2vs0mg"},{"bike_id":"995d3a7e-289e-4ebd-b785-9d2da426ad57","system_id":"levelo_inurba_marseille","lat":43.23192,"lon":5.35548,"is_reserved":false,"is_disabled":false,"rental_uris":{"android":"levelo://app?vid=995d3a7e-289e-4ebd-b785-9d2da426ad57","ios":"levelo://app?vid=995d3a7e-289e-4ebd-b785-9d2da426ad57"},"vehicle_type_id":"4","last_reported":1726265291,"current_range_meters":24400,"station_id":"ce4bhu92rcd13ifvqi70","pricing_plan_id":"cebpf4jnsgd1na2vs0mg"},{"bike_id":"74c67d55-8a5f-40c9-8066-d68354718f8c","system_id":"levelo_inurba_marseille","lat":43.23199,"lon":5.35556,"is_reserved":false,"is_disabled":false,"rental_uris":{"android":"levelo://app?vid=74c67d55-8a5f-40c9-8066-d68354718f8c","ios":"levelo://app?vid=74c67d55-8a5f-40c9-8066-d68354718f8c"},"vehicle_type_id":"4","last_reported":1726265291,"current_range_meters":28000,"station_id":"ce4bhu92rcd13ifvqi70","pricing_plan_id":"cebpf4jnsgd1na2vs0mg"},{"bike_id":"7fd6c56d-63ac-410d-9d96-d655d8f53637","system_id":"levelo_inurba_marseille","lat":43.31712,"lon":5.37752,"is_reserved":false,"is_disabled":false,"rental_uris":{"android":"levelo://app?vid=7fd6c56d-63ac-410d-9d96-d655d8f53637","ios":"levelo://app?vid=7fd6c56d-63ac-410d-9d96-d655d8f53637"},"vehicle_type_id":"4","last_reported":1726265291,"current_range_meters":36800,"station_id":"ce4bgth2rcd13ifvqch0","pricing_plan_id":"cebpf4jnsgd1na2vs0mg"},{"bike_id":"59e3dff8-ce95-4a6d-ac6d-15cf2c0dfbbe","system_id":"levelo_inurba_marseille","lat":43.25866,"lon":5.39901,"is_reserved":false,"is_disabled":false,"rental_uris":{"android":"levelo://app?vid=59e3dff8-ce95-4a6d-ac6d-15cf2c0dfbbe","ios":"levelo://app?vid=59e3dff8-ce95-4a6d-ac6d-15cf2c0dfbbe"},"vehicle_type_id":"4","last_reported":1726265291,"current_range_meters":23200,"station_id":"ce4bhl92rcd13ifvqghg","pricing_plan_id":"cebpf4jnsgd1na2vs0mg"},{"bike_id":"be109727-23a3-4490-ad44-58510071a453","system_id":"levelo_inurba_marseille","lat":43.2721,"lon":5.39183,"is_reserved":false,"is_disabled":false,"rental_uris":{"android":"levelo://app?vid=be109727-23a3-4490-ad44-58510071a453","ios":"levelo://app?vid=be109727-23a3-4490-ad44-58510071a453"},"vehicle_type_id":"4","last_reported":1726265291,"current_range_meters":8000,"station_id":"ce4bhhp2rcd13ifvqfm0","pricing_plan_id":"cebpf4jnsgd1na2vs0mg"},{"bike_id":"24674f4b-bcb6-4d3e-a74d-7d8a6acb125c","system_id":"levelo_inurba_marseille","lat":43.24996,"lon":5.38932,"is_reserved":false,"is_disabled":false,"rental_uris":{"android":"levelo://app?vid=24674f4b-bcb6-4d3e-a74d-7d8a6acb125c","ios":"levelo://app?vid=24674f4b-bcb6-4d3e-a74d-7d8a6acb125c"},"vehicle_type_id":"4","last_reported":1726265291,"current_range_meters":36000,"station_id":"ce4bhgp2rcd13ifvqfd0","pricing_plan_id":"cebpf4jnsgd1na2vs0mg"},{"bike_id":"0f023b69-e873-4b90-9b0e-75abc98ffba8","system_id":"levelo_inurba_marseille","lat":43.29621,"lon":5.37161,"is_reserved":false,"is_disabled":false,"rental_uris":{"android":"levelo://app?vid=0f023b69-e873-4b90-9b0e-75abc98ffba8","ios":"levelo://app?vid=0f023b69-e873-4b90-9b0e-75abc98ffba8"},"vehicle_type_id":"4","last_reported":1726265291,"current_range_meters":35600,"station_id":"ce4bgnh2rcd13ifvqc0g","pricing_plan_id":"cebpf4jnsgd1na2vs0mg"},{"bike_id":"42e51b56-d790-400e-9c05-9e98b4c8c5ad","system_id":"levelo_inurba_marseille","lat":43.24073,"lon":5.37757,"is_reserved":false,"is_disabled":false,"rental_uris":{"android":"levelo://app?vid=42e51b56-d790-400e-9c05-9e98b4c8c5ad","ios":"levelo://app?vid=42e51b56-d790-400e-9c05-9e98b4c8c5ad"},"vehicle_type_id":"4","last_reported":1726265291,"current_range_meters":14400,"station_id":"ce4bhnp2rcd13ifvqgvg","pricing_plan_id":"cebpf4jnsgd1na2vs0mg"},{"bike_id":"52b9a67a-f44f-42af-9b5c-b23b16eb7ba0","system_id":"levelo_inurba_marseille","lat":43.29017,"lon":5.38639,"is_reserved":false,"is_disabled":false,"rental_uris":{"android":"levelo://app?vid=52b9a67a-f44f-42af-9b5c-b23b16eb7ba0","ios":"levelo://app?vid=52b9a67a-f44f-42af-9b5c-b23b16eb7ba0"},"vehicle_type_id":"4","last_reported":1726265291,"current_range_meters":30400,"station_id":"ce4bh4p2rcd13ifvqe0g","pricing_plan_id":"cebpf4jnsgd1na2vs0mg"},{"bike_id":"6267baa5-f35c-4311-91c4-71f926f47f2c","system_id":"levelo_inurba_marseille","lat":43.29746,"lon":5.37909,"is_reserved":false,"is_disabled":false,"rental_uris":{"android":"levelo://app?vid=6267baa5-f35c-4311-91c4-71f926f47f2c","ios":"levelo://app?vid=6267baa5-f35c-4311-91c4-71f926f47f2c"},"vehicle_type_id":"4","last_reported":1726265291,"current_range_meters":6400,"station_id":"","pricing_plan_id":"cebpf4jnsgd1na2vs0mg"},{"bike_id":"e1b7e339-05d0-4021-893d-95da1d1b4f3e","system_id":"levelo_inurba_marseille","lat":43.280761,"lon":5.396571,"is_reserved":false,"is_disabled":false,"rental_uris":{"android":"levelo://app?vid=e1b7e339-05d0-4021-893d-95da1d1b4f3e","ios":"levelo://app?vid=e1b7e339-05d0-4021-893d-95da1d1b4f3e"},"vehicle_type_id":"4","last_reported":1726265291,"current_range_meters":31200,"station_id":"ce4bho12rcd13ifvqh2g","pricing_plan_id":"cebpf4jnsgd1na2vs0mg"},{"bike_id":"0fa9fa71-30b8-46ec-b1b1-ecb8f2f13bc6","system_id":"levelo_inurba_marseille","lat":43.28478,"lon":5.38407,"is_reserved":false,"is_disabled":false,"rental_uris":{"android":"levelo://app?vid=0fa9fa71-30b8-46ec-b1b1-ecb8f2f13bc6","ios":"levelo://app?vid=0fa9fa71-30b8-46ec-b1b1-ecb8f2f13bc6"},"vehicle_type_id":"4","last_reported":1726265291,"current_range_meters":32000,"station_id":"ce4bh512rcd13ifvqe3g","pricing_plan_id":"cebpf4jnsgd1na2vs0mg"},{"bike_id":"e6bea8cd-bd1a-48c2-8a52-de5e2a98c0f4","system_id":"levelo_inurba_marseille","lat":43.2594,"lon":5.40903,"is_reserved":false,"is_disabled":false,"rental_uris":{"android":"levelo://app?vid=e6bea8cd-bd1a-48c2-8a52-de5e2a98c0f4","ios":"levelo://app?vid=e6bea8cd-bd1a-48c2-8a52-de5e2a98c0f4"},"vehicle_type_id":"4","last_reported":1726265291,"current_range_meters":36000,"station_id":"ce4bhm92rcd13ifvqglg","pricing_plan_id":"cebpf4jnsgd1na2vs0mg"},{"bike_id":"11ce11f2-c453-48ec-9a01-f794fee1e582","system_id":"levelo_inurba_marseille","lat":43.32991,"lon":5.39048,"is_reserved":false,"is_disabled":false,"rental_uris":{"android":"levelo://app?vid=11ce11f2-c453-48ec-9a01-f794fee1e582","ios":"levelo://app?vid=11ce11f2-c453-48ec-9a01-f794fee1e582"},"vehicle_type_id":"4","last_reported":1726265291,"current_range_meters":18000,"station_id":"ce4bhr92rcd13ifvqhrg","pricing_plan_id":"cebpf4jnsgd1na2vs0mg"},{"bike_id":"44f09c39-e560-4787-855a-6c24192c7f7b","system_id":"levelo_inurba_marseille","lat":43.33022,"lon":5.39039,"is_reserved":false,"is_disabled":false,"rental_uris":{"android":"levelo://app?vid=44f09c39-e560-4787-855a-6c24192c7f7b","ios":"levelo://app?vid=44f09c39-e560-4787-855a-6c24192c7f7b"},"vehicle_type_id":"4","last_reported":1726265291,"current_range_meters":24400,"station_id":"ce4bhr92rcd13ifvqhrg","pricing_plan_id":"cebpf4jnsgd1na2vs0mg"},{"bike_id":"23cfe7eb-e2bb-419a-8564-ab866b6255e0","system_id":"levelo_inurba_marseille","lat":43.24189,"lon":5.39725,"is_reserved":false,"is_disabled":false,"rental_uris":{"android":"levelo://app?vid=23cfe7eb-e2bb-419a-8564-ab866b6255e0","ios":"levelo://app?vid=23cfe7eb-e2bb-419a-8564-ab866b6255e0"},"vehicle_type_id":"4","last_reported":1726265291,"current_range_meters":38800,"station_id":"ce4bhn12rcd13ifvqgpg","pricing_plan_id":"cebpf4jnsgd1na2vs0mg"},{"bike_id":"3bcbc1d5-4164-4b98-9d95-f1d5f8c34a75","system_id":"levelo_inurba_marseille","lat":43.27493,"lon":5.42452,"is_reserved":false,"is_disabled":false,"rental_uris":{"android":"levelo://app?vid=3bcbc1d5-4164-4b98-9d95-f1d5f8c34a75","ios":"levelo://app?vid=3bcbc1d5-4164-4b98-9d95-f1d5f8c34a75"},"vehicle_type_id":"4","last_reported":1726265291,"current_range_meters":17600,"station_id":"ce4bhn92rcd13ifvqgrg","pricing_plan_id":"cebpf4jnsgd1na2vs0mg"},{"bike_id":"2a089944-b1a6-45af-99d1-9b70add064d3","system_id":"levelo_inurba_marseille","lat":43.24812,"lon":5.37461,"is_reserved":false,"is_disabled":false,"rental_uris":{"android":"levelo://app?vid=2a089944-b1a6-45af-99d1-9b70add064d3","ios":"levelo://app?vid=2a089944-b1a6-45af-99d1-9b70add064d3"},"vehicle_type_id":"4","last_reported":1726265291,"current_range_meters":14400,"station_id":"ce4bhgh2rcd13ifvqfb0","pricing_plan_id":"cebpf4jnsgd1na2vs0mg"},{"bike_id":"34721204-9cc8-4128-8304-5b698c26b1e6","system_id":"levelo_inurba_marseille","lat":43.23187,"lon":5.39984,"is_reserved":false,"is_disabled":false,"rental_uris":{"android":"levelo://app?vid=34721204-9cc8-4128-8304-5b698c26b1e6","ios":"levelo://app?vid=34721204-9cc8-4128-8304-5b698c26b1e6"},"vehicle_type_id":"4","last_reported":1726265291,"current_range_meters":38800,"station_id":"ce4bhn12rcd13ifvqgqg","pricing_plan_id":"cebpf4jnsgd1na2vs0mg"},{"bike_id":"8a405b78-72cd-40ea-92f3-99b1759848ad","system_id":"levelo_inurba_marseille","lat":43.28031,"lon":5.36945,"is_reserved":false,"is_disabled":false,"rental_uris":{"android":"levelo://app?vid=8a405b78-72cd-40ea-92f3-99b1759848ad","ios":"levelo://app?vid=8a405b78-72cd-40ea-92f3-99b1759848ad"},"vehicle_type_id":"4","last_reported":1726265291,"current_range_meters":16000,"station_id":"ce4bha12rcd13ifvqef0","pricing_plan_id":"cebpf4jnsgd1na2vs0mg"},{"bike_id":"0124e22a-940d-4592-a669-5febf603375d","system_id":"levelo_inurba_marseille","lat":43.28073,"lon":5.39649,"is_reserved":false,"is_disabled":false,"rental_uris":{"android":"levelo://app?vid=0124e22a-940d-4592-a669-5febf603375d","ios":"levelo://app?vid=0124e22a-940d-4592-a669-5febf603375d"},"vehicle_type_id":"4","last_reported":1726265291,"current_range_meters":34000,"station_id":"ce4bho12rcd13ifvqh2g","pricing_plan_id":"cebpf4jnsgd1na2vs0mg"},{"bike_id":"39b86749-80ef-4310-953b-c60370086942","system_id":"levelo_inurba_marseille","lat":43.24545,"lon":5.39525,"is_reserved":false,"is_disabled":false,"rental_uris":{"android":"levelo://app?vid=39b86749-80ef-4310-953b-c60370086942","ios":"levelo://app?vid=39b86749-80ef-4310-953b-c60370086942"},"vehicle_type_id":"4","last_reported":1726265291,"current_range_meters":28400,"station_id":"ce4bhlp2rcd13ifvqgjg","pricing_plan_id":"cebpf4jnsgd1na2vs0mg"},{"bike_id":"6a8f2f10-9a94-4930-acf4-9d3abaa17531","system_id":"levelo_inurba_marseille","lat":43.255,"lon":5.37651,"is_reserved":false,"is_disabled":false,"rental_uris":{"android":"levelo://app?vid=6a8f2f10-9a94-4930-acf4-9d3abaa17531","ios":"levelo://app?vid=6a8f2f10-9a94-4930-acf4-9d3abaa17531"},"vehicle_type_id":"4","last_reported":1726265291,"current_range_meters":35600,"station_id":"ce4bhh12rcd13ifvqff0","pricing_plan_id":"cebpf4jnsgd1na2vs0mg"},{"bike_id":"c66e6b79-9c9e-45e6-a38b-f24929cfdd6a","system_id":"levelo_inurba_marseille","lat":43.28567,"lon":5.3949,"is_reserved":false,"is_disabled":false,"rental_uris":{"android":"levelo://app?vid=c66e6b79-9c9e-45e6-a38b-f24929cfdd6a","ios":"levelo://app?vid=c66e6b79-9c9e-45e6-a38b-f24929cfdd6a"},"vehicle_type_id":"4","last_reported":1726265291,"current_range_meters":29600,"station_id":"ce4bh292rcd13ifvqdg0","pricing_plan_id":"cebpf4jnsgd1na2vs0mg"},{"bike_id":"483c51ab-5fd2-4f21-822e-bb759562225e","system_id":"levelo_inurba_marseille","lat":43.28708,"lon":5.39985,"is_reserved":false,"is_disabled":false,"rental_uris":{"android":"levelo://app?vid=483c51ab-5fd2-4f21-822e-bb759562225e","ios":"levelo://app?vid=483c51ab-5fd2-4f21-822e-bb759562225e"},"vehicle_type_id":"4","last_reported":1726265291,"current_range_meters":38000,"station_id":"ce4bho92rcd13ifvqh3g","pricing_plan_id":"cebpf4jnsgd1na2vs0mg"},{"bike_id":"603705be-7d8f-4382-ab4c-d8b9ebc216e1","system_id":"levelo_inurba_marseille","lat":43.292,"lon":5.39318,"is_reserved":false,"is_disabled":false,"rental_uris":{"android":"levelo://app?vid=603705be-7d8f-4382-ab4c-d8b9ebc216e1","ios":"levelo://app?vid=603705be-7d8f-4382-ab4c-d8b9ebc216e1"},"vehicle_type_id":"4","last_reported":1726265291,"current_range_meters":18000,"station_id":"ce4bh192rcd13ifvqdd0","pricing_plan_id":"cebpf4jnsgd1na2vs0mg"},{"bike_id":"148ffffa-d147-44e1-bbf1-392cc4e31e96","system_id":"levelo_inurba_marseille","lat":43.3127,"lon":5.40163,"is_reserved":false,"is_disabled":false,"rental_uris":{"android":"levelo://app?vid=148ffffa-d147-44e1-bbf1-392cc4e31e96","ios":"levelo://app?vid=148ffffa-d147-44e1-bbf1-392cc4e31e96"},"vehicle_type_id":"4","last_reported":1726265291,"current_range_meters":37600,"station_id":"ce4bh092rcd13ifvqd30","pricing_plan_id":"cebpf4jnsgd1na2vs0mg"},{"bike_id":"acb4473c-f793-440a-9c76-0eca7b03c7c3","system_id":"levelo_inurba_marseille","lat":43.27659,"lon":5.38138,"is_reserved":false,"is_disabled":false,"rental_uris":{"android":"levelo://app?vid=acb4473c-f793-440a-9c76-0eca7b03c7c3","ios":"levelo://app?vid=acb4473c-f793-440a-9c76-0eca7b03c7c3"},"vehicle_type_id":"4","last_reported":1726265291,"current_range_meters":2800,"station_id":"","pricing_plan_id":"cebpf4jnsgd1na2vs0mg"},{"bike_id":"bd20c5bf-9bd5-4d8c-a67b-e5f5285fa0ee","system_id":"levelo_inurba_marseille","lat":43.289368,"lon":5.39628,"is_reserved":false,"is_disabled":false,"rental_uris":{"android":"levelo://app?vid=bd20c5bf-9bd5-4d8c-a67b-e5f5285fa0ee","ios":"levelo://app?vid=bd20c5bf-9bd5-4d8c-a67b-e5f5285fa0ee"},"vehicle_type_id":"4","last_reported":1726265291,"current_range_meters":6000,"station_id":"ce4bh3h2rcd13ifvqdn0","pricing_plan_id":"cebpf4jnsgd1na2vs0mg"},{"bike_id":"4977420a-67b1-4cf6-b7dd-1c881248bbc5","system_id":"levelo_inurba_marseille","lat":43.28459,"lon":5.3589,"is_reserved":false,"is_disabled":false,"rental_uris":{"android":"levelo://app?vid=4977420a-67b1-4cf6-b7dd-1c881248bbc5","ios":"levelo://app?vid=4977420a-67b1-4cf6-b7dd-1c881248bbc5"},"vehicle_type_id":"4","last_reported":1726265291,"current_range_meters":38800,"station_id":"ce4bhah2rcd13ifvqei0","pricing_plan_id":"cebpf4jnsgd1na2vs0mg"},{"bike_id":"0d9e139c-b91b-4d9a-a323-fba67f47547f","system_id":"levelo_inurba_marseille","lat":43.29005,"lon":5.35611,"is_reserved":false,"is_disabled":false,"rental_uris":{"android":"levelo://app?vid=0d9e139c-b91b-4d9a-a323-fba67f47547f","ios":"levelo://app?vid=0d9e139c-b91b-4d9a-a323-fba67f47547f"},"vehicle_type_id":"4","last_reported":1726265291,"current_range_meters":38800,"station_id":"ce4bhb92rcd13ifvqen0","pricing_plan_id":"cebpf4jnsgd1na2vs0mg"},{"bike_id":"cade2501-95bb-491a-b8de-c573db7615e8","system_id":"levelo_inurba_marseille","lat":43.27498,"lon":5.42451,"is_reserved":false,"is_disabled":false,"rental_uris":{"android":"levelo://app?vid=cade2501-95bb-491a-b8de-c573db7615e8","ios":"levelo://app?vid=cade2501-95bb-491a-b8de-c573db7615e8"},"vehicle_type_id":"4","last_reported":1726265291,"current_range_meters":30400,"station_id":"ce4bhn92rcd13ifvqgrg","pricing_plan_id":"cebpf4jnsgd1na2vs0mg"},{"bike_id":"cca28bcf-5218-415d-8f71-c19a7365d061","system_id":"levelo_inurba_marseille","lat":43.3189,"lon":5.4073,"is_reserved":false,"is_disabled":false,"rental_uris":{"android":"levelo://app?vid=cca28bcf-5218-415d-8f71-c19a7365d061","ios":"levelo://app?vid=cca28bcf-5218-415d-8f71-c19a7365d061"},"vehicle_type_id":"4","last_reported":1726265291,"current_range_meters":37600,"station_id":"ce4bhq12rcd13ifvqhig","pricing_plan_id":"cebpf4jnsgd1na2vs0mg"},{"bike_id":"92bd657b-9f7e-4930-9377-596f4523861c","system_id":"levelo_inurba_marseille","lat":43.30947,"lon":5.39039,"is_reserved":false,"is_disabled":false,"rental_uris":{"android":"levelo://app?vid=92bd657b-9f7e-4930-9377-596f4523861c","ios":"levelo://app?vid=92bd657b-9f7e-4930-9377-596f4523861c"},"vehicle_type_id":"4","last_reported":1726265291,"current_range_meters":34800,"station_id":"ce4bgup2rcd13ifvqco0","pricing_plan_id":"cebpf4jnsgd1na2vs0mg"},{"bike_id":"c2c604f7-eb51-4aa5-9951-edb0db530c24","system_id":"levelo_inurba_marseille","lat":43.28843,"lon":5.39312,"is_reserved":false,"is_disabled":false,"rental_uris":{"android":"levelo://app?vid=c2c604f7-eb51-4aa5-9951-edb0db530c24","ios":"levelo://app?vid=c2c604f7-eb51-4aa5-9951-edb0db530c24"},"vehicle_type_id":"4","last_reported":1726265291,"current_range_meters":38000,"station_id":"ce4bh2p2rcd13ifvqdi0","pricing_plan_id":"cebpf4jnsgd1na2vs0mg"},{"bike_id":"375b9c96-334e-45b0-a33f-e5275ba3d2ad","system_id":"levelo_inurba_marseille","lat":43.23184,"lon":5.39987,"is_reserved":false,"is_disabled":false,"rental_uris":{"android":"levelo://app?vid=375b9c96-334e-45b0-a33f-e5275ba3d2ad","ios":"levelo://app?vid=375b9c96-334e-45b0-a33f-e5275ba3d2ad"},"vehicle_type_id":"4","last_reported":1726265291,"current_range_meters":16000,"station_id":"ce4bhn12rcd13ifvqgqg","pricing_plan_id":"cebpf4jnsgd1na2vs0mg"},{"bike_id":"02beda36-9c11-42fc-840e-2c5ae11bb557","system_id":"levelo_inurba_marseille","lat":43.29576,"lon":5.39986,"is_reserved":false,"is_disabled":false,"rental_uris":{"android":"levelo://app?vid=02beda36-9c11-42fc-840e-2c5ae11bb557","ios":"levelo://app?vid=02beda36-9c11-42fc-840e-2c5ae11bb557"},"vehicle_type_id":"4","last_reported":1726265291,"current_range_meters":27200,"station_id":"ce4bh312rcd13ifvqdj0","pricing_plan_id":"cebpf4jnsgd1na2vs0mg"},{"bike_id":"eaf3218e-3b2a-4dde-9c15-99a6c4254e56","system_id":"levelo_inurba_marseille","lat":43.29898,"lon":5.43662,"is_reserved":false,"is_disabled":false,"rental_uris":{"android":"levelo://app?vid=eaf3218e-3b2a-4dde-9c15-99a6c4254e56","ios":"levelo://app?vid=eaf3218e-3b2a-4dde-9c15-99a6c4254e56"},"vehicle_type_id":"4","last_reported":1726265291,"current_range_meters":38800,"station_id":"ce4bhpp2rcd13ifvqhfg","pricing_plan_id":"cebpf4jnsgd1na2vs0mg"},{"bike_id":"cc91c4a7-bbd2-479b-a226-435d8f87b5a5","system_id":"levelo_inurba_marseille","lat":43.29425,"lon":5.38623,"is_reserved":false,"is_disabled":false,"rental_uris":{"android":"levelo://app?vid=cc91c4a7-bbd2-479b-a226-435d8f87b5a5","ios":"levelo://app?vid=cc91c4a7-bbd2-479b-a226-435d8f87b5a5"},"vehicle_type_id":"4","last_reported":1726265291,"current_range_meters":36000,"station_id":"ce4bh2h2rcd13ifvqdh0","pricing_plan_id":"cebpf4jnsgd1na2vs0mg"},{"bike_id":"578fe535-1ca5-46e4-9e6c-f0e8aa8560bc","system_id":"levelo_inurba_marseille","lat":43.32366,"lon":5.38881,"is_reserved":false,"is_disabled":false,"rental_uris":{"android":"levelo://app?vid=578fe535-1ca5-46e4-9e6c-f0e8aa8560bc","ios":"levelo://app?vid=578fe535-1ca5-46e4-9e6c-f0e8aa8560bc"},"vehicle_type_id":"4","last_reported":1726265291,"current_range_meters":14400,"station_id":"ce4bhqp2rcd13ifvqhog","pricing_plan_id":"cebpf4jnsgd1na2vs0mg"},{"bike_id":"fa3f6f9c-da95-4cc1-a274-3eeb35012c31","system_id":"levelo_inurba_marseille","lat":43.31714,"lon":5.43707,"is_reserved":false,"is_disabled":false,"rental_uris":{"android":"levelo://app?vid=fa3f6f9c-da95-4cc1-a274-3eeb35012c31","ios":"levelo://app?vid=fa3f6f9c-da95-4cc1-a274-3eeb35012c31"},"vehicle_type_id":"4","last_reported":1726265291,"current_range_meters":23200,"station_id":"ce4bhp92rcd13ifvqhcg","pricing_plan_id":"cebpf4jnsgd1na2vs0mg"},{"bike_id":"16ca6d91-7513-415c-9a61-5d33eb8ad677","system_id":"levelo_inurba_marseille","lat":43.22937,"lon":5.35375,"is_reserved":false,"is_disabled":false,"rental_uris":{"android":"levelo://app?vid=16ca6d91-7513-415c-9a61-5d33eb8ad677","ios":"levelo://app?vid=16ca6d91-7513-415c-9a61-5d33eb8ad677"},"vehicle_type_id":"4","last_reported":1726265291,"current_range_meters":25200,"station_id":"cpo3532slgdg3j2ikp40","pricing_plan_id":"cebpf4jnsgd1na2vs0mg"},{"bike_id":"6159fd17-4f87-4755-b1ab-388c9035499e","system_id":"levelo_inurba_marseille","lat":43.29409,"lon":5.38629,"is_reserved":false,"is_disabled":false,"rental_uris":{"android":"levelo://app?vid=6159fd17-4f87-4755-b1ab-388c9035499e","ios":"levelo://app?vid=6159fd17-4f87-4755-b1ab-388c9035499e"},"vehicle_type_id":"4","last_reported":1726265291,"current_range_meters":36800,"station_id":"ce4bh2h2rcd13ifvqdh0","pricing_plan_id":"cebpf4jnsgd1na2vs0mg"},{"bike_id":"92101611-57ac-40bd-81f9-9e6acd5327c3","system_id":"levelo_inurba_marseille","lat":43.24654,"lon":5.38894,"is_reserved":false,"is_disabled":false,"rental_uris":{"android":"levelo://app?vid=92101611-57ac-40bd-81f9-9e6acd5327c3","ios":"levelo://app?vid=92101611-57ac-40bd-81f9-9e6acd5327c3"},"vehicle_type_id":"4","last_reported":1726265291,"current_range_meters":37600,"station_id":"ce4bhg12rcd13ifvqf60","pricing_plan_id":"cebpf4jnsgd1na2vs0mg"},{"bike_id":"f9d1ac1b-87c8-4139-809a-95025296b991","system_id":"levelo_inurba_marseille","lat":43.23187,"lon":5.39983,"is_reserved":false,"is_disabled":false,"rental_uris":{"android":"levelo://app?vid=f9d1ac1b-87c8-4139-809a-95025296b991","ios":"levelo://app?vid=f9d1ac1b-87c8-4139-809a-95025296b991"},"vehicle_type_id":"4","last_reported":1726265291,"current_range_meters":38800,"station_id":"ce4bhn12rcd13ifvqgqg","pricing_plan_id":"cebpf4jnsgd1na2vs0mg"},{"bike_id":"c5465ea1-4e69-4539-880b-a7ffba1e41db","system_id":"levelo_inurba_marseille","lat":43.25726,"lon":5.41111,"is_reserved":false,"is_disabled":false,"rental_uris":{"android":"levelo://app?vid=c5465ea1-4e69-4539-880b-a7ffba1e41db","ios":"levelo://app?vid=c5465ea1-4e69-4539-880b-a7ffba1e41db"},"vehicle_type_id":"4","last_reported":1726265291,"current_range_meters":38000,"station_id":"ce4bhkp2rcd13ifvqgd0","pricing_plan_id":"cebpf4jnsgd1na2vs0mg"},{"bike_id":"f4c36463-ddf2-4e8a-90a8-c12391e72ce0","system_id":"levelo_inurba_marseille","lat":43.28263,"lon":5.35061,"is_reserved":false,"is_disabled":false,"rental_uris":{"android":"levelo://app?vid=f4c36463-ddf2-4e8a-90a8-c12391e72ce0","ios":"levelo://app?vid=f4c36463-ddf2-4e8a-90a8-c12391e72ce0"},"vehicle_type_id":"4","last_reported":1726265291,"current_range_meters":12800,"station_id":"ce4bhbp2rcd13ifvqerg","pricing_plan_id":"cebpf4jnsgd1na2vs0mg"},{"bike_id":"ce45b02b-b167-4654-b305-eb82cd566863","system_id":"levelo_inurba_marseille","lat":43.23192,"lon":5.35554,"is_reserved":false,"is_disabled":false,"rental_uris":{"android":"levelo://app?vid=ce45b02b-b167-4654-b305-eb82cd566863","ios":"levelo://app?vid=ce45b02b-b167-4654-b305-eb82cd566863"},"vehicle_type_id":"4","last_reported":1726265291,"current_range_meters":28400,"station_id":"ce4bhu92rcd13ifvqi70","pricing_plan_id":"cebpf4jnsgd1na2vs0mg"},{"bike_id":"b2187c5e-e621-4c54-be12-0be8ba1b2880","system_id":"levelo_inurba_marseille","lat":43.29421,"lon":5.38614,"is_reserved":false,"is_disabled":false,"rental_uris":{"android":"levelo://app?vid=b2187c5e-e621-4c54-be12-0be8ba1b2880","ios":"levelo://app?vid=b2187c5e-e621-4c54-be12-0be8ba1b2880"},"vehicle_type_id":"4","last_reported":1726265291,"current_range_meters":34000,"station_id":"ce4bh2h2rcd13ifvqdh0","pricing_plan_id":"cebpf4jnsgd1na2vs0mg"},{"bike_id":"43f91729-b23c-4f31-bdb2-8366483e8266","system_id":"levelo_inurba_marseille","lat":43.31271,"lon":5.40168,"is_reserved":false,"is_disabled":false,"rental_uris":{"android":"levelo://app?vid=43f91729-b23c-4f31-bdb2-8366483e8266","ios":"levelo://app?vid=43f91729-b23c-4f31-bdb2-8366483e8266"},"vehicle_type_id":"4","last_reported":1726265291,"current_range_meters":37600,"station_id":"ce4bh092rcd13ifvqd30","pricing_plan_id":"cebpf4jnsgd1na2vs0mg"},{"bike_id":"7daab2d3-1c23-41fa-98fe-4046e78ab47a","system_id":"levelo_inurba_marseille","lat":43.32331,"lon":5.40624,"is_reserved":false,"is_disabled":false,"rental_uris":{"android":"levelo://app?vid=7daab2d3-1c23-41fa-98fe-4046e78ab47a","ios":"levelo://app?vid=7daab2d3-1c23-41fa-98fe-4046e78ab47a"},"vehicle_type_id":"4","last_reported":1726265291,"current_range_meters":30800,"station_id":"ce4bhq92rcd13ifvqhjg","pricing_plan_id":"cebpf4jnsgd1na2vs0mg"},{"bike_id":"81e09287-c37e-48bf-84ca-c74098cac04e","system_id":"levelo_inurba_marseille","lat":43.31121,"lon":5.37762,"is_reserved":false,"is_disabled":false,"rental_uris":{"android":"levelo://app?vid=81e09287-c37e-48bf-84ca-c74098cac04e","ios":"levelo://app?vid=81e09287-c37e-48bf-84ca-c74098cac04e"},"vehicle_type_id":"4","last_reported":1726265291,"current_range_meters":33600,"station_id":"ce4bgt92rcd13ifvqcg0","pricing_plan_id":"cebpf4jnsgd1na2vs0mg"},{"bike_id":"43fdcb14-ac18-4289-83f9-be7bf1bd4e28","system_id":"levelo_inurba_marseille","lat":43.29001,"lon":5.35618,"is_reserved":false,"is_disabled":false,"rental_uris":{"android":"levelo://app?vid=43fdcb14-ac18-4289-83f9-be7bf1bd4e28","ios":"levelo://app?vid=43fdcb14-ac18-4289-83f9-be7bf1bd4e28"},"vehicle_type_id":"4","last_reported":1726265291,"current_range_meters":14400,"station_id":"ce4bhb92rcd13ifvqen0","pricing_plan_id":"cebpf4jnsgd1na2vs0mg"},{"bike_id":"6c81c337-dc6b-41ae-95e1-1d8e0c8b10d2","system_id":"levelo_inurba_marseille","lat":43.27662,"lon":5.38903,"is_reserved":false,"is_disabled":false,"rental_uris":{"android":"levelo://app?vid=6c81c337-dc6b-41ae-95e1-1d8e0c8b10d2","ios":"levelo://app?vid=6c81c337-dc6b-41ae-95e1-1d8e0c8b10d2"},"vehicle_type_id":"4","last_reported":1726265291,"current_range_meters":37600,"station_id":"ce4bhi12rcd13ifvqfo0","pricing_plan_id":"cebpf4jnsgd1na2vs0mg"},{"bike_id":"2cebddfb-7de5-494a-b5d6-dd1404705e1f","system_id":"levelo_inurba_marseille","lat":43.29968,"lon":5.38497,"is_reserved":false,"is_disabled":false,"rental_uris":{"android":"levelo://app?vid=2cebddfb-7de5-494a-b5d6-dd1404705e1f","ios":"levelo://app?vid=2cebddfb-7de5-494a-b5d6-dd1404705e1f"},"vehicle_type_id":"4","last_reported":1726265291,"current_range_meters":5600,"station_id":"ce4bgj92rcd13ifvqbd0","pricing_plan_id":"cebpf4jnsgd1na2vs0mg"},{"bike_id":"26db0265-0a91-4c66-8aa8-67a94f7eef0d","system_id":"levelo_inurba_marseille","lat":43.26939,"lon":5.40057,"is_reserved":false,"is_disabled":false,"rental_uris":{"android":"levelo://app?vid=26db0265-0a91-4c66-8aa8-67a94f7eef0d","ios":"levelo://app?vid=26db0265-0a91-4c66-8aa8-67a94f7eef0d"},"vehicle_type_id":"4","last_reported":1726265291,"current_range_meters":20400,"station_id":"","pricing_plan_id":"cebpf4jnsgd1na2vs0mg"},{"bike_id":"9b49fc06-69dc-4375-9bc8-2ab31283d424","system_id":"levelo_inurba_marseille","lat":43.29899,"lon":5.43659,"is_reserved":false,"is_disabled":false,"rental_uris":{"android":"levelo://app?vid=9b49fc06-69dc-4375-9bc8-2ab31283d424","ios":"levelo://app?vid=9b49fc06-69dc-4375-9bc8-2ab31283d424"},"vehicle_type_id":"4","last_reported":1726265291,"current_range_meters":36000,"station_id":"ce4bhpp2rcd13ifvqhfg","pricing_plan_id":"cebpf4jnsgd1na2vs0mg"},{"bike_id":"88f478f7-cd7f-4214-8a06-79642d50f26b","system_id":"levelo_inurba_marseille","lat":43.23962,"lon":5.3663,"is_reserved":false,"is_disabled":false,"rental_uris":{"android":"levelo://app?vid=88f478f7-cd7f-4214-8a06-79642d50f26b","ios":"levelo://app?vid=88f478f7-cd7f-4214-8a06-79642d50f26b"},"vehicle_type_id":"4","last_reported":1726265291,"current_range_meters":28000,"station_id":"ce4bhi12rcd13ifvqfp0","pricing_plan_id":"cebpf4jnsgd1na2vs0mg"},{"bike_id":"d81b309c-a20b-4503-90ea-fb932cbc3d2e","system_id":"levelo_inurba_marseille","lat":43.29044,"lon":5.35914,"is_reserved":false,"is_disabled":false,"rental_uris":{"android":"levelo://app?vid=d81b309c-a20b-4503-90ea-fb932cbc3d2e","ios":"levelo://app?vid=d81b309c-a20b-4503-90ea-fb932cbc3d2e"},"vehicle_type_id":"4","last_reported":1726265291,"current_range_meters":22400,"station_id":"ce4bha92rcd13ifvqeg0","pricing_plan_id":"cebpf4jnsgd1na2vs0mg"},{"bike_id":"c7cd67a6-2f65-43e6-9e58-1489cab32866","system_id":"levelo_inurba_marseille","lat":43.24163,"lon":5.36396,"is_reserved":false,"is_disabled":false,"rental_uris":{"android":"levelo://app?vid=c7cd67a6-2f65-43e6-9e58-1489cab32866","ios":"levelo://app?vid=c7cd67a6-2f65-43e6-9e58-1489cab32866"},"vehicle_type_id":"4","last_reported":1726265291,"current_range_meters":6800,"station_id":"cpo36qri1sfpv3e86is0","pricing_plan_id":"cebpf4jnsgd1na2vs0mg"},{"bike_id":"57f5eb88-52cc-441f-9282-b914e7106782","system_id":"levelo_inurba_marseille","lat":43.28032,"lon":5.36952,"is_reserved":false,"is_disabled":false,"rental_uris":{"android":"levelo://app?vid=57f5eb88-52cc-441f-9282-b914e7106782","ios":"levelo://app?vid=57f5eb88-52cc-441f-9282-b914e7106782"},"vehicle_type_id":"4","last_reported":1726265291,"current_range_meters":38800,"station_id":"ce4bha12rcd13ifvqef0","pricing_plan_id":"cebpf4jnsgd1na2vs0mg"},{"bike_id":"c0f3da36-41a4-4d48-9215-91aae2ba7df5","system_id":"levelo_inurba_marseille","lat":43.28359,"lon":5.38089,"is_reserved":false,"is_disabled":false,"rental_uris":{"android":"levelo://app?vid=c0f3da36-41a4-4d48-9215-91aae2ba7df5","ios":"levelo://app?vid=c0f3da36-41a4-4d48-9215-91aae2ba7df5"},"vehicle_type_id":"4","last_reported":1726265291,"current_range_meters":26000,"station_id":"ce4bh412rcd13ifvqdr0","pricing_plan_id":"cebpf4jnsgd1na2vs0mg"},{"bike_id":"e00d038a-00c7-4258-ab4b-259bdb081cfd","system_id":"levelo_inurba_marseille","lat":43.23191,"lon":5.35547,"is_reserved":false,"is_disabled":false,"rental_uris":{"android":"levelo://app?vid=e00d038a-00c7-4258-ab4b-259bdb081cfd","ios":"levelo://app?vid=e00d038a-00c7-4258-ab4b-259bdb081cfd"},"vehicle_type_id":"4","last_reported":1726265291,"current_range_meters":38800,"station_id":"ce4bhu92rcd13ifvqi70","pricing_plan_id":"cebpf4jnsgd1na2vs0mg"},{"bike_id":"4f847161-8733-40c0-9d1a-924c211b3057","system_id":"levelo_inurba_marseille","lat":43.23198,"lon":5.35544,"is_reserved":false,"is_disabled":false,"rental_uris":{"android":"levelo://app?vid=4f847161-8733-40c0-9d1a-924c211b3057","ios":"levelo://app?vid=4f847161-8733-40c0-9d1a-924c211b3057"},"vehicle_type_id":"4","last_reported":1726265291,"current_range_meters":38800,"station_id":"ce4bhu92rcd13ifvqi70","pricing_plan_id":"cebpf4jnsgd1na2vs0mg"},{"bike_id":"79b7950d-90c8-4e3c-a243-1a31b18cd68e","system_id":"levelo_inurba_marseille","lat":43.23965,"lon":5.36641,"is_reserved":false,"is_disabled":false,"rental_uris":{"android":"levelo://app?vid=79b7950d-90c8-4e3c-a243-1a31b18cd68e","ios":"levelo://app?vid=79b7950d-90c8-4e3c-a243-1a31b18cd68e"},"vehicle_type_id":"4","last_reported":1726265291,"current_range_meters":9200,"station_id":"ce4bhi12rcd13ifvqfp0","pricing_plan_id":"cebpf4jnsgd1na2vs0mg"},{"bike_id":"8ce4abbe-aae7-434c-b92a-9bec98856472","system_id":"levelo_inurba_marseille","lat":43.2558,"lon":5.3823,"is_reserved":false,"is_disabled":false,"rental_uris":{"android":"levelo://app?vid=8ce4abbe-aae7-434c-b92a-9bec98856472","ios":"levelo://app?vid=8ce4abbe-aae7-434c-b92a-9bec98856472"},"vehicle_type_id":"4","last_reported":1726265291,"current_range_meters":19600,"station_id":"ce4bhih2rcd13ifvqfs0","pricing_plan_id":"cebpf4jnsgd1na2vs0mg"},{"bike_id":"8cdd94dd-d1f4-4daa-8d20-0d3dfb9a99d1","system_id":"levelo_inurba_marseille","lat":43.27904,"lon":5.38008,"is_reserved":false,"is_disabled":false,"rental_uris":{"android":"levelo://app?vid=8cdd94dd-d1f4-4daa-8d20-0d3dfb9a99d1","ios":"levelo://app?vid=8cdd94dd-d1f4-4daa-8d20-0d3dfb9a99d1"},"vehicle_type_id":"4","last_reported":1726265291,"current_range_meters":13600,"station_id":"ce4bhf92rcd13ifvqf50","pricing_plan_id":"cebpf4jnsgd1na2vs0mg"},{"bike_id":"6bd1576a-e467-440f-aff2-c72956e0823a","system_id":"levelo_inurba_marseille","lat":43.30426,"lon":5.3889,"is_reserved":false,"is_disabled":false,"rental_uris":{"android":"levelo://app?vid=6bd1576a-e467-440f-aff2-c72956e0823a","ios":"levelo://app?vid=6bd1576a-e467-440f-aff2-c72956e0823a"},"vehicle_type_id":"4","last_reported":1726265291,"current_range_meters":24000,"station_id":"ce4bgk12rcd13ifvqbi0","pricing_plan_id":"cebpf4jnsgd1na2vs0mg"},{"bike_id":"9e6b05d9-5b9e-4e8c-a7ed-a6aa23fe9a42","system_id":"levelo_inurba_marseille","lat":43.28608,"lon":5.351,"is_reserved":false,"is_disabled":false,"rental_uris":{"android":"levelo://app?vid=9e6b05d9-5b9e-4e8c-a7ed-a6aa23fe9a42","ios":"levelo://app?vid=9e6b05d9-5b9e-4e8c-a7ed-a6aa23fe9a42"},"vehicle_type_id":"4","last_reported":1726265291,"current_range_meters":30800,"station_id":"ce4bhch2rcd13ifvqeug","pricing_plan_id":"cebpf4jnsgd1na2vs0mg"},{"bike_id":"e18ef51c-3647-4357-85f0-bb301c5654fc","system_id":"levelo_inurba_marseille","lat":43.2397,"lon":5.3663,"is_reserved":false,"is_disabled":false,"rental_uris":{"android":"levelo://app?vid=e18ef51c-3647-4357-85f0-bb301c5654fc","ios":"levelo://app?vid=e18ef51c-3647-4357-85f0-bb301c5654fc"},"vehicle_type_id":"4","last_reported":1726265291,"current_range_meters":27600,"station_id":"ce4bhi12rcd13ifvqfp0","pricing_plan_id":"cebpf4jnsgd1na2vs0mg"},{"bike_id":"3d78c845-f39e-4ce6-b5cf-e9fc7768b9b1","system_id":"levelo_inurba_marseille","lat":43.29514,"lon":5.3904,"is_reserved":false,"is_disabled":false,"rental_uris":{"android":"levelo://app?vid=3d78c845-f39e-4ce6-b5cf-e9fc7768b9b1","ios":"levelo://app?vid=3d78c845-f39e-4ce6-b5cf-e9fc7768b9b1"},"vehicle_type_id":"4","last_reported":1726265291,"current_range_meters":24400,"station_id":"ce4bh3p2rcd13ifvqdp0","pricing_plan_id":"cebpf4jnsgd1na2vs0mg"},{"bike_id":"7d61f96e-3af9-4905-8791-7729f86bc4f8","system_id":"levelo_inurba_marseille","lat":43.32489,"lon":5.36562,"is_reserved":false,"is_disabled":false,"rental_uris":{"android":"levelo://app?vid=7d61f96e-3af9-4905-8791-7729f86bc4f8","ios":"levelo://app?vid=7d61f96e-3af9-4905-8791-7729f86bc4f8"},"vehicle_type_id":"4","last_reported":1726265291,"current_range_meters":10000,"station_id":"ce4bhs12rcd13ifvqhvg","pricing_plan_id":"cebpf4jnsgd1na2vs0mg"},{"bike_id":"60d5bda9-f640-405a-935d-62d1314e50fa","system_id":"levelo_inurba_marseille","lat":43.23969,"lon":5.36623,"is_reserved":false,"is_disabled":false,"rental_uris":{"android":"levelo://app?vid=60d5bda9-f640-405a-935d-62d1314e50fa","ios":"levelo://app?vid=60d5bda9-f640-405a-935d-62d1314e50fa"},"vehicle_type_id":"4","last_reported":1726265291,"current_range_meters":25600,"station_id":"ce4bhi12rcd13ifvqfp0","pricing_plan_id":"cebpf4jnsgd1na2vs0mg"},{"bike_id":"8d569a04-84e8-4c81-b2ee-40bf9568ebcd","system_id":"levelo_inurba_marseille","lat":43.27991,"lon":5.40013,"is_reserved":false,"is_disabled":false,"rental_uris":{"android":"levelo://app?vid=8d569a04-84e8-4c81-b2ee-40bf9568ebcd","ios":"levelo://app?vid=8d569a04-84e8-4c81-b2ee-40bf9568ebcd"},"vehicle_type_id":"4","last_reported":1726265291,"current_range_meters":16000,"station_id":"ce4bho92rcd13ifvqh4g","pricing_plan_id":"cebpf4jnsgd1na2vs0mg"},{"bike_id":"51efaa28-be78-438d-9593-a5c65646c0fd","system_id":"levelo_inurba_marseille","lat":43.25933,"lon":5.4091,"is_reserved":false,"is_disabled":false,"rental_uris":{"android":"levelo://app?vid=51efaa28-be78-438d-9593-a5c65646c0fd","ios":"levelo://app?vid=51efaa28-be78-438d-9593-a5c65646c0fd"},"vehicle_type_id":"4","last_reported":1726265291,"current_range_meters":37600,"station_id":"ce4bhm92rcd13ifvqglg","pricing_plan_id":"cebpf4jnsgd1na2vs0mg"},{"bike_id":"21f1670a-78a5-44cc-b6c0-5152ed0c65f9","system_id":"levelo_inurba_marseille","lat":43.2762,"lon":5.36111,"is_reserved":false,"is_disabled":false,"rental_uris":{"android":"levelo://app?vid=21f1670a-78a5-44cc-b6c0-5152ed0c65f9","ios":"levelo://app?vid=21f1670a-78a5-44cc-b6c0-5152ed0c65f9"},"vehicle_type_id":"4","last_reported":1726265291,"current_range_meters":38000,"station_id":"ce4bgj92rcd13ifvqbe0","pricing_plan_id":"cebpf4jnsgd1na2vs0mg"},{"bike_id":"2dab5e79-19eb-4cde-b219-3fbf7d01979c","system_id":"levelo_inurba_marseille","lat":43.27564,"lon":5.38411,"is_reserved":false,"is_disabled":false,"rental_uris":{"android":"levelo://app?vid=2dab5e79-19eb-4cde-b219-3fbf7d01979c","ios":"levelo://app?vid=2dab5e79-19eb-4cde-b219-3fbf7d01979c"},"vehicle_type_id":"4","last_reported":1726265291,"current_range_meters":38800,"station_id":"ce4bhh92rcd13ifvqfi0","pricing_plan_id":"cebpf4jnsgd1na2vs0mg"},{"bike_id":"1238613a-5efd-4b1b-b7cc-529d0a2a4cc8","system_id":"levelo_inurba_marseille","lat":43.28359,"lon":5.38627,"is_reserved":false,"is_disabled":false,"rental_uris":{"android":"levelo://app?vid=1238613a-5efd-4b1b-b7cc-529d0a2a4cc8","ios":"levelo://app?vid=1238613a-5efd-4b1b-b7cc-529d0a2a4cc8"},"vehicle_type_id":"4","last_reported":1726265291,"current_range_meters":27200,"station_id":"ce4bh492rcd13ifvqdvg","pricing_plan_id":"cebpf4jnsgd1na2vs0mg"},{"bike_id":"2b516ddd-0555-4101-9164-390b058c5056","system_id":"levelo_inurba_marseille","lat":43.31325,"lon":5.39689,"is_reserved":false,"is_disabled":false,"rental_uris":{"android":"levelo://app?vid=2b516ddd-0555-4101-9164-390b058c5056","ios":"levelo://app?vid=2b516ddd-0555-4101-9164-390b058c5056"},"vehicle_type_id":"4","last_reported":1726265291,"current_range_meters":16000,"station_id":"ce4bgvp2rcd13ifvqcu0","pricing_plan_id":"cebpf4jnsgd1na2vs0mg"},{"bike_id":"f1409f60-76f3-4334-898a-55e433cde666","system_id":"levelo_inurba_marseille","lat":43.26844,"lon":5.4037,"is_reserved":false,"is_disabled":false,"rental_uris":{"android":"levelo://app?vid=f1409f60-76f3-4334-898a-55e433cde666","ios":"levelo://app?vid=f1409f60-76f3-4334-898a-55e433cde666"},"vehicle_type_id":"4","last_reported":1726265291,"current_range_meters":38800,"station_id":"","pricing_plan_id":"cebpf4jnsgd1na2vs0mg"},{"bike_id":"71cbb578-5c4f-4bae-b5ab-3f387855ff35","system_id":"levelo_inurba_marseille","lat":43.28438,"lon":5.39185,"is_reserved":false,"is_disabled":false,"rental_uris":{"android":"levelo://app?vid=71cbb578-5c4f-4bae-b5ab-3f387855ff35","ios":"levelo://app?vid=71cbb578-5c4f-4bae-b5ab-3f387855ff35"},"vehicle_type_id":"4","last_reported":1726265291,"current_range_meters":38000,"station_id":"ce4bhoh2rcd13ifvqh5g","pricing_plan_id":"cebpf4jnsgd1na2vs0mg"},{"bike_id":"dd6e53a6-7c75-4a53-82e9-9170bd2cd06a","system_id":"levelo_inurba_marseille","lat":43.27219,"lon":5.39191,"is_reserved":false,"is_disabled":false,"rental_uris":{"android":"levelo://app?vid=dd6e53a6-7c75-4a53-82e9-9170bd2cd06a","ios":"levelo://app?vid=dd6e53a6-7c75-4a53-82e9-9170bd2cd06a"},"vehicle_type_id":"4","last_reported":1726265291,"current_range_meters":39200,"station_id":"ce4bhhp2rcd13ifvqfm0","pricing_plan_id":"cebpf4jnsgd1na2vs0mg"},{"bike_id":"277e4ab7-d614-47bf-b1b6-1facba0197e1","system_id":"levelo_inurba_marseille","lat":43.26573,"lon":5.38996,"is_reserved":false,"is_disabled":false,"rental_uris":{"android":"levelo://app?vid=277e4ab7-d614-47bf-b1b6-1facba0197e1","ios":"levelo://app?vid=277e4ab7-d614-47bf-b1b6-1facba0197e1"},"vehicle_type_id":"4","last_reported":1726265291,"current_range_meters":26800,"station_id":"ce4bhe12rcd13ifvqf30","pricing_plan_id":"cebpf4jnsgd1na2vs0mg"},{"bike_id":"81d81b1a-742e-4e7e-9632-041d7fe88266","system_id":"levelo_inurba_marseille","lat":43.31109,"lon":5.3777,"is_reserved":false,"is_disabled":false,"rental_uris":{"android":"levelo://app?vid=81d81b1a-742e-4e7e-9632-041d7fe88266","ios":"levelo://app?vid=81d81b1a-742e-4e7e-9632-041d7fe88266"},"vehicle_type_id":"4","last_reported":1726265291,"current_range_meters":38800,"station_id":"ce4bgt92rcd13ifvqcg0","pricing_plan_id":"cebpf4jnsgd1na2vs0mg"},{"bike_id":"75c35499-0de6-41a0-acf5-7c9b58381038","system_id":"levelo_inurba_marseille","lat":43.23182,"lon":5.39984,"is_reserved":false,"is_disabled":false,"rental_uris":{"android":"levelo://app?vid=75c35499-0de6-41a0-acf5-7c9b58381038","ios":"levelo://app?vid=75c35499-0de6-41a0-acf5-7c9b58381038"},"vehicle_type_id":"4","last_reported":1726265291,"current_range_meters":38800,"station_id":"ce4bhn12rcd13ifvqgqg","pricing_plan_id":"cebpf4jnsgd1na2vs0mg"},{"bike_id":"d59a0737-ad78-4150-8dea-5ff86cb84ee7","system_id":"levelo_inurba_marseille","lat":43.28925,"lon":5.38388,"is_reserved":false,"is_disabled":false,"rental_uris":{"android":"levelo://app?vid=d59a0737-ad78-4150-8dea-5ff86cb84ee7","ios":"levelo://app?vid=d59a0737-ad78-4150-8dea-5ff86cb84ee7"},"vehicle_type_id":"4","last_reported":1726265291,"current_range_meters":36000,"station_id":"ce4bh612rcd13ifvqe6g","pricing_plan_id":"cebpf4jnsgd1na2vs0mg"},{"bike_id":"8cc994d0-7c45-4424-baf9-d5134ffe2c34","system_id":"levelo_inurba_marseille","lat":43.28846,"lon":5.35847,"is_reserved":false,"is_disabled":false,"rental_uris":{"android":"levelo://app?vid=8cc994d0-7c45-4424-baf9-d5134ffe2c34","ios":"levelo://app?vid=8cc994d0-7c45-4424-baf9-d5134ffe2c34"},"vehicle_type_id":"4","last_reported":1726265291,"current_range_meters":12800,"station_id":"ce4bhb12rcd13ifvqem0","pricing_plan_id":"cebpf4jnsgd1na2vs0mg"},{"bike_id":"0200e915-f816-4757-ad7c-c8320137b243","system_id":"levelo_inurba_marseille","lat":43.33031,"lon":5.39046,"is_reserved":false,"is_disabled":false,"rental_uris":{"android":"levelo://app?vid=0200e915-f816-4757-ad7c-c8320137b243","ios":"levelo://app?vid=0200e915-f816-4757-ad7c-c8320137b243"},"vehicle_type_id":"4","last_reported":1726265291,"current_range_meters":16400,"station_id":"ce4bhr92rcd13ifvqhrg","pricing_plan_id":"cebpf4jnsgd1na2vs0mg"},{"bike_id":"35743b92-ae63-4db8-bc17-944d0a2ad016","system_id":"levelo_inurba_marseille","lat":43.27564,"lon":5.38422,"is_reserved":false,"is_disabled":false,"rental_uris":{"android":"levelo://app?vid=35743b92-ae63-4db8-bc17-944d0a2ad016","ios":"levelo://app?vid=35743b92-ae63-4db8-bc17-944d0a2ad016"},"vehicle_type_id":"4","last_reported":1726265291,"current_range_meters":36800,"station_id":"ce4bhh92rcd13ifvqfi0","pricing_plan_id":"cebpf4jnsgd1na2vs0mg"},{"bike_id":"91d155a1-0e95-42f4-9cf2-24e586735a13","system_id":"levelo_inurba_marseille","lat":43.33726,"lon":5.39181,"is_reserved":false,"is_disabled":false,"rental_uris":{"android":"levelo://app?vid=91d155a1-0e95-42f4-9cf2-24e586735a13","ios":"levelo://app?vid=91d155a1-0e95-42f4-9cf2-24e586735a13"},"vehicle_type_id":"4","last_reported":1726265291,"current_range_meters":27200,"station_id":"ce4bhr92rcd13ifvqhsg","pricing_plan_id":"cebpf4jnsgd1na2vs0mg"},{"bike_id":"19cb6015-d35b-4ea8-bb63-e19547cc4f55","system_id":"levelo_inurba_marseille","lat":43.31323,"lon":5.39697,"is_reserved":false,"is_disabled":false,"rental_uris":{"android":"levelo://app?vid=19cb6015-d35b-4ea8-bb63-e19547cc4f55","ios":"levelo://app?vid=19cb6015-d35b-4ea8-bb63-e19547cc4f55"},"vehicle_type_id":"4","last_reported":1726265291,"current_range_meters":28800,"station_id":"ce4bgvp2rcd13ifvqcu0","pricing_plan_id":"cebpf4jnsgd1na2vs0mg"},{"bike_id":"d801c34f-7ee0-4d0b-86b0-fbc11993d083","system_id":"levelo_inurba_marseille","lat":43.3148,"lon":5.38931,"is_reserved":false,"is_disabled":false,"rental_uris":{"android":"levelo://app?vid=d801c34f-7ee0-4d0b-86b0-fbc11993d083","ios":"levelo://app?vid=d801c34f-7ee0-4d0b-86b0-fbc11993d083"},"vehicle_type_id":"4","last_reported":1726265291,"current_range_meters":3200,"station_id":"","pricing_plan_id":"cebpf4jnsgd1na2vs0mg"},{"bike_id":"2a1d52f8-96ef-4d59-8f63-c2a2b108d43b","system_id":"levelo_inurba_marseille","lat":43.29418,"lon":5.38618,"is_reserved":false,"is_disabled":false,"rental_uris":{"android":"levelo://app?vid=2a1d52f8-96ef-4d59-8f63-c2a2b108d43b","ios":"levelo://app?vid=2a1d52f8-96ef-4d59-8f63-c2a2b108d43b"},"vehicle_type_id":"4","last_reported":1726265291,"current_range_meters":38800,"station_id":"ce4bh2h2rcd13ifvqdh0","pricing_plan_id":"cebpf4jnsgd1na2vs0mg"},{"bike_id":"9a827cb2-29d0-403f-b256-032839c34ce3","system_id":"levelo_inurba_marseille","lat":43.30783,"lon":5.37655,"is_reserved":false,"is_disabled":false,"rental_uris":{"android":"levelo://app?vid=9a827cb2-29d0-403f-b256-032839c34ce3","ios":"levelo://app?vid=9a827cb2-29d0-403f-b256-032839c34ce3"},"vehicle_type_id":"4","last_reported":1726265291,"current_range_meters":35200,"station_id":"ce4bgv92rcd13ifvqcq0","pricing_plan_id":"cebpf4jnsgd1na2vs0mg"},{"bike_id":"9368e81d-9d41-40d8-9614-e043ff6b63f3","system_id":"levelo_inurba_marseille","lat":43.31354,"lon":5.3849,"is_reserved":false,"is_disabled":false,"rental_uris":{"android":"levelo://app?vid=9368e81d-9d41-40d8-9614-e043ff6b63f3","ios":"levelo://app?vid=9368e81d-9d41-40d8-9614-e043ff6b63f3"},"vehicle_type_id":"4","last_reported":1726265291,"current_range_meters":22800,"station_id":"ce4bgt92rcd13ifvqcf0","pricing_plan_id":"cebpf4jnsgd1na2vs0mg"},{"bike_id":"ded181cb-025f-494a-8c3a-2910e4fc092c","system_id":"levelo_inurba_marseille","lat":43.29426,"lon":5.38623,"is_reserved":false,"is_disabled":false,"rental_uris":{"android":"levelo://app?vid=ded181cb-025f-494a-8c3a-2910e4fc092c","ios":"levelo://app?vid=ded181cb-025f-494a-8c3a-2910e4fc092c"},"vehicle_type_id":"4","last_reported":1726265291,"current_range_meters":36800,"station_id":"ce4bh2h2rcd13ifvqdh0","pricing_plan_id":"cebpf4jnsgd1na2vs0mg"},{"bike_id":"a8408bc0-1ad0-4261-92e7-4324637d7c82","system_id":"levelo_inurba_marseille","lat":43.28998,"lon":5.35618,"is_reserved":false,"is_disabled":false,"rental_uris":{"android":"levelo://app?vid=a8408bc0-1ad0-4261-92e7-4324637d7c82","ios":"levelo://app?vid=a8408bc0-1ad0-4261-92e7-4324637d7c82"},"vehicle_type_id":"4","last_reported":1726265291,"current_range_meters":38800,"station_id":"ce4bhb92rcd13ifvqen0","pricing_plan_id":"cebpf4jnsgd1na2vs0mg"},{"bike_id":"0d9f035c-8e47-426d-8593-e2bc7f05f235","system_id":"levelo_inurba_marseille","lat":43.3045,"lon":5.36539,"is_reserved":false,"is_disabled":false,"rental_uris":{"android":"levelo://app?vid=0d9f035c-8e47-426d-8593-e2bc7f05f235","ios":"levelo://app?vid=0d9f035c-8e47-426d-8593-e2bc7f05f235"},"vehicle_type_id":"4","last_reported":1726265291,"current_range_meters":11200,"station_id":"","pricing_plan_id":"cebpf4jnsgd1na2vs0mg"},{"bike_id":"012af03f-bb0f-4149-b9f8-1f80ec3f3901","system_id":"levelo_inurba_marseille","lat":43.24293,"lon":5.38369,"is_reserved":false,"is_disabled":false,"rental_uris":{"android":"levelo://app?vid=012af03f-bb0f-4149-b9f8-1f80ec3f3901","ios":"levelo://app?vid=012af03f-bb0f-4149-b9f8-1f80ec3f3901"},"vehicle_type_id":"4","last_reported":1726265291,"current_range_meters":24800,"station_id":"","pricing_plan_id":"cebpf4jnsgd1na2vs0mg"},{"bike_id":"2222627a-7aaa-4bda-a510-7abf11f54489","system_id":"levelo_inurba_marseille","lat":43.2951,"lon":5.39034,"is_reserved":false,"is_disabled":false,"rental_uris":{"android":"levelo://app?vid=2222627a-7aaa-4bda-a510-7abf11f54489","ios":"levelo://app?vid=2222627a-7aaa-4bda-a510-7abf11f54489"},"vehicle_type_id":"4","last_reported":1726265291,"current_range_meters":38800,"station_id":"ce4bh3p2rcd13ifvqdp0","pricing_plan_id":"cebpf4jnsgd1na2vs0mg"},{"bike_id":"e61a439f-5d40-4246-ad47-ab8a4d665798","system_id":"levelo_inurba_marseille","lat":43.27617,"lon":5.3611,"is_reserved":false,"is_disabled":false,"rental_uris":{"android":"levelo://app?vid=e61a439f-5d40-4246-ad47-ab8a4d665798","ios":"levelo://app?vid=e61a439f-5d40-4246-ad47-ab8a4d665798"},"vehicle_type_id":"4","last_reported":1726265291,"current_range_meters":5600,"station_id":"ce4bgj92rcd13ifvqbe0","pricing_plan_id":"cebpf4jnsgd1na2vs0mg"},{"bike_id":"c2e4599f-df07-44b6-9551-dcbcfe6fee56","system_id":"levelo_inurba_marseille","lat":43.31167,"lon":5.38715,"is_reserved":false,"is_disabled":false,"rental_uris":{"android":"levelo://app?vid=c2e4599f-df07-44b6-9551-dcbcfe6fee56","ios":"levelo://app?vid=c2e4599f-df07-44b6-9551-dcbcfe6fee56"},"vehicle_type_id":"4","last_reported":1726265291,"current_range_meters":19200,"station_id":"ce4bgv12rcd13ifvqcp0","pricing_plan_id":"cebpf4jnsgd1na2vs0mg"},{"bike_id":"64712d1f-4b2d-4cb5-ac24-8c714a562554","system_id":"levelo_inurba_marseille","lat":43.30885,"lon":5.37186,"is_reserved":false,"is_disabled":false,"rental_uris":{"android":"levelo://app?vid=64712d1f-4b2d-4cb5-ac24-8c714a562554","ios":"levelo://app?vid=64712d1f-4b2d-4cb5-ac24-8c714a562554"},"vehicle_type_id":"4","last_reported":1726265291,"current_range_meters":24400,"station_id":"ce4bguh2rcd13ifvqckg","pricing_plan_id":"cebpf4jnsgd1na2vs0mg"},{"bike_id":"d57407f8-bf56-4fd3-a5c0-9daedd1527be","system_id":"levelo_inurba_marseille","lat":43.31268,"lon":5.4017,"is_reserved":false,"is_disabled":false,"rental_uris":{"android":"levelo://app?vid=d57407f8-bf56-4fd3-a5c0-9daedd1527be","ios":"levelo://app?vid=d57407f8-bf56-4fd3-a5c0-9daedd1527be"},"vehicle_type_id":"4","last_reported":1726265291,"current_range_meters":9600,"station_id":"ce4bh092rcd13ifvqd30","pricing_plan_id":"cebpf4jnsgd1na2vs0mg"},{"bike_id":"552ccea4-a0ab-4fa2-9015-1ea8da64cd61","system_id":"levelo_inurba_marseille","lat":43.25578,"lon":5.38237,"is_reserved":false,"is_disabled":false,"rental_uris":{"android":"levelo://app?vid=552ccea4-a0ab-4fa2-9015-1ea8da64cd61","ios":"levelo://app?vid=552ccea4-a0ab-4fa2-9015-1ea8da64cd61"},"vehicle_type_id":"4","last_reported":1726265291,"current_range_meters":8400,"station_id":"ce4bhih2rcd13ifvqfs0","pricing_plan_id":"cebpf4jnsgd1na2vs0mg"},{"bike_id":"df8a7d4a-4b44-46db-a163-69740286d1e4","system_id":"levelo_inurba_marseille","lat":43.32666,"lon":5.40988,"is_reserved":false,"is_disabled":false,"rental_uris":{"android":"levelo://app?vid=df8a7d4a-4b44-46db-a163-69740286d1e4","ios":"levelo://app?vid=df8a7d4a-4b44-46db-a163-69740286d1e4"},"vehicle_type_id":"4","last_reported":1726265291,"current_range_meters":38800,"station_id":"ce4bhpp2rcd13ifvqhgg","pricing_plan_id":"cebpf4jnsgd1na2vs0mg"},{"bike_id":"95de9d91-5c3f-4f09-a9b4-adde0f53fd6a","system_id":"levelo_inurba_marseille","lat":43.26686,"lon":5.38271,"is_reserved":false,"is_disabled":false,"rental_uris":{"android":"levelo://app?vid=95de9d91-5c3f-4f09-a9b4-adde0f53fd6a","ios":"levelo://app?vid=95de9d91-5c3f-4f09-a9b4-adde0f53fd6a"},"vehicle_type_id":"4","last_reported":1726265291,"current_range_meters":9200,"station_id":"ce4bhg92rcd13ifvqf90","pricing_plan_id":"cebpf4jnsgd1na2vs0mg"},{"bike_id":"262907ac-79dd-4a13-b6e2-591b1cc219dc","system_id":"levelo_inurba_marseille","lat":43.31163,"lon":5.38722,"is_reserved":false,"is_disabled":false,"rental_uris":{"android":"levelo://app?vid=262907ac-79dd-4a13-b6e2-591b1cc219dc","ios":"levelo://app?vid=262907ac-79dd-4a13-b6e2-591b1cc219dc"},"vehicle_type_id":"4","last_reported":1726265291,"current_range_meters":6000,"station_id":"ce4bgv12rcd13ifvqcp0","pricing_plan_id":"cebpf4jnsgd1na2vs0mg"},{"bike_id":"599983ba-f2e7-4be8-871f-b2a4e87fcb8d","system_id":"levelo_inurba_marseille","lat":43.296252,"lon":5.371682,"is_reserved":false,"is_disabled":false,"rental_uris":{"android":"levelo://app?vid=599983ba-f2e7-4be8-871f-b2a4e87fcb8d","ios":"levelo://app?vid=599983ba-f2e7-4be8-871f-b2a4e87fcb8d"},"vehicle_type_id":"4","last_reported":1726265291,"current_range_meters":2000,"station_id":"ce4bgnh2rcd13ifvqc0g","pricing_plan_id":"cebpf4jnsgd1na2vs0mg"},{"bike_id":"2d9eefd0-3f46-4fa6-a559-189a753b38f9","system_id":"levelo_inurba_marseille","lat":43.29536,"lon":5.38541,"is_reserved":false,"is_disabled":false,"rental_uris":{"android":"levelo://app?vid=2d9eefd0-3f46-4fa6-a559-189a753b38f9","ios":"levelo://app?vid=2d9eefd0-3f46-4fa6-a559-189a753b38f9"},"vehicle_type_id":"4","last_reported":1726265291,"current_range_meters":22800,"station_id":"ce4bgih2rcd13ifvqba0","pricing_plan_id":"cebpf4jnsgd1na2vs0mg"},{"bike_id":"7a1235e9-007e-4942-9886-cdd34a67165e","system_id":"levelo_inurba_marseille","lat":43.31713,"lon":5.43706,"is_reserved":false,"is_disabled":false,"rental_uris":{"android":"levelo://app?vid=7a1235e9-007e-4942-9886-cdd34a67165e","ios":"levelo://app?vid=7a1235e9-007e-4942-9886-cdd34a67165e"},"vehicle_type_id":"4","last_reported":1726265291,"current_range_meters":36800,"station_id":"ce4bhp92rcd13ifvqhcg","pricing_plan_id":"cebpf4jnsgd1na2vs0mg"},{"bike_id":"e32c7304-a916-43ff-8f89-a97d7e51e7d9","system_id":"levelo_inurba_marseille","lat":43.24668,"lon":5.38171,"is_reserved":false,"is_disabled":false,"rental_uris":{"android":"levelo://app?vid=e32c7304-a916-43ff-8f89-a97d7e51e7d9","ios":"levelo://app?vid=e32c7304-a916-43ff-8f89-a97d7e51e7d9"},"vehicle_type_id":"4","last_reported":1726265291,"current_range_meters":8400,"station_id":"ce4bhih2rcd13ifvqfr0","pricing_plan_id":"cebpf4jnsgd1na2vs0mg"},{"bike_id":"1bf0db5f-5142-4765-b21d-727dad3862a8","system_id":"levelo_inurba_marseille","lat":43.32485,"lon":5.36577,"is_reserved":false,"is_disabled":false,"rental_uris":{"android":"levelo://app?vid=1bf0db5f-5142-4765-b21d-727dad3862a8","ios":"levelo://app?vid=1bf0db5f-5142-4765-b21d-727dad3862a8"},"vehicle_type_id":"4","last_reported":1726265291,"current_range_meters":38800,"station_id":"ce4bhs12rcd13ifvqhvg","pricing_plan_id":"cebpf4jnsgd1na2vs0mg"},{"bike_id":"8bd5b436-6eb7-44b3-b7b2-efd620e858e4","system_id":"levelo_inurba_marseille","lat":43.31063,"lon":5.38365,"is_reserved":false,"is_disabled":false,"rental_uris":{"android":"levelo://app?vid=8bd5b436-6eb7-44b3-b7b2-efd620e858e4","ios":"levelo://app?vid=8bd5b436-6eb7-44b3-b7b2-efd620e858e4"},"vehicle_type_id":"4","last_reported":1726265291,"current_range_meters":9200,"station_id":"ce4bgv92rcd13ifvqcr0","pricing_plan_id":"cebpf4jnsgd1na2vs0mg"},{"bike_id":"cac5f6f3-afa1-453e-86a8-a7bc03ecbe41","system_id":"levelo_inurba_marseille","lat":43.30285,"lon":5.37692,"is_reserved":false,"is_disabled":false,"rental_uris":{"android":"levelo://app?vid=cac5f6f3-afa1-453e-86a8-a7bc03ecbe41","ios":"levelo://app?vid=cac5f6f3-afa1-453e-86a8-a7bc03ecbe41"},"vehicle_type_id":"4","last_reported":1726265291,"current_range_meters":27200,"station_id":"ce4bguh2rcd13ifvqcj0","pricing_plan_id":"cebpf4jnsgd1na2vs0mg"},{"bike_id":"53a2d874-293d-47cc-bdbd-a03b3468623b","system_id":"levelo_inurba_marseille","lat":43.29899,"lon":5.43665,"is_reserved":false,"is_disabled":false,"rental_uris":{"android":"levelo://app?vid=53a2d874-293d-47cc-bdbd-a03b3468623b","ios":"levelo://app?vid=53a2d874-293d-47cc-bdbd-a03b3468623b"},"vehicle_type_id":"4","last_reported":1726265291,"current_range_meters":11600,"station_id":"ce4bhpp2rcd13ifvqhfg","pricing_plan_id":"cebpf4jnsgd1na2vs0mg"},{"bike_id":"4afb8b00-be3a-4d15-9b8b-47916e625762","system_id":"levelo_inurba_marseille","lat":43.28526,"lon":5.4423,"is_reserved":false,"is_disabled":false,"rental_uris":{"android":"levelo://app?vid=4afb8b00-be3a-4d15-9b8b-47916e625762","ios":"levelo://app?vid=4afb8b00-be3a-4d15-9b8b-47916e625762"},"vehicle_type_id":"4","last_reported":1726265291,"current_range_meters":25600,"station_id":"","pricing_plan_id":"cebpf4jnsgd1na2vs0mg"},{"bike_id":"07fd60ee-19ad-432a-b83c-321f2d4b57e8","system_id":"levelo_inurba_marseille","lat":43.28709,"lon":5.37384,"is_reserved":false,"is_disabled":false,"rental_uris":{"android":"levelo://app?vid=07fd60ee-19ad-432a-b83c-321f2d4b57e8","ios":"levelo://app?vid=07fd60ee-19ad-432a-b83c-321f2d4b57e8"},"vehicle_type_id":"4","last_reported":1726265291,"current_range_meters":27600,"station_id":"ce4bh3p2rcd13ifvqdq0","pricing_plan_id":"cebpf4jnsgd1na2vs0mg"},{"bike_id":"bb7acf50-b6bc-4b2d-adf4-833abc23b24c","system_id":"levelo_inurba_marseille","lat":43.23192,"lon":5.35547,"is_reserved":false,"is_disabled":false,"rental_uris":{"android":"levelo://app?vid=bb7acf50-b6bc-4b2d-adf4-833abc23b24c","ios":"levelo://app?vid=bb7acf50-b6bc-4b2d-adf4-833abc23b24c"},"vehicle_type_id":"4","last_reported":1726265291,"current_range_meters":38800,"station_id":"ce4bhu92rcd13ifvqi70","pricing_plan_id":"cebpf4jnsgd1na2vs0mg"},{"bike_id":"6b604633-853d-470b-951d-86635bcb9111","system_id":"levelo_inurba_marseille","lat":43.31169,"lon":5.38716,"is_reserved":false,"is_disabled":false,"rental_uris":{"android":"levelo://app?vid=6b604633-853d-470b-951d-86635bcb9111","ios":"levelo://app?vid=6b604633-853d-470b-951d-86635bcb9111"},"vehicle_type_id":"4","last_reported":1726265291,"current_range_meters":36800,"station_id":"ce4bgv12rcd13ifvqcp0","pricing_plan_id":"cebpf4jnsgd1na2vs0mg"},{"bike_id":"273a04d2-00cf-4d11-a338-a91c0d03b2f9","system_id":"levelo_inurba_marseille","lat":43.2808,"lon":5.39664,"is_reserved":false,"is_disabled":false,"rental_uris":{"android":"levelo://app?vid=273a04d2-00cf-4d11-a338-a91c0d03b2f9","ios":"levelo://app?vid=273a04d2-00cf-4d11-a338-a91c0d03b2f9"},"vehicle_type_id":"4","last_reported":1726265291,"current_range_meters":29600,"station_id":"ce4bho12rcd13ifvqh2g","pricing_plan_id":"cebpf4jnsgd1na2vs0mg"},{"bike_id":"bc8be1fd-7bee-49c5-817c-184bdd69b536","system_id":"levelo_inurba_marseille","lat":43.27373,"lon":5.41958,"is_reserved":false,"is_disabled":false,"rental_uris":{"android":"levelo://app?vid=bc8be1fd-7bee-49c5-817c-184bdd69b536","ios":"levelo://app?vid=bc8be1fd-7bee-49c5-817c-184bdd69b536"},"vehicle_type_id":"4","last_reported":1726265291,"current_range_meters":28400,"station_id":"","pricing_plan_id":"cebpf4jnsgd1na2vs0mg"},{"bike_id":"67d15022-cd3b-48b5-ba3a-7d7504290205","system_id":"levelo_inurba_marseille","lat":43.31121,"lon":5.37762,"is_reserved":false,"is_disabled":false,"rental_uris":{"android":"levelo://app?vid=67d15022-cd3b-48b5-ba3a-7d7504290205","ios":"levelo://app?vid=67d15022-cd3b-48b5-ba3a-7d7504290205"},"vehicle_type_id":"4","last_reported":1726265291,"current_range_meters":20400,"station_id":"ce4bgt92rcd13ifvqcg0","pricing_plan_id":"cebpf4jnsgd1na2vs0mg"},{"bike_id":"d60a5e34-444f-438b-9b1b-b44df5776e38","system_id":"levelo_inurba_marseille","lat":43.31275,"lon":5.40171,"is_reserved":false,"is_disabled":false,"rental_uris":{"android":"levelo://app?vid=d60a5e34-444f-438b-9b1b-b44df5776e38","ios":"levelo://app?vid=d60a5e34-444f-438b-9b1b-b44df5776e38"},"vehicle_type_id":"4","last_reported":1726265291,"current_range_meters":22000,"station_id":"ce4bh092rcd13ifvqd30","pricing_plan_id":"cebpf4jnsgd1na2vs0mg"},{"bike_id":"d008cb99-abde-452f-827e-8789eee7795a","system_id":"levelo_inurba_marseille","lat":43.27176,"lon":5.40994,"is_reserved":false,"is_disabled":false,"rental_uris":{"android":"levelo://app?vid=d008cb99-abde-452f-827e-8789eee7795a","ios":"levelo://app?vid=d008cb99-abde-452f-827e-8789eee7795a"},"vehicle_type_id":"4","last_reported":1726265291,"current_range_meters":27200,"station_id":"ce4bhl12rcd13ifvqgf0","pricing_plan_id":"cebpf4jnsgd1na2vs0mg"},{"bike_id":"5f6f15d1-ffcd-42bd-8353-baf15cef1256","system_id":"levelo_inurba_marseille","lat":43.30888,"lon":5.39624,"is_reserved":false,"is_disabled":false,"rental_uris":{"android":"levelo://app?vid=5f6f15d1-ffcd-42bd-8353-baf15cef1256","ios":"levelo://app?vid=5f6f15d1-ffcd-42bd-8353-baf15cef1256"},"vehicle_type_id":"4","last_reported":1726265291,"current_range_meters":28800,"station_id":"ce4bh012rcd13ifvqcv0","pricing_plan_id":"cebpf4jnsgd1na2vs0mg"},{"bike_id":"065fb0e1-bec3-43d4-af45-81ff04c5ba05","system_id":"levelo_inurba_marseille","lat":43.300781,"lon":5.390703,"is_reserved":false,"is_disabled":false,"rental_uris":{"android":"levelo://app?vid=065fb0e1-bec3-43d4-af45-81ff04c5ba05","ios":"levelo://app?vid=065fb0e1-bec3-43d4-af45-81ff04c5ba05"},"vehicle_type_id":"4","last_reported":1726265291,"current_range_meters":11200,"station_id":"ce4bh192rcd13ifvqdb0","pricing_plan_id":"cebpf4jnsgd1na2vs0mg"},{"bike_id":"6da9e460-f0cd-43d6-9f6b-761aceccaf26","system_id":"levelo_inurba_marseille","lat":43.24648,"lon":5.38893,"is_reserved":false,"is_disabled":false,"rental_uris":{"android":"levelo://app?vid=6da9e460-f0cd-43d6-9f6b-761aceccaf26","ios":"levelo://app?vid=6da9e460-f0cd-43d6-9f6b-761aceccaf26"},"vehicle_type_id":"4","last_reported":1726265291,"current_range_meters":27600,"station_id":"ce4bhg12rcd13ifvqf60","pricing_plan_id":"cebpf4jnsgd1na2vs0mg"},{"bike_id":"f5ce7a0e-bae9-46bf-9de8-007491c66701","system_id":"levelo_inurba_marseille","lat":43.34147,"lon":5.40897,"is_reserved":false,"is_disabled":false,"rental_uris":{"android":"levelo://app?vid=f5ce7a0e-bae9-46bf-9de8-007491c66701","ios":"levelo://app?vid=f5ce7a0e-bae9-46bf-9de8-007491c66701"},"vehicle_type_id":"4","last_reported":1726265291,"current_range_meters":37600,"station_id":"ce4bhqh2rcd13ifvqhlg","pricing_plan_id":"cebpf4jnsgd1na2vs0mg"},{"bike_id":"a556139b-e56c-479b-b4cc-03b2112f3a29","system_id":"levelo_inurba_marseille","lat":43.2808,"lon":5.39657,"is_reserved":false,"is_disabled":false,"rental_uris":{"android":"levelo://app?vid=a556139b-e56c-479b-b4cc-03b2112f3a29","ios":"levelo://app?vid=a556139b-e56c-479b-b4cc-03b2112f3a29"},"vehicle_type_id":"4","last_reported":1726265291,"current_range_meters":9200,"station_id":"ce4bho12rcd13ifvqh2g","pricing_plan_id":"cebpf4jnsgd1na2vs0mg"},{"bike_id":"81f1a965-ff8b-4d74-9682-ff18567684f9","system_id":"levelo_inurba_marseille","lat":43.33028,"lon":5.39034,"is_reserved":false,"is_disabled":false,"rental_uris":{"android":"levelo://app?vid=81f1a965-ff8b-4d74-9682-ff18567684f9","ios":"levelo://app?vid=81f1a965-ff8b-4d74-9682-ff18567684f9"},"vehicle_type_id":"4","last_reported":1726265291,"current_range_meters":6000,"station_id":"ce4bhr92rcd13ifvqhrg","pricing_plan_id":"cebpf4jnsgd1na2vs0mg"},{"bike_id":"2d554295-41dc-4ad1-bd72-009ae02cf276","system_id":"levelo_inurba_marseille","lat":43.24072,"lon":5.37761,"is_reserved":false,"is_disabled":false,"rental_uris":{"android":"levelo://app?vid=2d554295-41dc-4ad1-bd72-009ae02cf276","ios":"levelo://app?vid=2d554295-41dc-4ad1-bd72-009ae02cf276"},"vehicle_type_id":"4","last_reported":1726265291,"current_range_meters":36800,"station_id":"ce4bhnp2rcd13ifvqgvg","pricing_plan_id":"cebpf4jnsgd1na2vs0mg"},{"bike_id":"06444ed7-cf13-4c1e-9077-801c8a8ef5c3","system_id":"levelo_inurba_marseille","lat":43.29517,"lon":5.39038,"is_reserved":false,"is_disabled":false,"rental_uris":{"android":"levelo://app?vid=06444ed7-cf13-4c1e-9077-801c8a8ef5c3","ios":"levelo://app?vid=06444ed7-cf13-4c1e-9077-801c8a8ef5c3"},"vehicle_type_id":"4","last_reported":1726265291,"current_range_meters":38800,"station_id":"ce4bh3p2rcd13ifvqdp0","pricing_plan_id":"cebpf4jnsgd1na2vs0mg"},{"bike_id":"c28ff0f1-1713-431a-bccf-4e7a21e8e39b","system_id":"levelo_inurba_marseille","lat":43.25498,"lon":5.37651,"is_reserved":false,"is_disabled":false,"rental_uris":{"android":"levelo://app?vid=c28ff0f1-1713-431a-bccf-4e7a21e8e39b","ios":"levelo://app?vid=c28ff0f1-1713-431a-bccf-4e7a21e8e39b"},"vehicle_type_id":"4","last_reported":1726265291,"current_range_meters":38800,"station_id":"ce4bhh12rcd13ifvqff0","pricing_plan_id":"cebpf4jnsgd1na2vs0mg"},{"bike_id":"eef74e6f-8247-4014-afbc-f6f8a623d03c","system_id":"levelo_inurba_marseille","lat":43.28729,"lon":5.36093,"is_reserved":false,"is_disabled":false,"rental_uris":{"android":"levelo://app?vid=eef74e6f-8247-4014-afbc-f6f8a623d03c","ios":"levelo://app?vid=eef74e6f-8247-4014-afbc-f6f8a623d03c"},"vehicle_type_id":"4","last_reported":1726265291,"current_range_meters":9200,"station_id":"cki0cbj6b192h4jlfktg","pricing_plan_id":"cebpf4jnsgd1na2vs0mg"},{"bike_id":"ffc5e4d0-2554-4da1-bc37-c3cf25c612bc","system_id":"levelo_inurba_marseille","lat":43.29537,"lon":5.39049,"is_reserved":false,"is_disabled":false,"rental_uris":{"android":"levelo://app?vid=ffc5e4d0-2554-4da1-bc37-c3cf25c612bc","ios":"levelo://app?vid=ffc5e4d0-2554-4da1-bc37-c3cf25c612bc"},"vehicle_type_id":"4","last_reported":1726265291,"current_range_meters":15200,"station_id":"ce4bh3p2rcd13ifvqdp0","pricing_plan_id":"cebpf4jnsgd1na2vs0mg"},{"bike_id":"d63b08fd-7716-422a-94e4-8f1dfff5bb11","system_id":"levelo_inurba_marseille","lat":43.28615,"lon":5.35097,"is_reserved":false,"is_disabled":false,"rental_uris":{"android":"levelo://app?vid=d63b08fd-7716-422a-94e4-8f1dfff5bb11","ios":"levelo://app?vid=d63b08fd-7716-422a-94e4-8f1dfff5bb11"},"vehicle_type_id":"4","last_reported":1726265291,"current_range_meters":37600,"station_id":"ce4bhch2rcd13ifvqeug","pricing_plan_id":"cebpf4jnsgd1na2vs0mg"},{"bike_id":"ec70d30b-37ec-4b5c-b10c-9617e30c7fa0","system_id":"levelo_inurba_marseille","lat":43.29897,"lon":5.36622,"is_reserved":false,"is_disabled":false,"rental_uris":{"android":"levelo://app?vid=ec70d30b-37ec-4b5c-b10c-9617e30c7fa0","ios":"levelo://app?vid=ec70d30b-37ec-4b5c-b10c-9617e30c7fa0"},"vehicle_type_id":"4","last_reported":1726265291,"current_range_meters":14800,"station_id":"","pricing_plan_id":"cebpf4jnsgd1na2vs0mg"},{"bike_id":"b8560249-af8e-479b-a499-fd1197a685b5","system_id":"levelo_inurba_marseille","lat":43.26031,"lon":5.37548,"is_reserved":false,"is_disabled":false,"rental_uris":{"android":"levelo://app?vid=b8560249-af8e-479b-a499-fd1197a685b5","ios":"levelo://app?vid=b8560249-af8e-479b-a499-fd1197a685b5"},"vehicle_type_id":"4","last_reported":1726265291,"current_range_meters":38000,"station_id":"ce4bhgh2rcd13ifvqfa0","pricing_plan_id":"cebpf4jnsgd1na2vs0mg"},{"bike_id":"35452074-d23a-4536-9bdc-31531c8a5ab8","system_id":"levelo_inurba_marseille","lat":43.303375,"lon":5.404291,"is_reserved":false,"is_disabled":false,"rental_uris":{"android":"levelo://app?vid=35452074-d23a-4536-9bdc-31531c8a5ab8","ios":"levelo://app?vid=35452074-d23a-4536-9bdc-31531c8a5ab8"},"vehicle_type_id":"4","last_reported":1726265291,"current_range_meters":14000,"station_id":"ce4bh012rcd13ifvqd10","pricing_plan_id":"cebpf4jnsgd1na2vs0mg"},{"bike_id":"026a8105-a313-4bd8-96fb-a8d6d1b140a9","system_id":"levelo_inurba_marseille","lat":43.23196,"lon":5.35545,"is_reserved":false,"is_disabled":false,"rental_uris":{"android":"levelo://app?vid=026a8105-a313-4bd8-96fb-a8d6d1b140a9","ios":"levelo://app?vid=026a8105-a313-4bd8-96fb-a8d6d1b140a9"},"vehicle_type_id":"4","last_reported":1726265291,"current_range_meters":38800,"station_id":"ce4bhu92rcd13ifvqi70","pricing_plan_id":"cebpf4jnsgd1na2vs0mg"},{"bike_id":"f7895c69-0c82-4105-9f66-dc2416af2f55","system_id":"levelo_inurba_marseille","lat":43.25489,"lon":5.37645,"is_reserved":false,"is_disabled":false,"rental_uris":{"android":"levelo://app?vid=f7895c69-0c82-4105-9f66-dc2416af2f55","ios":"levelo://app?vid=f7895c69-0c82-4105-9f66-dc2416af2f55"},"vehicle_type_id":"4","last_reported":1726265291,"current_range_meters":26000,"station_id":"ce4bhh12rcd13ifvqff0","pricing_plan_id":"cebpf4jnsgd1na2vs0mg"},{"bike_id":"f13d7826-b267-4133-aa0e-251169d87a13","system_id":"levelo_inurba_marseille","lat":43.28364,"lon":5.38625,"is_reserved":false,"is_disabled":false,"rental_uris":{"android":"levelo://app?vid=f13d7826-b267-4133-aa0e-251169d87a13","ios":"levelo://app?vid=f13d7826-b267-4133-aa0e-251169d87a13"},"vehicle_type_id":"4","last_reported":1726265291,"current_range_meters":24800,"station_id":"ce4bh492rcd13ifvqdvg","pricing_plan_id":"cebpf4jnsgd1na2vs0mg"},{"bike_id":"9378e46c-90ff-48e5-9112-f5aafd156a5f","system_id":"levelo_inurba_marseille","lat":43.2955,"lon":5.42285,"is_reserved":false,"is_disabled":false,"rental_uris":{"android":"levelo://app?vid=9378e46c-90ff-48e5-9112-f5aafd156a5f","ios":"levelo://app?vid=9378e46c-90ff-48e5-9112-f5aafd156a5f"},"vehicle_type_id":"4","last_reported":1726265291,"current_range_meters":28000,"station_id":"ce4bhph2rcd13ifvqhdg","pricing_plan_id":"cebpf4jnsgd1na2vs0mg"},{"bike_id":"3177e633-0fd8-43af-996d-3a14d65969e6","system_id":"levelo_inurba_marseille","lat":43.32658,"lon":5.40993,"is_reserved":false,"is_disabled":false,"rental_uris":{"android":"levelo://app?vid=3177e633-0fd8-43af-996d-3a14d65969e6","ios":"levelo://app?vid=3177e633-0fd8-43af-996d-3a14d65969e6"},"vehicle_type_id":"4","last_reported":1726265291,"current_range_meters":16800,"station_id":"ce4bhpp2rcd13ifvqhgg","pricing_plan_id":"cebpf4jnsgd1na2vs0mg"},{"bike_id":"f13f8563-f3d0-467b-ae2c-01bf4a4cbe97","system_id":"levelo_inurba_marseille","lat":43.29529,"lon":5.3854,"is_reserved":false,"is_disabled":false,"rental_uris":{"android":"levelo://app?vid=f13f8563-f3d0-467b-ae2c-01bf4a4cbe97","ios":"levelo://app?vid=f13f8563-f3d0-467b-ae2c-01bf4a4cbe97"},"vehicle_type_id":"4","last_reported":1726265291,"current_range_meters":21600,"station_id":"ce4bgih2rcd13ifvqba0","pricing_plan_id":"cebpf4jnsgd1na2vs0mg"},{"bike_id":"51b93f73-c647-4dd9-b993-0e72de9b0462","system_id":"levelo_inurba_marseille","lat":43.28289,"lon":5.39074,"is_reserved":false,"is_disabled":false,"rental_uris":{"android":"levelo://app?vid=51b93f73-c647-4dd9-b993-0e72de9b0462","ios":"levelo://app?vid=51b93f73-c647-4dd9-b993-0e72de9b0462"},"vehicle_type_id":"4","last_reported":1726265291,"current_range_meters":32000,"station_id":"","pricing_plan_id":"cebpf4jnsgd1na2vs0mg"},{"bike_id":"12bb7073-9032-4c94-948d-b026b2803e6c","system_id":"levelo_inurba_marseille","lat":43.30886,"lon":5.39629,"is_reserved":false,"is_disabled":false,"rental_uris":{"android":"levelo://app?vid=12bb7073-9032-4c94-948d-b026b2803e6c","ios":"levelo://app?vid=12bb7073-9032-4c94-948d-b026b2803e6c"},"vehicle_type_id":"4","last_reported":1726265291,"current_range_meters":38800,"station_id":"ce4bh012rcd13ifvqcv0","pricing_plan_id":"cebpf4jnsgd1na2vs0mg"},{"bike_id":"fb6f5ab2-fd34-4e99-aa14-2d09d048d920","system_id":"levelo_inurba_marseille","lat":43.29031,"lon":5.3756,"is_reserved":false,"is_disabled":false,"rental_uris":{"android":"levelo://app?vid=fb6f5ab2-fd34-4e99-aa14-2d09d048d920","ios":"levelo://app?vid=fb6f5ab2-fd34-4e99-aa14-2d09d048d920"},"vehicle_type_id":"4","last_reported":1726265291,"current_range_meters":30400,"station_id":"ce4bh692rcd13ifvqe90","pricing_plan_id":"cebpf4jnsgd1na2vs0mg"},{"bike_id":"5270d553-d621-434e-9a65-5b2cac507a4b","system_id":"levelo_inurba_marseille","lat":43.24662,"lon":5.38165,"is_reserved":false,"is_disabled":false,"rental_uris":{"android":"levelo://app?vid=5270d553-d621-434e-9a65-5b2cac507a4b","ios":"levelo://app?vid=5270d553-d621-434e-9a65-5b2cac507a4b"},"vehicle_type_id":"4","last_reported":1726265291,"current_range_meters":28000,"station_id":"ce4bhih2rcd13ifvqfr0","pricing_plan_id":"cebpf4jnsgd1na2vs0mg"},{"bike_id":"a71ade37-705a-48c5-8693-8659689a5617","system_id":"levelo_inurba_marseille","lat":43.24182,"lon":5.39724,"is_reserved":false,"is_disabled":false,"rental_uris":{"android":"levelo://app?vid=a71ade37-705a-48c5-8693-8659689a5617","ios":"levelo://app?vid=a71ade37-705a-48c5-8693-8659689a5617"},"vehicle_type_id":"4","last_reported":1726265291,"current_range_meters":38800,"station_id":"ce4bhn12rcd13ifvqgpg","pricing_plan_id":"cebpf4jnsgd1na2vs0mg"},{"bike_id":"46a6b753-5b14-49df-ae63-f2aeddf712e5","system_id":"levelo_inurba_marseille","lat":43.31071,"lon":5.38346,"is_reserved":false,"is_disabled":false,"rental_uris":{"android":"levelo://app?vid=46a6b753-5b14-49df-ae63-f2aeddf712e5","ios":"levelo://app?vid=46a6b753-5b14-49df-ae63-f2aeddf712e5"},"vehicle_type_id":"4","last_reported":1726265291,"current_range_meters":38800,"station_id":"ce4bgv92rcd13ifvqcr0","pricing_plan_id":"cebpf4jnsgd1na2vs0mg"},{"bike_id":"67950061-e447-4497-b15e-bc5c5ee0128e","system_id":"levelo_inurba_marseille","lat":43.24802,"lon":5.3746,"is_reserved":false,"is_disabled":false,"rental_uris":{"android":"levelo://app?vid=67950061-e447-4497-b15e-bc5c5ee0128e","ios":"levelo://app?vid=67950061-e447-4497-b15e-bc5c5ee0128e"},"vehicle_type_id":"4","last_reported":1726265291,"current_range_meters":20800,"station_id":"ce4bhgh2rcd13ifvqfb0","pricing_plan_id":"cebpf4jnsgd1na2vs0mg"},{"bike_id":"fe7bda53-4c2f-48b9-8833-6ed8d119f5b7","system_id":"levelo_inurba_marseille","lat":43.28712,"lon":5.37381,"is_reserved":false,"is_disabled":false,"rental_uris":{"android":"levelo://app?vid=fe7bda53-4c2f-48b9-8833-6ed8d119f5b7","ios":"levelo://app?vid=fe7bda53-4c2f-48b9-8833-6ed8d119f5b7"},"vehicle_type_id":"4","last_reported":1726265291,"current_range_meters":38800,"station_id":"ce4bh3p2rcd13ifvqdq0","pricing_plan_id":"cebpf4jnsgd1na2vs0mg"},{"bike_id":"1e9ab519-e28c-400f-aecb-cbc58f39def2","system_id":"levelo_inurba_marseille","lat":43.29769,"lon":5.379,"is_reserved":false,"is_disabled":false,"rental_uris":{"android":"levelo://app?vid=1e9ab519-e28c-400f-aecb-cbc58f39def2","ios":"levelo://app?vid=1e9ab519-e28c-400f-aecb-cbc58f39def2"},"vehicle_type_id":"4","last_reported":1726265291,"current_range_meters":6800,"station_id":"","pricing_plan_id":"cebpf4jnsgd1na2vs0mg"},{"bike_id":"b2e3c13f-e5d7-4801-ae89-c6a149b3cd8b","system_id":"levelo_inurba_marseille","lat":43.24079,"lon":5.37735,"is_reserved":false,"is_disabled":false,"rental_uris":{"android":"levelo://app?vid=b2e3c13f-e5d7-4801-ae89-c6a149b3cd8b","ios":"levelo://app?vid=b2e3c13f-e5d7-4801-ae89-c6a149b3cd8b"},"vehicle_type_id":"4","last_reported":1726265291,"current_range_meters":38000,"station_id":"ce4bhnp2rcd13ifvqgvg","pricing_plan_id":"cebpf4jnsgd1na2vs0mg"},{"bike_id":"e9f0c1b2-6c2b-4408-8ca3-3246b53f8ed7","system_id":"levelo_inurba_marseille","lat":43.23967,"lon":5.36627,"is_reserved":false,"is_disabled":false,"rental_uris":{"android":"levelo://app?vid=e9f0c1b2-6c2b-4408-8ca3-3246b53f8ed7","ios":"levelo://app?vid=e9f0c1b2-6c2b-4408-8ca3-3246b53f8ed7"},"vehicle_type_id":"4","last_reported":1726265291,"current_range_meters":32000,"station_id":"ce4bhi12rcd13ifvqfp0","pricing_plan_id":"cebpf4jnsgd1na2vs0mg"},{"bike_id":"954d2b54-362e-442e-bcaa-d17939d90e2d","system_id":"levelo_inurba_marseille","lat":43.25495,"lon":5.37653,"is_reserved":false,"is_disabled":false,"rental_uris":{"android":"levelo://app?vid=954d2b54-362e-442e-bcaa-d17939d90e2d","ios":"levelo://app?vid=954d2b54-362e-442e-bcaa-d17939d90e2d"},"vehicle_type_id":"4","last_reported":1726265291,"current_range_meters":38800,"station_id":"ce4bhh12rcd13ifvqff0","pricing_plan_id":"cebpf4jnsgd1na2vs0mg"},{"bike_id":"82dec1e1-c024-4a59-b080-1ca526441f94","system_id":"levelo_inurba_marseille","lat":43.337612,"lon":5.374504,"is_reserved":false,"is_disabled":false,"rental_uris":{"android":"levelo://app?vid=82dec1e1-c024-4a59-b080-1ca526441f94","ios":"levelo://app?vid=82dec1e1-c024-4a59-b080-1ca526441f94"},"vehicle_type_id":"4","last_reported":1726265291,"current_range_meters":12800,"station_id":"","pricing_plan_id":"cebpf4jnsgd1na2vs0mg"},{"bike_id":"02269f0e-1758-473f-8a5c-764f1ddf9ddc","system_id":"levelo_inurba_marseille","lat":43.23184,"lon":5.3998,"is_reserved":false,"is_disabled":false,"rental_uris":{"android":"levelo://app?vid=02269f0e-1758-473f-8a5c-764f1ddf9ddc","ios":"levelo://app?vid=02269f0e-1758-473f-8a5c-764f1ddf9ddc"},"vehicle_type_id":"4","last_reported":1726265291,"current_range_meters":38800,"station_id":"ce4bhn12rcd13ifvqgqg","pricing_plan_id":"cebpf4jnsgd1na2vs0mg"},{"bike_id":"9c24d43a-0879-48bb-95a5-355e1684049e","system_id":"levelo_inurba_marseille","lat":43.29415,"lon":5.38614,"is_reserved":false,"is_disabled":false,"rental_uris":{"android":"levelo://app?vid=9c24d43a-0879-48bb-95a5-355e1684049e","ios":"levelo://app?vid=9c24d43a-0879-48bb-95a5-355e1684049e"},"vehicle_type_id":"4","last_reported":1726265291,"current_range_meters":35600,"station_id":"ce4bh2h2rcd13ifvqdh0","pricing_plan_id":"cebpf4jnsgd1na2vs0mg"},{"bike_id":"22142966-f421-47f2-a5d3-b7426737eae8","system_id":"levelo_inurba_marseille","lat":43.2603,"lon":5.37546,"is_reserved":false,"is_disabled":false,"rental_uris":{"android":"levelo://app?vid=22142966-f421-47f2-a5d3-b7426737eae8","ios":"levelo://app?vid=22142966-f421-47f2-a5d3-b7426737eae8"},"vehicle_type_id":"4","last_reported":1726265291,"current_range_meters":11200,"station_id":"ce4bhgh2rcd13ifvqfa0","pricing_plan_id":"cebpf4jnsgd1na2vs0mg"},{"bike_id":"6be21217-09c4-44c6-8934-8f8f3ca988ea","system_id":"levelo_inurba_marseille","lat":43.25501,"lon":5.3765,"is_reserved":false,"is_disabled":false,"rental_uris":{"android":"levelo://app?vid=6be21217-09c4-44c6-8934-8f8f3ca988ea","ios":"levelo://app?vid=6be21217-09c4-44c6-8934-8f8f3ca988ea"},"vehicle_type_id":"4","last_reported":1726265291,"current_range_meters":24800,"station_id":"ce4bhh12rcd13ifvqff0","pricing_plan_id":"cebpf4jnsgd1na2vs0mg"},{"bike_id":"3e86fede-9449-46d5-b091-1d4a5cfab195","system_id":"levelo_inurba_marseille","lat":43.29978,"lon":5.37186,"is_reserved":false,"is_disabled":false,"rental_uris":{"android":"levelo://app?vid=3e86fede-9449-46d5-b091-1d4a5cfab195","ios":"levelo://app?vid=3e86fede-9449-46d5-b091-1d4a5cfab195"},"vehicle_type_id":"4","last_reported":1726265291,"current_range_meters":27200,"station_id":"ce4bgr92rcd13ifvqc7g","pricing_plan_id":"cebpf4jnsgd1na2vs0mg"},{"bike_id":"6761d395-6c44-4ea8-88f9-ae3beb0c5608","system_id":"levelo_inurba_marseille","lat":43.29258,"lon":5.40907,"is_reserved":false,"is_disabled":false,"rental_uris":{"android":"levelo://app?vid=6761d395-6c44-4ea8-88f9-ae3beb0c5608","ios":"levelo://app?vid=6761d395-6c44-4ea8-88f9-ae3beb0c5608"},"vehicle_type_id":"4","last_reported":1726265291,"current_range_meters":28400,"station_id":"ce4bh192rcd13ifvqdc0","pricing_plan_id":"cebpf4jnsgd1na2vs0mg"},{"bike_id":"ebb2fe33-446e-4bbf-9664-9506664d5ccd","system_id":"levelo_inurba_marseille","lat":43.287,"lon":5.39977,"is_reserved":false,"is_disabled":false,"rental_uris":{"android":"levelo://app?vid=ebb2fe33-446e-4bbf-9664-9506664d5ccd","ios":"levelo://app?vid=ebb2fe33-446e-4bbf-9664-9506664d5ccd"},"vehicle_type_id":"4","last_reported":1726265291,"current_range_meters":8400,"station_id":"ce4bho92rcd13ifvqh3g","pricing_plan_id":"cebpf4jnsgd1na2vs0mg"},{"bike_id":"dfd93f18-4bba-4b47-b06f-3f8952876a80","system_id":"levelo_inurba_marseille","lat":43.25506,"lon":5.37651,"is_reserved":false,"is_disabled":false,"rental_uris":{"android":"levelo://app?vid=dfd93f18-4bba-4b47-b06f-3f8952876a80","ios":"levelo://app?vid=dfd93f18-4bba-4b47-b06f-3f8952876a80"},"vehicle_type_id":"4","last_reported":1726265291,"current_range_meters":38800,"station_id":"ce4bhh12rcd13ifvqff0","pricing_plan_id":"cebpf4jnsgd1na2vs0mg"},{"bike_id":"5bcea731-d4da-414e-b204-cc827bfa12b3","system_id":"levelo_inurba_marseille","lat":43.27617,"lon":5.36111,"is_reserved":false,"is_disabled":false,"rental_uris":{"android":"levelo://app?vid=5bcea731-d4da-414e-b204-cc827bfa12b3","ios":"levelo://app?vid=5bcea731-d4da-414e-b204-cc827bfa12b3"},"vehicle_type_id":"4","last_reported":1726265291,"current_range_meters":24400,"station_id":"ce4bgj92rcd13ifvqbe0","pricing_plan_id":"cebpf4jnsgd1na2vs0mg"},{"bike_id":"61e00977-be43-400f-99ea-3c33330f7657","system_id":"levelo_inurba_marseille","lat":43.2501,"lon":5.38916,"is_reserved":false,"is_disabled":false,"rental_uris":{"android":"levelo://app?vid=61e00977-be43-400f-99ea-3c33330f7657","ios":"levelo://app?vid=61e00977-be43-400f-99ea-3c33330f7657"},"vehicle_type_id":"4","last_reported":1726265291,"current_range_meters":24000,"station_id":"ce4bhgp2rcd13ifvqfd0","pricing_plan_id":"cebpf4jnsgd1na2vs0mg"},{"bike_id":"4a5f72d8-d0a2-4b0c-9fcb-ea1c083dacfe","system_id":"levelo_inurba_marseille","lat":43.28721,"lon":5.36084,"is_reserved":false,"is_disabled":false,"rental_uris":{"android":"levelo://app?vid=4a5f72d8-d0a2-4b0c-9fcb-ea1c083dacfe","ios":"levelo://app?vid=4a5f72d8-d0a2-4b0c-9fcb-ea1c083dacfe"},"vehicle_type_id":"4","last_reported":1726265291,"current_range_meters":38000,"station_id":"cki0cbj6b192h4jlfktg","pricing_plan_id":"cebpf4jnsgd1na2vs0mg"},{"bike_id":"cf4ee9a6-65d0-4978-a1e8-f54b0d6b3aed","system_id":"levelo_inurba_marseille","lat":43.31068,"lon":5.38351,"is_reserved":false,"is_disabled":false,"rental_uris":{"android":"levelo://app?vid=cf4ee9a6-65d0-4978-a1e8-f54b0d6b3aed","ios":"levelo://app?vid=cf4ee9a6-65d0-4978-a1e8-f54b0d6b3aed"},"vehicle_type_id":"4","last_reported":1726265291,"current_range_meters":31200,"station_id":"ce4bgv92rcd13ifvqcr0","pricing_plan_id":"cebpf4jnsgd1na2vs0mg"},{"bike_id":"cc910a72-aaf8-4875-9713-44d789c240ff","system_id":"levelo_inurba_marseille","lat":43.3149,"lon":5.37296,"is_reserved":false,"is_disabled":false,"rental_uris":{"android":"levelo://app?vid=cc910a72-aaf8-4875-9713-44d789c240ff","ios":"levelo://app?vid=cc910a72-aaf8-4875-9713-44d789c240ff"},"vehicle_type_id":"4","last_reported":1726265291,"current_range_meters":38800,"station_id":"ce4bgt12rcd13ifvqcd0","pricing_plan_id":"cebpf4jnsgd1na2vs0mg"},{"bike_id":"de2fac9a-b310-467a-80e0-ad6739b0a73a","system_id":"levelo_inurba_marseille","lat":43.29609,"lon":5.37726,"is_reserved":false,"is_disabled":false,"rental_uris":{"android":"levelo://app?vid=de2fac9a-b310-467a-80e0-ad6739b0a73a","ios":"levelo://app?vid=de2fac9a-b310-467a-80e0-ad6739b0a73a"},"vehicle_type_id":"4","last_reported":1726265291,"current_range_meters":33600,"station_id":"ce4bgi92rcd13ifvqb90","pricing_plan_id":"cebpf4jnsgd1na2vs0mg"},{"bike_id":"7cc5cc5c-b0d6-4d34-b5ca-8ffa2c1f3694","system_id":"levelo_inurba_marseille","lat":43.24806,"lon":5.37455,"is_reserved":false,"is_disabled":false,"rental_uris":{"android":"levelo://app?vid=7cc5cc5c-b0d6-4d34-b5ca-8ffa2c1f3694","ios":"levelo://app?vid=7cc5cc5c-b0d6-4d34-b5ca-8ffa2c1f3694"},"vehicle_type_id":"4","last_reported":1726265291,"current_range_meters":28000,"station_id":"ce4bhgh2rcd13ifvqfb0","pricing_plan_id":"cebpf4jnsgd1na2vs0mg"},{"bike_id":"81682be8-e4ae-4d4f-9ca1-d6460e288e62","system_id":"levelo_inurba_marseille","lat":43.26926,"lon":5.3892,"is_reserved":false,"is_disabled":false,"rental_uris":{"android":"levelo://app?vid=81682be8-e4ae-4d4f-9ca1-d6460e288e62","ios":"levelo://app?vid=81682be8-e4ae-4d4f-9ca1-d6460e288e62"},"vehicle_type_id":"4","last_reported":1726265291,"current_range_meters":38800,"station_id":"ce4bhhh2rcd13ifvqfl0","pricing_plan_id":"cebpf4jnsgd1na2vs0mg"},{"bike_id":"f9076aec-56e7-4b2e-a7b1-575337aca9d5","system_id":"levelo_inurba_marseille","lat":43.24173,"lon":5.36397,"is_reserved":false,"is_disabled":false,"rental_uris":{"android":"levelo://app?vid=f9076aec-56e7-4b2e-a7b1-575337aca9d5","ios":"levelo://app?vid=f9076aec-56e7-4b2e-a7b1-575337aca9d5"},"vehicle_type_id":"4","last_reported":1726265291,"current_range_meters":36800,"station_id":"cpo36qri1sfpv3e86is0","pricing_plan_id":"cebpf4jnsgd1na2vs0mg"},{"bike_id":"33645b4c-7e01-4c1b-a62f-3a736ce0c7c3","system_id":"levelo_inurba_marseille","lat":43.28461,"lon":5.35895,"is_reserved":false,"is_disabled":false,"rental_uris":{"android":"levelo://app?vid=33645b4c-7e01-4c1b-a62f-3a736ce0c7c3","ios":"levelo://app?vid=33645b4c-7e01-4c1b-a62f-3a736ce0c7c3"},"vehicle_type_id":"4","last_reported":1726265291,"current_range_meters":34000,"station_id":"ce4bhah2rcd13ifvqei0","pricing_plan_id":"cebpf4jnsgd1na2vs0mg"},{"bike_id":"2ff0cdbe-adf5-4074-9470-656ccf7f57c6","system_id":"levelo_inurba_marseille","lat":43.23187,"lon":5.39991,"is_reserved":false,"is_disabled":false,"rental_uris":{"android":"levelo://app?vid=2ff0cdbe-adf5-4074-9470-656ccf7f57c6","ios":"levelo://app?vid=2ff0cdbe-adf5-4074-9470-656ccf7f57c6"},"vehicle_type_id":"4","last_reported":1726265291,"current_range_meters":38000,"station_id":"ce4bhn12rcd13ifvqgqg","pricing_plan_id":"cebpf4jnsgd1na2vs0mg"},{"bike_id":"9da3cfc3-76e1-45aa-bd84-0cc476fb2e0c","system_id":"levelo_inurba_marseille","lat":43.2293,"lon":5.3538,"is_reserved":false,"is_disabled":false,"rental_uris":{"android":"levelo://app?vid=9da3cfc3-76e1-45aa-bd84-0cc476fb2e0c","ios":"levelo://app?vid=9da3cfc3-76e1-45aa-bd84-0cc476fb2e0c"},"vehicle_type_id":"4","last_reported":1726265291,"current_range_meters":36400,"station_id":"cpo3532slgdg3j2ikp40","pricing_plan_id":"cebpf4jnsgd1na2vs0mg"},{"bike_id":"cbe7bb80-1dc6-4180-9b27-30cd958cca91","system_id":"levelo_inurba_marseille","lat":43.2466,"lon":5.3816,"is_reserved":false,"is_disabled":false,"rental_uris":{"android":"levelo://app?vid=cbe7bb80-1dc6-4180-9b27-30cd958cca91","ios":"levelo://app?vid=cbe7bb80-1dc6-4180-9b27-30cd958cca91"},"vehicle_type_id":"4","last_reported":1726265291,"current_range_meters":24000,"station_id":"ce4bhih2rcd13ifvqfr0","pricing_plan_id":"cebpf4jnsgd1na2vs0mg"},{"bike_id":"ea2c9a21-7a34-4b77-8f98-d5d721bf64ec","system_id":"levelo_inurba_marseille","lat":43.25494,"lon":5.37651,"is_reserved":false,"is_disabled":false,"rental_uris":{"android":"levelo://app?vid=ea2c9a21-7a34-4b77-8f98-d5d721bf64ec","ios":"levelo://app?vid=ea2c9a21-7a34-4b77-8f98-d5d721bf64ec"},"vehicle_type_id":"4","last_reported":1726265291,"current_range_meters":38800,"station_id":"ce4bhh12rcd13ifvqff0","pricing_plan_id":"cebpf4jnsgd1na2vs0mg"},{"bike_id":"2439431d-89f6-402f-9c41-cb747227b854","system_id":"levelo_inurba_marseille","lat":43.31323,"lon":5.39701,"is_reserved":false,"is_disabled":false,"rental_uris":{"android":"levelo://app?vid=2439431d-89f6-402f-9c41-cb747227b854","ios":"levelo://app?vid=2439431d-89f6-402f-9c41-cb747227b854"},"vehicle_type_id":"4","last_reported":1726265291,"current_range_meters":35600,"station_id":"ce4bgvp2rcd13ifvqcu0","pricing_plan_id":"cebpf4jnsgd1na2vs0mg"},{"bike_id":"ebb30ce0-237d-4665-a093-c48a3ee50a46","system_id":"levelo_inurba_marseille","lat":43.2558,"lon":5.38234,"is_reserved":false,"is_disabled":false,"rental_uris":{"android":"levelo://app?vid=ebb30ce0-237d-4665-a093-c48a3ee50a46","ios":"levelo://app?vid=ebb30ce0-237d-4665-a093-c48a3ee50a46"},"vehicle_type_id":"4","last_reported":1726265291,"current_range_meters":38800,"station_id":"ce4bhih2rcd13ifvqfs0","pricing_plan_id":"cebpf4jnsgd1na2vs0mg"},{"bike_id":"3b4631f1-0e73-4449-be64-c1cdece0b434","system_id":"levelo_inurba_marseille","lat":43.28267,"lon":5.35068,"is_reserved":false,"is_disabled":false,"rental_uris":{"android":"levelo://app?vid=3b4631f1-0e73-4449-be64-c1cdece0b434","ios":"levelo://app?vid=3b4631f1-0e73-4449-be64-c1cdece0b434"},"vehicle_type_id":"4","last_reported":1726265291,"current_range_meters":38800,"station_id":"ce4bhbp2rcd13ifvqerg","pricing_plan_id":"cebpf4jnsgd1na2vs0mg"},{"bike_id":"aef09fda-9467-42e2-98fc-34612831dc7c","system_id":"levelo_inurba_marseille","lat":43.25085,"lon":5.39522,"is_reserved":false,"is_disabled":false,"rental_uris":{"android":"levelo://app?vid=aef09fda-9467-42e2-98fc-34612831dc7c","ios":"levelo://app?vid=aef09fda-9467-42e2-98fc-34612831dc7c"},"vehicle_type_id":"4","last_reported":1726265291,"current_range_meters":38800,"station_id":"ce4bhm12rcd13ifvqgkg","pricing_plan_id":"cebpf4jnsgd1na2vs0mg"},{"bike_id":"fe2aae7c-4f69-4e66-8f95-512f5c38298a","system_id":"levelo_inurba_marseille","lat":43.31329,"lon":5.39696,"is_reserved":false,"is_disabled":false,"rental_uris":{"android":"levelo://app?vid=fe2aae7c-4f69-4e66-8f95-512f5c38298a","ios":"levelo://app?vid=fe2aae7c-4f69-4e66-8f95-512f5c38298a"},"vehicle_type_id":"4","last_reported":1726265291,"current_range_meters":33600,"station_id":"ce4bgvp2rcd13ifvqcu0","pricing_plan_id":"cebpf4jnsgd1na2vs0mg"},{"bike_id":"b8ead6d4-a0dd-4799-804e-c1c5606e4feb","system_id":"levelo_inurba_marseille","lat":43.29004,"lon":5.35611,"is_reserved":false,"is_disabled":false,"rental_uris":{"android":"levelo://app?vid=b8ead6d4-a0dd-4799-804e-c1c5606e4feb","ios":"levelo://app?vid=b8ead6d4-a0dd-4799-804e-c1c5606e4feb"},"vehicle_type_id":"4","last_reported":1726265291,"current_range_meters":18000,"station_id":"ce4bhb92rcd13ifvqen0","pricing_plan_id":"cebpf4jnsgd1na2vs0mg"},{"bike_id":"1d004851-c08b-4a01-aec6-6340c8507935","system_id":"levelo_inurba_marseille","lat":43.24179,"lon":5.39723,"is_reserved":false,"is_disabled":false,"rental_uris":{"android":"levelo://app?vid=1d004851-c08b-4a01-aec6-6340c8507935","ios":"levelo://app?vid=1d004851-c08b-4a01-aec6-6340c8507935"},"vehicle_type_id":"4","last_reported":1726265291,"current_range_meters":31200,"station_id":"ce4bhn12rcd13ifvqgpg","pricing_plan_id":"cebpf4jnsgd1na2vs0mg"},{"bike_id":"f20f613d-77b3-4abc-847d-4abd98073b48","system_id":"levelo_inurba_marseille","lat":43.28621,"lon":5.35104,"is_reserved":false,"is_disabled":false,"rental_uris":{"android":"levelo://app?vid=f20f613d-77b3-4abc-847d-4abd98073b48","ios":"levelo://app?vid=f20f613d-77b3-4abc-847d-4abd98073b48"},"vehicle_type_id":"4","last_reported":1726265291,"current_range_meters":28800,"station_id":"ce4bhch2rcd13ifvqeug","pricing_plan_id":"cebpf4jnsgd1na2vs0mg"},{"bike_id":"dbdf73b8-a2c9-432d-9f5d-898a1771c300","system_id":"levelo_inurba_marseille","lat":43.28568,"lon":5.39499,"is_reserved":false,"is_disabled":false,"rental_uris":{"android":"levelo://app?vid=dbdf73b8-a2c9-432d-9f5d-898a1771c300","ios":"levelo://app?vid=dbdf73b8-a2c9-432d-9f5d-898a1771c300"},"vehicle_type_id":"4","last_reported":1726265291,"current_range_meters":38800,"station_id":"ce4bh292rcd13ifvqdg0","pricing_plan_id":"cebpf4jnsgd1na2vs0mg"},{"bike_id":"45596ada-5947-4764-959e-e3343734d3de","system_id":"levelo_inurba_marseille","lat":43.29257,"lon":5.40906,"is_reserved":false,"is_disabled":false,"rental_uris":{"android":"levelo://app?vid=45596ada-5947-4764-959e-e3343734d3de","ios":"levelo://app?vid=45596ada-5947-4764-959e-e3343734d3de"},"vehicle_type_id":"4","last_reported":1726265291,"current_range_meters":16000,"station_id":"ce4bh192rcd13ifvqdc0","pricing_plan_id":"cebpf4jnsgd1na2vs0mg"},{"bike_id":"14b024ec-db9b-49fd-a42f-674bfc581d85","system_id":"levelo_inurba_marseille","lat":43.2842,"lon":5.34993,"is_reserved":false,"is_disabled":false,"rental_uris":{"android":"levelo://app?vid=14b024ec-db9b-49fd-a42f-674bfc581d85","ios":"levelo://app?vid=14b024ec-db9b-49fd-a42f-674bfc581d85"},"vehicle_type_id":"4","last_reported":1726265291,"current_range_meters":28800,"station_id":"ce4bhbh2rcd13ifvqepg","pricing_plan_id":"cebpf4jnsgd1na2vs0mg"},{"bike_id":"23fa22ec-dae9-4404-b265-1b4013317991","system_id":"levelo_inurba_marseille","lat":43.28971,"lon":5.37837,"is_reserved":false,"is_disabled":false,"rental_uris":{"android":"levelo://app?vid=23fa22ec-dae9-4404-b265-1b4013317991","ios":"levelo://app?vid=23fa22ec-dae9-4404-b265-1b4013317991"},"vehicle_type_id":"4","last_reported":1726265291,"current_range_meters":38000,"station_id":"ce4bh9p2rcd13ifvqed0","pricing_plan_id":"cebpf4jnsgd1na2vs0mg"},