{"last_updated":1726668526,"ttl":30,"version":"2.2","data":{"bikes":[{"bike_id":"96c73387-2b3c-4b2e-a6cb-ebd2a314ec52","system_id":"levelo_inurba_marseille","lat":43.25581,"lon":5.38228,"is_reserved":false,"is_disabled":false,"rental_uris":{"android":"levelo://app?vid=96c73387-2b3c-4b2e-a6cb-ebd2a314ec52","ios":"levelo://app?vid=96c73387-2b3c-4b2e-a6cb-ebd2a314ec52"},"vehicle_type_id":"4","last_reported":1726668526,"current_range_meters":29600,"station_id":"ce4bhih2rcd13ifvqfs0","pricing_plan_id":"cebpf4jnsgd1na2vs0mg"},{"bike_id":"b372d482-e8c8-47da-b5c5-4b8b06cf68bb","system_id":"levelo_inurba_marseille","lat":43.27207,"lon":5.39195,"is_reserved":false,"is_disabled":false,"rental_uris":{"android":"levelo://app?vid=b372d482-e8c8-47da-b5c5-4b8b06cf68bb","ios":"levelo://app?vid=b372d482-e8c8-47da-b5c5-4b8b06cf68bb"},"vehicle_type_id":"4","last_reported":1726668526,"current_range_meters":19600,"station_id":"ce4bhhp2rcd13ifvqfm0","pricing_plan_id":"cebpf4jnsgd1na2vs0mg"},{"bike_id":"9cdd20ac-237d-416d-b3ff-cfd17d7dccac","system_id":"levelo_inurba_marseille","lat":43.27496,"lon":5.42451,"is_reserved":false,"is_disabled":false,"rental_uris":{"android":"levelo://app?vid=9cdd20ac-237d-416d-b3ff-cfd17d7dccac","ios":"levelo://app?vid=9cdd20ac-237d-416d-b3ff-cfd17d7dccac"},"vehicle_type_id":"4","last_reported":1726668526,"current_range_meters":38800,"station_id":"ce4bhn92rcd13ifvqgrg","pricing_plan_id":"cebpf4jnsgd1na2vs0mg"},{"bike_id":"da3a81dd-0c11-4779-9595-23862858e4af","system_id":"levelo_inurba_marseille","lat":43.30648,"lon":5.40085,"is_reserved":false,"is_disabled":false,"rental_uris":{"android":"levelo://app?vid=da3a81dd-0c11-4779-9595-23862858e4af","ios":"levelo://app?vid=da3a81dd-0c11-4779-9595-23862858e4af"},"vehicle_type_id":"4","last_reported":1726668526,"current_range_meters":19600,"station_id":"ce4bh112rcd13ifvqda0","pricing_plan_id":"cebpf4jnsgd1na2vs0mg"},{"bike_id":"df55df57-d0de-4d7d-b6ee-8577f17eba62","system_id":"levelo_inurba_marseille","lat":43.30961,"lon":5.391,"is_reserved":false,"is_disabled":false,"rental_uris":{"android":"levelo://app?vid=df55df57-d0de-4d7d-b6ee-8577f17eba62","ios":"levelo://app?vid=df55df57-d0de-4d7d-b6ee-8577f17eba62"},"vehicle_type_id":"4","last_reported":1726668526,"current_range_meters":34000,"station_id":"","pricing_plan_id":"cebpf4jnsgd1na2vs0mg"},{"bike_id":"53a372de-2187-4e87-953f-07cf51841b79","system_id":"levelo_inurba_marseille","lat":43.2904,"lon":5.38666,"is_reserved":false,"is_disabled":false,"rental_uris":{"android":"levelo://app?vid=53a372de-2187-4e87-953f-07cf51841b79","ios":"levelo://app?vid=53a372de-2187-4e87-953f-07cf51841b79"},"vehicle_type_id":"4","last_reported":1726668526,"current_range_meters":4000,"station_id":"ce4bh4p2rcd13ifvqe0g","pricing_plan_id":"cebpf4jnsgd1na2vs0mg"},{"bike_id":"43176770-eaee-4996-86c7-d408161e4ce6","system_id":"levelo_inurba_marseille","lat":43.29896,"lon":5.43665,"is_reserved":false,"is_disabled":false,"rental_uris":{"android":"levelo://app?vid=43176770-eaee-4996-86c7-d408161e4ce6","ios":"levelo://app?vid=43176770-eaee-4996-86c7-d408161e4ce6"},"vehicle_type_id":"4","last_reported":1726668526,"current_range_meters":36800,"station_id":"ce4bhpp2rcd13ifvqhfg","pricing_plan_id":"cebpf4jnsgd1na2vs0mg"},{"bike_id":"c422d8b9-8789-4d9f-9530-071cf1de7284","system_id":"levelo_inurba_marseille","lat":43.31124,"lon":5.36692,"is_reserved":false,"is_disabled":false,"rental_uris":{"android":"levelo://app?vid=c422d8b9-8789-4d9f-9530-071cf1de7284","ios":"levelo://app?vid=c422d8b9-8789-4d9f-9530-071cf1de7284"},"vehicle_type_id":"4","last_reported":1726668526,"current_range_meters":5600,"station_id":"ce4bgrp2rcd13ifvqc9g","pricing_plan_id":"cebpf4jnsgd1na2vs0mg"},{"bike_id":"76bfb786-f20d-4de3-a458-2b1658e1e7bf","system_id":"levelo_inurba_marseille","lat":43.30249,"lon":5.40058,"is_reserved":false,"is_disabled":false,"rental_uris":{"android":"levelo://app?vid=76bfb786-f20d-4de3-a458-2b1658e1e7bf","ios":"levelo://app?vid=76bfb786-f20d-4de3-a458-2b1658e1e7bf"},"vehicle_type_id":"4","last_reported":1726668526,"current_range_meters":24000,"station_id":"ce4bgvh2rcd13ifvqcs0","pricing_plan_id":"cebpf4jnsgd1na2vs0mg"},{"bike_id":"e532fd53-ad12-4848-82ea-70ac934c1c37","system_id":"levelo_inurba_marseille","lat":43.337444,"lon":5.374475,"is_reserved":false,"is_disabled":false,"rental_uris":{"android":"levelo://app?vid=e532fd53-ad12-4848-82ea-70ac934c1c37","ios":"levelo://app?vid=e532fd53-ad12-4848-82ea-70ac934c1c37"},"vehicle_type_id":"4","last_reported":1726668526,"current_range_meters":20000,"station_id":"","pricing_plan_id":"cebpf4jnsgd1na2vs0mg"},{"bike_id":"165f3774-9a11-473a-b76a-3a3678b30285","system_id":"levelo_inurba_marseille","lat":43.30136,"lon":5.39852,"is_reserved":false,"is_disabled":false,"rental_uris":{"android":"levelo://app?vid=165f3774-9a11-473a-b76a-3a3678b30285","ios":"levelo://app?vid=165f3774-9a11-473a-b76a-3a3678b30285"},"vehicle_type_id":"4","last_reported":1726668526,"current_range_meters":25200,"station_id":"ce4bh0h2rcd13ifvqd40","pricing_plan_id":"cebpf4jnsgd1na2vs0mg"},{"bike_id":"83f35325-3515-4569-b76f-18759432130e","system_id":"levelo_inurba_marseille","lat":43.30314,"lon":5.36893,"is_reserved":false,"is_disabled":false,"rental_uris":{"android":"levelo://app?vid=83f35325-3515-4569-b76f-18759432130e","ios":"levelo://app?vid=83f35325-3515-4569-b76f-18759432130e"},"vehicle_type_id":"4","last_reported":1726668526,"current_range_meters":37600,"station_id":"ce4bgqh2rcd13ifvqc5g","pricing_plan_id":"cebpf4jnsgd1na2vs0mg"},{"bike_id":"8f5f7a85-7979-48f1-a68b-15e697f6e804","system_id":"levelo_inurba_marseille","lat":43.30539,"lon":5.36535,"is_reserved":false,"is_disabled":false,"rental_uris":{"android":"levelo://app?vid=8f5f7a85-7979-48f1-a68b-15e697f6e804","ios":"levelo://app?vid=8f5f7a85-7979-48f1-a68b-15e697f6e804"},"vehicle_type_id":"4","last_reported":1726668526,"current_range_meters":20400,"station_id":"ce4bgs12rcd13ifvqcag","pricing_plan_id":"cebpf4jnsgd1na2vs0mg"},{"bike_id":"0da95069-b810-41f6-9a69-22b91bfd8995","system_id":"levelo_inurba_marseille","lat":43.29195,"lon":5.35804,"is_reserved":false,"is_disabled":false,"rental_uris":{"android":"levelo://app?vid=0da95069-b810-41f6-9a69-22b91bfd8995","ios":"levelo://app?vid=0da95069-b810-41f6-9a69-22b91bfd8995"},"vehicle_type_id":"4","last_reported":1726668526,"current_range_meters":15200,"station_id":"ce4bhb12rcd13ifvqel0","pricing_plan_id":"cebpf4jnsgd1na2vs0mg"},{"bike_id":"25049043-2535-42fc-ae79-855d417c5130","system_id":"levelo_inurba_marseille","lat":43.30641,"lon":5.4008,"is_reserved":false,"is_disabled":false,"rental_uris":{"android":"levelo://app?vid=25049043-2535-42fc-ae79-855d417c5130","ios":"levelo://app?vid=25049043-2535-42fc-ae79-855d417c5130"},"vehicle_type_id":"4","last_reported":1726668526,"current_range_meters":33600,"station_id":"ce4bh112rcd13ifvqda0","pricing_plan_id":"cebpf4jnsgd1na2vs0mg"},{"bike_id":"cdbf7362-04ab-4d4c-b678-751ad44eed79","system_id":"levelo_inurba_marseille","lat":43.2862,"lon":5.3511,"is_reserved":false,"is_disabled":false,"rental_uris":{"android":"levelo://app?vid=cdbf7362-04ab-4d4c-b678-751ad44eed79","ios":"levelo://app?vid=cdbf7362-04ab-4d4c-b678-751ad44eed79"},"vehicle_type_id":"4","last_reported":1726668526,"current_range_meters":2000,"station_id":"ce4bhch2rcd13ifvqeug","pricing_plan_id":"cebpf4jnsgd1na2vs0mg"},{"bike_id":"70d84132-fa02-48de-8e55-2112c0253f7a","system_id":"levelo_inurba_marseille","lat":43.28673,"lon":5.3635,"is_reserved":false,"is_disabled":false,"rental_uris":{"android":"levelo://app?vid=70d84132-fa02-48de-8e55-2112c0253f7a","ios":"levelo://app?vid=70d84132-fa02-48de-8e55-2112c0253f7a"},"vehicle_type_id":"4","last_reported":1726668526,"current_range_meters":22800,"station_id":"ce4bhah2rcd13ifvqej0","pricing_plan_id":"cebpf4jnsgd1na2vs0mg"},{"bike_id":"ca64df77-b7c7-4cc4-bbbf-cb11e3bd3c8b","system_id":"levelo_inurba_marseille","lat":43.30246,"lon":5.4051,"is_reserved":false,"is_disabled":false,"rental_uris":{"android":"levelo://app?vid=ca64df77-b7c7-4cc4-bbbf-cb11e3bd3c8b","ios":"levelo://app?vid=ca64df77-b7c7-4cc4-bbbf-cb11e3bd3c8b"},"vehicle_type_id":"4","last_reported":1726668526,"current_range_meters":38800,"station_id":"ce4bh012rcd13ifvqd10","pricing_plan_id":"cebpf4jnsgd1na2vs0mg"},{"bike_id":"103a716b-dbc7-4e49-a7f2-16e378e92b85","system_id":"levelo_inurba_marseille","lat":43.22927,"lon":5.35373,"is_reserved":false,"is_disabled":false,"rental_uris":{"android":"levelo://app?vid=103a716b-dbc7-4e49-a7f2-16e378e92b85","ios":"levelo://app?vid=103a716b-dbc7-4e49-a7f2-16e378e92b85"},"vehicle_type_id":"4","last_reported":1726668526,"current_range_meters":25200,"station_id":"cpo3532slgdg3j2ikp40","pricing_plan_id":"cebpf4jnsgd1na2vs0mg"},{"bike_id":"c8b16021-ad4f-4c1b-80b1-7d1b9c811227","system_id":"levelo_inurba_marseille","lat":43.3237,"lon":5.38871,"is_reserved":false,"is_disabled":false,"rental_uris":{"android":"levelo://app?vid=c8b16021-ad4f-4c1b-80b1-7d1b9c811227","ios":"levelo://app?vid=c8b16021-ad4f-4c1b-80b1-7d1b9c811227"},"vehicle_type_id":"4","last_reported":1726668526,"current_range_meters":9600,"station_id":"ce4bhqp2rcd13ifvqhog","pricing_plan_id":"cebpf4jnsgd1na2vs0mg"},{"bike_id":"d9ff0115-e95b-4248-bc34-9e667a26d08f","system_id":"levelo_inurba_marseille","lat":43.2868,"lon":5.38668,"is_reserved":false,"is_disabled":false,"rental_uris":{"android":"levelo://app?vid=d9ff0115-e95b-4248-bc34-9e667a26d08f","ios":"levelo://app?vid=d9ff0115-e95b-4248-bc34-9e667a26d08f"},"vehicle_type_id":"4","last_reported":1726668526,"current_range_meters":4400,"station_id":"ce4bh492rcd13ifvqdug","pricing_plan_id":"cebpf4jnsgd1na2vs0mg"},{"bike_id":"734aa74e-b926-4042-9aab-1e80809573f6","system_id":"levelo_inurba_marseille","lat":43.28151,"lon":5.40434,"is_reserved":false,"is_disabled":false,"rental_uris":{"android":"levelo://app?vid=734aa74e-b926-4042-9aab-1e80809573f6","ios":"levelo://app?vid=734aa74e-b926-4042-9aab-1e80809573f6"},"vehicle_type_id":"4","last_reported":1726668526,"current_range_meters":27200,"station_id":"","pricing_plan_id":"cebpf4jnsgd1na2vs0mg"},{"bike_id":"72bfb5ab-0b76-4d17-b1be-2f3703a52d2c","system_id":"levelo_inurba_marseille","lat":43.236389,"lon":5.398983,"is_reserved":false,"is_disabled":false,"rental_uris":{"android":"levelo://app?vid=72bfb5ab-0b76-4d17-b1be-2f3703a52d2c","ios":"levelo://app?vid=72bfb5ab-0b76-4d17-b1be-2f3703a52d2c"},"vehicle_type_id":"4","last_reported":1726668526,"current_range_meters":16800,"station_id":"ce4bhhh2rcd13ifvqfl0","pricing_plan_id":"cebpf4jnsgd1na2vs0mg"},{"bike_id":"506a28f7-0798-49e4-b38f-f0bb95dda86f","system_id":"levelo_inurba_marseille","lat":43.32487,"lon":5.36584,"is_reserved":false,"is_disabled":false,"rental_uris":{"android":"levelo://app?vid=506a28f7-0798-49e4-b38f-f0bb95dda86f","ios":"levelo://app?vid=506a28f7-0798-49e4-b38f-f0bb95dda86f"},"vehicle_type_id":"4","last_reported":1726668526,"current_range_meters":34000,"station_id":"ce4bhs12rcd13ifvqhvg","pricing_plan_id":"cebpf4jnsgd1na2vs0mg"},{"bike_id":"d9b62648-6378-4dbb-9f13-09848203a4fd","system_id":"levelo_inurba_marseille","lat":43.26682,"lon":5.38259,"is_reserved":false,"is_disabled":false,"rental_uris":{"android":"levelo://app?vid=d9b62648-6378-4dbb-9f13-09848203a4fd","ios":"levelo://app?vid=d9b62648-6378-4dbb-9f13-09848203a4fd"},"vehicle_type_id":"4","last_reported":1726668526,"current_range_meters":38800,"station_id":"ce4bhg92rcd13ifvqf90","pricing_plan_id":"cebpf4jnsgd1na2vs0mg"},{"bike_id":"7f79859b-2773-448a-ad11-9deee25a9658","system_id":"levelo_inurba_marseille","lat":43.28034,"lon":5.36936,"is_reserved":false,"is_disabled":false,"rental_uris":{"android":"levelo://app?vid=7f79859b-2773-448a-ad11-9deee25a9658","ios":"levelo://app?vid=7f79859b-2773-448a-ad11-9deee25a9658"},"vehicle_type_id":"4","last_reported":1726668526,"current_range_meters":36000,"station_id":"ce4bha12rcd13ifvqef0","pricing_plan_id":"cebpf4jnsgd1na2vs0mg"},{"bike_id":"c8db52d5-0ab9-4fc7-9a8b-205e08529ecd","system_id":"levelo_inurba_marseille","lat":43.27609,"lon":5.36116,"is_reserved":false,"is_disabled":false,"rental_uris":{"android":"levelo://app?vid=c8db52d5-0ab9-4fc7-9a8b-205e08529ecd","ios":"levelo://app?vid=c8db52d5-0ab9-4fc7-9a8b-205e08529ecd"},"vehicle_type_id":"4","last_reported":1726668526,"current_range_meters":36800,"station_id":"ce4bgj92rcd13ifvqbe0","pricing_plan_id":"cebpf4jnsgd1na2vs0mg"},{"bike_id":"6f1b1619-9bb7-460c-a833-54a4a85676f8","system_id":"levelo_inurba_marseille","lat":43.24543,"lon":5.39526,"is_reserved":false,"is_disabled":false,"rental_uris":{"android":"levelo://app?vid=6f1b1619-9bb7-460c-a833-54a4a85676f8","ios":"levelo://app?vid=6f1b1619-9bb7-460c-a833-54a4a85676f8"},"vehicle_type_id":"4","last_reported":1726668526,"current_range_meters":16000,"station_id":"ce4bhlp2rcd13ifvqgjg","pricing_plan_id":"cebpf4jnsgd1na2vs0mg"},{"bike_id":"f53d0656-6296-4227-a802-76248c9ecdfc","system_id":"levelo_inurba_marseille","lat":43.3094,"lon":5.39025,"is_reserved":false,"is_disabled":false,"rental_uris":{"android":"levelo://app?vid=f53d0656-6296-4227-a802-76248c9ecdfc","ios":"levelo://app?vid=f53d0656-6296-4227-a802-76248c9ecdfc"},"vehicle_type_id":"4","last_reported":1726668526,"current_range_meters":18000,"station_id":"ce4bgup2rcd13ifvqco0","pricing_plan_id":"cebpf4jnsgd1na2vs0mg"},{"bike_id":"1c94248c-22db-4c25-a7fc-bd8f9b815482","system_id":"levelo_inurba_marseille","lat":43.295929,"lon":5.399726,"is_reserved":false,"is_disabled":false,"rental_uris":{"android":"levelo://app?vid=1c94248c-22db-4c25-a7fc-bd8f9b815482","ios":"levelo://app?vid=1c94248c-22db-4c25-a7fc-bd8f9b815482"},"vehicle_type_id":"4","last_reported":1726668526,"current_range_meters":24000,"station_id":"ce4bh312rcd13ifvqdj0","pricing_plan_id":"cebpf4jnsgd1na2vs0mg"},{"bike_id":"54ebef0d-d408-4004-86ff-29fe2d21e6da","system_id":"levelo_inurba_marseille","lat":43.27427,"lon":5.39422,"is_reserved":false,"is_disabled":false,"rental_uris":{"android":"levelo://app?vid=54ebef0d-d408-4004-86ff-29fe2d21e6da","ios":"levelo://app?vid=54ebef0d-d408-4004-86ff-29fe2d21e6da"},"vehicle_type_id":"4","last_reported":1726668526,"current_range_meters":18800,"station_id":"ce4bhdp2rcd13ifvqf20","pricing_plan_id":"cebpf4jnsgd1na2vs0mg"},{"bike_id":"6a43e692-53a0-404d-ad32-2b1a401b1a25","system_id":"levelo_inurba_marseille","lat":43.2455,"lon":5.39519,"is_reserved":false,"is_disabled":false,"rental_uris":{"android":"levelo://app?vid=6a43e692-53a0-404d-ad32-2b1a401b1a25","ios":"levelo://app?vid=6a43e692-53a0-404d-ad32-2b1a401b1a25"},"vehicle_type_id":"4","last_reported":1726668526,"current_range_meters":32800,"station_id":"ce4bhlp2rcd13ifvqgjg","pricing_plan_id":"cebpf4jnsgd1na2vs0mg"},{"bike_id":"5c7cfa7d-f877-40ae-a181-0082e2e96ba7","system_id":"levelo_inurba_marseille","lat":43.231781,"lon":5.39995,"is_reserved":false,"is_disabled":false,"rental_uris":{"android":"levelo://app?vid=5c7cfa7d-f877-40ae-a181-0082e2e96ba7","ios":"levelo://app?vid=5c7cfa7d-f877-40ae-a181-0082e2e96ba7"},"vehicle_type_id":"4","last_reported":1726668526,"current_range_meters":9200,"station_id":"ce4bhn12rcd13ifvqgqg","pricing_plan_id":"cebpf4jnsgd1na2vs0mg"},{"bike_id":"c2667222-5d26-4d9c-a938-761c480fe584","system_id":"levelo_inurba_marseille","lat":43.33026,"lon":5.39036,"is_reserved":false,"is_disabled":false,"rental_uris":{"android":"levelo://app?vid=c2667222-5d26-4d9c-a938-761c480fe584","ios":"levelo://app?vid=c2667222-5d26-4d9c-a938-761c480fe584"},"vehicle_type_id":"4","last_reported":1726668526,"current_range_meters":10000,"station_id":"ce4bhr92rcd13ifvqhrg","pricing_plan_id":"cebpf4jnsgd1na2vs0mg"},{"bike_id":"d2648441-8611-4e86-b6a3-95e5dd6d09df","system_id":"levelo_inurba_marseille","lat":43.24647,"lon":5.38891,"is_reserved":false,"is_disabled":false,"rental_uris":{"android":"levelo://app?vid=d2648441-8611-4e86-b6a3-95e5dd6d09df","ios":"levelo://app?vid=d2648441-8611-4e86-b6a3-95e5dd6d09df"},"vehicle_type_id":"4","last_reported":1726668526,"current_range_meters":39200,"station_id":"ce4bhg12rcd13ifvqf60","pricing_plan_id":"cebpf4jnsgd1na2vs0mg"},{"bike_id":"f983feed-8e80-4bcd-a3a8-3f33f26b379a","system_id":"levelo_inurba_marseille","lat":43.28667,"lon":5.36356,"is_reserved":false,"is_disabled":false,"rental_uris":{"android":"levelo://app?vid=f983feed-8e80-4bcd-a3a8-3f33f26b379a","ios":"levelo://app?vid=f983feed-8e80-4bcd-a3a8-3f33f26b379a"},"vehicle_type_id":"4","last_reported":1726668526,"current_range_meters":6400,"station_id":"ce4bhah2rcd13ifvqej0","pricing_plan_id":"cebpf4jnsgd1na2vs0mg"},{"bike_id":"7b748ac9-000b-45f2-a1b4-708bb0124ebb","system_id":"levelo_inurba_marseille","lat":43.23175,"lon":5.399919,"is_reserved":false,"is_disabled":false,"rental_uris":{"android":"levelo://app?vid=7b748ac9-000b-45f2-a1b4-708bb0124ebb","ios":"levelo://app?vid=7b748ac9-000b-45f2-a1b4-708bb0124ebb"},"vehicle_type_id":"4","last_reported":1726668526,"current_range_meters":17600,"station_id":"ce4bhhh2rcd13ifvqfl0","pricing_plan_id":"cebpf4jnsgd1na2vs0mg"},{"bike_id":"74cf48ce-0c7c-49e2-81d6-547ab0656005","system_id":"levelo_inurba_marseille","lat":43.23155,"lon":5.4371,"is_reserved":false,"is_disabled":false,"rental_uris":{"android":"levelo://app?vid=74cf48ce-0c7c-49e2-81d6-547ab0656005","ios":"levelo://app?vid=74cf48ce-0c7c-49e2-81d6-547ab0656005"},"vehicle_type_id":"4","last_reported":1726668526,"current_range_meters":38800,"station_id":"ce4bhmp2rcd13ifvqgog","pricing_plan_id":"cebpf4jnsgd1na2vs0mg"},{"bike_id":"bacf1473-d122-4286-aebc-e8f2b33bf5ad","system_id":"levelo_inurba_marseille","lat":43.23151,"lon":5.43712,"is_reserved":false,"is_disabled":false,"rental_uris":{"android":"levelo://app?vid=bacf1473-d122-4286-aebc-e8f2b33bf5ad","ios":"levelo://app?vid=bacf1473-d122-4286-aebc-e8f2b33bf5ad"},"vehicle_type_id":"4","last_reported":1726668526,"current_range_meters":38800,"station_id":"ce4bhmp2rcd13ifvqgog","pricing_plan_id":"cebpf4jnsgd1na2vs0mg"},{"bike_id":"57d585b0-e810-4e5e-83d0-2ed7d88c031a","system_id":"levelo_inurba_marseille","lat":43.29571,"lon":5.37506,"is_reserved":false,"is_disabled":false,"rental_uris":{"android":"levelo://app?vid=57d585b0-e810-4e5e-83d0-2ed7d88c031a","ios":"levelo://app?vid=57d585b0-e810-4e5e-83d0-2ed7d88c031a"},"vehicle_type_id":"4","last_reported":1726668526,"current_range_meters":38800,"station_id":"ce4bgh92rcd13ifvqb50","pricing_plan_id":"cebpf4jnsgd1na2vs0mg"},{"bike_id":"60e7dd4c-2921-469c-98b9-d7f245b1b02c","system_id":"levelo_inurba_marseille","lat":43.27059,"lon":5.4026,"is_reserved":false,"is_disabled":false,"rental_uris":{"android":"levelo://app?vid=60e7dd4c-2921-469c-98b9-d7f245b1b02c","ios":"levelo://app?vid=60e7dd4c-2921-469c-98b9-d7f245b1b02c"},"vehicle_type_id":"4","last_reported":1726668526,"current_range_meters":2800,"station_id":"ce4bhk92rcd13ifvqgc0","pricing_plan_id":"cebpf4jnsgd1na2vs0mg"},{"bike_id":"f1719dcb-631f-4fb9-9c99-2fe025679434","system_id":"levelo_inurba_marseille","lat":43.29204,"lon":5.39324,"is_reserved":false,"is_disabled":false,"rental_uris":{"android":"levelo://app?vid=f1719dcb-631f-4fb9-9c99-2fe025679434","ios":"levelo://app?vid=f1719dcb-631f-4fb9-9c99-2fe025679434"},"vehicle_type_id":"4","last_reported":1726668526,"current_range_meters":8400,"station_id":"ce4bh192rcd13ifvqdd0","pricing_plan_id":"cebpf4jnsgd1na2vs0mg"},{"bike_id":"8e4a7868-c507-4412-811a-2bbd93275fec","system_id":"levelo_inurba_marseille","lat":43.30179,"lon":5.37997,"is_reserved":false,"is_disabled":false,"rental_uris":{"android":"levelo://app?vid=8e4a7868-c507-4412-811a-2bbd93275fec","ios":"levelo://app?vid=8e4a7868-c507-4412-811a-2bbd93275fec"},"vehicle_type_id":"4","last_reported":1726668526,"current_range_meters":38800,"station_id":"ce4bguh2rcd13ifvqcj0","pricing_plan_id":"cebpf4jnsgd1na2vs0mg"},{"bike_id":"b612d570-1747-4225-a925-4c58c87da5c1","system_id":"levelo_inurba_marseille","lat":43.31117,"lon":5.3777,"is_reserved":false,"is_disabled":false,"rental_uris":{"android":"levelo://app?vid=b612d570-1747-4225-a925-4c58c87da5c1","ios":"levelo://app?vid=b612d570-1747-4225-a925-4c58c87da5c1"},"vehicle_type_id":"4","last_reported":1726668526,"current_range_meters":12000,"station_id":"ce4bgt92rcd13ifvqcg0","pricing_plan_id":"cebpf4jnsgd1na2vs0mg"},{"bike_id":"3aed33df-a235-4fa3-960a-fccaece976d4","system_id":"levelo_inurba_marseille","lat":43.30553,"lon":5.36527,"is_reserved":false,"is_disabled":false,"rental_uris":{"android":"levelo://app?vid=3aed33df-a235-4fa3-960a-fccaece976d4","ios":"levelo://app?vid=3aed33df-a235-4fa3-960a-fccaece976d4"},"vehicle_type_id":"4","last_reported":1726668526,"current_range_meters":36400,"station_id":"ce4bgs12rcd13ifvqcag","pricing_plan_id":"cebpf4jnsgd1na2vs0mg"},{"bike_id":"5cd7c301-17ff-4a91-ac55-a6b50386cacd","system_id":"levelo_inurba_marseille","lat":43.337444,"lon":5.374475,"is_reserved":false,"is_disabled":false,"rental_uris":{"android":"levelo://app?vid=5cd7c301-17ff-4a91-ac55-a6b50386cacd","ios":"levelo://app?vid=5cd7c301-17ff-4a91-ac55-a6b50386cacd"},"vehicle_type_id":"4","last_reported":1726668526,"current_range_meters":22000,"station_id":"ce4bgup2rcd13ifvqcn0","pricing_plan_id":"cebpf4jnsgd1na2vs0mg"},{"bike_id":"f0ef9c78-24fa-491e-9241-e4b48460e2c6","system_id":"levelo_inurba_marseille","lat":43.28857,"lon":5.35847,"is_reserved":false,"is_disabled":false,"rental_uris":{"android":"levelo://app?vid=f0ef9c78-24fa-491e-9241-e4b48460e2c6","ios":"levelo://app?vid=f0ef9c78-24fa-491e-9241-e4b48460e2c6"},"vehicle_type_id":"4","last_reported":1726668526,"current_range_meters":33200,"station_id":"ce4bhb12rcd13ifvqem0","pricing_plan_id":"cebpf4jnsgd1na2vs0mg"},{"bike_id":"af0be5d2-536b-4aa9-9f0a-cd8ae9dcf16b","system_id":"levelo_inurba_marseille","lat":43.2866,"lon":5.36345,"is_reserved":false,"is_disabled":false,"rental_uris":{"android":"levelo://app?vid=af0be5d2-536b-4aa9-9f0a-cd8ae9dcf16b","ios":"levelo://app?vid=af0be5d2-536b-4aa9-9f0a-cd8ae9dcf16b"},"vehicle_type_id":"4","last_reported":1726668526,"current_range_meters":3200,"station_id":"ce4bhah2rcd13ifvqej0","pricing_plan_id":"cebpf4jnsgd1na2vs0mg"},{"bike_id":"970803e4-05d8-488c-94a2-72d59c8b12eb","system_id":"levelo_inurba_marseille","lat":43.2315,"lon":5.43722,"is_reserved":false,"is_disabled":false,"rental_uris":{"android":"levelo://app?vid=970803e4-05d8-488c-94a2-72d59c8b12eb","ios":"levelo://app?vid=970803e4-05d8-488c-94a2-72d59c8b12eb"},"vehicle_type_id":"4","last_reported":1726668526,"current_range_meters":16400,"station_id":"ce4bhmp2rcd13ifvqgog","pricing_plan_id":"cebpf4jnsgd1na2vs0mg"},{"bike_id":"8ea6a708-68b1-4611-bdb7-f70a6168e26e","system_id":"levelo_inurba_marseille","lat":43.30308,"lon":5.3689,"is_reserved":false,"is_disabled":false,"rental_uris":{"android":"levelo://app?vid=8ea6a708-68b1-4611-bdb7-f70a6168e26e","ios":"levelo://app?vid=8ea6a708-68b1-4611-bdb7-f70a6168e26e"},"vehicle_type_id":"4","last_reported":1726668526,"current_range_meters":35200,"station_id":"ce4bgqh2rcd13ifvqc5g","pricing_plan_id":"cebpf4jnsgd1na2vs0mg"},{"bike_id":"c7f93bf2-2b30-4c5c-aa72-447b3f4a28ea","system_id":"levelo_inurba_marseille","lat":43.29897,"lon":5.43659,"is_reserved":false,"is_disabled":false,"rental_uris":{"android":"levelo://app?vid=c7f93bf2-2b30-4c5c-aa72-447b3f4a28ea","ios":"levelo://app?vid=c7f93bf2-2b30-4c5c-aa72-447b3f4a28ea"},"vehicle_type_id":"4","last_reported":1726668526,"current_range_meters":3200,"station_id":"ce4bhpp2rcd13ifvqhfg","pricing_plan_id":"cebpf4jnsgd1na2vs0mg"},{"bike_id":"a6cab184-2500-4c68-91b5-4f6eb6843294","system_id":"levelo_inurba_marseille","lat":43.31325,"lon":5.39702,"is_reserved":false,"is_disabled":false,"rental_uris":{"android":"levelo://app?vid=a6cab184-2500-4c68-91b5-4f6eb6843294","ios":"levelo://app?vid=a6cab184-2500-4c68-91b5-4f6eb6843294"},"vehicle_type_id":"4","last_reported":1726668526,"current_range_meters":3200,"station_id":"ce4bgvp2rcd13ifvqcu0","pricing_plan_id":"cebpf4jnsgd1na2vs0mg"},{"bike_id":"ed69e130-7cee-4db1-9e10-0d56961305c9","system_id":"levelo_inurba_marseille","lat":43.24174,"lon":5.3639,"is_reserved":false,"is_disabled":false,"rental_uris":{"android":"levelo://app?vid=ed69e130-7cee-4db1-9e10-0d56961305c9","ios":"levelo://app?vid=ed69e130-7cee-4db1-9e10-0d56961305c9"},"vehicle_type_id":"4","last_reported":1726668526,"current_range_meters":26000,"station_id":"cpo36qri1sfpv3e86is0","pricing_plan_id":"cebpf4jnsgd1na2vs0mg"},{"bike_id":"401bb7ed-0ede-41aa-ab9b-948ce139fb3a","system_id":"levelo_inurba_marseille","lat":43.29053,"lon":5.37154,"is_reserved":false,"is_disabled":false,"rental_uris":{"android":"levelo://app?vid=401bb7ed-0ede-41aa-ab9b-948ce139fb3a","ios":"levelo://app?vid=401bb7ed-0ede-41aa-ab9b-948ce139fb3a"},"vehicle_type_id":"4","last_reported":1726668526,"current_range_meters":4800,"station_id":"ce4bh5p2rcd13ifvqe4g","pricing_plan_id":"cebpf4jnsgd1na2vs0mg"},{"bike_id":"e44f2945-2a4c-4d32-b45e-530460e3b52c","system_id":"levelo_inurba_marseille","lat":43.3135,"lon":5.38301,"is_reserved":false,"is_disabled":false,"rental_uris":{"android":"levelo://app?vid=e44f2945-2a4c-4d32-b45e-530460e3b52c","ios":"levelo://app?vid=e44f2945-2a4c-4d32-b45e-530460e3b52c"},"vehicle_type_id":"4","last_reported":1726668526,"current_range_meters":2000,"station_id":"","pricing_plan_id":"cebpf4jnsgd1na2vs0mg"},{"bike_id":"80d1eb54-6334-4c2f-a160-7e4b5cb79537","system_id":"levelo_inurba_marseille","lat":43.29966,"lon":5.41316,"is_reserved":false,"is_disabled":false,"rental_uris":{"android":"levelo://app?vid=80d1eb54-6334-4c2f-a160-7e4b5cb79537","ios":"levelo://app?vid=80d1eb54-6334-4c2f-a160-7e4b5cb79537"},"vehicle_type_id":"4","last_reported":1726668526,"current_range_meters":34800,"station_id":"ce4bhp12rcd13ifvqh9g","pricing_plan_id":"cebpf4jnsgd1na2vs0mg"},{"bike_id":"2d52ebfd-e4ac-4947-991f-1bc9d18a7024","system_id":"levelo_inurba_marseille","lat":43.26499,"lon":5.39541,"is_reserved":false,"is_disabled":false,"rental_uris":{"android":"levelo://app?vid=2d52ebfd-e4ac-4947-991f-1bc9d18a7024","ios":"levelo://app?vid=2d52ebfd-e4ac-4947-991f-1bc9d18a7024"},"vehicle_type_id":"4","last_reported":1726668526,"current_range_meters":36000,"station_id":"ce4bhi12rcd13ifvqfq0","pricing_plan_id":"cebpf4jnsgd1na2vs0mg"},{"bike_id":"ddc36900-f1dc-4769-b225-1796abc77b43","system_id":"levelo_inurba_marseille","lat":43.2971,"lon":5.36624,"is_reserved":false,"is_disabled":false,"rental_uris":{"android":"levelo://app?vid=ddc36900-f1dc-4769-b225-1796abc77b43","ios":"levelo://app?vid=ddc36900-f1dc-4769-b225-1796abc77b43"},"vehicle_type_id":"4","last_reported":1726668526,"current_range_meters":32000,"station_id":"ce4bgn12rcd13ifvqbt0","pricing_plan_id":"cebpf4jnsgd1na2vs0mg"},{"bike_id":"b6bc804e-67cf-4519-bcb6-ce45b104b39e","system_id":"levelo_inurba_marseille","lat":43.26957,"lon":5.38631,"is_reserved":false,"is_disabled":false,"rental_uris":{"android":"levelo://app?vid=b6bc804e-67cf-4519-bcb6-ce45b104b39e","ios":"levelo://app?vid=b6bc804e-67cf-4519-bcb6-ce45b104b39e"},"vehicle_type_id":"4","last_reported":1726668526,"current_range_meters":37600,"station_id":"ce4bhh92rcd13ifvqfh0","pricing_plan_id":"cebpf4jnsgd1na2vs0mg"},{"bike_id":"64de88cf-d117-4ffb-a8d7-2bf53095d59c","system_id":"levelo_inurba_marseille","lat":43.32369,"lon":5.38868,"is_reserved":false,"is_disabled":false,"rental_uris":{"android":"levelo://app?vid=64de88cf-d117-4ffb-a8d7-2bf53095d59c","ios":"levelo://app?vid=64de88cf-d117-4ffb-a8d7-2bf53095d59c"},"vehicle_type_id":"4","last_reported":1726668526,"current_range_meters":25200,"station_id":"ce4bhqp2rcd13ifvqhog","pricing_plan_id":"cebpf4jnsgd1na2vs0mg"},{"bike_id":"5d78b308-9505-4ed0-832a-dc6eb31a5971","system_id":"levelo_inurba_marseille","lat":43.25582,"lon":5.3823,"is_reserved":false,"is_disabled":false,"rental_uris":{"android":"levelo://app?vid=5d78b308-9505-4ed0-832a-dc6eb31a5971","ios":"levelo://app?vid=5d78b308-9505-4ed0-832a-dc6eb31a5971"},"vehicle_type_id":"4","last_reported":1726668526,"current_range_meters":9200,"station_id":"ce4bhih2rcd13ifvqfs0","pricing_plan_id":"cebpf4jnsgd1na2vs0mg"},{"bike_id":"51c8f926-dd42-4188-8ae9-9d5cbb2f7e71","system_id":"levelo_inurba_marseille","lat":43.24179,"lon":5.39728,"is_reserved":false,"is_disabled":false,"rental_uris":{"android":"levelo://app?vid=51c8f926-dd42-4188-8ae9-9d5cbb2f7e71","ios":"levelo://app?vid=51c8f926-dd42-4188-8ae9-9d5cbb2f7e71"},"vehicle_type_id":"4","last_reported":1726668526,"current_range_meters":19200,"station_id":"ce4bhn12rcd13ifvqgpg","pricing_plan_id":"cebpf4jnsgd1na2vs0mg"},{"bike_id":"6a5794ef-7fc5-4e29-80ff-7cbe8451a9cb","system_id":"levelo_inurba_marseille","lat":43.25002,"lon":5.38929,"is_reserved":false,"is_disabled":false,"rental_uris":{"android":"levelo://app?vid=6a5794ef-7fc5-4e29-80ff-7cbe8451a9cb","ios":"levelo://app?vid=6a5794ef-7fc5-4e29-80ff-7cbe8451a9cb"},"vehicle_type_id":"4","last_reported":1726668526,"current_range_meters":31200,"station_id":"ce4bhgp2rcd13ifvqfd0","pricing_plan_id":"cebpf4jnsgd1na2vs0mg"},{"bike_id":"2e2254f6-d3ed-4277-af5f-ee204e464f40","system_id":"levelo_inurba_marseille","lat":43.29949,"lon":5.41318,"is_reserved":false,"is_disabled":false,"rental_uris":{"android":"levelo://app?vid=2e2254f6-d3ed-4277-af5f-ee204e464f40","ios":"levelo://app?vid=2e2254f6-d3ed-4277-af5f-ee204e464f40"},"vehicle_type_id":"4","last_reported":1726668526,"current_range_meters":35200,"station_id":"ce4bhp12rcd13ifvqh9g","pricing_plan_id":"cebpf4jnsgd1na2vs0mg"},{"bike_id":"fec5e1d4-a494-4b7c-a879-ec895a3d4d47","system_id":"levelo_inurba_marseille","lat":43.29899,"lon":5.4367,"is_reserved":false,"is_disabled":false,"rental_uris":{"android":"levelo://app?vid=fec5e1d4-a494-4b7c-a879-ec895a3d4d47","ios":"levelo://app?vid=fec5e1d4-a494-4b7c-a879-ec895a3d4d47"},"vehicle_type_id":"4","last_reported":1726668526,"current_range_meters":9600,"station_id":"ce4bhpp2rcd13ifvqhfg","pricing_plan_id":"cebpf4jnsgd1na2vs0mg"},{"bike_id":"691d0453-989e-4f9e-a51a-a7bbd2da26d4","system_id":"levelo_inurba_marseille","lat":43.29873,"lon":5.38917,"is_reserved":false,"is_disabled":false,"rental_uris":{"android":"levelo://app?vid=691d0453-989e-4f9e-a51a-a7bbd2da26d4","ios":"levelo://app?vid=691d0453-989e-4f9e-a51a-a7bbd2da26d4"},"vehicle_type_id":"4","last_reported":1726668526,"current_range_meters":16400,"station_id":"ce4bh392rcd13ifvqdl0","pricing_plan_id":"cebpf4jnsgd1na2vs0mg"},{"bike_id":"50711cd9-7a0c-42fc-8734-da6691f6e84e","system_id":"levelo_inurba_marseille","lat":43.31326,"lon":5.39692,"is_reserved":false,"is_disabled":false,"rental_uris":{"android":"levelo://app?vid=50711cd9-7a0c-42fc-8734-da6691f6e84e","ios":"levelo://app?vid=50711cd9-7a0c-42fc-8734-da6691f6e84e"},"vehicle_type_id":"4","last_reported":1726668526,"current_range_meters":29600,"station_id":"ce4bgvp2rcd13ifvqcu0","pricing_plan_id":"cebpf4jnsgd1na2vs0mg"},{"bike_id":"c3bcca86-6294-4639-9d07-9722d40f464e","system_id":"levelo_inurba_marseille","lat":43.29899,"lon":5.43669,"is_reserved":false,"is_disabled":false,"rental_uris":{"android":"levelo://app?vid=c3bcca86-6294-4639-9d07-9722d40f464e","ios":"levelo://app?vid=c3bcca86-6294-4639-9d07-9722d40f464e"},"vehicle_type_id":"4","last_reported":1726668526,"current_range_meters":22800,"station_id":"ce4bhpp2rcd13ifvqhfg","pricing_plan_id":"cebpf4jnsgd1na2vs0mg"},{"bike_id":"fa77e604-95b4-476d-a30f-499c3aaf710d","system_id":"levelo_inurba_marseille","lat":43.33723,"lon":5.39185,"is_reserved":false,"is_disabled":false,"rental_uris":{"android":"levelo://app?vid=fa77e604-95b4-476d-a30f-499c3aaf710d","ios":"levelo://app?vid=fa77e604-95b4-476d-a30f-499c3aaf710d"},"vehicle_type_id":"4","last_reported":1726668526,"current_range_meters":12800,"station_id":"ce4bhr92rcd13ifvqhsg","pricing_plan_id":"cebpf4jnsgd1na2vs0mg"},{"bike_id":"d35e1a72-b703-49bc-bba6-f5de9c5fd6a8","system_id":"levelo_inurba_marseille","lat":43.33024,"lon":5.39035,"is_reserved":false,"is_disabled":false,"rental_uris":{"android":"levelo://app?vid=d35e1a72-b703-49bc-bba6-f5de9c5fd6a8","ios":"levelo://app?vid=d35e1a72-b703-49bc-bba6-f5de9c5fd6a8"},"vehicle_type_id":"4","last_reported":1726668526,"current_range_meters":24000,"station_id":"ce4bhr92rcd13ifvqhrg","pricing_plan_id":"cebpf4jnsgd1na2vs0mg"},{"bike_id":"49657d62-db54-45ba-a646-dd08938bc774","system_id":"levelo_inurba_marseille","lat":43.2894,"lon":5.36627,"is_reserved":false,"is_disabled":false,"rental_uris":{"android":"levelo://app?vid=49657d62-db54-45ba-a646-dd08938bc774","ios":"levelo://app?vid=49657d62-db54-45ba-a646-dd08938bc774"},"vehicle_type_id":"4","last_reported":1726668526,"current_range_meters":36800,"station_id":"ce4bhap2rcd13ifvqek0","pricing_plan_id":"cebpf4jnsgd1na2vs0mg"},{"bike_id":"32a92804-3d11-4cfc-ab0f-97030bbe2d9d","system_id":"levelo_inurba_marseille","lat":43.25109,"lon":5.40323,"is_reserved":false,"is_disabled":false,"rental_uris":{"android":"levelo://app?vid=32a92804-3d11-4cfc-ab0f-97030bbe2d9d","ios":"levelo://app?vid=32a92804-3d11-4cfc-ab0f-97030bbe2d9d"},"vehicle_type_id":"4","last_reported":1726668526,"current_range_meters":36000,"station_id":"ce4bhlh2rcd13ifvqgig","pricing_plan_id":"cebpf4jnsgd1na2vs0mg"},{"bike_id":"5304ed70-fad3-470c-b0c3-63f08a2a0a36","system_id":"levelo_inurba_marseille","lat":43.31322,"lon":5.39693,"is_reserved":false,"is_disabled":false,"rental_uris":{"android":"levelo://app?vid=5304ed70-fad3-470c-b0c3-63f08a2a0a36","ios":"levelo://app?vid=5304ed70-fad3-470c-b0c3-63f08a2a0a36"},"vehicle_type_id":"4","last_reported":1726668526,"current_range_meters":18800,"station_id":"ce4bgvp2rcd13ifvqcu0","pricing_plan_id":"cebpf4jnsgd1na2vs0mg"},{"bike_id":"ffce7a70-1c03-4899-879f-43c2c19e8385","system_id":"levelo_inurba_marseille","lat":43.32481,"lon":5.36557,"is_reserved":false,"is_disabled":false,"rental_uris":{"android":"levelo://app?vid=ffce7a70-1c03-4899-879f-43c2c19e8385","ios":"levelo://app?vid=ffce7a70-1c03-4899-879f-43c2c19e8385"},"vehicle_type_id":"4","last_reported":1726668526,"current_range_meters":23200,"station_id":"ce4bhs12rcd13ifvqhvg","pricing_plan_id":"cebpf4jnsgd1na2vs0mg"},{"bike_id":"7f3aae82-2196-48ae-9faf-847af5206e9a","system_id":"levelo_inurba_marseille","lat":43.28365,"lon":5.38611,"is_reserved":false,"is_disabled":false,"rental_uris":{"android":"levelo://app?vid=7f3aae82-2196-48ae-9faf-847af5206e9a","ios":"levelo://app?vid=7f3aae82-2196-48ae-9faf-847af5206e9a"},"vehicle_type_id":"4","last_reported":1726668526,"current_range_meters":28000,"station_id":"ce4bh492rcd13ifvqdvg","pricing_plan_id":"cebpf4jnsgd1na2vs0mg"},{"bike_id":"b5cc06aa-fd0a-4f16-9512-cc0ee529c93f","system_id":"levelo_inurba_marseille","lat":43.23153,"lon":5.43717,"is_reserved":false,"is_disabled":false,"rental_uris":{"android":"levelo://app?vid=b5cc06aa-fd0a-4f16-9512-cc0ee529c93f","ios":"levelo://app?vid=b5cc06aa-fd0a-4f16-9512-cc0ee529c93f"},"vehicle_type_id":"4","last_reported":1726668526,"current_range_meters":24800,"station_id":"ce4bhmp2rcd13ifvqgog","pricing_plan_id":"cebpf4jnsgd1na2vs0mg"},{"bike_id":"610ea275-aa3f-4c18-8f11-4a3a837afe2b","system_id":"levelo_inurba_marseille","lat":43.28441,"lon":5.39204,"is_reserved":false,"is_disabled":false,"rental_uris":{"android":"levelo://app?vid=610ea275-aa3f-4c18-8f11-4a3a837afe2b","ios":"levelo://app?vid=610ea275-aa3f-4c18-8f11-4a3a837afe2b"},"vehicle_type_id":"4","last_reported":1726668526,"current_range_meters":14000,"station_id":"ce4bhoh2rcd13ifvqh5g","pricing_plan_id":"cebpf4jnsgd1na2vs0mg"},{"bike_id":"114229ed-7b50-4ac0-9fe6-068c1288e4e5","system_id":"levelo_inurba_marseille","lat":43.24167,"lon":5.36389,"is_reserved":false,"is_disabled":false,"rental_uris":{"android":"levelo://app?vid=114229ed-7b50-4ac0-9fe6-068c1288e4e5","ios":"levelo://app?vid=114229ed-7b50-4ac0-9fe6-068c1288e4e5"},"vehicle_type_id":"4","last_reported":1726668526,"current_range_meters":25600,"station_id":"cpo36qri1sfpv3e86is0","pricing_plan_id":"cebpf4jnsgd1na2vs0mg"},{"bike_id":"255405a1-fd35-4f69-9519-c611493cfe73","system_id":"levelo_inurba_marseille","lat":43.30469,"lon":5.37906,"is_reserved":false,"is_disabled":false,"rental_uris":{"android":"levelo://app?vid=255405a1-fd35-4f69-9519-c611493cfe73","ios":"levelo://app?vid=255405a1-fd35-4f69-9519-c611493cfe73"},"vehicle_type_id":"4","last_reported":1726668526,"current_range_meters":38400,"station_id":"ce4bgup2rcd13ifvqcn0","pricing_plan_id":"cebpf4jnsgd1na2vs0mg"},{"bike_id":"d0d8fbfa-4de4-42a7-9832-5e25d5f2fdfb","system_id":"levelo_inurba_marseille","lat":43.30534,"lon":5.3654,"is_reserved":false,"is_disabled":false,"rental_uris":{"android":"levelo://app?vid=d0d8fbfa-4de4-42a7-9832-5e25d5f2fdfb","ios":"levelo://app?vid=d0d8fbfa-4de4-42a7-9832-5e25d5f2fdfb"},"vehicle_type_id":"4","last_reported":1726668526,"current_range_meters":36000,"station_id":"ce4bgs12rcd13ifvqcag","pricing_plan_id":"cebpf4jnsgd1na2vs0mg"},{"bike_id":"7a1aefa5-3f47-4fb6-b298-3120a02f47d7","system_id":"levelo_inurba_marseille","lat":43.32485,"lon":5.36563,"is_reserved":false,"is_disabled":false,"rental_uris":{"android":"levelo://app?vid=7a1aefa5-3f47-4fb6-b298-3120a02f47d7","ios":"levelo://app?vid=7a1aefa5-3f47-4fb6-b298-3120a02f47d7"},"vehicle_type_id":"4","last_reported":1726668526,"current_range_meters":36000,"station_id":"ce4bhs12rcd13ifvqhvg","pricing_plan_id":"cebpf4jnsgd1na2vs0mg"},{"bike_id":"3beb0d33-b176-492f-92fa-a62ea50b9234","system_id":"levelo_inurba_marseille","lat":43.29721,"lon":5.37683,"is_reserved":false,"is_disabled":false,"rental_uris":{"android":"levelo://app?vid=3beb0d33-b176-492f-92fa-a62ea50b9234","ios":"levelo://app?vid=3beb0d33-b176-492f-92fa-a62ea50b9234"},"vehicle_type_id":"4","last_reported":1726668526,"current_range_meters":38800,"station_id":"ce4bgkh2rcd13ifvqbl0","pricing_plan_id":"cebpf4jnsgd1na2vs0mg"},{"bike_id":"e2f93157-dea0-45a5-82f3-6b3f12ad379f","system_id":"levelo_inurba_marseille","lat":43.28033,"lon":5.36939,"is_reserved":false,"is_disabled":false,"rental_uris":{"android":"levelo://app?vid=e2f93157-dea0-45a5-82f3-6b3f12ad379f","ios":"levelo://app?vid=e2f93157-dea0-45a5-82f3-6b3f12ad379f"},"vehicle_type_id":"4","last_reported":1726668526,"current_range_meters":30800,"station_id":"ce4bha12rcd13ifvqef0","pricing_plan_id":"cebpf4jnsgd1na2vs0mg"},{"bike_id":"b645ac77-0d58-4fa9-8ad3-947af8bdb1d9","system_id":"levelo_inurba_marseille","lat":43.299,"lon":5.43667,"is_reserved":false,"is_disabled":false,"rental_uris":{"android":"levelo://app?vid=b645ac77-0d58-4fa9-8ad3-947af8bdb1d9","ios":"levelo://app?vid=b645ac77-0d58-4fa9-8ad3-947af8bdb1d9"},"vehicle_type_id":"4","last_reported":1726668526,"current_range_meters":18800,"station_id":"ce4bhpp2rcd13ifvqhfg","pricing_plan_id":"cebpf4jnsgd1na2vs0mg"},{"bike_id":"55fed244-caf4-46e6-99fc-fcd916ddb5b7","system_id":"levelo_inurba_marseille","lat":43.23196,"lon":5.35547,"is_reserved":false,"is_disabled":false,"rental_uris":{"android":"levelo://app?vid=55fed244-caf4-46e6-99fc-fcd916ddb5b7","ios":"levelo://app?vid=55fed244-caf4-46e6-99fc-fcd916ddb5b7"},"vehicle_type_id":"4","last_reported":1726668526,"current_range_meters":24800,"station_id":"ce4bhu92rcd13ifvqi70","pricing_plan_id":"cebpf4jnsgd1na2vs0mg"},{"bike_id":"2821bd5e-f2cc-464c-a98c-3e36c986cc0e","system_id":"levelo_inurba_marseille","lat":43.25931,"lon":5.40903,"is_reserved":false,"is_disabled":false,"rental_uris":{"android":"levelo://app?vid=2821bd5e-f2cc-464c-a98c-3e36c986cc0e","ios":"levelo://app?vid=2821bd5e-f2cc-464c-a98c-3e36c986cc0e"},"vehicle_type_id":"4","last_reported":1726668526,"current_range_meters":35200,"station_id":"ce4bhm92rcd13ifvqglg","pricing_plan_id":"cebpf4jnsgd1na2vs0mg"},{"bike_id":"54501bcf-1da8-4a49-bc63-94878541668a","system_id":"levelo_inurba_marseille","lat":43.28936,"lon":5.36643,"is_reserved":false,"is_disabled":false,"rental_uris":{"android":"levelo://app?vid=54501bcf-1da8-4a49-bc63-94878541668a","ios":"levelo://app?vid=54501bcf-1da8-4a49-bc63-94878541668a"},"vehicle_type_id":"4","last_reported":1726668526,"current_range_meters":36400,"station_id":"ce4bhap2rcd13ifvqek0","pricing_plan_id":"cebpf4jnsgd1na2vs0mg"},{"bike_id":"c58fe211-d15b-402a-abfc-ef60362abc59","system_id":"levelo_inurba_marseille","lat":43.29878,"lon":5.38911,"is_reserved":false,"is_disabled":false,"rental_uris":{"android":"levelo://app?vid=c58fe211-d15b-402a-abfc-ef60362abc59","ios":"levelo://app?vid=c58fe211-d15b-402a-abfc-ef60362abc59"},"vehicle_type_id":"4","last_reported":1726668526,"current_range_meters":37600,"station_id":"ce4bh392rcd13ifvqdl0","pricing_plan_id":"cebpf4jnsgd1na2vs0mg"},{"bike_id":"8ceb5aea-b40e-4dad-98b0-1dcabb72c74a","system_id":"levelo_inurba_marseille","lat":43.31793,"lon":5.38365,"is_reserved":false,"is_disabled":false,"rental_uris":{"android":"levelo://app?vid=8ceb5aea-b40e-4dad-98b0-1dcabb72c74a","ios":"levelo://app?vid=8ceb5aea-b40e-4dad-98b0-1dcabb72c74a"},"vehicle_type_id":"4","last_reported":1726668526,"current_range_meters":26000,"station_id":"ce4bhr12rcd13ifvqhpg","pricing_plan_id":"cebpf4jnsgd1na2vs0mg"},{"bike_id":"b25232db-c485-4e9c-a2f6-4acc0677bc78","system_id":"levelo_inurba_marseille","lat":43.23147,"lon":5.43715,"is_reserved":false,"is_disabled":false,"rental_uris":{"android":"levelo://app?vid=b25232db-c485-4e9c-a2f6-4acc0677bc78","ios":"levelo://app?vid=b25232db-c485-4e9c-a2f6-4acc0677bc78"},"vehicle_type_id":"4","last_reported":1726668526,"current_range_meters":38800,"station_id":"ce4bhmp2rcd13ifvqgog","pricing_plan_id":"cebpf4jnsgd1na2vs0mg"},{"bike_id":"46adbd2a-fcc4-4add-83ea-df01d460c8ab","system_id":"levelo_inurba_marseille","lat":43.29165,"lon":5.37158,"is_reserved":false,"is_disabled":false,"rental_uris":{"android":"levelo://app?vid=46adbd2a-fcc4-4add-83ea-df01d460c8ab","ios":"levelo://app?vid=46adbd2a-fcc4-4add-83ea-df01d460c8ab"},"vehicle_type_id":"4","last_reported":1726668526,"current_range_meters":25200,"station_id":"ce4bha92rcd13ifvqeh0","pricing_plan_id":"cebpf4jnsgd1na2vs0mg"},{"bike_id":"632b114e-6588-46dc-a673-34df3d9cb81c","system_id":"levelo_inurba_marseille","lat":43.27907,"lon":5.38011,"is_reserved":false,"is_disabled":false,"rental_uris":{"android":"levelo://app?vid=632b114e-6588-46dc-a673-34df3d9cb81c","ios":"levelo://app?vid=632b114e-6588-46dc-a673-34df3d9cb81c"},"vehicle_type_id":"4","last_reported":1726668526,"current_range_meters":34800,"station_id":"ce4bhf92rcd13ifvqf50","pricing_plan_id":"cebpf4jnsgd1na2vs0mg"},{"bike_id":"677498c9-746b-4650-9a8e-2c7479635944","system_id":"levelo_inurba_marseille","lat":43.33023,"lon":5.39047,"is_reserved":false,"is_disabled":false,"rental_uris":{"android":"levelo://app?vid=677498c9-746b-4650-9a8e-2c7479635944","ios":"levelo://app?vid=677498c9-746b-4650-9a8e-2c7479635944"},"vehicle_type_id":"4","last_reported":1726668526,"current_range_meters":14800,"station_id":"ce4bhr92rcd13ifvqhrg","pricing_plan_id":"cebpf4jnsgd1na2vs0mg"},{"bike_id":"ed645ef0-83f1-4699-9183-8201b34b05b0","system_id":"levelo_inurba_marseille","lat":43.32295,"lon":5.38267,"is_reserved":false,"is_disabled":false,"rental_uris":{"android":"levelo://app?vid=ed645ef0-83f1-4699-9183-8201b34b05b0","ios":"levelo://app?vid=ed645ef0-83f1-4699-9183-8201b34b05b0"},"vehicle_type_id":"4","last_reported":1726668526,"current_range_meters":9600,"station_id":"ce4bhr12rcd13ifvqhqg","pricing_plan_id":"cebpf4jnsgd1na2vs0mg"},{"bike_id":"fabea73e-c4b0-4a87-88ac-9107965afbd3","system_id":"levelo_inurba_marseille","lat":43.26784,"lon":5.39414,"is_reserved":false,"is_disabled":false,"rental_uris":{"android":"levelo://app?vid=fabea73e-c4b0-4a87-88ac-9107965afbd3","ios":"levelo://app?vid=fabea73e-c4b0-4a87-88ac-9107965afbd3"},"vehicle_type_id":"4","last_reported":1726668526,"current_range_meters":30400,"station_id":"ce4bhh12rcd13ifvqfg0","pricing_plan_id":"cebpf4jnsgd1na2vs0mg"},{"bike_id":"146e6250-0b7a-4114-a56e-6a37e84ca3ea","system_id":"levelo_inurba_marseille","lat":43.23182,"lon":5.39983,"is_reserved":false,"is_disabled":false,"rental_uris":{"android":"levelo://app?vid=146e6250-0b7a-4114-a56e-6a37e84ca3ea","ios":"levelo://app?vid=146e6250-0b7a-4114-a56e-6a37e84ca3ea"},"vehicle_type_id":"4","last_reported":1726668526,"current_range_meters":12000,"station_id":"ce4bhn12rcd13ifvqgqg","pricing_plan_id":"cebpf4jnsgd1na2vs0mg"},{"bike_id":"7b7f2a60-6042-4213-8f97-740496aa79ef","system_id":"levelo_inurba_marseille","lat":43.29565,"lon":5.37505,"is_reserved":false,"is_disabled":false,"rental_uris":{"android":"levelo://app?vid=7b7f2a60-6042-4213-8f97-740496aa79ef","ios":"levelo://app?vid=7b7f2a60-6042-4213-8f97-740496aa79ef"},"vehicle_type_id":"4","last_reported":1726668526,"current_range_meters":11600,"station_id":"ce4bgh92rcd13ifvqb50","pricing_plan_id":"cebpf4jnsgd1na2vs0mg"},{"bike_id":"edcb7831-5f93-4381-9cdb-bf2cddba3298","system_id":"levelo_inurba_marseille","lat":43.26682,"lon":5.38264,"is_reserved":false,"is_disabled":false,"rental_uris":{"android":"levelo://app?vid=edcb7831-5f93-4381-9cdb-bf2cddba3298","ios":"levelo://app?vid=edcb7831-5f93-4381-9cdb-bf2cddba3298"},"vehicle_type_id":"4","last_reported":1726668526,"current_range_meters":32000,"station_id":"ce4bhg92rcd13ifvqf90","pricing_plan_id":"cebpf4jnsgd1na2vs0mg"},{"bike_id":"83b487bb-5554-4b94-a40e-3abba8c26f6e","system_id":"levelo_inurba_marseille","lat":43.25871,"lon":5.39897,"is_reserved":false,"is_disabled":false,"rental_uris":{"android":"levelo://app?vid=83b487bb-5554-4b94-a40e-3abba8c26f6e","ios":"levelo://app?vid=83b487bb-5554-4b94-a40e-3abba8c26f6e"},"vehicle_type_id":"4","last_reported":1726668526,"current_range_meters":38800,"station_id":"ce4bhl92rcd13ifvqghg","pricing_plan_id":"cebpf4jnsgd1na2vs0mg"},{"bike_id":"3ae2cd16-0583-4222-b4b8-1135131b4853","system_id":"levelo_inurba_marseille","lat":43.295624,"lon":5.400282,"is_reserved":false,"is_disabled":false,"rental_uris":{"android":"levelo://app?vid=3ae2cd16-0583-4222-b4b8-1135131b4853","ios":"levelo://app?vid=3ae2cd16-0583-4222-b4b8-1135131b4853"},"vehicle_type_id":"4","last_reported":1726668526,"current_range_meters":24400,"station_id":"ce4bh312rcd13ifvqdj0","pricing_plan_id":"cebpf4jnsgd1na2vs0mg"},{"bike_id":"f44a43d6-ef5c-41f9-af1f-81c5073c583c","system_id":"levelo_inurba_marseille","lat":43.29419,"lon":5.38627,"is_reserved":false,"is_disabled":false,"rental_uris":{"android":"levelo://app?vid=f44a43d6-ef5c-41f9-af1f-81c5073c583c","ios":"levelo://app?vid=f44a43d6-ef5c-41f9-af1f-81c5073c583c"},"vehicle_type_id":"4","last_reported":1726668526,"current_range_meters":6000,"station_id":"ce4bh2h2rcd13ifvqdh0","pricing_plan_id":"cebpf4jnsgd1na2vs0mg"},{"bike_id":"0f64cac9-1c98-44fb-906b-4ae44047ae4e","system_id":"levelo_inurba_marseille","lat":43.33023,"lon":5.39034,"is_reserved":false,"is_disabled":false,"rental_uris":{"android":"levelo://app?vid=0f64cac9-1c98-44fb-906b-4ae44047ae4e","ios":"levelo://app?vid=0f64cac9-1c98-44fb-906b-4ae44047ae4e"},"vehicle_type_id":"4","last_reported":1726668526,"current_range_meters":24000,"station_id":"ce4bhr92rcd13ifvqhrg","pricing_plan_id":"cebpf4jnsgd1na2vs0mg"},{"bike_id":"ca9a9c6d-5a2e-4fe2-9a37-7ad4579c5b25","system_id":"levelo_inurba_marseille","lat":43.32367,"lon":5.38881,"is_reserved":false,"is_disabled":false,"rental_uris":{"android":"levelo://app?vid=ca9a9c6d-5a2e-4fe2-9a37-7ad4579c5b25","ios":"levelo://app?vid=ca9a9c6d-5a2e-4fe2-9a37-7ad4579c5b25"},"vehicle_type_id":"4","last_reported":1726668526,"current_range_meters":30800,"station_id":"ce4bhqp2rcd13ifvqhog","pricing_plan_id":"cebpf4jnsgd1na2vs0mg"},{"bike_id":"409d8f91-ec5a-4938-8938-2e35c2a108bb","system_id":"levelo_inurba_marseille","lat":43.299591,"lon":5.384928,"is_reserved":false,"is_disabled":false,"rental_uris":{"android":"levelo://app?vid=409d8f91-ec5a-4938-8938-2e35c2a108bb","ios":"levelo://app?vid=409d8f91-ec5a-4938-8938-2e35c2a108bb"},"vehicle_type_id":"4","last_reported":1726668526,"current_range_meters":30800,"station_id":"ce4bgj92rcd13ifvqbd0","pricing_plan_id":"cebpf4jnsgd1na2vs0mg"},{"bike_id":"679e0e74-b967-4bf2-9b49-93cf4f33c1bb","system_id":"levelo_inurba_marseille","lat":43.26954,"lon":5.38632,"is_reserved":false,"is_disabled":false,"rental_uris":{"android":"levelo://app?vid=679e0e74-b967-4bf2-9b49-93cf4f33c1bb","ios":"levelo://app?vid=679e0e74-b967-4bf2-9b49-93cf4f33c1bb"},"vehicle_type_id":"4","last_reported":1726668526,"current_range_meters":33600,"station_id":"ce4bhh92rcd13ifvqfh0","pricing_plan_id":"cebpf4jnsgd1na2vs0mg"},{"bike_id":"2df883fd-d247-4085-a279-31959a3690d8","system_id":"levelo_inurba_marseille","lat":43.30536,"lon":5.36698,"is_reserved":false,"is_disabled":false,"rental_uris":{"android":"levelo://app?vid=2df883fd-d247-4085-a279-31959a3690d8","ios":"levelo://app?vid=2df883fd-d247-4085-a279-31959a3690d8"},"vehicle_type_id":"4","last_reported":1726668526,"current_range_meters":38800,"station_id":"ce4bgrp2rcd13ifvqc9g","pricing_plan_id":"cebpf4jnsgd1na2vs0mg"},{"bike_id":"99684f50-b398-427b-a4e9-7ca0a0382c79","system_id":"levelo_inurba_marseille","lat":43.23188,"lon":5.35542,"is_reserved":false,"is_disabled":false,"rental_uris":{"android":"levelo://app?vid=99684f50-b398-427b-a4e9-7ca0a0382c79","ios":"levelo://app?vid=99684f50-b398-427b-a4e9-7ca0a0382c79"},"vehicle_type_id":"4","last_reported":1726668526,"current_range_meters":38800,"station_id":"ce4bhu92rcd13ifvqi70","pricing_plan_id":"cebpf4jnsgd1na2vs0mg"},{"bike_id":"c1a49b56-6fad-426f-ae96-59e1b2c47647","system_id":"levelo_inurba_marseille","lat":43.30534,"lon":5.3654,"is_reserved":false,"is_disabled":false,"rental_uris":{"android":"levelo://app?vid=c1a49b56-6fad-426f-ae96-59e1b2c47647","ios":"levelo://app?vid=c1a49b56-6fad-426f-ae96-59e1b2c47647"},"vehicle_type_id":"4","last_reported":1726668526,"current_range_meters":30800,"station_id":"ce4bgs12rcd13ifvqcag","pricing_plan_id":"cebpf4jnsgd1na2vs0mg"},{"bike_id":"1599e383-0071-4742-bb2b-78c2fbb3bac0","system_id":"levelo_inurba_marseille","lat":43.32045,"lon":5.4155,"is_reserved":false,"is_disabled":false,"rental_uris":{"android":"levelo://app?vid=1599e383-0071-4742-bb2b-78c2fbb3bac0","ios":"levelo://app?vid=1599e383-0071-4742-bb2b-78c2fbb3bac0"},"vehicle_type_id":"4","last_reported":1726668526,"current_range_meters":26800,"station_id":"ce4bhq92rcd13ifvqhkg","pricing_plan_id":"cebpf4jnsgd1na2vs0mg"},{"bike_id":"15d4e036-93c1-4dc0-b876-244b75cb1afc","system_id":"levelo_inurba_marseille","lat":43.310486,"lon":5.389216,"is_reserved":false,"is_disabled":false,"rental_uris":{"android":"levelo://app?vid=15d4e036-93c1-4dc0-b876-244b75cb1afc","ios":"levelo://app?vid=15d4e036-93c1-4dc0-b876-244b75cb1afc"},"vehicle_type_id":"4","last_reported":1726668526,"current_range_meters":36800,"station_id":"ce4bgv12rcd13ifvqcp0","pricing_plan_id":"cebpf4jnsgd1na2vs0mg"},{"bike_id":"fc864231-9cde-4f45-a948-5ed2018fb16d","system_id":"levelo_inurba_marseille","lat":43.3054,"lon":5.36543,"is_reserved":false,"is_disabled":false,"rental_uris":{"android":"levelo://app?vid=fc864231-9cde-4f45-a948-5ed2018fb16d","ios":"levelo://app?vid=fc864231-9cde-4f45-a948-5ed2018fb16d"},"vehicle_type_id":"4","last_reported":1726668526,"current_range_meters":24800,"station_id":"ce4bgs12rcd13ifvqcag","pricing_plan_id":"cebpf4jnsgd1na2vs0mg"},{"bike_id":"4a6cbda1-1f9b-472e-8e3b-de1af57919d5","system_id":"levelo_inurba_marseille","lat":43.26195,"lon":5.37447,"is_reserved":false,"is_disabled":false,"rental_uris":{"android":"levelo://app?vid=4a6cbda1-1f9b-472e-8e3b-de1af57919d5","ios":"levelo://app?vid=4a6cbda1-1f9b-472e-8e3b-de1af57919d5"},"vehicle_type_id":"4","last_reported":1726668526,"current_range_meters":9200,"station_id":"ce4bhgp2rcd13ifvqfc0","pricing_plan_id":"cebpf4jnsgd1na2vs0mg"},{"bike_id":"2b714e73-49f8-4f26-bb6d-7d72ce23aabc","system_id":"levelo_inurba_marseille","lat":43.23051,"lon":5.35491,"is_reserved":false,"is_disabled":false,"rental_uris":{"android":"levelo://app?vid=2b714e73-49f8-4f26-bb6d-7d72ce23aabc","ios":"levelo://app?vid=2b714e73-49f8-4f26-bb6d-7d72ce23aabc"},"vehicle_type_id":"4","last_reported":1726668526,"current_range_meters":8000,"station_id":"cpo3342slgdg3j2ifvpg","pricing_plan_id":"cebpf4jnsgd1na2vs0mg"},{"bike_id":"5c038a07-46e4-4170-a675-9b70c311d1c4","system_id":"levelo_inurba_marseille","lat":43.32483,"lon":5.36559,"is_reserved":false,"is_disabled":false,"rental_uris":{"android":"levelo://app?vid=5c038a07-46e4-4170-a675-9b70c311d1c4","ios":"levelo://app?vid=5c038a07-46e4-4170-a675-9b70c311d1c4"},"vehicle_type_id":"4","last_reported":1726668526,"current_range_meters":39200,"station_id":"ce4bhs12rcd13ifvqhvg","pricing_plan_id":"cebpf4jnsgd1na2vs0mg"},{"bike_id":"2ccebc4a-179e-44ac-b002-abf4ab3e65c3","system_id":"levelo_inurba_marseille","lat":43.28672,"lon":5.36355,"is_reserved":false,"is_disabled":false,"rental_uris":{"android":"levelo://app?vid=2ccebc4a-179e-44ac-b002-abf4ab3e65c3","ios":"levelo://app?vid=2ccebc4a-179e-44ac-b002-abf4ab3e65c3"},"vehicle_type_id":"4","last_reported":1726668526,"current_range_meters":30000,"station_id":"ce4bhah2rcd13ifvqej0","pricing_plan_id":"cebpf4jnsgd1na2vs0mg"},{"bike_id":"b2e6a86e-57f4-43f0-a8e2-88aef095b7ec","system_id":"levelo_inurba_marseille","lat":43.26568,"lon":5.39018,"is_reserved":false,"is_disabled":false,"rental_uris":{"android":"levelo://app?vid=b2e6a86e-57f4-43f0-a8e2-88aef095b7ec","ios":"levelo://app?vid=b2e6a86e-57f4-43f0-a8e2-88aef095b7ec"},"vehicle_type_id":"4","last_reported":1726668526,"current_range_meters":22400,"station_id":"ce4bhe12rcd13ifvqf30","pricing_plan_id":"cebpf4jnsgd1na2vs0mg"},{"bike_id":"6a3e0bcf-6dfd-4eed-b57b-6033e25f8c2a","system_id":"levelo_inurba_marseille","lat":43.3133,"lon":5.3969,"is_reserved":false,"is_disabled":false,"rental_uris":{"android":"levelo://app?vid=6a3e0bcf-6dfd-4eed-b57b-6033e25f8c2a","ios":"levelo://app?vid=6a3e0bcf-6dfd-4eed-b57b-6033e25f8c2a"},"vehicle_type_id":"4","last_reported":1726668526,"current_range_meters":7200,"station_id":"ce4bgvp2rcd13ifvqcu0","pricing_plan_id":"cebpf4jnsgd1na2vs0mg"},{"bike_id":"f6e88fe5-39a9-4e66-96a2-c5621c23b6f4","system_id":"levelo_inurba_marseille","lat":43.27815,"lon":5.40708,"is_reserved":false,"is_disabled":false,"rental_uris":{"android":"levelo://app?vid=f6e88fe5-39a9-4e66-96a2-c5621c23b6f4","ios":"levelo://app?vid=f6e88fe5-39a9-4e66-96a2-c5621c23b6f4"},"vehicle_type_id":"4","last_reported":1726668526,"current_range_meters":22000,"station_id":"ce4bhnh2rcd13ifvqgtg","pricing_plan_id":"cebpf4jnsgd1na2vs0mg"},{"bike_id":"3227fe79-03f2-4fc1-b040-fcc9498793d0","system_id":"levelo_inurba_marseille","lat":43.24389,"lon":5.37064,"is_reserved":false,"is_disabled":false,"rental_uris":{"android":"levelo://app?vid=3227fe79-03f2-4fc1-b040-fcc9498793d0","ios":"levelo://app?vid=3227fe79-03f2-4fc1-b040-fcc9498793d0"},"vehicle_type_id":"4","last_reported":1726668526,"current_range_meters":36400,"station_id":"ce4bhhh2rcd13ifvqfk0","pricing_plan_id":"cebpf4jnsgd1na2vs0mg"},{"bike_id":"fcb00528-cc4d-4093-ab67-29ffe6a8068d","system_id":"levelo_inurba_marseille","lat":43.29567,"lon":5.37515,"is_reserved":false,"is_disabled":false,"rental_uris":{"android":"levelo://app?vid=fcb00528-cc4d-4093-ab67-29ffe6a8068d","ios":"levelo://app?vid=fcb00528-cc4d-4093-ab67-29ffe6a8068d"},"vehicle_type_id":"4","last_reported":1726668526,"current_range_meters":18800,"station_id":"ce4bgh92rcd13ifvqb50","pricing_plan_id":"cebpf4jnsgd1na2vs0mg"},{"bike_id":"9ffe73ff-138f-4bb6-b46b-0983338d2c51","system_id":"levelo_inurba_marseille","lat":43.30606,"lon":5.37228,"is_reserved":false,"is_disabled":false,"rental_uris":{"android":"levelo://app?vid=9ffe73ff-138f-4bb6-b46b-0983338d2c51","ios":"levelo://app?vid=9ffe73ff-138f-4bb6-b46b-0983338d2c51"},"vehicle_type_id":"4","last_reported":1726668526,"current_range_meters":38400,"station_id":"ce4bgqh2rcd13ifvqc4g","pricing_plan_id":"cebpf4jnsgd1na2vs0mg"},{"bike_id":"bc3793b6-2ad3-497e-8fb6-7ea707011f3a","system_id":"levelo_inurba_marseille","lat":43.28415,"lon":5.37511,"is_reserved":false,"is_disabled":false,"rental_uris":{"android":"levelo://app?vid=bc3793b6-2ad3-497e-8fb6-7ea707011f3a","ios":"levelo://app?vid=bc3793b6-2ad3-497e-8fb6-7ea707011f3a"},"vehicle_type_id":"4","last_reported":1726668526,"current_range_meters":25200,"station_id":"ce4bh412rcd13ifvqds0","pricing_plan_id":"cebpf4jnsgd1na2vs0mg"},{"bike_id":"77aad35c-f5ef-4192-80d4-71582050296e","system_id":"levelo_inurba_marseille","lat":43.28273,"lon":5.35072,"is_reserved":false,"is_disabled":false,"rental_uris":{"android":"levelo://app?vid=77aad35c-f5ef-4192-80d4-71582050296e","ios":"levelo://app?vid=77aad35c-f5ef-4192-80d4-71582050296e"},"vehicle_type_id":"4","last_reported":1726668526,"current_range_meters":19200,"station_id":"ce4bhbp2rcd13ifvqerg","pricing_plan_id":"cebpf4jnsgd1na2vs0mg"},{"bike_id":"3e034926-5539-4480-9686-77673b0cd3d6","system_id":"levelo_inurba_marseille","lat":43.287,"lon":5.37393,"is_reserved":false,"is_disabled":false,"rental_uris":{"android":"levelo://app?vid=3e034926-5539-4480-9686-77673b0cd3d6","ios":"levelo://app?vid=3e034926-5539-4480-9686-77673b0cd3d6"},"vehicle_type_id":"4","last_reported":1726668526,"current_range_meters":38800,"station_id":"ce4bh3p2rcd13ifvqdq0","pricing_plan_id":"cebpf4jnsgd1na2vs0mg"},{"bike_id":"1f848b3a-31af-412b-805c-44bc34964536","system_id":"levelo_inurba_marseille","lat":43.29096,"lon":5.38138,"is_reserved":false,"is_disabled":false,"rental_uris":{"android":"levelo://app?vid=1f848b3a-31af-412b-805c-44bc34964536","ios":"levelo://app?vid=1f848b3a-31af-412b-805c-44bc34964536"},"vehicle_type_id":"4","last_reported":1726668526,"current_range_meters":24400,"station_id":"ce4bh512rcd13ifvqe2g","pricing_plan_id":"cebpf4jnsgd1na2vs0mg"},{"bike_id":"4e4a2087-9172-458b-b441-1cb10f5a5757","system_id":"levelo_inurba_marseille","lat":43.33746,"lon":5.37446,"is_reserved":false,"is_disabled":false,"rental_uris":{"android":"levelo://app?vid=4e4a2087-9172-458b-b441-1cb10f5a5757","ios":"levelo://app?vid=4e4a2087-9172-458b-b441-1cb10f5a5757"},"vehicle_type_id":"4","last_reported":1726668526,"current_range_meters":12400,"station_id":"","pricing_plan_id":"cebpf4jnsgd1na2vs0mg"},{"bike_id":"6dd17a2f-59bb-4453-859d-2c09ab795824","system_id":"levelo_inurba_marseille","lat":43.33021,"lon":5.39039,"is_reserved":false,"is_disabled":false,"rental_uris":{"android":"levelo://app?vid=6dd17a2f-59bb-4453-859d-2c09ab795824","ios":"levelo://app?vid=6dd17a2f-59bb-4453-859d-2c09ab795824"},"vehicle_type_id":"4","last_reported":1726668526,"current_range_meters":24800,"station_id":"ce4bhr92rcd13ifvqhrg","pricing_plan_id":"cebpf4jnsgd1na2vs0mg"},{"bike_id":"cb2bdf9b-7926-4ea6-80ff-13ac7eaafec2","system_id":"levelo_inurba_marseille","lat":43.29677,"lon":5.37291,"is_reserved":false,"is_disabled":false,"rental_uris":{"android":"levelo://app?vid=cb2bdf9b-7926-4ea6-80ff-13ac7eaafec2","ios":"levelo://app?vid=cb2bdf9b-7926-4ea6-80ff-13ac7eaafec2"},"vehicle_type_id":"4","last_reported":1726668526,"current_range_meters":30400,"station_id":"ce4bgk12rcd13ifvqbj0","pricing_plan_id":"cebpf4jnsgd1na2vs0mg"},{"bike_id":"93bbe594-b35a-4d20-8ffd-1a02350ffa15","system_id":"levelo_inurba_marseille","lat":43.2792,"lon":5.3958,"is_reserved":false,"is_disabled":false,"rental_uris":{"android":"levelo://app?vid=93bbe594-b35a-4d20-8ffd-1a02350ffa15","ios":"levelo://app?vid=93bbe594-b35a-4d20-8ffd-1a02350ffa15"},"vehicle_type_id":"4","last_reported":1726668526,"current_range_meters":9200,"station_id":"ce4bhf92rcd13ifvqf40","pricing_plan_id":"cebpf4jnsgd1na2vs0mg"},{"bike_id":"fc2c37fd-b30e-4e49-9975-3233bf5effda","system_id":"levelo_inurba_marseille","lat":43.32302,"lon":5.38206,"is_reserved":false,"is_disabled":false,"rental_uris":{"android":"levelo://app?vid=fc2c37fd-b30e-4e49-9975-3233bf5effda","ios":"levelo://app?vid=fc2c37fd-b30e-4e49-9975-3233bf5effda"},"vehicle_type_id":"4","last_reported":1726668526,"current_range_meters":31200,"station_id":"","pricing_plan_id":"cebpf4jnsgd1na2vs0mg"},{"bike_id":"58b2af54-7999-4006-9deb-ae5c43d7ec83","system_id":"levelo_inurba_marseille","lat":43.26785,"lon":5.39416,"is_reserved":false,"is_disabled":false,"rental_uris":{"android":"levelo://app?vid=58b2af54-7999-4006-9deb-ae5c43d7ec83","ios":"levelo://app?vid=58b2af54-7999-4006-9deb-ae5c43d7ec83"},"vehicle_type_id":"4","last_reported":1726668526,"current_range_meters":28000,"station_id":"ce4bhh12rcd13ifvqfg0","pricing_plan_id":"cebpf4jnsgd1na2vs0mg"},{"bike_id":"8dc6604f-cba8-4b9b-9d02-e6223c9ccd26","system_id":"levelo_inurba_marseille","lat":43.26782,"lon":5.39417,"is_reserved":false,"is_disabled":false,"rental_uris":{"android":"levelo://app?vid=8dc6604f-cba8-4b9b-9d02-e6223c9ccd26","ios":"levelo://app?vid=8dc6604f-cba8-4b9b-9d02-e6223c9ccd26"},"vehicle_type_id":"4","last_reported":1726668526,"current_range_meters":9200,"station_id":"ce4bhh12rcd13ifvqfg0","pricing_plan_id":"cebpf4jnsgd1na2vs0mg"},{"bike_id":"7bba4f6e-c438-4c4e-8ec1-5faf3c026f38","system_id":"levelo_inurba_marseille","lat":43.27944,"lon":5.41042,"is_reserved":false,"is_disabled":false,"rental_uris":{"android":"levelo://app?vid=7bba4f6e-c438-4c4e-8ec1-5faf3c026f38","ios":"levelo://app?vid=7bba4f6e-c438-4c4e-8ec1-5faf3c026f38"},"vehicle_type_id":"4","last_reported":1726668526,"current_range_meters":29600,"station_id":"ce4bhnp2rcd13ifvqh0g","pricing_plan_id":"cebpf4jnsgd1na2vs0mg"},{"bike_id":"551007eb-0d19-4212-aaad-40cf20c93b6d","system_id":"levelo_inurba_marseille","lat":43.30532,"lon":5.36535,"is_reserved":false,"is_disabled":false,"rental_uris":{"android":"levelo://app?vid=551007eb-0d19-4212-aaad-40cf20c93b6d","ios":"levelo://app?vid=551007eb-0d19-4212-aaad-40cf20c93b6d"},"vehicle_type_id":"4","last_reported":1726668526,"current_range_meters":38800,"station_id":"ce4bgs12rcd13ifvqcag","pricing_plan_id":"cebpf4jnsgd1na2vs0mg"},{"bike_id":"7ed6e232-258b-4a81-8bc6-1263c7ea255d","system_id":"levelo_inurba_marseille","lat":43.26783,"lon":5.39418,"is_reserved":false,"is_disabled":false,"rental_uris":{"android":"levelo://app?vid=7ed6e232-258b-4a81-8bc6-1263c7ea255d","ios":"levelo://app?vid=7ed6e232-258b-4a81-8bc6-1263c7ea255d"},"vehicle_type_id":"4","last_reported":1726668526,"current_range_meters":14400,"station_id":"ce4bhh12rcd13ifvqfg0","pricing_plan_id":"cebpf4jnsgd1na2vs0mg"},{"bike_id":"db5bed51-afb9-4548-98e9-7b7ae226c501","system_id":"levelo_inurba_marseille","lat":43.337444,"lon":5.374475,"is_reserved":false,"is_disabled":false,"rental_uris":{"android":"levelo://app?vid=db5bed51-afb9-4548-98e9-7b7ae226c501","ios":"levelo://app?vid=db5bed51-afb9-4548-98e9-7b7ae226c501"},"vehicle_type_id":"4","last_reported":1726668526,"current_range_meters":38000,"station_id":"","pricing_plan_id":"cebpf4jnsgd1na2vs0mg"},{"bike_id":"fb165866-3b84-4919-a16e-9a10135f37ab","system_id":"levelo_inurba_marseille","lat":43.303162,"lon":5.369008,"is_reserved":false,"is_disabled":false,"rental_uris":{"android":"levelo://app?vid=fb165866-3b84-4919-a16e-9a10135f37ab","ios":"levelo://app?vid=fb165866-3b84-4919-a16e-9a10135f37ab"},"vehicle_type_id":"4","last_reported":1726668526,"current_range_meters":40000,"station_id":"ce4bgqh2rcd13ifvqc5g","pricing_plan_id":"cebpf4jnsgd1na2vs0mg"},{"bike_id":"50f2eba0-8388-4a98-93e0-466beadabfca","system_id":"levelo_inurba_marseille","lat":43.23971,"lon":5.3663,"is_reserved":false,"is_disabled":false,"rental_uris":{"android":"levelo://app?vid=50f2eba0-8388-4a98-93e0-466beadabfca","ios":"levelo://app?vid=50f2eba0-8388-4a98-93e0-466beadabfca"},"vehicle_type_id":"4","last_reported":1726668526,"current_range_meters":38800,"station_id":"ce4bhi12rcd13ifvqfp0","pricing_plan_id":"cebpf4jnsgd1na2vs0mg"},{"bike_id":"647172dc-7851-46b0-a65e-8341f856cc4d","system_id":"levelo_inurba_marseille","lat":43.30934,"lon":5.40143,"is_reserved":false,"is_disabled":false,"rental_uris":{"android":"levelo://app?vid=647172dc-7851-46b0-a65e-8341f856cc4d","ios":"levelo://app?vid=647172dc-7851-46b0-a65e-8341f856cc4d"},"vehicle_type_id":"4","last_reported":1726668526,"current_range_meters":8400,"station_id":"ce4bgvp2rcd13ifvqct0","pricing_plan_id":"cebpf4jnsgd1na2vs0mg"},{"bike_id":"84a564dd-d254-4592-8546-0bf81ea0aa09","system_id":"levelo_inurba_marseille","lat":43.30803,"lon":5.38154,"is_reserved":false,"is_disabled":false,"rental_uris":{"android":"levelo://app?vid=84a564dd-d254-4592-8546-0bf81ea0aa09","ios":"levelo://app?vid=84a564dd-d254-4592-8546-0bf81ea0aa09"},"vehicle_type_id":"4","last_reported":1726668526,"current_range_meters":28800,"station_id":"ce4bgt12rcd13ifvqce0","pricing_plan_id":"cebpf4jnsgd1na2vs0mg"},{"bike_id":"5d3e7478-0a66-4d59-8a49-cbc8856d3c4a","system_id":"levelo_inurba_marseille","lat":43.337444,"lon":5.374475,"is_reserved":false,"is_disabled":false,"rental_uris":{"android":"levelo://app?vid=5d3e7478-0a66-4d59-8a49-cbc8856d3c4a","ios":"levelo://app?vid=5d3e7478-0a66-4d59-8a49-cbc8856d3c4a"},"vehicle_type_id":"4","last_reported":1726668526,"current_range_meters":32400,"station_id":"ce4bgup2rcd13ifvqcn0","pricing_plan_id":"cebpf4jnsgd1na2vs0mg"},{"bike_id":"8c0d530c-80a9-463b-b552-7c7a8c8ab48a","system_id":"levelo_inurba_marseille","lat":43.2315,"lon":5.43713,"is_reserved":false,"is_disabled":false,"rental_uris":{"android":"levelo://app?vid=8c0d530c-80a9-463b-b552-7c7a8c8ab48a","ios":"levelo://app?vid=8c0d530c-80a9-463b-b552-7c7a8c8ab48a"},"vehicle_type_id":"4","last_reported":1726668526,"current_range_meters":38800,"station_id":"ce4bhmp2rcd13ifvqgog","pricing_plan_id":"cebpf4jnsgd1na2vs0mg"},{"bike_id":"5a41fb7a-d825-464a-82b5-567520467b7c","system_id":"levelo_inurba_marseille","lat":43.295536,"lon":5.422964,"is_reserved":false,"is_disabled":false,"rental_uris":{"android":"levelo://app?vid=5a41fb7a-d825-464a-82b5-567520467b7c","ios":"levelo://app?vid=5a41fb7a-d825-464a-82b5-567520467b7c"},"vehicle_type_id":"4","last_reported":1726668526,"current_range_meters":38800,"station_id":"ce4bhph2rcd13ifvqhdg","pricing_plan_id":"cebpf4jnsgd1na2vs0mg"},{"bike_id":"4f85f1ac-4d89-4690-bcc3-5ad118b61425","system_id":"levelo_inurba_marseille","lat":43.29885,"lon":5.38899,"is_reserved":false,"is_disabled":false,"rental_uris":{"android":"levelo://app?vid=4f85f1ac-4d89-4690-bcc3-5ad118b61425","ios":"levelo://app?vid=4f85f1ac-4d89-4690-bcc3-5ad118b61425"},"vehicle_type_id":"4","last_reported":1726668526,"current_range_meters":14400,"station_id":"ce4bh392rcd13ifvqdl0","pricing_plan_id":"cebpf4jnsgd1na2vs0mg"},{"bike_id":"58014cc6-4f39-4119-a8a0-cdc0e2507820","system_id":"levelo_inurba_marseille","lat":43.32291,"lon":5.38271,"is_reserved":false,"is_disabled":false,"rental_uris":{"android":"levelo://app?vid=58014cc6-4f39-4119-a8a0-cdc0e2507820","ios":"levelo://app?vid=58014cc6-4f39-4119-a8a0-cdc0e2507820"},"vehicle_type_id":"4","last_reported":1726668526,"current_range_meters":38800,"station_id":"ce4bhr12rcd13ifvqhqg","pricing_plan_id":"cebpf4jnsgd1na2vs0mg"},{"bike_id":"7231c74c-5278-429f-90a8-a50ab6504eee","system_id":"levelo_inurba_marseille","lat":43.32485,"lon":5.36567,"is_reserved":false,"is_disabled":false,"rental_uris":{"android":"levelo://app?vid=7231c74c-5278-429f-90a8-a50ab6504eee","ios":"levelo://app?vid=7231c74c-5278-429f-90a8-a50ab6504eee"},"vehicle_type_id":"4","last_reported":1726668526,"current_range_meters":27600,"station_id":"ce4bhs12rcd13ifvqhvg","pricing_plan_id":"cebpf4jnsgd1na2vs0mg"},{"bike_id":"357ac946-254d-41f2-9ccd-d54c2490250c","system_id":"levelo_inurba_marseille","lat":43.29707,"lon":5.37733,"is_reserved":false,"is_disabled":false,"rental_uris":{"android":"levelo://app?vid=357ac946-254d-41f2-9ccd-d54c2490250c","ios":"levelo://app?vid=357ac946-254d-41f2-9ccd-d54c2490250c"},"vehicle_type_id":"4","last_reported":1726668526,"current_range_meters":22800,"station_id":"ce4bgkh2rcd13ifvqbl0","pricing_plan_id":"cebpf4jnsgd1na2vs0mg"},{"bike_id":"9de036c4-decb-465b-a775-32e663a8924f","system_id":"levelo_inurba_marseille","lat":43.33021,"lon":5.39026,"is_reserved":false,"is_disabled":false,"rental_uris":{"android":"levelo://app?vid=9de036c4-decb-465b-a775-32e663a8924f","ios":"levelo://app?vid=9de036c4-decb-465b-a775-32e663a8924f"},"vehicle_type_id":"4","last_reported":1726668526,"current_range_meters":33600,"station_id":"ce4bhr92rcd13ifvqhrg","pricing_plan_id":"cebpf4jnsgd1na2vs0mg"},{"bike_id":"4db1754d-2b4d-4a6c-993b-61ad24afb4d4","system_id":"levelo_inurba_marseille","lat":43.30466,"lon":5.37909,"is_reserved":false,"is_disabled":false,"rental_uris":{"android":"levelo://app?vid=4db1754d-2b4d-4a6c-993b-61ad24afb4d4","ios":"levelo://app?vid=4db1754d-2b4d-4a6c-993b-61ad24afb4d4"},"vehicle_type_id":"4","last_reported":1726668526,"current_range_meters":24800,"station_id":"ce4bgup2rcd13ifvqcn0","pricing_plan_id":"cebpf4jnsgd1na2vs0mg"},{"bike_id":"2e34c604-9f28-4fee-a40a-977fe18a7323","system_id":"levelo_inurba_marseille","lat":43.27809,"lon":5.40711,"is_reserved":false,"is_disabled":false,"rental_uris":{"android":"levelo://app?vid=2e34c604-9f28-4fee-a40a-977fe18a7323","ios":"levelo://app?vid=2e34c604-9f28-4fee-a40a-977fe18a7323"},"vehicle_type_id":"4","last_reported":1726668526,"current_range_meters":17200,"station_id":"ce4bhnh2rcd13ifvqgtg","pricing_plan_id":"cebpf4jnsgd1na2vs0mg"},{"bike_id":"cb81e840-af29-4eef-b98d-b512a6de60d5","system_id":"levelo_inurba_marseille","lat":43.25583,"lon":5.38229,"is_reserved":false,"is_disabled":false,"rental_uris":{"android":"levelo://app?vid=cb81e840-af29-4eef-b98d-b512a6de60d5","ios":"levelo://app?vid=cb81e840-af29-4eef-b98d-b512a6de60d5"},"vehicle_type_id":"4","last_reported":1726668526,"current_range_meters":26800,"station_id":"ce4bhih2rcd13ifvqfs0","pricing_plan_id":"cebpf4jnsgd1na2vs0mg"},{"bike_id":"6ff4ce02-3ef0-442c-aeaa-002d5008e739","system_id":"levelo_inurba_marseille","lat":43.32488,"lon":5.36571,"is_reserved":false,"is_disabled":false,"rental_uris":{"android":"levelo://app?vid=6ff4ce02-3ef0-442c-aeaa-002d5008e739","ios":"levelo://app?vid=6ff4ce02-3ef0-442c-aeaa-002d5008e739"},"vehicle_type_id":"4","last_reported":1726668526,"current_range_meters":29600,"station_id":"ce4bhs12rcd13ifvqhvg","pricing_plan_id":"cebpf4jnsgd1na2vs0mg"},{"bike_id":"e1511f40-b206-41e9-a0dc-78b7df05ce8e","system_id":"levelo_inurba_marseille","lat":43.28933,"lon":5.36631,"is_reserved":false,"is_disabled":false,"rental_uris":{"android":"levelo://app?vid=e1511f40-b206-41e9-a0dc-78b7df05ce8e","ios":"levelo://app?vid=e1511f40-b206-41e9-a0dc-78b7df05ce8e"},"vehicle_type_id":"4","last_reported":1726668526,"current_range_meters":35600,"station_id":"ce4bhap2rcd13ifvqek0","pricing_plan_id":"cebpf4jnsgd1na2vs0mg"},{"bike_id":"4423e0d1-374d-45e5-8b70-055d6bf84bf0","system_id":"levelo_inurba_marseille","lat":43.26055,"lon":5.39396,"is_reserved":false,"is_disabled":false,"rental_uris":{"android":"levelo://app?vid=4423e0d1-374d-45e5-8b70-055d6bf84bf0","ios":"levelo://app?vid=4423e0d1-374d-45e5-8b70-055d6bf84bf0"},"vehicle_type_id":"4","last_reported":1726668526,"current_range_meters":11600,"station_id":"ce4bhh92rcd13ifvqfj0","pricing_plan_id":"cebpf4jnsgd1na2vs0mg"},{"bike_id":"cbaf03bf-0340-4293-a424-18d0ef0b595f","system_id":"levelo_inurba_marseille","lat":43.29899,"lon":5.43666,"is_reserved":false,"is_disabled":false,"rental_uris":{"android":"levelo://app?vid=cbaf03bf-0340-4293-a424-18d0ef0b595f","ios":"levelo://app?vid=cbaf03bf-0340-4293-a424-18d0ef0b595f"},"vehicle_type_id":"4","last_reported":1726668526,"current_range_meters":16000,"station_id":"ce4bhpp2rcd13ifvqhfg","pricing_plan_id":"cebpf4jnsgd1na2vs0mg"},{"bike_id":"707eaac3-45ed-4b0c-9010-e60d916b1864","system_id":"levelo_inurba_marseille","lat":43.23188,"lon":5.39984,"is_reserved":false,"is_disabled":false,"rental_uris":{"android":"levelo://app?vid=707eaac3-45ed-4b0c-9010-e60d916b1864","ios":"levelo://app?vid=707eaac3-45ed-4b0c-9010-e60d916b1864"},"vehicle_type_id":"4","last_reported":1726668526,"current_range_meters":27600,"station_id":"ce4bhn12rcd13ifvqgqg","pricing_plan_id":"cebpf4jnsgd1na2vs0mg"},{"bike_id":"57b6cc5e-778d-42f8-aace-5ba9e21b56f2","system_id":"levelo_inurba_marseille","lat":43.27672,"lon":5.38886,"is_reserved":false,"is_disabled":false,"rental_uris":{"android":"levelo://app?vid=57b6cc5e-778d-42f8-aace-5ba9e21b56f2","ios":"levelo://app?vid=57b6cc5e-778d-42f8-aace-5ba9e21b56f2"},"vehicle_type_id":"4","last_reported":1726668526,"current_range_meters":38000,"station_id":"ce4bhi12rcd13ifvqfo0","pricing_plan_id":"cebpf4jnsgd1na2vs0mg"},{"bike_id":"d0fc61d1-7fab-4a57-ba4e-64fa512d0e95","system_id":"levelo_inurba_marseille","lat":43.26489,"lon":5.3954,"is_reserved":false,"is_disabled":false,"rental_uris":{"android":"levelo://app?vid=d0fc61d1-7fab-4a57-ba4e-64fa512d0e95","ios":"levelo://app?vid=d0fc61d1-7fab-4a57-ba4e-64fa512d0e95"},"vehicle_type_id":"4","last_reported":1726668526,"current_range_meters":26000,"station_id":"ce4bhi12rcd13ifvqfq0","pricing_plan_id":"cebpf4jnsgd1na2vs0mg"},{"bike_id":"6e00666a-f02f-4580-a990-0531883c2cb7","system_id":"levelo_inurba_marseille","lat":43.29895,"lon":5.43663,"is_reserved":false,"is_disabled":false,"rental_uris":{"android":"levelo://app?vid=6e00666a-f02f-4580-a990-0531883c2cb7","ios":"levelo://app?vid=6e00666a-f02f-4580-a990-0531883c2cb7"},"vehicle_type_id":"4","last_reported":1726668526,"current_range_meters":6400,"station_id":"ce4bhpp2rcd13ifvqhfg","pricing_plan_id":"cebpf4jnsgd1na2vs0mg"},{"bike_id":"87685760-3e72-4f63-8370-89f2f0b6a7aa","system_id":"levelo_inurba_marseille","lat":43.2407,"lon":5.37763,"is_reserved":false,"is_disabled":false,"rental_uris":{"android":"levelo://app?vid=87685760-3e72-4f63-8370-89f2f0b6a7aa","ios":"levelo://app?vid=87685760-3e72-4f63-8370-89f2f0b6a7aa"},"vehicle_type_id":"4","last_reported":1726668526,"current_range_meters":24000,"station_id":"ce4bhnp2rcd13ifvqgvg","pricing_plan_id":"cebpf4jnsgd1na2vs0mg"},{"bike_id":"a67a8de6-7d74-4933-b529-d197bd3bb74a","system_id":"levelo_inurba_marseille","lat":43.30322,"lon":5.36892,"is_reserved":false,"is_disabled":false,"rental_uris":{"android":"levelo://app?vid=a67a8de6-7d74-4933-b529-d197bd3bb74a","ios":"levelo://app?vid=a67a8de6-7d74-4933-b529-d197bd3bb74a"},"vehicle_type_id":"4","last_reported":1726668526,"current_range_meters":38800,"station_id":"ce4bgqh2rcd13ifvqc5g","pricing_plan_id":"cebpf4jnsgd1na2vs0mg"},{"bike_id":"e88c0602-0765-4f60-a279-870782d0f819","system_id":"levelo_inurba_marseille","lat":43.270537,"lon":5.402548,"is_reserved":false,"is_disabled":false,"rental_uris":{"android":"levelo://app?vid=e88c0602-0765-4f60-a279-870782d0f819","ios":"levelo://app?vid=e88c0602-0765-4f60-a279-870782d0f819"},"vehicle_type_id":"4","last_reported":1726668526,"current_range_meters":22400,"station_id":"ce4bhk92rcd13ifvqgc0","pricing_plan_id":"cebpf4jnsgd1na2vs0mg"},{"bike_id":"fa2e946d-01fe-4bb4-a2b0-55af60a0bcec","system_id":"levelo_inurba_marseille","lat":43.33722,"lon":5.39188,"is_reserved":false,"is_disabled":false,"rental_uris":{"android":"levelo://app?vid=fa2e946d-01fe-4bb4-a2b0-55af60a0bcec","ios":"levelo://app?vid=fa2e946d-01fe-4bb4-a2b0-55af60a0bcec"},"vehicle_type_id":"4","last_reported":1726668526,"current_range_meters":38400,"station_id":"ce4bhr92rcd13ifvqhsg","pricing_plan_id":"cebpf4jnsgd1na2vs0mg"},{"bike_id":"a7458e4e-7cb7-4b7c-9722-2f8e8fa4a387","system_id":"levelo_inurba_marseille","lat":43.272049,"lon":5.391821,"is_reserved":false,"is_disabled":false,"rental_uris":{"android":"levelo://app?vid=a7458e4e-7cb7-4b7c-9722-2f8e8fa4a387","ios":"levelo://app?vid=a7458e4e-7cb7-4b7c-9722-2f8e8fa4a387"},"vehicle_type_id":"4","last_reported":1726668526,"current_range_meters":27600,"station_id":"ce4bhn12rcd13ifvqgqg","pricing_plan_id":"cebpf4jnsgd1na2vs0mg"},{"bike_id":"a225e308-9f3b-4239-997c-85b47c044156","system_id":"levelo_inurba_marseille","lat":43.25929,"lon":5.40905,"is_reserved":false,"is_disabled":false,"rental_uris":{"android":"levelo://app?vid=a225e308-9f3b-4239-997c-85b47c044156","ios":"levelo://app?vid=a225e308-9f3b-4239-997c-85b47c044156"},"vehicle_type_id":"4","last_reported":1726668526,"current_range_meters":29600,"station_id":"ce4bhm92rcd13ifvqglg","pricing_plan_id":"cebpf4jnsgd1na2vs0mg"},{"bike_id":"df189c18-863d-49a6-a58f-44f7bc3f9196","system_id":"levelo_inurba_marseille","lat":43.30143,"lon":5.37422,"is_reserved":false,"is_disabled":false,"rental_uris":{"android":"levelo://app?vid=df189c18-863d-49a6-a58f-44f7bc3f9196","ios":"levelo://app?vid=df189c18-863d-49a6-a58f-44f7bc3f9196"},"vehicle_type_id":"4","last_reported":1726668526,"current_range_meters":18000,"station_id":"ce4bgs92rcd13ifvqcc0","pricing_plan_id":"cebpf4jnsgd1na2vs0mg"},{"bike_id":"c11ebf5c-b2d3-4290-a13c-2ad74dd9fb71","system_id":"levelo_inurba_marseille","lat":43.30138,"lon":5.3742,"is_reserved":false,"is_disabled":false,"rental_uris":{"android":"levelo://app?vid=c11ebf5c-b2d3-4290-a13c-2ad74dd9fb71","ios":"levelo://app?vid=c11ebf5c-b2d3-4290-a13c-2ad74dd9fb71"},"vehicle_type_id":"4","last_reported":1726668526,"current_range_meters":5600,"station_id":"ce4bgs92rcd13ifvqcc0","pricing_plan_id":"cebpf4jnsgd1na2vs0mg"},{"bike_id":"7f8c5afb-39c9-452c-975f-bc75bc43fcf9","system_id":"levelo_inurba_marseille","lat":43.3054,"lon":5.36531,"is_reserved":false,"is_disabled":false,"rental_uris":{"android":"levelo://app?vid=7f8c5afb-39c9-452c-975f-bc75bc43fcf9","ios":"levelo://app?vid=7f8c5afb-39c9-452c-975f-bc75bc43fcf9"},"vehicle_type_id":"4","last_reported":1726668526,"current_range_meters":38800,"station_id":"ce4bgs12rcd13ifvqcag","pricing_plan_id":"cebpf4jnsgd1na2vs0mg"},{"bike_id":"328d45f9-980e-4811-97c0-47d761861509","system_id":"levelo_inurba_marseille","lat":43.29847,"lon":5.37836,"is_reserved":false,"is_disabled":false,"rental_uris":{"android":"levelo://app?vid=328d45f9-980e-4811-97c0-47d761861509","ios":"levelo://app?vid=328d45f9-980e-4811-97c0-47d761861509"},"vehicle_type_id":"4","last_reported":1726668526,"current_range_meters":11200,"station_id":"ce4bgkh2rcd13ifvqbl0","pricing_plan_id":"cebpf4jnsgd1na2vs0mg"},{"bike_id":"a41a3a3a-3023-4839-9f5f-27d7b8c9af1d","system_id":"levelo_inurba_marseille","lat":43.231537,"lon":5.437033,"is_reserved":false,"is_disabled":false,"rental_uris":{"android":"levelo://app?vid=a41a3a3a-3023-4839-9f5f-27d7b8c9af1d","ios":"levelo://app?vid=a41a3a3a-3023-4839-9f5f-27d7b8c9af1d"},"vehicle_type_id":"4","last_reported":1726668526,"current_range_meters":33200,"station_id":"ce4bhmp2rcd13ifvqgog","pricing_plan_id":"cebpf4jnsgd1na2vs0mg"},{"bike_id":"a68fee31-ba3f-4be7-81c1-5d0134a28cde","system_id":"levelo_inurba_marseille","lat":43.3375,"lon":5.37439,"is_reserved":false,"is_disabled":false,"rental_uris":{"android":"levelo://app?vid=a68fee31-ba3f-4be7-81c1-5d0134a28cde","ios":"levelo://app?vid=a68fee31-ba3f-4be7-81c1-5d0134a28cde"},"vehicle_type_id":"4","last_reported":1726668526,"current_range_meters":38800,"station_id":"","pricing_plan_id":"cebpf4jnsgd1na2vs0mg"},{"bike_id":"65047612-25b9-4b3a-99bd-2d5b7ac38b32","system_id":"levelo_inurba_marseille","lat":43.29196,"lon":5.358,"is_reserved":false,"is_disabled":false,"rental_uris":{"android":"levelo://app?vid=65047612-25b9-4b3a-99bd-2d5b7ac38b32","ios":"levelo://app?vid=65047612-25b9-4b3a-99bd-2d5b7ac38b32"},"vehicle_type_id":"4","last_reported":1726668526,"current_range_meters":14000,"station_id":"ce4bhb12rcd13ifvqel0","pricing_plan_id":"cebpf4jnsgd1na2vs0mg"},{"bike_id":"fa690805-233a-4a70-a9f3-33f1b67cdb1f","system_id":"levelo_inurba_marseille","lat":43.32283,"lon":5.38261,"is_reserved":false,"is_disabled":false,"rental_uris":{"android":"levelo://app?vid=fa690805-233a-4a70-a9f3-33f1b67cdb1f","ios":"levelo://app?vid=fa690805-233a-4a70-a9f3-33f1b67cdb1f"},"vehicle_type_id":"4","last_reported":1726668526,"current_range_meters":27600,"station_id":"ce4bhr12rcd13ifvqhqg","pricing_plan_id":"cebpf4jnsgd1na2vs0mg"},{"bike_id":"d4dee6ce-09ee-4472-9917-4640f642bb72","system_id":"levelo_inurba_marseille","lat":43.22939,"lon":5.35376,"is_reserved":false,"is_disabled":false,"rental_uris":{"android":"levelo://app?vid=d4dee6ce-09ee-4472-9917-4640f642bb72","ios":"levelo://app?vid=d4dee6ce-09ee-4472-9917-4640f642bb72"},"vehicle_type_id":"4","last_reported":1726668526,"current_range_meters":28400,"station_id":"cpo3532slgdg3j2ikp40","pricing_plan_id":"cebpf4jnsgd1na2vs0mg"},{"bike_id":"8b608b96-fedf-4511-8d4b-09bad2606e1a","system_id":"levelo_inurba_marseille","lat":43.27722,"lon":5.4114,"is_reserved":false,"is_disabled":false,"rental_uris":{"android":"levelo://app?vid=8b608b96-fedf-4511-8d4b-09bad2606e1a","ios":"levelo://app?vid=8b608b96-fedf-4511-8d4b-09bad2606e1a"},"vehicle_type_id":"4","last_reported":1726668526,"current_range_meters":4400,"station_id":"","pricing_plan_id":"cebpf4jnsgd1na2vs0mg"},{"bike_id":"d1b2903b-c778-4ec8-86aa-03c71c5747df","system_id":"levelo_inurba_marseille","lat":43.30275,"lon":5.37698,"is_reserved":false,"is_disabled":false,"rental_uris":{"android":"levelo://app?vid=d1b2903b-c778-4ec8-86aa-03c71c5747df","ios":"levelo://app?vid=d1b2903b-c778-4ec8-86aa-03c71c5747df"},"vehicle_type_id":"4","last_reported":1726668526,"current_range_meters":25600,"station_id":"ce4bguh2rcd13ifvqcj0","pricing_plan_id":"cebpf4jnsgd1na2vs0mg"},{"bike_id":"7f400f79-0ea5-4ce8-bc25-c336cc268834","system_id":"levelo_inurba_marseille","lat":43.28675,"lon":5.36349,"is_reserved":false,"is_disabled":false,"rental_uris":{"android":"levelo://app?vid=7f400f79-0ea5-4ce8-bc25-c336cc268834","ios":"levelo://app?vid=7f400f79-0ea5-4ce8-bc25-c336cc268834"},"vehicle_type_id":"4","last_reported":1726668526,"current_range_meters":8800,"station_id":"ce4bhah2rcd13ifvqej0","pricing_plan_id":"cebpf4jnsgd1na2vs0mg"},{"bike_id":"ffd965b9-8de1-45fd-999a-f52852783f71","system_id":"levelo_inurba_marseille","lat":43.27559,"lon":5.38406,"is_reserved":false,"is_disabled":false,"rental_uris":{"android":"levelo://app?vid=ffd965b9-8de1-45fd-999a-f52852783f71","ios":"levelo://app?vid=ffd965b9-8de1-45fd-999a-f52852783f71"},"vehicle_type_id":"4","last_reported":1726668526,"current_range_meters":19200,"station_id":"ce4bhh92rcd13ifvqfi0","pricing_plan_id":"cebpf4jnsgd1na2vs0mg"},{"bike_id":"8bd5dd74-b2d4-41df-90de-b80e1e8859b1","system_id":"levelo_inurba_marseille","lat":43.29618,"lon":5.37727,"is_reserved":false,"is_disabled":false,"rental_uris":{"android":"levelo://app?vid=8bd5dd74-b2d4-41df-90de-b80e1e8859b1","ios":"levelo://app?vid=8bd5dd74-b2d4-41df-90de-b80e1e8859b1"},"vehicle_type_id":"4","last_reported":1726668526,"current_range_meters":30000,"station_id":"ce4bgi92rcd13ifvqb90","pricing_plan_id":"cebpf4jnsgd1na2vs0mg"},{"bike_id":"7723f8b5-28ba-4c14-a8c6-7ab2a47f9035","system_id":"levelo_inurba_marseille","lat":43.27562,"lon":5.38409,"is_reserved":false,"is_disabled":false,"rental_uris":{"android":"levelo://app?vid=7723f8b5-28ba-4c14-a8c6-7ab2a47f9035","ios":"levelo://app?vid=7723f8b5-28ba-4c14-a8c6-7ab2a47f9035"},"vehicle_type_id":"4","last_reported":1726668526,"current_range_meters":6000,"station_id":"ce4bhh92rcd13ifvqfi0","pricing_plan_id":"cebpf4jnsgd1na2vs0mg"},{"bike_id":"d73de659-2c67-46c6-93e2-19d30084784e","system_id":"levelo_inurba_marseille","lat":43.29517,"lon":5.3903,"is_reserved":false,"is_disabled":false,"rental_uris":{"android":"levelo://app?vid=d73de659-2c67-46c6-93e2-19d30084784e","ios":"levelo://app?vid=d73de659-2c67-46c6-93e2-19d30084784e"},"vehicle_type_id":"4","last_reported":1726668526,"current_range_meters":38800,"station_id":"ce4bh3p2rcd13ifvqdp0","pricing_plan_id":"cebpf4jnsgd1na2vs0mg"},{"bike_id":"c8735fda-786e-475e-99a9-0a9b1e7aa191","system_id":"levelo_inurba_marseille","lat":43.26036,"lon":5.37541,"is_reserved":false,"is_disabled":false,"rental_uris":{"android":"levelo://app?vid=c8735fda-786e-475e-99a9-0a9b1e7aa191","ios":"levelo://app?vid=c8735fda-786e-475e-99a9-0a9b1e7aa191"},"vehicle_type_id":"4","last_reported":1726668526,"current_range_meters":24800,"station_id":"ce4bhgh2rcd13ifvqfa0","pricing_plan_id":"cebpf4jnsgd1na2vs0mg"},{"bike_id":"b8660703-84a5-44c3-8472-c0cd72697c81","system_id":"levelo_inurba_marseille","lat":43.25122,"lon":5.40316,"is_reserved":false,"is_disabled":false,"rental_uris":{"android":"levelo://app?vid=b8660703-84a5-44c3-8472-c0cd72697c81","ios":"levelo://app?vid=b8660703-84a5-44c3-8472-c0cd72697c81"},"vehicle_type_id":"4","last_reported":1726668526,"current_range_meters":28800,"station_id":"ce4bhlh2rcd13ifvqgig","pricing_plan_id":"cebpf4jnsgd1na2vs0mg"},{"bike_id":"caa0f34b-8b40-4c29-85a6-76c38487b57f","system_id":"levelo_inurba_marseille","lat":43.30555,"lon":5.36526,"is_reserved":false,"is_disabled":false,"rental_uris":{"android":"levelo://app?vid=caa0f34b-8b40-4c29-85a6-76c38487b57f","ios":"levelo://app?vid=caa0f34b-8b40-4c29-85a6-76c38487b57f"},"vehicle_type_id":"4","last_reported":1726668526,"current_range_meters":17200,"station_id":"ce4bgs12rcd13ifvqcag","pricing_plan_id":"cebpf4jnsgd1na2vs0mg"},{"bike_id":"df80fc7a-0408-4701-8164-d6717e198505","system_id":"levelo_inurba_marseille","lat":43.30953,"lon":5.39026,"is_reserved":false,"is_disabled":false,"rental_uris":{"android":"levelo://app?vid=df80fc7a-0408-4701-8164-d6717e198505","ios":"levelo://app?vid=df80fc7a-0408-4701-8164-d6717e198505"},"vehicle_type_id":"4","last_reported":1726668526,"current_range_meters":11600,"station_id":"ce4bgup2rcd13ifvqco0","pricing_plan_id":"cebpf4jnsgd1na2vs0mg"},{"bike_id":"f2741cbb-baf6-48ac-9ab9-e4a2519206f1","system_id":"levelo_inurba_marseille","lat":43.28721,"lon":5.36078,"is_reserved":false,"is_disabled":false,"rental_uris":{"android":"levelo://app?vid=f2741cbb-baf6-48ac-9ab9-e4a2519206f1","ios":"levelo://app?vid=f2741cbb-baf6-48ac-9ab9-e4a2519206f1"},"vehicle_type_id":"4","last_reported":1726668526,"current_range_meters":9600,"station_id":"cki0cbj6b192h4jlfktg","pricing_plan_id":"cebpf4jnsgd1na2vs0mg"},{"bike_id":"43d7e620-c98f-4b24-b61c-b483371634a1","system_id":"levelo_inurba_marseille","lat":43.29568,"lon":5.37497,"is_reserved":false,"is_disabled":false,"rental_uris":{"android":"levelo://app?vid=43d7e620-c98f-4b24-b61c-b483371634a1","ios":"levelo://app?vid=43d7e620-c98f-4b24-b61c-b483371634a1"},"vehicle_type_id":"4","last_reported":1726668526,"current_range_meters":38800,"station_id":"ce4bgh92rcd13ifvqb50","pricing_plan_id":"cebpf4jnsgd1na2vs0mg"},{"bike_id":"ed514022-f448-4ea0-acc7-24daabf823b3","system_id":"levelo_inurba_marseille","lat":43.24663,"lon":5.38159,"is_reserved":false,"is_disabled":false,"rental_uris":{"android":"levelo://app?vid=ed514022-f448-4ea0-acc7-24daabf823b3","ios":"levelo://app?vid=ed514022-f448-4ea0-acc7-24daabf823b3"},"vehicle_type_id":"4","last_reported":1726668526,"current_range_meters":24000,"station_id":"ce4bhih2rcd13ifvqfr0","pricing_plan_id":"cebpf4jnsgd1na2vs0mg"},{"bike_id":"498a9975-f93a-42dc-9b2f-06fb60860407","system_id":"levelo_inurba_marseille","lat":43.23149,"lon":5.43727,"is_reserved":false,"is_disabled":false,"rental_uris":{"android":"levelo://app?vid=498a9975-f93a-42dc-9b2f-06fb60860407","ios":"levelo://app?vid=498a9975-f93a-42dc-9b2f-06fb60860407"},"vehicle_type_id":"4","last_reported":1726668526,"current_range_meters":24400,"station_id":"ce4bhmp2rcd13ifvqgog","pricing_plan_id":"cebpf4jnsgd1na2vs0mg"},{"bike_id":"1ce44792-ff6c-410f-8590-8c6993669e43","system_id":"levelo_inurba_marseille","lat":43.28036,"lon":5.36928,"is_reserved":false,"is_disabled":false,"rental_uris":{"android":"levelo://app?vid=1ce44792-ff6c-410f-8590-8c6993669e43","ios":"levelo://app?vid=1ce44792-ff6c-410f-8590-8c6993669e43"},"vehicle_type_id":"4","last_reported":1726668526,"current_range_meters":9200,"station_id":"ce4bha12rcd13ifvqef0","pricing_plan_id":"cebpf4jnsgd1na2vs0mg"},{"bike_id":"15b391f8-82a1-45ba-80c4-3a85015bd649","system_id":"levelo_inurba_marseille","lat":43.32484,"lon":5.36566,"is_reserved":false,"is_disabled":false,"rental_uris":{"android":"levelo://app?vid=15b391f8-82a1-45ba-80c4-3a85015bd649","ios":"levelo://app?vid=15b391f8-82a1-45ba-80c4-3a85015bd649"},"vehicle_type_id":"4","last_reported":1726668526,"current_range_meters":35600,"station_id":"ce4bhs12rcd13ifvqhvg","pricing_plan_id":"cebpf4jnsgd1na2vs0mg"},{"bike_id":"976de3eb-6a07-4885-a08a-67448bd12424","system_id":"levelo_inurba_marseille","lat":43.259399,"lon":5.409022,"is_reserved":false,"is_disabled":false,"rental_uris":{"android":"levelo://app?vid=976de3eb-6a07-4885-a08a-67448bd12424","ios":"levelo://app?vid=976de3eb-6a07-4885-a08a-67448bd12424"},"vehicle_type_id":"4","last_reported":1726668526,"current_range_meters":16400,"station_id":"ce4bhm92rcd13ifvqglg","pricing_plan_id":"cebpf4jnsgd1na2vs0mg"},{"bike_id":"b3a6b6e6-ba17-4da9-ab07-7837e8520bf9","system_id":"levelo_inurba_marseille","lat":43.30546,"lon":5.36546,"is_reserved":false,"is_disabled":false,"rental_uris":{"android":"levelo://app?vid=b3a6b6e6-ba17-4da9-ab07-7837e8520bf9","ios":"levelo://app?vid=b3a6b6e6-ba17-4da9-ab07-7837e8520bf9"},"vehicle_type_id":"4","last_reported":1726668526,"current_range_meters":8000,"station_id":"ce4bgs12rcd13ifvqcag","pricing_plan_id":"cebpf4jnsgd1na2vs0mg"},{"bike_id":"a1b810b2-be0e-43a7-876b-e09cde51a510","system_id":"levelo_inurba_marseille","lat":43.29848,"lon":5.36265,"is_reserved":false,"is_disabled":false,"rental_uris":{"android":"levelo://app?vid=a1b810b2-be0e-43a7-876b-e09cde51a510","ios":"levelo://app?vid=a1b810b2-be0e-43a7-876b-e09cde51a510"},"vehicle_type_id":"4","last_reported":1726668526,"current_range_meters":37600,"station_id":"ce4bgpp2rcd13ifvqc3g","pricing_plan_id":"cebpf4jnsgd1na2vs0mg"},{"bike_id":"004c1074-df58-4367-9fbf-32d1ac721b48","system_id":"levelo_inurba_marseille","lat":43.27066,"lon":5.40255,"is_reserved":false,"is_disabled":false,"rental_uris":{"android":"levelo://app?vid=004c1074-df58-4367-9fbf-32d1ac721b48","ios":"levelo://app?vid=004c1074-df58-4367-9fbf-32d1ac721b48"},"vehicle_type_id":"4","last_reported":1726668526,"current_range_meters":9600,"station_id":"ce4bhk92rcd13ifvqgc0","pricing_plan_id":"cebpf4jnsgd1na2vs0mg"},{"bike_id":"858f4560-2681-4ad8-9049-f0696b7c37b4","system_id":"levelo_inurba_marseille","lat":43.29887,"lon":5.38906,"is_reserved":false,"is_disabled":false,"rental_uris":{"android":"levelo://app?vid=858f4560-2681-4ad8-9049-f0696b7c37b4","ios":"levelo://app?vid=858f4560-2681-4ad8-9049-f0696b7c37b4"},"vehicle_type_id":"4","last_reported":1726668526,"current_range_meters":36400,"station_id":"ce4bh392rcd13ifvqdl0","pricing_plan_id":"cebpf4jnsgd1na2vs0mg"},{"bike_id":"26c8c26c-129c-46d9-b46c-7949f6ea165a","system_id":"levelo_inurba_marseille","lat":43.23194,"lon":5.35552,"is_reserved":false,"is_disabled":false,"rental_uris":{"android":"levelo://app?vid=26c8c26c-129c-46d9-b46c-7949f6ea165a","ios":"levelo://app?vid=26c8c26c-129c-46d9-b46c-7949f6ea165a"},"vehicle_type_id":"4","last_reported":1726668526,"current_range_meters":36800,"station_id":"ce4bhu92rcd13ifvqi70","pricing_plan_id":"cebpf4jnsgd1na2vs0mg"},{"bike_id":"38fe9352-6de4-4cfc-9cd2-3b888e14bfba","system_id":"levelo_inurba_marseille","lat":43.24178,"lon":5.39713,"is_reserved":false,"is_disabled":false,"rental_uris":{"android":"levelo://app?vid=38fe9352-6de4-4cfc-9cd2-3b888e14bfba","ios":"levelo://app?vid=38fe9352-6de4-4cfc-9cd2-3b888e14bfba"},"vehicle_type_id":"4","last_reported":1726668526,"current_range_meters":36400,"station_id":"ce4bhn12rcd13ifvqgpg","pricing_plan_id":"cebpf4jnsgd1na2vs0mg"},{"bike_id":"27109f1d-8ca1-4ba1-8193-7ca41a45028e","system_id":"levelo_inurba_marseille","lat":43.26682,"lon":5.38273,"is_reserved":false,"is_disabled":false,"rental_uris":{"android":"levelo://app?vid=27109f1d-8ca1-4ba1-8193-7ca41a45028e","ios":"levelo://app?vid=27109f1d-8ca1-4ba1-8193-7ca41a45028e"},"vehicle_type_id":"4","last_reported":1726668526,"current_range_meters":29600,"station_id":"ce4bhg92rcd13ifvqf90","pricing_plan_id":"cebpf4jnsgd1na2vs0mg"},{"bike_id":"321f1d67-22ab-4889-b12f-adf96aac164d","system_id":"levelo_inurba_marseille","lat":43.30545,"lon":5.36539,"is_reserved":false,"is_disabled":false,"rental_uris":{"android":"levelo://app?vid=321f1d67-22ab-4889-b12f-adf96aac164d","ios":"levelo://app?vid=321f1d67-22ab-4889-b12f-adf96aac164d"},"vehicle_type_id":"4","last_reported":1726668526,"current_range_meters":28000,"station_id":"ce4bgs12rcd13ifvqcag","pricing_plan_id":"cebpf4jnsgd1na2vs0mg"},{"bike_id":"e5ce120e-f189-4882-876a-d185220bcf95","system_id":"levelo_inurba_marseille","lat":43.3302,"lon":5.39049,"is_reserved":false,"is_disabled":false,"rental_uris":{"android":"levelo://app?vid=e5ce120e-f189-4882-876a-d185220bcf95","ios":"levelo://app?vid=e5ce120e-f189-4882-876a-d185220bcf95"},"vehicle_type_id":"4","last_reported":1726668526,"current_range_meters":10000,"station_id":"ce4bhr92rcd13ifvqhrg","pricing_plan_id":"cebpf4jnsgd1na2vs0mg"},{"bike_id":"0a3283f9-1885-4d53-8177-f8e3517fc853","system_id":"levelo_inurba_marseille","lat":43.289764,"lon":5.378376,"is_reserved":false,"is_disabled":false,"rental_uris":{"android":"levelo://app?vid=0a3283f9-1885-4d53-8177-f8e3517fc853","ios":"levelo://app?vid=0a3283f9-1885-4d53-8177-f8e3517fc853"},"vehicle_type_id":"4","last_reported":1726668526,"current_range_meters":28400,"station_id":"ce4bh9p2rcd13ifvqed0","pricing_plan_id":"cebpf4jnsgd1na2vs0mg"},{"bike_id":"13fdbc64-c53e-444b-aa44-c17842e30423","system_id":"levelo_inurba_marseille","lat":43.2606,"lon":5.39394,"is_reserved":false,"is_disabled":false,"rental_uris":{"android":"levelo://app?vid=13fdbc64-c53e-444b-aa44-c17842e30423","ios":"levelo://app?vid=13fdbc64-c53e-444b-aa44-c17842e30423"},"vehicle_type_id":"4","last_reported":1726668526,"current_range_meters":37600,"station_id":"ce4bhh92rcd13ifvqfj0","pricing_plan_id":"cebpf4jnsgd1na2vs0mg"},{"bike_id":"e25a3ed1-f610-4eeb-a4a8-79551906dc0e","system_id":"levelo_inurba_marseille","lat":43.30541,"lon":5.36551,"is_reserved":false,"is_disabled":false,"rental_uris":{"android":"levelo://app?vid=e25a3ed1-f610-4eeb-a4a8-79551906dc0e","ios":"levelo://app?vid=e25a3ed1-f610-4eeb-a4a8-79551906dc0e"},"vehicle_type_id":"4","last_reported":1726668526,"current_range_meters":13600,"station_id":"ce4bgs12rcd13ifvqcag","pricing_plan_id":"cebpf4jnsgd1na2vs0mg"},{"bike_id":"78097d04-5ca1-4399-8cf9-ef9329a9fc69","system_id":"levelo_inurba_marseille","lat":43.337444,"lon":5.374475,"is_reserved":false,"is_disabled":false,"rental_uris":{"android":"levelo://app?vid=78097d04-5ca1-4399-8cf9-ef9329a9fc69","ios":"levelo://app?vid=78097d04-5ca1-4399-8cf9-ef9329a9fc69"},"vehicle_type_id":"4","last_reported":1726668526,"current_range_meters":31200,"station_id":"","pricing_plan_id":"cebpf4jnsgd1na2vs0mg"},{"bike_id":"d21b73bc-d791-4c2f-8ae7-4b37d84b6757","system_id":"levelo_inurba_marseille","lat":43.337444,"lon":5.374475,"is_reserved":false,"is_disabled":false,"rental_uris":{"android":"levelo://app?vid=d21b73bc-d791-4c2f-8ae7-4b37d84b6757","ios":"levelo://app?vid=d21b73bc-d791-4c2f-8ae7-4b37d84b6757"},"vehicle_type_id":"4","last_reported":1726668526,"current_range_meters":30800,"station_id":"","pricing_plan_id":"cebpf4jnsgd1na2vs0mg"},{"bike_id":"6f387a41-1a28-4619-ac86-26875678b81b","system_id":"levelo_inurba_marseille","lat":43.29899,"lon":5.43668,"is_reserved":false,"is_disabled":false,"rental_uris":{"android":"levelo://app?vid=6f387a41-1a28-4619-ac86-26875678b81b","ios":"levelo://app?vid=6f387a41-1a28-4619-ac86-26875678b81b"},"vehicle_type_id":"4","last_reported":1726668526,"current_range_meters":14800,"station_id":"ce4bhpp2rcd13ifvqhfg","pricing_plan_id":"cebpf4jnsgd1na2vs0mg"},{"bike_id":"85644f18-567c-4729-9f1f-0e912bd9680c","system_id":"levelo_inurba_marseille","lat":43.30888,"lon":5.3963,"is_reserved":false,"is_disabled":false,"rental_uris":{"android":"levelo://app?vid=85644f18-567c-4729-9f1f-0e912bd9680c","ios":"levelo://app?vid=85644f18-567c-4729-9f1f-0e912bd9680c"},"vehicle_type_id":"4","last_reported":1726668526,"current_range_meters":20000,"station_id":"ce4bh012rcd13ifvqcv0","pricing_plan_id":"cebpf4jnsgd1na2vs0mg"},{"bike_id":"58190bbe-9315-429b-878a-50c3668829e8","system_id":"levelo_inurba_marseille","lat":43.24652,"lon":5.38893,"is_reserved":false,"is_disabled":false,"rental_uris":{"android":"levelo://app?vid=58190bbe-9315-429b-878a-50c3668829e8","ios":"levelo://app?vid=58190bbe-9315-429b-878a-50c3668829e8"},"vehicle_type_id":"4","last_reported":1726668526,"current_range_meters":12000,"station_id":"ce4bhg12rcd13ifvqf60","pricing_plan_id":"cebpf4jnsgd1na2vs0mg"},{"bike_id":"66075e51-c532-41b2-837a-c8514ef0a0cb","system_id":"levelo_inurba_marseille","lat":43.25729,"lon":5.41109,"is_reserved":false,"is_disabled":false,"rental_uris":{"android":"levelo://app?vid=66075e51-c532-41b2-837a-c8514ef0a0cb","ios":"levelo://app?vid=66075e51-c532-41b2-837a-c8514ef0a0cb"},"vehicle_type_id":"4","last_reported":1726668526,"current_range_meters":7200,"station_id":"ce4bhkp2rcd13ifvqgd0","pricing_plan_id":"cebpf4jnsgd1na2vs0mg"},{"bike_id":"22014749-772f-4209-9b1a-80a31543e060","system_id":"levelo_inurba_marseille","lat":43.294922,"lon":5.375152,"is_reserved":false,"is_disabled":false,"rental_uris":{"android":"levelo://app?vid=22014749-772f-4209-9b1a-80a31543e060","ios":"levelo://app?vid=22014749-772f-4209-9b1a-80a31543e060"},"vehicle_type_id":"4","last_reported":1726668526,"current_range_meters":25200,"station_id":"ce4bgj92rcd13ifvqbd0","pricing_plan_id":"cebpf4jnsgd1na2vs0mg"},{"bike_id":"88068615-8377-4919-a422-c6e9bcaa3ab4","system_id":"levelo_inurba_marseille","lat":43.32286,"lon":5.38278,"is_reserved":false,"is_disabled":false,"rental_uris":{"android":"levelo://app?vid=88068615-8377-4919-a422-c6e9bcaa3ab4","ios":"levelo://app?vid=88068615-8377-4919-a422-c6e9bcaa3ab4"},"vehicle_type_id":"4","last_reported":1726668526,"current_range_meters":37600,"station_id":"ce4bhr12rcd13ifvqhqg","pricing_plan_id":"cebpf4jnsgd1na2vs0mg"},{"bike_id":"c02a1fb8-a629-413e-9c26-afed42165063","system_id":"levelo_inurba_marseille","lat":43.3089,"lon":5.39638,"is_reserved":false,"is_disabled":false,"rental_uris":{"android":"levelo://app?vid=c02a1fb8-a629-413e-9c26-afed42165063","ios":"levelo://app?vid=c02a1fb8-a629-413e-9c26-afed42165063"},"vehicle_type_id":"4","last_reported":1726668526,"current_range_meters":34800,"station_id":"ce4bh012rcd13ifvqcv0","pricing_plan_id":"cebpf4jnsgd1na2vs0mg"},{"bike_id":"7c63adda-4228-4ba2-907a-ce1df8b3266e","system_id":"levelo_inurba_marseille","lat":43.337444,"lon":5.374475,"is_reserved":false,"is_disabled":false,"rental_uris":{"android":"levelo://app?vid=7c63adda-4228-4ba2-907a-ce1df8b3266e","ios":"levelo://app?vid=7c63adda-4228-4ba2-907a-ce1df8b3266e"},"vehicle_type_id":"4","last_reported":1726668526,"current_range_meters":32000,"station_id":"","pricing_plan_id":"cebpf4jnsgd1na2vs0mg"},{"bike_id":"f11f0a75-7ceb-4af0-8bb6-b401845c036b","system_id":"levelo_inurba_marseille","lat":43.23961,"lon":5.36629,"is_reserved":false,"is_disabled":false,"rental_uris":{"android":"levelo://app?vid=f11f0a75-7ceb-4af0-8bb6-b401845c036b","ios":"levelo://app?vid=f11f0a75-7ceb-4af0-8bb6-b401845c036b"},"vehicle_type_id":"4","last_reported":1726668526,"current_range_meters":36000,"station_id":"ce4bhi12rcd13ifvqfp0","pricing_plan_id":"cebpf4jnsgd1na2vs0mg"},{"bike_id":"e809c7fb-aedd-4f5d-958f-9834eaa83ae5","system_id":"levelo_inurba_marseille","lat":43.27209,"lon":5.39187,"is_reserved":false,"is_disabled":false,"rental_uris":{"android":"levelo://app?vid=e809c7fb-aedd-4f5d-958f-9834eaa83ae5","ios":"levelo://app?vid=e809c7fb-aedd-4f5d-958f-9834eaa83ae5"},"vehicle_type_id":"4","last_reported":1726668526,"current_range_meters":17600,"station_id":"ce4bhhp2rcd13ifvqfm0","pricing_plan_id":"cebpf4jnsgd1na2vs0mg"},{"bike_id":"0b5d0cb6-ef84-4166-9176-1ac0adba0dcd","system_id":"levelo_inurba_marseille","lat":43.30136,"lon":5.37419,"is_reserved":false,"is_disabled":false,"rental_uris":{"android":"levelo://app?vid=0b5d0cb6-ef84-4166-9176-1ac0adba0dcd","ios":"levelo://app?vid=0b5d0cb6-ef84-4166-9176-1ac0adba0dcd"},"vehicle_type_id":"4","last_reported":1726668526,"current_range_meters":37600,"station_id":"ce4bgs92rcd13ifvqcc0","pricing_plan_id":"cebpf4jnsgd1na2vs0mg"},{"bike_id":"cb612164-ef29-4863-8347-b66b3d45f902","system_id":"levelo_inurba_marseille","lat":43.32002,"lon":5.38161,"is_reserved":false,"is_disabled":false,"rental_uris":{"android":"levelo://app?vid=cb612164-ef29-4863-8347-b66b3d45f902","ios":"levelo://app?vid=cb612164-ef29-4863-8347-b66b3d45f902"},"vehicle_type_id":"4","last_reported":1726668526,"current_range_meters":4800,"station_id":"ce4bhr12rcd13ifvqhpg","pricing_plan_id":"cebpf4jnsgd1na2vs0mg"},{"bike_id":"e246ddc1-1833-4213-a77f-0214801dee79","system_id":"levelo_inurba_marseille","lat":43.29728,"lon":5.37684,"is_reserved":false,"is_disabled":false,"rental_uris":{"android":"levelo://app?vid=e246ddc1-1833-4213-a77f-0214801dee79","ios":"levelo://app?vid=e246ddc1-1833-4213-a77f-0214801dee79"},"vehicle_type_id":"4","last_reported":1726668526,"current_range_meters":38800,"station_id":"ce4bgkh2rcd13ifvqbl0","pricing_plan_id":"cebpf4jnsgd1na2vs0mg"},