{"last_updated":1691071561,"ttl":30,"version":"2.2","data":{"bikes":[{"bike_id":"143e4e6d-ee9e-40f4-af0e-9ea0a84e07bf","system_id":"levelo_inurba_marseille","lat":43.31355,"lon":5.36702,"is_reserved":false,"is_disabled":false,"rental_uris":{"android":"levelo://app?vid=143e4e6d-ee9e-40f4-af0e-9ea0a84e07bf","ios":"levelo://app?vid=143e4e6d-ee9e-40f4-af0e-9ea0a84e07bf"},"vehicle_type_id":"4","last_reported":1691071562,"current_range_meters":24400,"station_id":"ce4bgr92rcd13ifvqc6g","pricing_plan_id":"free"},{"bike_id":"b6752f11-238d-4e03-b14d-24b1f55d639f","system_id":"levelo_inurba_marseille","lat":43.313391,"lon":5.36706,"is_reserved":false,"is_disabled":false,"rental_uris":{"android":"levelo://app?vid=b6752f11-238d-4e03-b14d-24b1f55d639f","ios":"levelo://app?vid=b6752f11-238d-4e03-b14d-24b1f55d639f"},"vehicle_type_id":"4","last_reported":1691071562,"current_range_meters":31600,"station_id":"ce4bgr92rcd13ifvqc6g","pricing_plan_id":"free"},{"bike_id":"0490386d-2586-433b-8755-29739815980a","system_id":"levelo_inurba_marseille","lat":43.31341,"lon":5.367098,"is_reserved":false,"is_disabled":false,"rental_uris":{"android":"levelo://app?vid=0490386d-2586-433b-8755-29739815980a","ios":"levelo://app?vid=0490386d-2586-433b-8755-29739815980a"},"vehicle_type_id":"4","last_reported":1691071562,"current_range_meters":23600,"station_id":"ce4bgr92rcd13ifvqc6g","pricing_plan_id":"free"},{"bike_id":"f209652c-ac0b-42d2-8573-5aa781f915cd","system_id":"levelo_inurba_marseille","lat":43.31341,"lon":5.367098,"is_reserved":false,"is_disabled":false,"rental_uris":{"android":"levelo://app?vid=f209652c-ac0b-42d2-8573-5aa781f915cd","ios":"levelo://app?vid=f209652c-ac0b-42d2-8573-5aa781f915cd"},"vehicle_type_id":"4","last_reported":1691071562,"current_range_meters":30400,"station_id":"ce4bgr92rcd13ifvqc6g","pricing_plan_id":"free"},{"bike_id":"d27b59fe-ce5a-4999-b3c4-3b1a63443fb7","system_id":"levelo_inurba_marseille","lat":43.31369,"lon":5.36703,"is_reserved":false,"is_disabled":false,"rental_uris":{"android":"levelo://app?vid=d27b59fe-ce5a-4999-b3c4-3b1a63443fb7","ios":"levelo://app?vid=d27b59fe-ce5a-4999-b3c4-3b1a63443fb7"},"vehicle_type_id":"4","last_reported":1691071562,"current_range_meters":29600,"station_id":"ce4bgr92rcd13ifvqc6g","pricing_plan_id":"free"},{"bike_id":"e6b1b68f-7163-4f7c-a02a-13fade54fa9d","system_id":"levelo_inurba_marseille","lat":43.3122,"lon":5.36854,"is_reserved":false,"is_disabled":false,"rental_uris":{"android":"levelo://app?vid=e6b1b68f-7163-4f7c-a02a-13fade54fa9d","ios":"levelo://app?vid=e6b1b68f-7163-4f7c-a02a-13fade54fa9d"},"vehicle_type_id":"4","last_reported":1691071562,"current_range_meters":24000,"station_id":"ce4bgl92rcd13ifvqbq0","pricing_plan_id":"free"},{"bike_id":"2356a2d6-c3cb-437a-942c-08f7cc4602b6","system_id":"levelo_inurba_marseille","lat":43.31223,"lon":5.36858,"is_reserved":false,"is_disabled":false,"rental_uris":{"android":"levelo://app?vid=2356a2d6-c3cb-437a-942c-08f7cc4602b6","ios":"levelo://app?vid=2356a2d6-c3cb-437a-942c-08f7cc4602b6"},"vehicle_type_id":"4","last_reported":1691071562,"current_range_meters":31200,"station_id":"ce4bgl92rcd13ifvqbq0","pricing_plan_id":"free"},{"bike_id":"a163d591-9df9-4876-8099-8e380338ce79","system_id":"levelo_inurba_marseille","lat":43.31233,"lon":5.36875,"is_reserved":false,"is_disabled":false,"rental_uris":{"android":"levelo://app?vid=a163d591-9df9-4876-8099-8e380338ce79","ios":"levelo://app?vid=a163d591-9df9-4876-8099-8e380338ce79"},"vehicle_type_id":"4","last_reported":1691071562,"current_range_meters":31200,"station_id":"ce4bgl92rcd13ifvqbq0","pricing_plan_id":"free"},{"bike_id":"c9a72db1-ac4a-4fd4-a74b-a906a0487a9f","system_id":"levelo_inurba_marseille","lat":43.31229,"lon":5.36877,"is_reserved":false,"is_disabled":false,"rental_uris":{"android":"levelo://app?vid=c9a72db1-ac4a-4fd4-a74b-a906a0487a9f","ios":"levelo://app?vid=c9a72db1-ac4a-4fd4-a74b-a906a0487a9f"},"vehicle_type_id":"4","last_reported":1691071562,"current_range_meters":31200,"station_id":"ce4bgl92rcd13ifvqbq0","pricing_plan_id":"free"},{"bike_id":"e5afd821-6a84-481d-b007-5c1d3ac5fb62","system_id":"levelo_inurba_marseille","lat":43.31211,"lon":5.36867,"is_reserved":false,"is_disabled":false,"rental_uris":{"android":"levelo://app?vid=e5afd821-6a84-481d-b007-5c1d3ac5fb62","ios":"levelo://app?vid=e5afd821-6a84-481d-b007-5c1d3ac5fb62"},"vehicle_type_id":"4","last_reported":1691071562,"current_range_meters":19200,"station_id":"ce4bgl92rcd13ifvqbq0","pricing_plan_id":"free"},{"bike_id":"e71d944a-fdd9-4355-9fb8-77facb91ad38","system_id":"levelo_inurba_marseille","lat":43.312239,"lon":5.368562,"is_reserved":false,"is_disabled":false,"rental_uris":{"android":"levelo://app?vid=e71d944a-fdd9-4355-9fb8-77facb91ad38","ios":"levelo://app?vid=e71d944a-fdd9-4355-9fb8-77facb91ad38"},"vehicle_type_id":"4","last_reported":1691071562,"current_range_meters":21200,"station_id":"ce4bgl92rcd13ifvqbq0","pricing_plan_id":"free"},{"bike_id":"1cb9832d-71c6-441c-99c6-ef8d20649be7","system_id":"levelo_inurba_marseille","lat":43.31218,"lon":5.36878,"is_reserved":false,"is_disabled":false,"rental_uris":{"android":"levelo://app?vid=1cb9832d-71c6-441c-99c6-ef8d20649be7","ios":"levelo://app?vid=1cb9832d-71c6-441c-99c6-ef8d20649be7"},"vehicle_type_id":"4","last_reported":1691071562,"current_range_meters":28400,"station_id":"ce4bgl92rcd13ifvqbq0","pricing_plan_id":"free"},{"bike_id":"05be5943-b51c-4ffd-9b5a-b183b10cd470","system_id":"levelo_inurba_marseille","lat":43.31219,"lon":5.3688,"is_reserved":false,"is_disabled":false,"rental_uris":{"android":"levelo://app?vid=05be5943-b51c-4ffd-9b5a-b183b10cd470","ios":"levelo://app?vid=05be5943-b51c-4ffd-9b5a-b183b10cd470"},"vehicle_type_id":"4","last_reported":1691071562,"current_range_meters":11600,"station_id":"ce4bgl92rcd13ifvqbq0","pricing_plan_id":"free"},{"bike_id":"789000fe-af4d-4dc7-a2dc-8b5b70dd479d","system_id":"levelo_inurba_marseille","lat":43.31226,"lon":5.36887,"is_reserved":false,"is_disabled":false,"rental_uris":{"android":"levelo://app?vid=789000fe-af4d-4dc7-a2dc-8b5b70dd479d","ios":"levelo://app?vid=789000fe-af4d-4dc7-a2dc-8b5b70dd479d"},"vehicle_type_id":"4","last_reported":1691071562,"current_range_meters":13200,"station_id":"ce4bgl92rcd13ifvqbq0","pricing_plan_id":"free"},{"bike_id":"7c3584e2-8216-469e-b471-ee8769a8b6ca","system_id":"levelo_inurba_marseille","lat":43.309076,"lon":5.368465,"is_reserved":false,"is_disabled":false,"rental_uris":{"android":"levelo://app?vid=7c3584e2-8216-469e-b471-ee8769a8b6ca","ios":"levelo://app?vid=7c3584e2-8216-469e-b471-ee8769a8b6ca"},"vehicle_type_id":"4","last_reported":1691071562,"current_range_meters":32000,"station_id":"ce4bgn92rcd13ifvqbvg","pricing_plan_id":"free"},{"bike_id":"a9957a3a-1ce8-4c69-b157-cf6777bd5755","system_id":"levelo_inurba_marseille","lat":43.309076,"lon":5.368465,"is_reserved":false,"is_disabled":false,"rental_uris":{"android":"levelo://app?vid=a9957a3a-1ce8-4c69-b157-cf6777bd5755","ios":"levelo://app?vid=a9957a3a-1ce8-4c69-b157-cf6777bd5755"},"vehicle_type_id":"4","last_reported":1691071562,"current_range_meters":12000,"station_id":"ce4bgn92rcd13ifvqbvg","pricing_plan_id":"free"},{"bike_id":"01672222-f9d6-4b75-883d-a9d3cd175b28","system_id":"levelo_inurba_marseille","lat":43.30903,"lon":5.36845,"is_reserved":false,"is_disabled":false,"rental_uris":{"android":"levelo://app?vid=01672222-f9d6-4b75-883d-a9d3cd175b28","ios":"levelo://app?vid=01672222-f9d6-4b75-883d-a9d3cd175b28"},"vehicle_type_id":"4","last_reported":1691071562,"current_range_meters":20400,"station_id":"ce4bgn92rcd13ifvqbvg","pricing_plan_id":"free"},{"bike_id":"cb3adcf0-7c8e-44ec-94d7-dc464808b55e","system_id":"levelo_inurba_marseille","lat":43.309076,"lon":5.368465,"is_reserved":false,"is_disabled":false,"rental_uris":{"android":"levelo://app?vid=cb3adcf0-7c8e-44ec-94d7-dc464808b55e","ios":"levelo://app?vid=cb3adcf0-7c8e-44ec-94d7-dc464808b55e"},"vehicle_type_id":"4","last_reported":1691071562,"current_range_meters":31600,"station_id":"ce4bgn92rcd13ifvqbvg","pricing_plan_id":"free"},{"bike_id":"0dbd4cd5-d8a4-4859-89b8-8c89ec483c6f","system_id":"levelo_inurba_marseille","lat":43.30555,"lon":5.36717,"is_reserved":false,"is_disabled":false,"rental_uris":{"android":"levelo://app?vid=0dbd4cd5-d8a4-4859-89b8-8c89ec483c6f","ios":"levelo://app?vid=0dbd4cd5-d8a4-4859-89b8-8c89ec483c6f"},"vehicle_type_id":"4","last_reported":1691071562,"current_range_meters":30000,"station_id":"ce4bgrp2rcd13ifvqc9g","pricing_plan_id":"free"},{"bike_id":"cfe2f69c-77e6-407f-88f1-0e0797d18c7f","system_id":"levelo_inurba_marseille","lat":43.305712,"lon":5.365641,"is_reserved":false,"is_disabled":false,"rental_uris":{"android":"levelo://app?vid=cfe2f69c-77e6-407f-88f1-0e0797d18c7f","ios":"levelo://app?vid=cfe2f69c-77e6-407f-88f1-0e0797d18c7f"},"vehicle_type_id":"4","last_reported":1691071562,"current_range_meters":31600,"station_id":"ce4bgs12rcd13ifvqcag","pricing_plan_id":"free"},{"bike_id":"8f11f02a-3c28-4f0f-bf55-30165aa1b492","system_id":"levelo_inurba_marseille","lat":43.30537,"lon":5.367345,"is_reserved":false,"is_disabled":false,"rental_uris":{"android":"levelo://app?vid=8f11f02a-3c28-4f0f-bf55-30165aa1b492","ios":"levelo://app?vid=8f11f02a-3c28-4f0f-bf55-30165aa1b492"},"vehicle_type_id":"4","last_reported":1691071562,"current_range_meters":13600,"station_id":"ce4bgrp2rcd13ifvqc9g","pricing_plan_id":"free"},{"bike_id":"f5bb675f-9123-4a40-afc2-ea5f7ea169ca","system_id":"levelo_inurba_marseille","lat":43.30545,"lon":5.36549,"is_reserved":false,"is_disabled":false,"rental_uris":{"android":"levelo://app?vid=f5bb675f-9123-4a40-afc2-ea5f7ea169ca","ios":"levelo://app?vid=f5bb675f-9123-4a40-afc2-ea5f7ea169ca"},"vehicle_type_id":"4","last_reported":1691071562,"current_range_meters":22000,"station_id":"ce4bgs12rcd13ifvqcag","pricing_plan_id":"free"},{"bike_id":"2a0aa7b8-d4d2-4056-9b28-34334662d4c9","system_id":"levelo_inurba_marseille","lat":43.305714,"lon":5.365633,"is_reserved":false,"is_disabled":false,"rental_uris":{"android":"levelo://app?vid=2a0aa7b8-d4d2-4056-9b28-34334662d4c9","ios":"levelo://app?vid=2a0aa7b8-d4d2-4056-9b28-34334662d4c9"},"vehicle_type_id":"4","last_reported":1691071562,"current_range_meters":30400,"station_id":"ce4bgs12rcd13ifvqcag","pricing_plan_id":"free"},{"bike_id":"3fff1843-a29c-4a17-b4d1-8ca0cabd4c9e","system_id":"levelo_inurba_marseille","lat":43.30536,"lon":5.36556,"is_reserved":false,"is_disabled":false,"rental_uris":{"android":"levelo://app?vid=3fff1843-a29c-4a17-b4d1-8ca0cabd4c9e","ios":"levelo://app?vid=3fff1843-a29c-4a17-b4d1-8ca0cabd4c9e"},"vehicle_type_id":"4","last_reported":1691071562,"current_range_meters":14400,"station_id":"ce4bgs12rcd13ifvqcag","pricing_plan_id":"free"},{"bike_id":"73ba8c0b-eeb3-44c3-a790-18f258a8a835","system_id":"levelo_inurba_marseille","lat":43.30537,"lon":5.36542,"is_reserved":false,"is_disabled":false,"rental_uris":{"android":"levelo://app?vid=73ba8c0b-eeb3-44c3-a790-18f258a8a835","ios":"levelo://app?vid=73ba8c0b-eeb3-44c3-a790-18f258a8a835"},"vehicle_type_id":"4","last_reported":1691071562,"current_range_meters":6000,"station_id":"ce4bgs12rcd13ifvqcag","pricing_plan_id":"free"},{"bike_id":"949534ff-9c90-4eca-8759-9a459ec90753","system_id":"levelo_inurba_marseille","lat":43.305706,"lon":5.365654,"is_reserved":false,"is_disabled":false,"rental_uris":{"android":"levelo://app?vid=949534ff-9c90-4eca-8759-9a459ec90753","ios":"levelo://app?vid=949534ff-9c90-4eca-8759-9a459ec90753"},"vehicle_type_id":"4","last_reported":1691071562,"current_range_meters":2800,"station_id":"ce4bgs12rcd13ifvqcag","pricing_plan_id":"free"},{"bike_id":"f20ea888-8740-440b-bfeb-8eb2a7c1f652","system_id":"levelo_inurba_marseille","lat":43.30603,"lon":5.37227,"is_reserved":false,"is_disabled":false,"rental_uris":{"android":"levelo://app?vid=f20ea888-8740-440b-bfeb-8eb2a7c1f652","ios":"levelo://app?vid=f20ea888-8740-440b-bfeb-8eb2a7c1f652"},"vehicle_type_id":"4","last_reported":1691071562,"current_range_meters":31600,"station_id":"ce4bgqh2rcd13ifvqc4g","pricing_plan_id":"free"},{"bike_id":"17307fe1-5b44-47be-b077-50c1e437b7a6","system_id":"levelo_inurba_marseille","lat":43.30782,"lon":5.37655,"is_reserved":false,"is_disabled":false,"rental_uris":{"android":"levelo://app?vid=17307fe1-5b44-47be-b077-50c1e437b7a6","ios":"levelo://app?vid=17307fe1-5b44-47be-b077-50c1e437b7a6"},"vehicle_type_id":"4","last_reported":1691071562,"current_range_meters":22400,"station_id":"ce4bgv92rcd13ifvqcq0","pricing_plan_id":"free"},{"bike_id":"00892e19-ff2f-49f5-94f5-0dc2f6ff1faf","system_id":"levelo_inurba_marseille","lat":43.31532,"lon":5.38037,"is_reserved":false,"is_disabled":false,"rental_uris":{"android":"levelo://app?vid=00892e19-ff2f-49f5-94f5-0dc2f6ff1faf","ios":"levelo://app?vid=00892e19-ff2f-49f5-94f5-0dc2f6ff1faf"},"vehicle_type_id":"4","last_reported":1691071562,"current_range_meters":26800,"station_id":"ce4bhsp2rcd13ifvqi50","pricing_plan_id":"free"},{"bike_id":"fb5bd12f-b48f-4c53-b063-e965b4277aed","system_id":"levelo_inurba_marseille","lat":43.31536,"lon":5.38038,"is_reserved":false,"is_disabled":false,"rental_uris":{"android":"levelo://app?vid=fb5bd12f-b48f-4c53-b063-e965b4277aed","ios":"levelo://app?vid=fb5bd12f-b48f-4c53-b063-e965b4277aed"},"vehicle_type_id":"4","last_reported":1691071562,"current_range_meters":7200,"station_id":"ce4bhsp2rcd13ifvqi50","pricing_plan_id":"free"},{"bike_id":"cf144abe-402a-4e78-b410-79c6d13361fb","system_id":"levelo_inurba_marseille","lat":43.315293,"lon":5.380349,"is_reserved":false,"is_disabled":false,"rental_uris":{"android":"levelo://app?vid=cf144abe-402a-4e78-b410-79c6d13361fb","ios":"levelo://app?vid=cf144abe-402a-4e78-b410-79c6d13361fb"},"vehicle_type_id":"4","last_reported":1691071562,"current_range_meters":17600,"station_id":"ce4bhsp2rcd13ifvqi50","pricing_plan_id":"free"},{"bike_id":"56f14754-d246-40c5-97a7-ba3e9d9da90b","system_id":"levelo_inurba_marseille","lat":43.301939,"lon":5.366286,"is_reserved":false,"is_disabled":false,"rental_uris":{"android":"levelo://app?vid=56f14754-d246-40c5-97a7-ba3e9d9da90b","ios":"levelo://app?vid=56f14754-d246-40c5-97a7-ba3e9d9da90b"},"vehicle_type_id":"4","last_reported":1691071562,"current_range_meters":17600,"station_id":"ce4bgrh2rcd13ifvqc8g","pricing_plan_id":"free"},{"bike_id":"d443c5a2-3cee-4822-b99a-9233015ff0b6","system_id":"levelo_inurba_marseille","lat":43.30464,"lon":5.37904,"is_reserved":false,"is_disabled":false,"rental_uris":{"android":"levelo://app?vid=d443c5a2-3cee-4822-b99a-9233015ff0b6","ios":"levelo://app?vid=d443c5a2-3cee-4822-b99a-9233015ff0b6"},"vehicle_type_id":"4","last_reported":1691071562,"current_range_meters":17600,"station_id":"ce4bgup2rcd13ifvqcn0","pricing_plan_id":"free"},{"bike_id":"69efd253-fbbb-4a73-9ba0-16d8244fa080","system_id":"levelo_inurba_marseille","lat":43.30464,"lon":5.37905,"is_reserved":false,"is_disabled":false,"rental_uris":{"android":"levelo://app?vid=69efd253-fbbb-4a73-9ba0-16d8244fa080","ios":"levelo://app?vid=69efd253-fbbb-4a73-9ba0-16d8244fa080"},"vehicle_type_id":"4","last_reported":1691071562,"current_range_meters":31200,"station_id":"ce4bgup2rcd13ifvqcn0","pricing_plan_id":"free"},{"bike_id":"692c83f1-625a-48c4-ae13-779eacc7413a","system_id":"levelo_inurba_marseille","lat":43.304606,"lon":5.379026,"is_reserved":false,"is_disabled":false,"rental_uris":{"android":"levelo://app?vid=692c83f1-625a-48c4-ae13-779eacc7413a","ios":"levelo://app?vid=692c83f1-625a-48c4-ae13-779eacc7413a"},"vehicle_type_id":"4","last_reported":1691071562,"current_range_meters":24800,"station_id":"ce4bgup2rcd13ifvqcn0","pricing_plan_id":"free"},{"bike_id":"7fb84d97-6c12-40bb-8dcb-0aba30635e7c","system_id":"levelo_inurba_marseille","lat":43.30457,"lon":5.379,"is_reserved":false,"is_disabled":false,"rental_uris":{"android":"levelo://app?vid=7fb84d97-6c12-40bb-8dcb-0aba30635e7c","ios":"levelo://app?vid=7fb84d97-6c12-40bb-8dcb-0aba30635e7c"},"vehicle_type_id":"4","last_reported":1691071562,"current_range_meters":29200,"station_id":"ce4bgup2rcd13ifvqcn0","pricing_plan_id":"free"},{"bike_id":"73a618cb-2c99-4998-aa0e-09d7af1dcdd7","system_id":"levelo_inurba_marseille","lat":43.319935,"lon":5.381699,"is_reserved":false,"is_disabled":false,"rental_uris":{"android":"levelo://app?vid=73a618cb-2c99-4998-aa0e-09d7af1dcdd7","ios":"levelo://app?vid=73a618cb-2c99-4998-aa0e-09d7af1dcdd7"},"vehicle_type_id":"4","last_reported":1691071562,"current_range_meters":0,"station_id":"ce4bhr12rcd13ifvqhpg","pricing_plan_id":"free"},{"bike_id":"d92e79c6-8caa-430c-90be-6141442e45a4","system_id":"levelo_inurba_marseille","lat":43.31378,"lon":5.38486,"is_reserved":false,"is_disabled":false,"rental_uris":{"android":"levelo://app?vid=d92e79c6-8caa-430c-90be-6141442e45a4","ios":"levelo://app?vid=d92e79c6-8caa-430c-90be-6141442e45a4"},"vehicle_type_id":"4","last_reported":1691071562,"current_range_meters":15200,"station_id":"ce4bgt92rcd13ifvqcf0","pricing_plan_id":"free"},{"bike_id":"3cb7fd70-121e-4eb5-9a01-ecc8718aa1bb","system_id":"levelo_inurba_marseille","lat":43.29942,"lon":5.36537,"is_reserved":false,"is_disabled":false,"rental_uris":{"android":"levelo://app?vid=3cb7fd70-121e-4eb5-9a01-ecc8718aa1bb","ios":"levelo://app?vid=3cb7fd70-121e-4eb5-9a01-ecc8718aa1bb"},"vehicle_type_id":"4","last_reported":1691071562,"current_range_meters":31200,"station_id":"ce4bgm92rcd13ifvqbr0","pricing_plan_id":"free"},{"bike_id":"56c016d7-b043-428f-b481-16099af8aa20","system_id":"levelo_inurba_marseille","lat":43.298433,"lon":5.362774,"is_reserved":false,"is_disabled":false,"rental_uris":{"android":"levelo://app?vid=56c016d7-b043-428f-b481-16099af8aa20","ios":"levelo://app?vid=56c016d7-b043-428f-b481-16099af8aa20"},"vehicle_type_id":"4","last_reported":1691071562,"current_range_meters":30000,"station_id":"ce4bgpp2rcd13ifvqc3g","pricing_plan_id":"free"},{"bike_id":"b8eb34e5-55ad-47f9-bc0e-09fdce60dfef","system_id":"levelo_inurba_marseille","lat":43.298433,"lon":5.362774,"is_reserved":false,"is_disabled":false,"rental_uris":{"android":"levelo://app?vid=b8eb34e5-55ad-47f9-bc0e-09fdce60dfef","ios":"levelo://app?vid=b8eb34e5-55ad-47f9-bc0e-09fdce60dfef"},"vehicle_type_id":"4","last_reported":1691071562,"current_range_meters":13200,"station_id":"ce4bgpp2rcd13ifvqc3g","pricing_plan_id":"free"},{"bike_id":"30537d43-af02-4a10-b928-7b9b8cf633d2","system_id":"levelo_inurba_marseille","lat":43.30531,"lon":5.38432,"is_reserved":false,"is_disabled":false,"rental_uris":{"android":"levelo://app?vid=30537d43-af02-4a10-b928-7b9b8cf633d2","ios":"levelo://app?vid=30537d43-af02-4a10-b928-7b9b8cf633d2"},"vehicle_type_id":"4","last_reported":1691071562,"current_range_meters":29600,"station_id":"ce4bgg92rcd13ifvqb30","pricing_plan_id":"free"},{"bike_id":"c37352b8-d043-4604-93da-86804fe82cea","system_id":"levelo_inurba_marseille","lat":43.311722,"lon":5.387247,"is_reserved":false,"is_disabled":false,"rental_uris":{"android":"levelo://app?vid=c37352b8-d043-4604-93da-86804fe82cea","ios":"levelo://app?vid=c37352b8-d043-4604-93da-86804fe82cea"},"vehicle_type_id":"4","last_reported":1691071562,"current_range_meters":30800,"station_id":"ce4bgv12rcd13ifvqcp0","pricing_plan_id":"free"},{"bike_id":"04b8ab63-8a37-44b1-9995-d8ed30811409","system_id":"levelo_inurba_marseille","lat":43.311722,"lon":5.387247,"is_reserved":false,"is_disabled":false,"rental_uris":{"android":"levelo://app?vid=04b8ab63-8a37-44b1-9995-d8ed30811409","ios":"levelo://app?vid=04b8ab63-8a37-44b1-9995-d8ed30811409"},"vehicle_type_id":"4","last_reported":1691071562,"current_range_meters":24400,"station_id":"ce4bgv12rcd13ifvqcp0","pricing_plan_id":"free"},{"bike_id":"8a6f19e5-8746-4ae1-874f-c8ecb5f401a5","system_id":"levelo_inurba_marseille","lat":43.29782,"lon":5.37105,"is_reserved":false,"is_disabled":false,"rental_uris":{"android":"levelo://app?vid=8a6f19e5-8746-4ae1-874f-c8ecb5f401a5","ios":"levelo://app?vid=8a6f19e5-8746-4ae1-874f-c8ecb5f401a5"},"vehicle_type_id":"4","last_reported":1691071562,"current_range_meters":28000,"station_id":"ce4bgop2rcd13ifvqc1g","pricing_plan_id":"free"},{"bike_id":"7cf1aab8-38a1-47db-af16-2123c0ca6e97","system_id":"levelo_inurba_marseille","lat":43.322872,"lon":5.382756,"is_reserved":false,"is_disabled":false,"rental_uris":{"android":"levelo://app?vid=7cf1aab8-38a1-47db-af16-2123c0ca6e97","ios":"levelo://app?vid=7cf1aab8-38a1-47db-af16-2123c0ca6e97"},"vehicle_type_id":"4","last_reported":1691071562,"current_range_meters":20800,"station_id":"ce4bhr12rcd13ifvqhqg","pricing_plan_id":"free"},{"bike_id":"94d385b1-f593-4755-838a-e18d17d60e87","system_id":"levelo_inurba_marseille","lat":43.3229,"lon":5.38268,"is_reserved":false,"is_disabled":false,"rental_uris":{"android":"levelo://app?vid=94d385b1-f593-4755-838a-e18d17d60e87","ios":"levelo://app?vid=94d385b1-f593-4755-838a-e18d17d60e87"},"vehicle_type_id":"4","last_reported":1691071562,"current_range_meters":24800,"station_id":"ce4bhr12rcd13ifvqhqg","pricing_plan_id":"free"},{"bike_id":"9366491f-3e10-4af8-b65f-b3192c1e162a","system_id":"levelo_inurba_marseille","lat":43.322872,"lon":5.382756,"is_reserved":false,"is_disabled":false,"rental_uris":{"android":"levelo://app?vid=9366491f-3e10-4af8-b65f-b3192c1e162a","ios":"levelo://app?vid=9366491f-3e10-4af8-b65f-b3192c1e162a"},"vehicle_type_id":"4","last_reported":1691071562,"current_range_meters":10800,"station_id":"ce4bhr12rcd13ifvqhqg","pricing_plan_id":"free"},{"bike_id":"04041c0e-725a-4973-8c34-0479d8f8c3e9","system_id":"levelo_inurba_marseille","lat":43.322872,"lon":5.382756,"is_reserved":false,"is_disabled":false,"rental_uris":{"android":"levelo://app?vid=04041c0e-725a-4973-8c34-0479d8f8c3e9","ios":"levelo://app?vid=04041c0e-725a-4973-8c34-0479d8f8c3e9"},"vehicle_type_id":"4","last_reported":1691071562,"current_range_meters":26000,"station_id":"ce4bhr12rcd13ifvqhqg","pricing_plan_id":"free"},{"bike_id":"ecfd0045-1d38-4e78-ba05-2f8cb1a7c161","system_id":"levelo_inurba_marseille","lat":43.328371,"lon":5.366909,"is_reserved":false,"is_disabled":false,"rental_uris":{"android":"levelo://app?vid=ecfd0045-1d38-4e78-ba05-2f8cb1a7c161","ios":"levelo://app?vid=ecfd0045-1d38-4e78-ba05-2f8cb1a7c161"},"vehicle_type_id":"4","last_reported":1691071562,"current_range_meters":22000,"station_id":"ce4bhs92rcd13ifvqi0g","pricing_plan_id":"free"},{"bike_id":"704fa79f-e76f-4779-9aaa-e54784bdbe35","system_id":"levelo_inurba_marseille","lat":43.3283,"lon":5.36674,"is_reserved":false,"is_disabled":false,"rental_uris":{"android":"levelo://app?vid=704fa79f-e76f-4779-9aaa-e54784bdbe35","ios":"levelo://app?vid=704fa79f-e76f-4779-9aaa-e54784bdbe35"},"vehicle_type_id":"4","last_reported":1691071562,"current_range_meters":31200,"station_id":"ce4bhs92rcd13ifvqi0g","pricing_plan_id":"free"},{"bike_id":"dddbedc8-6a42-40c6-936f-790bd1069b29","system_id":"levelo_inurba_marseille","lat":43.328371,"lon":5.366909,"is_reserved":false,"is_disabled":false,"rental_uris":{"android":"levelo://app?vid=dddbedc8-6a42-40c6-936f-790bd1069b29","ios":"levelo://app?vid=dddbedc8-6a42-40c6-936f-790bd1069b29"},"vehicle_type_id":"4","last_reported":1691071562,"current_range_meters":13600,"station_id":"ce4bhs92rcd13ifvqi0g","pricing_plan_id":"free"},{"bike_id":"1832ac29-ef2b-4f4e-a090-0f5739d49c40","system_id":"levelo_inurba_marseille","lat":43.328371,"lon":5.366909,"is_reserved":false,"is_disabled":false,"rental_uris":{"android":"levelo://app?vid=1832ac29-ef2b-4f4e-a090-0f5739d49c40","ios":"levelo://app?vid=1832ac29-ef2b-4f4e-a090-0f5739d49c40"},"vehicle_type_id":"4","last_reported":1691071562,"current_range_meters":31200,"station_id":"ce4bhs92rcd13ifvqi0g","pricing_plan_id":"free"},{"bike_id":"e4ec85a6-b9ce-4a6e-9842-d1c131ac1e8b","system_id":"levelo_inurba_marseille","lat":43.32831,"lon":5.36676,"is_reserved":false,"is_disabled":false,"rental_uris":{"android":"levelo://app?vid=e4ec85a6-b9ce-4a6e-9842-d1c131ac1e8b","ios":"levelo://app?vid=e4ec85a6-b9ce-4a6e-9842-d1c131ac1e8b"},"vehicle_type_id":"4","last_reported":1691071562,"current_range_meters":20400,"station_id":"ce4bhs92rcd13ifvqi0g","pricing_plan_id":"free"},{"bike_id":"bb224614-7241-44f8-8205-8a0c7f36065f","system_id":"levelo_inurba_marseille","lat":43.328371,"lon":5.366909,"is_reserved":false,"is_disabled":false,"rental_uris":{"android":"levelo://app?vid=bb224614-7241-44f8-8205-8a0c7f36065f","ios":"levelo://app?vid=bb224614-7241-44f8-8205-8a0c7f36065f"},"vehicle_type_id":"4","last_reported":1691071562,"current_range_meters":13200,"station_id":"ce4bhs92rcd13ifvqi0g","pricing_plan_id":"free"},{"bike_id":"dd789220-e7b5-42c1-b9dc-dc4243148021","system_id":"levelo_inurba_marseille","lat":43.297163,"lon":5.365866,"is_reserved":false,"is_disabled":false,"rental_uris":{"android":"levelo://app?vid=dd789220-e7b5-42c1-b9dc-dc4243148021","ios":"levelo://app?vid=dd789220-e7b5-42c1-b9dc-dc4243148021"},"vehicle_type_id":"4","last_reported":1691071562,"current_range_meters":31200,"station_id":"ce4bgn12rcd13ifvqbt0","pricing_plan_id":"free"},{"bike_id":"e62f3644-80bc-4a38-a7b1-8b8f081a375a","system_id":"levelo_inurba_marseille","lat":43.2968,"lon":5.37291,"is_reserved":false,"is_disabled":false,"rental_uris":{"android":"levelo://app?vid=e62f3644-80bc-4a38-a7b1-8b8f081a375a","ios":"levelo://app?vid=e62f3644-80bc-4a38-a7b1-8b8f081a375a"},"vehicle_type_id":"4","last_reported":1691071562,"current_range_meters":27200,"station_id":"ce4bgk12rcd13ifvqbj0","pricing_plan_id":"free"},{"bike_id":"efb83794-901d-4be2-a725-178b4a30b0e4","system_id":"levelo_inurba_marseille","lat":43.296129,"lon":5.370777,"is_reserved":false,"is_disabled":false,"rental_uris":{"android":"levelo://app?vid=efb83794-901d-4be2-a725-178b4a30b0e4","ios":"levelo://app?vid=efb83794-901d-4be2-a725-178b4a30b0e4"},"vehicle_type_id":"4","last_reported":1691071562,"current_range_meters":25200,"station_id":"ce4bgnh2rcd13ifvqc0g","pricing_plan_id":"free"},{"bike_id":"c4f0a7ba-fa9a-4b86-ba80-ee222c345598","system_id":"levelo_inurba_marseille","lat":43.29722,"lon":5.37696,"is_reserved":false,"is_disabled":false,"rental_uris":{"android":"levelo://app?vid=c4f0a7ba-fa9a-4b86-ba80-ee222c345598","ios":"levelo://app?vid=c4f0a7ba-fa9a-4b86-ba80-ee222c345598"},"vehicle_type_id":"4","last_reported":1691071562,"current_range_meters":26800,"station_id":"ce4bgkh2rcd13ifvqbl0","pricing_plan_id":"free"},{"bike_id":"5ab01a2c-8dd4-4042-ba5f-9bc0a9a0c032","system_id":"levelo_inurba_marseille","lat":43.299028,"lon":5.381509,"is_reserved":false,"is_disabled":false,"rental_uris":{"android":"levelo://app?vid=5ab01a2c-8dd4-4042-ba5f-9bc0a9a0c032","ios":"levelo://app?vid=5ab01a2c-8dd4-4042-ba5f-9bc0a9a0c032"},"vehicle_type_id":"4","last_reported":1691071562,"current_range_meters":2800,"station_id":"ce4bgj12rcd13ifvqbc0","pricing_plan_id":"free"},{"bike_id":"c5131b6d-9f2c-49c7-85c2-e30d4b8b0c89","system_id":"levelo_inurba_marseille","lat":43.299028,"lon":5.381509,"is_reserved":false,"is_disabled":false,"rental_uris":{"android":"levelo://app?vid=c5131b6d-9f2c-49c7-85c2-e30d4b8b0c89","ios":"levelo://app?vid=c5131b6d-9f2c-49c7-85c2-e30d4b8b0c89"},"vehicle_type_id":"4","last_reported":1691071562,"current_range_meters":30800,"station_id":"ce4bgj12rcd13ifvqbc0","pricing_plan_id":"free"},{"bike_id":"f474179c-6ca4-4c86-8cc2-8b0f1bc9346f","system_id":"levelo_inurba_marseille","lat":43.30944,"lon":5.39046,"is_reserved":false,"is_disabled":false,"rental_uris":{"android":"levelo://app?vid=f474179c-6ca4-4c86-8cc2-8b0f1bc9346f","ios":"levelo://app?vid=f474179c-6ca4-4c86-8cc2-8b0f1bc9346f"},"vehicle_type_id":"4","last_reported":1691071562,"current_range_meters":31200,"station_id":"ce4bgup2rcd13ifvqco0","pricing_plan_id":"free"},{"bike_id":"f0b1921d-8fc5-42f6-8214-26455e772ce5","system_id":"levelo_inurba_marseille","lat":43.309589,"lon":5.390258,"is_reserved":false,"is_disabled":false,"rental_uris":{"android":"levelo://app?vid=f0b1921d-8fc5-42f6-8214-26455e772ce5","ios":"levelo://app?vid=f0b1921d-8fc5-42f6-8214-26455e772ce5"},"vehicle_type_id":"4","last_reported":1691071562,"current_range_meters":27200,"station_id":"ce4bgup2rcd13ifvqco0","pricing_plan_id":"free"},{"bike_id":"ed67957c-5bde-47e2-b220-2fe6a0ba8368","system_id":"levelo_inurba_marseille","lat":43.317557,"lon":5.390173,"is_reserved":false,"is_disabled":false,"rental_uris":{"android":"levelo://app?vid=ed67957c-5bde-47e2-b220-2fe6a0ba8368","ios":"levelo://app?vid=ed67957c-5bde-47e2-b220-2fe6a0ba8368"},"vehicle_type_id":"4","last_reported":1691071562,"current_range_meters":22800,"station_id":"ce4bhqp2rcd13ifvqhng","pricing_plan_id":"free"},{"bike_id":"cd402b6a-ab32-4360-b043-bd7e458f01b9","system_id":"levelo_inurba_marseille","lat":43.298037,"lon":5.381066,"is_reserved":false,"is_disabled":false,"rental_uris":{"android":"levelo://app?vid=cd402b6a-ab32-4360-b043-bd7e458f01b9","ios":"levelo://app?vid=cd402b6a-ab32-4360-b043-bd7e458f01b9"},"vehicle_type_id":"4","last_reported":1691071562,"current_range_meters":10800,"station_id":"ce4bgip2rcd13ifvqbb0","pricing_plan_id":"free"},{"bike_id":"83a358c4-e72d-4ce1-adfe-4486ff8c4fe0","system_id":"levelo_inurba_marseille","lat":43.304274,"lon":5.388873,"is_reserved":false,"is_disabled":false,"rental_uris":{"android":"levelo://app?vid=83a358c4-e72d-4ce1-adfe-4486ff8c4fe0","ios":"levelo://app?vid=83a358c4-e72d-4ce1-adfe-4486ff8c4fe0"},"vehicle_type_id":"4","last_reported":1691071562,"current_range_meters":6000,"station_id":"ce4bgk12rcd13ifvqbi0","pricing_plan_id":"free"},{"bike_id":"eef4b9b0-8e5f-4ec8-8c58-a593ccb0a269","system_id":"levelo_inurba_marseille","lat":43.296277,"lon":5.377108,"is_reserved":false,"is_disabled":false,"rental_uris":{"android":"levelo://app?vid=eef4b9b0-8e5f-4ec8-8c58-a593ccb0a269","ios":"levelo://app?vid=eef4b9b0-8e5f-4ec8-8c58-a593ccb0a269"},"vehicle_type_id":"4","last_reported":1691071562,"current_range_meters":14000,"station_id":"ce4bgi92rcd13ifvqb90","pricing_plan_id":"free"},{"bike_id":"1876209e-c258-481f-a73c-eedfe365180e","system_id":"levelo_inurba_marseille","lat":43.296277,"lon":5.377108,"is_reserved":false,"is_disabled":false,"rental_uris":{"android":"levelo://app?vid=1876209e-c258-481f-a73c-eedfe365180e","ios":"levelo://app?vid=1876209e-c258-481f-a73c-eedfe365180e"},"vehicle_type_id":"4","last_reported":1691071562,"current_range_meters":14800,"station_id":"ce4bgi92rcd13ifvqb90","pricing_plan_id":"free"},{"bike_id":"b744ab8d-abec-4c34-a7e3-31b2ec794347","system_id":"levelo_inurba_marseille","lat":43.296277,"lon":5.377108,"is_reserved":false,"is_disabled":false,"rental_uris":{"android":"levelo://app?vid=b744ab8d-abec-4c34-a7e3-31b2ec794347","ios":"levelo://app?vid=b744ab8d-abec-4c34-a7e3-31b2ec794347"},"vehicle_type_id":"4","last_reported":1691071562,"current_range_meters":22800,"station_id":"ce4bgi92rcd13ifvqb90","pricing_plan_id":"free"},{"bike_id":"f87198bf-6a97-49e5-b048-c13edb69a091","system_id":"levelo_inurba_marseille","lat":43.299707,"lon":5.384859,"is_reserved":false,"is_disabled":false,"rental_uris":{"android":"levelo://app?vid=f87198bf-6a97-49e5-b048-c13edb69a091","ios":"levelo://app?vid=f87198bf-6a97-49e5-b048-c13edb69a091"},"vehicle_type_id":"4","last_reported":1691071562,"current_range_meters":31600,"station_id":"ce4bgj92rcd13ifvqbd0","pricing_plan_id":"free"},{"bike_id":"ab4bdc23-a05d-4dc6-b374-348e0e54ba29","system_id":"levelo_inurba_marseille","lat":43.299717,"lon":5.384845,"is_reserved":false,"is_disabled":false,"rental_uris":{"android":"levelo://app?vid=ab4bdc23-a05d-4dc6-b374-348e0e54ba29","ios":"levelo://app?vid=ab4bdc23-a05d-4dc6-b374-348e0e54ba29"},"vehicle_type_id":"4","last_reported":1691071562,"current_range_meters":20800,"station_id":"ce4bgj92rcd13ifvqbd0","pricing_plan_id":"free"},{"bike_id":"827f2dcb-606d-4c33-86f7-f81054293a6e","system_id":"levelo_inurba_marseille","lat":43.299724,"lon":5.384848,"is_reserved":false,"is_disabled":false,"rental_uris":{"android":"levelo://app?vid=827f2dcb-606d-4c33-86f7-f81054293a6e","ios":"levelo://app?vid=827f2dcb-606d-4c33-86f7-f81054293a6e"},"vehicle_type_id":"4","last_reported":1691071562,"current_range_meters":17600,"station_id":"ce4bgj92rcd13ifvqbd0","pricing_plan_id":"free"},{"bike_id":"3ede5763-6ad1-42a3-a29f-f7cddfff3bdc","system_id":"levelo_inurba_marseille","lat":43.299724,"lon":5.384848,"is_reserved":false,"is_disabled":false,"rental_uris":{"android":"levelo://app?vid=3ede5763-6ad1-42a3-a29f-f7cddfff3bdc","ios":"levelo://app?vid=3ede5763-6ad1-42a3-a29f-f7cddfff3bdc"},"vehicle_type_id":"4","last_reported":1691071562,"current_range_meters":31600,"station_id":"ce4bgj92rcd13ifvqbd0","pricing_plan_id":"free"},{"bike_id":"8788ac0f-1a05-416a-b264-34a51c3dbcc4","system_id":"levelo_inurba_marseille","lat":43.299717,"lon":5.384845,"is_reserved":false,"is_disabled":false,"rental_uris":{"android":"levelo://app?vid=8788ac0f-1a05-416a-b264-34a51c3dbcc4","ios":"levelo://app?vid=8788ac0f-1a05-416a-b264-34a51c3dbcc4"},"vehicle_type_id":"4","last_reported":1691071562,"current_range_meters":26800,"station_id":"ce4bgj92rcd13ifvqbd0","pricing_plan_id":"free"},{"bike_id":"3c64cf77-4a54-41bc-938b-96fb5e8c8701","system_id":"levelo_inurba_marseille","lat":43.32367,"lon":5.388836,"is_reserved":false,"is_disabled":false,"rental_uris":{"android":"levelo://app?vid=3c64cf77-4a54-41bc-938b-96fb5e8c8701","ios":"levelo://app?vid=3c64cf77-4a54-41bc-938b-96fb5e8c8701"},"vehicle_type_id":"4","last_reported":1691071562,"current_range_meters":15600,"station_id":"ce4bhqp2rcd13ifvqhog","pricing_plan_id":"free"},{"bike_id":"83e40035-5ae5-4bb2-89ae-adf2ef147026","system_id":"levelo_inurba_marseille","lat":43.323676,"lon":5.388816,"is_reserved":false,"is_disabled":false,"rental_uris":{"android":"levelo://app?vid=83e40035-5ae5-4bb2-89ae-adf2ef147026","ios":"levelo://app?vid=83e40035-5ae5-4bb2-89ae-adf2ef147026"},"vehicle_type_id":"4","last_reported":1691071562,"current_range_meters":14800,"station_id":"","pricing_plan_id":"free"},{"bike_id":"6be534a9-96c6-4989-b3bb-e9dea76376c4","system_id":"levelo_inurba_marseille","lat":43.32366,"lon":5.38885,"is_reserved":false,"is_disabled":false,"rental_uris":{"android":"levelo://app?vid=6be534a9-96c6-4989-b3bb-e9dea76376c4","ios":"levelo://app?vid=6be534a9-96c6-4989-b3bb-e9dea76376c4"},"vehicle_type_id":"4","last_reported":1691071562,"current_range_meters":16400,"station_id":"ce4bhqp2rcd13ifvqhog","pricing_plan_id":"free"},{"bike_id":"660de016-7b00-4735-9d75-3ae99d5de62d","system_id":"levelo_inurba_marseille","lat":43.32363,"lon":5.38889,"is_reserved":false,"is_disabled":false,"rental_uris":{"android":"levelo://app?vid=660de016-7b00-4735-9d75-3ae99d5de62d","ios":"levelo://app?vid=660de016-7b00-4735-9d75-3ae99d5de62d"},"vehicle_type_id":"4","last_reported":1691071562,"current_range_meters":31200,"station_id":"ce4bhqp2rcd13ifvqhog","pricing_plan_id":"free"},{"bike_id":"3ea7f0f4-0c54-414e-a516-428023527452","system_id":"levelo_inurba_marseille","lat":43.32363,"lon":5.38895,"is_reserved":false,"is_disabled":false,"rental_uris":{"android":"levelo://app?vid=3ea7f0f4-0c54-414e-a516-428023527452","ios":"levelo://app?vid=3ea7f0f4-0c54-414e-a516-428023527452"},"vehicle_type_id":"4","last_reported":1691071562,"current_range_meters":30400,"station_id":"ce4bhqp2rcd13ifvqhog","pricing_plan_id":"free"},{"bike_id":"50dbfc56-7542-4673-81aa-3828545d4b30","system_id":"levelo_inurba_marseille","lat":43.32368,"lon":5.38891,"is_reserved":false,"is_disabled":false,"rental_uris":{"android":"levelo://app?vid=50dbfc56-7542-4673-81aa-3828545d4b30","ios":"levelo://app?vid=50dbfc56-7542-4673-81aa-3828545d4b30"},"vehicle_type_id":"4","last_reported":1691071562,"current_range_meters":22400,"station_id":"ce4bhqp2rcd13ifvqhog","pricing_plan_id":"free"},{"bike_id":"bb413ea2-232d-4143-8c2a-6a3ce93d599b","system_id":"levelo_inurba_marseille","lat":43.292749,"lon":5.368402,"is_reserved":false,"is_disabled":false,"rental_uris":{"android":"levelo://app?vid=bb413ea2-232d-4143-8c2a-6a3ce93d599b","ios":"levelo://app?vid=bb413ea2-232d-4143-8c2a-6a3ce93d599b"},"vehicle_type_id":"4","last_reported":1691071562,"current_range_meters":28000,"station_id":"ce4bhbp2rcd13ifvqesg","pricing_plan_id":"free"},{"bike_id":"1ba773df-f9a5-41b6-baf6-9938e89d4faa","system_id":"levelo_inurba_marseille","lat":43.293009,"lon":5.374584,"is_reserved":false,"is_disabled":false,"rental_uris":{"android":"levelo://app?vid=1ba773df-f9a5-41b6-baf6-9938e89d4faa","ios":"levelo://app?vid=1ba773df-f9a5-41b6-baf6-9938e89d4faa"},"vehicle_type_id":"4","last_reported":1691071562,"current_range_meters":9200,"station_id":"ce4bgi12rcd13ifvqb70","pricing_plan_id":"free"},{"bike_id":"546e1675-020a-44e4-906a-6c52f6db0fda","system_id":"levelo_inurba_marseille","lat":43.305994,"lon":5.393687,"is_reserved":false,"is_disabled":false,"rental_uris":{"android":"levelo://app?vid=546e1675-020a-44e4-906a-6c52f6db0fda","ios":"levelo://app?vid=546e1675-020a-44e4-906a-6c52f6db0fda"},"vehicle_type_id":"4","last_reported":1691071562,"current_range_meters":21200,"station_id":"ce4bh0p2rcd13ifvqd80","pricing_plan_id":"free"},{"bike_id":"06e89986-1399-499e-9357-2f4b87034ecc","system_id":"levelo_inurba_marseille","lat":43.305994,"lon":5.393687,"is_reserved":false,"is_disabled":false,"rental_uris":{"android":"levelo://app?vid=06e89986-1399-499e-9357-2f4b87034ecc","ios":"levelo://app?vid=06e89986-1399-499e-9357-2f4b87034ecc"},"vehicle_type_id":"4","last_reported":1691071562,"current_range_meters":13200,"station_id":"ce4bh0p2rcd13ifvqd80","pricing_plan_id":"free"},{"bike_id":"be59bf02-c549-47ac-9ecd-d230775026f3","system_id":"levelo_inurba_marseille","lat":43.305994,"lon":5.393687,"is_reserved":false,"is_disabled":false,"rental_uris":{"android":"levelo://app?vid=be59bf02-c549-47ac-9ecd-d230775026f3","ios":"levelo://app?vid=be59bf02-c549-47ac-9ecd-d230775026f3"},"vehicle_type_id":"4","last_reported":1691071562,"current_range_meters":27200,"station_id":"ce4bh0p2rcd13ifvqd80","pricing_plan_id":"free"},{"bike_id":"e02fb3ed-8955-4c9a-b1ca-963b02efc7cc","system_id":"levelo_inurba_marseille","lat":43.302992,"lon":5.392136,"is_reserved":false,"is_disabled":false,"rental_uris":{"android":"levelo://app?vid=e02fb3ed-8955-4c9a-b1ca-963b02efc7cc","ios":"levelo://app?vid=e02fb3ed-8955-4c9a-b1ca-963b02efc7cc"},"vehicle_type_id":"4","last_reported":1691071562,"current_range_meters":8800,"station_id":"ce4bgkh2rcd13ifvqbk0","pricing_plan_id":"free"},{"bike_id":"f0760f75-d0ba-4f18-9c09-04479c1519d7","system_id":"levelo_inurba_marseille","lat":43.292311,"lon":5.360731,"is_reserved":false,"is_disabled":false,"rental_uris":{"android":"levelo://app?vid=f0760f75-d0ba-4f18-9c09-04479c1519d7","ios":"levelo://app?vid=f0760f75-d0ba-4f18-9c09-04479c1519d7"},"vehicle_type_id":"4","last_reported":1691071562,"current_range_meters":2400,"station_id":"ce4bhbh2rcd13ifvqeqg","pricing_plan_id":"free"},{"bike_id":"cae92d78-ea9d-4e4e-8aa2-fce614c63d39","system_id":"levelo_inurba_marseille","lat":43.292311,"lon":5.360731,"is_reserved":false,"is_disabled":false,"rental_uris":{"android":"levelo://app?vid=cae92d78-ea9d-4e4e-8aa2-fce614c63d39","ios":"levelo://app?vid=cae92d78-ea9d-4e4e-8aa2-fce614c63d39"},"vehicle_type_id":"4","last_reported":1691071562,"current_range_meters":2800,"station_id":"ce4bhbh2rcd13ifvqeqg","pricing_plan_id":"free"},{"bike_id":"c46cebf8-3dcb-494a-91ca-8a66cc9aa8ff","system_id":"levelo_inurba_marseille","lat":43.292311,"lon":5.360731,"is_reserved":false,"is_disabled":false,"rental_uris":{"android":"levelo://app?vid=c46cebf8-3dcb-494a-91ca-8a66cc9aa8ff","ios":"levelo://app?vid=c46cebf8-3dcb-494a-91ca-8a66cc9aa8ff"},"vehicle_type_id":"4","last_reported":1691071562,"current_range_meters":15200,"station_id":"ce4bhbh2rcd13ifvqeqg","pricing_plan_id":"free"},{"bike_id":"eb1ddf73-0be3-4020-9072-b76e2bd023ae","system_id":"levelo_inurba_marseille","lat":43.292311,"lon":5.360731,"is_reserved":false,"is_disabled":false,"rental_uris":{"android":"levelo://app?vid=eb1ddf73-0be3-4020-9072-b76e2bd023ae","ios":"levelo://app?vid=eb1ddf73-0be3-4020-9072-b76e2bd023ae"},"vehicle_type_id":"4","last_reported":1691071562,"current_range_meters":30000,"station_id":"ce4bhbh2rcd13ifvqeqg","pricing_plan_id":"free"},{"bike_id":"a2f0f3c0-0f2f-4487-9481-d94a62c49d51","system_id":"levelo_inurba_marseille","lat":43.300852,"lon":5.390859,"is_reserved":false,"is_disabled":false,"rental_uris":{"android":"levelo://app?vid=a2f0f3c0-0f2f-4487-9481-d94a62c49d51","ios":"levelo://app?vid=a2f0f3c0-0f2f-4487-9481-d94a62c49d51"},"vehicle_type_id":"4","last_reported":1691071562,"current_range_meters":25200,"station_id":"ce4bh192rcd13ifvqdb0","pricing_plan_id":"free"},{"bike_id":"2454a4db-7a67-4d78-92fb-635f8fa56f08","system_id":"levelo_inurba_marseille","lat":43.292663,"lon":5.376394,"is_reserved":false,"is_disabled":false,"rental_uris":{"android":"levelo://app?vid=2454a4db-7a67-4d78-92fb-635f8fa56f08","ios":"levelo://app?vid=2454a4db-7a67-4d78-92fb-635f8fa56f08"},"vehicle_type_id":"4","last_reported":1691071562,"current_range_meters":4000,"station_id":"ce4bgi12rcd13ifvqb80","pricing_plan_id":"free"},{"bike_id":"461f4887-4bd0-4e42-be08-6a9cc1f4fedd","system_id":"levelo_inurba_marseille","lat":43.292663,"lon":5.376394,"is_reserved":false,"is_disabled":false,"rental_uris":{"android":"levelo://app?vid=461f4887-4bd0-4e42-be08-6a9cc1f4fedd","ios":"levelo://app?vid=461f4887-4bd0-4e42-be08-6a9cc1f4fedd"},"vehicle_type_id":"4","last_reported":1691071562,"current_range_meters":0,"station_id":"ce4bgi12rcd13ifvqb80","pricing_plan_id":"free"},{"bike_id":"95a621f7-bd02-4e95-8fbb-de238f239351","system_id":"levelo_inurba_marseille","lat":43.25102,"lon":5.403214,"is_reserved":false,"is_disabled":false,"rental_uris":{"android":"levelo://app?vid=95a621f7-bd02-4e95-8fbb-de238f239351","ios":"levelo://app?vid=95a621f7-bd02-4e95-8fbb-de238f239351"},"vehicle_type_id":"4","last_reported":1691071562,"current_range_meters":18400,"station_id":"ce4bhlh2rcd13ifvqgig","pricing_plan_id":"free"},{"bike_id":"48ec2133-5f12-4cf4-bcf2-ffc5c3f68af4","system_id":"levelo_inurba_marseille","lat":43.29197,"lon":5.35793,"is_reserved":false,"is_disabled":false,"rental_uris":{"android":"levelo://app?vid=48ec2133-5f12-4cf4-bcf2-ffc5c3f68af4","ios":"levelo://app?vid=48ec2133-5f12-4cf4-bcf2-ffc5c3f68af4"},"vehicle_type_id":"4","last_reported":1691071562,"current_range_meters":4800,"station_id":"ce4bhb12rcd13ifvqel0","pricing_plan_id":"free"},{"bike_id":"380ba96c-7270-41d8-b16e-82334e124c57","system_id":"levelo_inurba_marseille","lat":43.29195,"lon":5.3579,"is_reserved":false,"is_disabled":false,"rental_uris":{"android":"levelo://app?vid=380ba96c-7270-41d8-b16e-82334e124c57","ios":"levelo://app?vid=380ba96c-7270-41d8-b16e-82334e124c57"},"vehicle_type_id":"4","last_reported":1691071562,"current_range_meters":12800,"station_id":"ce4bhb12rcd13ifvqel0","pricing_plan_id":"free"},{"bike_id":"32855e8d-143e-427b-9ecb-f2cb59103373","system_id":"levelo_inurba_marseille","lat":43.29195,"lon":5.3579,"is_reserved":false,"is_disabled":false,"rental_uris":{"android":"levelo://app?vid=32855e8d-143e-427b-9ecb-f2cb59103373","ios":"levelo://app?vid=32855e8d-143e-427b-9ecb-f2cb59103373"},"vehicle_type_id":"4","last_reported":1691071562,"current_range_meters":16400,"station_id":"ce4bhb12rcd13ifvqel0","pricing_plan_id":"free"},{"bike_id":"88284fc5-443f-4f72-9a2d-1667dd797c47","system_id":"levelo_inurba_marseille","lat":43.31327,"lon":5.39695,"is_reserved":false,"is_disabled":false,"rental_uris":{"android":"levelo://app?vid=88284fc5-443f-4f72-9a2d-1667dd797c47","ios":"levelo://app?vid=88284fc5-443f-4f72-9a2d-1667dd797c47"},"vehicle_type_id":"4","last_reported":1691071562,"current_range_meters":24800,"station_id":"ce4bgvp2rcd13ifvqcu0","pricing_plan_id":"free"},{"bike_id":"66782f03-d5b4-494b-917b-4ecfc7e0becd","system_id":"levelo_inurba_marseille","lat":43.309038,"lon":5.396546,"is_reserved":false,"is_disabled":false,"rental_uris":{"android":"levelo://app?vid=66782f03-d5b4-494b-917b-4ecfc7e0becd","ios":"levelo://app?vid=66782f03-d5b4-494b-917b-4ecfc7e0becd"},"vehicle_type_id":"4","last_reported":1691071562,"current_range_meters":20800,"station_id":"ce4bh012rcd13ifvqcv0","pricing_plan_id":"free"},{"bike_id":"fe78d834-ffed-4d5a-a042-b46206c859c2","system_id":"levelo_inurba_marseille","lat":43.29529,"lon":5.385581,"is_reserved":false,"is_disabled":false,"rental_uris":{"android":"levelo://app?vid=fe78d834-ffed-4d5a-a042-b46206c859c2","ios":"levelo://app?vid=fe78d834-ffed-4d5a-a042-b46206c859c2"},"vehicle_type_id":"4","last_reported":1691071562,"current_range_meters":13200,"station_id":"ce4bgih2rcd13ifvqba0","pricing_plan_id":"free"},{"bike_id":"3683cd62-5cbd-47e6-b8c2-3061e47b026d","system_id":"levelo_inurba_marseille","lat":43.29529,"lon":5.385581,"is_reserved":false,"is_disabled":false,"rental_uris":{"android":"levelo://app?vid=3683cd62-5cbd-47e6-b8c2-3061e47b026d","ios":"levelo://app?vid=3683cd62-5cbd-47e6-b8c2-3061e47b026d"},"vehicle_type_id":"4","last_reported":1691071562,"current_range_meters":28400,"station_id":"ce4bgih2rcd13ifvqba0","pricing_plan_id":"free"},{"bike_id":"07e7e9b1-26f9-46f9-89a5-1c91c99c5e20","system_id":"levelo_inurba_marseille","lat":43.29529,"lon":5.385581,"is_reserved":false,"is_disabled":false,"rental_uris":{"android":"levelo://app?vid=07e7e9b1-26f9-46f9-89a5-1c91c99c5e20","ios":"levelo://app?vid=07e7e9b1-26f9-46f9-89a5-1c91c99c5e20"},"vehicle_type_id":"4","last_reported":1691071562,"current_range_meters":10800,"station_id":"ce4bgih2rcd13ifvqba0","pricing_plan_id":"free"},{"bike_id":"4bf4383a-9e52-4ed5-9ee4-a89e5eac6dfe","system_id":"levelo_inurba_marseille","lat":43.302008,"lon":5.394694,"is_reserved":false,"is_disabled":false,"rental_uris":{"android":"levelo://app?vid=4bf4383a-9e52-4ed5-9ee4-a89e5eac6dfe","ios":"levelo://app?vid=4bf4383a-9e52-4ed5-9ee4-a89e5eac6dfe"},"vehicle_type_id":"4","last_reported":1691071562,"current_range_meters":28400,"station_id":"ce4bh0p2rcd13ifvqd70","pricing_plan_id":"free"},{"bike_id":"0ed0fec9-1079-4a94-b15b-6742440109a2","system_id":"levelo_inurba_marseille","lat":43.289468,"lon":5.363719,"is_reserved":false,"is_disabled":false,"rental_uris":{"android":"levelo://app?vid=0ed0fec9-1079-4a94-b15b-6742440109a2","ios":"levelo://app?vid=0ed0fec9-1079-4a94-b15b-6742440109a2"},"vehicle_type_id":"4","last_reported":1691071562,"current_range_meters":8000,"station_id":"ce4bhc92rcd13ifvqetg","pricing_plan_id":"free"},{"bike_id":"20cf3f6d-acf4-4653-bf24-baa04253f77a","system_id":"levelo_inurba_marseille","lat":43.33048,"lon":5.3891,"is_reserved":false,"is_disabled":false,"rental_uris":{"android":"levelo://app?vid=20cf3f6d-acf4-4653-bf24-baa04253f77a","ios":"levelo://app?vid=20cf3f6d-acf4-4653-bf24-baa04253f77a"},"vehicle_type_id":"4","last_reported":1691071562,"current_range_meters":23600,"station_id":"ce4bhr92rcd13ifvqhrg","pricing_plan_id":"free"},{"bike_id":"05eb7167-1649-4b38-8503-b0d2e3456f24","system_id":"levelo_inurba_marseille","lat":43.3304,"lon":5.38923,"is_reserved":false,"is_disabled":false,"rental_uris":{"android":"levelo://app?vid=05eb7167-1649-4b38-8503-b0d2e3456f24","ios":"levelo://app?vid=05eb7167-1649-4b38-8503-b0d2e3456f24"},"vehicle_type_id":"4","last_reported":1691071562,"current_range_meters":25600,"station_id":"ce4bhr92rcd13ifvqhrg","pricing_plan_id":"free"},{"bike_id":"e715fd0e-07a8-4363-baaf-22238df94904","system_id":"levelo_inurba_marseille","lat":43.33043,"lon":5.38919,"is_reserved":false,"is_disabled":false,"rental_uris":{"android":"levelo://app?vid=e715fd0e-07a8-4363-baaf-22238df94904","ios":"levelo://app?vid=e715fd0e-07a8-4363-baaf-22238df94904"},"vehicle_type_id":"4","last_reported":1691071562,"current_range_meters":30000,"station_id":"ce4bhr92rcd13ifvqhrg","pricing_plan_id":"free"},{"bike_id":"a716ed66-8607-47f1-a4f4-b99eecc862cb","system_id":"levelo_inurba_marseille","lat":43.33041,"lon":5.38923,"is_reserved":false,"is_disabled":false,"rental_uris":{"android":"levelo://app?vid=a716ed66-8607-47f1-a4f4-b99eecc862cb","ios":"levelo://app?vid=a716ed66-8607-47f1-a4f4-b99eecc862cb"},"vehicle_type_id":"4","last_reported":1691071562,"current_range_meters":30000,"station_id":"ce4bhr92rcd13ifvqhrg","pricing_plan_id":"free"},{"bike_id":"8795e432-c7a3-4d95-9fa9-9f904bfbcb4a","system_id":"levelo_inurba_marseille","lat":43.33043,"lon":5.38921,"is_reserved":false,"is_disabled":false,"rental_uris":{"android":"levelo://app?vid=8795e432-c7a3-4d95-9fa9-9f904bfbcb4a","ios":"levelo://app?vid=8795e432-c7a3-4d95-9fa9-9f904bfbcb4a"},"vehicle_type_id":"4","last_reported":1691071562,"current_range_meters":18400,"station_id":"ce4bhr92rcd13ifvqhrg","pricing_plan_id":"free"},{"bike_id":"2f2d42a2-8de0-405f-9429-d3eae654394c","system_id":"levelo_inurba_marseille","lat":43.33043,"lon":5.38921,"is_reserved":false,"is_disabled":false,"rental_uris":{"android":"levelo://app?vid=2f2d42a2-8de0-405f-9429-d3eae654394c","ios":"levelo://app?vid=2f2d42a2-8de0-405f-9429-d3eae654394c"},"vehicle_type_id":"4","last_reported":1691071562,"current_range_meters":26000,"station_id":"ce4bhr92rcd13ifvqhrg","pricing_plan_id":"free"},{"bike_id":"00b2dcdc-2882-40a1-9132-89c3ec15cf18","system_id":"levelo_inurba_marseille","lat":43.33045,"lon":5.38922,"is_reserved":false,"is_disabled":false,"rental_uris":{"android":"levelo://app?vid=00b2dcdc-2882-40a1-9132-89c3ec15cf18","ios":"levelo://app?vid=00b2dcdc-2882-40a1-9132-89c3ec15cf18"},"vehicle_type_id":"4","last_reported":1691071562,"current_range_meters":24000,"station_id":"ce4bhr92rcd13ifvqhrg","pricing_plan_id":"free"},{"bike_id":"e3d9a87e-6429-481d-9019-42e34f04f315","system_id":"levelo_inurba_marseille","lat":43.33047,"lon":5.3892,"is_reserved":false,"is_disabled":false,"rental_uris":{"android":"levelo://app?vid=e3d9a87e-6429-481d-9019-42e34f04f315","ios":"levelo://app?vid=e3d9a87e-6429-481d-9019-42e34f04f315"},"vehicle_type_id":"4","last_reported":1691071562,"current_range_meters":27200,"station_id":"ce4bhr92rcd13ifvqhrg","pricing_plan_id":"free"},{"bike_id":"b21b9727-aff3-4aa4-a37a-048d0b5a45e0","system_id":"levelo_inurba_marseille","lat":43.29006,"lon":5.35605,"is_reserved":false,"is_disabled":false,"rental_uris":{"android":"levelo://app?vid=b21b9727-aff3-4aa4-a37a-048d0b5a45e0","ios":"levelo://app?vid=b21b9727-aff3-4aa4-a37a-048d0b5a45e0"},"vehicle_type_id":"4","last_reported":1691071562,"current_range_meters":17600,"station_id":"ce4bhb92rcd13ifvqen0","pricing_plan_id":"free"},{"bike_id":"d2c42525-7e8f-42db-8c7b-69841bf8b967","system_id":"levelo_inurba_marseille","lat":43.290047,"lon":5.3561,"is_reserved":false,"is_disabled":false,"rental_uris":{"android":"levelo://app?vid=d2c42525-7e8f-42db-8c7b-69841bf8b967","ios":"levelo://app?vid=d2c42525-7e8f-42db-8c7b-69841bf8b967"},"vehicle_type_id":"4","last_reported":1691071562,"current_range_meters":31200,"station_id":"ce4bhb92rcd13ifvqen0","pricing_plan_id":"free"},{"bike_id":"0b40da1c-c5a8-44b1-ae95-03a93c8bf4e2","system_id":"levelo_inurba_marseille","lat":43.33046,"lon":5.38922,"is_reserved":false,"is_disabled":false,"rental_uris":{"android":"levelo://app?vid=0b40da1c-c5a8-44b1-ae95-03a93c8bf4e2","ios":"levelo://app?vid=0b40da1c-c5a8-44b1-ae95-03a93c8bf4e2"},"vehicle_type_id":"4","last_reported":1691071562,"current_range_meters":18000,"station_id":"ce4bhr92rcd13ifvqhrg","pricing_plan_id":"free"},{"bike_id":"9425cf10-22e3-4438-99b3-4f80bfcf1573","system_id":"levelo_inurba_marseille","lat":43.30469,"lon":5.39808,"is_reserved":false,"is_disabled":false,"rental_uris":{"android":"levelo://app?vid=9425cf10-22e3-4438-99b3-4f80bfcf1573","ios":"levelo://app?vid=9425cf10-22e3-4438-99b3-4f80bfcf1573"},"vehicle_type_id":"4","last_reported":1691071562,"current_range_meters":17200,"station_id":"","pricing_plan_id":"free"},{"bike_id":"1fb3ff65-b240-43d9-9569-2ff1bc6e60a7","system_id":"levelo_inurba_marseille","lat":43.29002,"lon":5.35605,"is_reserved":false,"is_disabled":false,"rental_uris":{"android":"levelo://app?vid=1fb3ff65-b240-43d9-9569-2ff1bc6e60a7","ios":"levelo://app?vid=1fb3ff65-b240-43d9-9569-2ff1bc6e60a7"},"vehicle_type_id":"4","last_reported":1691071562,"current_range_meters":23200,"station_id":"ce4bhb92rcd13ifvqen0","pricing_plan_id":"free"},{"bike_id":"134c36ce-4078-4881-8de9-48229acd6d77","system_id":"levelo_inurba_marseille","lat":43.29,"lon":5.35609,"is_reserved":false,"is_disabled":false,"rental_uris":{"android":"levelo://app?vid=134c36ce-4078-4881-8de9-48229acd6d77","ios":"levelo://app?vid=134c36ce-4078-4881-8de9-48229acd6d77"},"vehicle_type_id":"4","last_reported":1691071562,"current_range_meters":17600,"station_id":"ce4bhb92rcd13ifvqen0","pricing_plan_id":"free"},{"bike_id":"f67edc25-bcc7-41fb-8431-1add679b0933","system_id":"levelo_inurba_marseille","lat":43.3305,"lon":5.38927,"is_reserved":false,"is_disabled":false,"rental_uris":{"android":"levelo://app?vid=f67edc25-bcc7-41fb-8431-1add679b0933","ios":"levelo://app?vid=f67edc25-bcc7-41fb-8431-1add679b0933"},"vehicle_type_id":"4","last_reported":1691071562,"current_range_meters":24800,"station_id":"ce4bhr92rcd13ifvqhrg","pricing_plan_id":"free"},{"bike_id":"f34bb9ab-f033-4fbd-97df-c390d9c4c0fa","system_id":"levelo_inurba_marseille","lat":43.29,"lon":5.35605,"is_reserved":false,"is_disabled":false,"rental_uris":{"android":"levelo://app?vid=f34bb9ab-f033-4fbd-97df-c390d9c4c0fa","ios":"levelo://app?vid=f34bb9ab-f033-4fbd-97df-c390d9c4c0fa"},"vehicle_type_id":"4","last_reported":1691071562,"current_range_meters":26400,"station_id":"ce4bhb92rcd13ifvqen0","pricing_plan_id":"free"},{"bike_id":"8921f352-330b-4d5d-a3b7-b7eacdab8c89","system_id":"levelo_inurba_marseille","lat":43.29,"lon":5.35603,"is_reserved":false,"is_disabled":false,"rental_uris":{"android":"levelo://app?vid=8921f352-330b-4d5d-a3b7-b7eacdab8c89","ios":"levelo://app?vid=8921f352-330b-4d5d-a3b7-b7eacdab8c89"},"vehicle_type_id":"4","last_reported":1691071562,"current_range_meters":20000,"station_id":"ce4bhb92rcd13ifvqen0","pricing_plan_id":"free"},{"bike_id":"05bf2cc0-c80b-4d3b-9303-5cea93148e89","system_id":"levelo_inurba_marseille","lat":43.290995,"lon":5.381361,"is_reserved":false,"is_disabled":false,"rental_uris":{"android":"levelo://app?vid=05bf2cc0-c80b-4d3b-9303-5cea93148e89","ios":"levelo://app?vid=05bf2cc0-c80b-4d3b-9303-5cea93148e89"},"vehicle_type_id":"4","last_reported":1691071562,"current_range_meters":31600,"station_id":"ce4bh512rcd13ifvqe2g","pricing_plan_id":"free"},{"bike_id":"1ebe2ec6-9470-4987-8ce6-39b6cec4738b","system_id":"levelo_inurba_marseille","lat":43.290995,"lon":5.381361,"is_reserved":false,"is_disabled":false,"rental_uris":{"android":"levelo://app?vid=1ebe2ec6-9470-4987-8ce6-39b6cec4738b","ios":"levelo://app?vid=1ebe2ec6-9470-4987-8ce6-39b6cec4738b"},"vehicle_type_id":"4","last_reported":1691071562,"current_range_meters":0,"station_id":"ce4bh512rcd13ifvqe2g","pricing_plan_id":"free"},{"bike_id":"8c93293e-d764-412f-973d-9df85175db2c","system_id":"levelo_inurba_marseille","lat":43.28979,"lon":5.37834,"is_reserved":false,"is_disabled":false,"rental_uris":{"android":"levelo://app?vid=8c93293e-d764-412f-973d-9df85175db2c","ios":"levelo://app?vid=8c93293e-d764-412f-973d-9df85175db2c"},"vehicle_type_id":"4","last_reported":1691071562,"current_range_meters":19600,"station_id":"ce4bh9p2rcd13ifvqed0","pricing_plan_id":"free"},{"bike_id":"aff098d7-fbb9-4ec5-bbff-a3dd0b611f79","system_id":"levelo_inurba_marseille","lat":43.289741,"lon":5.378306,"is_reserved":false,"is_disabled":false,"rental_uris":{"android":"levelo://app?vid=aff098d7-fbb9-4ec5-bbff-a3dd0b611f79","ios":"levelo://app?vid=aff098d7-fbb9-4ec5-bbff-a3dd0b611f79"},"vehicle_type_id":"4","last_reported":1691071562,"current_range_meters":4400,"station_id":"ce4bh9p2rcd13ifvqed0","pricing_plan_id":"free"},{"bike_id":"f9385946-6514-4959-bfea-94ef0edd5f81","system_id":"levelo_inurba_marseille","lat":43.2901,"lon":5.381269,"is_reserved":false,"is_disabled":false,"rental_uris":{"android":"levelo://app?vid=f9385946-6514-4959-bfea-94ef0edd5f81","ios":"levelo://app?vid=f9385946-6514-4959-bfea-94ef0edd5f81"},"vehicle_type_id":"4","last_reported":1691071562,"current_range_meters":1600,"station_id":"ce4bh4p2rcd13ifvqe1g","pricing_plan_id":"free"},{"bike_id":"a964c7e4-1254-4611-bac8-958313365f4b","system_id":"levelo_inurba_marseille","lat":43.309371,"lon":5.401449,"is_reserved":false,"is_disabled":false,"rental_uris":{"android":"levelo://app?vid=a964c7e4-1254-4611-bac8-958313365f4b","ios":"levelo://app?vid=a964c7e4-1254-4611-bac8-958313365f4b"},"vehicle_type_id":"4","last_reported":1691071562,"current_range_meters":19200,"station_id":"ce4bgvp2rcd13ifvqct0","pricing_plan_id":"free"},{"bike_id":"75199276-b705-4ad7-b6a9-49aeaa84628a","system_id":"levelo_inurba_marseille","lat":43.286591,"lon":5.363346,"is_reserved":false,"is_disabled":false,"rental_uris":{"android":"levelo://app?vid=75199276-b705-4ad7-b6a9-49aeaa84628a","ios":"levelo://app?vid=75199276-b705-4ad7-b6a9-49aeaa84628a"},"vehicle_type_id":"4","last_reported":1691071562,"current_range_meters":31600,"station_id":"ce4bhah2rcd13ifvqej0","pricing_plan_id":"free"},{"bike_id":"0634e580-a5bd-4ad5-9323-eb9cda17acd7","system_id":"levelo_inurba_marseille","lat":43.286961,"lon":5.373785,"is_reserved":false,"is_disabled":false,"rental_uris":{"android":"levelo://app?vid=0634e580-a5bd-4ad5-9323-eb9cda17acd7","ios":"levelo://app?vid=0634e580-a5bd-4ad5-9323-eb9cda17acd7"},"vehicle_type_id":"4","last_reported":1691071562,"current_range_meters":27200,"station_id":"ce4bh3p2rcd13ifvqdq0","pricing_plan_id":"free"},{"bike_id":"f7ebf21b-41cf-48f9-9751-0d2a0f9353f0","system_id":"levelo_inurba_marseille","lat":43.290345,"lon":5.38646,"is_reserved":false,"is_disabled":false,"rental_uris":{"android":"levelo://app?vid=f7ebf21b-41cf-48f9-9751-0d2a0f9353f0","ios":"levelo://app?vid=f7ebf21b-41cf-48f9-9751-0d2a0f9353f0"},"vehicle_type_id":"4","last_reported":1691071562,"current_range_meters":7600,"station_id":"ce4bh4p2rcd13ifvqe0g","pricing_plan_id":"free"},{"bike_id":"b9742bea-d684-40b5-bcbf-df02d6e08d99","system_id":"levelo_inurba_marseille","lat":43.290345,"lon":5.38646,"is_reserved":false,"is_disabled":false,"rental_uris":{"android":"levelo://app?vid=b9742bea-d684-40b5-bcbf-df02d6e08d99","ios":"levelo://app?vid=b9742bea-d684-40b5-bcbf-df02d6e08d99"},"vehicle_type_id":"4","last_reported":1691071562,"current_range_meters":31600,"station_id":"ce4bh4p2rcd13ifvqe0g","pricing_plan_id":"free"},{"bike_id":"7b9e2d57-7c2f-4652-8ec0-ee4d147afe24","system_id":"levelo_inurba_marseille","lat":43.302548,"lon":5.400568,"is_reserved":false,"is_disabled":false,"rental_uris":{"android":"levelo://app?vid=7b9e2d57-7c2f-4652-8ec0-ee4d147afe24","ios":"levelo://app?vid=7b9e2d57-7c2f-4652-8ec0-ee4d147afe24"},"vehicle_type_id":"4","last_reported":1691071562,"current_range_meters":18400,"station_id":"","pricing_plan_id":"free"},{"bike_id":"02a593e0-14e2-486f-a72c-da17e105f45c","system_id":"levelo_inurba_marseille","lat":43.290345,"lon":5.38646,"is_reserved":false,"is_disabled":false,"rental_uris":{"android":"levelo://app?vid=02a593e0-14e2-486f-a72c-da17e105f45c","ios":"levelo://app?vid=02a593e0-14e2-486f-a72c-da17e105f45c"},"vehicle_type_id":"4","last_reported":1691071562,"current_range_meters":18400,"station_id":"ce4bh4p2rcd13ifvqe0g","pricing_plan_id":"free"},{"bike_id":"a5331ed1-5ea8-428e-a423-4f30f7b349a8","system_id":"levelo_inurba_marseille","lat":43.302759,"lon":5.400793,"is_reserved":false,"is_disabled":false,"rental_uris":{"android":"levelo://app?vid=a5331ed1-5ea8-428e-a423-4f30f7b349a8","ios":"levelo://app?vid=a5331ed1-5ea8-428e-a423-4f30f7b349a8"},"vehicle_type_id":"4","last_reported":1691071562,"current_range_meters":6800,"station_id":"ce4bgvh2rcd13ifvqcs0","pricing_plan_id":"free"},{"bike_id":"393aba4e-0c14-4cff-8af5-9cae9f16b8fa","system_id":"levelo_inurba_marseille","lat":43.287184,"lon":5.37937,"is_reserved":false,"is_disabled":false,"rental_uris":{"android":"levelo://app?vid=393aba4e-0c14-4cff-8af5-9cae9f16b8fa","ios":"levelo://app?vid=393aba4e-0c14-4cff-8af5-9cae9f16b8fa"},"vehicle_type_id":"4","last_reported":1691071562,"current_range_meters":19200,"station_id":"ce4bh9p2rcd13ifvqec0","pricing_plan_id":"free"},{"bike_id":"99ef77c8-5f24-48f8-b499-d5f3fc911ee4","system_id":"levelo_inurba_marseille","lat":43.29236,"lon":5.3942,"is_reserved":false,"is_disabled":false,"rental_uris":{"android":"levelo://app?vid=99ef77c8-5f24-48f8-b499-d5f3fc911ee4","ios":"levelo://app?vid=99ef77c8-5f24-48f8-b499-d5f3fc911ee4"},"vehicle_type_id":"4","last_reported":1691071562,"current_range_meters":18800,"station_id":"","pricing_plan_id":"free"},{"bike_id":"9d870b62-6cc5-4dc4-9bdb-d06a88a032c7","system_id":"levelo_inurba_marseille","lat":43.285848,"lon":5.350787,"is_reserved":false,"is_disabled":false,"rental_uris":{"android":"levelo://app?vid=9d870b62-6cc5-4dc4-9bdb-d06a88a032c7","ios":"levelo://app?vid=9d870b62-6cc5-4dc4-9bdb-d06a88a032c7"},"vehicle_type_id":"4","last_reported":1691071562,"current_range_meters":23600,"station_id":"ce4bhch2rcd13ifvqeug","pricing_plan_id":"free"},{"bike_id":"3722513c-1cd7-460a-802c-fb50562d2c78","system_id":"levelo_inurba_marseille","lat":43.28616,"lon":5.35105,"is_reserved":false,"is_disabled":false,"rental_uris":{"android":"levelo://app?vid=3722513c-1cd7-460a-802c-fb50562d2c78","ios":"levelo://app?vid=3722513c-1cd7-460a-802c-fb50562d2c78"},"vehicle_type_id":"4","last_reported":1691071562,"current_range_meters":27600,"station_id":"ce4bhch2rcd13ifvqeug","pricing_plan_id":"free"},{"bike_id":"3b4fcaa4-6e59-4121-bd9d-dd885baf25e6","system_id":"levelo_inurba_marseille","lat":43.28616,"lon":5.35105,"is_reserved":false,"is_disabled":false,"rental_uris":{"android":"levelo://app?vid=3b4fcaa4-6e59-4121-bd9d-dd885baf25e6","ios":"levelo://app?vid=3b4fcaa4-6e59-4121-bd9d-dd885baf25e6"},"vehicle_type_id":"4","last_reported":1691071562,"current_range_meters":18800,"station_id":"ce4bhch2rcd13ifvqeug","pricing_plan_id":"free"},{"bike_id":"554f7bd5-9e9d-47c2-a76c-89842cbcbf48","system_id":"levelo_inurba_marseille","lat":43.28614,"lon":5.35105,"is_reserved":false,"is_disabled":false,"rental_uris":{"android":"levelo://app?vid=554f7bd5-9e9d-47c2-a76c-89842cbcbf48","ios":"levelo://app?vid=554f7bd5-9e9d-47c2-a76c-89842cbcbf48"},"vehicle_type_id":"4","last_reported":1691071562,"current_range_meters":19200,"station_id":"ce4bhch2rcd13ifvqeug","pricing_plan_id":"free"},{"bike_id":"220d6048-dadb-4fd2-9a39-466d2b90aacf","system_id":"levelo_inurba_marseille","lat":43.28612,"lon":5.35111,"is_reserved":false,"is_disabled":false,"rental_uris":{"android":"levelo://app?vid=220d6048-dadb-4fd2-9a39-466d2b90aacf","ios":"levelo://app?vid=220d6048-dadb-4fd2-9a39-466d2b90aacf"},"vehicle_type_id":"4","last_reported":1691071562,"current_range_meters":5200,"station_id":"ce4bhch2rcd13ifvqeug","pricing_plan_id":"free"},{"bike_id":"b37f3402-6700-4a6b-a0a0-c5f80035fea4","system_id":"levelo_inurba_marseille","lat":43.28613,"lon":5.35107,"is_reserved":false,"is_disabled":false,"rental_uris":{"android":"levelo://app?vid=b37f3402-6700-4a6b-a0a0-c5f80035fea4","ios":"levelo://app?vid=b37f3402-6700-4a6b-a0a0-c5f80035fea4"},"vehicle_type_id":"4","last_reported":1691071562,"current_range_meters":14800,"station_id":"ce4bhch2rcd13ifvqeug","pricing_plan_id":"free"},{"bike_id":"7e5cf9dd-3e3c-4ef1-a1c0-f5275bfc9182","system_id":"levelo_inurba_marseille","lat":43.28614,"lon":5.35102,"is_reserved":false,"is_disabled":false,"rental_uris":{"android":"levelo://app?vid=7e5cf9dd-3e3c-4ef1-a1c0-f5275bfc9182","ios":"levelo://app?vid=7e5cf9dd-3e3c-4ef1-a1c0-f5275bfc9182"},"vehicle_type_id":"4","last_reported":1691071562,"current_range_meters":30800,"station_id":"ce4bhch2rcd13ifvqeug","pricing_plan_id":"free"},{"bike_id":"a39b81be-025d-4304-a2b7-399eb4fa7be5","system_id":"levelo_inurba_marseille","lat":43.285856,"lon":5.350771,"is_reserved":false,"is_disabled":false,"rental_uris":{"android":"levelo://app?vid=a39b81be-025d-4304-a2b7-399eb4fa7be5","ios":"levelo://app?vid=a39b81be-025d-4304-a2b7-399eb4fa7be5"},"vehicle_type_id":"4","last_reported":1691071562,"current_range_meters":27600,"station_id":"ce4bhch2rcd13ifvqeug","pricing_plan_id":"free"},{"bike_id":"552ead5a-50ac-46ea-a4c6-853608e1d60e","system_id":"levelo_inurba_marseille","lat":43.28608,"lon":5.35112,"is_reserved":false,"is_disabled":false,"rental_uris":{"android":"levelo://app?vid=552ead5a-50ac-46ea-a4c6-853608e1d60e","ios":"levelo://app?vid=552ead5a-50ac-46ea-a4c6-853608e1d60e"},"vehicle_type_id":"4","last_reported":1691071562,"current_range_meters":26000,"station_id":"ce4bhch2rcd13ifvqeug","pricing_plan_id":"free"},{"bike_id":"311c87cb-d400-455c-918f-40208b5137a3","system_id":"levelo_inurba_marseille","lat":43.285856,"lon":5.350771,"is_reserved":false,"is_disabled":false,"rental_uris":{"android":"levelo://app?vid=311c87cb-d400-455c-918f-40208b5137a3","ios":"levelo://app?vid=311c87cb-d400-455c-918f-40208b5137a3"},"vehicle_type_id":"4","last_reported":1691071562,"current_range_meters":30400,"station_id":"ce4bhch2rcd13ifvqeug","pricing_plan_id":"free"},{"bike_id":"9171ec54-b3ad-46c9-9b8d-7d9f1bebb65b","system_id":"levelo_inurba_marseille","lat":43.28419,"lon":5.37517,"is_reserved":false,"is_disabled":false,"rental_uris":{"android":"levelo://app?vid=9171ec54-b3ad-46c9-9b8d-7d9f1bebb65b","ios":"levelo://app?vid=9171ec54-b3ad-46c9-9b8d-7d9f1bebb65b"},"vehicle_type_id":"4","last_reported":1691071562,"current_range_meters":27200,"station_id":"ce4bh412rcd13ifvqds0","pricing_plan_id":"free"},{"bike_id":"2e29eb20-779e-4977-8b01-cf6f0488d473","system_id":"levelo_inurba_marseille","lat":43.28415,"lon":5.37519,"is_reserved":false,"is_disabled":false,"rental_uris":{"android":"levelo://app?vid=2e29eb20-779e-4977-8b01-cf6f0488d473","ios":"levelo://app?vid=2e29eb20-779e-4977-8b01-cf6f0488d473"},"vehicle_type_id":"4","last_reported":1691071562,"current_range_meters":10800,"station_id":"ce4bh412rcd13ifvqds0","pricing_plan_id":"free"},{"bike_id":"05061b46-16ce-4092-a52f-324d59bf1e88","system_id":"levelo_inurba_marseille","lat":43.285856,"lon":5.350771,"is_reserved":false,"is_disabled":false,"rental_uris":{"android":"levelo://app?vid=05061b46-16ce-4092-a52f-324d59bf1e88","ios":"levelo://app?vid=05061b46-16ce-4092-a52f-324d59bf1e88"},"vehicle_type_id":"4","last_reported":1691071562,"current_range_meters":28000,"station_id":"ce4bhch2rcd13ifvqeug","pricing_plan_id":"free"},{"bike_id":"5bf25135-ca50-4214-b0c0-a5b3445f52d5","system_id":"levelo_inurba_marseille","lat":43.28576,"lon":5.351,"is_reserved":false,"is_disabled":false,"rental_uris":{"android":"levelo://app?vid=5bf25135-ca50-4214-b0c0-a5b3445f52d5","ios":"levelo://app?vid=5bf25135-ca50-4214-b0c0-a5b3445f52d5"},"vehicle_type_id":"4","last_reported":1691071562,"current_range_meters":30800,"station_id":"ce4bhch2rcd13ifvqeug","pricing_plan_id":"free"},{"bike_id":"4e036465-748d-402b-9a86-4ecbe9be60c2","system_id":"levelo_inurba_marseille","lat":43.286595,"lon":5.386795,"is_reserved":false,"is_disabled":false,"rental_uris":{"android":"levelo://app?vid=4e036465-748d-402b-9a86-4ecbe9be60c2","ios":"levelo://app?vid=4e036465-748d-402b-9a86-4ecbe9be60c2"},"vehicle_type_id":"4","last_reported":1691071562,"current_range_meters":18400,"station_id":"ce4bh492rcd13ifvqdug","pricing_plan_id":"free"},{"bike_id":"039248f0-4c73-45ed-8bd8-ae99f87dc7f8","system_id":"levelo_inurba_marseille","lat":43.31891,"lon":5.40728,"is_reserved":false,"is_disabled":false,"rental_uris":{"android":"levelo://app?vid=039248f0-4c73-45ed-8bd8-ae99f87dc7f8","ios":"levelo://app?vid=039248f0-4c73-45ed-8bd8-ae99f87dc7f8"},"vehicle_type_id":"4","last_reported":1691071562,"current_range_meters":24800,"station_id":"ce4bhq12rcd13ifvqhig","pricing_plan_id":"free"},{"bike_id":"803e0392-2ba9-4379-9d26-2917c606f524","system_id":"levelo_inurba_marseille","lat":43.33718,"lon":5.39181,"is_reserved":false,"is_disabled":false,"rental_uris":{"android":"levelo://app?vid=803e0392-2ba9-4379-9d26-2917c606f524","ios":"levelo://app?vid=803e0392-2ba9-4379-9d26-2917c606f524"},"vehicle_type_id":"4","last_reported":1691071562,"current_range_meters":13600,"station_id":"ce4bhr92rcd13ifvqhsg","pricing_plan_id":"free"},{"bike_id":"3e563380-a985-451c-801d-2783d7714294","system_id":"levelo_inurba_marseille","lat":43.337168,"lon":5.391825,"is_reserved":false,"is_disabled":false,"rental_uris":{"android":"levelo://app?vid=3e563380-a985-451c-801d-2783d7714294","ios":"levelo://app?vid=3e563380-a985-451c-801d-2783d7714294"},"vehicle_type_id":"4","last_reported":1691071562,"current_range_meters":20800,"station_id":"ce4bhr92rcd13ifvqhsg","pricing_plan_id":"free"},{"bike_id":"9d8dc018-8295-487e-aae9-79ce0f469cdf","system_id":"levelo_inurba_marseille","lat":43.33719,"lon":5.39185,"is_reserved":false,"is_disabled":false,"rental_uris":{"android":"levelo://app?vid=9d8dc018-8295-487e-aae9-79ce0f469cdf","ios":"levelo://app?vid=9d8dc018-8295-487e-aae9-79ce0f469cdf"},"vehicle_type_id":"4","last_reported":1691071562,"current_range_meters":30400,"station_id":"ce4bhr92rcd13ifvqhsg","pricing_plan_id":"free"},{"bike_id":"939edbe6-adcc-4f97-ad69-99748df4073d","system_id":"levelo_inurba_marseille","lat":43.3372,"lon":5.39185,"is_reserved":false,"is_disabled":false,"rental_uris":{"android":"levelo://app?vid=939edbe6-adcc-4f97-ad69-99748df4073d","ios":"levelo://app?vid=939edbe6-adcc-4f97-ad69-99748df4073d"},"vehicle_type_id":"4","last_reported":1691071562,"current_range_meters":30800,"station_id":"ce4bhr92rcd13ifvqhsg","pricing_plan_id":"free"},{"bike_id":"65e7209e-43de-4472-85bf-edccad84c81f","system_id":"levelo_inurba_marseille","lat":43.33717,"lon":5.391857,"is_reserved":false,"is_disabled":false,"rental_uris":{"android":"levelo://app?vid=65e7209e-43de-4472-85bf-edccad84c81f","ios":"levelo://app?vid=65e7209e-43de-4472-85bf-edccad84c81f"},"vehicle_type_id":"4","last_reported":1691071562,"current_range_meters":31200,"station_id":"ce4bhr92rcd13ifvqhsg","pricing_plan_id":"free"},{"bike_id":"1f5722b0-5667-43f6-9dad-3a3b818c5a69","system_id":"levelo_inurba_marseille","lat":43.33722,"lon":5.39187,"is_reserved":false,"is_disabled":false,"rental_uris":{"android":"levelo://app?vid=1f5722b0-5667-43f6-9dad-3a3b818c5a69","ios":"levelo://app?vid=1f5722b0-5667-43f6-9dad-3a3b818c5a69"},"vehicle_type_id":"4","last_reported":1691071562,"current_range_meters":15200,"station_id":"ce4bhr92rcd13ifvqhsg","pricing_plan_id":"free"},{"bike_id":"c5b5292c-61ef-4abb-8b45-5548f98073cf","system_id":"levelo_inurba_marseille","lat":43.323464,"lon":5.406297,"is_reserved":false,"is_disabled":false,"rental_uris":{"android":"levelo://app?vid=c5b5292c-61ef-4abb-8b45-5548f98073cf","ios":"levelo://app?vid=c5b5292c-61ef-4abb-8b45-5548f98073cf"},"vehicle_type_id":"4","last_reported":1691071562,"current_range_meters":29600,"station_id":"ce4bhq92rcd13ifvqhjg","pricing_plan_id":"free"},{"bike_id":"eaf6fc0f-47a5-4e38-b435-865f762e69f2","system_id":"levelo_inurba_marseille","lat":43.323464,"lon":5.406297,"is_reserved":false,"is_disabled":false,"rental_uris":{"android":"levelo://app?vid=eaf6fc0f-47a5-4e38-b435-865f762e69f2","ios":"levelo://app?vid=eaf6fc0f-47a5-4e38-b435-865f762e69f2"},"vehicle_type_id":"4","last_reported":1691071562,"current_range_meters":32000,"station_id":"ce4bhq92rcd13ifvqhjg","pricing_plan_id":"free"},{"bike_id":"5f2f9cab-ca5c-488c-9cb8-13569ecc9b06","system_id":"levelo_inurba_marseille","lat":43.323464,"lon":5.406297,"is_reserved":false,"is_disabled":false,"rental_uris":{"android":"levelo://app?vid=5f2f9cab-ca5c-488c-9cb8-13569ecc9b06","ios":"levelo://app?vid=5f2f9cab-ca5c-488c-9cb8-13569ecc9b06"},"vehicle_type_id":"4","last_reported":1691071562,"current_range_meters":25600,"station_id":"ce4bhq92rcd13ifvqhjg","pricing_plan_id":"free"},{"bike_id":"5c5ef9ce-b31f-46a0-a4df-0e098c4a3f50","system_id":"levelo_inurba_marseille","lat":43.33725,"lon":5.39189,"is_reserved":false,"is_disabled":false,"rental_uris":{"android":"levelo://app?vid=5c5ef9ce-b31f-46a0-a4df-0e098c4a3f50","ios":"levelo://app?vid=5c5ef9ce-b31f-46a0-a4df-0e098c4a3f50"},"vehicle_type_id":"4","last_reported":1691071562,"current_range_meters":5200,"station_id":"ce4bhr92rcd13ifvqhsg","pricing_plan_id":"free"},{"bike_id":"df82d2f9-f688-4670-ac84-3e543122cedb","system_id":"levelo_inurba_marseille","lat":43.33732,"lon":5.39177,"is_reserved":false,"is_disabled":false,"rental_uris":{"android":"levelo://app?vid=df82d2f9-f688-4670-ac84-3e543122cedb","ios":"levelo://app?vid=df82d2f9-f688-4670-ac84-3e543122cedb"},"vehicle_type_id":"4","last_reported":1691071562,"current_range_meters":19200,"station_id":"ce4bhr92rcd13ifvqhsg","pricing_plan_id":"free"},{"bike_id":"7cba6067-cca4-46b7-8e00-33300ede0d0d","system_id":"levelo_inurba_marseille","lat":43.323464,"lon":5.406297,"is_reserved":false,"is_disabled":false,"rental_uris":{"android":"levelo://app?vid=7cba6067-cca4-46b7-8e00-33300ede0d0d","ios":"levelo://app?vid=7cba6067-cca4-46b7-8e00-33300ede0d0d"},"vehicle_type_id":"4","last_reported":1691071562,"current_range_meters":30400,"station_id":"ce4bhq92rcd13ifvqhjg","pricing_plan_id":"free"},{"bike_id":"dbada9f9-e33c-4a7d-ab43-1cac4e571e70","system_id":"levelo_inurba_marseille","lat":43.28467,"lon":5.38419,"is_reserved":false,"is_disabled":false,"rental_uris":{"android":"levelo://app?vid=dbada9f9-e33c-4a7d-ab43-1cac4e571e70","ios":"levelo://app?vid=dbada9f9-e33c-4a7d-ab43-1cac4e571e70"},"vehicle_type_id":"4","last_reported":1691071562,"current_range_meters":30000,"station_id":"ce4bh512rcd13ifvqe3g","pricing_plan_id":"free"},{"bike_id":"9e678b0b-7eb4-4411-9ac8-cd6431b2a43a","system_id":"levelo_inurba_marseille","lat":43.29803,"lon":5.40416,"is_reserved":false,"is_disabled":false,"rental_uris":{"android":"levelo://app?vid=9e678b0b-7eb4-4411-9ac8-cd6431b2a43a","ios":"levelo://app?vid=9e678b0b-7eb4-4411-9ac8-cd6431b2a43a"},"vehicle_type_id":"4","last_reported":1691071562,"current_range_meters":0,"station_id":"","pricing_plan_id":"free"},{"bike_id":"5025d605-ee7d-43c3-ada3-2c8c2a1ecd58","system_id":"levelo_inurba_marseille","lat":43.288497,"lon":5.393089,"is_reserved":false,"is_disabled":false,"rental_uris":{"android":"levelo://app?vid=5025d605-ee7d-43c3-ada3-2c8c2a1ecd58","ios":"levelo://app?vid=5025d605-ee7d-43c3-ada3-2c8c2a1ecd58"},"vehicle_type_id":"4","last_reported":1691071562,"current_range_meters":28800,"station_id":"ce4bh2p2rcd13ifvqdi0","pricing_plan_id":"free"},{"bike_id":"4f2580c7-145a-47f8-ace4-245a7f884179","system_id":"levelo_inurba_marseille","lat":43.28428,"lon":5.34995,"is_reserved":false,"is_disabled":false,"rental_uris":{"android":"levelo://app?vid=4f2580c7-145a-47f8-ace4-245a7f884179","ios":"levelo://app?vid=4f2580c7-145a-47f8-ace4-245a7f884179"},"vehicle_type_id":"4","last_reported":1691071562,"current_range_meters":26000,"station_id":"ce4bhbh2rcd13ifvqepg","pricing_plan_id":"free"},{"bike_id":"a30a7b3c-8823-4fff-988a-1f9c12ef44c0","system_id":"levelo_inurba_marseille","lat":43.28423,"lon":5.34999,"is_reserved":false,"is_disabled":false,"rental_uris":{"android":"levelo://app?vid=a30a7b3c-8823-4fff-988a-1f9c12ef44c0","ios":"levelo://app?vid=a30a7b3c-8823-4fff-988a-1f9c12ef44c0"},"vehicle_type_id":"4","last_reported":1691071562,"current_range_meters":19600,"station_id":"ce4bhbh2rcd13ifvqepg","pricing_plan_id":"free"},{"bike_id":"d3273399-5b81-491f-a5da-5f65b3ae1487","system_id":"levelo_inurba_marseille","lat":43.28427,"lon":5.34984,"is_reserved":false,"is_disabled":false,"rental_uris":{"android":"levelo://app?vid=d3273399-5b81-491f-a5da-5f65b3ae1487","ios":"levelo://app?vid=d3273399-5b81-491f-a5da-5f65b3ae1487"},"vehicle_type_id":"4","last_reported":1691071562,"current_range_meters":800,"station_id":"ce4bhbh2rcd13ifvqepg","pricing_plan_id":"free"},{"bike_id":"8b2885f9-4c5a-4f5a-8286-430b2f2de588","system_id":"levelo_inurba_marseille","lat":43.284219,"lon":5.3497,"is_reserved":false,"is_disabled":false,"rental_uris":{"android":"levelo://app?vid=8b2885f9-4c5a-4f5a-8286-430b2f2de588","ios":"levelo://app?vid=8b2885f9-4c5a-4f5a-8286-430b2f2de588"},"vehicle_type_id":"4","last_reported":1691071562,"current_range_meters":16400,"station_id":"ce4bhbh2rcd13ifvqepg","pricing_plan_id":"free"},{"bike_id":"b86d1153-4d67-42d9-8f23-96981a0fb153","system_id":"levelo_inurba_marseille","lat":43.28418,"lon":5.34981,"is_reserved":false,"is_disabled":false,"rental_uris":{"android":"levelo://app?vid=b86d1153-4d67-42d9-8f23-96981a0fb153","ios":"levelo://app?vid=b86d1153-4d67-42d9-8f23-96981a0fb153"},"vehicle_type_id":"4","last_reported":1691071562,"current_range_meters":10400,"station_id":"ce4bhbh2rcd13ifvqepg","pricing_plan_id":"free"},{"bike_id":"b66a70b4-a6c4-4baa-a842-505ba5a43202","system_id":"levelo_inurba_marseille","lat":43.28418,"lon":5.34976,"is_reserved":false,"is_disabled":false,"rental_uris":{"android":"levelo://app?vid=b66a70b4-a6c4-4baa-a842-505ba5a43202","ios":"levelo://app?vid=b66a70b4-a6c4-4baa-a842-505ba5a43202"},"vehicle_type_id":"4","last_reported":1691071562,"current_range_meters":19600,"station_id":"ce4bhbh2rcd13ifvqepg","pricing_plan_id":"free"},{"bike_id":"727078b8-317c-4e80-b1bf-2f1de017b4e8","system_id":"levelo_inurba_marseille","lat":43.284165,"lon":5.349725,"is_reserved":false,"is_disabled":false,"rental_uris":{"android":"levelo://app?vid=727078b8-317c-4e80-b1bf-2f1de017b4e8","ios":"levelo://app?vid=727078b8-317c-4e80-b1bf-2f1de017b4e8"},"vehicle_type_id":"4","last_reported":1691071562,"current_range_meters":18400,"station_id":"ce4bhbh2rcd13ifvqepg","pricing_plan_id":"free"},{"bike_id":"bfc8d034-6d20-45f6-aac5-1133244da734","system_id":"levelo_inurba_marseille","lat":43.289363,"lon":5.396322,"is_reserved":false,"is_disabled":false,"rental_uris":{"android":"levelo://app?vid=bfc8d034-6d20-45f6-aac5-1133244da734","ios":"levelo://app?vid=bfc8d034-6d20-45f6-aac5-1133244da734"},"vehicle_type_id":"4","last_reported":1691071562,"current_range_meters":14000,"station_id":"ce4bh3h2rcd13ifvqdn0","pricing_plan_id":"free"},{"bike_id":"f7f5768e-b80f-4da0-8864-86696a8877fb","system_id":"levelo_inurba_marseille","lat":43.32456,"lon":5.40727,"is_reserved":false,"is_disabled":false,"rental_uris":{"android":"levelo://app?vid=f7f5768e-b80f-4da0-8864-86696a8877fb","ios":"levelo://app?vid=f7f5768e-b80f-4da0-8864-86696a8877fb"},"vehicle_type_id":"4","last_reported":1691071562,"current_range_meters":400,"station_id":"","pricing_plan_id":"free"},{"bike_id":"8d8e6995-a12f-497f-9238-316ccd518939","system_id":"levelo_inurba_marseille","lat":43.283502,"lon":5.386471,"is_reserved":false,"is_disabled":false,"rental_uris":{"android":"levelo://app?vid=8d8e6995-a12f-497f-9238-316ccd518939","ios":"levelo://app?vid=8d8e6995-a12f-497f-9238-316ccd518939"},"vehicle_type_id":"4","last_reported":1691071562,"current_range_meters":23200,"station_id":"ce4bh492rcd13ifvqdvg","pricing_plan_id":"free"},{"bike_id":"22f50663-114a-4456-952b-acb865a7886b","system_id":"levelo_inurba_marseille","lat":43.28267,"lon":5.35079,"is_reserved":false,"is_disabled":false,"rental_uris":{"android":"levelo://app?vid=22f50663-114a-4456-952b-acb865a7886b","ios":"levelo://app?vid=22f50663-114a-4456-952b-acb865a7886b"},"vehicle_type_id":"4","last_reported":1691071562,"current_range_meters":18400,"station_id":"ce4bhbp2rcd13ifvqerg","pricing_plan_id":"free"},{"bike_id":"dfc7cc8a-c73a-4ebc-b0bf-d530226c69e1","system_id":"levelo_inurba_marseille","lat":43.28266,"lon":5.35079,"is_reserved":false,"is_disabled":false,"rental_uris":{"android":"levelo://app?vid=dfc7cc8a-c73a-4ebc-b0bf-d530226c69e1","ios":"levelo://app?vid=dfc7cc8a-c73a-4ebc-b0bf-d530226c69e1"},"vehicle_type_id":"4","last_reported":1691071562,"current_range_meters":14800,"station_id":"ce4bhbp2rcd13ifvqerg","pricing_plan_id":"free"},{"bike_id":"da5b3af2-9181-47fc-8bc4-65fe43931248","system_id":"levelo_inurba_marseille","lat":43.28264,"lon":5.35086,"is_reserved":false,"is_disabled":false,"rental_uris":{"android":"levelo://app?vid=da5b3af2-9181-47fc-8bc4-65fe43931248","ios":"levelo://app?vid=da5b3af2-9181-47fc-8bc4-65fe43931248"},"vehicle_type_id":"4","last_reported":1691071562,"current_range_meters":26000,"station_id":"ce4bhbp2rcd13ifvqerg","pricing_plan_id":"free"},{"bike_id":"f9fc301b-ca90-4394-bf83-6800e8ce9069","system_id":"levelo_inurba_marseille","lat":43.282754,"lon":5.350519,"is_reserved":false,"is_disabled":false,"rental_uris":{"android":"levelo://app?vid=f9fc301b-ca90-4394-bf83-6800e8ce9069","ios":"levelo://app?vid=f9fc301b-ca90-4394-bf83-6800e8ce9069"},"vehicle_type_id":"4","last_reported":1691071562,"current_range_meters":22800,"station_id":"ce4bhbp2rcd13ifvqerg","pricing_plan_id":"free"},{"bike_id":"1c61d2ed-1285-41d2-bf47-43cdc868c2e3","system_id":"levelo_inurba_marseille","lat":43.282754,"lon":5.350519,"is_reserved":false,"is_disabled":false,"rental_uris":{"android":"levelo://app?vid=1c61d2ed-1285-41d2-bf47-43cdc868c2e3","ios":"levelo://app?vid=1c61d2ed-1285-41d2-bf47-43cdc868c2e3"},"vehicle_type_id":"4","last_reported":1691071562,"current_range_meters":28400,"station_id":"ce4bhbp2rcd13ifvqerg","pricing_plan_id":"free"},{"bike_id":"0d9b1a3e-1be2-416d-b55f-89f8cd552208","system_id":"levelo_inurba_marseille","lat":43.283502,"lon":5.386471,"is_reserved":false,"is_disabled":false,"rental_uris":{"android":"levelo://app?vid=0d9b1a3e-1be2-416d-b55f-89f8cd552208","ios":"levelo://app?vid=0d9b1a3e-1be2-416d-b55f-89f8cd552208"},"vehicle_type_id":"4","last_reported":1691071562,"current_range_meters":31200,"station_id":"ce4bh492rcd13ifvqdvg","pricing_plan_id":"free"},{"bike_id":"03b60b46-7eee-44b4-ac73-053c93a71158","system_id":"levelo_inurba_marseille","lat":43.28271,"lon":5.35055,"is_reserved":false,"is_disabled":false,"rental_uris":{"android":"levelo://app?vid=03b60b46-7eee-44b4-ac73-053c93a71158","ios":"levelo://app?vid=03b60b46-7eee-44b4-ac73-053c93a71158"},"vehicle_type_id":"4","last_reported":1691071562,"current_range_meters":21200,"station_id":"ce4bhbp2rcd13ifvqerg","pricing_plan_id":"free"},{"bike_id":"8f7365e0-529d-4cd2-b7f6-999c01457904","system_id":"levelo_inurba_marseille","lat":43.28269,"lon":5.35057,"is_reserved":false,"is_disabled":false,"rental_uris":{"android":"levelo://app?vid=8f7365e0-529d-4cd2-b7f6-999c01457904","ios":"levelo://app?vid=8f7365e0-529d-4cd2-b7f6-999c01457904"},"vehicle_type_id":"4","last_reported":1691071562,"current_range_meters":21200,"station_id":"ce4bhbp2rcd13ifvqerg","pricing_plan_id":"free"},{"bike_id":"27b4c0f7-bed0-488d-b0ed-3d60b34530ca","system_id":"levelo_inurba_marseille","lat":43.28266,"lon":5.3506,"is_reserved":false,"is_disabled":false,"rental_uris":{"android":"levelo://app?vid=27b4c0f7-bed0-488d-b0ed-3d60b34530ca","ios":"levelo://app?vid=27b4c0f7-bed0-488d-b0ed-3d60b34530ca"},"vehicle_type_id":"4","last_reported":1691071562,"current_range_meters":12400,"station_id":"ce4bhbp2rcd13ifvqerg","pricing_plan_id":"free"},{"bike_id":"ae3d483c-4e08-48ba-8e45-e11e98250a73","system_id":"levelo_inurba_marseille","lat":43.28265,"lon":5.35061,"is_reserved":false,"is_disabled":false,"rental_uris":{"android":"levelo://app?vid=ae3d483c-4e08-48ba-8e45-e11e98250a73","ios":"levelo://app?vid=ae3d483c-4e08-48ba-8e45-e11e98250a73"},"vehicle_type_id":"4","last_reported":1691071562,"current_range_meters":20800,"station_id":"ce4bhbp2rcd13ifvqerg","pricing_plan_id":"free"},{"bike_id":"188f7080-4fab-476b-91d7-b93a3fe090de","system_id":"levelo_inurba_marseille","lat":43.28261,"lon":5.35068,"is_reserved":false,"is_disabled":false,"rental_uris":{"android":"levelo://app?vid=188f7080-4fab-476b-91d7-b93a3fe090de","ios":"levelo://app?vid=188f7080-4fab-476b-91d7-b93a3fe090de"},"vehicle_type_id":"4","last_reported":1691071562,"current_range_meters":18800,"station_id":"ce4bhbp2rcd13ifvqerg","pricing_plan_id":"free"},{"bike_id":"fad6ef86-f865-4379-81e1-54a0721fb971","system_id":"levelo_inurba_marseille","lat":43.283502,"lon":5.386471,"is_reserved":false,"is_disabled":false,"rental_uris":{"android":"levelo://app?vid=fad6ef86-f865-4379-81e1-54a0721fb971","ios":"levelo://app?vid=fad6ef86-f865-4379-81e1-54a0721fb971"},"vehicle_type_id":"4","last_reported":1691071562,"current_range_meters":18800,"station_id":"ce4bh492rcd13ifvqdvg","pricing_plan_id":"free"},{"bike_id":"7f5d87f8-ed1c-4e47-ba30-a33da429fe0d","system_id":"levelo_inurba_marseille","lat":43.28362,"lon":5.38644,"is_reserved":false,"is_disabled":false,"rental_uris":{"android":"levelo://app?vid=7f5d87f8-ed1c-4e47-ba30-a33da429fe0d","ios":"levelo://app?vid=7f5d87f8-ed1c-4e47-ba30-a33da429fe0d"},"vehicle_type_id":"4","last_reported":1691071562,"current_range_meters":30000,"station_id":"ce4bh492rcd13ifvqdvg","pricing_plan_id":"free"},{"bike_id":"f6a4bb13-8743-41c2-b9ef-1b185af6e4c2","system_id":"levelo_inurba_marseille","lat":43.282744,"lon":5.350533,"is_reserved":false,"is_disabled":false,"rental_uris":{"android":"levelo://app?vid=f6a4bb13-8743-41c2-b9ef-1b185af6e4c2","ios":"levelo://app?vid=f6a4bb13-8743-41c2-b9ef-1b185af6e4c2"},"vehicle_type_id":"4","last_reported":1691071562,"current_range_meters":6400,"station_id":"ce4bhbp2rcd13ifvqerg","pricing_plan_id":"free"},{"bike_id":"877bfe80-2093-4b46-81d0-d3922411e947","system_id":"levelo_inurba_marseille","lat":43.28356,"lon":5.38638,"is_reserved":false,"is_disabled":false,"rental_uris":{"android":"levelo://app?vid=877bfe80-2093-4b46-81d0-d3922411e947","ios":"levelo://app?vid=877bfe80-2093-4b46-81d0-d3922411e947"},"vehicle_type_id":"4","last_reported":1691071562,"current_range_meters":31200,"station_id":"ce4bh492rcd13ifvqdvg","pricing_plan_id":"free"},{"bike_id":"11ca9e2a-310f-4d01-88d7-5f415bfc687f","system_id":"levelo_inurba_marseille","lat":43.28039,"lon":5.369297,"is_reserved":false,"is_disabled":false,"rental_uris":{"android":"levelo://app?vid=11ca9e2a-310f-4d01-88d7-5f415bfc687f","ios":"levelo://app?vid=11ca9e2a-310f-4d01-88d7-5f415bfc687f"},"vehicle_type_id":"4","last_reported":1691071562,"current_range_meters":10800,"station_id":"ce4bha12rcd13ifvqef0","pricing_plan_id":"free"},{"bike_id":"d959bbaf-4272-4cb2-a79d-1171899c71eb","system_id":"levelo_inurba_marseille","lat":43.281044,"lon":5.378308,"is_reserved":false,"is_disabled":false,"rental_uris":{"android":"levelo://app?vid=d959bbaf-4272-4cb2-a79d-1171899c71eb","ios":"levelo://app?vid=d959bbaf-4272-4cb2-a79d-1171899c71eb"},"vehicle_type_id":"4","last_reported":1691071562,"current_range_meters":24800,"station_id":"ce4bha12rcd13ifvqee0","pricing_plan_id":"free"},{"bike_id":"c05cf877-6b66-4bf8-a184-12122ed05bf2","system_id":"levelo_inurba_marseille","lat":43.28102,"lon":5.37845,"is_reserved":false,"is_disabled":false,"rental_uris":{"android":"levelo://app?vid=c05cf877-6b66-4bf8-a184-12122ed05bf2","ios":"levelo://app?vid=c05cf877-6b66-4bf8-a184-12122ed05bf2"},"vehicle_type_id":"4","last_reported":1691071562,"current_range_meters":17600,"station_id":"ce4bha12rcd13ifvqee0","pricing_plan_id":"free"},{"bike_id":"3d69808f-e9ac-47ac-b73a-0a9eb4eb9e8d","system_id":"levelo_inurba_marseille","lat":43.281044,"lon":5.378308,"is_reserved":false,"is_disabled":false,"rental_uris":{"android":"levelo://app?vid=3d69808f-e9ac-47ac-b73a-0a9eb4eb9e8d","ios":"levelo://app?vid=3d69808f-e9ac-47ac-b73a-0a9eb4eb9e8d"},"vehicle_type_id":"4","last_reported":1691071562,"current_range_meters":6000,"station_id":"ce4bha12rcd13ifvqee0","pricing_plan_id":"free"},{"bike_id":"c4ff6eea-c693-4218-9bae-3820f7f4611f","system_id":"levelo_inurba_marseille","lat":43.32658,"lon":5.40996,"is_reserved":false,"is_disabled":false,"rental_uris":{"android":"levelo://app?vid=c4ff6eea-c693-4218-9bae-3820f7f4611f","ios":"levelo://app?vid=c4ff6eea-c693-4218-9bae-3820f7f4611f"},"vehicle_type_id":"4","last_reported":1691071562,"current_range_meters":19600,"station_id":"ce4bhpp2rcd13ifvqhgg","pricing_plan_id":"free"},{"bike_id":"9ac1c64a-1fdb-4aa7-81cd-2db8c1d8823b","system_id":"levelo_inurba_marseille","lat":43.279087,"lon":5.380114,"is_reserved":false,"is_disabled":false,"rental_uris":{"android":"levelo://app?vid=9ac1c64a-1fdb-4aa7-81cd-2db8c1d8823b","ios":"levelo://app?vid=9ac1c64a-1fdb-4aa7-81cd-2db8c1d8823b"},"vehicle_type_id":"4","last_reported":1691071562,"current_range_meters":3600,"station_id":"ce4bhf92rcd13ifvqf50","pricing_plan_id":"free"},{"bike_id":"09619061-d6cb-4bec-8528-f3b1a7434cf4","system_id":"levelo_inurba_marseille","lat":43.287154,"lon":5.399979,"is_reserved":false,"is_disabled":false,"rental_uris":{"android":"levelo://app?vid=09619061-d6cb-4bec-8528-f3b1a7434cf4","ios":"levelo://app?vid=09619061-d6cb-4bec-8528-f3b1a7434cf4"},"vehicle_type_id":"4","last_reported":1691071562,"current_range_meters":24400,"station_id":"ce4bho92rcd13ifvqh3g","pricing_plan_id":"free"},{"bike_id":"0b6ce9e8-a205-4dba-98e5-352dfbe0727e","system_id":"levelo_inurba_marseille","lat":43.320045,"lon":5.415046,"is_reserved":false,"is_disabled":false,"rental_uris":{"android":"levelo://app?vid=0b6ce9e8-a205-4dba-98e5-352dfbe0727e","ios":"levelo://app?vid=0b6ce9e8-a205-4dba-98e5-352dfbe0727e"},"vehicle_type_id":"4","last_reported":1691071562,"current_range_meters":31600,"station_id":"ce4bhq92rcd13ifvqhkg","pricing_plan_id":"free"},{"bike_id":"da74851f-183f-4ed8-bc32-44e1d656b516","system_id":"levelo_inurba_marseille","lat":43.32095,"lon":5.41512,"is_reserved":false,"is_disabled":false,"rental_uris":{"android":"levelo://app?vid=da74851f-183f-4ed8-bc32-44e1d656b516","ios":"levelo://app?vid=da74851f-183f-4ed8-bc32-44e1d656b516"},"vehicle_type_id":"4","last_reported":1691071562,"current_range_meters":3200,"station_id":"","pricing_plan_id":"free"},{"bike_id":"e9fbe7f4-c376-4a74-9a01-c2dfa71d30c2","system_id":"levelo_inurba_marseille","lat":43.3209,"lon":5.41514,"is_reserved":false,"is_disabled":false,"rental_uris":{"android":"levelo://app?vid=e9fbe7f4-c376-4a74-9a01-c2dfa71d30c2","ios":"levelo://app?vid=e9fbe7f4-c376-4a74-9a01-c2dfa71d30c2"},"vehicle_type_id":"4","last_reported":1691071562,"current_range_meters":0,"station_id":"","pricing_plan_id":"free"},{"bike_id":"dbfece38-e539-458b-aad8-c13f745a26bd","system_id":"levelo_inurba_marseille","lat":43.32053,"lon":5.41547,"is_reserved":false,"is_disabled":false,"rental_uris":{"android":"levelo://app?vid=dbfece38-e539-458b-aad8-c13f745a26bd","ios":"levelo://app?vid=dbfece38-e539-458b-aad8-c13f745a26bd"},"vehicle_type_id":"4","last_reported":1691071562,"current_range_meters":26400,"station_id":"ce4bhq92rcd13ifvqhkg","pricing_plan_id":"free"},{"bike_id":"ca850695-e7d1-4532-9fc1-51bd3c142b7b","system_id":"levelo_inurba_marseille","lat":43.279742,"lon":5.38744,"is_reserved":false,"is_disabled":false,"rental_uris":{"android":"levelo://app?vid=ca850695-e7d1-4532-9fc1-51bd3c142b7b","ios":"levelo://app?vid=ca850695-e7d1-4532-9fc1-51bd3c142b7b"},"vehicle_type_id":"4","last_reported":1691071562,"current_range_meters":20400,"station_id":"ce4bhg12rcd13ifvqf80","pricing_plan_id":"free"},{"bike_id":"9d73c927-5cbc-4644-8190-4057050a30ca","system_id":"levelo_inurba_marseille","lat":43.320045,"lon":5.415048,"is_reserved":false,"is_disabled":false,"rental_uris":{"android":"levelo://app?vid=9d73c927-5cbc-4644-8190-4057050a30ca","ios":"levelo://app?vid=9d73c927-5cbc-4644-8190-4057050a30ca"},"vehicle_type_id":"4","last_reported":1691071562,"current_range_meters":31200,"station_id":"ce4bhq92rcd13ifvqhkg","pricing_plan_id":"free"},{"bike_id":"c327718a-8fe6-4791-a349-aba0f8f94e82","system_id":"levelo_inurba_marseille","lat":43.279742,"lon":5.38744,"is_reserved":false,"is_disabled":false,"rental_uris":{"android":"levelo://app?vid=c327718a-8fe6-4791-a349-aba0f8f94e82","ios":"levelo://app?vid=c327718a-8fe6-4791-a349-aba0f8f94e82"},"vehicle_type_id":"4","last_reported":1691071562,"current_range_meters":31600,"station_id":"ce4bhg12rcd13ifvqf80","pricing_plan_id":"free"},{"bike_id":"79b308e1-5159-4541-9246-5f285a493d37","system_id":"levelo_inurba_marseille","lat":43.32038,"lon":5.4158,"is_reserved":false,"is_disabled":false,"rental_uris":{"android":"levelo://app?vid=79b308e1-5159-4541-9246-5f285a493d37","ios":"levelo://app?vid=79b308e1-5159-4541-9246-5f285a493d37"},"vehicle_type_id":"4","last_reported":1691071562,"current_range_meters":21600,"station_id":"ce4bhq92rcd13ifvqhkg","pricing_plan_id":"free"},{"bike_id":"b21f904b-9f8c-49ff-8ff0-d6cdfefa6c9e","system_id":"levelo_inurba_marseille","lat":43.32046,"lon":5.41579,"is_reserved":false,"is_disabled":false,"rental_uris":{"android":"levelo://app?vid=b21f904b-9f8c-49ff-8ff0-d6cdfefa6c9e","ios":"levelo://app?vid=b21f904b-9f8c-49ff-8ff0-d6cdfefa6c9e"},"vehicle_type_id":"4","last_reported":1691071562,"current_range_meters":30000,"station_id":"ce4bhq92rcd13ifvqhkg","pricing_plan_id":"free"},{"bike_id":"3f71fd47-c44f-41d9-90d2-dda8a5bc42c2","system_id":"levelo_inurba_marseille","lat":43.325233,"lon":5.414318,"is_reserved":false,"is_disabled":false,"rental_uris":{"android":"levelo://app?vid=3f71fd47-c44f-41d9-90d2-dda8a5bc42c2","ios":"levelo://app?vid=3f71fd47-c44f-41d9-90d2-dda8a5bc42c2"},"vehicle_type_id":"4","last_reported":1691071562,"current_range_meters":23200,"station_id":"ce4bhq12rcd13ifvqhhg","pricing_plan_id":"free"},{"bike_id":"ece3f6e0-9b7f-4ad6-ab5b-8169c4677c6b","system_id":"levelo_inurba_marseille","lat":43.27618,"lon":5.361009,"is_reserved":false,"is_disabled":false,"rental_uris":{"android":"levelo://app?vid=ece3f6e0-9b7f-4ad6-ab5b-8169c4677c6b","ios":"levelo://app?vid=ece3f6e0-9b7f-4ad6-ab5b-8169c4677c6b"},"vehicle_type_id":"4","last_reported":1691071562,"current_range_meters":0,"station_id":"ce4bgj92rcd13ifvqbe0","pricing_plan_id":"free"},{"bike_id":"386ed8e3-b71e-4f68-86af-202c5b76503e","system_id":"levelo_inurba_marseille","lat":43.27618,"lon":5.361009,"is_reserved":false,"is_disabled":false,"rental_uris":{"android":"levelo://app?vid=386ed8e3-b71e-4f68-86af-202c5b76503e","ios":"levelo://app?vid=386ed8e3-b71e-4f68-86af-202c5b76503e"},"vehicle_type_id":"4","last_reported":1691071562,"current_range_meters":21600,"station_id":"ce4bgj92rcd13ifvqbe0","pricing_plan_id":"free"},{"bike_id":"f3411497-2c7c-4687-909b-29dece7ca06b","system_id":"levelo_inurba_marseille","lat":43.325233,"lon":5.414318,"is_reserved":false,"is_disabled":false,"rental_uris":{"android":"levelo://app?vid=f3411497-2c7c-4687-909b-29dece7ca06b","ios":"levelo://app?vid=f3411497-2c7c-4687-909b-29dece7ca06b"},"vehicle_type_id":"4","last_reported":1691071562,"current_range_meters":31600,"station_id":"ce4bhq12rcd13ifvqhhg","pricing_plan_id":"free"},{"bike_id":"dea0d756-b200-4b5f-83e1-2b00424f5cc4","system_id":"levelo_inurba_marseille","lat":43.276107,"lon":5.36112,"is_reserved":false,"is_disabled":false,"rental_uris":{"android":"levelo://app?vid=dea0d756-b200-4b5f-83e1-2b00424f5cc4","ios":"levelo://app?vid=dea0d756-b200-4b5f-83e1-2b00424f5cc4"},"vehicle_type_id":"4","last_reported":1691071562,"current_range_meters":20000,"station_id":"ce4bgj92rcd13ifvqbe0","pricing_plan_id":"free"},{"bike_id":"5858c857-6627-48a1-8e01-483235a02321","system_id":"levelo_inurba_marseille","lat":43.280784,"lon":5.396622,"is_reserved":false,"is_disabled":false,"rental_uris":{"android":"levelo://app?vid=5858c857-6627-48a1-8e01-483235a02321","ios":"levelo://app?vid=5858c857-6627-48a1-8e01-483235a02321"},"vehicle_type_id":"4","last_reported":1691071562,"current_range_meters":0,"station_id":"ce4bho12rcd13ifvqh2g","pricing_plan_id":"free"},{"bike_id":"7ddb58ab-c6fb-4984-901c-b2823a8a629b","system_id":"levelo_inurba_marseille","lat":43.28071,"lon":5.39654,"is_reserved":false,"is_disabled":false,"rental_uris":{"android":"levelo://app?vid=7ddb58ab-c6fb-4984-901c-b2823a8a629b","ios":"levelo://app?vid=7ddb58ab-c6fb-4984-901c-b2823a8a629b"},"vehicle_type_id":"4","last_reported":1691071562,"current_range_meters":0,"station_id":"ce4bho12rcd13ifvqh2g","pricing_plan_id":"free"},{"bike_id":"05c45c5c-487f-4c36-85cb-cf4607186775","system_id":"levelo_inurba_marseille","lat":43.28644,"lon":5.40603,"is_reserved":false,"is_disabled":false,"rental_uris":{"android":"levelo://app?vid=05c45c5c-487f-4c36-85cb-cf4607186775","ios":"levelo://app?vid=05c45c5c-487f-4c36-85cb-cf4607186775"},"vehicle_type_id":"4","last_reported":1691071562,"current_range_meters":22400,"station_id":"","pricing_plan_id":"free"},{"bike_id":"3aa1f8b3-85a6-4715-bb3d-3f615edb5ee0","system_id":"levelo_inurba_marseille","lat":43.278399,"lon":5.392139,"is_reserved":false,"is_disabled":false,"rental_uris":{"android":"levelo://app?vid=3aa1f8b3-85a6-4715-bb3d-3f615edb5ee0","ios":"levelo://app?vid=3aa1f8b3-85a6-4715-bb3d-3f615edb5ee0"},"vehicle_type_id":"4","last_reported":1691071562,"current_range_meters":11600,"station_id":"ce4bhjp2rcd13ifvqga0","pricing_plan_id":"free"},{"bike_id":"ce98cf73-028e-4163-b036-108015f10e08","system_id":"levelo_inurba_marseille","lat":43.278399,"lon":5.392139,"is_reserved":false,"is_disabled":false,"rental_uris":{"android":"levelo://app?vid=ce98cf73-028e-4163-b036-108015f10e08","ios":"levelo://app?vid=ce98cf73-028e-4163-b036-108015f10e08"},"vehicle_type_id":"4","last_reported":1691071562,"current_range_meters":4000,"station_id":"ce4bhjp2rcd13ifvqga0","pricing_plan_id":"free"},{"bike_id":"729e0421-a695-4529-8985-2230d4503b9b","system_id":"levelo_inurba_marseille","lat":43.278401,"lon":5.392152,"is_reserved":false,"is_disabled":false,"rental_uris":{"android":"levelo://app?vid=729e0421-a695-4529-8985-2230d4503b9b","ios":"levelo://app?vid=729e0421-a695-4529-8985-2230d4503b9b"},"vehicle_type_id":"4","last_reported":1691071562,"current_range_meters":31600,"station_id":"ce4bhjp2rcd13ifvqga0","pricing_plan_id":"free"},{"bike_id":"76828673-f033-466c-a780-d7d7a79550b1","system_id":"levelo_inurba_marseille","lat":43.273613,"lon":5.362705,"is_reserved":false,"is_disabled":false,"rental_uris":{"android":"levelo://app?vid=76828673-f033-466c-a780-d7d7a79550b1","ios":"levelo://app?vid=76828673-f033-466c-a780-d7d7a79550b1"},"vehicle_type_id":"4","last_reported":1691071562,"current_range_meters":12000,"station_id":"ce4bhbh2rcd13ifvqeo0","pricing_plan_id":"free"},{"bike_id":"dce46d5c-500f-4a0d-ab6e-3ba41359bf22","system_id":"levelo_inurba_marseille","lat":43.273609,"lon":5.362708,"is_reserved":false,"is_disabled":false,"rental_uris":{"android":"levelo://app?vid=dce46d5c-500f-4a0d-ab6e-3ba41359bf22","ios":"levelo://app?vid=dce46d5c-500f-4a0d-ab6e-3ba41359bf22"},"vehicle_type_id":"4","last_reported":1691071562,"current_range_meters":31600,"station_id":"ce4bhbh2rcd13ifvqeo0","pricing_plan_id":"free"},{"bike_id":"ef9c2c49-3a38-4f3f-b851-f2cd3001ab90","system_id":"levelo_inurba_marseille","lat":43.273613,"lon":5.362705,"is_reserved":false,"is_disabled":false,"rental_uris":{"android":"levelo://app?vid=ef9c2c49-3a38-4f3f-b851-f2cd3001ab90","ios":"levelo://app?vid=ef9c2c49-3a38-4f3f-b851-f2cd3001ab90"},"vehicle_type_id":"4","last_reported":1691071562,"current_range_meters":19600,"station_id":"ce4bhbh2rcd13ifvqeo0","pricing_plan_id":"free"},{"bike_id":"17e0a33e-07d2-423f-bd69-22350aad8b32","system_id":"levelo_inurba_marseille","lat":43.273609,"lon":5.362708,"is_reserved":false,"is_disabled":false,"rental_uris":{"android":"levelo://app?vid=17e0a33e-07d2-423f-bd69-22350aad8b32","ios":"levelo://app?vid=17e0a33e-07d2-423f-bd69-22350aad8b32"},"vehicle_type_id":"4","last_reported":1691071562,"current_range_meters":25600,"station_id":"ce4bhbh2rcd13ifvqeo0","pricing_plan_id":"free"},{"bike_id":"a179c8f7-40ef-467f-998a-71431dc5eee4","system_id":"levelo_inurba_marseille","lat":43.273609,"lon":5.362708,"is_reserved":false,"is_disabled":false,"rental_uris":{"android":"levelo://app?vid=a179c8f7-40ef-467f-998a-71431dc5eee4","ios":"levelo://app?vid=a179c8f7-40ef-467f-998a-71431dc5eee4"},"vehicle_type_id":"4","last_reported":1691071562,"current_range_meters":18800,"station_id":"ce4bhbh2rcd13ifvqeo0","pricing_plan_id":"free"},{"bike_id":"ee5c7946-ad9a-4da1-b817-68ba01d97c87","system_id":"levelo_inurba_marseille","lat":43.273613,"lon":5.362705,"is_reserved":false,"is_disabled":false,"rental_uris":{"android":"levelo://app?vid=ee5c7946-ad9a-4da1-b817-68ba01d97c87","ios":"levelo://app?vid=ee5c7946-ad9a-4da1-b817-68ba01d97c87"},"vehicle_type_id":"4","last_reported":1691071562,"current_range_meters":3600,"station_id":"ce4bhbh2rcd13ifvqeo0","pricing_plan_id":"free"},{"bike_id":"2b876f7e-ec2a-47fb-9697-f6fe645d7b0f","system_id":"levelo_inurba_marseille","lat":43.273613,"lon":5.362705,"is_reserved":false,"is_disabled":false,"rental_uris":{"android":"levelo://app?vid=2b876f7e-ec2a-47fb-9697-f6fe645d7b0f","ios":"levelo://app?vid=2b876f7e-ec2a-47fb-9697-f6fe645d7b0f"},"vehicle_type_id":"4","last_reported":1691071562,"current_range_meters":800,"station_id":"ce4bhbh2rcd13ifvqeo0","pricing_plan_id":"free"},{"bike_id":"6b4a5589-45a3-461e-8163-c02abe58a720","system_id":"levelo_inurba_marseille","lat":43.275625,"lon":5.384392,"is_reserved":false,"is_disabled":false,"rental_uris":{"android":"levelo://app?vid=6b4a5589-45a3-461e-8163-c02abe58a720","ios":"levelo://app?vid=6b4a5589-45a3-461e-8163-c02abe58a720"},