{"last_updated":1744024104,"ttl":60,"version":"2.2","data":{"bikes":[{"bike_id":"f86cc2cd-7959-4959-bc7f-b10918cdd349","system_id":"levelo_inurba_marseille","lat":43.241683,"lon":5.363968,"is_reserved":false,"is_disabled":true,"rental_uris":{"android":"levelo://app?vid=f86cc2cd-7959-4959-bc7f-b10918cdd349","ios":"levelo://app?vid=f86cc2cd-7959-4959-bc7f-b10918cdd349"},"vehicle_type_id":"4","last_reported":1744024104,"current_range_meters":2800,"station_id":"ce4bh412rcd13ifvqdr0","pricing_plan_id":"cebpf4jnsgd1na2vs0mg"},{"bike_id":"ec3d67c2-670c-4b73-99ed-2fbb3b188884","system_id":"levelo_inurba_marseille","lat":43.29253,"lon":5.40154,"is_reserved":false,"is_disabled":false,"rental_uris":{"android":"levelo://app?vid=ec3d67c2-670c-4b73-99ed-2fbb3b188884","ios":"levelo://app?vid=ec3d67c2-670c-4b73-99ed-2fbb3b188884"},"vehicle_type_id":"4","last_reported":1744024104,"current_range_meters":2800,"station_id":"ce4bh312rcd13ifvqdk0","pricing_plan_id":"cebpf4jnsgd1na2vs0mg"},{"bike_id":"f684ca77-c98c-477e-afa4-a627438419b8","system_id":"levelo_inurba_marseille","lat":43.297882,"lon":5.371197,"is_reserved":false,"is_disabled":false,"rental_uris":{"android":"levelo://app?vid=f684ca77-c98c-477e-afa4-a627438419b8","ios":"levelo://app?vid=f684ca77-c98c-477e-afa4-a627438419b8"},"vehicle_type_id":"4","last_reported":1744024104,"current_range_meters":2000,"station_id":"ce4bgop2rcd13ifvqc1g","pricing_plan_id":"cebpf4jnsgd1na2vs0mg"},{"bike_id":"7e9f16f7-394c-490d-95de-69098b11fce3","system_id":"levelo_inurba_marseille","lat":43.31229,"lon":5.36847,"is_reserved":false,"is_disabled":false,"rental_uris":{"android":"levelo://app?vid=7e9f16f7-394c-490d-95de-69098b11fce3","ios":"levelo://app?vid=7e9f16f7-394c-490d-95de-69098b11fce3"},"vehicle_type_id":"4","last_reported":1744024104,"current_range_meters":2800,"station_id":"ce4bgl92rcd13ifvqbq0","pricing_plan_id":"cebpf4jnsgd1na2vs0mg"},{"bike_id":"0d96216e-6006-40a6-91ec-33efdf4df2b1","system_id":"levelo_inurba_marseille","lat":43.31353,"lon":5.384954,"is_reserved":false,"is_disabled":true,"rental_uris":{"android":"levelo://app?vid=0d96216e-6006-40a6-91ec-33efdf4df2b1","ios":"levelo://app?vid=0d96216e-6006-40a6-91ec-33efdf4df2b1"},"vehicle_type_id":"4","last_reported":1744024104,"current_range_meters":3200,"station_id":"ce4bgt92rcd13ifvqcf0","pricing_plan_id":"cebpf4jnsgd1na2vs0mg"},{"bike_id":"4b5425af-44b8-42c0-86c8-6ea20e975e5c","system_id":"levelo_inurba_marseille","lat":43.30548,"lon":5.36543,"is_reserved":false,"is_disabled":false,"rental_uris":{"android":"levelo://app?vid=4b5425af-44b8-42c0-86c8-6ea20e975e5c","ios":"levelo://app?vid=4b5425af-44b8-42c0-86c8-6ea20e975e5c"},"vehicle_type_id":"4","last_reported":1744024104,"current_range_meters":3600,"station_id":"ce4bgs12rcd13ifvqcag","pricing_plan_id":"cebpf4jnsgd1na2vs0mg"},{"bike_id":"9378cab7-1ef7-47d6-af28-c6473192be1a","system_id":"levelo_inurba_marseille","lat":43.31177,"lon":5.40777,"is_reserved":false,"is_disabled":false,"rental_uris":{"android":"levelo://app?vid=9378cab7-1ef7-47d6-af28-c6473192be1a","ios":"levelo://app?vid=9378cab7-1ef7-47d6-af28-c6473192be1a"},"vehicle_type_id":"4","last_reported":1744024104,"current_range_meters":3600,"station_id":"","pricing_plan_id":"cebpf4jnsgd1na2vs0mg"},{"bike_id":"5f76fc46-d715-4dce-a0e2-76dbb30b0a9a","system_id":"levelo_inurba_marseille","lat":43.25934,"lon":5.40911,"is_reserved":false,"is_disabled":false,"rental_uris":{"android":"levelo://app?vid=5f76fc46-d715-4dce-a0e2-76dbb30b0a9a","ios":"levelo://app?vid=5f76fc46-d715-4dce-a0e2-76dbb30b0a9a"},"vehicle_type_id":"4","last_reported":1744024104,"current_range_meters":3600,"station_id":"ce4bhm92rcd13ifvqglg","pricing_plan_id":"cebpf4jnsgd1na2vs0mg"},{"bike_id":"c1504c46-7547-4a19-ae73-5a1b17ffd8c1","system_id":"levelo_inurba_marseille","lat":43.26554,"lon":5.37314,"is_reserved":false,"is_disabled":false,"rental_uris":{"android":"levelo://app?vid=c1504c46-7547-4a19-ae73-5a1b17ffd8c1","ios":"levelo://app?vid=c1504c46-7547-4a19-ae73-5a1b17ffd8c1"},"vehicle_type_id":"4","last_reported":1744024104,"current_range_meters":4000,"station_id":"ce4bhg12rcd13ifvqf70","pricing_plan_id":"cebpf4jnsgd1na2vs0mg"},{"bike_id":"d686209d-ea97-47f4-9d77-a6bd3ed2266c","system_id":"levelo_inurba_marseille","lat":43.33598,"lon":5.41036,"is_reserved":false,"is_disabled":false,"rental_uris":{"android":"levelo://app?vid=d686209d-ea97-47f4-9d77-a6bd3ed2266c","ios":"levelo://app?vid=d686209d-ea97-47f4-9d77-a6bd3ed2266c"},"vehicle_type_id":"4","last_reported":1744024104,"current_range_meters":4000,"station_id":"ce4bhqh2rcd13ifvqhmg","pricing_plan_id":"cebpf4jnsgd1na2vs0mg"},{"bike_id":"eb79d1f9-7c91-4ea2-b5f8-796189743e1a","system_id":"levelo_inurba_marseille","lat":43.34326,"lon":5.3803,"is_reserved":false,"is_disabled":true,"rental_uris":{"android":"levelo://app?vid=eb79d1f9-7c91-4ea2-b5f8-796189743e1a","ios":"levelo://app?vid=eb79d1f9-7c91-4ea2-b5f8-796189743e1a"},"vehicle_type_id":"4","last_reported":1744024104,"current_range_meters":4400,"station_id":"","pricing_plan_id":"cebpf4jnsgd1na2vs0mg"},{"bike_id":"46aaf249-f504-46ae-93ce-7245839b78b5","system_id":"levelo_inurba_marseille","lat":43.26219,"lon":5.37909,"is_reserved":false,"is_disabled":true,"rental_uris":{"android":"levelo://app?vid=46aaf249-f504-46ae-93ce-7245839b78b5","ios":"levelo://app?vid=46aaf249-f504-46ae-93ce-7245839b78b5"},"vehicle_type_id":"4","last_reported":1744024104,"current_range_meters":4400,"station_id":"ce4bhjp2rcd13ifvqg90","pricing_plan_id":"cebpf4jnsgd1na2vs0mg"},{"bike_id":"620b9284-a283-4a50-82ff-ec39b41f1a89","system_id":"levelo_inurba_marseille","lat":43.30429,"lon":5.37851,"is_reserved":false,"is_disabled":false,"rental_uris":{"android":"levelo://app?vid=620b9284-a283-4a50-82ff-ec39b41f1a89","ios":"levelo://app?vid=620b9284-a283-4a50-82ff-ec39b41f1a89"},"vehicle_type_id":"4","last_reported":1744024104,"current_range_meters":4400,"station_id":"","pricing_plan_id":"cebpf4jnsgd1na2vs0mg"},{"bike_id":"2bd0252e-e6aa-444f-933b-a052fd77f984","system_id":"levelo_inurba_marseille","lat":43.259379,"lon":5.409005,"is_reserved":false,"is_disabled":false,"rental_uris":{"android":"levelo://app?vid=2bd0252e-e6aa-444f-933b-a052fd77f984","ios":"levelo://app?vid=2bd0252e-e6aa-444f-933b-a052fd77f984"},"vehicle_type_id":"4","last_reported":1744024104,"current_range_meters":4400,"station_id":"ce4bhm92rcd13ifvqglg","pricing_plan_id":"cebpf4jnsgd1na2vs0mg"},{"bike_id":"660d99f1-cadb-413d-82ad-e49e35dc1993","system_id":"levelo_inurba_marseille","lat":43.30948,"lon":5.39035,"is_reserved":false,"is_disabled":false,"rental_uris":{"android":"levelo://app?vid=660d99f1-cadb-413d-82ad-e49e35dc1993","ios":"levelo://app?vid=660d99f1-cadb-413d-82ad-e49e35dc1993"},"vehicle_type_id":"4","last_reported":1744024104,"current_range_meters":4800,"station_id":"ce4bgup2rcd13ifvqco0","pricing_plan_id":"cebpf4jnsgd1na2vs0mg"},{"bike_id":"694a7586-f602-4016-b8b3-0e6d68879fbd","system_id":"levelo_inurba_marseille","lat":43.31365,"lon":5.36738,"is_reserved":false,"is_disabled":true,"rental_uris":{"android":"levelo://app?vid=694a7586-f602-4016-b8b3-0e6d68879fbd","ios":"levelo://app?vid=694a7586-f602-4016-b8b3-0e6d68879fbd"},"vehicle_type_id":"4","last_reported":1744024104,"current_range_meters":4800,"station_id":"ce4bgr92rcd13ifvqc6g","pricing_plan_id":"cebpf4jnsgd1na2vs0mg"},{"bike_id":"4815b711-7def-4ca4-828f-f82d5b3e3191","system_id":"levelo_inurba_marseille","lat":43.2315,"lon":5.43723,"is_reserved":false,"is_disabled":false,"rental_uris":{"android":"levelo://app?vid=4815b711-7def-4ca4-828f-f82d5b3e3191","ios":"levelo://app?vid=4815b711-7def-4ca4-828f-f82d5b3e3191"},"vehicle_type_id":"4","last_reported":1744024104,"current_range_meters":4800,"station_id":"ce4bhmp2rcd13ifvqgog","pricing_plan_id":"cebpf4jnsgd1na2vs0mg"},{"bike_id":"9278748f-fc10-494c-984d-5d002d924cec","system_id":"levelo_inurba_marseille","lat":43.27499,"lon":5.424615,"is_reserved":false,"is_disabled":false,"rental_uris":{"android":"levelo://app?vid=9278748f-fc10-494c-984d-5d002d924cec","ios":"levelo://app?vid=9278748f-fc10-494c-984d-5d002d924cec"},"vehicle_type_id":"4","last_reported":1744024104,"current_range_meters":5600,"station_id":"ce4bhn92rcd13ifvqgrg","pricing_plan_id":"cebpf4jnsgd1na2vs0mg"},{"bike_id":"09764cee-8724-44c1-b501-307abe5b537a","system_id":"levelo_inurba_marseille","lat":43.32092,"lon":5.36804,"is_reserved":false,"is_disabled":false,"rental_uris":{"android":"levelo://app?vid=09764cee-8724-44c1-b501-307abe5b537a","ios":"levelo://app?vid=09764cee-8724-44c1-b501-307abe5b537a"},"vehicle_type_id":"4","last_reported":1744024104,"current_range_meters":6000,"station_id":"ce4bhrh2rcd13ifvqhug","pricing_plan_id":"cebpf4jnsgd1na2vs0mg"},{"bike_id":"38ae81b3-edcc-4763-8880-8b0fde623123","system_id":"levelo_inurba_marseille","lat":43.23153,"lon":5.43735,"is_reserved":false,"is_disabled":false,"rental_uris":{"android":"levelo://app?vid=38ae81b3-edcc-4763-8880-8b0fde623123","ios":"levelo://app?vid=38ae81b3-edcc-4763-8880-8b0fde623123"},"vehicle_type_id":"4","last_reported":1744024104,"current_range_meters":6000,"station_id":"ce4bhmp2rcd13ifvqgog","pricing_plan_id":"cebpf4jnsgd1na2vs0mg"},{"bike_id":"45656cd8-d332-4461-af1d-d61ecbca0668","system_id":"levelo_inurba_marseille","lat":43.3227,"lon":5.36827,"is_reserved":false,"is_disabled":false,"rental_uris":{"android":"levelo://app?vid=45656cd8-d332-4461-af1d-d61ecbca0668","ios":"levelo://app?vid=45656cd8-d332-4461-af1d-d61ecbca0668"},"vehicle_type_id":"4","last_reported":1744024104,"current_range_meters":6000,"station_id":"","pricing_plan_id":"cebpf4jnsgd1na2vs0mg"},{"bike_id":"e47a7fb5-06ef-4bf0-81cb-043a0aefc362","system_id":"levelo_inurba_marseille","lat":43.29778,"lon":5.39346,"is_reserved":false,"is_disabled":false,"rental_uris":{"android":"levelo://app?vid=e47a7fb5-06ef-4bf0-81cb-043a0aefc362","ios":"levelo://app?vid=e47a7fb5-06ef-4bf0-81cb-043a0aefc362"},"vehicle_type_id":"4","last_reported":1744024104,"current_range_meters":6400,"station_id":"chh1huq6cuj3fo74tm60","pricing_plan_id":"cebpf4jnsgd1na2vs0mg"},{"bike_id":"85b5802f-c53f-4b16-a2b8-76aacc9ae178","system_id":"levelo_inurba_marseille","lat":43.22937,"lon":5.35375,"is_reserved":false,"is_disabled":false,"rental_uris":{"android":"levelo://app?vid=85b5802f-c53f-4b16-a2b8-76aacc9ae178","ios":"levelo://app?vid=85b5802f-c53f-4b16-a2b8-76aacc9ae178"},"vehicle_type_id":"4","last_reported":1744024104,"current_range_meters":6400,"station_id":"cpo3532slgdg3j2ikp40","pricing_plan_id":"cebpf4jnsgd1na2vs0mg"},{"bike_id":"33455205-ab4a-4189-a49c-dfe86ae13355","system_id":"levelo_inurba_marseille","lat":43.255696,"lon":5.400717,"is_reserved":false,"is_disabled":false,"rental_uris":{"android":"levelo://app?vid=33455205-ab4a-4189-a49c-dfe86ae13355","ios":"levelo://app?vid=33455205-ab4a-4189-a49c-dfe86ae13355"},"vehicle_type_id":"4","last_reported":1744024104,"current_range_meters":6800,"station_id":"ce4bhlh2rcd13ifvqgig","pricing_plan_id":"cebpf4jnsgd1na2vs0mg"},{"bike_id":"1d6f3057-f8f7-4009-89c3-a3edbfb45073","system_id":"levelo_inurba_marseille","lat":43.28144,"lon":5.42653,"is_reserved":false,"is_disabled":false,"rental_uris":{"android":"levelo://app?vid=1d6f3057-f8f7-4009-89c3-a3edbfb45073","ios":"levelo://app?vid=1d6f3057-f8f7-4009-89c3-a3edbfb45073"},"vehicle_type_id":"4","last_reported":1744024104,"current_range_meters":6800,"station_id":"ce4bhnh2rcd13ifvqgug","pricing_plan_id":"cebpf4jnsgd1na2vs0mg"},{"bike_id":"a8eea469-d449-4fc9-8725-56c2038b48c9","system_id":"levelo_inurba_marseille","lat":43.298889,"lon":5.388548,"is_reserved":false,"is_disabled":false,"rental_uris":{"android":"levelo://app?vid=a8eea469-d449-4fc9-8725-56c2038b48c9","ios":"levelo://app?vid=a8eea469-d449-4fc9-8725-56c2038b48c9"},"vehicle_type_id":"4","last_reported":1744024104,"current_range_meters":6800,"station_id":"ce4bghh2rcd13ifvqb60","pricing_plan_id":"cebpf4jnsgd1na2vs0mg"},{"bike_id":"ad4d36ee-4ace-4017-b1a2-48c4f7e23651","system_id":"levelo_inurba_marseille","lat":43.2593,"lon":5.40915,"is_reserved":false,"is_disabled":false,"rental_uris":{"android":"levelo://app?vid=ad4d36ee-4ace-4017-b1a2-48c4f7e23651","ios":"levelo://app?vid=ad4d36ee-4ace-4017-b1a2-48c4f7e23651"},"vehicle_type_id":"4","last_reported":1744024104,"current_range_meters":6800,"station_id":"ce4bhm92rcd13ifvqglg","pricing_plan_id":"cebpf4jnsgd1na2vs0mg"},{"bike_id":"78505195-b1f7-4255-bb59-0959f6e3552f","system_id":"levelo_inurba_marseille","lat":43.254,"lon":5.41907,"is_reserved":false,"is_disabled":false,"rental_uris":{"android":"levelo://app?vid=78505195-b1f7-4255-bb59-0959f6e3552f","ios":"levelo://app?vid=78505195-b1f7-4255-bb59-0959f6e3552f"},"vehicle_type_id":"4","last_reported":1744024104,"current_range_meters":7200,"station_id":"","pricing_plan_id":"cebpf4jnsgd1na2vs0mg"},{"bike_id":"2fe9a66c-2512-40ef-8d0d-a70ae0137933","system_id":"levelo_inurba_marseille","lat":43.30237,"lon":5.400374,"is_reserved":false,"is_disabled":true,"rental_uris":{"android":"levelo://app?vid=2fe9a66c-2512-40ef-8d0d-a70ae0137933","ios":"levelo://app?vid=2fe9a66c-2512-40ef-8d0d-a70ae0137933"},"vehicle_type_id":"4","last_reported":1744024104,"current_range_meters":7200,"station_id":"ce4bgvh2rcd13ifvqcs0","pricing_plan_id":"cebpf4jnsgd1na2vs0mg"},{"bike_id":"da2d057d-b3e2-4a7b-8f1b-e83ff2e14dcf","system_id":"levelo_inurba_marseille","lat":43.2501,"lon":5.38914,"is_reserved":false,"is_disabled":false,"rental_uris":{"android":"levelo://app?vid=da2d057d-b3e2-4a7b-8f1b-e83ff2e14dcf","ios":"levelo://app?vid=da2d057d-b3e2-4a7b-8f1b-e83ff2e14dcf"},"vehicle_type_id":"4","last_reported":1744024104,"current_range_meters":7200,"station_id":"ce4bhgp2rcd13ifvqfd0","pricing_plan_id":"cebpf4jnsgd1na2vs0mg"},{"bike_id":"ae177ea0-fe1f-468d-b7b5-be31062d3503","system_id":"levelo_inurba_marseille","lat":43.296775,"lon":5.377136,"is_reserved":false,"is_disabled":false,"rental_uris":{"android":"levelo://app?vid=ae177ea0-fe1f-468d-b7b5-be31062d3503","ios":"levelo://app?vid=ae177ea0-fe1f-468d-b7b5-be31062d3503"},"vehicle_type_id":"4","last_reported":1744024104,"current_range_meters":7200,"station_id":"ce4bhh92rcd13ifvqfj0","pricing_plan_id":"cebpf4jnsgd1na2vs0mg"},{"bike_id":"00393ee2-317d-4e98-a30d-fd25773ef49f","system_id":"levelo_inurba_marseille","lat":43.35228,"lon":5.35812,"is_reserved":false,"is_disabled":false,"rental_uris":{"android":"levelo://app?vid=00393ee2-317d-4e98-a30d-fd25773ef49f","ios":"levelo://app?vid=00393ee2-317d-4e98-a30d-fd25773ef49f"},"vehicle_type_id":"4","last_reported":1744024104,"current_range_meters":7200,"station_id":"","pricing_plan_id":"cebpf4jnsgd1na2vs0mg"},{"bike_id":"978dc6d4-6882-4790-bb24-aa33d4bf6a76","system_id":"levelo_inurba_marseille","lat":43.30883,"lon":5.39659,"is_reserved":false,"is_disabled":false,"rental_uris":{"android":"levelo://app?vid=978dc6d4-6882-4790-bb24-aa33d4bf6a76","ios":"levelo://app?vid=978dc6d4-6882-4790-bb24-aa33d4bf6a76"},"vehicle_type_id":"4","last_reported":1744024104,"current_range_meters":7200,"station_id":"ce4bh012rcd13ifvqcv0","pricing_plan_id":"cebpf4jnsgd1na2vs0mg"},{"bike_id":"c5839f54-bef9-4a08-b316-2e6cff1ea8d7","system_id":"levelo_inurba_marseille","lat":43.23139,"lon":5.4367,"is_reserved":false,"is_disabled":false,"rental_uris":{"android":"levelo://app?vid=c5839f54-bef9-4a08-b316-2e6cff1ea8d7","ios":"levelo://app?vid=c5839f54-bef9-4a08-b316-2e6cff1ea8d7"},"vehicle_type_id":"4","last_reported":1744024104,"current_range_meters":7200,"station_id":"ce4bhmp2rcd13ifvqgog","pricing_plan_id":"cebpf4jnsgd1na2vs0mg"},{"bike_id":"4d48c8d5-3d7f-4ef9-8a91-7ac033beef88","system_id":"levelo_inurba_marseille","lat":43.30431,"lon":5.39745,"is_reserved":false,"is_disabled":false,"rental_uris":{"android":"levelo://app?vid=4d48c8d5-3d7f-4ef9-8a91-7ac033beef88","ios":"levelo://app?vid=4d48c8d5-3d7f-4ef9-8a91-7ac033beef88"},"vehicle_type_id":"4","last_reported":1744024104,"current_range_meters":7200,"station_id":"ce4bh092rcd13ifvqd20","pricing_plan_id":"cebpf4jnsgd1na2vs0mg"},{"bike_id":"97045fe9-f264-4b05-93e3-8dc052408e14","system_id":"levelo_inurba_marseille","lat":43.31477,"lon":5.37344,"is_reserved":false,"is_disabled":false,"rental_uris":{"android":"levelo://app?vid=97045fe9-f264-4b05-93e3-8dc052408e14","ios":"levelo://app?vid=97045fe9-f264-4b05-93e3-8dc052408e14"},"vehicle_type_id":"4","last_reported":1744024104,"current_range_meters":7200,"station_id":"ce4bgt12rcd13ifvqcd0","pricing_plan_id":"cebpf4jnsgd1na2vs0mg"},{"bike_id":"1a24ccaa-0a73-4a13-b613-b350ba531322","system_id":"levelo_inurba_marseille","lat":43.29061,"lon":5.35909,"is_reserved":false,"is_disabled":false,"rental_uris":{"android":"levelo://app?vid=1a24ccaa-0a73-4a13-b613-b350ba531322","ios":"levelo://app?vid=1a24ccaa-0a73-4a13-b613-b350ba531322"},"vehicle_type_id":"4","last_reported":1744024104,"current_range_meters":7200,"station_id":"ce4bha92rcd13ifvqeg0","pricing_plan_id":"cebpf4jnsgd1na2vs0mg"},{"bike_id":"1f8d1e21-f657-42c0-bf7b-10b968483646","system_id":"levelo_inurba_marseille","lat":43.31245,"lon":5.36873,"is_reserved":false,"is_disabled":false,"rental_uris":{"android":"levelo://app?vid=1f8d1e21-f657-42c0-bf7b-10b968483646","ios":"levelo://app?vid=1f8d1e21-f657-42c0-bf7b-10b968483646"},"vehicle_type_id":"4","last_reported":1744024104,"current_range_meters":7200,"station_id":"ce4bgl92rcd13ifvqbq0","pricing_plan_id":"cebpf4jnsgd1na2vs0mg"},{"bike_id":"104fa708-46b3-4372-bb3d-5a274078b566","system_id":"levelo_inurba_marseille","lat":43.23149,"lon":5.43716,"is_reserved":false,"is_disabled":false,"rental_uris":{"android":"levelo://app?vid=104fa708-46b3-4372-bb3d-5a274078b566","ios":"levelo://app?vid=104fa708-46b3-4372-bb3d-5a274078b566"},"vehicle_type_id":"4","last_reported":1744024104,"current_range_meters":7200,"station_id":"ce4bhmp2rcd13ifvqgog","pricing_plan_id":"cebpf4jnsgd1na2vs0mg"},{"bike_id":"136b6e45-ee21-453e-aa22-e07947db9071","system_id":"levelo_inurba_marseille","lat":43.231545,"lon":5.437026,"is_reserved":false,"is_disabled":true,"rental_uris":{"android":"levelo://app?vid=136b6e45-ee21-453e-aa22-e07947db9071","ios":"levelo://app?vid=136b6e45-ee21-453e-aa22-e07947db9071"},"vehicle_type_id":"4","last_reported":1744024104,"current_range_meters":7200,"station_id":"ce4bhmp2rcd13ifvqgog","pricing_plan_id":"cebpf4jnsgd1na2vs0mg"},{"bike_id":"599cd34c-20ae-429b-a3d3-757fcae68040","system_id":"levelo_inurba_marseille","lat":43.31199,"lon":5.36879,"is_reserved":false,"is_disabled":false,"rental_uris":{"android":"levelo://app?vid=599cd34c-20ae-429b-a3d3-757fcae68040","ios":"levelo://app?vid=599cd34c-20ae-429b-a3d3-757fcae68040"},"vehicle_type_id":"4","last_reported":1744024104,"current_range_meters":8000,"station_id":"ce4bgl92rcd13ifvqbq0","pricing_plan_id":"cebpf4jnsgd1na2vs0mg"},{"bike_id":"6b79c190-08a0-493c-b3e0-7480ca940237","system_id":"levelo_inurba_marseille","lat":43.25932,"lon":5.40912,"is_reserved":false,"is_disabled":false,"rental_uris":{"android":"levelo://app?vid=6b79c190-08a0-493c-b3e0-7480ca940237","ios":"levelo://app?vid=6b79c190-08a0-493c-b3e0-7480ca940237"},"vehicle_type_id":"4","last_reported":1744024104,"current_range_meters":8000,"station_id":"ce4bhm92rcd13ifvqglg","pricing_plan_id":"cebpf4jnsgd1na2vs0mg"},{"bike_id":"590bd0e2-9f1d-4e6f-9e37-05bb0e5ae5dc","system_id":"levelo_inurba_marseille","lat":43.29889,"lon":5.36372,"is_reserved":false,"is_disabled":false,"rental_uris":{"android":"levelo://app?vid=590bd0e2-9f1d-4e6f-9e37-05bb0e5ae5dc","ios":"levelo://app?vid=590bd0e2-9f1d-4e6f-9e37-05bb0e5ae5dc"},"vehicle_type_id":"4","last_reported":1744024104,"current_range_meters":8000,"station_id":"","pricing_plan_id":"cebpf4jnsgd1na2vs0mg"},{"bike_id":"2cd7ef9b-a726-4134-9830-a54c0abc7b06","system_id":"levelo_inurba_marseille","lat":43.24159,"lon":5.39735,"is_reserved":false,"is_disabled":false,"rental_uris":{"android":"levelo://app?vid=2cd7ef9b-a726-4134-9830-a54c0abc7b06","ios":"levelo://app?vid=2cd7ef9b-a726-4134-9830-a54c0abc7b06"},"vehicle_type_id":"4","last_reported":1744024104,"current_range_meters":8000,"station_id":"ce4bhn12rcd13ifvqgpg","pricing_plan_id":"cebpf4jnsgd1na2vs0mg"},{"bike_id":"aba5e844-f429-4fca-8fbd-34616f5265a2","system_id":"levelo_inurba_marseille","lat":43.28159,"lon":5.42646,"is_reserved":false,"is_disabled":false,"rental_uris":{"android":"levelo://app?vid=aba5e844-f429-4fca-8fbd-34616f5265a2","ios":"levelo://app?vid=aba5e844-f429-4fca-8fbd-34616f5265a2"},"vehicle_type_id":"4","last_reported":1744024104,"current_range_meters":8000,"station_id":"ce4bhnh2rcd13ifvqgug","pricing_plan_id":"cebpf4jnsgd1na2vs0mg"},{"bike_id":"f56fa8c2-6991-4db5-9b1b-225fe2c50caf","system_id":"levelo_inurba_marseille","lat":43.28167,"lon":5.42666,"is_reserved":false,"is_disabled":false,"rental_uris":{"android":"levelo://app?vid=f56fa8c2-6991-4db5-9b1b-225fe2c50caf","ios":"levelo://app?vid=f56fa8c2-6991-4db5-9b1b-225fe2c50caf"},"vehicle_type_id":"4","last_reported":1744024104,"current_range_meters":8000,"station_id":"ce4bhnh2rcd13ifvqgug","pricing_plan_id":"cebpf4jnsgd1na2vs0mg"},{"bike_id":"351b921a-1463-4cf6-859d-ca5bd51a6e76","system_id":"levelo_inurba_marseille","lat":43.31779,"lon":5.36808,"is_reserved":false,"is_disabled":false,"rental_uris":{"android":"levelo://app?vid=351b921a-1463-4cf6-859d-ca5bd51a6e76","ios":"levelo://app?vid=351b921a-1463-4cf6-859d-ca5bd51a6e76"},"vehicle_type_id":"4","last_reported":1744024104,"current_range_meters":8000,"station_id":"","pricing_plan_id":"cebpf4jnsgd1na2vs0mg"},{"bike_id":"d66890eb-a849-4361-8afb-8574c3836f73","system_id":"levelo_inurba_marseille","lat":43.26085,"lon":5.38738,"is_reserved":false,"is_disabled":false,"rental_uris":{"android":"levelo://app?vid=d66890eb-a849-4361-8afb-8574c3836f73","ios":"levelo://app?vid=d66890eb-a849-4361-8afb-8574c3836f73"},"vehicle_type_id":"4","last_reported":1744024104,"current_range_meters":8000,"station_id":"","pricing_plan_id":"cebpf4jnsgd1na2vs0mg"},{"bike_id":"72543552-8188-4373-8db0-bd2f24c14e7b","system_id":"levelo_inurba_marseille","lat":43.32279,"lon":5.37645,"is_reserved":false,"is_disabled":false,"rental_uris":{"android":"levelo://app?vid=72543552-8188-4373-8db0-bd2f24c14e7b","ios":"levelo://app?vid=72543552-8188-4373-8db0-bd2f24c14e7b"},"vehicle_type_id":"4","last_reported":1744024104,"current_range_meters":8400,"station_id":"","pricing_plan_id":"cebpf4jnsgd1na2vs0mg"},{"bike_id":"d1c3d732-d70a-43f4-b2f2-3bcaf6416cca","system_id":"levelo_inurba_marseille","lat":43.29539,"lon":5.39065,"is_reserved":false,"is_disabled":false,"rental_uris":{"android":"levelo://app?vid=d1c3d732-d70a-43f4-b2f2-3bcaf6416cca","ios":"levelo://app?vid=d1c3d732-d70a-43f4-b2f2-3bcaf6416cca"},"vehicle_type_id":"4","last_reported":1744024104,"current_range_meters":8400,"station_id":"ce4bh3p2rcd13ifvqdp0","pricing_plan_id":"cebpf4jnsgd1na2vs0mg"},{"bike_id":"edaccf97-dc5b-4501-9f95-e0fff4b79492","system_id":"levelo_inurba_marseille","lat":43.279929,"lon":5.41666,"is_reserved":false,"is_disabled":false,"rental_uris":{"android":"levelo://app?vid=edaccf97-dc5b-4501-9f95-e0fff4b79492","ios":"levelo://app?vid=edaccf97-dc5b-4501-9f95-e0fff4b79492"},"vehicle_type_id":"4","last_reported":1744024104,"current_range_meters":8400,"station_id":"ce4bho12rcd13ifvqh1g","pricing_plan_id":"cebpf4jnsgd1na2vs0mg"},{"bike_id":"c7f769a0-9ae3-4891-a95a-079fb88a4ee7","system_id":"levelo_inurba_marseille","lat":43.25107,"lon":5.4032,"is_reserved":false,"is_disabled":false,"rental_uris":{"android":"levelo://app?vid=c7f769a0-9ae3-4891-a95a-079fb88a4ee7","ios":"levelo://app?vid=c7f769a0-9ae3-4891-a95a-079fb88a4ee7"},"vehicle_type_id":"4","last_reported":1744024104,"current_range_meters":8400,"station_id":"ce4bhlh2rcd13ifvqgig","pricing_plan_id":"cebpf4jnsgd1na2vs0mg"},{"bike_id":"606675f6-9cae-427a-83c9-8a064752327b","system_id":"levelo_inurba_marseille","lat":43.323598,"lon":5.367621,"is_reserved":false,"is_disabled":false,"rental_uris":{"android":"levelo://app?vid=606675f6-9cae-427a-83c9-8a064752327b","ios":"levelo://app?vid=606675f6-9cae-427a-83c9-8a064752327b"},"vehicle_type_id":"4","last_reported":1744024104,"current_range_meters":8400,"station_id":"ce4bhsh2rcd13ifvqi2g","pricing_plan_id":"cebpf4jnsgd1na2vs0mg"},{"bike_id":"ff68cdd0-0a44-40ce-900a-90328d68c3c5","system_id":"levelo_inurba_marseille","lat":43.27199,"lon":5.39188,"is_reserved":false,"is_disabled":false,"rental_uris":{"android":"levelo://app?vid=ff68cdd0-0a44-40ce-900a-90328d68c3c5","ios":"levelo://app?vid=ff68cdd0-0a44-40ce-900a-90328d68c3c5"},"vehicle_type_id":"4","last_reported":1744024104,"current_range_meters":8800,"station_id":"ce4bhhp2rcd13ifvqfm0","pricing_plan_id":"cebpf4jnsgd1na2vs0mg"},{"bike_id":"5a873fea-0fc6-401d-9ef7-dfc99ea829a8","system_id":"levelo_inurba_marseille","lat":43.28421,"lon":5.34972,"is_reserved":false,"is_disabled":false,"rental_uris":{"android":"levelo://app?vid=5a873fea-0fc6-401d-9ef7-dfc99ea829a8","ios":"levelo://app?vid=5a873fea-0fc6-401d-9ef7-dfc99ea829a8"},"vehicle_type_id":"4","last_reported":1744024104,"current_range_meters":8800,"station_id":"ce4bhbh2rcd13ifvqepg","pricing_plan_id":"cebpf4jnsgd1na2vs0mg"},{"bike_id":"146f3ea7-76a8-465d-96f7-7f7f64bb2c18","system_id":"levelo_inurba_marseille","lat":43.30546,"lon":5.36702,"is_reserved":false,"is_disabled":false,"rental_uris":{"android":"levelo://app?vid=146f3ea7-76a8-465d-96f7-7f7f64bb2c18","ios":"levelo://app?vid=146f3ea7-76a8-465d-96f7-7f7f64bb2c18"},"vehicle_type_id":"4","last_reported":1744024104,"current_range_meters":8800,"station_id":"ce4bgrp2rcd13ifvqc9g","pricing_plan_id":"cebpf4jnsgd1na2vs0mg"},{"bike_id":"383d99e0-a510-4373-b83e-859700073e33","system_id":"levelo_inurba_marseille","lat":43.25717,"lon":5.41115,"is_reserved":false,"is_disabled":false,"rental_uris":{"android":"levelo://app?vid=383d99e0-a510-4373-b83e-859700073e33","ios":"levelo://app?vid=383d99e0-a510-4373-b83e-859700073e33"},"vehicle_type_id":"4","last_reported":1744024104,"current_range_meters":8800,"station_id":"ce4bhkp2rcd13ifvqgd0","pricing_plan_id":"cebpf4jnsgd1na2vs0mg"},{"bike_id":"c3e6d442-6282-4c88-9f90-93d85aff9e76","system_id":"levelo_inurba_marseille","lat":43.28163,"lon":5.42646,"is_reserved":false,"is_disabled":false,"rental_uris":{"android":"levelo://app?vid=c3e6d442-6282-4c88-9f90-93d85aff9e76","ios":"levelo://app?vid=c3e6d442-6282-4c88-9f90-93d85aff9e76"},"vehicle_type_id":"4","last_reported":1744024104,"current_range_meters":8800,"station_id":"ce4bhnh2rcd13ifvqgug","pricing_plan_id":"cebpf4jnsgd1na2vs0mg"},{"bike_id":"27404ad3-3394-4a7e-afe1-4a7c1161be47","system_id":"levelo_inurba_marseille","lat":43.27321,"lon":5.39077,"is_reserved":false,"is_disabled":false,"rental_uris":{"android":"levelo://app?vid=27404ad3-3394-4a7e-afe1-4a7c1161be47","ios":"levelo://app?vid=27404ad3-3394-4a7e-afe1-4a7c1161be47"},"vehicle_type_id":"4","last_reported":1744024104,"current_range_meters":8800,"station_id":"ce4bhgp2rcd13ifvqfe0","pricing_plan_id":"cebpf4jnsgd1na2vs0mg"},{"bike_id":"ed259477-bf4e-4a0a-8c42-53791b17bbdf","system_id":"levelo_inurba_marseille","lat":43.2511,"lon":5.40324,"is_reserved":false,"is_disabled":false,"rental_uris":{"android":"levelo://app?vid=ed259477-bf4e-4a0a-8c42-53791b17bbdf","ios":"levelo://app?vid=ed259477-bf4e-4a0a-8c42-53791b17bbdf"},"vehicle_type_id":"4","last_reported":1744024104,"current_range_meters":8800,"station_id":"ce4bhlh2rcd13ifvqgig","pricing_plan_id":"cebpf4jnsgd1na2vs0mg"},{"bike_id":"8539495d-a8db-48e8-999c-a0eec7f95200","system_id":"levelo_inurba_marseille","lat":43.25489,"lon":5.37652,"is_reserved":false,"is_disabled":false,"rental_uris":{"android":"levelo://app?vid=8539495d-a8db-48e8-999c-a0eec7f95200","ios":"levelo://app?vid=8539495d-a8db-48e8-999c-a0eec7f95200"},"vehicle_type_id":"4","last_reported":1744024104,"current_range_meters":8800,"station_id":"ce4bhh12rcd13ifvqff0","pricing_plan_id":"cebpf4jnsgd1na2vs0mg"},{"bike_id":"e1ac6f5e-734a-4f2f-8ce5-1dc38c09c08f","system_id":"levelo_inurba_marseille","lat":43.29582,"lon":5.37505,"is_reserved":false,"is_disabled":false,"rental_uris":{"android":"levelo://app?vid=e1ac6f5e-734a-4f2f-8ce5-1dc38c09c08f","ios":"levelo://app?vid=e1ac6f5e-734a-4f2f-8ce5-1dc38c09c08f"},"vehicle_type_id":"4","last_reported":1744024104,"current_range_meters":9200,"station_id":"ce4bgh92rcd13ifvqb50","pricing_plan_id":"cebpf4jnsgd1na2vs0mg"},{"bike_id":"8a38320c-a733-4cf5-8c8e-152497fe8f8f","system_id":"levelo_inurba_marseille","lat":43.28196,"lon":5.42635,"is_reserved":false,"is_disabled":false,"rental_uris":{"android":"levelo://app?vid=8a38320c-a733-4cf5-8c8e-152497fe8f8f","ios":"levelo://app?vid=8a38320c-a733-4cf5-8c8e-152497fe8f8f"},"vehicle_type_id":"4","last_reported":1744024104,"current_range_meters":9200,"station_id":"ce4bhnh2rcd13ifvqgug","pricing_plan_id":"cebpf4jnsgd1na2vs0mg"},{"bike_id":"56ae56f7-402c-4a5b-bd44-bbaba6c84697","system_id":"levelo_inurba_marseille","lat":43.29095,"lon":5.38115,"is_reserved":false,"is_disabled":false,"rental_uris":{"android":"levelo://app?vid=56ae56f7-402c-4a5b-bd44-bbaba6c84697","ios":"levelo://app?vid=56ae56f7-402c-4a5b-bd44-bbaba6c84697"},"vehicle_type_id":"4","last_reported":1744024104,"current_range_meters":9200,"station_id":"ce4bh512rcd13ifvqe2g","pricing_plan_id":"cebpf4jnsgd1na2vs0mg"},{"bike_id":"e0aaaea9-eadf-4f8e-a365-03e1aeed1a0f","system_id":"levelo_inurba_marseille","lat":43.27941,"lon":5.41045,"is_reserved":false,"is_disabled":false,"rental_uris":{"android":"levelo://app?vid=e0aaaea9-eadf-4f8e-a365-03e1aeed1a0f","ios":"levelo://app?vid=e0aaaea9-eadf-4f8e-a365-03e1aeed1a0f"},"vehicle_type_id":"4","last_reported":1744024104,"current_range_meters":9200,"station_id":"ce4bhnp2rcd13ifvqh0g","pricing_plan_id":"cebpf4jnsgd1na2vs0mg"},{"bike_id":"23980d64-35b5-4604-ad44-ad65e6bbcdb3","system_id":"levelo_inurba_marseille","lat":43.2315,"lon":5.4371,"is_reserved":false,"is_disabled":false,"rental_uris":{"android":"levelo://app?vid=23980d64-35b5-4604-ad44-ad65e6bbcdb3","ios":"levelo://app?vid=23980d64-35b5-4604-ad44-ad65e6bbcdb3"},"vehicle_type_id":"4","last_reported":1744024104,"current_range_meters":9200,"station_id":"ce4bhmp2rcd13ifvqgog","pricing_plan_id":"cebpf4jnsgd1na2vs0mg"},{"bike_id":"a959694d-18ce-4d80-917f-23c91ed81065","system_id":"levelo_inurba_marseille","lat":43.29889,"lon":5.43662,"is_reserved":false,"is_disabled":false,"rental_uris":{"android":"levelo://app?vid=a959694d-18ce-4d80-917f-23c91ed81065","ios":"levelo://app?vid=a959694d-18ce-4d80-917f-23c91ed81065"},"vehicle_type_id":"4","last_reported":1744024104,"current_range_meters":9200,"station_id":"ce4bhpp2rcd13ifvqhfg","pricing_plan_id":"cebpf4jnsgd1na2vs0mg"},{"bike_id":"e4d4dc7a-abcd-4c1d-8017-887f937d011f","system_id":"levelo_inurba_marseille","lat":43.2959,"lon":5.39977,"is_reserved":false,"is_disabled":true,"rental_uris":{"android":"levelo://app?vid=e4d4dc7a-abcd-4c1d-8017-887f937d011f","ios":"levelo://app?vid=e4d4dc7a-abcd-4c1d-8017-887f937d011f"},"vehicle_type_id":"4","last_reported":1744024104,"current_range_meters":9200,"station_id":"ce4bh312rcd13ifvqdj0","pricing_plan_id":"cebpf4jnsgd1na2vs0mg"},{"bike_id":"03459487-5609-45d6-8672-77ad1a4c94a5","system_id":"levelo_inurba_marseille","lat":43.23149,"lon":5.43715,"is_reserved":false,"is_disabled":false,"rental_uris":{"android":"levelo://app?vid=03459487-5609-45d6-8672-77ad1a4c94a5","ios":"levelo://app?vid=03459487-5609-45d6-8672-77ad1a4c94a5"},"vehicle_type_id":"4","last_reported":1744024104,"current_range_meters":9600,"station_id":"ce4bhmp2rcd13ifvqgog","pricing_plan_id":"cebpf4jnsgd1na2vs0mg"},{"bike_id":"3a6cf4dd-4a04-48a6-bbfb-6b1ea18759b5","system_id":"levelo_inurba_marseille","lat":43.32363,"lon":5.36762,"is_reserved":false,"is_disabled":false,"rental_uris":{"android":"levelo://app?vid=3a6cf4dd-4a04-48a6-bbfb-6b1ea18759b5","ios":"levelo://app?vid=3a6cf4dd-4a04-48a6-bbfb-6b1ea18759b5"},"vehicle_type_id":"4","last_reported":1744024104,"current_range_meters":9600,"station_id":"ce4bhsh2rcd13ifvqi2g","pricing_plan_id":"cebpf4jnsgd1na2vs0mg"},{"bike_id":"9f92f6e6-1e95-47b3-8fbb-1b192da5f69d","system_id":"levelo_inurba_marseille","lat":43.32032,"lon":5.41558,"is_reserved":false,"is_disabled":false,"rental_uris":{"android":"levelo://app?vid=9f92f6e6-1e95-47b3-8fbb-1b192da5f69d","ios":"levelo://app?vid=9f92f6e6-1e95-47b3-8fbb-1b192da5f69d"},"vehicle_type_id":"4","last_reported":1744024104,"current_range_meters":9600,"station_id":"ce4bhq92rcd13ifvqhkg","pricing_plan_id":"cebpf4jnsgd1na2vs0mg"},{"bike_id":"9389f907-78e2-4c8e-b008-de9739faa63f","system_id":"levelo_inurba_marseille","lat":43.33051,"lon":5.3943,"is_reserved":false,"is_disabled":false,"rental_uris":{"android":"levelo://app?vid=9389f907-78e2-4c8e-b008-de9739faa63f","ios":"levelo://app?vid=9389f907-78e2-4c8e-b008-de9739faa63f"},"vehicle_type_id":"4","last_reported":1744024104,"current_range_meters":9200,"station_id":"","pricing_plan_id":"cebpf4jnsgd1na2vs0mg"},{"bike_id":"a06a3e75-9d21-46a3-9148-aa20e322e353","system_id":"levelo_inurba_marseille","lat":43.29302,"lon":5.3718,"is_reserved":false,"is_disabled":false,"rental_uris":{"android":"levelo://app?vid=a06a3e75-9d21-46a3-9148-aa20e322e353","ios":"levelo://app?vid=a06a3e75-9d21-46a3-9148-aa20e322e353"},"vehicle_type_id":"4","last_reported":1744024104,"current_range_meters":9600,"station_id":"ce4bgh92rcd13ifvqb40","pricing_plan_id":"cebpf4jnsgd1na2vs0mg"},{"bike_id":"1e81c4d2-6637-42bf-8d6d-5d37c0fe2360","system_id":"levelo_inurba_marseille","lat":43.32119,"lon":5.36805,"is_reserved":false,"is_disabled":false,"rental_uris":{"android":"levelo://app?vid=1e81c4d2-6637-42bf-8d6d-5d37c0fe2360","ios":"levelo://app?vid=1e81c4d2-6637-42bf-8d6d-5d37c0fe2360"},"vehicle_type_id":"4","last_reported":1744024104,"current_range_meters":9600,"station_id":"ce4bhrh2rcd13ifvqhug","pricing_plan_id":"cebpf4jnsgd1na2vs0mg"},{"bike_id":"bb98cb44-b455-4581-88c9-84082d281f1a","system_id":"levelo_inurba_marseille","lat":43.25497,"lon":5.37658,"is_reserved":false,"is_disabled":false,"rental_uris":{"android":"levelo://app?vid=bb98cb44-b455-4581-88c9-84082d281f1a","ios":"levelo://app?vid=bb98cb44-b455-4581-88c9-84082d281f1a"},"vehicle_type_id":"4","last_reported":1744024104,"current_range_meters":9600,"station_id":"ce4bhh12rcd13ifvqff0","pricing_plan_id":"cebpf4jnsgd1na2vs0mg"},{"bike_id":"1d550716-5547-4c39-be70-1a4f84430e09","system_id":"levelo_inurba_marseille","lat":43.29877,"lon":5.38923,"is_reserved":false,"is_disabled":false,"rental_uris":{"android":"levelo://app?vid=1d550716-5547-4c39-be70-1a4f84430e09","ios":"levelo://app?vid=1d550716-5547-4c39-be70-1a4f84430e09"},"vehicle_type_id":"4","last_reported":1744024104,"current_range_meters":9600,"station_id":"ce4bh392rcd13ifvqdl0","pricing_plan_id":"cebpf4jnsgd1na2vs0mg"},{"bike_id":"f574b7f8-de9e-49e9-8b6f-0889bc4990c6","system_id":"levelo_inurba_marseille","lat":43.27063,"lon":5.4027,"is_reserved":false,"is_disabled":false,"rental_uris":{"android":"levelo://app?vid=f574b7f8-de9e-49e9-8b6f-0889bc4990c6","ios":"levelo://app?vid=f574b7f8-de9e-49e9-8b6f-0889bc4990c6"},"vehicle_type_id":"4","last_reported":1744024104,"current_range_meters":10000,"station_id":"ce4bhk92rcd13ifvqgc0","pricing_plan_id":"cebpf4jnsgd1na2vs0mg"},{"bike_id":"135e22a1-d7d9-45f7-9faf-38add97a7593","system_id":"levelo_inurba_marseille","lat":43.25503,"lon":5.37653,"is_reserved":false,"is_disabled":false,"rental_uris":{"android":"levelo://app?vid=135e22a1-d7d9-45f7-9faf-38add97a7593","ios":"levelo://app?vid=135e22a1-d7d9-45f7-9faf-38add97a7593"},"vehicle_type_id":"4","last_reported":1744024104,"current_range_meters":10000,"station_id":"ce4bhh12rcd13ifvqff0","pricing_plan_id":"cebpf4jnsgd1na2vs0mg"},{"bike_id":"e53b9e9b-ac51-4f70-ad60-ed3149b8c178","system_id":"levelo_inurba_marseille","lat":43.313078,"lon":5.37341,"is_reserved":false,"is_disabled":false,"rental_uris":{"android":"levelo://app?vid=e53b9e9b-ac51-4f70-ad60-ed3149b8c178","ios":"levelo://app?vid=e53b9e9b-ac51-4f70-ad60-ed3149b8c178"},"vehicle_type_id":"4","last_reported":1744024104,"current_range_meters":10000,"station_id":"","pricing_plan_id":"cebpf4jnsgd1na2vs0mg"},{"bike_id":"c15adf41-9623-4bc8-8890-4bae727c05d9","system_id":"levelo_inurba_marseille","lat":43.27972,"lon":5.38741,"is_reserved":false,"is_disabled":false,"rental_uris":{"android":"levelo://app?vid=c15adf41-9623-4bc8-8890-4bae727c05d9","ios":"levelo://app?vid=c15adf41-9623-4bc8-8890-4bae727c05d9"},"vehicle_type_id":"4","last_reported":1744024104,"current_range_meters":10000,"station_id":"ce4bhg12rcd13ifvqf80","pricing_plan_id":"cebpf4jnsgd1na2vs0mg"},{"bike_id":"87bda883-ac94-49fc-94c2-3a86e52b4f97","system_id":"levelo_inurba_marseille","lat":43.30729,"lon":5.3833,"is_reserved":false,"is_disabled":false,"rental_uris":{"android":"levelo://app?vid=87bda883-ac94-49fc-94c2-3a86e52b4f97","ios":"levelo://app?vid=87bda883-ac94-49fc-94c2-3a86e52b4f97"},"vehicle_type_id":"4","last_reported":1744024104,"current_range_meters":10000,"station_id":"","pricing_plan_id":"cebpf4jnsgd1na2vs0mg"},{"bike_id":"d893a78a-9318-483a-996e-9bec91fd98dc","system_id":"levelo_inurba_marseille","lat":43.31724,"lon":5.43705,"is_reserved":false,"is_disabled":false,"rental_uris":{"android":"levelo://app?vid=d893a78a-9318-483a-996e-9bec91fd98dc","ios":"levelo://app?vid=d893a78a-9318-483a-996e-9bec91fd98dc"},"vehicle_type_id":"4","last_reported":1744024104,"current_range_meters":10000,"station_id":"ce4bhp92rcd13ifvqhcg","pricing_plan_id":"cebpf4jnsgd1na2vs0mg"},{"bike_id":"98875c6b-7ecc-4b8b-b12d-0b0830c2aa3c","system_id":"levelo_inurba_marseille","lat":43.28271,"lon":5.35058,"is_reserved":false,"is_disabled":false,"rental_uris":{"android":"levelo://app?vid=98875c6b-7ecc-4b8b-b12d-0b0830c2aa3c","ios":"levelo://app?vid=98875c6b-7ecc-4b8b-b12d-0b0830c2aa3c"},"vehicle_type_id":"4","last_reported":1744024104,"current_range_meters":10000,"station_id":"ce4bhbp2rcd13ifvqerg","pricing_plan_id":"cebpf4jnsgd1na2vs0mg"},{"bike_id":"00026885-6878-454b-a170-0a7bb496c6c3","system_id":"levelo_inurba_marseille","lat":43.28676,"lon":5.38658,"is_reserved":false,"is_disabled":false,"rental_uris":{"android":"levelo://app?vid=00026885-6878-454b-a170-0a7bb496c6c3","ios":"levelo://app?vid=00026885-6878-454b-a170-0a7bb496c6c3"},"vehicle_type_id":"4","last_reported":1744024104,"current_range_meters":10000,"station_id":"ce4bh492rcd13ifvqdug","pricing_plan_id":"cebpf4jnsgd1na2vs0mg"},{"bike_id":"935587bd-e327-433f-b68c-6a9a15057f6f","system_id":"levelo_inurba_marseille","lat":43.31434,"lon":5.40154,"is_reserved":false,"is_disabled":false,"rental_uris":{"android":"levelo://app?vid=935587bd-e327-433f-b68c-6a9a15057f6f","ios":"levelo://app?vid=935587bd-e327-433f-b68c-6a9a15057f6f"},"vehicle_type_id":"4","last_reported":1744024104,"current_range_meters":10800,"station_id":"","pricing_plan_id":"cebpf4jnsgd1na2vs0mg"},{"bike_id":"84664750-914f-4773-92f0-ec08ad702917","system_id":"levelo_inurba_marseille","lat":43.26968,"lon":5.36622,"is_reserved":false,"is_disabled":false,"rental_uris":{"android":"levelo://app?vid=84664750-914f-4773-92f0-ec08ad702917","ios":"levelo://app?vid=84664750-914f-4773-92f0-ec08ad702917"},"vehicle_type_id":"4","last_reported":1744024104,"current_range_meters":10800,"station_id":"ce4bgvp2rcd13ifvqcu0","pricing_plan_id":"cebpf4jnsgd1na2vs0mg"},{"bike_id":"bfaa3118-75ab-4aa4-b610-9f31273728a8","system_id":"levelo_inurba_marseille","lat":43.30953,"lon":5.39041,"is_reserved":false,"is_disabled":false,"rental_uris":{"android":"levelo://app?vid=bfaa3118-75ab-4aa4-b610-9f31273728a8","ios":"levelo://app?vid=bfaa3118-75ab-4aa4-b610-9f31273728a8"},"vehicle_type_id":"4","last_reported":1744024104,"current_range_meters":10800,"station_id":"ce4bgup2rcd13ifvqco0","pricing_plan_id":"cebpf4jnsgd1na2vs0mg"},{"bike_id":"cc057f14-b1e1-4dee-b107-8741c01c5964","system_id":"levelo_inurba_marseille","lat":43.321017,"lon":5.367763,"is_reserved":false,"is_disabled":true,"rental_uris":{"android":"levelo://app?vid=cc057f14-b1e1-4dee-b107-8741c01c5964","ios":"levelo://app?vid=cc057f14-b1e1-4dee-b107-8741c01c5964"},"vehicle_type_id":"4","last_reported":1744024104,"current_range_meters":10800,"station_id":"ce4bhrh2rcd13ifvqhug","pricing_plan_id":"cebpf4jnsgd1na2vs0mg"},{"bike_id":"ddc18b59-559a-4a16-b480-f9ff872c3dd3","system_id":"levelo_inurba_marseille","lat":43.231458,"lon":5.437261,"is_reserved":false,"is_disabled":true,"rental_uris":{"android":"levelo://app?vid=ddc18b59-559a-4a16-b480-f9ff872c3dd3","ios":"levelo://app?vid=ddc18b59-559a-4a16-b480-f9ff872c3dd3"},"vehicle_type_id":"4","last_reported":1744024104,"current_range_meters":10800,"station_id":"ce4bhmp2rcd13ifvqgog","pricing_plan_id":"cebpf4jnsgd1na2vs0mg"},{"bike_id":"f0d398b3-0e99-4a60-9edf-0e289b418a47","system_id":"levelo_inurba_marseille","lat":43.30537,"lon":5.36534,"is_reserved":false,"is_disabled":false,"rental_uris":{"android":"levelo://app?vid=f0d398b3-0e99-4a60-9edf-0e289b418a47","ios":"levelo://app?vid=f0d398b3-0e99-4a60-9edf-0e289b418a47"},"vehicle_type_id":"4","last_reported":1744024104,"current_range_meters":11200,"station_id":"ce4bgs12rcd13ifvqcag","pricing_plan_id":"cebpf4jnsgd1na2vs0mg"},{"bike_id":"750bc9c2-8244-4f27-a571-77c62d7d6b92","system_id":"levelo_inurba_marseille","lat":43.31262,"lon":5.37747,"is_reserved":false,"is_disabled":false,"rental_uris":{"android":"levelo://app?vid=750bc9c2-8244-4f27-a571-77c62d7d6b92","ios":"levelo://app?vid=750bc9c2-8244-4f27-a571-77c62d7d6b92"},"vehicle_type_id":"4","last_reported":1744024104,"current_range_meters":11200,"station_id":"","pricing_plan_id":"cebpf4jnsgd1na2vs0mg"},{"bike_id":"c8198234-6855-460d-b91b-8bbfd4f2a26e","system_id":"levelo_inurba_marseille","lat":43.21188,"lon":5.35075,"is_reserved":false,"is_disabled":false,"rental_uris":{"android":"levelo://app?vid=c8198234-6855-460d-b91b-8bbfd4f2a26e","ios":"levelo://app?vid=c8198234-6855-460d-b91b-8bbfd4f2a26e"},"vehicle_type_id":"4","last_reported":1744024104,"current_range_meters":11200,"station_id":"st_cvj6sg6p6f1abm77japg","pricing_plan_id":"cebpf4jnsgd1na2vs0mg"},{"bike_id":"7956d4b7-f9df-4616-bd52-832d0af74ae0","system_id":"levelo_inurba_marseille","lat":43.25721,"lon":5.4111,"is_reserved":false,"is_disabled":false,"rental_uris":{"android":"levelo://app?vid=7956d4b7-f9df-4616-bd52-832d0af74ae0","ios":"levelo://app?vid=7956d4b7-f9df-4616-bd52-832d0af74ae0"},"vehicle_type_id":"4","last_reported":1744024104,"current_range_meters":11200,"station_id":"ce4bhkp2rcd13ifvqgd0","pricing_plan_id":"cebpf4jnsgd1na2vs0mg"},{"bike_id":"4edc6146-8a8f-4c6d-850b-a6a5da47aed2","system_id":"levelo_inurba_marseille","lat":43.30951,"lon":5.39049,"is_reserved":false,"is_disabled":false,"rental_uris":{"android":"levelo://app?vid=4edc6146-8a8f-4c6d-850b-a6a5da47aed2","ios":"levelo://app?vid=4edc6146-8a8f-4c6d-850b-a6a5da47aed2"},"vehicle_type_id":"4","last_reported":1744024104,"current_range_meters":11200,"station_id":"ce4bgup2rcd13ifvqco0","pricing_plan_id":"cebpf4jnsgd1na2vs0mg"},{"bike_id":"5840c1d9-6493-4ce8-8cf9-976afbbec159","system_id":"levelo_inurba_marseille","lat":43.23192,"lon":5.40011,"is_reserved":false,"is_disabled":true,"rental_uris":{"android":"levelo://app?vid=5840c1d9-6493-4ce8-8cf9-976afbbec159","ios":"levelo://app?vid=5840c1d9-6493-4ce8-8cf9-976afbbec159"},"vehicle_type_id":"4","last_reported":1744024104,"current_range_meters":11200,"station_id":"ce4bhn12rcd13ifvqgqg","pricing_plan_id":"cebpf4jnsgd1na2vs0mg"},{"bike_id":"e926ae44-9c36-4909-aca0-768b34034fa9","system_id":"levelo_inurba_marseille","lat":43.31993,"lon":5.38146,"is_reserved":false,"is_disabled":true,"rental_uris":{"android":"levelo://app?vid=e926ae44-9c36-4909-aca0-768b34034fa9","ios":"levelo://app?vid=e926ae44-9c36-4909-aca0-768b34034fa9"},"vehicle_type_id":"4","last_reported":1744024104,"current_range_meters":11200,"station_id":"ce4bhr12rcd13ifvqhpg","pricing_plan_id":"cebpf4jnsgd1na2vs0mg"},{"bike_id":"e1ed21b6-c0dc-4b7f-8b4a-adcb36679c4d","system_id":"levelo_inurba_marseille","lat":43.25582,"lon":5.38234,"is_reserved":false,"is_disabled":false,"rental_uris":{"android":"levelo://app?vid=e1ed21b6-c0dc-4b7f-8b4a-adcb36679c4d","ios":"levelo://app?vid=e1ed21b6-c0dc-4b7f-8b4a-adcb36679c4d"},"vehicle_type_id":"4","last_reported":1744024104,"current_range_meters":11200,"station_id":"ce4bhih2rcd13ifvqfs0","pricing_plan_id":"cebpf4jnsgd1na2vs0mg"},{"bike_id":"543e8a52-25b8-474c-a2e7-31d0c99c8646","system_id":"levelo_inurba_marseille","lat":43.24188,"lon":5.39733,"is_reserved":false,"is_disabled":false,"rental_uris":{"android":"levelo://app?vid=543e8a52-25b8-474c-a2e7-31d0c99c8646","ios":"levelo://app?vid=543e8a52-25b8-474c-a2e7-31d0c99c8646"},"vehicle_type_id":"4","last_reported":1744024104,"current_range_meters":11200,"station_id":"ce4bhn12rcd13ifvqgpg","pricing_plan_id":"cebpf4jnsgd1na2vs0mg"},{"bike_id":"2a6c70b7-3280-4c58-9c17-d39c1ef6b670","system_id":"levelo_inurba_marseille","lat":43.32358,"lon":5.36767,"is_reserved":false,"is_disabled":false,"rental_uris":{"android":"levelo://app?vid=2a6c70b7-3280-4c58-9c17-d39c1ef6b670","ios":"levelo://app?vid=2a6c70b7-3280-4c58-9c17-d39c1ef6b670"},"vehicle_type_id":"4","last_reported":1744024104,"current_range_meters":11600,"station_id":"ce4bhsh2rcd13ifvqi2g","pricing_plan_id":"cebpf4jnsgd1na2vs0mg"},{"bike_id":"9247e5f8-01a2-4fae-906e-09f181034413","system_id":"levelo_inurba_marseille","lat":43.26789,"lon":5.39408,"is_reserved":false,"is_disabled":false,"rental_uris":{"android":"levelo://app?vid=9247e5f8-01a2-4fae-906e-09f181034413","ios":"levelo://app?vid=9247e5f8-01a2-4fae-906e-09f181034413"},"vehicle_type_id":"4","last_reported":1744024104,"current_range_meters":11600,"station_id":"ce4bhh12rcd13ifvqfg0","pricing_plan_id":"cebpf4jnsgd1na2vs0mg"},{"bike_id":"7eb8b56e-f82e-4ea1-933e-2f6a7c76a077","system_id":"levelo_inurba_marseille","lat":43.309057,"lon":5.396789,"is_reserved":false,"is_disabled":false,"rental_uris":{"android":"levelo://app?vid=7eb8b56e-f82e-4ea1-933e-2f6a7c76a077","ios":"levelo://app?vid=7eb8b56e-f82e-4ea1-933e-2f6a7c76a077"},"vehicle_type_id":"4","last_reported":1744024104,"current_range_meters":11600,"station_id":"ce4bh3p2rcd13ifvqdp0","pricing_plan_id":"cebpf4jnsgd1na2vs0mg"},{"bike_id":"0322dd65-7bc0-4e52-8736-0745d98c955f","system_id":"levelo_inurba_marseille","lat":43.26198,"lon":5.37452,"is_reserved":false,"is_disabled":false,"rental_uris":{"android":"levelo://app?vid=0322dd65-7bc0-4e52-8736-0745d98c955f","ios":"levelo://app?vid=0322dd65-7bc0-4e52-8736-0745d98c955f"},"vehicle_type_id":"4","last_reported":1744024104,"current_range_meters":12000,"station_id":"ce4bhgp2rcd13ifvqfc0","pricing_plan_id":"cebpf4jnsgd1na2vs0mg"},{"bike_id":"23abe207-8621-49aa-bc1a-6955c94c1aa3","system_id":"levelo_inurba_marseille","lat":43.28265,"lon":5.35064,"is_reserved":false,"is_disabled":false,"rental_uris":{"android":"levelo://app?vid=23abe207-8621-49aa-bc1a-6955c94c1aa3","ios":"levelo://app?vid=23abe207-8621-49aa-bc1a-6955c94c1aa3"},"vehicle_type_id":"4","last_reported":1744024104,"current_range_meters":12000,"station_id":"ce4bhbp2rcd13ifvqerg","pricing_plan_id":"cebpf4jnsgd1na2vs0mg"},{"bike_id":"fa509bb1-2668-4d97-91a9-ce425e712bed","system_id":"levelo_inurba_marseille","lat":43.30783,"lon":5.37644,"is_reserved":false,"is_disabled":false,"rental_uris":{"android":"levelo://app?vid=fa509bb1-2668-4d97-91a9-ce425e712bed","ios":"levelo://app?vid=fa509bb1-2668-4d97-91a9-ce425e712bed"},"vehicle_type_id":"4","last_reported":1744024104,"current_range_meters":12000,"station_id":"ce4bgv92rcd13ifvqcq0","pricing_plan_id":"cebpf4jnsgd1na2vs0mg"},{"bike_id":"88dc754a-3da0-4af4-b593-5d7aa740f78c","system_id":"levelo_inurba_marseille","lat":43.304596,"lon":5.379127,"is_reserved":false,"is_disabled":false,"rental_uris":{"android":"levelo://app?vid=88dc754a-3da0-4af4-b593-5d7aa740f78c","ios":"levelo://app?vid=88dc754a-3da0-4af4-b593-5d7aa740f78c"},"vehicle_type_id":"4","last_reported":1744024104,"current_range_meters":12000,"station_id":"ce4bgup2rcd13ifvqcn0","pricing_plan_id":"cebpf4jnsgd1na2vs0mg"},{"bike_id":"cc3c220b-c9e0-40ec-a7d8-7382a00a3f9a","system_id":"levelo_inurba_marseille","lat":43.30789,"lon":5.37643,"is_reserved":false,"is_disabled":false,"rental_uris":{"android":"levelo://app?vid=cc3c220b-c9e0-40ec-a7d8-7382a00a3f9a","ios":"levelo://app?vid=cc3c220b-c9e0-40ec-a7d8-7382a00a3f9a"},"vehicle_type_id":"4","last_reported":1744024104,"current_range_meters":12000,"station_id":"ce4bgv92rcd13ifvqcq0","pricing_plan_id":"cebpf4jnsgd1na2vs0mg"},{"bike_id":"31680a03-0208-48c5-8f58-55f2ae922a13","system_id":"levelo_inurba_marseille","lat":43.25942,"lon":5.40907,"is_reserved":false,"is_disabled":false,"rental_uris":{"android":"levelo://app?vid=31680a03-0208-48c5-8f58-55f2ae922a13","ios":"levelo://app?vid=31680a03-0208-48c5-8f58-55f2ae922a13"},"vehicle_type_id":"4","last_reported":1744024104,"current_range_meters":12000,"station_id":"ce4bhm92rcd13ifvqglg","pricing_plan_id":"cebpf4jnsgd1na2vs0mg"},{"bike_id":"c818bbd6-db57-47f2-b10a-b37f6d168db4","system_id":"levelo_inurba_marseille","lat":43.30798,"lon":5.37651,"is_reserved":false,"is_disabled":false,"rental_uris":{"android":"levelo://app?vid=c818bbd6-db57-47f2-b10a-b37f6d168db4","ios":"levelo://app?vid=c818bbd6-db57-47f2-b10a-b37f6d168db4"},"vehicle_type_id":"4","last_reported":1744024104,"current_range_meters":12000,"station_id":"ce4bgv92rcd13ifvqcq0","pricing_plan_id":"cebpf4jnsgd1na2vs0mg"},{"bike_id":"73272853-088e-4b39-8e6e-94fe10fc353c","system_id":"levelo_inurba_marseille","lat":43.33767,"lon":5.37485,"is_reserved":false,"is_disabled":true,"rental_uris":{"android":"levelo://app?vid=73272853-088e-4b39-8e6e-94fe10fc353c","ios":"levelo://app?vid=73272853-088e-4b39-8e6e-94fe10fc353c"},"vehicle_type_id":"4","last_reported":1744024104,"current_range_meters":12000,"station_id":"","pricing_plan_id":"cebpf4jnsgd1na2vs0mg"},{"bike_id":"b3955141-b4e4-46ef-9f72-2d6ddb89ac2c","system_id":"levelo_inurba_marseille","lat":43.23165,"lon":5.43713,"is_reserved":false,"is_disabled":false,"rental_uris":{"android":"levelo://app?vid=b3955141-b4e4-46ef-9f72-2d6ddb89ac2c","ios":"levelo://app?vid=b3955141-b4e4-46ef-9f72-2d6ddb89ac2c"},"vehicle_type_id":"4","last_reported":1744024104,"current_range_meters":12000,"station_id":"ce4bhmp2rcd13ifvqgog","pricing_plan_id":"cebpf4jnsgd1na2vs0mg"},{"bike_id":"4343ca41-b07c-4527-9fbc-dfdb2ff9a545","system_id":"levelo_inurba_marseille","lat":43.32541,"lon":5.41428,"is_reserved":false,"is_disabled":false,"rental_uris":{"android":"levelo://app?vid=4343ca41-b07c-4527-9fbc-dfdb2ff9a545","ios":"levelo://app?vid=4343ca41-b07c-4527-9fbc-dfdb2ff9a545"},"vehicle_type_id":"4","last_reported":1744024104,"current_range_meters":12400,"station_id":"ce4bhq12rcd13ifvqhhg","pricing_plan_id":"cebpf4jnsgd1na2vs0mg"},{"bike_id":"26472c75-0224-488f-b7f9-b8b8ef8bcdcf","system_id":"levelo_inurba_marseille","lat":43.25112,"lon":5.4032,"is_reserved":false,"is_disabled":false,"rental_uris":{"android":"levelo://app?vid=26472c75-0224-488f-b7f9-b8b8ef8bcdcf","ios":"levelo://app?vid=26472c75-0224-488f-b7f9-b8b8ef8bcdcf"},"vehicle_type_id":"4","last_reported":1744024104,"current_range_meters":12400,"station_id":"","pricing_plan_id":"cebpf4jnsgd1na2vs0mg"},{"bike_id":"0d716c6c-74d4-43aa-b5cb-f0f8502aeb98","system_id":"levelo_inurba_marseille","lat":43.29976,"lon":5.38487,"is_reserved":false,"is_disabled":false,"rental_uris":{"android":"levelo://app?vid=0d716c6c-74d4-43aa-b5cb-f0f8502aeb98","ios":"levelo://app?vid=0d716c6c-74d4-43aa-b5cb-f0f8502aeb98"},"vehicle_type_id":"4","last_reported":1744024104,"current_range_meters":12000,"station_id":"ce4bgj92rcd13ifvqbd0","pricing_plan_id":"cebpf4jnsgd1na2vs0mg"},{"bike_id":"bcd5fff1-0b81-4d26-bb23-ee397e0ba1f4","system_id":"levelo_inurba_marseille","lat":43.29192,"lon":5.35782,"is_reserved":false,"is_disabled":false,"rental_uris":{"android":"levelo://app?vid=bcd5fff1-0b81-4d26-bb23-ee397e0ba1f4","ios":"levelo://app?vid=bcd5fff1-0b81-4d26-bb23-ee397e0ba1f4"},"vehicle_type_id":"4","last_reported":1744024104,"current_range_meters":12400,"station_id":"ce4bhb12rcd13ifvqel0","pricing_plan_id":"cebpf4jnsgd1na2vs0mg"},{"bike_id":"f6badd6d-7c01-4364-a05b-585cb882162b","system_id":"levelo_inurba_marseille","lat":43.23148,"lon":5.43706,"is_reserved":false,"is_disabled":false,"rental_uris":{"android":"levelo://app?vid=f6badd6d-7c01-4364-a05b-585cb882162b","ios":"levelo://app?vid=f6badd6d-7c01-4364-a05b-585cb882162b"},"vehicle_type_id":"4","last_reported":1744024104,"current_range_meters":12400,"station_id":"ce4bhmp2rcd13ifvqgog","pricing_plan_id":"cebpf4jnsgd1na2vs0mg"},{"bike_id":"ce0c4d03-e59b-4fa9-83d9-02feb3bb4033","system_id":"levelo_inurba_marseille","lat":43.30595,"lon":5.37201,"is_reserved":false,"is_disabled":false,"rental_uris":{"android":"levelo://app?vid=ce0c4d03-e59b-4fa9-83d9-02feb3bb4033","ios":"levelo://app?vid=ce0c4d03-e59b-4fa9-83d9-02feb3bb4033"},"vehicle_type_id":"4","last_reported":1744024104,"current_range_meters":12400,"station_id":"ce4bgqh2rcd13ifvqc4g","pricing_plan_id":"cebpf4jnsgd1na2vs0mg"},{"bike_id":"e1391544-97f6-4947-9e33-975446637622","system_id":"levelo_inurba_marseille","lat":43.29523,"lon":5.39042,"is_reserved":false,"is_disabled":false,"rental_uris":{"android":"levelo://app?vid=e1391544-97f6-4947-9e33-975446637622","ios":"levelo://app?vid=e1391544-97f6-4947-9e33-975446637622"},"vehicle_type_id":"4","last_reported":1744024104,"current_range_meters":12800,"station_id":"ce4bh3p2rcd13ifvqdp0","pricing_plan_id":"cebpf4jnsgd1na2vs0mg"},{"bike_id":"7f849341-935d-4b6d-88b0-0fbbf079e418","system_id":"levelo_inurba_marseille","lat":43.284814,"lon":5.384214,"is_reserved":false,"is_disabled":true,"rental_uris":{"android":"levelo://app?vid=7f849341-935d-4b6d-88b0-0fbbf079e418","ios":"levelo://app?vid=7f849341-935d-4b6d-88b0-0fbbf079e418"},"vehicle_type_id":"4","last_reported":1744024104,"current_range_meters":12800,"station_id":"ce4bh512rcd13ifvqe3g","pricing_plan_id":"cebpf4jnsgd1na2vs0mg"},{"bike_id":"dfee301d-1141-4867-b5b3-dbfdb1f233dd","system_id":"levelo_inurba_marseille","lat":43.28154,"lon":5.42652,"is_reserved":false,"is_disabled":false,"rental_uris":{"android":"levelo://app?vid=dfee301d-1141-4867-b5b3-dbfdb1f233dd","ios":"levelo://app?vid=dfee301d-1141-4867-b5b3-dbfdb1f233dd"},"vehicle_type_id":"4","last_reported":1744024104,"current_range_meters":12800,"station_id":"ce4bhnh2rcd13ifvqgug","pricing_plan_id":"cebpf4jnsgd1na2vs0mg"},{"bike_id":"965debe4-081f-4ce1-a884-fcf3ae2cc3a4","system_id":"levelo_inurba_marseille","lat":43.23142,"lon":5.43732,"is_reserved":false,"is_disabled":false,"rental_uris":{"android":"levelo://app?vid=965debe4-081f-4ce1-a884-fcf3ae2cc3a4","ios":"levelo://app?vid=965debe4-081f-4ce1-a884-fcf3ae2cc3a4"},"vehicle_type_id":"4","last_reported":1744024104,"current_range_meters":12800,"station_id":"ce4bhmp2rcd13ifvqgog","pricing_plan_id":"cebpf4jnsgd1na2vs0mg"},{"bike_id":"a6280444-7408-4511-b79e-babeaf12e790","system_id":"levelo_inurba_marseille","lat":43.28616,"lon":5.35102,"is_reserved":false,"is_disabled":false,"rental_uris":{"android":"levelo://app?vid=a6280444-7408-4511-b79e-babeaf12e790","ios":"levelo://app?vid=a6280444-7408-4511-b79e-babeaf12e790"},"vehicle_type_id":"4","last_reported":1744024104,"current_range_meters":12800,"station_id":"ce4bhch2rcd13ifvqeug","pricing_plan_id":"cebpf4jnsgd1na2vs0mg"},{"bike_id":"b545385b-682b-4852-ae78-61ee671c8aa1","system_id":"levelo_inurba_marseille","lat":43.29194,"lon":5.35797,"is_reserved":false,"is_disabled":false,"rental_uris":{"android":"levelo://app?vid=b545385b-682b-4852-ae78-61ee671c8aa1","ios":"levelo://app?vid=b545385b-682b-4852-ae78-61ee671c8aa1"},"vehicle_type_id":"4","last_reported":1744024104,"current_range_meters":12800,"station_id":"ce4bhb12rcd13ifvqel0","pricing_plan_id":"cebpf4jnsgd1na2vs0mg"},{"bike_id":"8127a379-abcb-448e-b192-b2b588a12b57","system_id":"levelo_inurba_marseille","lat":43.25756,"lon":5.41077,"is_reserved":false,"is_disabled":false,"rental_uris":{"android":"levelo://app?vid=8127a379-abcb-448e-b192-b2b588a12b57","ios":"levelo://app?vid=8127a379-abcb-448e-b192-b2b588a12b57"},"vehicle_type_id":"4","last_reported":1744024104,"current_range_meters":12800,"station_id":"","pricing_plan_id":"cebpf4jnsgd1na2vs0mg"},{"bike_id":"f3e1697d-6322-4b7c-bcd9-bfaaba5adcfb","system_id":"levelo_inurba_marseille","lat":43.31994,"lon":5.38098,"is_reserved":false,"is_disabled":true,"rental_uris":{"android":"levelo://app?vid=f3e1697d-6322-4b7c-bcd9-bfaaba5adcfb","ios":"levelo://app?vid=f3e1697d-6322-4b7c-bcd9-bfaaba5adcfb"},"vehicle_type_id":"4","last_reported":1744024104,"current_range_meters":12800,"station_id":"","pricing_plan_id":"cebpf4jnsgd1na2vs0mg"},{"bike_id":"adb4ee41-a46b-4f37-a518-a2b370471489","system_id":"levelo_inurba_marseille","lat":43.27314,"lon":5.41147,"is_reserved":false,"is_disabled":true,"rental_uris":{"android":"levelo://app?vid=adb4ee41-a46b-4f37-a518-a2b370471489","ios":"levelo://app?vid=adb4ee41-a46b-4f37-a518-a2b370471489"},"vehicle_type_id":"4","last_reported":1744024104,"current_range_meters":12800,"station_id":"","pricing_plan_id":"cebpf4jnsgd1na2vs0mg"},{"bike_id":"6bb42352-d3ad-4a2f-9f21-9eb6cc41e5ff","system_id":"levelo_inurba_marseille","lat":43.31227,"lon":5.3689,"is_reserved":false,"is_disabled":false,"rental_uris":{"android":"levelo://app?vid=6bb42352-d3ad-4a2f-9f21-9eb6cc41e5ff","ios":"levelo://app?vid=6bb42352-d3ad-4a2f-9f21-9eb6cc41e5ff"},"vehicle_type_id":"4","last_reported":1744024104,"current_range_meters":13600,"station_id":"ce4bgl92rcd13ifvqbq0","pricing_plan_id":"cebpf4jnsgd1na2vs0mg"},{"bike_id":"6a8ce604-b185-4aa5-a4e8-5c146d109b3f","system_id":"levelo_inurba_marseille","lat":43.28711,"lon":5.37955,"is_reserved":false,"is_disabled":true,"rental_uris":{"android":"levelo://app?vid=6a8ce604-b185-4aa5-a4e8-5c146d109b3f","ios":"levelo://app?vid=6a8ce604-b185-4aa5-a4e8-5c146d109b3f"},"vehicle_type_id":"4","last_reported":1744024104,"current_range_meters":13600,"station_id":"ce4bh9p2rcd13ifvqec0","pricing_plan_id":"cebpf4jnsgd1na2vs0mg"},{"bike_id":"613533fe-8381-465b-9d36-75a4b8b8bea7","system_id":"levelo_inurba_marseille","lat":43.29565,"lon":5.37503,"is_reserved":false,"is_disabled":false,"rental_uris":{"android":"levelo://app?vid=613533fe-8381-465b-9d36-75a4b8b8bea7","ios":"levelo://app?vid=613533fe-8381-465b-9d36-75a4b8b8bea7"},"vehicle_type_id":"4","last_reported":1744024104,"current_range_meters":13600,"station_id":"ce4bgh92rcd13ifvqb50","pricing_plan_id":"cebpf4jnsgd1na2vs0mg"},{"bike_id":"b5df04a8-8322-42f2-8d8a-f3a397da423c","system_id":"levelo_inurba_marseille","lat":43.28934,"lon":5.38399,"is_reserved":false,"is_disabled":false,"rental_uris":{"android":"levelo://app?vid=b5df04a8-8322-42f2-8d8a-f3a397da423c","ios":"levelo://app?vid=b5df04a8-8322-42f2-8d8a-f3a397da423c"},"vehicle_type_id":"4","last_reported":1744024104,"current_range_meters":13600,"station_id":"ce4bh612rcd13ifvqe6g","pricing_plan_id":"cebpf4jnsgd1na2vs0mg"},{"bike_id":"ed861851-ecbe-4db0-85ef-24b144399978","system_id":"levelo_inurba_marseille","lat":43.3116,"lon":5.3872,"is_reserved":false,"is_disabled":false,"rental_uris":{"android":"levelo://app?vid=ed861851-ecbe-4db0-85ef-24b144399978","ios":"levelo://app?vid=ed861851-ecbe-4db0-85ef-24b144399978"},"vehicle_type_id":"4","last_reported":1744024104,"current_range_meters":13600,"station_id":"ce4bgv12rcd13ifvqcp0","pricing_plan_id":"cebpf4jnsgd1na2vs0mg"},{"bike_id":"2f99d0f4-00a7-43f0-8284-d951842cf649","system_id":"levelo_inurba_marseille","lat":43.31993,"lon":5.38173,"is_reserved":false,"is_disabled":false,"rental_uris":{"android":"levelo://app?vid=2f99d0f4-00a7-43f0-8284-d951842cf649","ios":"levelo://app?vid=2f99d0f4-00a7-43f0-8284-d951842cf649"},"vehicle_type_id":"4","last_reported":1744024104,"current_range_meters":13600,"station_id":"ce4bhr12rcd13ifvqhpg","pricing_plan_id":"cebpf4jnsgd1na2vs0mg"},{"bike_id":"3dc5fce0-6e67-415e-820c-1f8c78dbcf12","system_id":"levelo_inurba_marseille","lat":43.28674,"lon":5.38666,"is_reserved":false,"is_disabled":false,"rental_uris":{"android":"levelo://app?vid=3dc5fce0-6e67-415e-820c-1f8c78dbcf12","ios":"levelo://app?vid=3dc5fce0-6e67-415e-820c-1f8c78dbcf12"},"vehicle_type_id":"4","last_reported":1744024104,"current_range_meters":13600,"station_id":"ce4bh492rcd13ifvqdug","pricing_plan_id":"cebpf4jnsgd1na2vs0mg"},{"bike_id":"13ff3b18-6597-40d4-908e-0b83fa3d498c","system_id":"levelo_inurba_marseille","lat":43.2996,"lon":5.41326,"is_reserved":false,"is_disabled":false,"rental_uris":{"android":"levelo://app?vid=13ff3b18-6597-40d4-908e-0b83fa3d498c","ios":"levelo://app?vid=13ff3b18-6597-40d4-908e-0b83fa3d498c"},"vehicle_type_id":"4","last_reported":1744024104,"current_range_meters":14000,"station_id":"ce4bhp12rcd13ifvqh9g","pricing_plan_id":"cebpf4jnsgd1na2vs0mg"},{"bike_id":"5400cc72-4a6e-4a6e-b199-40240e2cb372","system_id":"levelo_inurba_marseille","lat":43.28421,"lon":5.34982,"is_reserved":false,"is_disabled":false,"rental_uris":{"android":"levelo://app?vid=5400cc72-4a6e-4a6e-b199-40240e2cb372","ios":"levelo://app?vid=5400cc72-4a6e-4a6e-b199-40240e2cb372"},"vehicle_type_id":"4","last_reported":1744024104,"current_range_meters":14400,"station_id":"ce4bhbh2rcd13ifvqepg","pricing_plan_id":"cebpf4jnsgd1na2vs0mg"},{"bike_id":"82f28cf6-556c-431d-a12b-bd3ce5fc2f28","system_id":"levelo_inurba_marseille","lat":43.27505,"lon":5.37814,"is_reserved":false,"is_disabled":false,"rental_uris":{"android":"levelo://app?vid=82f28cf6-556c-431d-a12b-bd3ce5fc2f28","ios":"levelo://app?vid=82f28cf6-556c-431d-a12b-bd3ce5fc2f28"},"vehicle_type_id":"4","last_reported":1744024104,"current_range_meters":14400,"station_id":"","pricing_plan_id":"cebpf4jnsgd1na2vs0mg"},{"bike_id":"4662f2c9-aa99-4430-b56d-3b091c848158","system_id":"levelo_inurba_marseille","lat":43.26204,"lon":5.37455,"is_reserved":false,"is_disabled":false,"rental_uris":{"android":"levelo://app?vid=4662f2c9-aa99-4430-b56d-3b091c848158","ios":"levelo://app?vid=4662f2c9-aa99-4430-b56d-3b091c848158"},"vehicle_type_id":"4","last_reported":1744024104,"current_range_meters":14400,"station_id":"ce4bhgp2rcd13ifvqfc0","pricing_plan_id":"cebpf4jnsgd1na2vs0mg"},{"bike_id":"3576b946-70b3-456f-a60a-d98e227f015c","system_id":"levelo_inurba_marseille","lat":43.30086,"lon":5.38243,"is_reserved":false,"is_disabled":false,"rental_uris":{"android":"levelo://app?vid=3576b946-70b3-456f-a60a-d98e227f015c","ios":"levelo://app?vid=3576b946-70b3-456f-a60a-d98e227f015c"},"vehicle_type_id":"4","last_reported":1744024104,"current_range_meters":14400,"station_id":"ce4bgup2rcd13ifvqcn0","pricing_plan_id":"cebpf4jnsgd1na2vs0mg"},{"bike_id":"195d466e-12cf-49f0-96cc-c8d73e49ab55","system_id":"levelo_inurba_marseille","lat":43.29937,"lon":5.36551,"is_reserved":false,"is_disabled":false,"rental_uris":{"android":"levelo://app?vid=195d466e-12cf-49f0-96cc-c8d73e49ab55","ios":"levelo://app?vid=195d466e-12cf-49f0-96cc-c8d73e49ab55"},"vehicle_type_id":"4","last_reported":1744024104,"current_range_meters":14400,"station_id":"ce4bgm92rcd13ifvqbr0","pricing_plan_id":"cebpf4jnsgd1na2vs0mg"},{"bike_id":"19224d95-e048-4cbb-8884-43e0e6b3db9b","system_id":"levelo_inurba_marseille","lat":43.29883,"lon":5.39747,"is_reserved":false,"is_disabled":true,"rental_uris":{"android":"levelo://app?vid=19224d95-e048-4cbb-8884-43e0e6b3db9b","ios":"levelo://app?vid=19224d95-e048-4cbb-8884-43e0e6b3db9b"},"vehicle_type_id":"4","last_reported":1744024104,"current_range_meters":14400,"station_id":"ce4bh0h2rcd13ifvqd50","pricing_plan_id":"cebpf4jnsgd1na2vs0mg"},{"bike_id":"4eb632e4-f3ab-4e9d-ba73-7728294112c6","system_id":"levelo_inurba_marseille","lat":43.30253,"lon":5.40077,"is_reserved":false,"is_disabled":false,"rental_uris":{"android":"levelo://app?vid=4eb632e4-f3ab-4e9d-ba73-7728294112c6","ios":"levelo://app?vid=4eb632e4-f3ab-4e9d-ba73-7728294112c6"},"vehicle_type_id":"4","last_reported":1744024104,"current_range_meters":14400,"station_id":"ce4bgvh2rcd13ifvqcs0","pricing_plan_id":"cebpf4jnsgd1na2vs0mg"},{"bike_id":"8fcd6c7e-7a44-4b22-9c7e-3d98d3f79a67","system_id":"levelo_inurba_marseille","lat":43.25817,"lon":5.39439,"is_reserved":false,"is_disabled":false,"rental_uris":{"android":"levelo://app?vid=8fcd6c7e-7a44-4b22-9c7e-3d98d3f79a67","ios":"levelo://app?vid=8fcd6c7e-7a44-4b22-9c7e-3d98d3f79a67"},"vehicle_type_id":"4","last_reported":1744024104,"current_range_meters":14400,"station_id":"ce4bhip2rcd13ifvqft0","pricing_plan_id":"cebpf4jnsgd1na2vs0mg"},{"bike_id":"cc65c360-2c51-477e-b733-399e2ec581d2","system_id":"levelo_inurba_marseille","lat":43.2784,"lon":5.40681,"is_reserved":false,"is_disabled":false,"rental_uris":{"android":"levelo://app?vid=cc65c360-2c51-477e-b733-399e2ec581d2","ios":"levelo://app?vid=cc65c360-2c51-477e-b733-399e2ec581d2"},"vehicle_type_id":"4","last_reported":1744024104,"current_range_meters":14800,"station_id":"ce4bhnh2rcd13ifvqgtg","pricing_plan_id":"cebpf4jnsgd1na2vs0mg"},{"bike_id":"7dbe97ee-b413-454f-a37a-7fdc2b273a77","system_id":"levelo_inurba_marseille","lat":43.29907,"lon":5.37481,"is_reserved":false,"is_disabled":false,"rental_uris":{"android":"levelo://app?vid=7dbe97ee-b413-454f-a37a-7fdc2b273a77","ios":"levelo://app?vid=7dbe97ee-b413-454f-a37a-7fdc2b273a77"},"vehicle_type_id":"4","last_reported":1744024104,"current_range_meters":14800,"station_id":"ce4bgjh2rcd13ifvqbg0","pricing_plan_id":"cebpf4jnsgd1na2vs0mg"},{"bike_id":"2dc42fb5-3004-42c3-a10e-0511e5a08fb8","system_id":"levelo_inurba_marseille","lat":43.28855,"lon":5.39314,"is_reserved":false,"is_disabled":false,"rental_uris":{"android":"levelo://app?vid=2dc42fb5-3004-42c3-a10e-0511e5a08fb8","ios":"levelo://app?vid=2dc42fb5-3004-42c3-a10e-0511e5a08fb8"},"vehicle_type_id":"4","last_reported":1744024104,"current_range_meters":14800,"station_id":"ce4bh2p2rcd13ifvqdi0","pricing_plan_id":"cebpf4jnsgd1na2vs0mg"},{"bike_id":"4b9dfe05-0e60-423c-af4b-3ef6e8cad4ce","system_id":"levelo_inurba_marseille","lat":43.25106,"lon":5.40335,"is_reserved":false,"is_disabled":true,"rental_uris":{"android":"levelo://app?vid=4b9dfe05-0e60-423c-af4b-3ef6e8cad4ce","ios":"levelo://app?vid=4b9dfe05-0e60-423c-af4b-3ef6e8cad4ce"},"vehicle_type_id":"4","last_reported":1744024104,"current_range_meters":14800,"station_id":"ce4bhlh2rcd13ifvqgig","pricing_plan_id":"cebpf4jnsgd1na2vs0mg"},{"bike_id":"92a1d5fe-b2e8-4e3c-94aa-61e0e2abcbd9","system_id":"levelo_inurba_marseille","lat":43.30473,"lon":5.379,"is_reserved":false,"is_disabled":false,"rental_uris":{"android":"levelo://app?vid=92a1d5fe-b2e8-4e3c-94aa-61e0e2abcbd9","ios":"levelo://app?vid=92a1d5fe-b2e8-4e3c-94aa-61e0e2abcbd9"},"vehicle_type_id":"4","last_reported":1744024104,"current_range_meters":15200,"station_id":"ce4bgup2rcd13ifvqcn0","pricing_plan_id":"cebpf4jnsgd1na2vs0mg"},{"bike_id":"f17ce36f-e80a-4732-89e2-7a7dfab19d87","system_id":"levelo_inurba_marseille","lat":43.29895,"lon":5.43656,"is_reserved":false,"is_disabled":false,"rental_uris":{"android":"levelo://app?vid=f17ce36f-e80a-4732-89e2-7a7dfab19d87","ios":"levelo://app?vid=f17ce36f-e80a-4732-89e2-7a7dfab19d87"},"vehicle_type_id":"4","last_reported":1744024104,"current_range_meters":15200,"station_id":"ce4bhpp2rcd13ifvqhfg","pricing_plan_id":"cebpf4jnsgd1na2vs0mg"},{"bike_id":"2d844e00-6815-41ae-85b6-f420db58ee45","system_id":"levelo_inurba_marseille","lat":43.30946,"lon":5.39039,"is_reserved":false,"is_disabled":false,"rental_uris":{"android":"levelo://app?vid=2d844e00-6815-41ae-85b6-f420db58ee45","ios":"levelo://app?vid=2d844e00-6815-41ae-85b6-f420db58ee45"},"vehicle_type_id":"4","last_reported":1744024104,"current_range_meters":15200,"station_id":"ce4bgup2rcd13ifvqco0","pricing_plan_id":"cebpf4jnsgd1na2vs0mg"},{"bike_id":"7d45f83f-223a-408d-9dad-6aa09b86a956","system_id":"levelo_inurba_marseille","lat":43.30954,"lon":5.39047,"is_reserved":false,"is_disabled":false,"rental_uris":{"android":"levelo://app?vid=7d45f83f-223a-408d-9dad-6aa09b86a956","ios":"levelo://app?vid=7d45f83f-223a-408d-9dad-6aa09b86a956"},"vehicle_type_id":"4","last_reported":1744024104,"current_range_meters":15200,"station_id":"ce4bgup2rcd13ifvqco0","pricing_plan_id":"cebpf4jnsgd1na2vs0mg"},{"bike_id":"1d085f39-182d-4cda-bb2c-ac3d5d3220d2","system_id":"levelo_inurba_marseille","lat":43.23151,"lon":5.437307,"is_reserved":false,"is_disabled":false,"rental_uris":{"android":"levelo://app?vid=1d085f39-182d-4cda-bb2c-ac3d5d3220d2","ios":"levelo://app?vid=1d085f39-182d-4cda-bb2c-ac3d5d3220d2"},"vehicle_type_id":"4","last_reported":1744024104,"current_range_meters":15200,"station_id":"ce4bhmp2rcd13ifvqgog","pricing_plan_id":"cebpf4jnsgd1na2vs0mg"},{"bike_id":"f0013d49-26ce-4d4e-9644-931b18426627","system_id":"levelo_inurba_marseille","lat":43.24179,"lon":5.39734,"is_reserved":false,"is_disabled":false,"rental_uris":{"android":"levelo://app?vid=f0013d49-26ce-4d4e-9644-931b18426627","ios":"levelo://app?vid=f0013d49-26ce-4d4e-9644-931b18426627"},"vehicle_type_id":"4","last_reported":1744024104,"current_range_meters":15200,"station_id":"ce4bhn12rcd13ifvqgpg","pricing_plan_id":"cebpf4jnsgd1na2vs0mg"},{"bike_id":"4e63bc7f-b907-45ea-bc67-f61c9be2b9d6","system_id":"levelo_inurba_marseille","lat":43.29975,"lon":5.3849,"is_reserved":false,"is_disabled":true,"rental_uris":{"android":"levelo://app?vid=4e63bc7f-b907-45ea-bc67-f61c9be2b9d6","ios":"levelo://app?vid=4e63bc7f-b907-45ea-bc67-f61c9be2b9d6"},"vehicle_type_id":"4","last_reported":1744024104,"current_range_meters":15200,"station_id":"ce4bgj92rcd13ifvqbd0","pricing_plan_id":"cebpf4jnsgd1na2vs0mg"},{"bike_id":"d991899b-87af-4068-b941-45f595fb8d2d","system_id":"levelo_inurba_marseille","lat":43.27908,"lon":5.39584,"is_reserved":false,"is_disabled":false,"rental_uris":{"android":"levelo://app?vid=d991899b-87af-4068-b941-45f595fb8d2d","ios":"levelo://app?vid=d991899b-87af-4068-b941-45f595fb8d2d"},"vehicle_type_id":"4","last_reported":1744024104,"current_range_meters":15200,"station_id":"ce4bhf92rcd13ifvqf40","pricing_plan_id":"cebpf4jnsgd1na2vs0mg"},{"bike_id":"2b95d45a-8fc3-4057-8016-f8c26e94ac23","system_id":"levelo_inurba_marseille","lat":43.30959,"lon":5.3906,"is_reserved":false,"is_disabled":false,"rental_uris":{"android":"levelo://app?vid=2b95d45a-8fc3-4057-8016-f8c26e94ac23","ios":"levelo://app?vid=2b95d45a-8fc3-4057-8016-f8c26e94ac23"},"vehicle_type_id":"4","last_reported":1744024104,"current_range_meters":16000,"station_id":"ce4bgup2rcd13ifvqco0","pricing_plan_id":"cebpf4jnsgd1na2vs0mg"},{"bike_id":"ec7d3251-d53b-4874-b96d-6dae899b6aa1","system_id":"levelo_inurba_marseille","lat":43.27208,"lon":5.39193,"is_reserved":false,"is_disabled":true,"rental_uris":{"android":"levelo://app?vid=ec7d3251-d53b-4874-b96d-6dae899b6aa1","ios":"levelo://app?vid=ec7d3251-d53b-4874-b96d-6dae899b6aa1"},"vehicle_type_id":"4","last_reported":1744024104,"current_range_meters":16000,"station_id":"ce4bhhp2rcd13ifvqfm0","pricing_plan_id":"cebpf4jnsgd1na2vs0mg"},{"bike_id":"2eb6ee92-4649-4d41-a01d-4d02f8eba687","system_id":"levelo_inurba_marseille","lat":43.2993,"lon":5.36549,"is_reserved":false,"is_disabled":false,"rental_uris":{"android":"levelo://app?vid=2eb6ee92-4649-4d41-a01d-4d02f8eba687","ios":"levelo://app?vid=2eb6ee92-4649-4d41-a01d-4d02f8eba687"},"vehicle_type_id":"4","last_reported":1744024104,"current_range_meters":16000,"station_id":"ce4bgm92rcd13ifvqbr0","pricing_plan_id":"cebpf4jnsgd1na2vs0mg"},{"bike_id":"b023f26d-4ba0-4c78-9432-daac19db61ce","system_id":"levelo_inurba_marseille","lat":43.24544,"lon":5.3955,"is_reserved":false,"is_disabled":false,"rental_uris":{"android":"levelo://app?vid=b023f26d-4ba0-4c78-9432-daac19db61ce","ios":"levelo://app?vid=b023f26d-4ba0-4c78-9432-daac19db61ce"},"vehicle_type_id":"4","last_reported":1744024104,"current_range_meters":16400,"station_id":"ce4bhlp2rcd13ifvqgjg","pricing_plan_id":"cebpf4jnsgd1na2vs0mg"},{"bike_id":"aefc70cd-f095-480b-9c52-2f150e2fbe89","system_id":"levelo_inurba_marseille","lat":43.30953,"lon":5.39044,"is_reserved":false,"is_disabled":false,"rental_uris":{"android":"levelo://app?vid=aefc70cd-f095-480b-9c52-2f150e2fbe89","ios":"levelo://app?vid=aefc70cd-f095-480b-9c52-2f150e2fbe89"},"vehicle_type_id":"4","last_reported":1744024104,"current_range_meters":16400,"station_id":"ce4bgup2rcd13ifvqco0","pricing_plan_id":"cebpf4jnsgd1na2vs0mg"},{"bike_id":"e21cd295-b685-4157-a011-0c73f5d724b0","system_id":"levelo_inurba_marseille","lat":43.28151,"lon":5.42638,"is_reserved":false,"is_disabled":false,"rental_uris":{"android":"levelo://app?vid=e21cd295-b685-4157-a011-0c73f5d724b0","ios":"levelo://app?vid=e21cd295-b685-4157-a011-0c73f5d724b0"},"vehicle_type_id":"4","last_reported":1744024104,"current_range_meters":16400,"station_id":"ce4bhnh2rcd13ifvqgug","pricing_plan_id":"cebpf4jnsgd1na2vs0mg"},{"bike_id":"0aa02c49-cbb3-4907-a588-f754056f3ba8","system_id":"levelo_inurba_marseille","lat":43.30813,"lon":5.38135,"is_reserved":false,"is_disabled":true,"rental_uris":{"android":"levelo://app?vid=0aa02c49-cbb3-4907-a588-f754056f3ba8","ios":"levelo://app?vid=0aa02c49-cbb3-4907-a588-f754056f3ba8"},"vehicle_type_id":"4","last_reported":1744024104,"current_range_meters":16400,"station_id":"ce4bgt12rcd13ifvqce0","pricing_plan_id":"cebpf4jnsgd1na2vs0mg"},{"bike_id":"21312fba-96b0-48cf-a8a0-cdac2ce412e7","system_id":"levelo_inurba_marseille","lat":43.29531,"lon":5.39041,"is_reserved":false,"is_disabled":false,"rental_uris":{"android":"levelo://app?vid=21312fba-96b0-48cf-a8a0-cdac2ce412e7","ios":"levelo://app?vid=21312fba-96b0-48cf-a8a0-cdac2ce412e7"},"vehicle_type_id":"4","last_reported":1744024104,"current_range_meters":16400,"station_id":"ce4bh3p2rcd13ifvqdp0","pricing_plan_id":"cebpf4jnsgd1na2vs0mg"},{"bike_id":"f9ff5b9f-478a-41eb-b7d8-e0eb461c98ab","system_id":"levelo_inurba_marseille","lat":43.26211,"lon":5.37441,"is_reserved":false,"is_disabled":false,"rental_uris":{"android":"levelo://app?vid=f9ff5b9f-478a-41eb-b7d8-e0eb461c98ab","ios":"levelo://app?vid=f9ff5b9f-478a-41eb-b7d8-e0eb461c98ab"},"vehicle_type_id":"4","last_reported":1744024104,"current_range_meters":16400,"station_id":"ce4bhgp2rcd13ifvqfc0","pricing_plan_id":"cebpf4jnsgd1na2vs0mg"},{"bike_id":"889763a9-aa13-4a71-bb0c-e1cb1d4e9045","system_id":"levelo_inurba_marseille","lat":43.309152,"lon":5.368454,"is_reserved":false,"is_disabled":false,"rental_uris":{"android":"levelo://app?vid=889763a9-aa13-4a71-bb0c-e1cb1d4e9045","ios":"levelo://app?vid=889763a9-aa13-4a71-bb0c-e1cb1d4e9045"},"vehicle_type_id":"4","last_reported":1744024104,"current_range_meters":16400,"station_id":"ce4bgn92rcd13ifvqbvg","pricing_plan_id":"cebpf4jnsgd1na2vs0mg"},{"bike_id":"16a3a95f-5f59-4012-91b8-a44fd61d80a9","system_id":"levelo_inurba_marseille","lat":43.31354,"lon":5.38491,"is_reserved":false,"is_disabled":false,"rental_uris":{"android":"levelo://app?vid=16a3a95f-5f59-4012-91b8-a44fd61d80a9","ios":"levelo://app?vid=16a3a95f-5f59-4012-91b8-a44fd61d80a9"},"vehicle_type_id":"4","last_reported":1744024104,"current_range_meters":16400,"station_id":"ce4bgt92rcd13ifvqcf0","pricing_plan_id":"cebpf4jnsgd1na2vs0mg"},{"bike_id":"67f9198a-5c42-4888-8679-ed9fff871b15","system_id":"levelo_inurba_marseille","lat":43.25098,"lon":5.40325,"is_reserved":false,"is_disabled":false,"rental_uris":{"android":"levelo://app?vid=67f9198a-5c42-4888-8679-ed9fff871b15","ios":"levelo://app?vid=67f9198a-5c42-4888-8679-ed9fff871b15"},"vehicle_type_id":"4","last_reported":1744024104,"current_range_meters":16400,"station_id":"ce4bhlh2rcd13ifvqgig","pricing_plan_id":"cebpf4jnsgd1na2vs0mg"},{"bike_id":"45163737-8ce4-4a0a-b335-04cd36d73c79","system_id":"levelo_inurba_marseille","lat":43.32491,"lon":5.36584,"is_reserved":false,"is_disabled":false,"rental_uris":{"android":"levelo://app?vid=45163737-8ce4-4a0a-b335-04cd36d73c79","ios":"levelo://app?vid=45163737-8ce4-4a0a-b335-04cd36d73c79"},"vehicle_type_id":"4","last_reported":1744024104,"current_range_meters":16800,"station_id":"ce4bhs12rcd13ifvqhvg","pricing_plan_id":"cebpf4jnsgd1na2vs0mg"},{"bike_id":"2699cb97-bdb7-42aa-b45f-627ed26c8a35","system_id":"levelo_inurba_marseille","lat":43.30358,"lon":5.41886,"is_reserved":false,"is_disabled":false,"rental_uris":{"android":"levelo://app?vid=2699cb97-bdb7-42aa-b45f-627ed26c8a35","ios":"levelo://app?vid=2699cb97-bdb7-42aa-b45f-627ed26c8a35"},"vehicle_type_id":"4","last_reported":1744024104,"current_range_meters":16800,"station_id":"ce4bhop2rcd13ifvqh7g","pricing_plan_id":"cebpf4jnsgd1na2vs0mg"},{"bike_id":"0e15af95-8e49-4aa4-9628-ef2a06d14e76","system_id":"levelo_inurba_marseille","lat":43.30308,"lon":5.36905,"is_reserved":false,"is_disabled":false,"rental_uris":{"android":"levelo://app?vid=0e15af95-8e49-4aa4-9628-ef2a06d14e76","ios":"levelo://app?vid=0e15af95-8e49-4aa4-9628-ef2a06d14e76"},"vehicle_type_id":"4","last_reported":1744024104,"current_range_meters":16800,"station_id":"ce4bgqh2rcd13ifvqc5g","pricing_plan_id":"cebpf4jnsgd1na2vs0mg"},{"bike_id":"d94c749a-049f-46bd-b99f-252d4f10b4de","system_id":"levelo_inurba_marseille","lat":43.30972,"lon":5.36782,"is_reserved":false,"is_disabled":false,"rental_uris":{"android":"levelo://app?vid=d94c749a-049f-46bd-b99f-252d4f10b4de","ios":"levelo://app?vid=d94c749a-049f-46bd-b99f-252d4f10b4de"},"vehicle_type_id":"4","last_reported":1744024104,"current_range_meters":16800,"station_id":"","pricing_plan_id":"cebpf4jnsgd1na2vs0mg"},{"bike_id":"140bcc9c-7a15-47b1-a546-a2322d7111c7","system_id":"levelo_inurba_marseille","lat":43.31219,"lon":5.36893,"is_reserved":false,"is_disabled":false,"rental_uris":{"android":"levelo://app?vid=140bcc9c-7a15-47b1-a546-a2322d7111c7","ios":"levelo://app?vid=140bcc9c-7a15-47b1-a546-a2322d7111c7"},"vehicle_type_id":"4","last_reported":1744024104,"current_range_meters":16800,"station_id":"ce4bgl92rcd13ifvqbq0","pricing_plan_id":"cebpf4jnsgd1na2vs0mg"},{"bike_id":"68d1cc33-0218-451e-8e10-d32225c21263","system_id":"levelo_inurba_marseille","lat":43.23155,"lon":5.43704,"is_reserved":false,"is_disabled":true,"rental_uris":{"android":"levelo://app?vid=68d1cc33-0218-451e-8e10-d32225c21263","ios":"levelo://app?vid=68d1cc33-0218-451e-8e10-d32225c21263"},"vehicle_type_id":"4","last_reported":1744024104,"current_range_meters":16800,"station_id":"ce4bhmp2rcd13ifvqgog","pricing_plan_id":"cebpf4jnsgd1na2vs0mg"},{"bike_id":"b0b64182-7422-4ad1-a9bd-29d15a3a9067","system_id":"levelo_inurba_marseille","lat":43.2927,"lon":5.3845,"is_reserved":false,"is_disabled":false,"rental_uris":{"android":"levelo://app?vid=b0b64182-7422-4ad1-a9bd-29d15a3a9067","ios":"levelo://app?vid=b0b64182-7422-4ad1-a9bd-29d15a3a9067"},"vehicle_type_id":"4","last_reported":1744024104,"current_range_meters":16800,"station_id":"ce4bh692rcd13ifvqea0","pricing_plan_id":"cebpf4jnsgd1na2vs0mg"},{"bike_id":"7cfa5675-d282-4612-bd06-0ed4e3c042c6","system_id":"levelo_inurba_marseille","lat":43.28852,"lon":5.35839,"is_reserved":false,"is_disabled":false,"rental_uris":{"android":"levelo://app?vid=7cfa5675-d282-4612-bd06-0ed4e3c042c6","ios":"levelo://app?vid=7cfa5675-d282-4612-bd06-0ed4e3c042c6"},"vehicle_type_id":"4","last_reported":1744024104,"current_range_meters":16800,"station_id":"ce4bhb12rcd13ifvqem0","pricing_plan_id":"cebpf4jnsgd1na2vs0mg"},{"bike_id":"9553df65-e443-4362-b677-a461b998cc69","system_id":"levelo_inurba_marseille","lat":43.30902,"lon":5.3721,"is_reserved":false,"is_disabled":false,"rental_uris":{"android":"levelo://app?vid=9553df65-e443-4362-b677-a461b998cc69","ios":"levelo://app?vid=9553df65-e443-4362-b677-a461b998cc69"},"vehicle_type_id":"4","last_reported":1744024104,"current_range_meters":16400,"station_id":"ce4bguh2rcd13ifvqckg","pricing_plan_id":"cebpf4jnsgd1na2vs0mg"},{"bike_id":"4e7856fd-1121-4895-ac45-838f693e5e86","system_id":"levelo_inurba_marseille","lat":43.31678,"lon":5.40473,"is_reserved":false,"is_disabled":false,"rental_uris":{"android":"levelo://app?vid=4e7856fd-1121-4895-ac45-838f693e5e86","ios":"levelo://app?vid=4e7856fd-1121-4895-ac45-838f693e5e86"},"vehicle_type_id":"4","last_reported":1744024104,"current_range_meters":17200,"station_id":"ce4bh012rcd13ifvqd00","pricing_plan_id":"cebpf4jnsgd1na2vs0mg"},{"bike_id":"777b97cb-fb84-4a29-ae08-f27a30ed71fe","system_id":"levelo_inurba_marseille","lat":43.29711,"lon":5.37693,"is_reserved":false,"is_disabled":false,"rental_uris":{"android":"levelo://app?vid=777b97cb-fb84-4a29-ae08-f27a30ed71fe","ios":"levelo://app?vid=777b97cb-fb84-4a29-ae08-f27a30ed71fe"},"vehicle_type_id":"4","last_reported":1744024104,"current_range_meters":17200,"station_id":"ce4bgkh2rcd13ifvqbl0","pricing_plan_id":"cebpf4jnsgd1na2vs0mg"},{"bike_id":"62e5e374-4532-4573-9884-6e56bde232db","system_id":"levelo_inurba_marseille","lat":43.30589,"lon":5.37195,"is_reserved":false,"is_disabled":false,"rental_uris":{"android":"levelo://app?vid=62e5e374-4532-4573-9884-6e56bde232db","ios":"levelo://app?vid=62e5e374-4532-4573-9884-6e56bde232db"},"vehicle_type_id":"4","last_reported":1744024104,"current_range_meters":16800,"station_id":"ce4bgqh2rcd13ifvqc4g","pricing_plan_id":"cebpf4jnsgd1na2vs0mg"},{"bike_id":"9e0829d0-dc9c-45ad-978e-48b61761a490","system_id":"levelo_inurba_marseille","lat":43.30963,"lon":5.39036,"is_reserved":false,"is_disabled":false,"rental_uris":{"android":"levelo://app?vid=9e0829d0-dc9c-45ad-978e-48b61761a490","ios":"levelo://app?vid=9e0829d0-dc9c-45ad-978e-48b61761a490"},"vehicle_type_id":"4","last_reported":1744024104,"current_range_meters":17200,"station_id":"ce4bgup2rcd13ifvqco0","pricing_plan_id":"cebpf4jnsgd1na2vs0mg"},{"bike_id":"93d35b09-13da-493c-a66d-b6283fe79923","system_id":"levelo_inurba_marseille","lat":43.26787,"lon":5.39435,"is_reserved":false,"is_disabled":true,"rental_uris":{"android":"levelo://app?vid=93d35b09-13da-493c-a66d-b6283fe79923","ios":"levelo://app?vid=93d35b09-13da-493c-a66d-b6283fe79923"},"vehicle_type_id":"4","last_reported":1744024104,"current_range_meters":17200,"station_id":"ce4bhh12rcd13ifvqfg0","pricing_plan_id":"cebpf4jnsgd1na2vs0mg"},{"bike_id":"2f48ec57-d212-4e94-8bdf-81b7a8f04386","system_id":"levelo_inurba_marseille","lat":43.27208,"lon":5.39191,"is_reserved":false,"is_disabled":true,"rental_uris":{"android":"levelo://app?vid=2f48ec57-d212-4e94-8bdf-81b7a8f04386","ios":"levelo://app?vid=2f48ec57-d212-4e94-8bdf-81b7a8f04386"},"vehicle_type_id":"4","last_reported":1744024104,"current_range_meters":17200,"station_id":"ce4bhhp2rcd13ifvqfm0","pricing_plan_id":"cebpf4jnsgd1na2vs0mg"},{"bike_id":"f7ca4b30-e7d0-48eb-925a-fb767126bfcd","system_id":"levelo_inurba_marseille","lat":43.32538,"lon":5.41469,"is_reserved":false,"is_disabled":false,"rental_uris":{"android":"levelo://app?vid=f7ca4b30-e7d0-48eb-925a-fb767126bfcd","ios":"levelo://app?vid=f7ca4b30-e7d0-48eb-925a-fb767126bfcd"},"vehicle_type_id":"4","last_reported":1744024104,"current_range_meters":17200,"station_id":"ce4bhq12rcd13ifvqhhg","pricing_plan_id":"cebpf4jnsgd1na2vs0mg"},{"bike_id":"7a935817-47e2-4cb3-8324-a647fdf3a140","system_id":"levelo_inurba_marseille","lat":43.29558,"lon":5.38558,"is_reserved":false,"is_disabled":true,"rental_uris":{"android":"levelo://app?vid=7a935817-47e2-4cb3-8324-a647fdf3a140","ios":"levelo://app?vid=7a935817-47e2-4cb3-8324-a647fdf3a140"},"vehicle_type_id":"4","last_reported":1744024104,"current_range_meters":17200,"station_id":"ce4bgih2rcd13ifvqba0","pricing_plan_id":"cebpf4jnsgd1na2vs0mg"},{"bike_id":"3e602309-c2cc-49c9-984b-ceb6bc2fb252","system_id":"levelo_inurba_marseille","lat":43.3056,"lon":5.3653,"is_reserved":false,"is_disabled":false,"rental_uris":{"android":"levelo://app?vid=3e602309-c2cc-49c9-984b-ceb6bc2fb252","ios":"levelo://app?vid=3e602309-c2cc-49c9-984b-ceb6bc2fb252"},"vehicle_type_id":"4","last_reported":1744024104,"current_range_meters":17200,"station_id":"ce4bgs12rcd13ifvqcag","pricing_plan_id":"cebpf4jnsgd1na2vs0mg"},{"bike_id":"45d83681-f2eb-4a39-a20c-4022ba893ea0","system_id":"levelo_inurba_marseille","lat":43.339177,"lon":5.392017,"is_reserved":false,"is_disabled":false,"rental_uris":{"android":"levelo://app?vid=45d83681-f2eb-4a39-a20c-4022ba893ea0","ios":"levelo://app?vid=45d83681-f2eb-4a39-a20c-4022ba893ea0"},"vehicle_type_id":"4","last_reported":1744024104,"current_range_meters":17200,"station_id":"","pricing_plan_id":"cebpf4jnsgd1na2vs0mg"},{"bike_id":"a2b55975-55e4-4a3f-8af7-2c27ff45ed68","system_id":"levelo_inurba_marseille","lat":43.28173,"lon":5.42622,"is_reserved":false,"is_disabled":true,"rental_uris":{"android":"levelo://app?vid=a2b55975-55e4-4a3f-8af7-2c27ff45ed68","ios":"levelo://app?vid=a2b55975-55e4-4a3f-8af7-2c27ff45ed68"},"vehicle_type_id":"4","last_reported":1744024104,"current_range_meters":17600,"station_id":"ce4bhnh2rcd13ifvqgug","pricing_plan_id":"cebpf4jnsgd1na2vs0mg"},{"bike_id":"c5d24002-08b3-4186-bce2-f4fba78b1bfd","system_id":"levelo_inurba_marseille","lat":43.29966,"lon":5.41329,"is_reserved":false,"is_disabled":false,"rental_uris":{"android":"levelo://app?vid=c5d24002-08b3-4186-bce2-f4fba78b1bfd","ios":"levelo://app?vid=c5d24002-08b3-4186-bce2-f4fba78b1bfd"},"vehicle_type_id":"4","last_reported":1744024104,"current_range_meters":17600,"station_id":"ce4bhp12rcd13ifvqh9g","pricing_plan_id":"cebpf4jnsgd1na2vs0mg"},{"bike_id":"acecf514-9430-4d42-88a7-2a98b02c2aee","system_id":"levelo_inurba_marseille","lat":43.319363,"lon":5.369907,"is_reserved":false,"is_disabled":true,"rental_uris":{"android":"levelo://app?vid=acecf514-9430-4d42-88a7-2a98b02c2aee","ios":"levelo://app?vid=acecf514-9430-4d42-88a7-2a98b02c2aee"},"vehicle_type_id":"4","last_reported":1744024104,"current_range_meters":17600,"station_id":"","pricing_plan_id":"cebpf4jnsgd1na2vs0mg"},{"bike_id":"121914be-9601-416e-a477-f6982c924c91","system_id":"levelo_inurba_marseille","lat":43.29804,"lon":5.38083,"is_reserved":false,"is_disabled":false,"rental_uris":{"android":"levelo://app?vid=121914be-9601-416e-a477-f6982c924c91","ios":"levelo://app?vid=121914be-9601-416e-a477-f6982c924c91"},"vehicle_type_id":"4","last_reported":1744024104,"current_range_meters":17600,"station_id":"ce4bgip2rcd13ifvqbb0","pricing_plan_id":"cebpf4jnsgd1na2vs0mg"},{"bike_id":"04146b16-d749-44f7-9f82-8fc500270f0a","system_id":"levelo_inurba_marseille","lat":43.31324,"lon":5.39702,"is_reserved":false,"is_disabled":false,"rental_uris":{"android":"levelo://app?vid=04146b16-d749-44f7-9f82-8fc500270f0a","ios":"levelo://app?vid=04146b16-d749-44f7-9f82-8fc500270f0a"},"vehicle_type_id":"4","last_reported":1744024104,"current_range_meters":17200,"station_id":"ce4bgvp2rcd13ifvqcu0","pricing_plan_id":"cebpf4jnsgd1na2vs0mg"},{"bike_id":"351863ca-8a8c-44f1-9dd7-49fd8388172d","system_id":"levelo_inurba_marseille","lat":43.24206,"lon":5.39722,"is_reserved":false,"is_disabled":false,"rental_uris":{"android":"levelo://app?vid=351863ca-8a8c-44f1-9dd7-49fd8388172d","ios":"levelo://app?vid=351863ca-8a8c-44f1-9dd7-49fd8388172d"},"vehicle_type_id":"4","last_reported":1744024104,"current_range_meters":17600,"station_id":"ce4bhn12rcd13ifvqgpg","pricing_plan_id":"cebpf4jnsgd1na2vs0mg"},{"bike_id":"d01814b3-39f1-4bf5-905f-07c6028f7394","system_id":"levelo_inurba_marseille","lat":43.32105,"lon":5.36784,"is_reserved":false,"is_disabled":false,"rental_uris":{"android":"levelo://app?vid=d01814b3-39f1-4bf5-905f-07c6028f7394","ios":"levelo://app?vid=d01814b3-39f1-4bf5-905f-07c6028f7394"},"vehicle_type_id":"4","last_reported":1744024104,"current_range_meters":17600,"station_id":"ce4bhrh2rcd13ifvqhug","pricing_plan_id":"cebpf4jnsgd1na2vs0mg"},{"bike_id":"31f17291-e79d-4c63-af8f-2e9fee5de049","system_id":"levelo_inurba_marseille","lat":43.2861,"lon":5.37096,"is_reserved":false,"is_disabled":false,"rental_uris":{"android":"levelo://app?vid=31f17291-e79d-4c63-af8f-2e9fee5de049","ios":"levelo://app?vid=31f17291-e79d-4c63-af8f-2e9fee5de049"},"vehicle_type_id":"4","last_reported":1744024104,"current_range_meters":18000,"station_id":"ce4bht12rcd13ifvqi60","pricing_plan_id":"cebpf4jnsgd1na2vs0mg"},{"bike_id":"2f237029-6159-4fc1-b562-bf0b0d4254bd","system_id":"levelo_inurba_marseille","lat":43.25505,"lon":5.37661,"is_reserved":false,"is_disabled":false,"rental_uris":{"android":"levelo://app?vid=2f237029-6159-4fc1-b562-bf0b0d4254bd","ios":"levelo://app?vid=2f237029-6159-4fc1-b562-bf0b0d4254bd"},"vehicle_type_id":"4","last_reported":1744024104,"current_range_meters":18800,"station_id":"ce4bhh12rcd13ifvqff0","pricing_plan_id":"cebpf4jnsgd1na2vs0mg"},{"bike_id":"5f9d16aa-61b1-4636-8345-61a4681dbeec","system_id":"levelo_inurba_marseille","lat":43.30547,"lon":5.36523,"is_reserved":false,"is_disabled":false,"rental_uris":{"android":"levelo://app?vid=5f9d16aa-61b1-4636-8345-61a4681dbeec","ios":"levelo://app?vid=5f9d16aa-61b1-4636-8345-61a4681dbeec"},"vehicle_type_id":"4","last_reported":1744024104,"current_range_meters":18800,"station_id":"ce4bgs12rcd13ifvqcag","pricing_plan_id":"cebpf4jnsgd1na2vs0mg"},{"bike_id":"9acd2242-70f6-42a4-ad2d-12174a3d71d8","system_id":"levelo_inurba_marseille","lat":43.27674,"lon":5.38938,"is_reserved":false,"is_disabled":true,"rental_uris":{"android":"levelo://app?vid=9acd2242-70f6-42a4-ad2d-12174a3d71d8","ios":"levelo://app?vid=9acd2242-70f6-42a4-ad2d-12174a3d71d8"},"vehicle_type_id":"4","last_reported":1744024104,"current_range_meters":18800,"station_id":"ce4bhi12rcd13ifvqfo0","pricing_plan_id":"cebpf4jnsgd1na2vs0mg"},{"bike_id":"390bee0f-343e-4eac-a0e2-d5286bb2a4ac","system_id":"levelo_inurba_marseille","lat":43.29928,"lon":5.3747,"is_reserved":false,"is_disabled":false,"rental_uris":{"android":"levelo://app?vid=390bee0f-343e-4eac-a0e2-d5286bb2a4ac","ios":"levelo://app?vid=390bee0f-343e-4eac-a0e2-d5286bb2a4ac"},"vehicle_type_id":"4","last_reported":1744024104,"current_range_meters":18800,"station_id":"ce4bgjh2rcd13ifvqbg0","pricing_plan_id":"cebpf4jnsgd1na2vs0mg"},{"bike_id":"f0605370-f749-4f96-9ef9-c7070173b394","system_id":"levelo_inurba_marseille","lat":43.299038,"lon":5.381345,"is_reserved":false,"is_disabled":true,"rental_uris":{"android":"levelo://app?vid=f0605370-f749-4f96-9ef9-c7070173b394","ios":"levelo://app?vid=f0605370-f749-4f96-9ef9-c7070173b394"},"vehicle_type_id":"4","last_reported":1744024104,"current_range_meters":18800,"station_id":"ce4bgj12rcd13ifvqbc0","pricing_plan_id":"cebpf4jnsgd1na2vs0mg"},{"bike_id":"6e075b59-3d68-4e19-a110-435dd166e2e6","system_id":"levelo_inurba_marseille","lat":43.26231,"lon":5.40453,"is_reserved":false,"is_disabled":false,"rental_uris":{"android":"levelo://app?vid=6e075b59-3d68-4e19-a110-435dd166e2e6","ios":"levelo://app?vid=6e075b59-3d68-4e19-a110-435dd166e2e6"},"vehicle_type_id":"4","last_reported":1744024104,"current_range_meters":18800,"station_id":"ce4bhmh2rcd13ifvqgmg","pricing_plan_id":"cebpf4jnsgd1na2vs0mg"},{"bike_id":"76e09680-8b64-470b-b492-4458252f199c","system_id":"levelo_inurba_marseille","lat":43.23164,"lon":5.43707,"is_reserved":false,"is_disabled":false,"rental_uris":{"android":"levelo://app?vid=76e09680-8b64-470b-b492-4458252f199c","ios":"levelo://app?vid=76e09680-8b64-470b-b492-4458252f199c"},"vehicle_type_id":"4","last_reported":1744024104,"current_range_meters":18800,"station_id":"ce4bhmp2rcd13ifvqgog","pricing_plan_id":"cebpf4jnsgd1na2vs0mg"},{"bike_id":"df1a66de-f819-4d0e-bbb1-5ed414b08e59","system_id":"levelo_inurba_marseille","lat":43.309431,"lon":5.39035,"is_reserved":false,"is_disabled":false,"rental_uris":{"android":"levelo://app?vid=df1a66de-f819-4d0e-bbb1-5ed414b08e59","ios":"levelo://app?vid=df1a66de-f819-4d0e-bbb1-5ed414b08e59"},"vehicle_type_id":"4","last_reported":1744024104,"current_range_meters":18800,"station_id":"ce4bgup2rcd13ifvqco0","pricing_plan_id":"cebpf4jnsgd1na2vs0mg"},{"bike_id":"1c72e106-5ae0-4b4c-a742-69852a9360d6","system_id":"levelo_inurba_marseille","lat":43.29265,"lon":5.3843,"is_reserved":false,"is_disabled":false,"rental_uris":{"android":"levelo://app?vid=1c72e106-5ae0-4b4c-a742-69852a9360d6","ios":"levelo://app?vid=1c72e106-5ae0-4b4c-a742-69852a9360d6"},"vehicle_type_id":"4","last_reported":1744024104,"current_range_meters":18800,"station_id":"ce4bh692rcd13ifvqea0","pricing_plan_id":"cebpf4jnsgd1na2vs0mg"},{"bike_id":"f7f9ca86-d028-434a-a7bc-1167b0aa9e77","system_id":"levelo_inurba_marseille","lat":43.25077,"lon":5.3952,"is_reserved":false,"is_disabled":false,"rental_uris":{"android":"levelo://app?vid=f7f9ca86-d028-434a-a7bc-1167b0aa9e77","ios":"levelo://app?vid=f7f9ca86-d028-434a-a7bc-1167b0aa9e77"},"vehicle_type_id":"4","last_reported":1744024104,"current_range_meters":18800,"station_id":"ce4bhm12rcd13ifvqgkg","pricing_plan_id":"cebpf4jnsgd1na2vs0mg"},{"bike_id":"c688b910-3177-404d-8d96-2d8e31b4aa00","system_id":"levelo_inurba_marseille","lat":43.29621,"lon":5.371547,"is_reserved":false,"is_disabled":true,"rental_uris":{"android":"levelo://app?vid=c688b910-3177-404d-8d96-2d8e31b4aa00","ios":"levelo://app?vid=c688b910-3177-404d-8d96-2d8e31b4aa00"},"vehicle_type_id":"4","last_reported":1744024104,"current_range_meters":18800,"station_id":"ce4bgnh2rcd13ifvqc0g","pricing_plan_id":"cebpf4jnsgd1na2vs0mg"},{"bike_id":"f122634c-29cd-4e50-bfeb-d1b6e5cfd499","system_id":"levelo_inurba_marseille","lat":43.295927,"lon":5.380985,"is_reserved":false,"is_disabled":true,"rental_uris":{"android":"levelo://app?vid=f122634c-29cd-4e50-bfeb-d1b6e5cfd499","ios":"levelo://app?vid=f122634c-29cd-4e50-bfeb-d1b6e5cfd499"},"vehicle_type_id":"4","last_reported":1744024104,"current_range_meters":18800,"station_id":"ce4bgl12rcd13ifvqbo0","pricing_plan_id":"cebpf4jnsgd1na2vs0mg"},{"bike_id":"38f15ffe-7ae5-4586-8fbd-f7719d53a8ef","system_id":"levelo_inurba_marseille","lat":43.29934,"lon":5.36547,"is_reserved":false,"is_disabled":false,"rental_uris":{"android":"levelo://app?vid=38f15ffe-7ae5-4586-8fbd-f7719d53a8ef","ios":"levelo://app?vid=38f15ffe-7ae5-4586-8fbd-f7719d53a8ef"},"vehicle_type_id":"4","last_reported":1744024104,"current_range_meters":18800,"station_id":"ce4bgm92rcd13ifvqbr0","pricing_plan_id":"cebpf4jnsgd1na2vs0mg"},{"bike_id":"75302ee8-fde7-4e6f-961b-ecb4755c8269","system_id":"levelo_inurba_marseille","lat":43.29622,"lon":5.37155,"is_reserved":false,"is_disabled":false,"rental_uris":{"android":"levelo://app?vid=75302ee8-fde7-4e6f-961b-ecb4755c8269","ios":"levelo://app?vid=75302ee8-fde7-4e6f-961b-ecb4755c8269"},"vehicle_type_id":"4","last_reported":1744024104,"current_range_meters":18800,"station_id":"ce4bgnh2rcd13ifvqc0g","pricing_plan_id":"cebpf4jnsgd1na2vs0mg"},{"bike_id":"aabdbd6c-7ac4-45d8-ab25-6a974fd0d6f2","system_id":"levelo_inurba_marseille","lat":43.26783,"lon":5.39439,"is_reserved":false,"is_disabled":false,"rental_uris":{"android":"levelo://app?vid=aabdbd6c-7ac4-45d8-ab25-6a974fd0d6f2","ios":"levelo://app?vid=aabdbd6c-7ac4-45d8-ab25-6a974fd0d6f2"},"vehicle_type_id":"4","last_reported":1744024104,"current_range_meters":18800,"station_id":"ce4bhh12rcd13ifvqfg0","pricing_plan_id":"cebpf4jnsgd1na2vs0mg"},{"bike_id":"9fd7e453-179b-4539-b85c-9906deba967a","system_id":"levelo_inurba_marseille","lat":43.29035,"lon":5.35916,"is_reserved":false,"is_disabled":false,"rental_uris":{"android":"levelo://app?vid=9fd7e453-179b-4539-b85c-9906deba967a","ios":"levelo://app?vid=9fd7e453-179b-4539-b85c-9906deba967a"},"vehicle_type_id":"4","last_reported":1744024104,"current_range_meters":19200,"station_id":"ce4bha92rcd13ifvqeg0","pricing_plan_id":"cebpf4jnsgd1na2vs0mg"},{"bike_id":"5963202a-9c08-4e04-9f07-c30eb7aa3bbe","system_id":"levelo_inurba_marseille","lat":43.313,"lon":5.36819,"is_reserved":false,"is_disabled":false,"rental_uris":{"android":"levelo://app?vid=5963202a-9c08-4e04-9f07-c30eb7aa3bbe","ios":"levelo://app?vid=5963202a-9c08-4e04-9f07-c30eb7aa3bbe"},"vehicle_type_id":"4","last_reported":1744024104,"current_range_meters":19200,"station_id":"ce4bgl92rcd13ifvqbq0","pricing_plan_id":"cebpf4jnsgd1na2vs0mg"},{"bike_id":"90f2560e-2afd-470d-8c19-71caca73be3e","system_id":"levelo_inurba_marseille","lat":43.30568,"lon":5.36533,"is_reserved":false,"is_disabled":true,"rental_uris":{"android":"levelo://app?vid=90f2560e-2afd-470d-8c19-71caca73be3e","ios":"levelo://app?vid=90f2560e-2afd-470d-8c19-71caca73be3e"},"vehicle_type_id":"4","last_reported":1744024104,"current_range_meters":19200,"station_id":"ce4bgs12rcd13ifvqcag","pricing_plan_id":"cebpf4jnsgd1na2vs0mg"},{"bike_id":"79c515ca-ff54-487a-aab5-7581016b0c6d","system_id":"levelo_inurba_marseille","lat":43.29265,"lon":5.38439,"is_reserved":false,"is_disabled":false,"rental_uris":{"android":"levelo://app?vid=79c515ca-ff54-487a-aab5-7581016b0c6d","ios":"levelo://app?vid=79c515ca-ff54-487a-aab5-7581016b0c6d"},"vehicle_type_id":"4","last_reported":1744024104,"current_range_meters":19200,"station_id":"ce4bh692rcd13ifvqea0","pricing_plan_id":"cebpf4jnsgd1na2vs0mg"},{"bike_id":"af24e20d-cd14-47b0-8e42-24aa1cee57db","system_id":"levelo_inurba_marseille","lat":43.27497,"lon":5.42491,"is_reserved":false,"is_disabled":false,"rental_uris":{"android":"levelo://app?vid=af24e20d-cd14-47b0-8e42-24aa1cee57db","ios":"levelo://app?vid=af24e20d-cd14-47b0-8e42-24aa1cee57db"},"vehicle_type_id":"4","last_reported":1744024104,"current_range_meters":19200,"station_id":"ce4bhn92rcd13ifvqgrg","pricing_plan_id":"cebpf4jnsgd1na2vs0mg"},{"bike_id":"e4c64b52-44a7-4e60-92a7-0e5f13ce58bf","system_id":"levelo_inurba_marseille","lat":43.29308,"lon":5.37175,"is_reserved":false,"is_disabled":false,"rental_uris":{"android":"levelo://app?vid=e4c64b52-44a7-4e60-92a7-0e5f13ce58bf","ios":"levelo://app?vid=e4c64b52-44a7-4e60-92a7-0e5f13ce58bf"},"vehicle_type_id":"4","last_reported":1744024104,"current_range_meters":19600,"station_id":"ce4bgh92rcd13ifvqb40","pricing_plan_id":"cebpf4jnsgd1na2vs0mg"},{"bike_id":"9db7ffd6-eb66-4953-baff-77677b72c199","system_id":"levelo_inurba_marseille","lat":43.258913,"lon":5.394345,"is_reserved":false,"is_disabled":false,"rental_uris":{"android":"levelo://app?vid=9db7ffd6-eb66-4953-baff-77677b72c199","ios":"levelo://app?vid=9db7ffd6-eb66-4953-baff-77677b72c199"},"vehicle_type_id":"4","last_reported":1744024104,"current_range_meters":19600,"station_id":"ce4bhip2rcd13ifvqft0","pricing_plan_id":"cebpf4jnsgd1na2vs0mg"},{"bike_id":"a31d4f8f-790c-4692-9560-b52cede71e74","system_id":"levelo_inurba_marseille","lat":43.30946,"lon":5.36831,"is_reserved":false,"is_disabled":false,"rental_uris":{"android":"levelo://app?vid=a31d4f8f-790c-4692-9560-b52cede71e74","ios":"levelo://app?vid=a31d4f8f-790c-4692-9560-b52cede71e74"},"vehicle_type_id":"4","last_reported":1744024104,"current_range_meters":19600,"station_id":"ce4bgn92rcd13ifvqbvg","pricing_plan_id":"cebpf4jnsgd1na2vs0mg"},{"bike_id":"bc2de91d-e1f6-45e3-8cfe-38230312ef6a","system_id":"levelo_inurba_marseille","lat":43.30806,"lon":5.38161,"is_reserved":false,"is_disabled":true,"rental_uris":{"android":"levelo://app?vid=bc2de91d-e1f6-45e3-8cfe-38230312ef6a","ios":"levelo://app?vid=bc2de91d-e1f6-45e3-8cfe-38230312ef6a"},"vehicle_type_id":"4","last_reported":1744024104,"current_range_meters":19600,"station_id":"ce4bgt12rcd13ifvqce0","pricing_plan_id":"cebpf4jnsgd1na2vs0mg"},{"bike_id":"66679887-43d8-4390-9edb-9a165ac54957","system_id":"levelo_inurba_marseille","lat":43.25494,"lon":5.37657,"is_reserved":false,"is_disabled":false,"rental_uris":{"android":"levelo://app?vid=66679887-43d8-4390-9edb-9a165ac54957","ios":"levelo://app?vid=66679887-43d8-4390-9edb-9a165ac54957"},"vehicle_type_id":"4","last_reported":1744024104,"current_range_meters":19600,"station_id":"ce4bhh12rcd13ifvqff0","pricing_plan_id":"cebpf4jnsgd1na2vs0mg"},{"bike_id":"f4729eb8-619b-4b50-9b11-fe550fd0b2e8","system_id":"levelo_inurba_marseille","lat":43.29022,"lon":5.38143,"is_reserved":false,"is_disabled":false,"rental_uris":{"android":"levelo://app?vid=f4729eb8-619b-4b50-9b11-fe550fd0b2e8","ios":"levelo://app?vid=f4729eb8-619b-4b50-9b11-fe550fd0b2e8"},"vehicle_type_id":"4","last_reported":1744024104,"current_range_meters":19600,"station_id":"ce4bh4p2rcd13ifvqe1g","pricing_plan_id":"cebpf4jnsgd1na2vs0mg"},{"bike_id":"1ca7d0c4-b7aa-4350-ad9f-4e24c2ba029a","system_id":"levelo_inurba_marseille","lat":43.30425,"lon":5.42491,"is_reserved":false,"is_disabled":true,"rental_uris":{"android":"levelo://app?vid=1ca7d0c4-b7aa-4350-ad9f-4e24c2ba029a","ios":"levelo://app?vid=1ca7d0c4-b7aa-4350-ad9f-4e24c2ba029a"},"vehicle_type_id":"4","last_reported":1744024104,"current_range_meters":20000,"station_id":"ce4bhoh2rcd13ifvqh6g","pricing_plan_id":"cebpf4jnsgd1na2vs0mg"},{"bike_id":"c58d8ed2-3b0b-4824-930d-b01af863e3c3","system_id":"levelo_inurba_marseille","lat":43.28864,"lon":5.3931,"is_reserved":false,"is_disabled":true,"rental_uris":{"android":"levelo://app?vid=c58d8ed2-3b0b-4824-930d-b01af863e3c3","ios":"levelo://app?vid=c58d8ed2-3b0b-4824-930d-b01af863e3c3"},