{"last_updated":1736874488,"ttl":60,"version":"2.2","data":{"bikes":[{"bike_id":"ba484e63-4e5e-48df-80e8-717691e650cd","system_id":"levelo_inurba_marseille","lat":43.25586,"lon":5.38218,"is_reserved":false,"is_disabled":false,"rental_uris":{"android":"levelo://app?vid=ba484e63-4e5e-48df-80e8-717691e650cd","ios":"levelo://app?vid=ba484e63-4e5e-48df-80e8-717691e650cd"},"vehicle_type_id":"4","last_reported":1736874488,"current_range_meters":6000,"station_id":"ce4bhih2rcd13ifvqfs0","pricing_plan_id":"cebpf4jnsgd1na2vs0mg"},{"bike_id":"094f2b9d-982b-42a3-8932-981369abda5b","system_id":"levelo_inurba_marseille","lat":43.26935,"lon":5.402543,"is_reserved":false,"is_disabled":false,"rental_uris":{"android":"levelo://app?vid=094f2b9d-982b-42a3-8932-981369abda5b","ios":"levelo://app?vid=094f2b9d-982b-42a3-8932-981369abda5b"},"vehicle_type_id":"4","last_reported":1736874488,"current_range_meters":28400,"station_id":"cjm6bp8fraef2m0cb0m0","pricing_plan_id":"cebpf4jnsgd1na2vs0mg"},{"bike_id":"3e8db028-ed7b-4e18-9fc5-444671ac7245","system_id":"levelo_inurba_marseille","lat":43.26059,"lon":5.39397,"is_reserved":false,"is_disabled":false,"rental_uris":{"android":"levelo://app?vid=3e8db028-ed7b-4e18-9fc5-444671ac7245","ios":"levelo://app?vid=3e8db028-ed7b-4e18-9fc5-444671ac7245"},"vehicle_type_id":"4","last_reported":1736874488,"current_range_meters":30400,"station_id":"ce4bhh92rcd13ifvqfj0","pricing_plan_id":"cebpf4jnsgd1na2vs0mg"},{"bike_id":"8b946f40-6c08-4c0a-9db9-872b051c4842","system_id":"levelo_inurba_marseille","lat":43.28418,"lon":5.37502,"is_reserved":false,"is_disabled":false,"rental_uris":{"android":"levelo://app?vid=8b946f40-6c08-4c0a-9db9-872b051c4842","ios":"levelo://app?vid=8b946f40-6c08-4c0a-9db9-872b051c4842"},"vehicle_type_id":"4","last_reported":1736874488,"current_range_meters":22800,"station_id":"ce4bh412rcd13ifvqds0","pricing_plan_id":"cebpf4jnsgd1na2vs0mg"},{"bike_id":"459eda55-c02d-48e5-b482-24c6e37a8793","system_id":"levelo_inurba_marseille","lat":43.2844,"lon":5.39191,"is_reserved":false,"is_disabled":true,"rental_uris":{"android":"levelo://app?vid=459eda55-c02d-48e5-b482-24c6e37a8793","ios":"levelo://app?vid=459eda55-c02d-48e5-b482-24c6e37a8793"},"vehicle_type_id":"4","last_reported":1736874488,"current_range_meters":16000,"station_id":"ce4bhoh2rcd13ifvqh5g","pricing_plan_id":"cebpf4jnsgd1na2vs0mg"},{"bike_id":"a9caf45c-9b62-4fad-bb25-cf9cfd1dff86","system_id":"levelo_inurba_marseille","lat":43.33728,"lon":5.39176,"is_reserved":false,"is_disabled":false,"rental_uris":{"android":"levelo://app?vid=a9caf45c-9b62-4fad-bb25-cf9cfd1dff86","ios":"levelo://app?vid=a9caf45c-9b62-4fad-bb25-cf9cfd1dff86"},"vehicle_type_id":"4","last_reported":1736874488,"current_range_meters":38800,"station_id":"ce4bhr92rcd13ifvqhsg","pricing_plan_id":"cebpf4jnsgd1na2vs0mg"},{"bike_id":"83c05730-c74e-4333-98de-3397043b2b60","system_id":"levelo_inurba_marseille","lat":43.27624,"lon":5.361,"is_reserved":false,"is_disabled":false,"rental_uris":{"android":"levelo://app?vid=83c05730-c74e-4333-98de-3397043b2b60","ios":"levelo://app?vid=83c05730-c74e-4333-98de-3397043b2b60"},"vehicle_type_id":"4","last_reported":1736874488,"current_range_meters":19200,"station_id":"ce4bgj92rcd13ifvqbe0","pricing_plan_id":"cebpf4jnsgd1na2vs0mg"},{"bike_id":"5e0b46d4-53a6-4a9b-81ed-42b3629948b7","system_id":"levelo_inurba_marseille","lat":43.32112,"lon":5.36792,"is_reserved":false,"is_disabled":false,"rental_uris":{"android":"levelo://app?vid=5e0b46d4-53a6-4a9b-81ed-42b3629948b7","ios":"levelo://app?vid=5e0b46d4-53a6-4a9b-81ed-42b3629948b7"},"vehicle_type_id":"4","last_reported":1736874488,"current_range_meters":37600,"station_id":"ce4bhrh2rcd13ifvqhug","pricing_plan_id":"cebpf4jnsgd1na2vs0mg"},{"bike_id":"90008e08-866e-46c3-96ff-04c849cafc46","system_id":"levelo_inurba_marseille","lat":43.28066,"lon":5.39659,"is_reserved":false,"is_disabled":false,"rental_uris":{"android":"levelo://app?vid=90008e08-866e-46c3-96ff-04c849cafc46","ios":"levelo://app?vid=90008e08-866e-46c3-96ff-04c849cafc46"},"vehicle_type_id":"4","last_reported":1736874488,"current_range_meters":28000,"station_id":"ce4bho12rcd13ifvqh2g","pricing_plan_id":"cebpf4jnsgd1na2vs0mg"},{"bike_id":"5bb5758f-37be-496e-ac0a-3712e6b43125","system_id":"levelo_inurba_marseille","lat":43.26198,"lon":5.37916,"is_reserved":false,"is_disabled":false,"rental_uris":{"android":"levelo://app?vid=5bb5758f-37be-496e-ac0a-3712e6b43125","ios":"levelo://app?vid=5bb5758f-37be-496e-ac0a-3712e6b43125"},"vehicle_type_id":"4","last_reported":1736874488,"current_range_meters":39200,"station_id":"ce4bhjp2rcd13ifvqg90","pricing_plan_id":"cebpf4jnsgd1na2vs0mg"},{"bike_id":"95a33e21-4a78-4b54-8695-7f638470e74a","system_id":"levelo_inurba_marseille","lat":43.29259,"lon":5.40901,"is_reserved":false,"is_disabled":false,"rental_uris":{"android":"levelo://app?vid=95a33e21-4a78-4b54-8695-7f638470e74a","ios":"levelo://app?vid=95a33e21-4a78-4b54-8695-7f638470e74a"},"vehicle_type_id":"4","last_reported":1736874488,"current_range_meters":28400,"station_id":"ce4bh192rcd13ifvqdc0","pricing_plan_id":"cebpf4jnsgd1na2vs0mg"},{"bike_id":"6c72276d-8e89-4c2f-8150-2735b7561b95","system_id":"levelo_inurba_marseille","lat":43.27492,"lon":5.42462,"is_reserved":false,"is_disabled":true,"rental_uris":{"android":"levelo://app?vid=6c72276d-8e89-4c2f-8150-2735b7561b95","ios":"levelo://app?vid=6c72276d-8e89-4c2f-8150-2735b7561b95"},"vehicle_type_id":"4","last_reported":1736874488,"current_range_meters":0,"station_id":"ce4bhn92rcd13ifvqgrg","pricing_plan_id":"cebpf4jnsgd1na2vs0mg"},{"bike_id":"560c9698-823c-47be-8222-b527d3ff45b6","system_id":"levelo_inurba_marseille","lat":43.25111,"lon":5.40318,"is_reserved":false,"is_disabled":false,"rental_uris":{"android":"levelo://app?vid=560c9698-823c-47be-8222-b527d3ff45b6","ios":"levelo://app?vid=560c9698-823c-47be-8222-b527d3ff45b6"},"vehicle_type_id":"4","last_reported":1736874488,"current_range_meters":36800,"station_id":"ce4bhlh2rcd13ifvqgig","pricing_plan_id":"cebpf4jnsgd1na2vs0mg"},{"bike_id":"ee8d0927-a058-45e1-9340-a21be45279dd","system_id":"levelo_inurba_marseille","lat":43.24997,"lon":5.38937,"is_reserved":false,"is_disabled":false,"rental_uris":{"android":"levelo://app?vid=ee8d0927-a058-45e1-9340-a21be45279dd","ios":"levelo://app?vid=ee8d0927-a058-45e1-9340-a21be45279dd"},"vehicle_type_id":"4","last_reported":1736874488,"current_range_meters":8000,"station_id":"ce4bhgp2rcd13ifvqfd0","pricing_plan_id":"cebpf4jnsgd1na2vs0mg"},{"bike_id":"cc957d02-65e4-4b04-ad66-d90ab8239685","system_id":"levelo_inurba_marseille","lat":43.29209,"lon":5.39299,"is_reserved":false,"is_disabled":false,"rental_uris":{"android":"levelo://app?vid=cc957d02-65e4-4b04-ad66-d90ab8239685","ios":"levelo://app?vid=cc957d02-65e4-4b04-ad66-d90ab8239685"},"vehicle_type_id":"4","last_reported":1736874488,"current_range_meters":28400,"station_id":"ce4bh192rcd13ifvqdd0","pricing_plan_id":"cebpf4jnsgd1na2vs0mg"},{"bike_id":"3a154d79-06d4-4814-bd52-2ebbe8926e69","system_id":"levelo_inurba_marseille","lat":43.29782,"lon":5.39317,"is_reserved":false,"is_disabled":true,"rental_uris":{"android":"levelo://app?vid=3a154d79-06d4-4814-bd52-2ebbe8926e69","ios":"levelo://app?vid=3a154d79-06d4-4814-bd52-2ebbe8926e69"},"vehicle_type_id":"4","last_reported":1736874488,"current_range_meters":37600,"station_id":"chh1huq6cuj3fo74tm60","pricing_plan_id":"cebpf4jnsgd1na2vs0mg"},{"bike_id":"a05bd889-5f47-4435-a653-f868055678ed","system_id":"levelo_inurba_marseille","lat":43.25015,"lon":5.38861,"is_reserved":false,"is_disabled":false,"rental_uris":{"android":"levelo://app?vid=a05bd889-5f47-4435-a653-f868055678ed","ios":"levelo://app?vid=a05bd889-5f47-4435-a653-f868055678ed"},"vehicle_type_id":"4","last_reported":1736874488,"current_range_meters":30400,"station_id":"ce4bhgp2rcd13ifvqfd0","pricing_plan_id":"cebpf4jnsgd1na2vs0mg"},{"bike_id":"d6d5004e-f401-4743-b020-ebb5bd2111bc","system_id":"levelo_inurba_marseille","lat":43.28713,"lon":5.37941,"is_reserved":false,"is_disabled":true,"rental_uris":{"android":"levelo://app?vid=d6d5004e-f401-4743-b020-ebb5bd2111bc","ios":"levelo://app?vid=d6d5004e-f401-4743-b020-ebb5bd2111bc"},"vehicle_type_id":"4","last_reported":1736874488,"current_range_meters":800,"station_id":"ce4bh9p2rcd13ifvqec0","pricing_plan_id":"cebpf4jnsgd1na2vs0mg"},{"bike_id":"de4bba97-079e-4a40-8dda-efd52fcef4b2","system_id":"levelo_inurba_marseille","lat":43.28154,"lon":5.42649,"is_reserved":false,"is_disabled":false,"rental_uris":{"android":"levelo://app?vid=de4bba97-079e-4a40-8dda-efd52fcef4b2","ios":"levelo://app?vid=de4bba97-079e-4a40-8dda-efd52fcef4b2"},"vehicle_type_id":"4","last_reported":1736874488,"current_range_meters":36400,"station_id":"ce4bhnh2rcd13ifvqgug","pricing_plan_id":"cebpf4jnsgd1na2vs0mg"},{"bike_id":"e51f2a36-b34d-4836-be93-29c10aab830a","system_id":"levelo_inurba_marseille","lat":43.28958,"lon":5.35574,"is_reserved":false,"is_disabled":false,"rental_uris":{"android":"levelo://app?vid=e51f2a36-b34d-4836-be93-29c10aab830a","ios":"levelo://app?vid=e51f2a36-b34d-4836-be93-29c10aab830a"},"vehicle_type_id":"4","last_reported":1736874488,"current_range_meters":10800,"station_id":"","pricing_plan_id":"cebpf4jnsgd1na2vs0mg"},{"bike_id":"a1a32d18-509a-427e-bb20-32428588fdc2","system_id":"levelo_inurba_marseille","lat":43.28837,"lon":5.39299,"is_reserved":false,"is_disabled":false,"rental_uris":{"android":"levelo://app?vid=a1a32d18-509a-427e-bb20-32428588fdc2","ios":"levelo://app?vid=a1a32d18-509a-427e-bb20-32428588fdc2"},"vehicle_type_id":"4","last_reported":1736874488,"current_range_meters":10000,"station_id":"ce4bh2p2rcd13ifvqdi0","pricing_plan_id":"cebpf4jnsgd1na2vs0mg"},{"bike_id":"84461994-c85c-43f1-81ec-802635297144","system_id":"levelo_inurba_marseille","lat":43.28702,"lon":5.37388,"is_reserved":false,"is_disabled":false,"rental_uris":{"android":"levelo://app?vid=84461994-c85c-43f1-81ec-802635297144","ios":"levelo://app?vid=84461994-c85c-43f1-81ec-802635297144"},"vehicle_type_id":"4","last_reported":1736874488,"current_range_meters":22800,"station_id":"ce4bh3p2rcd13ifvqdq0","pricing_plan_id":"cebpf4jnsgd1na2vs0mg"},{"bike_id":"6d2e54c1-0c27-453e-88d9-6d899bdc3cfc","system_id":"levelo_inurba_marseille","lat":43.23184,"lon":5.3998,"is_reserved":false,"is_disabled":true,"rental_uris":{"android":"levelo://app?vid=6d2e54c1-0c27-453e-88d9-6d899bdc3cfc","ios":"levelo://app?vid=6d2e54c1-0c27-453e-88d9-6d899bdc3cfc"},"vehicle_type_id":"4","last_reported":1736874488,"current_range_meters":0,"station_id":"ce4bhn12rcd13ifvqgqg","pricing_plan_id":"cebpf4jnsgd1na2vs0mg"},{"bike_id":"459b984b-aad6-4168-b1ed-af37ab6c9466","system_id":"levelo_inurba_marseille","lat":43.2964,"lon":5.37167,"is_reserved":false,"is_disabled":false,"rental_uris":{"android":"levelo://app?vid=459b984b-aad6-4168-b1ed-af37ab6c9466","ios":"levelo://app?vid=459b984b-aad6-4168-b1ed-af37ab6c9466"},"vehicle_type_id":"4","last_reported":1736874488,"current_range_meters":22000,"station_id":"ce4bgnh2rcd13ifvqc0g","pricing_plan_id":"cebpf4jnsgd1na2vs0mg"},{"bike_id":"e1992b87-6eba-40ba-b919-5302a68a672a","system_id":"levelo_inurba_marseille","lat":43.28926,"lon":5.36406,"is_reserved":false,"is_disabled":false,"rental_uris":{"android":"levelo://app?vid=e1992b87-6eba-40ba-b919-5302a68a672a","ios":"levelo://app?vid=e1992b87-6eba-40ba-b919-5302a68a672a"},"vehicle_type_id":"4","last_reported":1736874488,"current_range_meters":38800,"station_id":"ce4bhc92rcd13ifvqetg","pricing_plan_id":"cebpf4jnsgd1na2vs0mg"},{"bike_id":"abf0ee83-7bab-44f7-bed9-fd6daf3b18a1","system_id":"levelo_inurba_marseille","lat":43.28562,"lon":5.39503,"is_reserved":false,"is_disabled":false,"rental_uris":{"android":"levelo://app?vid=abf0ee83-7bab-44f7-bed9-fd6daf3b18a1","ios":"levelo://app?vid=abf0ee83-7bab-44f7-bed9-fd6daf3b18a1"},"vehicle_type_id":"4","last_reported":1736874488,"current_range_meters":22000,"station_id":"ce4bh292rcd13ifvqdg0","pricing_plan_id":"cebpf4jnsgd1na2vs0mg"},{"bike_id":"159da451-10a4-4d37-b106-58731e8d15d4","system_id":"levelo_inurba_marseille","lat":43.28701,"lon":5.39991,"is_reserved":false,"is_disabled":false,"rental_uris":{"android":"levelo://app?vid=159da451-10a4-4d37-b106-58731e8d15d4","ios":"levelo://app?vid=159da451-10a4-4d37-b106-58731e8d15d4"},"vehicle_type_id":"4","last_reported":1736874488,"current_range_meters":37600,"station_id":"ce4bho92rcd13ifvqh3g","pricing_plan_id":"cebpf4jnsgd1na2vs0mg"},{"bike_id":"a402044d-1041-4786-a63f-9d18af3bc82f","system_id":"levelo_inurba_marseille","lat":43.24164,"lon":5.36396,"is_reserved":false,"is_disabled":false,"rental_uris":{"android":"levelo://app?vid=a402044d-1041-4786-a63f-9d18af3bc82f","ios":"levelo://app?vid=a402044d-1041-4786-a63f-9d18af3bc82f"},"vehicle_type_id":"4","last_reported":1736874488,"current_range_meters":38800,"station_id":"cpo36qri1sfpv3e86is0","pricing_plan_id":"cebpf4jnsgd1na2vs0mg"},{"bike_id":"6c30f3f0-ec4f-4ea8-abc9-05c42abedcb9","system_id":"levelo_inurba_marseille","lat":43.29422,"lon":5.38623,"is_reserved":false,"is_disabled":false,"rental_uris":{"android":"levelo://app?vid=6c30f3f0-ec4f-4ea8-abc9-05c42abedcb9","ios":"levelo://app?vid=6c30f3f0-ec4f-4ea8-abc9-05c42abedcb9"},"vehicle_type_id":"4","last_reported":1736874488,"current_range_meters":30400,"station_id":"ce4bh2h2rcd13ifvqdh0","pricing_plan_id":"cebpf4jnsgd1na2vs0mg"},{"bike_id":"6b93b291-0b00-4b9e-bfd0-9bfc27cb6c48","system_id":"levelo_inurba_marseille","lat":43.26193,"lon":5.3745,"is_reserved":false,"is_disabled":false,"rental_uris":{"android":"levelo://app?vid=6b93b291-0b00-4b9e-bfd0-9bfc27cb6c48","ios":"levelo://app?vid=6b93b291-0b00-4b9e-bfd0-9bfc27cb6c48"},"vehicle_type_id":"4","last_reported":1736874488,"current_range_meters":31200,"station_id":"ce4bhgp2rcd13ifvqfc0","pricing_plan_id":"cebpf4jnsgd1na2vs0mg"},{"bike_id":"e3455df3-80ec-4626-b051-9d27b3b0a5a1","system_id":"levelo_inurba_marseille","lat":43.28167,"lon":5.4023,"is_reserved":false,"is_disabled":false,"rental_uris":{"android":"levelo://app?vid=e3455df3-80ec-4626-b051-9d27b3b0a5a1","ios":"levelo://app?vid=e3455df3-80ec-4626-b051-9d27b3b0a5a1"},"vehicle_type_id":"4","last_reported":1736874488,"current_range_meters":33200,"station_id":"","pricing_plan_id":"cebpf4jnsgd1na2vs0mg"},{"bike_id":"aac8885d-98ab-44b5-a5e4-7f098cde586b","system_id":"levelo_inurba_marseille","lat":43.27191,"lon":5.40985,"is_reserved":false,"is_disabled":false,"rental_uris":{"android":"levelo://app?vid=aac8885d-98ab-44b5-a5e4-7f098cde586b","ios":"levelo://app?vid=aac8885d-98ab-44b5-a5e4-7f098cde586b"},"vehicle_type_id":"4","last_reported":1736874488,"current_range_meters":39200,"station_id":"ce4bhl12rcd13ifvqgf0","pricing_plan_id":"cebpf4jnsgd1na2vs0mg"},{"bike_id":"c8e997c0-8580-4d0f-8d9f-0766596381e1","system_id":"levelo_inurba_marseille","lat":43.33931,"lon":5.37562,"is_reserved":false,"is_disabled":true,"rental_uris":{"android":"levelo://app?vid=c8e997c0-8580-4d0f-8d9f-0766596381e1","ios":"levelo://app?vid=c8e997c0-8580-4d0f-8d9f-0766596381e1"},"vehicle_type_id":"4","last_reported":1736874488,"current_range_meters":0,"station_id":"","pricing_plan_id":"cebpf4jnsgd1na2vs0mg"},{"bike_id":"48467493-f1c3-4420-8d40-654841396061","system_id":"levelo_inurba_marseille","lat":43.29463,"lon":5.39741,"is_reserved":false,"is_disabled":false,"rental_uris":{"android":"levelo://app?vid=48467493-f1c3-4420-8d40-654841396061","ios":"levelo://app?vid=48467493-f1c3-4420-8d40-654841396061"},"vehicle_type_id":"4","last_reported":1736874488,"current_range_meters":38800,"station_id":"ce4bh3h2rcd13ifvqdo0","pricing_plan_id":"cebpf4jnsgd1na2vs0mg"},{"bike_id":"ba5df164-d25c-4a1c-8679-1bd1a1db0642","system_id":"levelo_inurba_marseille","lat":43.33726,"lon":5.39199,"is_reserved":false,"is_disabled":false,"rental_uris":{"android":"levelo://app?vid=ba5df164-d25c-4a1c-8679-1bd1a1db0642","ios":"levelo://app?vid=ba5df164-d25c-4a1c-8679-1bd1a1db0642"},"vehicle_type_id":"4","last_reported":1736874488,"current_range_meters":35600,"station_id":"ce4bhr92rcd13ifvqhsg","pricing_plan_id":"cebpf4jnsgd1na2vs0mg"},{"bike_id":"84c14737-c732-47b4-8ed3-09b4b8466aac","system_id":"levelo_inurba_marseille","lat":43.28415,"lon":5.37525,"is_reserved":false,"is_disabled":false,"rental_uris":{"android":"levelo://app?vid=84c14737-c732-47b4-8ed3-09b4b8466aac","ios":"levelo://app?vid=84c14737-c732-47b4-8ed3-09b4b8466aac"},"vehicle_type_id":"4","last_reported":1736874488,"current_range_meters":8400,"station_id":"ce4bh412rcd13ifvqds0","pricing_plan_id":"cebpf4jnsgd1na2vs0mg"},{"bike_id":"34d9f48b-a37e-4c7b-ba1c-50412049511b","system_id":"levelo_inurba_marseille","lat":43.31327,"lon":5.39691,"is_reserved":false,"is_disabled":false,"rental_uris":{"android":"levelo://app?vid=34d9f48b-a37e-4c7b-ba1c-50412049511b","ios":"levelo://app?vid=34d9f48b-a37e-4c7b-ba1c-50412049511b"},"vehicle_type_id":"4","last_reported":1736874488,"current_range_meters":28000,"station_id":"ce4bgvp2rcd13ifvqcu0","pricing_plan_id":"cebpf4jnsgd1na2vs0mg"},{"bike_id":"9a29c8dc-54a3-414a-8641-8baaac3792cb","system_id":"levelo_inurba_marseille","lat":43.29254,"lon":5.40902,"is_reserved":false,"is_disabled":false,"rental_uris":{"android":"levelo://app?vid=9a29c8dc-54a3-414a-8641-8baaac3792cb","ios":"levelo://app?vid=9a29c8dc-54a3-414a-8641-8baaac3792cb"},"vehicle_type_id":"4","last_reported":1736874488,"current_range_meters":39200,"station_id":"ce4bh192rcd13ifvqdc0","pricing_plan_id":"cebpf4jnsgd1na2vs0mg"},{"bike_id":"1f61c907-db78-415e-895b-a466f64bef68","system_id":"levelo_inurba_marseille","lat":43.29619,"lon":5.37175,"is_reserved":false,"is_disabled":false,"rental_uris":{"android":"levelo://app?vid=1f61c907-db78-415e-895b-a466f64bef68","ios":"levelo://app?vid=1f61c907-db78-415e-895b-a466f64bef68"},"vehicle_type_id":"4","last_reported":1736874488,"current_range_meters":23200,"station_id":"ce4bgnh2rcd13ifvqc0g","pricing_plan_id":"cebpf4jnsgd1na2vs0mg"},{"bike_id":"b71b6df1-5fe8-47f4-901f-ba12013774d5","system_id":"levelo_inurba_marseille","lat":43.29607,"lon":5.37724,"is_reserved":false,"is_disabled":false,"rental_uris":{"android":"levelo://app?vid=b71b6df1-5fe8-47f4-901f-ba12013774d5","ios":"levelo://app?vid=b71b6df1-5fe8-47f4-901f-ba12013774d5"},"vehicle_type_id":"4","last_reported":1736874488,"current_range_meters":28800,"station_id":"ce4bgi92rcd13ifvqb90","pricing_plan_id":"cebpf4jnsgd1na2vs0mg"},{"bike_id":"59d914a9-7941-4d0c-ad3f-66ae0befc663","system_id":"levelo_inurba_marseille","lat":43.28054,"lon":5.36931,"is_reserved":false,"is_disabled":false,"rental_uris":{"android":"levelo://app?vid=59d914a9-7941-4d0c-ad3f-66ae0befc663","ios":"levelo://app?vid=59d914a9-7941-4d0c-ad3f-66ae0befc663"},"vehicle_type_id":"4","last_reported":1736874488,"current_range_meters":7200,"station_id":"ce4bha12rcd13ifvqef0","pricing_plan_id":"cebpf4jnsgd1na2vs0mg"},{"bike_id":"45aa57c6-4682-4041-943d-7912ee404d26","system_id":"levelo_inurba_marseille","lat":43.28851,"lon":5.39301,"is_reserved":false,"is_disabled":false,"rental_uris":{"android":"levelo://app?vid=45aa57c6-4682-4041-943d-7912ee404d26","ios":"levelo://app?vid=45aa57c6-4682-4041-943d-7912ee404d26"},"vehicle_type_id":"4","last_reported":1736874488,"current_range_meters":7200,"station_id":"ce4bh2p2rcd13ifvqdi0","pricing_plan_id":"cebpf4jnsgd1na2vs0mg"},{"bike_id":"426ee80e-06b0-4d0f-86a5-ea8ad64aaa11","system_id":"levelo_inurba_marseille","lat":43.28917,"lon":5.43763,"is_reserved":false,"is_disabled":false,"rental_uris":{"android":"levelo://app?vid=426ee80e-06b0-4d0f-86a5-ea8ad64aaa11","ios":"levelo://app?vid=426ee80e-06b0-4d0f-86a5-ea8ad64aaa11"},"vehicle_type_id":"4","last_reported":1736874488,"current_range_meters":4800,"station_id":"","pricing_plan_id":"cebpf4jnsgd1na2vs0mg"},{"bike_id":"192943ff-6579-4067-8b54-834fbf6d8760","system_id":"levelo_inurba_marseille","lat":43.27607,"lon":5.3614,"is_reserved":false,"is_disabled":false,"rental_uris":{"android":"levelo://app?vid=192943ff-6579-4067-8b54-834fbf6d8760","ios":"levelo://app?vid=192943ff-6579-4067-8b54-834fbf6d8760"},"vehicle_type_id":"4","last_reported":1736874488,"current_range_meters":38800,"station_id":"ce4bgj92rcd13ifvqbe0","pricing_plan_id":"cebpf4jnsgd1na2vs0mg"},{"bike_id":"fea1b24d-bbfb-474a-b028-8645483cd7e6","system_id":"levelo_inurba_marseille","lat":43.27383,"lon":5.36256,"is_reserved":false,"is_disabled":false,"rental_uris":{"android":"levelo://app?vid=fea1b24d-bbfb-474a-b028-8645483cd7e6","ios":"levelo://app?vid=fea1b24d-bbfb-474a-b028-8645483cd7e6"},"vehicle_type_id":"4","last_reported":1736874488,"current_range_meters":38800,"station_id":"ce4bhbh2rcd13ifvqeo0","pricing_plan_id":"cebpf4jnsgd1na2vs0mg"},{"bike_id":"e2049f99-cc8a-49cb-b99c-0d1444b5eb86","system_id":"levelo_inurba_marseille","lat":43.22932,"lon":5.35375,"is_reserved":false,"is_disabled":false,"rental_uris":{"android":"levelo://app?vid=e2049f99-cc8a-49cb-b99c-0d1444b5eb86","ios":"levelo://app?vid=e2049f99-cc8a-49cb-b99c-0d1444b5eb86"},"vehicle_type_id":"4","last_reported":1736874488,"current_range_meters":10800,"station_id":"cpo3532slgdg3j2ikp40","pricing_plan_id":"cebpf4jnsgd1na2vs0mg"},{"bike_id":"d75fcb0f-4dc7-42ee-a702-b5372e1588c7","system_id":"levelo_inurba_marseille","lat":43.27563,"lon":5.38423,"is_reserved":false,"is_disabled":false,"rental_uris":{"android":"levelo://app?vid=d75fcb0f-4dc7-42ee-a702-b5372e1588c7","ios":"levelo://app?vid=d75fcb0f-4dc7-42ee-a702-b5372e1588c7"},"vehicle_type_id":"4","last_reported":1736874488,"current_range_meters":36400,"station_id":"ce4bhh92rcd13ifvqfi0","pricing_plan_id":"cebpf4jnsgd1na2vs0mg"},{"bike_id":"0d958273-9f92-43cc-ba91-22e02f964926","system_id":"levelo_inurba_marseille","lat":43.29024,"lon":5.35595,"is_reserved":false,"is_disabled":false,"rental_uris":{"android":"levelo://app?vid=0d958273-9f92-43cc-ba91-22e02f964926","ios":"levelo://app?vid=0d958273-9f92-43cc-ba91-22e02f964926"},"vehicle_type_id":"4","last_reported":1736874488,"current_range_meters":38800,"station_id":"ce4bhb92rcd13ifvqen0","pricing_plan_id":"cebpf4jnsgd1na2vs0mg"},{"bike_id":"79c6b28e-c65e-4c47-86de-194c6811328a","system_id":"levelo_inurba_marseille","lat":43.30936,"lon":5.40141,"is_reserved":false,"is_disabled":false,"rental_uris":{"android":"levelo://app?vid=79c6b28e-c65e-4c47-86de-194c6811328a","ios":"levelo://app?vid=79c6b28e-c65e-4c47-86de-194c6811328a"},"vehicle_type_id":"4","last_reported":1736874488,"current_range_meters":31200,"station_id":"ce4bgvp2rcd13ifvqct0","pricing_plan_id":"cebpf4jnsgd1na2vs0mg"},{"bike_id":"7623cf4f-d7dc-4fc7-ba2e-e6dd90916139","system_id":"levelo_inurba_marseille","lat":43.31679,"lon":5.40476,"is_reserved":false,"is_disabled":false,"rental_uris":{"android":"levelo://app?vid=7623cf4f-d7dc-4fc7-ba2e-e6dd90916139","ios":"levelo://app?vid=7623cf4f-d7dc-4fc7-ba2e-e6dd90916139"},"vehicle_type_id":"4","last_reported":1736874488,"current_range_meters":6800,"station_id":"ce4bh012rcd13ifvqd00","pricing_plan_id":"cebpf4jnsgd1na2vs0mg"},{"bike_id":"9db91009-aceb-411c-b1e8-d414dd429d80","system_id":"levelo_inurba_marseille","lat":43.29869,"lon":5.38911,"is_reserved":false,"is_disabled":false,"rental_uris":{"android":"levelo://app?vid=9db91009-aceb-411c-b1e8-d414dd429d80","ios":"levelo://app?vid=9db91009-aceb-411c-b1e8-d414dd429d80"},"vehicle_type_id":"4","last_reported":1736874488,"current_range_meters":7200,"station_id":"ce4bh392rcd13ifvqdl0","pricing_plan_id":"cebpf4jnsgd1na2vs0mg"},{"bike_id":"1774f8b0-c7aa-4f17-81a0-ace9f349859b","system_id":"levelo_inurba_marseille","lat":43.29602,"lon":5.37182,"is_reserved":false,"is_disabled":false,"rental_uris":{"android":"levelo://app?vid=1774f8b0-c7aa-4f17-81a0-ace9f349859b","ios":"levelo://app?vid=1774f8b0-c7aa-4f17-81a0-ace9f349859b"},"vehicle_type_id":"4","last_reported":1736874488,"current_range_meters":38800,"station_id":"ce4bgnh2rcd13ifvqc0g","pricing_plan_id":"cebpf4jnsgd1na2vs0mg"},{"bike_id":"33948cef-159b-4075-a8c4-dd4eee89856a","system_id":"levelo_inurba_marseille","lat":43.23193,"lon":5.39985,"is_reserved":false,"is_disabled":false,"rental_uris":{"android":"levelo://app?vid=33948cef-159b-4075-a8c4-dd4eee89856a","ios":"levelo://app?vid=33948cef-159b-4075-a8c4-dd4eee89856a"},"vehicle_type_id":"4","last_reported":1736874488,"current_range_meters":27200,"station_id":"ce4bhn12rcd13ifvqgqg","pricing_plan_id":"cebpf4jnsgd1na2vs0mg"},{"bike_id":"39287f93-1476-4515-8f0b-9add0b339e9c","system_id":"levelo_inurba_marseille","lat":43.2844,"lon":5.39186,"is_reserved":false,"is_disabled":false,"rental_uris":{"android":"levelo://app?vid=39287f93-1476-4515-8f0b-9add0b339e9c","ios":"levelo://app?vid=39287f93-1476-4515-8f0b-9add0b339e9c"},"vehicle_type_id":"4","last_reported":1736874488,"current_range_meters":3200,"station_id":"ce4bhoh2rcd13ifvqh5g","pricing_plan_id":"cebpf4jnsgd1na2vs0mg"},{"bike_id":"d0f773a7-6f14-46a4-b946-d81e5ce68fbf","system_id":"levelo_inurba_marseille","lat":43.29221,"lon":5.36077,"is_reserved":false,"is_disabled":false,"rental_uris":{"android":"levelo://app?vid=d0f773a7-6f14-46a4-b946-d81e5ce68fbf","ios":"levelo://app?vid=d0f773a7-6f14-46a4-b946-d81e5ce68fbf"},"vehicle_type_id":"4","last_reported":1736874488,"current_range_meters":19200,"station_id":"ce4bhbh2rcd13ifvqeqg","pricing_plan_id":"cebpf4jnsgd1na2vs0mg"},{"bike_id":"1d37a48c-0236-4a29-9375-938bee5010f5","system_id":"levelo_inurba_marseille","lat":43.27986,"lon":5.41663,"is_reserved":false,"is_disabled":false,"rental_uris":{"android":"levelo://app?vid=1d37a48c-0236-4a29-9375-938bee5010f5","ios":"levelo://app?vid=1d37a48c-0236-4a29-9375-938bee5010f5"},"vehicle_type_id":"4","last_reported":1736874488,"current_range_meters":19600,"station_id":"ce4bho12rcd13ifvqh1g","pricing_plan_id":"cebpf4jnsgd1na2vs0mg"},{"bike_id":"9f6f071c-7c59-4d08-9963-df26a1256e44","system_id":"levelo_inurba_marseille","lat":43.24682,"lon":5.38906,"is_reserved":false,"is_disabled":false,"rental_uris":{"android":"levelo://app?vid=9f6f071c-7c59-4d08-9963-df26a1256e44","ios":"levelo://app?vid=9f6f071c-7c59-4d08-9963-df26a1256e44"},"vehicle_type_id":"4","last_reported":1736874488,"current_range_meters":39200,"station_id":"ce4bhg12rcd13ifvqf60","pricing_plan_id":"cebpf4jnsgd1na2vs0mg"},{"bike_id":"0087e969-dfe7-47fb-94c7-938e02c56290","system_id":"levelo_inurba_marseille","lat":43.28364,"lon":5.38641,"is_reserved":false,"is_disabled":false,"rental_uris":{"android":"levelo://app?vid=0087e969-dfe7-47fb-94c7-938e02c56290","ios":"levelo://app?vid=0087e969-dfe7-47fb-94c7-938e02c56290"},"vehicle_type_id":"4","last_reported":1736874488,"current_range_meters":20400,"station_id":"ce4bh492rcd13ifvqdvg","pricing_plan_id":"cebpf4jnsgd1na2vs0mg"},{"bike_id":"c6caf76e-7f0e-4bae-a0a8-0d4a52a30b46","system_id":"levelo_inurba_marseille","lat":43.29519,"lon":5.39407,"is_reserved":false,"is_disabled":false,"rental_uris":{"android":"levelo://app?vid=c6caf76e-7f0e-4bae-a0a8-0d4a52a30b46","ios":"levelo://app?vid=c6caf76e-7f0e-4bae-a0a8-0d4a52a30b46"},"vehicle_type_id":"4","last_reported":1736874488,"current_range_meters":36800,"station_id":"ce4bh292rcd13ifvqdf0","pricing_plan_id":"cebpf4jnsgd1na2vs0mg"},{"bike_id":"d3b11e01-7152-4baf-ab7f-385f8141146b","system_id":"levelo_inurba_marseille","lat":43.24803,"lon":5.37454,"is_reserved":false,"is_disabled":false,"rental_uris":{"android":"levelo://app?vid=d3b11e01-7152-4baf-ab7f-385f8141146b","ios":"levelo://app?vid=d3b11e01-7152-4baf-ab7f-385f8141146b"},"vehicle_type_id":"4","last_reported":1736874488,"current_range_meters":35600,"station_id":"ce4bhgh2rcd13ifvqfb0","pricing_plan_id":"cebpf4jnsgd1na2vs0mg"},{"bike_id":"36974145-3c31-468b-9760-88b99b61f26c","system_id":"levelo_inurba_marseille","lat":43.27181,"lon":5.40995,"is_reserved":false,"is_disabled":false,"rental_uris":{"android":"levelo://app?vid=36974145-3c31-468b-9760-88b99b61f26c","ios":"levelo://app?vid=36974145-3c31-468b-9760-88b99b61f26c"},"vehicle_type_id":"4","last_reported":1736874488,"current_range_meters":9600,"station_id":"ce4bhl12rcd13ifvqgf0","pricing_plan_id":"cebpf4jnsgd1na2vs0mg"},{"bike_id":"b3ef46ee-af87-4b83-b89f-a4a6c31fc767","system_id":"levelo_inurba_marseille","lat":43.33023,"lon":5.39036,"is_reserved":false,"is_disabled":false,"rental_uris":{"android":"levelo://app?vid=b3ef46ee-af87-4b83-b89f-a4a6c31fc767","ios":"levelo://app?vid=b3ef46ee-af87-4b83-b89f-a4a6c31fc767"},"vehicle_type_id":"4","last_reported":1736874488,"current_range_meters":30000,"station_id":"ce4bhr92rcd13ifvqhrg","pricing_plan_id":"cebpf4jnsgd1na2vs0mg"},{"bike_id":"755e5c0a-8de7-4ee5-9d4e-5ec609711170","system_id":"levelo_inurba_marseille","lat":43.29591,"lon":5.38097,"is_reserved":false,"is_disabled":true,"rental_uris":{"android":"levelo://app?vid=755e5c0a-8de7-4ee5-9d4e-5ec609711170","ios":"levelo://app?vid=755e5c0a-8de7-4ee5-9d4e-5ec609711170"},"vehicle_type_id":"4","last_reported":1736874488,"current_range_meters":30000,"station_id":"ce4bgl12rcd13ifvqbo0","pricing_plan_id":"cebpf4jnsgd1na2vs0mg"},{"bike_id":"f5fcfacd-6e04-488b-808b-c97bbfe52087","system_id":"levelo_inurba_marseille","lat":43.29781,"lon":5.39352,"is_reserved":false,"is_disabled":false,"rental_uris":{"android":"levelo://app?vid=f5fcfacd-6e04-488b-808b-c97bbfe52087","ios":"levelo://app?vid=f5fcfacd-6e04-488b-808b-c97bbfe52087"},"vehicle_type_id":"4","last_reported":1736874488,"current_range_meters":28800,"station_id":"chh1huq6cuj3fo74tm60","pricing_plan_id":"cebpf4jnsgd1na2vs0mg"},{"bike_id":"14120784-4dfb-4853-8fd8-9cef12a5ded5","system_id":"levelo_inurba_marseille","lat":43.31686,"lon":5.40475,"is_reserved":false,"is_disabled":false,"rental_uris":{"android":"levelo://app?vid=14120784-4dfb-4853-8fd8-9cef12a5ded5","ios":"levelo://app?vid=14120784-4dfb-4853-8fd8-9cef12a5ded5"},"vehicle_type_id":"4","last_reported":1736874488,"current_range_meters":34000,"station_id":"ce4bh012rcd13ifvqd00","pricing_plan_id":"cebpf4jnsgd1na2vs0mg"},{"bike_id":"a15980ac-c225-4e68-8982-6cc8c4cbfd79","system_id":"levelo_inurba_marseille","lat":43.23183,"lon":5.35543,"is_reserved":false,"is_disabled":false,"rental_uris":{"android":"levelo://app?vid=a15980ac-c225-4e68-8982-6cc8c4cbfd79","ios":"levelo://app?vid=a15980ac-c225-4e68-8982-6cc8c4cbfd79"},"vehicle_type_id":"4","last_reported":1736874488,"current_range_meters":38800,"station_id":"ce4bhu92rcd13ifvqi70","pricing_plan_id":"cebpf4jnsgd1na2vs0mg"},{"bike_id":"281c5dca-fea2-496b-9f10-20b165383e43","system_id":"levelo_inurba_marseille","lat":43.29043,"lon":5.35913,"is_reserved":false,"is_disabled":false,"rental_uris":{"android":"levelo://app?vid=281c5dca-fea2-496b-9f10-20b165383e43","ios":"levelo://app?vid=281c5dca-fea2-496b-9f10-20b165383e43"},"vehicle_type_id":"4","last_reported":1736874488,"current_range_meters":24000,"station_id":"ce4bha92rcd13ifvqeg0","pricing_plan_id":"cebpf4jnsgd1na2vs0mg"},{"bike_id":"f4acedbd-efad-4ed3-87b6-3302ef76e5a0","system_id":"levelo_inurba_marseille","lat":43.28852,"lon":5.35843,"is_reserved":false,"is_disabled":true,"rental_uris":{"android":"levelo://app?vid=f4acedbd-efad-4ed3-87b6-3302ef76e5a0","ios":"levelo://app?vid=f4acedbd-efad-4ed3-87b6-3302ef76e5a0"},"vehicle_type_id":"4","last_reported":1736874488,"current_range_meters":0,"station_id":"ce4bhb12rcd13ifvqem0","pricing_plan_id":"cebpf4jnsgd1na2vs0mg"},{"bike_id":"665d259b-317d-40f1-b909-db8fa31f6b35","system_id":"levelo_inurba_marseille","lat":43.28436,"lon":5.39183,"is_reserved":false,"is_disabled":false,"rental_uris":{"android":"levelo://app?vid=665d259b-317d-40f1-b909-db8fa31f6b35","ios":"levelo://app?vid=665d259b-317d-40f1-b909-db8fa31f6b35"},"vehicle_type_id":"4","last_reported":1736874488,"current_range_meters":36400,"station_id":"ce4bhoh2rcd13ifvqh5g","pricing_plan_id":"cebpf4jnsgd1na2vs0mg"},{"bike_id":"3c07fa6e-f4f9-404f-a9a8-7f19979108f6","system_id":"levelo_inurba_marseille","lat":43.32101,"lon":5.36777,"is_reserved":false,"is_disabled":false,"rental_uris":{"android":"levelo://app?vid=3c07fa6e-f4f9-404f-a9a8-7f19979108f6","ios":"levelo://app?vid=3c07fa6e-f4f9-404f-a9a8-7f19979108f6"},"vehicle_type_id":"4","last_reported":1736874488,"current_range_meters":27200,"station_id":"ce4bhrh2rcd13ifvqhug","pricing_plan_id":"cebpf4jnsgd1na2vs0mg"},{"bike_id":"64b2cb73-258b-4267-8d3c-722c97ae9969","system_id":"levelo_inurba_marseille","lat":43.2919,"lon":5.35813,"is_reserved":false,"is_disabled":false,"rental_uris":{"android":"levelo://app?vid=64b2cb73-258b-4267-8d3c-722c97ae9969","ios":"levelo://app?vid=64b2cb73-258b-4267-8d3c-722c97ae9969"},"vehicle_type_id":"4","last_reported":1736874488,"current_range_meters":27200,"station_id":"ce4bhb12rcd13ifvqel0","pricing_plan_id":"cebpf4jnsgd1na2vs0mg"},{"bike_id":"3f404148-f2c7-44b8-a466-977741fe2f8d","system_id":"levelo_inurba_marseille","lat":43.27916,"lon":5.395782,"is_reserved":false,"is_disabled":false,"rental_uris":{"android":"levelo://app?vid=3f404148-f2c7-44b8-a466-977741fe2f8d","ios":"levelo://app?vid=3f404148-f2c7-44b8-a466-977741fe2f8d"},"vehicle_type_id":"4","last_reported":1736874488,"current_range_meters":28400,"station_id":"ce4bhf92rcd13ifvqf40","pricing_plan_id":"cebpf4jnsgd1na2vs0mg"},{"bike_id":"8de41a9e-2058-402b-9404-c82b9f539ab1","system_id":"levelo_inurba_marseille","lat":43.29962,"lon":5.38503,"is_reserved":false,"is_disabled":false,"rental_uris":{"android":"levelo://app?vid=8de41a9e-2058-402b-9404-c82b9f539ab1","ios":"levelo://app?vid=8de41a9e-2058-402b-9404-c82b9f539ab1"},"vehicle_type_id":"4","last_reported":1736874488,"current_range_meters":25200,"station_id":"ce4bgj92rcd13ifvqbd0","pricing_plan_id":"cebpf4jnsgd1na2vs0mg"},{"bike_id":"96683c85-5b78-4c73-bbe0-4f954a2e0378","system_id":"levelo_inurba_marseille","lat":43.23177,"lon":5.3999,"is_reserved":false,"is_disabled":false,"rental_uris":{"android":"levelo://app?vid=96683c85-5b78-4c73-bbe0-4f954a2e0378","ios":"levelo://app?vid=96683c85-5b78-4c73-bbe0-4f954a2e0378"},"vehicle_type_id":"4","last_reported":1736874488,"current_range_meters":33600,"station_id":"ce4bhn12rcd13ifvqgqg","pricing_plan_id":"cebpf4jnsgd1na2vs0mg"},{"bike_id":"51bb6953-dea8-4e82-96bf-52696267905f","system_id":"levelo_inurba_marseille","lat":43.23066,"lon":5.35496,"is_reserved":false,"is_disabled":false,"rental_uris":{"android":"levelo://app?vid=51bb6953-dea8-4e82-96bf-52696267905f","ios":"levelo://app?vid=51bb6953-dea8-4e82-96bf-52696267905f"},"vehicle_type_id":"4","last_reported":1736874488,"current_range_meters":8400,"station_id":"cpo3342slgdg3j2ifvpg","pricing_plan_id":"cebpf4jnsgd1na2vs0mg"},{"bike_id":"b4d2fb64-79fe-432f-80df-64b6718d9f84","system_id":"levelo_inurba_marseille","lat":43.24649,"lon":5.3889,"is_reserved":false,"is_disabled":false,"rental_uris":{"android":"levelo://app?vid=b4d2fb64-79fe-432f-80df-64b6718d9f84","ios":"levelo://app?vid=b4d2fb64-79fe-432f-80df-64b6718d9f84"},"vehicle_type_id":"4","last_reported":1736874488,"current_range_meters":6000,"station_id":"ce4bhg12rcd13ifvqf60","pricing_plan_id":"cebpf4jnsgd1na2vs0mg"},{"bike_id":"eed58033-fa47-4e42-ac28-5d945be79d6b","system_id":"levelo_inurba_marseille","lat":43.28409,"lon":5.37514,"is_reserved":false,"is_disabled":false,"rental_uris":{"android":"levelo://app?vid=eed58033-fa47-4e42-ac28-5d945be79d6b","ios":"levelo://app?vid=eed58033-fa47-4e42-ac28-5d945be79d6b"},"vehicle_type_id":"4","last_reported":1736874488,"current_range_meters":32400,"station_id":"ce4bh412rcd13ifvqds0","pricing_plan_id":"cebpf4jnsgd1na2vs0mg"},{"bike_id":"10fab33a-bfee-4131-a9cd-a86e761b6ad0","system_id":"levelo_inurba_marseille","lat":43.31251,"lon":5.40166,"is_reserved":false,"is_disabled":false,"rental_uris":{"android":"levelo://app?vid=10fab33a-bfee-4131-a9cd-a86e761b6ad0","ios":"levelo://app?vid=10fab33a-bfee-4131-a9cd-a86e761b6ad0"},"vehicle_type_id":"4","last_reported":1736874488,"current_range_meters":38400,"station_id":"ce4bh092rcd13ifvqd30","pricing_plan_id":"cebpf4jnsgd1na2vs0mg"},{"bike_id":"c4ceed65-6924-4d63-a996-97db3c7e807e","system_id":"levelo_inurba_marseille","lat":43.29529,"lon":5.38548,"is_reserved":false,"is_disabled":false,"rental_uris":{"android":"levelo://app?vid=c4ceed65-6924-4d63-a996-97db3c7e807e","ios":"levelo://app?vid=c4ceed65-6924-4d63-a996-97db3c7e807e"},"vehicle_type_id":"4","last_reported":1736874488,"current_range_meters":30800,"station_id":"ce4bgih2rcd13ifvqba0","pricing_plan_id":"cebpf4jnsgd1na2vs0mg"},{"bike_id":"c4a8dadf-2d26-4438-8022-6780136cb89c","system_id":"levelo_inurba_marseille","lat":43.27612,"lon":5.36109,"is_reserved":false,"is_disabled":false,"rental_uris":{"android":"levelo://app?vid=c4a8dadf-2d26-4438-8022-6780136cb89c","ios":"levelo://app?vid=c4a8dadf-2d26-4438-8022-6780136cb89c"},"vehicle_type_id":"4","last_reported":1736874488,"current_range_meters":35200,"station_id":"ce4bgj92rcd13ifvqbe0","pricing_plan_id":"cebpf4jnsgd1na2vs0mg"},{"bike_id":"097fb2d9-0f1b-4aa4-8d86-0b2f9a02fb2f","system_id":"levelo_inurba_marseille","lat":43.28448,"lon":5.35892,"is_reserved":false,"is_disabled":false,"rental_uris":{"android":"levelo://app?vid=097fb2d9-0f1b-4aa4-8d86-0b2f9a02fb2f","ios":"levelo://app?vid=097fb2d9-0f1b-4aa4-8d86-0b2f9a02fb2f"},"vehicle_type_id":"4","last_reported":1736874488,"current_range_meters":9200,"station_id":"ce4bhah2rcd13ifvqei0","pricing_plan_id":"cebpf4jnsgd1na2vs0mg"},{"bike_id":"399477ae-0fdc-4fd6-a2ff-431430209881","system_id":"levelo_inurba_marseille","lat":43.25641,"lon":5.38217,"is_reserved":false,"is_disabled":false,"rental_uris":{"android":"levelo://app?vid=399477ae-0fdc-4fd6-a2ff-431430209881","ios":"levelo://app?vid=399477ae-0fdc-4fd6-a2ff-431430209881"},"vehicle_type_id":"4","last_reported":1736874488,"current_range_meters":6400,"station_id":"","pricing_plan_id":"cebpf4jnsgd1na2vs0mg"},{"bike_id":"dfb264e1-f1f9-4ead-afb7-fd43f77b9b56","system_id":"levelo_inurba_marseille","lat":43.29928,"lon":5.37464,"is_reserved":false,"is_disabled":false,"rental_uris":{"android":"levelo://app?vid=dfb264e1-f1f9-4ead-afb7-fd43f77b9b56","ios":"levelo://app?vid=dfb264e1-f1f9-4ead-afb7-fd43f77b9b56"},"vehicle_type_id":"4","last_reported":1736874488,"current_range_meters":23200,"station_id":"ce4bgjh2rcd13ifvqbg0","pricing_plan_id":"cebpf4jnsgd1na2vs0mg"},{"bike_id":"ff72e976-1c75-4776-867b-f0f6a0ccfc1b","system_id":"levelo_inurba_marseille","lat":43.24811,"lon":5.37452,"is_reserved":false,"is_disabled":false,"rental_uris":{"android":"levelo://app?vid=ff72e976-1c75-4776-867b-f0f6a0ccfc1b","ios":"levelo://app?vid=ff72e976-1c75-4776-867b-f0f6a0ccfc1b"},"vehicle_type_id":"4","last_reported":1736874488,"current_range_meters":6800,"station_id":"ce4bhgh2rcd13ifvqfb0","pricing_plan_id":"cebpf4jnsgd1na2vs0mg"},{"bike_id":"e1f5ffa6-8d4b-472f-a7a1-0d803fa6f7db","system_id":"levelo_inurba_marseille","lat":43.28103,"lon":5.3785,"is_reserved":false,"is_disabled":false,"rental_uris":{"android":"levelo://app?vid=e1f5ffa6-8d4b-472f-a7a1-0d803fa6f7db","ios":"levelo://app?vid=e1f5ffa6-8d4b-472f-a7a1-0d803fa6f7db"},"vehicle_type_id":"4","last_reported":1736874488,"current_range_meters":37600,"station_id":"ce4bha12rcd13ifvqee0","pricing_plan_id":"cebpf4jnsgd1na2vs0mg"},{"bike_id":"56a37990-c381-414a-8c27-59f20eae88ce","system_id":"levelo_inurba_marseille","lat":43.25012,"lon":5.3894,"is_reserved":false,"is_disabled":false,"rental_uris":{"android":"levelo://app?vid=56a37990-c381-414a-8c27-59f20eae88ce","ios":"levelo://app?vid=56a37990-c381-414a-8c27-59f20eae88ce"},"vehicle_type_id":"4","last_reported":1736874488,"current_range_meters":39200,"station_id":"ce4bhgp2rcd13ifvqfd0","pricing_plan_id":"cebpf4jnsgd1na2vs0mg"},{"bike_id":"c3d6f75d-e4c5-4352-a863-7b589bf5cc12","system_id":"levelo_inurba_marseille","lat":43.29567,"lon":5.37529,"is_reserved":false,"is_disabled":false,"rental_uris":{"android":"levelo://app?vid=c3d6f75d-e4c5-4352-a863-7b589bf5cc12","ios":"levelo://app?vid=c3d6f75d-e4c5-4352-a863-7b589bf5cc12"},"vehicle_type_id":"4","last_reported":1736874488,"current_range_meters":9200,"station_id":"ce4bgh92rcd13ifvqb50","pricing_plan_id":"cebpf4jnsgd1na2vs0mg"},{"bike_id":"b328758c-1306-4f48-9fa3-7f9b48fccfe1","system_id":"levelo_inurba_marseille","lat":43.23189,"lon":5.4,"is_reserved":false,"is_disabled":false,"rental_uris":{"android":"levelo://app?vid=b328758c-1306-4f48-9fa3-7f9b48fccfe1","ios":"levelo://app?vid=b328758c-1306-4f48-9fa3-7f9b48fccfe1"},"vehicle_type_id":"4","last_reported":1736874488,"current_range_meters":18000,"station_id":"ce4bhn12rcd13ifvqgqg","pricing_plan_id":"cebpf4jnsgd1na2vs0mg"},{"bike_id":"a56bdef2-14b8-4e02-b3bc-538917283971","system_id":"levelo_inurba_marseille","lat":43.25087,"lon":5.39511,"is_reserved":false,"is_disabled":false,"rental_uris":{"android":"levelo://app?vid=a56bdef2-14b8-4e02-b3bc-538917283971","ios":"levelo://app?vid=a56bdef2-14b8-4e02-b3bc-538917283971"},"vehicle_type_id":"4","last_reported":1736874488,"current_range_meters":30800,"station_id":"ce4bhm12rcd13ifvqgkg","pricing_plan_id":"cebpf4jnsgd1na2vs0mg"},{"bike_id":"d677a909-27ad-4353-b4cf-7fba66a9d9f6","system_id":"levelo_inurba_marseille","lat":43.26551,"lon":5.37286,"is_reserved":false,"is_disabled":false,"rental_uris":{"android":"levelo://app?vid=d677a909-27ad-4353-b4cf-7fba66a9d9f6","ios":"levelo://app?vid=d677a909-27ad-4353-b4cf-7fba66a9d9f6"},"vehicle_type_id":"4","last_reported":1736874488,"current_range_meters":19200,"station_id":"ce4bhg12rcd13ifvqf70","pricing_plan_id":"cebpf4jnsgd1na2vs0mg"},{"bike_id":"d7dfe1b1-0aca-4ca8-810c-c6abc1adf0b6","system_id":"levelo_inurba_marseille","lat":43.29513,"lon":5.39401,"is_reserved":false,"is_disabled":false,"rental_uris":{"android":"levelo://app?vid=d7dfe1b1-0aca-4ca8-810c-c6abc1adf0b6","ios":"levelo://app?vid=d7dfe1b1-0aca-4ca8-810c-c6abc1adf0b6"},"vehicle_type_id":"4","last_reported":1736874488,"current_range_meters":20400,"station_id":"ce4bh292rcd13ifvqdf0","pricing_plan_id":"cebpf4jnsgd1na2vs0mg"},{"bike_id":"835aabc0-9c98-4d76-bb79-380bc69b249f","system_id":"levelo_inurba_marseille","lat":43.29892,"lon":5.43668,"is_reserved":false,"is_disabled":false,"rental_uris":{"android":"levelo://app?vid=835aabc0-9c98-4d76-bb79-380bc69b249f","ios":"levelo://app?vid=835aabc0-9c98-4d76-bb79-380bc69b249f"},"vehicle_type_id":"4","last_reported":1736874488,"current_range_meters":23200,"station_id":"ce4bhpp2rcd13ifvqhfg","pricing_plan_id":"cebpf4jnsgd1na2vs0mg"},{"bike_id":"b51b8509-c21e-40ac-802b-edd56e55cdd0","system_id":"levelo_inurba_marseille","lat":43.30375,"lon":5.41866,"is_reserved":false,"is_disabled":true,"rental_uris":{"android":"levelo://app?vid=b51b8509-c21e-40ac-802b-edd56e55cdd0","ios":"levelo://app?vid=b51b8509-c21e-40ac-802b-edd56e55cdd0"},"vehicle_type_id":"4","last_reported":1736874488,"current_range_meters":19600,"station_id":"ce4bhop2rcd13ifvqh7g","pricing_plan_id":"cebpf4jnsgd1na2vs0mg"},{"bike_id":"2acdbac7-5f78-4dfd-a1a1-90beb93ea510","system_id":"levelo_inurba_marseille","lat":43.28104,"lon":5.3785,"is_reserved":false,"is_disabled":false,"rental_uris":{"android":"levelo://app?vid=2acdbac7-5f78-4dfd-a1a1-90beb93ea510","ios":"levelo://app?vid=2acdbac7-5f78-4dfd-a1a1-90beb93ea510"},"vehicle_type_id":"4","last_reported":1736874488,"current_range_meters":23200,"station_id":"ce4bha12rcd13ifvqee0","pricing_plan_id":"cebpf4jnsgd1na2vs0mg"},{"bike_id":"111be7c2-f906-4453-b3c6-63975cd74396","system_id":"levelo_inurba_marseille","lat":43.28449,"lon":5.35895,"is_reserved":false,"is_disabled":false,"rental_uris":{"android":"levelo://app?vid=111be7c2-f906-4453-b3c6-63975cd74396","ios":"levelo://app?vid=111be7c2-f906-4453-b3c6-63975cd74396"},"vehicle_type_id":"4","last_reported":1736874488,"current_range_meters":24800,"station_id":"ce4bhah2rcd13ifvqei0","pricing_plan_id":"cebpf4jnsgd1na2vs0mg"},{"bike_id":"b3e35a67-739e-4943-9329-8541a5d64a33","system_id":"levelo_inurba_marseille","lat":43.25084,"lon":5.39522,"is_reserved":false,"is_disabled":false,"rental_uris":{"android":"levelo://app?vid=b3e35a67-739e-4943-9329-8541a5d64a33","ios":"levelo://app?vid=b3e35a67-739e-4943-9329-8541a5d64a33"},"vehicle_type_id":"4","last_reported":1736874488,"current_range_meters":26800,"station_id":"ce4bhm12rcd13ifvqgkg","pricing_plan_id":"cebpf4jnsgd1na2vs0mg"},{"bike_id":"143ffdd8-44cc-474e-8625-ecb7f5e69169","system_id":"levelo_inurba_marseille","lat":43.2757,"lon":5.38435,"is_reserved":false,"is_disabled":false,"rental_uris":{"android":"levelo://app?vid=143ffdd8-44cc-474e-8625-ecb7f5e69169","ios":"levelo://app?vid=143ffdd8-44cc-474e-8625-ecb7f5e69169"},"vehicle_type_id":"4","last_reported":1736874488,"current_range_meters":34800,"station_id":"ce4bhh92rcd13ifvqfi0","pricing_plan_id":"cebpf4jnsgd1na2vs0mg"},{"bike_id":"24017be9-d1a6-4333-9509-641e776c3c03","system_id":"levelo_inurba_marseille","lat":43.24652,"lon":5.38892,"is_reserved":false,"is_disabled":false,"rental_uris":{"android":"levelo://app?vid=24017be9-d1a6-4333-9509-641e776c3c03","ios":"levelo://app?vid=24017be9-d1a6-4333-9509-641e776c3c03"},"vehicle_type_id":"4","last_reported":1736874488,"current_range_meters":38800,"station_id":"ce4bhg12rcd13ifvqf60","pricing_plan_id":"cebpf4jnsgd1na2vs0mg"},{"bike_id":"c9f08eca-288b-44d8-81eb-516b1199b087","system_id":"levelo_inurba_marseille","lat":43.26804,"lon":5.40276,"is_reserved":false,"is_disabled":false,"rental_uris":{"android":"levelo://app?vid=c9f08eca-288b-44d8-81eb-516b1199b087","ios":"levelo://app?vid=c9f08eca-288b-44d8-81eb-516b1199b087"},"vehicle_type_id":"4","last_reported":1736874488,"current_range_meters":38400,"station_id":"ce501612rcd8frsf0b60","pricing_plan_id":"cebpf4jnsgd1na2vs0mg"},{"bike_id":"7959a668-03b3-45ef-b1e3-df1cc6ddac0b","system_id":"levelo_inurba_marseille","lat":43.29529,"lon":5.38544,"is_reserved":false,"is_disabled":false,"rental_uris":{"android":"levelo://app?vid=7959a668-03b3-45ef-b1e3-df1cc6ddac0b","ios":"levelo://app?vid=7959a668-03b3-45ef-b1e3-df1cc6ddac0b"},"vehicle_type_id":"4","last_reported":1736874488,"current_range_meters":0,"station_id":"ce4bgih2rcd13ifvqba0","pricing_plan_id":"cebpf4jnsgd1na2vs0mg"},{"bike_id":"636abb1f-c76e-441e-b349-f74c0393c26d","system_id":"levelo_inurba_marseille","lat":43.2694,"lon":5.40256,"is_reserved":false,"is_disabled":false,"rental_uris":{"android":"levelo://app?vid=636abb1f-c76e-441e-b349-f74c0393c26d","ios":"levelo://app?vid=636abb1f-c76e-441e-b349-f74c0393c26d"},"vehicle_type_id":"4","last_reported":1736874488,"current_range_meters":26800,"station_id":"cjm6bp8fraef2m0cb0m0","pricing_plan_id":"cebpf4jnsgd1na2vs0mg"},{"bike_id":"a9306c76-f73c-4a24-aa88-1eb869f9a499","system_id":"levelo_inurba_marseille","lat":43.29967,"lon":5.38512,"is_reserved":false,"is_disabled":false,"rental_uris":{"android":"levelo://app?vid=a9306c76-f73c-4a24-aa88-1eb869f9a499","ios":"levelo://app?vid=a9306c76-f73c-4a24-aa88-1eb869f9a499"},"vehicle_type_id":"4","last_reported":1736874488,"current_range_meters":8000,"station_id":"ce4bgj92rcd13ifvqbd0","pricing_plan_id":"cebpf4jnsgd1na2vs0mg"},{"bike_id":"96288e4c-2217-4363-a43b-27b3c199235a","system_id":"levelo_inurba_marseille","lat":43.28426,"lon":5.39196,"is_reserved":false,"is_disabled":false,"rental_uris":{"android":"levelo://app?vid=96288e4c-2217-4363-a43b-27b3c199235a","ios":"levelo://app?vid=96288e4c-2217-4363-a43b-27b3c199235a"},"vehicle_type_id":"4","last_reported":1736874488,"current_range_meters":38800,"station_id":"ce4bhoh2rcd13ifvqh5g","pricing_plan_id":"cebpf4jnsgd1na2vs0mg"},{"bike_id":"0fe3a27a-7d6c-48ff-8ead-0042705e11c8","system_id":"levelo_inurba_marseille","lat":43.30901,"lon":5.36841,"is_reserved":false,"is_disabled":false,"rental_uris":{"android":"levelo://app?vid=0fe3a27a-7d6c-48ff-8ead-0042705e11c8","ios":"levelo://app?vid=0fe3a27a-7d6c-48ff-8ead-0042705e11c8"},"vehicle_type_id":"4","last_reported":1736874488,"current_range_meters":26800,"station_id":"ce4bgn92rcd13ifvqbvg","pricing_plan_id":"cebpf4jnsgd1na2vs0mg"},{"bike_id":"2f6e45dc-8b02-48ec-829a-2aee59c930e5","system_id":"levelo_inurba_marseille","lat":43.25577,"lon":5.38211,"is_reserved":false,"is_disabled":false,"rental_uris":{"android":"levelo://app?vid=2f6e45dc-8b02-48ec-829a-2aee59c930e5","ios":"levelo://app?vid=2f6e45dc-8b02-48ec-829a-2aee59c930e5"},"vehicle_type_id":"4","last_reported":1736874488,"current_range_meters":28000,"station_id":"ce4bhih2rcd13ifvqfs0","pricing_plan_id":"cebpf4jnsgd1na2vs0mg"},{"bike_id":"aa021e40-f83d-4988-a1c5-e428c993dd03","system_id":"levelo_inurba_marseille","lat":43.2952,"lon":5.39039,"is_reserved":false,"is_disabled":false,"rental_uris":{"android":"levelo://app?vid=aa021e40-f83d-4988-a1c5-e428c993dd03","ios":"levelo://app?vid=aa021e40-f83d-4988-a1c5-e428c993dd03"},"vehicle_type_id":"4","last_reported":1736874488,"current_range_meters":11200,"station_id":"ce4bh3p2rcd13ifvqdp0","pricing_plan_id":"cebpf4jnsgd1na2vs0mg"},{"bike_id":"148bd108-ef7f-404a-af7f-6b7f0cafb74c","system_id":"levelo_inurba_marseille","lat":43.2396,"lon":5.36627,"is_reserved":false,"is_disabled":false,"rental_uris":{"android":"levelo://app?vid=148bd108-ef7f-404a-af7f-6b7f0cafb74c","ios":"levelo://app?vid=148bd108-ef7f-404a-af7f-6b7f0cafb74c"},"vehicle_type_id":"4","last_reported":1736874488,"current_range_meters":38000,"station_id":"ce4bhi12rcd13ifvqfp0","pricing_plan_id":"cebpf4jnsgd1na2vs0mg"},{"bike_id":"adf1e948-6774-4ebc-a798-10af8a2576a8","system_id":"levelo_inurba_marseille","lat":43.27946,"lon":5.41052,"is_reserved":false,"is_disabled":false,"rental_uris":{"android":"levelo://app?vid=adf1e948-6774-4ebc-a798-10af8a2576a8","ios":"levelo://app?vid=adf1e948-6774-4ebc-a798-10af8a2576a8"},"vehicle_type_id":"4","last_reported":1736874488,"current_range_meters":32000,"station_id":"ce4bhnp2rcd13ifvqh0g","pricing_plan_id":"cebpf4jnsgd1na2vs0mg"},{"bike_id":"58d59913-a7c1-455a-8720-49c6564ff436","system_id":"levelo_inurba_marseille","lat":43.31334,"lon":5.39685,"is_reserved":false,"is_disabled":false,"rental_uris":{"android":"levelo://app?vid=58d59913-a7c1-455a-8720-49c6564ff436","ios":"levelo://app?vid=58d59913-a7c1-455a-8720-49c6564ff436"},"vehicle_type_id":"4","last_reported":1736874488,"current_range_meters":21600,"station_id":"ce4bgvp2rcd13ifvqcu0","pricing_plan_id":"cebpf4jnsgd1na2vs0mg"},{"bike_id":"5f23a61a-7e7d-465e-942d-98e84a6e0f49","system_id":"levelo_inurba_marseille","lat":43.24808,"lon":5.37456,"is_reserved":false,"is_disabled":false,"rental_uris":{"android":"levelo://app?vid=5f23a61a-7e7d-465e-942d-98e84a6e0f49","ios":"levelo://app?vid=5f23a61a-7e7d-465e-942d-98e84a6e0f49"},"vehicle_type_id":"4","last_reported":1736874488,"current_range_meters":35600,"station_id":"ce4bhgh2rcd13ifvqfb0","pricing_plan_id":"cebpf4jnsgd1na2vs0mg"},{"bike_id":"c293fc75-069a-41ca-b558-f5f8cd6939bb","system_id":"levelo_inurba_marseille","lat":43.25,"lon":5.38923,"is_reserved":false,"is_disabled":false,"rental_uris":{"android":"levelo://app?vid=c293fc75-069a-41ca-b558-f5f8cd6939bb","ios":"levelo://app?vid=c293fc75-069a-41ca-b558-f5f8cd6939bb"},"vehicle_type_id":"4","last_reported":1736874488,"current_range_meters":24800,"station_id":"ce4bhgp2rcd13ifvqfd0","pricing_plan_id":"cebpf4jnsgd1na2vs0mg"},{"bike_id":"ab23b203-f502-4079-8a53-37407db9e152","system_id":"levelo_inurba_marseille","lat":43.29962,"lon":5.37174,"is_reserved":false,"is_disabled":false,"rental_uris":{"android":"levelo://app?vid=ab23b203-f502-4079-8a53-37407db9e152","ios":"levelo://app?vid=ab23b203-f502-4079-8a53-37407db9e152"},"vehicle_type_id":"4","last_reported":1736874488,"current_range_meters":17600,"station_id":"","pricing_plan_id":"cebpf4jnsgd1na2vs0mg"},{"bike_id":"ae6a24c6-71f9-417a-adfe-c09c90280637","system_id":"levelo_inurba_marseille","lat":43.26546,"lon":5.37299,"is_reserved":false,"is_disabled":false,"rental_uris":{"android":"levelo://app?vid=ae6a24c6-71f9-417a-adfe-c09c90280637","ios":"levelo://app?vid=ae6a24c6-71f9-417a-adfe-c09c90280637"},"vehicle_type_id":"4","last_reported":1736874488,"current_range_meters":38800,"station_id":"ce4bhg12rcd13ifvqf70","pricing_plan_id":"cebpf4jnsgd1na2vs0mg"},{"bike_id":"8780406c-0f05-4389-a692-93042b8afc8b","system_id":"levelo_inurba_marseille","lat":43.29026,"lon":5.38156,"is_reserved":false,"is_disabled":false,"rental_uris":{"android":"levelo://app?vid=8780406c-0f05-4389-a692-93042b8afc8b","ios":"levelo://app?vid=8780406c-0f05-4389-a692-93042b8afc8b"},"vehicle_type_id":"4","last_reported":1736874488,"current_range_meters":20800,"station_id":"ce4bh4p2rcd13ifvqe1g","pricing_plan_id":"cebpf4jnsgd1na2vs0mg"},{"bike_id":"31ca8b0e-c72e-47d4-a59b-a2766db72931","system_id":"levelo_inurba_marseille","lat":43.28429,"lon":5.40935,"is_reserved":false,"is_disabled":true,"rental_uris":{"android":"levelo://app?vid=31ca8b0e-c72e-47d4-a59b-a2766db72931","ios":"levelo://app?vid=31ca8b0e-c72e-47d4-a59b-a2766db72931"},"vehicle_type_id":"4","last_reported":1736874488,"current_range_meters":34000,"station_id":"","pricing_plan_id":"cebpf4jnsgd1na2vs0mg"},{"bike_id":"ec07fc30-5fe0-438e-a70f-83f634904c78","system_id":"levelo_inurba_marseille","lat":43.26196,"lon":5.3795,"is_reserved":false,"is_disabled":false,"rental_uris":{"android":"levelo://app?vid=ec07fc30-5fe0-438e-a70f-83f634904c78","ios":"levelo://app?vid=ec07fc30-5fe0-438e-a70f-83f634904c78"},"vehicle_type_id":"4","last_reported":1736874488,"current_range_meters":39200,"station_id":"ce4bhjp2rcd13ifvqg90","pricing_plan_id":"cebpf4jnsgd1na2vs0mg"},{"bike_id":"60c48e84-151f-4edd-83cd-789ff87c7f63","system_id":"levelo_inurba_marseille","lat":43.28696,"lon":5.37396,"is_reserved":false,"is_disabled":true,"rental_uris":{"android":"levelo://app?vid=60c48e84-151f-4edd-83cd-789ff87c7f63","ios":"levelo://app?vid=60c48e84-151f-4edd-83cd-789ff87c7f63"},"vehicle_type_id":"4","last_reported":1736874488,"current_range_meters":32400,"station_id":"ce4bh3p2rcd13ifvqdq0","pricing_plan_id":"cebpf4jnsgd1na2vs0mg"},{"bike_id":"d4bd3ca0-48a8-4b8f-8823-cc0d13d0ab16","system_id":"levelo_inurba_marseille","lat":43.28073,"lon":5.39663,"is_reserved":false,"is_disabled":false,"rental_uris":{"android":"levelo://app?vid=d4bd3ca0-48a8-4b8f-8823-cc0d13d0ab16","ios":"levelo://app?vid=d4bd3ca0-48a8-4b8f-8823-cc0d13d0ab16"},"vehicle_type_id":"4","last_reported":1736874488,"current_range_meters":38000,"station_id":"ce4bho12rcd13ifvqh2g","pricing_plan_id":"cebpf4jnsgd1na2vs0mg"},{"bike_id":"fa8a30c7-7295-4469-b66e-9b5a43015aac","system_id":"levelo_inurba_marseille","lat":43.33034,"lon":5.39051,"is_reserved":false,"is_disabled":false,"rental_uris":{"android":"levelo://app?vid=fa8a30c7-7295-4469-b66e-9b5a43015aac","ios":"levelo://app?vid=fa8a30c7-7295-4469-b66e-9b5a43015aac"},"vehicle_type_id":"4","last_reported":1736874488,"current_range_meters":39200,"station_id":"ce4bhr92rcd13ifvqhrg","pricing_plan_id":"cebpf4jnsgd1na2vs0mg"},{"bike_id":"90f49f45-490f-4281-890b-c49241a10d97","system_id":"levelo_inurba_marseille","lat":43.27911,"lon":5.39589,"is_reserved":false,"is_disabled":false,"rental_uris":{"android":"levelo://app?vid=90f49f45-490f-4281-890b-c49241a10d97","ios":"levelo://app?vid=90f49f45-490f-4281-890b-c49241a10d97"},"vehicle_type_id":"4","last_reported":1736874488,"current_range_meters":30400,"station_id":"ce4bhf92rcd13ifvqf40","pricing_plan_id":"cebpf4jnsgd1na2vs0mg"},{"bike_id":"8a0219a8-ef1d-45d4-886e-0c4fc67c7fe7","system_id":"levelo_inurba_marseille","lat":43.29282,"lon":5.36841,"is_reserved":false,"is_disabled":false,"rental_uris":{"android":"levelo://app?vid=8a0219a8-ef1d-45d4-886e-0c4fc67c7fe7","ios":"levelo://app?vid=8a0219a8-ef1d-45d4-886e-0c4fc67c7fe7"},"vehicle_type_id":"4","last_reported":1736874488,"current_range_meters":38400,"station_id":"ce4bhbp2rcd13ifvqesg","pricing_plan_id":"cebpf4jnsgd1na2vs0mg"},{"bike_id":"de05f028-7450-4792-8d5b-e268410faa9d","system_id":"levelo_inurba_marseille","lat":43.32174,"lon":5.36702,"is_reserved":false,"is_disabled":false,"rental_uris":{"android":"levelo://app?vid=de05f028-7450-4792-8d5b-e268410faa9d","ios":"levelo://app?vid=de05f028-7450-4792-8d5b-e268410faa9d"},"vehicle_type_id":"4","last_reported":1736874488,"current_range_meters":28400,"station_id":"ce4bhrh2rcd13ifvqhug","pricing_plan_id":"cebpf4jnsgd1na2vs0mg"},{"bike_id":"2c83979e-aee6-4ccb-8624-d762d40d3515","system_id":"levelo_inurba_marseille","lat":43.24179,"lon":5.39728,"is_reserved":false,"is_disabled":false,"rental_uris":{"android":"levelo://app?vid=2c83979e-aee6-4ccb-8624-d762d40d3515","ios":"levelo://app?vid=2c83979e-aee6-4ccb-8624-d762d40d3515"},"vehicle_type_id":"4","last_reported":1736874488,"current_range_meters":3600,"station_id":"ce4bhn12rcd13ifvqgpg","pricing_plan_id":"cebpf4jnsgd1na2vs0mg"},{"bike_id":"12c84dc1-55d9-4869-8c9f-6a156dfc584a","system_id":"levelo_inurba_marseille","lat":43.27818,"lon":5.4072,"is_reserved":false,"is_disabled":false,"rental_uris":{"android":"levelo://app?vid=12c84dc1-55d9-4869-8c9f-6a156dfc584a","ios":"levelo://app?vid=12c84dc1-55d9-4869-8c9f-6a156dfc584a"},"vehicle_type_id":"4","last_reported":1736874488,"current_range_meters":27600,"station_id":"ce4bhnh2rcd13ifvqgtg","pricing_plan_id":"cebpf4jnsgd1na2vs0mg"},{"bike_id":"3b131991-46ff-4474-8b92-d8eddb99afd5","system_id":"levelo_inurba_marseille","lat":43.29526,"lon":5.39055,"is_reserved":false,"is_disabled":false,"rental_uris":{"android":"levelo://app?vid=3b131991-46ff-4474-8b92-d8eddb99afd5","ios":"levelo://app?vid=3b131991-46ff-4474-8b92-d8eddb99afd5"},"vehicle_type_id":"4","last_reported":1736874488,"current_range_meters":9600,"station_id":"ce4bh3p2rcd13ifvqdp0","pricing_plan_id":"cebpf4jnsgd1na2vs0mg"},{"bike_id":"d85168cd-cda5-48df-a191-5048004ec8d2","system_id":"levelo_inurba_marseille","lat":43.25093,"lon":5.39514,"is_reserved":false,"is_disabled":true,"rental_uris":{"android":"levelo://app?vid=d85168cd-cda5-48df-a191-5048004ec8d2","ios":"levelo://app?vid=d85168cd-cda5-48df-a191-5048004ec8d2"},"vehicle_type_id":"4","last_reported":1736874488,"current_range_meters":1600,"station_id":"ce4bhm12rcd13ifvqgkg","pricing_plan_id":"cebpf4jnsgd1na2vs0mg"},{"bike_id":"6b45a7a6-bca6-42a8-af1b-5915bb9c80dd","system_id":"levelo_inurba_marseille","lat":43.24801,"lon":5.37448,"is_reserved":false,"is_disabled":false,"rental_uris":{"android":"levelo://app?vid=6b45a7a6-bca6-42a8-af1b-5915bb9c80dd","ios":"levelo://app?vid=6b45a7a6-bca6-42a8-af1b-5915bb9c80dd"},"vehicle_type_id":"4","last_reported":1736874488,"current_range_meters":32800,"station_id":"ce4bhgh2rcd13ifvqfb0","pricing_plan_id":"cebpf4jnsgd1na2vs0mg"},{"bike_id":"8f3d19ca-6788-4fa8-a3b9-31a1f06d17f5","system_id":"levelo_inurba_marseille","lat":43.28033,"lon":5.36922,"is_reserved":false,"is_disabled":true,"rental_uris":{"android":"levelo://app?vid=8f3d19ca-6788-4fa8-a3b9-31a1f06d17f5","ios":"levelo://app?vid=8f3d19ca-6788-4fa8-a3b9-31a1f06d17f5"},"vehicle_type_id":"4","last_reported":1736874488,"current_range_meters":0,"station_id":"ce4bha12rcd13ifvqef0","pricing_plan_id":"cebpf4jnsgd1na2vs0mg"},{"bike_id":"3a49284c-da1f-4f34-b968-91d028a99a96","system_id":"levelo_inurba_marseille","lat":43.27992,"lon":5.4,"is_reserved":false,"is_disabled":true,"rental_uris":{"android":"levelo://app?vid=3a49284c-da1f-4f34-b968-91d028a99a96","ios":"levelo://app?vid=3a49284c-da1f-4f34-b968-91d028a99a96"},"vehicle_type_id":"4","last_reported":1736874488,"current_range_meters":2000,"station_id":"ce4bho92rcd13ifvqh4g","pricing_plan_id":"cebpf4jnsgd1na2vs0mg"},{"bike_id":"a43739c9-34f8-4528-bc90-c6ded97f6129","system_id":"levelo_inurba_marseille","lat":43.30421,"lon":5.41271,"is_reserved":false,"is_disabled":false,"rental_uris":{"android":"levelo://app?vid=a43739c9-34f8-4528-bc90-c6ded97f6129","ios":"levelo://app?vid=a43739c9-34f8-4528-bc90-c6ded97f6129"},"vehicle_type_id":"4","last_reported":1736874488,"current_range_meters":39200,"station_id":"ce4bhop2rcd13ifvqh8g","pricing_plan_id":"cebpf4jnsgd1na2vs0mg"},{"bike_id":"6280e12b-8c99-470a-acaf-04cfe5b073d5","system_id":"levelo_inurba_marseille","lat":43.27195,"lon":5.4098,"is_reserved":false,"is_disabled":false,"rental_uris":{"android":"levelo://app?vid=6280e12b-8c99-470a-acaf-04cfe5b073d5","ios":"levelo://app?vid=6280e12b-8c99-470a-acaf-04cfe5b073d5"},"vehicle_type_id":"4","last_reported":1736874488,"current_range_meters":39200,"station_id":"ce4bhl12rcd13ifvqgf0","pricing_plan_id":"cebpf4jnsgd1na2vs0mg"},{"bike_id":"a1d695d9-a774-43ab-b8b8-bffc67e8f15b","system_id":"levelo_inurba_marseille","lat":43.25559,"lon":5.38221,"is_reserved":false,"is_disabled":false,"rental_uris":{"android":"levelo://app?vid=a1d695d9-a774-43ab-b8b8-bffc67e8f15b","ios":"levelo://app?vid=a1d695d9-a774-43ab-b8b8-bffc67e8f15b"},"vehicle_type_id":"4","last_reported":1736874488,"current_range_meters":16000,"station_id":"ce4bhih2rcd13ifvqfs0","pricing_plan_id":"cebpf4jnsgd1na2vs0mg"},{"bike_id":"80147884-a6fb-4e63-95a4-e2d1f8439cf3","system_id":"levelo_inurba_marseille","lat":43.29521,"lon":5.39408,"is_reserved":false,"is_disabled":false,"rental_uris":{"android":"levelo://app?vid=80147884-a6fb-4e63-95a4-e2d1f8439cf3","ios":"levelo://app?vid=80147884-a6fb-4e63-95a4-e2d1f8439cf3"},"vehicle_type_id":"4","last_reported":1736874488,"current_range_meters":6000,"station_id":"ce4bh292rcd13ifvqdf0","pricing_plan_id":"cebpf4jnsgd1na2vs0mg"},{"bike_id":"f62a7ed4-7c80-4ed8-9568-a4dea62069d1","system_id":"levelo_inurba_marseille","lat":43.28083,"lon":5.39663,"is_reserved":false,"is_disabled":false,"rental_uris":{"android":"levelo://app?vid=f62a7ed4-7c80-4ed8-9568-a4dea62069d1","ios":"levelo://app?vid=f62a7ed4-7c80-4ed8-9568-a4dea62069d1"},"vehicle_type_id":"4","last_reported":1736874488,"current_range_meters":24400,"station_id":"ce4bho12rcd13ifvqh2g","pricing_plan_id":"cebpf4jnsgd1na2vs0mg"},{"bike_id":"ddda7598-97c1-41e4-8980-d36ea2918dfb","system_id":"levelo_inurba_marseille","lat":43.304532,"lon":5.367234,"is_reserved":false,"is_disabled":false,"rental_uris":{"android":"levelo://app?vid=ddda7598-97c1-41e4-8980-d36ea2918dfb","ios":"levelo://app?vid=ddda7598-97c1-41e4-8980-d36ea2918dfb"},"vehicle_type_id":"4","last_reported":1736874488,"current_range_meters":19600,"station_id":"","pricing_plan_id":"cebpf4jnsgd1na2vs0mg"},{"bike_id":"2d299aa8-68d1-40ea-a1d0-c766b33ee2bf","system_id":"levelo_inurba_marseille","lat":43.26965,"lon":5.40249,"is_reserved":false,"is_disabled":false,"rental_uris":{"android":"levelo://app?vid=2d299aa8-68d1-40ea-a1d0-c766b33ee2bf","ios":"levelo://app?vid=2d299aa8-68d1-40ea-a1d0-c766b33ee2bf"},"vehicle_type_id":"4","last_reported":1736874488,"current_range_meters":39200,"station_id":"cjm6bp8fraef2m0cb0m0","pricing_plan_id":"cebpf4jnsgd1na2vs0mg"},{"bike_id":"11f8d0bd-700f-44c3-884c-632478828218","system_id":"levelo_inurba_marseille","lat":43.28616,"lon":5.35089,"is_reserved":false,"is_disabled":false,"rental_uris":{"android":"levelo://app?vid=11f8d0bd-700f-44c3-884c-632478828218","ios":"levelo://app?vid=11f8d0bd-700f-44c3-884c-632478828218"},"vehicle_type_id":"4","last_reported":1736874488,"current_range_meters":10000,"station_id":"ce4bhch2rcd13ifvqeug","pricing_plan_id":"cebpf4jnsgd1na2vs0mg"},{"bike_id":"7ed866b8-8479-443f-9025-6edc1578d26c","system_id":"levelo_inurba_marseille","lat":43.2953,"lon":5.38553,"is_reserved":false,"is_disabled":false,"rental_uris":{"android":"levelo://app?vid=7ed866b8-8479-443f-9025-6edc1578d26c","ios":"levelo://app?vid=7ed866b8-8479-443f-9025-6edc1578d26c"},"vehicle_type_id":"4","last_reported":1736874488,"current_range_meters":4800,"station_id":"ce4bgih2rcd13ifvqba0","pricing_plan_id":"cebpf4jnsgd1na2vs0mg"},{"bike_id":"8534aaf4-535f-4db5-8998-0f97ef68ef36","system_id":"levelo_inurba_marseille","lat":43.24407,"lon":5.37042,"is_reserved":false,"is_disabled":false,"rental_uris":{"android":"levelo://app?vid=8534aaf4-535f-4db5-8998-0f97ef68ef36","ios":"levelo://app?vid=8534aaf4-535f-4db5-8998-0f97ef68ef36"},"vehicle_type_id":"4","last_reported":1736874488,"current_range_meters":19200,"station_id":"ce4bhhh2rcd13ifvqfk0","pricing_plan_id":"cebpf4jnsgd1na2vs0mg"},{"bike_id":"b2c33e7b-da8a-4cda-ab12-4bcf5000aca5","system_id":"levelo_inurba_marseille","lat":43.27614,"lon":5.36108,"is_reserved":false,"is_disabled":false,"rental_uris":{"android":"levelo://app?vid=b2c33e7b-da8a-4cda-ab12-4bcf5000aca5","ios":"levelo://app?vid=b2c33e7b-da8a-4cda-ab12-4bcf5000aca5"},"vehicle_type_id":"4","last_reported":1736874488,"current_range_meters":32000,"station_id":"ce4bgj92rcd13ifvqbe0","pricing_plan_id":"cebpf4jnsgd1na2vs0mg"},{"bike_id":"77826e6e-00ff-46d1-8cb9-7dd91f6d0c07","system_id":"levelo_inurba_marseille","lat":43.24175,"lon":5.39734,"is_reserved":false,"is_disabled":false,"rental_uris":{"android":"levelo://app?vid=77826e6e-00ff-46d1-8cb9-7dd91f6d0c07","ios":"levelo://app?vid=77826e6e-00ff-46d1-8cb9-7dd91f6d0c07"},"vehicle_type_id":"4","last_reported":1736874488,"current_range_meters":16400,"station_id":"ce4bhn12rcd13ifvqgpg","pricing_plan_id":"cebpf4jnsgd1na2vs0mg"},{"bike_id":"3b4e1d62-9c04-4ebe-8b26-c4fe0a11f2fa","system_id":"levelo_inurba_marseille","lat":43.29586,"lon":5.37679,"is_reserved":false,"is_disabled":false,"rental_uris":{"android":"levelo://app?vid=3b4e1d62-9c04-4ebe-8b26-c4fe0a11f2fa","ios":"levelo://app?vid=3b4e1d62-9c04-4ebe-8b26-c4fe0a11f2fa"},"vehicle_type_id":"4","last_reported":1736874488,"current_range_meters":37600,"station_id":"","pricing_plan_id":"cebpf4jnsgd1na2vs0mg"},{"bike_id":"68ff54f8-681c-4b9c-a225-ec863822923a","system_id":"levelo_inurba_marseille","lat":43.28358,"lon":5.38628,"is_reserved":false,"is_disabled":false,"rental_uris":{"android":"levelo://app?vid=68ff54f8-681c-4b9c-a225-ec863822923a","ios":"levelo://app?vid=68ff54f8-681c-4b9c-a225-ec863822923a"},"vehicle_type_id":"4","last_reported":1736874488,"current_range_meters":34800,"station_id":"ce4bh492rcd13ifvqdvg","pricing_plan_id":"cebpf4jnsgd1na2vs0mg"},{"bike_id":"1c21871d-2c19-4086-b1d1-8033834ad37d","system_id":"levelo_inurba_marseille","lat":43.2791,"lon":5.39583,"is_reserved":false,"is_disabled":false,"rental_uris":{"android":"levelo://app?vid=1c21871d-2c19-4086-b1d1-8033834ad37d","ios":"levelo://app?vid=1c21871d-2c19-4086-b1d1-8033834ad37d"},"vehicle_type_id":"4","last_reported":1736874488,"current_range_meters":38000,"station_id":"ce4bhf92rcd13ifvqf40","pricing_plan_id":"cebpf4jnsgd1na2vs0mg"},{"bike_id":"6749cc36-3616-4588-a142-27ed7a54bc7d","system_id":"levelo_inurba_marseille","lat":43.25584,"lon":5.38231,"is_reserved":false,"is_disabled":false,"rental_uris":{"android":"levelo://app?vid=6749cc36-3616-4588-a142-27ed7a54bc7d","ios":"levelo://app?vid=6749cc36-3616-4588-a142-27ed7a54bc7d"},"vehicle_type_id":"4","last_reported":1736874488,"current_range_meters":38000,"station_id":"ce4bhih2rcd13ifvqfs0","pricing_plan_id":"cebpf4jnsgd1na2vs0mg"},{"bike_id":"6f928659-e34a-480b-a19e-f8ba817ff3d7","system_id":"levelo_inurba_marseille","lat":43.28458,"lon":5.3589,"is_reserved":false,"is_disabled":false,"rental_uris":{"android":"levelo://app?vid=6f928659-e34a-480b-a19e-f8ba817ff3d7","ios":"levelo://app?vid=6f928659-e34a-480b-a19e-f8ba817ff3d7"},"vehicle_type_id":"4","last_reported":1736874488,"current_range_meters":4800,"station_id":"ce4bhah2rcd13ifvqei0","pricing_plan_id":"cebpf4jnsgd1na2vs0mg"},{"bike_id":"1a1a9290-e060-4a19-a1cf-553c4c1c223d","system_id":"levelo_inurba_marseille","lat":43.30281,"lon":5.37705,"is_reserved":false,"is_disabled":false,"rental_uris":{"android":"levelo://app?vid=1a1a9290-e060-4a19-a1cf-553c4c1c223d","ios":"levelo://app?vid=1a1a9290-e060-4a19-a1cf-553c4c1c223d"},"vehicle_type_id":"4","last_reported":1736874488,"current_range_meters":22000,"station_id":"ce4bguh2rcd13ifvqcj0","pricing_plan_id":"cebpf4jnsgd1na2vs0mg"},{"bike_id":"b33198a2-dbcb-49f2-b4e0-b29b886d47cd","system_id":"levelo_inurba_marseille","lat":43.3014,"lon":5.37413,"is_reserved":false,"is_disabled":false,"rental_uris":{"android":"levelo://app?vid=b33198a2-dbcb-49f2-b4e0-b29b886d47cd","ios":"levelo://app?vid=b33198a2-dbcb-49f2-b4e0-b29b886d47cd"},"vehicle_type_id":"4","last_reported":1736874488,"current_range_meters":8800,"station_id":"ce4bgs92rcd13ifvqcc0","pricing_plan_id":"cebpf4jnsgd1na2vs0mg"},{"bike_id":"7c6f01a9-52ac-448d-9ae7-465dd3489077","system_id":"levelo_inurba_marseille","lat":43.29799,"lon":5.40399,"is_reserved":false,"is_disabled":false,"rental_uris":{"android":"levelo://app?vid=7c6f01a9-52ac-448d-9ae7-465dd3489077","ios":"levelo://app?vid=7c6f01a9-52ac-448d-9ae7-465dd3489077"},"vehicle_type_id":"4","last_reported":1736874488,"current_range_meters":29600,"station_id":"ce4bh112rcd13ifvqd90","pricing_plan_id":"cebpf4jnsgd1na2vs0mg"},{"bike_id":"41922604-c7b8-4e93-9da5-3903771d7233","system_id":"levelo_inurba_marseille","lat":43.24836,"lon":5.37482,"is_reserved":false,"is_disabled":false,"rental_uris":{"android":"levelo://app?vid=41922604-c7b8-4e93-9da5-3903771d7233","ios":"levelo://app?vid=41922604-c7b8-4e93-9da5-3903771d7233"},"vehicle_type_id":"4","last_reported":1736874488,"current_range_meters":21600,"station_id":"ce4bhgh2rcd13ifvqfb0","pricing_plan_id":"cebpf4jnsgd1na2vs0mg"},{"bike_id":"4a052bef-d121-4854-82e0-1730db1a76d2","system_id":"levelo_inurba_marseille","lat":43.26225,"lon":5.37441,"is_reserved":false,"is_disabled":false,"rental_uris":{"android":"levelo://app?vid=4a052bef-d121-4854-82e0-1730db1a76d2","ios":"levelo://app?vid=4a052bef-d121-4854-82e0-1730db1a76d2"},"vehicle_type_id":"4","last_reported":1736874488,"current_range_meters":28800,"station_id":"ce4bhgp2rcd13ifvqfc0","pricing_plan_id":"cebpf4jnsgd1na2vs0mg"},{"bike_id":"bfd0c0a2-6037-4dab-90a0-1639898e3ecc","system_id":"levelo_inurba_marseille","lat":43.2655,"lon":5.37289,"is_reserved":false,"is_disabled":false,"rental_uris":{"android":"levelo://app?vid=bfd0c0a2-6037-4dab-90a0-1639898e3ecc","ios":"levelo://app?vid=bfd0c0a2-6037-4dab-90a0-1639898e3ecc"},"vehicle_type_id":"4","last_reported":1736874488,"current_range_meters":27600,"station_id":"ce4bhg12rcd13ifvqf70","pricing_plan_id":"cebpf4jnsgd1na2vs0mg"},{"bike_id":"cef9e62f-f685-478d-bede-ac0bf92121cd","system_id":"levelo_inurba_marseille","lat":43.2893,"lon":5.38396,"is_reserved":false,"is_disabled":false,"rental_uris":{"android":"levelo://app?vid=cef9e62f-f685-478d-bede-ac0bf92121cd","ios":"levelo://app?vid=cef9e62f-f685-478d-bede-ac0bf92121cd"},"vehicle_type_id":"4","last_reported":1736874488,"current_range_meters":10800,"station_id":"ce4bh612rcd13ifvqe6g","pricing_plan_id":"cebpf4jnsgd1na2vs0mg"},{"bike_id":"569d53a6-cddc-4ec0-9696-edd25f266c81","system_id":"levelo_inurba_marseille","lat":43.31334,"lon":5.3968,"is_reserved":false,"is_disabled":false,"rental_uris":{"android":"levelo://app?vid=569d53a6-cddc-4ec0-9696-edd25f266c81","ios":"levelo://app?vid=569d53a6-cddc-4ec0-9696-edd25f266c81"},"vehicle_type_id":"4","last_reported":1736874488,"current_range_meters":20000,"station_id":"ce4bgvp2rcd13ifvqcu0","pricing_plan_id":"cebpf4jnsgd1na2vs0mg"},{"bike_id":"d8b7e460-de0d-4eae-8533-6e5de96e9cea","system_id":"levelo_inurba_marseille","lat":43.28641,"lon":5.35066,"is_reserved":false,"is_disabled":false,"rental_uris":{"android":"levelo://app?vid=d8b7e460-de0d-4eae-8533-6e5de96e9cea","ios":"levelo://app?vid=d8b7e460-de0d-4eae-8533-6e5de96e9cea"},"vehicle_type_id":"4","last_reported":1736874488,"current_range_meters":27600,"station_id":"ce4bhch2rcd13ifvqeug","pricing_plan_id":"cebpf4jnsgd1na2vs0mg"},{"bike_id":"b22d77c3-f37f-47b6-bfd3-17f35050e9db","system_id":"levelo_inurba_marseille","lat":43.27614,"lon":5.36106,"is_reserved":false,"is_disabled":false,"rental_uris":{"android":"levelo://app?vid=b22d77c3-f37f-47b6-bfd3-17f35050e9db","ios":"levelo://app?vid=b22d77c3-f37f-47b6-bfd3-17f35050e9db"},"vehicle_type_id":"4","last_reported":1736874488,"current_range_meters":6400,"station_id":"ce4bgj92rcd13ifvqbe0","pricing_plan_id":"cebpf4jnsgd1na2vs0mg"},{"bike_id":"70a4d228-2c41-4af9-a3eb-23abb00e4e21","system_id":"levelo_inurba_marseille","lat":43.26061,"lon":5.39383,"is_reserved":false,"is_disabled":false,"rental_uris":{"android":"levelo://app?vid=70a4d228-2c41-4af9-a3eb-23abb00e4e21","ios":"levelo://app?vid=70a4d228-2c41-4af9-a3eb-23abb00e4e21"},"vehicle_type_id":"4","last_reported":1736874488,"current_range_meters":12800,"station_id":"ce4bhh92rcd13ifvqfj0","pricing_plan_id":"cebpf4jnsgd1na2vs0mg"},{"bike_id":"3aa64f18-71b8-4da6-835c-182b3c268f2a","system_id":"levelo_inurba_marseille","lat":43.25108,"lon":5.40317,"is_reserved":false,"is_disabled":true,"rental_uris":{"android":"levelo://app?vid=3aa64f18-71b8-4da6-835c-182b3c268f2a","ios":"levelo://app?vid=3aa64f18-71b8-4da6-835c-182b3c268f2a"},"vehicle_type_id":"4","last_reported":1736874488,"current_range_meters":800,"station_id":"ce4bhlh2rcd13ifvqgig","pricing_plan_id":"cebpf4jnsgd1na2vs0mg"},{"bike_id":"ec06e4f4-7063-424e-9338-6239b6ce2ec3","system_id":"levelo_inurba_marseille","lat":43.28927,"lon":5.38395,"is_reserved":false,"is_disabled":false,"rental_uris":{"android":"levelo://app?vid=ec06e4f4-7063-424e-9338-6239b6ce2ec3","ios":"levelo://app?vid=ec06e4f4-7063-424e-9338-6239b6ce2ec3"},"vehicle_type_id":"4","last_reported":1736874488,"current_range_meters":28400,"station_id":"ce4bh612rcd13ifvqe6g","pricing_plan_id":"cebpf4jnsgd1na2vs0mg"},{"bike_id":"d77ab8eb-301d-4932-9ae3-5faf3425ea34","system_id":"levelo_inurba_marseille","lat":43.25858,"lon":5.39906,"is_reserved":false,"is_disabled":false,"rental_uris":{"android":"levelo://app?vid=d77ab8eb-301d-4932-9ae3-5faf3425ea34","ios":"levelo://app?vid=d77ab8eb-301d-4932-9ae3-5faf3425ea34"},"vehicle_type_id":"4","last_reported":1736874488,"current_range_meters":26800,"station_id":"ce4bhl92rcd13ifvqghg","pricing_plan_id":"cebpf4jnsgd1na2vs0mg"},{"bike_id":"c0d8b23d-d2e7-46ce-a092-7f8459dc28ce","system_id":"levelo_inurba_marseille","lat":43.27617,"lon":5.361,"is_reserved":false,"is_disabled":false,"rental_uris":{"android":"levelo://app?vid=c0d8b23d-d2e7-46ce-a092-7f8459dc28ce","ios":"levelo://app?vid=c0d8b23d-d2e7-46ce-a092-7f8459dc28ce"},"vehicle_type_id":"4","last_reported":1736874488,"current_range_meters":18000,"station_id":"ce4bgj92rcd13ifvqbe0","pricing_plan_id":"cebpf4jnsgd1na2vs0mg"},{"bike_id":"d7ca5915-338f-46db-8725-b258ca726a1c","system_id":"levelo_inurba_marseille","lat":43.28414,"lon":5.37501,"is_reserved":false,"is_disabled":false,"rental_uris":{"android":"levelo://app?vid=d7ca5915-338f-46db-8725-b258ca726a1c","ios":"levelo://app?vid=d7ca5915-338f-46db-8725-b258ca726a1c"},"vehicle_type_id":"4","last_reported":1736874488,"current_range_meters":22400,"station_id":"ce4bh412rcd13ifvqds0","pricing_plan_id":"cebpf4jnsgd1na2vs0mg"},{"bike_id":"5bb528b0-7ae2-48e6-ab60-167f85952f7b","system_id":"levelo_inurba_marseille","lat":43.286998,"lon":5.373819,"is_reserved":false,"is_disabled":false,"rental_uris":{"android":"levelo://app?vid=5bb528b0-7ae2-48e6-ab60-167f85952f7b","ios":"levelo://app?vid=5bb528b0-7ae2-48e6-ab60-167f85952f7b"},"vehicle_type_id":"4","last_reported":1736874488,"current_range_meters":38800,"station_id":"ce4bh3p2rcd13ifvqdq0","pricing_plan_id":"cebpf4jnsgd1na2vs0mg"},{"bike_id":"ff0674fd-79e2-4c64-b824-f71e1c91a321","system_id":"levelo_inurba_marseille","lat":43.30919,"lon":5.40164,"is_reserved":false,"is_disabled":false,"rental_uris":{"android":"levelo://app?vid=ff0674fd-79e2-4c64-b824-f71e1c91a321","ios":"levelo://app?vid=ff0674fd-79e2-4c64-b824-f71e1c91a321"},"vehicle_type_id":"4","last_reported":1736874488,"current_range_meters":14400,"station_id":"ce4bgvp2rcd13ifvqct0","pricing_plan_id":"cebpf4jnsgd1na2vs0mg"},{"bike_id":"6bb2a9dd-2049-4974-8931-6d69319eec85","system_id":"levelo_inurba_marseille","lat":43.31268,"lon":5.40168,"is_reserved":false,"is_disabled":false,"rental_uris":{"android":"levelo://app?vid=6bb2a9dd-2049-4974-8931-6d69319eec85","ios":"levelo://app?vid=6bb2a9dd-2049-4974-8931-6d69319eec85"},"vehicle_type_id":"4","last_reported":1736874488,"current_range_meters":7200,"station_id":"ce4bh092rcd13ifvqd30","pricing_plan_id":"cebpf4jnsgd1na2vs0mg"},{"bike_id":"63c2b205-6d0b-453c-a43a-c3ae535eacbe","system_id":"levelo_inurba_marseille","lat":43.29565,"lon":5.39965,"is_reserved":false,"is_disabled":false,"rental_uris":{"android":"levelo://app?vid=63c2b205-6d0b-453c-a43a-c3ae535eacbe","ios":"levelo://app?vid=63c2b205-6d0b-453c-a43a-c3ae535eacbe"},"vehicle_type_id":"4","last_reported":1736874488,"current_range_meters":13600,"station_id":"ce4bh312rcd13ifvqdj0","pricing_plan_id":"cebpf4jnsgd1na2vs0mg"},{"bike_id":"ba012dc9-d2b9-48ce-b28b-34bcfb494333","system_id":"levelo_inurba_marseille","lat":43.293,"lon":5.37465,"is_reserved":false,"is_disabled":false,"rental_uris":{"android":"levelo://app?vid=ba012dc9-d2b9-48ce-b28b-34bcfb494333","ios":"levelo://app?vid=ba012dc9-d2b9-48ce-b28b-34bcfb494333"},"vehicle_type_id":"4","last_reported":1736874488,"current_range_meters":25600,"station_id":"ce4bgi12rcd13ifvqb70","pricing_plan_id":"cebpf4jnsgd1na2vs0mg"},{"bike_id":"1dc64d76-fff0-460c-af84-eaea7614f529","system_id":"levelo_inurba_marseille","lat":43.26952,"lon":5.40244,"is_reserved":false,"is_disabled":false,"rental_uris":{"android":"levelo://app?vid=1dc64d76-fff0-460c-af84-eaea7614f529","ios":"levelo://app?vid=1dc64d76-fff0-460c-af84-eaea7614f529"},"vehicle_type_id":"4","last_reported":1736874488,"current_range_meters":39200,"station_id":"cjm6bp8fraef2m0cb0m0","pricing_plan_id":"cebpf4jnsgd1na2vs0mg"},{"bike_id":"1a9e2fd5-2f08-4821-a0e8-5a79147c0238","system_id":"levelo_inurba_marseille","lat":43.27913,"lon":5.39572,"is_reserved":false,"is_disabled":false,"rental_uris":{"android":"levelo://app?vid=1a9e2fd5-2f08-4821-a0e8-5a79147c0238","ios":"levelo://app?vid=1a9e2fd5-2f08-4821-a0e8-5a79147c0238"},"vehicle_type_id":"4","last_reported":1736874488,"current_range_meters":24000,"station_id":"ce4bhf92rcd13ifvqf40","pricing_plan_id":"cebpf4jnsgd1na2vs0mg"},{"bike_id":"954e7e10-b6f6-467c-9afa-6c78409d184e","system_id":"levelo_inurba_marseille","lat":43.27959,"lon":5.4103,"is_reserved":false,"is_disabled":false,"rental_uris":{"android":"levelo://app?vid=954e7e10-b6f6-467c-9afa-6c78409d184e","ios":"levelo://app?vid=954e7e10-b6f6-467c-9afa-6c78409d184e"},"vehicle_type_id":"4","last_reported":1736874488,"current_range_meters":36400,"station_id":"ce4bhnp2rcd13ifvqh0g","pricing_plan_id":"cebpf4jnsgd1na2vs0mg"},{"bike_id":"c0fd2063-31ae-4171-af17-771dbb4fa212","system_id":"levelo_inurba_marseille","lat":43.22939,"lon":5.35365,"is_reserved":false,"is_disabled":false,"rental_uris":{"android":"levelo://app?vid=c0fd2063-31ae-4171-af17-771dbb4fa212","ios":"levelo://app?vid=c0fd2063-31ae-4171-af17-771dbb4fa212"},"vehicle_type_id":"4","last_reported":1736874488,"current_range_meters":39200,"station_id":"cpo3532slgdg3j2ikp40","pricing_plan_id":"cebpf4jnsgd1na2vs0mg"},{"bike_id":"3122ebdf-5dda-478a-afaf-29dd8319b3fc","system_id":"levelo_inurba_marseille","lat":43.27569,"lon":5.38419,"is_reserved":false,"is_disabled":false,"rental_uris":{"android":"levelo://app?vid=3122ebdf-5dda-478a-afaf-29dd8319b3fc","ios":"levelo://app?vid=3122ebdf-5dda-478a-afaf-29dd8319b3fc"},"vehicle_type_id":"4","last_reported":1736874488,"current_range_meters":38400,"station_id":"ce4bhh92rcd13ifvqfi0","pricing_plan_id":"cebpf4jnsgd1na2vs0mg"},{"bike_id":"8bb3a3c4-8071-4b99-8818-b7c632d3cda5","system_id":"levelo_inurba_marseille","lat":43.27994,"lon":5.40013,"is_reserved":false,"is_disabled":false,"rental_uris":{"android":"levelo://app?vid=8bb3a3c4-8071-4b99-8818-b7c632d3cda5","ios":"levelo://app?vid=8bb3a3c4-8071-4b99-8818-b7c632d3cda5"},"vehicle_type_id":"4","last_reported":1736874488,"current_range_meters":12000,"station_id":"ce4bho92rcd13ifvqh4g","pricing_plan_id":"cebpf4jnsgd1na2vs0mg"},{"bike_id":"8e1700e2-2825-47f3-9373-6fc227095b7d","system_id":"levelo_inurba_marseille","lat":43.24166,"lon":5.36388,"is_reserved":false,"is_disabled":false,"rental_uris":{"android":"levelo://app?vid=8e1700e2-2825-47f3-9373-6fc227095b7d","ios":"levelo://app?vid=8e1700e2-2825-47f3-9373-6fc227095b7d"},"vehicle_type_id":"4","last_reported":1736874488,"current_range_meters":38400,"station_id":"cpo36qri1sfpv3e86is0","pricing_plan_id":"cebpf4jnsgd1na2vs0mg"},{"bike_id":"e5573715-09fa-4dab-b1d8-e7410696aa39","system_id":"levelo_inurba_marseille","lat":43.32364,"lon":5.36758,"is_reserved":false,"is_disabled":false,"rental_uris":{"android":"levelo://app?vid=e5573715-09fa-4dab-b1d8-e7410696aa39","ios":"levelo://app?vid=e5573715-09fa-4dab-b1d8-e7410696aa39"},"vehicle_type_id":"4","last_reported":1736874488,"current_range_meters":24000,"station_id":"ce4bhsh2rcd13ifvqi2g","pricing_plan_id":"cebpf4jnsgd1na2vs0mg"},{"bike_id":"00b27659-1ccb-48da-9c9d-fd90309daa47","system_id":"levelo_inurba_marseille","lat":43.28611,"lon":5.35109,"is_reserved":false,"is_disabled":false,"rental_uris":{"android":"levelo://app?vid=00b27659-1ccb-48da-9c9d-fd90309daa47","ios":"levelo://app?vid=00b27659-1ccb-48da-9c9d-fd90309daa47"},"vehicle_type_id":"4","last_reported":1736874488,"current_range_meters":24800,"station_id":"ce4bhch2rcd13ifvqeug","pricing_plan_id":"cebpf4jnsgd1na2vs0mg"},{"bike_id":"0d943b41-f3df-4abc-aa29-af3ddc606520","system_id":"levelo_inurba_marseille","lat":43.25864,"lon":5.39908,"is_reserved":false,"is_disabled":false,"rental_uris":{"android":"levelo://app?vid=0d943b41-f3df-4abc-aa29-af3ddc606520","ios":"levelo://app?vid=0d943b41-f3df-4abc-aa29-af3ddc606520"},"vehicle_type_id":"4","last_reported":1736874488,"current_range_meters":22000,"station_id":"ce4bhl92rcd13ifvqghg","pricing_plan_id":"cebpf4jnsgd1na2vs0mg"},{"bike_id":"4a4d296c-e71a-4d73-8515-0b49a9079d8d","system_id":"levelo_inurba_marseille","lat":43.23187,"lon":5.39981,"is_reserved":false,"is_disabled":false,"rental_uris":{"android":"levelo://app?vid=4a4d296c-e71a-4d73-8515-0b49a9079d8d","ios":"levelo://app?vid=4a4d296c-e71a-4d73-8515-0b49a9079d8d"},"vehicle_type_id":"4","last_reported":1736874488,"current_range_meters":28800,"station_id":"ce4bhn12rcd13ifvqgqg","pricing_plan_id":"cebpf4jnsgd1na2vs0mg"},{"bike_id":"d28c64db-672d-4dc2-9aa8-36d7327fadae","system_id":"levelo_inurba_marseille","lat":43.31431,"lon":5.37409,"is_reserved":false,"is_disabled":false,"rental_uris":{"android":"levelo://app?vid=d28c64db-672d-4dc2-9aa8-36d7327fadae","ios":"levelo://app?vid=d28c64db-672d-4dc2-9aa8-36d7327fadae"},"vehicle_type_id":"4","last_reported":1736874488,"current_range_meters":10800,"station_id":"","pricing_plan_id":"cebpf4jnsgd1na2vs0mg"},{"bike_id":"b438a536-2826-455d-89c2-219747efc24e","system_id":"levelo_inurba_marseille","lat":43.2737,"lon":5.36243,"is_reserved":false,"is_disabled":false,"rental_uris":{"android":"levelo://app?vid=b438a536-2826-455d-89c2-219747efc24e","ios":"levelo://app?vid=b438a536-2826-455d-89c2-219747efc24e"},"vehicle_type_id":"4","last_reported":1736874488,"current_range_meters":11200,"station_id":"ce4bhbh2rcd13ifvqeo0","pricing_plan_id":"cebpf4jnsgd1na2vs0mg"},{"bike_id":"6027163c-6e0b-44a2-bfed-3a477a83b455","system_id":"levelo_inurba_marseille","lat":43.31703,"lon":5.37763,"is_reserved":false,"is_disabled":true,"rental_uris":{"android":"levelo://app?vid=6027163c-6e0b-44a2-bfed-3a477a83b455","ios":"levelo://app?vid=6027163c-6e0b-44a2-bfed-3a477a83b455"},"vehicle_type_id":"4","last_reported":1736874488,"current_range_meters":39200,"station_id":"ce4bgth2rcd13ifvqch0","pricing_plan_id":"cebpf4jnsgd1na2vs0mg"},{"bike_id":"fafb8cb8-a241-43cf-b448-6eabc4538c06","system_id":"levelo_inurba_marseille","lat":43.29803,"lon":5.40402,"is_reserved":false,"is_disabled":false,"rental_uris":{"android":"levelo://app?vid=fafb8cb8-a241-43cf-b448-6eabc4538c06","ios":"levelo://app?vid=fafb8cb8-a241-43cf-b448-6eabc4538c06"},"vehicle_type_id":"4","last_reported":1736874488,"current_range_meters":32400,"station_id":"ce4bh112rcd13ifvqd90","pricing_plan_id":"cebpf4jnsgd1na2vs0mg"},{"bike_id":"9af52f4a-2f78-4ffc-ba14-8f8394ba0044","system_id":"levelo_inurba_marseille","lat":43.29452,"lon":5.39749,"is_reserved":false,"is_disabled":false,"rental_uris":{"android":"levelo://app?vid=9af52f4a-2f78-4ffc-ba14-8f8394ba0044","ios":"levelo://app?vid=9af52f4a-2f78-4ffc-ba14-8f8394ba0044"},"vehicle_type_id":"4","last_reported":1736874488,"current_range_meters":17600,"station_id":"ce4bh3h2rcd13ifvqdo0","pricing_plan_id":"cebpf4jnsgd1na2vs0mg"},{"bike_id":"4725ae05-b600-47b7-ba70-7352c8181ea5","system_id":"levelo_inurba_marseille","lat":43.27421,"lon":5.39043,"is_reserved":false,"is_disabled":true,"rental_uris":{"android":"levelo://app?vid=4725ae05-b600-47b7-ba70-7352c8181ea5","ios":"levelo://app?vid=4725ae05-b600-47b7-ba70-7352c8181ea5"},"vehicle_type_id":"4","last_reported":1736874488,"current_range_meters":0,"station_id":"","pricing_plan_id":"cebpf4jnsgd1na2vs0mg"},{"bike_id":"4fb8cf0c-d124-4020-953b-dfe620483ccd","system_id":"levelo_inurba_marseille","lat":43.30142,"lon":5.39877,"is_reserved":false,"is_disabled":false,"rental_uris":{"android":"levelo://app?vid=4fb8cf0c-d124-4020-953b-dfe620483ccd","ios":"levelo://app?vid=4fb8cf0c-d124-4020-953b-dfe620483ccd"},"vehicle_type_id":"4","last_reported":1736874488,"current_range_meters":10000,"station_id":"ce4bh0h2rcd13ifvqd40","pricing_plan_id":"cebpf4jnsgd1na2vs0mg"},{"bike_id":"729ba7c3-1236-467c-9a93-704ff6227d82","system_id":"levelo_inurba_marseille","lat":43.26561,"lon":5.37285,"is_reserved":false,"is_disabled":false,"rental_uris":{"android":"levelo://app?vid=729ba7c3-1236-467c-9a93-704ff6227d82","ios":"levelo://app?vid=729ba7c3-1236-467c-9a93-704ff6227d82"},"vehicle_type_id":"4","last_reported":1736874488,"current_range_meters":38800,"station_id":"ce4bhg12rcd13ifvqf70","pricing_plan_id":"cebpf4jnsgd1na2vs0mg"},{"bike_id":"54c0ad74-2e8e-438c-84c2-a4620661ae6e","system_id":"levelo_inurba_marseille","lat":43.317218,"lon":5.37761,"is_reserved":false,"is_disabled":false,"rental_uris":{"android":"levelo://app?vid=54c0ad74-2e8e-438c-84c2-a4620661ae6e","ios":"levelo://app?vid=54c0ad74-2e8e-438c-84c2-a4620661ae6e"},"vehicle_type_id":"4","last_reported":1736874488,"current_range_meters":38800,"station_id":"ce4bgth2rcd13ifvqch0","pricing_plan_id":"cebpf4jnsgd1na2vs0mg"},{"bike_id":"7656e2d8-f90a-4db2-995a-b84d3c2c7512","system_id":"levelo_inurba_marseille","lat":43.29796,"lon":5.38105,"is_reserved":false,"is_disabled":false,"rental_uris":{"android":"levelo://app?vid=7656e2d8-f90a-4db2-995a-b84d3c2c7512","ios":"levelo://app?vid=7656e2d8-f90a-4db2-995a-b84d3c2c7512"},"vehicle_type_id":"4","last_reported":1736874488,"current_range_meters":37600,"station_id":"ce4bgip2rcd13ifvqbb0","pricing_plan_id":"cebpf4jnsgd1na2vs0mg"},{"bike_id":"8e6aaac3-196e-4b22-9db9-55c4e4da4955","system_id":"levelo_inurba_marseille","lat":43.29046,"lon":5.39964,"is_reserved":false,"is_disabled":false,"rental_uris":{"android":"levelo://app?vid=8e6aaac3-196e-4b22-9db9-55c4e4da4955","ios":"levelo://app?vid=8e6aaac3-196e-4b22-9db9-55c4e4da4955"},"vehicle_type_id":"4","last_reported":1736874488,"current_range_meters":22400,"station_id":"ce4bh392rcd13ifvqdm0","pricing_plan_id":"cebpf4jnsgd1na2vs0mg"},{"bike_id":"fc1f4b57-58af-46da-bb3e-54bb283ae9ce","system_id":"levelo_inurba_marseille","lat":43.24647,"lon":5.38893,"is_reserved":false,"is_disabled":false,"rental_uris":{"android":"levelo://app?vid=fc1f4b57-58af-46da-bb3e-54bb283ae9ce","ios":"levelo://app?vid=fc1f4b57-58af-46da-bb3e-54bb283ae9ce"},"vehicle_type_id":"4","last_reported":1736874488,"current_range_meters":25200,"station_id":"ce4bhg12rcd13ifvqf60","pricing_plan_id":"cebpf4jnsgd1na2vs0mg"},{"bike_id":"d541a376-971a-46f3-a1e5-e64b312eb7c8","system_id":"levelo_inurba_marseille","lat":43.27056,"lon":5.40262,"is_reserved":false,"is_disabled":false,"rental_uris":{"android":"levelo://app?vid=d541a376-971a-46f3-a1e5-e64b312eb7c8","ios":"levelo://app?vid=d541a376-971a-46f3-a1e5-e64b312eb7c8"},"vehicle_type_id":"4","last_reported":1736874488,"current_range_meters":4000,"station_id":"ce4bhk92rcd13ifvqgc0","pricing_plan_id":"cebpf4jnsgd1na2vs0mg"},{"bike_id":"266ba410-89ae-4c98-942e-e5a59c99ead3","system_id":"levelo_inurba_marseille","lat":43.31326,"lon":5.39691,"is_reserved":false,"is_disabled":true,"rental_uris":{"android":"levelo://app?vid=266ba410-89ae-4c98-942e-e5a59c99ead3","ios":"levelo://app?vid=266ba410-89ae-4c98-942e-e5a59c99ead3"},"vehicle_type_id":"4","last_reported":1736874488,"current_range_meters":0,"station_id":"ce4bgvp2rcd13ifvqcu0","pricing_plan_id":"cebpf4jnsgd1na2vs0mg"},{"bike_id":"1b8fee07-6bf9-44a6-8088-12b4b0832a93","system_id":"levelo_inurba_marseille","lat":43.29971,"lon":5.38497,"is_reserved":false,"is_disabled":false,"rental_uris":{"android":"levelo://app?vid=1b8fee07-6bf9-44a6-8088-12b4b0832a93","ios":"levelo://app?vid=1b8fee07-6bf9-44a6-8088-12b4b0832a93"},"vehicle_type_id":"4","last_reported":1736874488,"current_range_meters":10000,"station_id":"ce4bgj92rcd13ifvqbd0","pricing_plan_id":"cebpf4jnsgd1na2vs0mg"},{"bike_id":"39e1730c-efdb-4b2a-90b0-03be6fb09c1d","system_id":"levelo_inurba_marseille","lat":43.28484,"lon":5.38551,"is_reserved":false,"is_disabled":false,"rental_uris":{"android":"levelo://app?vid=39e1730c-efdb-4b2a-90b0-03be6fb09c1d","ios":"levelo://app?vid=39e1730c-efdb-4b2a-90b0-03be6fb09c1d"},"vehicle_type_id":"4","last_reported":1736874488,"current_range_meters":31200,"station_id":"ce4bh8p2rcd13ifvqeb0","pricing_plan_id":"cebpf4jnsgd1na2vs0mg"},{"bike_id":"3a399097-4d77-4c95-ae6a-64cf4c77bb5d","system_id":"levelo_inurba_marseille","lat":43.31709,"lon":5.37746,"is_reserved":false,"is_disabled":false,"rental_uris":{"android":"levelo://app?vid=3a399097-4d77-4c95-ae6a-64cf4c77bb5d","ios":"levelo://app?vid=3a399097-4d77-4c95-ae6a-64cf4c77bb5d"},"vehicle_type_id":"4","last_reported":1736874488,"current_range_meters":6000,"station_id":"ce4bgth2rcd13ifvqch0","pricing_plan_id":"cebpf4jnsgd1na2vs0mg"},{"bike_id":"5d6ee491-db6f-4a2a-8dad-1e433239109a","system_id":"levelo_inurba_marseille","lat":43.25585,"lon":5.38228,"is_reserved":false,"is_disabled":false,"rental_uris":{"android":"levelo://app?vid=5d6ee491-db6f-4a2a-8dad-1e433239109a","ios":"levelo://app?vid=5d6ee491-db6f-4a2a-8dad-1e433239109a"},"vehicle_type_id":"4","last_reported":1736874488,"current_range_meters":36400,"station_id":"ce4bhih2rcd13ifvqfs0","pricing_plan_id":"cebpf4jnsgd1na2vs0mg"},{"bike_id":"0a071c47-4798-4fb2-a1ed-8d9086ab5db2","system_id":"levelo_inurba_marseille","lat":43.29892,"lon":5.43673,"is_reserved":false,"is_disabled":false,"rental_uris":{"android":"levelo://app?vid=0a071c47-4798-4fb2-a1ed-8d9086ab5db2","ios":"levelo://app?vid=0a071c47-4798-4fb2-a1ed-8d9086ab5db2"},"vehicle_type_id":"4","last_reported":1736874488,"current_range_meters":26800,"station_id":"ce4bhpp2rcd13ifvqhfg","pricing_plan_id":"cebpf4jnsgd1na2vs0mg"},{"bike_id":"f5940b2d-3e41-42b1-9cdd-8fbae942f3f9","system_id":"levelo_inurba_marseille","lat":43.23046,"lon":5.35504,"is_reserved":false,"is_disabled":true,"rental_uris":{"android":"levelo://app?vid=f5940b2d-3e41-42b1-9cdd-8fbae942f3f9","ios":"levelo://app?vid=f5940b2d-3e41-42b1-9cdd-8fbae942f3f9"},"vehicle_type_id":"4","last_reported":1736874488,"current_range_meters":0,"station_id":"cpo3342slgdg3j2ifvpg","pricing_plan_id":"cebpf4jnsgd1na2vs0mg"},{"bike_id":"cd4ce056-c89a-4be3-b066-5d9878610867","system_id":"levelo_inurba_marseille","lat":43.30529,"lon":5.36712,"is_reserved":false,"is_disabled":false,"rental_uris":{"android":"levelo://app?vid=cd4ce056-c89a-4be3-b066-5d9878610867","ios":"levelo://app?vid=cd4ce056-c89a-4be3-b066-5d9878610867"},"vehicle_type_id":"4","last_reported":1736874488,"current_range_meters":21600,"station_id":"ce4bgrp2rcd13ifvqc9g","pricing_plan_id":"cebpf4jnsgd1na2vs0mg"},{"bike_id":"43650ee2-e2cd-4b89-a6a6-6cf0dcee9d2b","system_id":"levelo_inurba_marseille","lat":43.28378,"lon":5.37562,"is_reserved":false,"is_disabled":false,"rental_uris":{"android":"levelo://app?vid=43650ee2-e2cd-4b89-a6a6-6cf0dcee9d2b","ios":"levelo://app?vid=43650ee2-e2cd-4b89-a6a6-6cf0dcee9d2b"},"vehicle_type_id":"4","last_reported":1736874488,"current_range_meters":34800,"station_id":"ce4bh412rcd13ifvqds0","pricing_plan_id":"cebpf4jnsgd1na2vs0mg"},{"bike_id":"0bef7249-da1b-414b-ba62-7404ba90f50d","system_id":"levelo_inurba_marseille","lat":43.28709,"lon":5.37914,"is_reserved":false,"is_disabled":true,"rental_uris":{"android":"levelo://app?vid=0bef7249-da1b-414b-ba62-7404ba90f50d","ios":"levelo://app?vid=0bef7249-da1b-414b-ba62-7404ba90f50d"},"vehicle_type_id":"4","last_reported":1736874488,"current_range_meters":1200,"station_id":"ce4bh9p2rcd13ifvqec0","pricing_plan_id":"cebpf4jnsgd1na2vs0mg"},{"bike_id":"b7289074-176d-44f1-9c8a-3a914feef5e0","system_id":"levelo_inurba_marseille","lat":43.29531,"lon":5.39057,"is_reserved":false,"is_disabled":false,"rental_uris":{"android":"levelo://app?vid=b7289074-176d-44f1-9c8a-3a914feef5e0","ios":"levelo://app?vid=b7289074-176d-44f1-9c8a-3a914feef5e0"},"vehicle_type_id":"4","last_reported":1736874488,"current_range_meters":36400,"station_id":"ce4bh3p2rcd13ifvqdp0","pricing_plan_id":"cebpf4jnsgd1na2vs0mg"},{"bike_id":"36c1eb3d-8573-4196-9630-d7dca2bb7e96","system_id":"levelo_inurba_marseille","lat":43.3176,"lon":5.39007,"is_reserved":false,"is_disabled":false,"rental_uris":{"android":"levelo://app?vid=36c1eb3d-8573-4196-9630-d7dca2bb7e96","ios":"levelo://app?vid=36c1eb3d-8573-4196-9630-d7dca2bb7e96"},"vehicle_type_id":"4","last_reported":1736874488,"current_range_meters":38800,"station_id":"ce4bhqp2rcd13ifvqhng","pricing_plan_id":"cebpf4jnsgd1na2vs0mg"},{"bike_id":"3f86b2d9-8dce-4509-bcc5-60f3033e0e05","system_id":"levelo_inurba_marseille","lat":43.31753,"lon":5.39016,"is_reserved":false,"is_disabled":false,"rental_uris":{"android":"levelo://app?vid=3f86b2d9-8dce-4509-bcc5-60f3033e0e05","ios":"levelo://app?vid=3f86b2d9-8dce-4509-bcc5-60f3033e0e05"},"vehicle_type_id":"4","last_reported":1736874488,"current_range_meters":14400,"station_id":"ce4bhqp2rcd13ifvqhng","pricing_plan_id":"cebpf4jnsgd1na2vs0mg"},{"bike_id":"6577c940-5b2f-4aed-bd2d-5f923082acdd","system_id":"levelo_inurba_marseille","lat":43.30125,"lon":5.39874,"is_reserved":false,"is_disabled":false,"rental_uris":{"android":"levelo://app?vid=6577c940-5b2f-4aed-bd2d-5f923082acdd","ios":"levelo://app?vid=6577c940-5b2f-4aed-bd2d-5f923082acdd"},"vehicle_type_id":"4","last_reported":1736874488,"current_range_meters":29600,"station_id":"ce4bh0h2rcd13ifvqd40","pricing_plan_id":"cebpf4jnsgd1na2vs0mg"},{"bike_id":"eb7009fd-0250-439f-a416-eb87d0244931","system_id":"levelo_inurba_marseille","lat":43.27634,"lon":5.36107,"is_reserved":false,"is_disabled":false,"rental_uris":{"android":"levelo://app?vid=eb7009fd-0250-439f-a416-eb87d0244931","ios":"levelo://app?vid=eb7009fd-0250-439f-a416-eb87d0244931"},"vehicle_type_id":"4","last_reported":1736874488,"current_range_meters":10800,"station_id":"ce4bgj92rcd13ifvqbe0","pricing_plan_id":"cebpf4jnsgd1na2vs0mg"},{"bike_id":"0c5c5280-883d-40ad-9609-d6d5aaa708a4","system_id":"levelo_inurba_marseille","lat":43.26933,"lon":5.40258,"is_reserved":false,"is_disabled":false,"rental_uris":{"android":"levelo://app?vid=0c5c5280-883d-40ad-9609-d6d5aaa708a4","ios":"levelo://app?vid=0c5c5280-883d-40ad-9609-d6d5aaa708a4"},"vehicle_type_id":"4","last_reported":1736874488,"current_range_meters":29600,"station_id":"cjm6bp8fraef2m0cb0m0","pricing_plan_id":"cebpf4jnsgd1na2vs0mg"},{"bike_id":"af9a295e-efa9-45fa-9f4d-c2eabe08bcd4","system_id":"levelo_inurba_marseille","lat":43.31316,"lon":5.39698,"is_reserved":false,"is_disabled":false,"rental_uris":{"android":"levelo://app?vid=af9a295e-efa9-45fa-9f4d-c2eabe08bcd4","ios":"levelo://app?vid=af9a295e-efa9-45fa-9f4d-c2eabe08bcd4"},"vehicle_type_id":"4","last_reported":1736874488,"current_range_meters":14000,"station_id":"ce4bgvp2rcd13ifvqcu0","pricing_plan_id":"cebpf4jnsgd1na2vs0mg"},{"bike_id":"5efa0998-5e4b-4d39-a4b9-f55aa73dcd74","system_id":"levelo_inurba_marseille","lat":43.26552,"lon":5.37299,"is_reserved":false,"is_disabled":false,"rental_uris":{"android":"levelo://app?vid=5efa0998-5e4b-4d39-a4b9-f55aa73dcd74","ios":"levelo://app?vid=5efa0998-5e4b-4d39-a4b9-f55aa73dcd74"},"vehicle_type_id":"4","last_reported":1736874488,"current_range_meters":29600,"station_id":"ce4bhg12rcd13ifvqf70","pricing_plan_id":"cebpf4jnsgd1na2vs0mg"},{"bike_id":"bbd97b4c-f891-4b13-8598-e0d12e200a96","system_id":"levelo_inurba_marseille","lat":43.29439,"lon":5.39754,"is_reserved":false,"is_disabled":true,"rental_uris":{"android":"levelo://app?vid=bbd97b4c-f891-4b13-8598-e0d12e200a96","ios":"levelo://app?vid=bbd97b4c-f891-4b13-8598-e0d12e200a96"},"vehicle_type_id":"4","last_reported":1736874488,"current_range_meters":1200,"station_id":"ce4bh3h2rcd13ifvqdo0","pricing_plan_id":"cebpf4jnsgd1na2vs0mg"},{"bike_id":"8db995ac-05a5-42d1-8623-4a7adde52b4d","system_id":"levelo_inurba_marseille","lat":43.29579,"lon":5.36749,"is_reserved":false,"is_disabled":false,"rental_uris":{"android":"levelo://app?vid=8db995ac-05a5-42d1-8623-4a7adde52b4d","ios":"levelo://app?vid=8db995ac-05a5-42d1-8623-4a7adde52b4d"},"vehicle_type_id":"4","last_reported":1736874488,"current_range_meters":39200,"station_id":"ce4bgph2rcd13ifvqc2g","pricing_plan_id":"cebpf4jnsgd1na2vs0mg"},{"bike_id":"65b813c6-d29c-4882-8469-a5e1af60d899","system_id":"levelo_inurba_marseille","lat":43.26062,"lon":5.394,"is_reserved":false,"is_disabled":false,"rental_uris":{"android":"levelo://app?vid=65b813c6-d29c-4882-8469-a5e1af60d899","ios":"levelo://app?vid=65b813c6-d29c-4882-8469-a5e1af60d899"},"vehicle_type_id":"4","last_reported":1736874488,"current_range_meters":29600,"station_id":"ce4bhh92rcd13ifvqfj0","pricing_plan_id":"cebpf4jnsgd1na2vs0mg"},{"bike_id":"88a31ace-920e-4a49-acc4-d2714257a56c","system_id":"levelo_inurba_marseille","lat":43.297882,"lon":5.393569,"is_reserved":false,"is_disabled":false,"rental_uris":{"android":"levelo://app?vid=88a31ace-920e-4a49-acc4-d2714257a56c","ios":"levelo://app?vid=88a31ace-920e-4a49-acc4-d2714257a56c"},"vehicle_type_id":"4","last_reported":1736874488,"current_range_meters":7200,"station_id":"chh1huq6cuj3fo74tm60","pricing_plan_id":"cebpf4jnsgd1na2vs0mg"},{"bike_id":"e6fe4ad7-0ea4-4187-9f64-451836376a86","system_id":"levelo_inurba_marseille","lat":43.321163,"lon":5.367721,"is_reserved":false,"is_disabled":false,"rental_uris":{"android":"levelo://app?vid=e6fe4ad7-0ea4-4187-9f64-451836376a86","ios":"levelo://app?vid=e6fe4ad7-0ea4-4187-9f64-451836376a86"},"vehicle_type_id":"4","last_reported":1736874488,"current_range_meters":32000,"station_id":"ce4bhrh2rcd13ifvqhug","pricing_plan_id":"cebpf4jnsgd1na2vs0mg"},{"bike_id":"7fdff953-65f4-4a40-b994-fa317d042c2e","system_id":"levelo_inurba_marseille","lat":43.29194,"lon":5.35797,"is_reserved":false,"is_disabled":false,"rental_uris":{"android":"levelo://app?vid=7fdff953-65f4-4a40-b994-fa317d042c2e","ios":"levelo://app?vid=7fdff953-65f4-4a40-b994-fa317d042c2e"},"vehicle_type_id":"4","last_reported":1736874488,"current_range_meters":36800,"station_id":"ce4bhb12rcd13ifvqel0","pricing_plan_id":"cebpf4jnsgd1na2vs0mg"},{"bike_id":"3895ab64-b999-4d45-bf01-0461673b4319","system_id":"levelo_inurba_marseille","lat":43.3303,"lon":5.39013,"is_reserved":false,"is_disabled":false,"rental_uris":{"android":"levelo://app?vid=3895ab64-b999-4d45-bf01-0461673b4319","ios":"levelo://app?vid=3895ab64-b999-4d45-bf01-0461673b4319"},"vehicle_type_id":"4","last_reported":1736874488,"current_range_meters":12800,"station_id":"ce4bhr92rcd13ifvqhrg","pricing_plan_id":"cebpf4jnsgd1na2vs0mg"},{"bike_id":"de4ec392-01c5-42ac-9d35-a8f4922057ea","system_id":"levelo_inurba_marseille","lat":43.28613,"lon":5.35108,"is_reserved":false,"is_disabled":false,"rental_uris":{"android":"levelo://app?vid=de4ec392-01c5-42ac-9d35-a8f4922057ea","ios":"levelo://app?vid=de4ec392-01c5-42ac-9d35-a8f4922057ea"},"vehicle_type_id":"4","last_reported":1736874488,"current_range_meters":4400,"station_id":"ce4bhch2rcd13ifvqeug","pricing_plan_id":"cebpf4jnsgd1na2vs0mg"},{"bike_id":"5c9f4c33-c050-4b89-ae4d-260b91ee1f0b","system_id":"levelo_inurba_marseille","lat":43.26051,"lon":5.39405,"is_reserved":false,"is_disabled":false,"rental_uris":{"android":"levelo://app?vid=5c9f4c33-c050-4b89-ae4d-260b91ee1f0b","ios":"levelo://app?vid=5c9f4c33-c050-4b89-ae4d-260b91ee1f0b"},"vehicle_type_id":"4","last_reported":1736874488,"current_range_meters":16000,"station_id":"ce4bhh92rcd13ifvqfj0","pricing_plan_id":"cebpf4jnsgd1na2vs0mg"},{"bike_id":"d83fb01c-420c-451e-a83f-31aa3a6a6a2b","system_id":"levelo_inurba_marseille","lat":43.26198,"lon":5.37932,"is_reserved":false,"is_disabled":false,"rental_uris":{"android":"levelo://app?vid=d83fb01c-420c-451e-a83f-31aa3a6a6a2b","ios":"levelo://app?vid=d83fb01c-420c-451e-a83f-31aa3a6a6a2b"},"vehicle_type_id":"4","last_reported":1736874488,"current_range_meters":17600,"station_id":"ce4bhjp2rcd13ifvqg90","pricing_plan_id":"cebpf4jnsgd1na2vs0mg"},