{"last_updated":1750184083,"ttl":60,"version":"2.2","data":{"bikes":[{"bike_id":"3da29fb8-fc97-44c6-b9ac-31dd456b2fd4","system_id":"levelo_inurba_marseille","lat":43.33771,"lon":5.37424,"is_reserved":false,"is_disabled":true,"rental_uris":{"android":"levelo://app?vid=3da29fb8-fc97-44c6-b9ac-31dd456b2fd4","ios":"levelo://app?vid=3da29fb8-fc97-44c6-b9ac-31dd456b2fd4"},"vehicle_type_id":"4","last_reported":1750184083,"current_range_meters":0,"station_id":"","pricing_plan_id":"cebpf4jnsgd1na2vs0mg"},{"bike_id":"01861ad8-a8d7-4be6-816e-651927c87584","system_id":"levelo_inurba_marseille","lat":43.33751,"lon":5.37456,"is_reserved":false,"is_disabled":true,"rental_uris":{"android":"levelo://app?vid=01861ad8-a8d7-4be6-816e-651927c87584","ios":"levelo://app?vid=01861ad8-a8d7-4be6-816e-651927c87584"},"vehicle_type_id":"4","last_reported":1750184083,"current_range_meters":0,"station_id":"","pricing_plan_id":"cebpf4jnsgd1na2vs0mg"},{"bike_id":"dbfce7a3-3423-4296-b193-a177dea644ac","system_id":"levelo_inurba_marseille","lat":43.27299,"lon":5.41607,"is_reserved":false,"is_disabled":true,"rental_uris":{"android":"levelo://app?vid=dbfce7a3-3423-4296-b193-a177dea644ac","ios":"levelo://app?vid=dbfce7a3-3423-4296-b193-a177dea644ac"},"vehicle_type_id":"4","last_reported":1750184083,"current_range_meters":0,"station_id":"","pricing_plan_id":"cebpf4jnsgd1na2vs0mg"},{"bike_id":"b81ba2bd-624d-43c3-b702-6c0cdad38ab2","system_id":"levelo_inurba_marseille","lat":43.31174,"lon":5.39315,"is_reserved":false,"is_disabled":true,"rental_uris":{"android":"levelo://app?vid=b81ba2bd-624d-43c3-b702-6c0cdad38ab2","ios":"levelo://app?vid=b81ba2bd-624d-43c3-b702-6c0cdad38ab2"},"vehicle_type_id":"4","last_reported":1750184083,"current_range_meters":0,"station_id":"","pricing_plan_id":"cebpf4jnsgd1na2vs0mg"},{"bike_id":"d2bd57c8-6b64-48db-ad24-5398eb3fd9d6","system_id":"levelo_inurba_marseille","lat":43.337444,"lon":5.374475,"is_reserved":false,"is_disabled":true,"rental_uris":{"android":"levelo://app?vid=d2bd57c8-6b64-48db-ad24-5398eb3fd9d6","ios":"levelo://app?vid=d2bd57c8-6b64-48db-ad24-5398eb3fd9d6"},"vehicle_type_id":"4","last_reported":1750184083,"current_range_meters":0,"station_id":"","pricing_plan_id":"cebpf4jnsgd1na2vs0mg"},{"bike_id":"62a493c7-4534-4419-ad43-0582de34a72a","system_id":"levelo_inurba_marseille","lat":43.21366,"lon":5.355183,"is_reserved":false,"is_disabled":true,"rental_uris":{"android":"levelo://app?vid=62a493c7-4534-4419-ad43-0582de34a72a","ios":"levelo://app?vid=62a493c7-4534-4419-ad43-0582de34a72a"},"vehicle_type_id":"4","last_reported":1750184083,"current_range_meters":0,"station_id":"","pricing_plan_id":"cebpf4jnsgd1na2vs0mg"},{"bike_id":"8ad9234e-001a-4549-8bba-9baf2ef98804","system_id":"levelo_inurba_marseille","lat":43.27456,"lon":5.39821,"is_reserved":false,"is_disabled":true,"rental_uris":{"android":"levelo://app?vid=8ad9234e-001a-4549-8bba-9baf2ef98804","ios":"levelo://app?vid=8ad9234e-001a-4549-8bba-9baf2ef98804"},"vehicle_type_id":"4","last_reported":1750184083,"current_range_meters":0,"station_id":"","pricing_plan_id":"cebpf4jnsgd1na2vs0mg"},{"bike_id":"93af304b-67b5-47b8-a3fd-e0775f7cde8c","system_id":"levelo_inurba_marseille","lat":43.21552,"lon":5.34725,"is_reserved":false,"is_disabled":true,"rental_uris":{"android":"levelo://app?vid=93af304b-67b5-47b8-a3fd-e0775f7cde8c","ios":"levelo://app?vid=93af304b-67b5-47b8-a3fd-e0775f7cde8c"},"vehicle_type_id":"4","last_reported":1750184083,"current_range_meters":0,"station_id":"","pricing_plan_id":"cebpf4jnsgd1na2vs0mg"},{"bike_id":"d6609b4f-333b-43c1-9ebe-8726f5e76e88","system_id":"levelo_inurba_marseille","lat":43.337444,"lon":5.374475,"is_reserved":false,"is_disabled":true,"rental_uris":{"android":"levelo://app?vid=d6609b4f-333b-43c1-9ebe-8726f5e76e88","ios":"levelo://app?vid=d6609b4f-333b-43c1-9ebe-8726f5e76e88"},"vehicle_type_id":"4","last_reported":1750184083,"current_range_meters":0,"station_id":"","pricing_plan_id":"cebpf4jnsgd1na2vs0mg"},{"bike_id":"57c83ce1-960e-466a-b6c5-d93bc130c53a","system_id":"levelo_inurba_marseille","lat":43.24907,"lon":5.38952,"is_reserved":false,"is_disabled":true,"rental_uris":{"android":"levelo://app?vid=57c83ce1-960e-466a-b6c5-d93bc130c53a","ios":"levelo://app?vid=57c83ce1-960e-466a-b6c5-d93bc130c53a"},"vehicle_type_id":"4","last_reported":1750184083,"current_range_meters":0,"station_id":"","pricing_plan_id":"cebpf4jnsgd1na2vs0mg"},{"bike_id":"b8144318-3bcf-42a8-8062-1f49fc8e3a72","system_id":"levelo_inurba_marseille","lat":43.30141,"lon":5.38775,"is_reserved":false,"is_disabled":true,"rental_uris":{"android":"levelo://app?vid=b8144318-3bcf-42a8-8062-1f49fc8e3a72","ios":"levelo://app?vid=b8144318-3bcf-42a8-8062-1f49fc8e3a72"},"vehicle_type_id":"4","last_reported":1750184083,"current_range_meters":0,"station_id":"ce4bghh2rcd13ifvqb60","pricing_plan_id":"cebpf4jnsgd1na2vs0mg"},{"bike_id":"ef94ce16-eb5a-4881-94e5-ec9113ae7bd2","system_id":"levelo_inurba_marseille","lat":43.30431,"lon":5.38885,"is_reserved":false,"is_disabled":true,"rental_uris":{"android":"levelo://app?vid=ef94ce16-eb5a-4881-94e5-ec9113ae7bd2","ios":"levelo://app?vid=ef94ce16-eb5a-4881-94e5-ec9113ae7bd2"},"vehicle_type_id":"4","last_reported":1750184083,"current_range_meters":0,"station_id":"ce4bgk12rcd13ifvqbi0","pricing_plan_id":"cebpf4jnsgd1na2vs0mg"},{"bike_id":"c2c58667-20a8-4e79-8951-55b79040f988","system_id":"levelo_inurba_marseille","lat":43.31175,"lon":5.38712,"is_reserved":false,"is_disabled":true,"rental_uris":{"android":"levelo://app?vid=c2c58667-20a8-4e79-8951-55b79040f988","ios":"levelo://app?vid=c2c58667-20a8-4e79-8951-55b79040f988"},"vehicle_type_id":"4","last_reported":1750184083,"current_range_meters":0,"station_id":"ce4bgv12rcd13ifvqcp0","pricing_plan_id":"cebpf4jnsgd1na2vs0mg"},{"bike_id":"90774782-d671-4735-bcbf-cc1a51aa36c7","system_id":"levelo_inurba_marseille","lat":43.30241,"lon":5.40054,"is_reserved":false,"is_disabled":true,"rental_uris":{"android":"levelo://app?vid=90774782-d671-4735-bcbf-cc1a51aa36c7","ios":"levelo://app?vid=90774782-d671-4735-bcbf-cc1a51aa36c7"},"vehicle_type_id":"4","last_reported":1750184083,"current_range_meters":0,"station_id":"ce4bgvh2rcd13ifvqcs0","pricing_plan_id":"cebpf4jnsgd1na2vs0mg"},{"bike_id":"c7ca90e2-48e6-4230-94c3-bc5c34657895","system_id":"levelo_inurba_marseille","lat":43.30151,"lon":5.39829,"is_reserved":false,"is_disabled":true,"rental_uris":{"android":"levelo://app?vid=c7ca90e2-48e6-4230-94c3-bc5c34657895","ios":"levelo://app?vid=c7ca90e2-48e6-4230-94c3-bc5c34657895"},"vehicle_type_id":"4","last_reported":1750184083,"current_range_meters":0,"station_id":"ce4bh0h2rcd13ifvqd40","pricing_plan_id":"cebpf4jnsgd1na2vs0mg"},{"bike_id":"862e8b38-39fa-49bf-b22f-4288f616ddbe","system_id":"levelo_inurba_marseille","lat":43.287012,"lon":5.373707,"is_reserved":false,"is_disabled":true,"rental_uris":{"android":"levelo://app?vid=862e8b38-39fa-49bf-b22f-4288f616ddbe","ios":"levelo://app?vid=862e8b38-39fa-49bf-b22f-4288f616ddbe"},"vehicle_type_id":"4","last_reported":1750184083,"current_range_meters":0,"station_id":"ce4bh3p2rcd13ifvqdq0","pricing_plan_id":"cebpf4jnsgd1na2vs0mg"},{"bike_id":"120194d3-3522-40ee-a25c-bf74a3a0ba3c","system_id":"levelo_inurba_marseille","lat":43.29243,"lon":5.38438,"is_reserved":false,"is_disabled":true,"rental_uris":{"android":"levelo://app?vid=120194d3-3522-40ee-a25c-bf74a3a0ba3c","ios":"levelo://app?vid=120194d3-3522-40ee-a25c-bf74a3a0ba3c"},"vehicle_type_id":"4","last_reported":1750184083,"current_range_meters":0,"station_id":"ce4bh692rcd13ifvqea0","pricing_plan_id":"cebpf4jnsgd1na2vs0mg"},{"bike_id":"1df072ae-7f55-49e2-a150-3665da2db6a0","system_id":"levelo_inurba_marseille","lat":43.26953,"lon":5.38626,"is_reserved":false,"is_disabled":true,"rental_uris":{"android":"levelo://app?vid=1df072ae-7f55-49e2-a150-3665da2db6a0","ios":"levelo://app?vid=1df072ae-7f55-49e2-a150-3665da2db6a0"},"vehicle_type_id":"4","last_reported":1750184083,"current_range_meters":0,"station_id":"ce4bhh92rcd13ifvqfh0","pricing_plan_id":"cebpf4jnsgd1na2vs0mg"},{"bike_id":"650eff93-e42e-47db-a40e-f54ff42598aa","system_id":"levelo_inurba_marseille","lat":43.27948,"lon":5.41043,"is_reserved":false,"is_disabled":true,"rental_uris":{"android":"levelo://app?vid=650eff93-e42e-47db-a40e-f54ff42598aa","ios":"levelo://app?vid=650eff93-e42e-47db-a40e-f54ff42598aa"},"vehicle_type_id":"4","last_reported":1750184083,"current_range_meters":0,"station_id":"ce4bhnp2rcd13ifvqh0g","pricing_plan_id":"cebpf4jnsgd1na2vs0mg"},{"bike_id":"987d4d25-bed2-4a18-8f47-69cdb3be08ea","system_id":"levelo_inurba_marseille","lat":43.27939,"lon":5.41046,"is_reserved":false,"is_disabled":true,"rental_uris":{"android":"levelo://app?vid=987d4d25-bed2-4a18-8f47-69cdb3be08ea","ios":"levelo://app?vid=987d4d25-bed2-4a18-8f47-69cdb3be08ea"},"vehicle_type_id":"4","last_reported":1750184083,"current_range_meters":0,"station_id":"ce4bhnp2rcd13ifvqh0g","pricing_plan_id":"cebpf4jnsgd1na2vs0mg"},{"bike_id":"474c23ee-6701-431d-9692-43c59c9044a1","system_id":"levelo_inurba_marseille","lat":43.26801,"lon":5.40267,"is_reserved":false,"is_disabled":true,"rental_uris":{"android":"levelo://app?vid=474c23ee-6701-431d-9692-43c59c9044a1","ios":"levelo://app?vid=474c23ee-6701-431d-9692-43c59c9044a1"},"vehicle_type_id":"4","last_reported":1750184083,"current_range_meters":0,"station_id":"ce501612rcd8frsf0b60","pricing_plan_id":"cebpf4jnsgd1na2vs0mg"},{"bike_id":"f66330aa-0f11-4552-8f16-7a2e417bec3a","system_id":"levelo_inurba_marseille","lat":43.22937,"lon":5.35376,"is_reserved":false,"is_disabled":true,"rental_uris":{"android":"levelo://app?vid=f66330aa-0f11-4552-8f16-7a2e417bec3a","ios":"levelo://app?vid=f66330aa-0f11-4552-8f16-7a2e417bec3a"},"vehicle_type_id":"4","last_reported":1750184083,"current_range_meters":0,"station_id":"cpo3532slgdg3j2ikp40","pricing_plan_id":"cebpf4jnsgd1na2vs0mg"},{"bike_id":"67f345a5-6667-45df-b511-9128b26f54c4","system_id":"levelo_inurba_marseille","lat":43.29574,"lon":5.37524,"is_reserved":false,"is_disabled":true,"rental_uris":{"android":"levelo://app?vid=67f345a5-6667-45df-b511-9128b26f54c4","ios":"levelo://app?vid=67f345a5-6667-45df-b511-9128b26f54c4"},"vehicle_type_id":"4","last_reported":1750184083,"current_range_meters":400,"station_id":"ce4bgh92rcd13ifvqb50","pricing_plan_id":"cebpf4jnsgd1na2vs0mg"},{"bike_id":"decf339c-a0d2-4ead-b87e-eab63edf0e35","system_id":"levelo_inurba_marseille","lat":43.29979,"lon":5.38499,"is_reserved":false,"is_disabled":true,"rental_uris":{"android":"levelo://app?vid=decf339c-a0d2-4ead-b87e-eab63edf0e35","ios":"levelo://app?vid=decf339c-a0d2-4ead-b87e-eab63edf0e35"},"vehicle_type_id":"4","last_reported":1750184083,"current_range_meters":400,"station_id":"ce4bgj92rcd13ifvqbd0","pricing_plan_id":"cebpf4jnsgd1na2vs0mg"},{"bike_id":"384e3fa8-2dc7-4bf6-a075-9189b300e300","system_id":"levelo_inurba_marseille","lat":43.286604,"lon":5.363437,"is_reserved":false,"is_disabled":false,"rental_uris":{"android":"levelo://app?vid=384e3fa8-2dc7-4bf6-a075-9189b300e300","ios":"levelo://app?vid=384e3fa8-2dc7-4bf6-a075-9189b300e300"},"vehicle_type_id":"4","last_reported":1750184083,"current_range_meters":400,"station_id":"ce4bhah2rcd13ifvqej0","pricing_plan_id":"cebpf4jnsgd1na2vs0mg"},{"bike_id":"d0c8e8c4-47df-4b14-bbbd-7874cf446963","system_id":"levelo_inurba_marseille","lat":43.27207,"lon":5.39185,"is_reserved":false,"is_disabled":true,"rental_uris":{"android":"levelo://app?vid=d0c8e8c4-47df-4b14-bbbd-7874cf446963","ios":"levelo://app?vid=d0c8e8c4-47df-4b14-bbbd-7874cf446963"},"vehicle_type_id":"4","last_reported":1750184083,"current_range_meters":400,"station_id":"ce4bhhp2rcd13ifvqfm0","pricing_plan_id":"cebpf4jnsgd1na2vs0mg"},{"bike_id":"a5ba3039-6ede-463c-8a8e-91344fdc8ef2","system_id":"levelo_inurba_marseille","lat":43.28164,"lon":5.42662,"is_reserved":false,"is_disabled":true,"rental_uris":{"android":"levelo://app?vid=a5ba3039-6ede-463c-8a8e-91344fdc8ef2","ios":"levelo://app?vid=a5ba3039-6ede-463c-8a8e-91344fdc8ef2"},"vehicle_type_id":"4","last_reported":1750184083,"current_range_meters":400,"station_id":"ce4bhnh2rcd13ifvqgug","pricing_plan_id":"cebpf4jnsgd1na2vs0mg"},{"bike_id":"6388d11b-25d9-4fdc-9172-7515be222238","system_id":"levelo_inurba_marseille","lat":43.30375,"lon":5.42484,"is_reserved":false,"is_disabled":true,"rental_uris":{"android":"levelo://app?vid=6388d11b-25d9-4fdc-9172-7515be222238","ios":"levelo://app?vid=6388d11b-25d9-4fdc-9172-7515be222238"},"vehicle_type_id":"4","last_reported":1750184083,"current_range_meters":400,"station_id":"ce4bhoh2rcd13ifvqh6g","pricing_plan_id":"cebpf4jnsgd1na2vs0mg"},{"bike_id":"9966e9ee-503e-4613-a2b0-33c145c8098f","system_id":"levelo_inurba_marseille","lat":43.24907,"lon":5.37492,"is_reserved":false,"is_disabled":true,"rental_uris":{"android":"levelo://app?vid=9966e9ee-503e-4613-a2b0-33c145c8098f","ios":"levelo://app?vid=9966e9ee-503e-4613-a2b0-33c145c8098f"},"vehicle_type_id":"4","last_reported":1750184083,"current_range_meters":800,"station_id":"","pricing_plan_id":"cebpf4jnsgd1na2vs0mg"},{"bike_id":"84cbf3c4-ada2-4c98-8ab4-720ac5a5367a","system_id":"levelo_inurba_marseille","lat":43.30138,"lon":5.39841,"is_reserved":false,"is_disabled":true,"rental_uris":{"android":"levelo://app?vid=84cbf3c4-ada2-4c98-8ab4-720ac5a5367a","ios":"levelo://app?vid=84cbf3c4-ada2-4c98-8ab4-720ac5a5367a"},"vehicle_type_id":"4","last_reported":1750184083,"current_range_meters":800,"station_id":"ce4bh0h2rcd13ifvqd40","pricing_plan_id":"cebpf4jnsgd1na2vs0mg"},{"bike_id":"b9e37238-9abe-4b8b-b932-edaee33a7e59","system_id":"levelo_inurba_marseille","lat":43.27515,"lon":5.3904,"is_reserved":false,"is_disabled":true,"rental_uris":{"android":"levelo://app?vid=b9e37238-9abe-4b8b-b932-edaee33a7e59","ios":"levelo://app?vid=b9e37238-9abe-4b8b-b932-edaee33a7e59"},"vehicle_type_id":"4","last_reported":1750184083,"current_range_meters":1200,"station_id":"","pricing_plan_id":"cebpf4jnsgd1na2vs0mg"},{"bike_id":"1d29f1cc-9d07-415c-a088-db9bc130a3b5","system_id":"levelo_inurba_marseille","lat":43.29362,"lon":5.3784,"is_reserved":false,"is_disabled":true,"rental_uris":{"android":"levelo://app?vid=1d29f1cc-9d07-415c-a088-db9bc130a3b5","ios":"levelo://app?vid=1d29f1cc-9d07-415c-a088-db9bc130a3b5"},"vehicle_type_id":"4","last_reported":1750184083,"current_range_meters":1200,"station_id":"ce4bgjh2rcd13ifvqbf0","pricing_plan_id":"cebpf4jnsgd1na2vs0mg"},{"bike_id":"0495b891-5b18-4a68-8b62-974139e597ed","system_id":"levelo_inurba_marseille","lat":43.31331,"lon":5.39683,"is_reserved":false,"is_disabled":true,"rental_uris":{"android":"levelo://app?vid=0495b891-5b18-4a68-8b62-974139e597ed","ios":"levelo://app?vid=0495b891-5b18-4a68-8b62-974139e597ed"},"vehicle_type_id":"4","last_reported":1750184083,"current_range_meters":1200,"station_id":"ce4bgvp2rcd13ifvqcu0","pricing_plan_id":"cebpf4jnsgd1na2vs0mg"},{"bike_id":"adf047dc-52da-4f0b-a523-fac56fe44e20","system_id":"levelo_inurba_marseille","lat":43.28937,"lon":5.36634,"is_reserved":false,"is_disabled":true,"rental_uris":{"android":"levelo://app?vid=adf047dc-52da-4f0b-a523-fac56fe44e20","ios":"levelo://app?vid=adf047dc-52da-4f0b-a523-fac56fe44e20"},"vehicle_type_id":"4","last_reported":1750184083,"current_range_meters":1200,"station_id":"ce4bhap2rcd13ifvqek0","pricing_plan_id":"cebpf4jnsgd1na2vs0mg"},{"bike_id":"f9622367-fddf-4ebf-81dc-1857b00b4759","system_id":"levelo_inurba_marseille","lat":43.26207,"lon":5.37448,"is_reserved":false,"is_disabled":true,"rental_uris":{"android":"levelo://app?vid=f9622367-fddf-4ebf-81dc-1857b00b4759","ios":"levelo://app?vid=f9622367-fddf-4ebf-81dc-1857b00b4759"},"vehicle_type_id":"4","last_reported":1750184083,"current_range_meters":1200,"station_id":"ce4bhgp2rcd13ifvqfc0","pricing_plan_id":"cebpf4jnsgd1na2vs0mg"},{"bike_id":"e6974bba-6a43-4dd0-9ae8-0af463145b9c","system_id":"levelo_inurba_marseille","lat":43.26211,"lon":5.374427,"is_reserved":false,"is_disabled":true,"rental_uris":{"android":"levelo://app?vid=e6974bba-6a43-4dd0-9ae8-0af463145b9c","ios":"levelo://app?vid=e6974bba-6a43-4dd0-9ae8-0af463145b9c"},"vehicle_type_id":"4","last_reported":1750184083,"current_range_meters":1200,"station_id":"ce4bhgp2rcd13ifvqfc0","pricing_plan_id":"cebpf4jnsgd1na2vs0mg"},{"bike_id":"f2908202-0aba-4b74-a50e-de4ce3472dec","system_id":"levelo_inurba_marseille","lat":43.27337,"lon":5.39088,"is_reserved":false,"is_disabled":true,"rental_uris":{"android":"levelo://app?vid=f2908202-0aba-4b74-a50e-de4ce3472dec","ios":"levelo://app?vid=f2908202-0aba-4b74-a50e-de4ce3472dec"},"vehicle_type_id":"4","last_reported":1750184083,"current_range_meters":1200,"station_id":"ce4bhgp2rcd13ifvqfe0","pricing_plan_id":"cebpf4jnsgd1na2vs0mg"},{"bike_id":"784f62ba-9665-42c2-82b3-eb9e1e3e7319","system_id":"levelo_inurba_marseille","lat":43.29299,"lon":5.37454,"is_reserved":false,"is_disabled":true,"rental_uris":{"android":"levelo://app?vid=784f62ba-9665-42c2-82b3-eb9e1e3e7319","ios":"levelo://app?vid=784f62ba-9665-42c2-82b3-eb9e1e3e7319"},"vehicle_type_id":"4","last_reported":1750184083,"current_range_meters":1600,"station_id":"ce4bgi12rcd13ifvqb70","pricing_plan_id":"cebpf4jnsgd1na2vs0mg"},{"bike_id":"475d82b2-8c9c-4aa8-91ba-6fa159179f26","system_id":"levelo_inurba_marseille","lat":43.30137,"lon":5.39863,"is_reserved":false,"is_disabled":true,"rental_uris":{"android":"levelo://app?vid=475d82b2-8c9c-4aa8-91ba-6fa159179f26","ios":"levelo://app?vid=475d82b2-8c9c-4aa8-91ba-6fa159179f26"},"vehicle_type_id":"4","last_reported":1750184083,"current_range_meters":1600,"station_id":"ce4bh0h2rcd13ifvqd40","pricing_plan_id":"cebpf4jnsgd1na2vs0mg"},{"bike_id":"cd710f38-56fe-43b8-9d1a-376d4b8be4d5","system_id":"levelo_inurba_marseille","lat":43.23154,"lon":5.43708,"is_reserved":false,"is_disabled":true,"rental_uris":{"android":"levelo://app?vid=cd710f38-56fe-43b8-9d1a-376d4b8be4d5","ios":"levelo://app?vid=cd710f38-56fe-43b8-9d1a-376d4b8be4d5"},"vehicle_type_id":"4","last_reported":1750184083,"current_range_meters":1600,"station_id":"ce4bhmp2rcd13ifvqgog","pricing_plan_id":"cebpf4jnsgd1na2vs0mg"},{"bike_id":"78c6b476-8ea5-43bc-8bf9-ff5bd77f5076","system_id":"levelo_inurba_marseille","lat":43.3108,"lon":5.42429,"is_reserved":false,"is_disabled":true,"rental_uris":{"android":"levelo://app?vid=78c6b476-8ea5-43bc-8bf9-ff5bd77f5076","ios":"levelo://app?vid=78c6b476-8ea5-43bc-8bf9-ff5bd77f5076"},"vehicle_type_id":"4","last_reported":1750184083,"current_range_meters":1600,"station_id":"ce4bhp92rcd13ifvqhag","pricing_plan_id":"cebpf4jnsgd1na2vs0mg"},{"bike_id":"92fe4264-5b8c-4152-9b25-d6e5f59c7a50","system_id":"levelo_inurba_marseille","lat":43.32655,"lon":5.40999,"is_reserved":false,"is_disabled":true,"rental_uris":{"android":"levelo://app?vid=92fe4264-5b8c-4152-9b25-d6e5f59c7a50","ios":"levelo://app?vid=92fe4264-5b8c-4152-9b25-d6e5f59c7a50"},"vehicle_type_id":"4","last_reported":1750184083,"current_range_meters":1600,"station_id":"ce4bhpp2rcd13ifvqhgg","pricing_plan_id":"cebpf4jnsgd1na2vs0mg"},{"bike_id":"5a22c73b-5335-49b9-a1a9-31c08ad7f1af","system_id":"levelo_inurba_marseille","lat":43.29477,"lon":5.38699,"is_reserved":false,"is_disabled":true,"rental_uris":{"android":"levelo://app?vid=5a22c73b-5335-49b9-a1a9-31c08ad7f1af","ios":"levelo://app?vid=5a22c73b-5335-49b9-a1a9-31c08ad7f1af"},"vehicle_type_id":"4","last_reported":1750184083,"current_range_meters":2000,"station_id":"","pricing_plan_id":"cebpf4jnsgd1na2vs0mg"},{"bike_id":"e0a033ff-e345-490a-86bd-d6cb4b75a361","system_id":"levelo_inurba_marseille","lat":43.3021,"lon":5.3947,"is_reserved":false,"is_disabled":true,"rental_uris":{"android":"levelo://app?vid=e0a033ff-e345-490a-86bd-d6cb4b75a361","ios":"levelo://app?vid=e0a033ff-e345-490a-86bd-d6cb4b75a361"},"vehicle_type_id":"4","last_reported":1750184083,"current_range_meters":2000,"station_id":"ce4bh0p2rcd13ifvqd70","pricing_plan_id":"cebpf4jnsgd1na2vs0mg"},{"bike_id":"d7a8f9fd-ac7b-4967-84fb-523b2fecc5cc","system_id":"levelo_inurba_marseille","lat":43.28987,"lon":5.37877,"is_reserved":false,"is_disabled":true,"rental_uris":{"android":"levelo://app?vid=d7a8f9fd-ac7b-4967-84fb-523b2fecc5cc","ios":"levelo://app?vid=d7a8f9fd-ac7b-4967-84fb-523b2fecc5cc"},"vehicle_type_id":"4","last_reported":1750184083,"current_range_meters":2000,"station_id":"ce4bh9p2rcd13ifvqed0","pricing_plan_id":"cebpf4jnsgd1na2vs0mg"},{"bike_id":"8d297b38-f666-4a46-9dee-0132f800019c","system_id":"levelo_inurba_marseille","lat":43.32234,"lon":5.38652,"is_reserved":false,"is_disabled":false,"rental_uris":{"android":"levelo://app?vid=8d297b38-f666-4a46-9dee-0132f800019c","ios":"levelo://app?vid=8d297b38-f666-4a46-9dee-0132f800019c"},"vehicle_type_id":"4","last_reported":1750184083,"current_range_meters":2800,"station_id":"","pricing_plan_id":"cebpf4jnsgd1na2vs0mg"},{"bike_id":"81903fe9-7d6f-41c7-bb5f-c7a5211adabb","system_id":"levelo_inurba_marseille","lat":43.29972,"lon":5.38489,"is_reserved":false,"is_disabled":false,"rental_uris":{"android":"levelo://app?vid=81903fe9-7d6f-41c7-bb5f-c7a5211adabb","ios":"levelo://app?vid=81903fe9-7d6f-41c7-bb5f-c7a5211adabb"},"vehicle_type_id":"4","last_reported":1750184083,"current_range_meters":2800,"station_id":"ce4bgj92rcd13ifvqbd0","pricing_plan_id":"cebpf4jnsgd1na2vs0mg"},{"bike_id":"d40a2ccf-afad-402a-8ab6-5c942a4eadb9","system_id":"levelo_inurba_marseille","lat":43.312302,"lon":5.368827,"is_reserved":false,"is_disabled":false,"rental_uris":{"android":"levelo://app?vid=d40a2ccf-afad-402a-8ab6-5c942a4eadb9","ios":"levelo://app?vid=d40a2ccf-afad-402a-8ab6-5c942a4eadb9"},"vehicle_type_id":"4","last_reported":1750184083,"current_range_meters":2800,"station_id":"ce4bgl92rcd13ifvqbq0","pricing_plan_id":"cebpf4jnsgd1na2vs0mg"},{"bike_id":"bf8cba15-3ace-46e6-a820-eb487f031f75","system_id":"levelo_inurba_marseille","lat":43.24814,"lon":5.3746,"is_reserved":false,"is_disabled":false,"rental_uris":{"android":"levelo://app?vid=bf8cba15-3ace-46e6-a820-eb487f031f75","ios":"levelo://app?vid=bf8cba15-3ace-46e6-a820-eb487f031f75"},"vehicle_type_id":"4","last_reported":1750184083,"current_range_meters":2800,"station_id":"ce4bhgh2rcd13ifvqfb0","pricing_plan_id":"cebpf4jnsgd1na2vs0mg"},{"bike_id":"fa6a2c49-828e-4a3a-82c6-28ae4b6e053d","system_id":"levelo_inurba_marseille","lat":43.30415,"lon":5.41282,"is_reserved":false,"is_disabled":false,"rental_uris":{"android":"levelo://app?vid=fa6a2c49-828e-4a3a-82c6-28ae4b6e053d","ios":"levelo://app?vid=fa6a2c49-828e-4a3a-82c6-28ae4b6e053d"},"vehicle_type_id":"4","last_reported":1750184083,"current_range_meters":2800,"station_id":"ce4bhop2rcd13ifvqh8g","pricing_plan_id":"cebpf4jnsgd1na2vs0mg"},{"bike_id":"c6504dca-3b85-4fbf-8e26-9552e994c7a6","system_id":"levelo_inurba_marseille","lat":43.30724,"lon":5.42438,"is_reserved":false,"is_disabled":false,"rental_uris":{"android":"levelo://app?vid=c6504dca-3b85-4fbf-8e26-9552e994c7a6","ios":"levelo://app?vid=c6504dca-3b85-4fbf-8e26-9552e994c7a6"},"vehicle_type_id":"4","last_reported":1750184083,"current_range_meters":2800,"station_id":"st_cvj6ca6bvosntc0bfgr0","pricing_plan_id":"cebpf4jnsgd1na2vs0mg"},{"bike_id":"bd6e8558-bad3-42f8-b2a6-f5e0d52fef45","system_id":"levelo_inurba_marseille","lat":43.30142,"lon":5.39841,"is_reserved":false,"is_disabled":false,"rental_uris":{"android":"levelo://app?vid=bd6e8558-bad3-42f8-b2a6-f5e0d52fef45","ios":"levelo://app?vid=bd6e8558-bad3-42f8-b2a6-f5e0d52fef45"},"vehicle_type_id":"4","last_reported":1750184083,"current_range_meters":3200,"station_id":"ce4bh0h2rcd13ifvqd40","pricing_plan_id":"cebpf4jnsgd1na2vs0mg"},{"bike_id":"c28698f1-705e-4b9d-8b67-8f0820d956d9","system_id":"levelo_inurba_marseille","lat":43.28475,"lon":5.3841,"is_reserved":false,"is_disabled":false,"rental_uris":{"android":"levelo://app?vid=c28698f1-705e-4b9d-8b67-8f0820d956d9","ios":"levelo://app?vid=c28698f1-705e-4b9d-8b67-8f0820d956d9"},"vehicle_type_id":"4","last_reported":1750184083,"current_range_meters":3200,"station_id":"ce4bh512rcd13ifvqe3g","pricing_plan_id":"cebpf4jnsgd1na2vs0mg"},{"bike_id":"44e6022f-27db-4e85-9eff-bdcd7e2a89bc","system_id":"levelo_inurba_marseille","lat":43.27977,"lon":5.38739,"is_reserved":false,"is_disabled":false,"rental_uris":{"android":"levelo://app?vid=44e6022f-27db-4e85-9eff-bdcd7e2a89bc","ios":"levelo://app?vid=44e6022f-27db-4e85-9eff-bdcd7e2a89bc"},"vehicle_type_id":"4","last_reported":1750184083,"current_range_meters":3200,"station_id":"ce4bhg12rcd13ifvqf80","pricing_plan_id":"cebpf4jnsgd1na2vs0mg"},{"bike_id":"cc56521f-c346-4aac-b6de-66d3fed1feff","system_id":"levelo_inurba_marseille","lat":43.30808,"lon":5.43523,"is_reserved":false,"is_disabled":false,"rental_uris":{"android":"levelo://app?vid=cc56521f-c346-4aac-b6de-66d3fed1feff","ios":"levelo://app?vid=cc56521f-c346-4aac-b6de-66d3fed1feff"},"vehicle_type_id":"4","last_reported":1750184083,"current_range_meters":3200,"station_id":"ce4bhph2rcd13ifvqheg","pricing_plan_id":"cebpf4jnsgd1na2vs0mg"},{"bike_id":"69af7404-5ec1-4810-9e8f-2b24aa559381","system_id":"levelo_inurba_marseille","lat":43.2935,"lon":5.383874,"is_reserved":false,"is_disabled":false,"rental_uris":{"android":"levelo://app?vid=69af7404-5ec1-4810-9e8f-2b24aa559381","ios":"levelo://app?vid=69af7404-5ec1-4810-9e8f-2b24aa559381"},"vehicle_type_id":"4","last_reported":1750184083,"current_range_meters":3600,"station_id":"","pricing_plan_id":"cebpf4jnsgd1na2vs0mg"},{"bike_id":"c8c97b0f-a908-41f9-9571-f4ac408cfda4","system_id":"levelo_inurba_marseille","lat":43.29887,"lon":5.38895,"is_reserved":false,"is_disabled":false,"rental_uris":{"android":"levelo://app?vid=c8c97b0f-a908-41f9-9571-f4ac408cfda4","ios":"levelo://app?vid=c8c97b0f-a908-41f9-9571-f4ac408cfda4"},"vehicle_type_id":"4","last_reported":1750184083,"current_range_meters":3600,"station_id":"ce4bh392rcd13ifvqdl0","pricing_plan_id":"cebpf4jnsgd1na2vs0mg"},{"bike_id":"fabf869f-7555-4944-9c98-cb0fdfcccc50","system_id":"levelo_inurba_marseille","lat":43.254927,"lon":5.376474,"is_reserved":false,"is_disabled":false,"rental_uris":{"android":"levelo://app?vid=fabf869f-7555-4944-9c98-cb0fdfcccc50","ios":"levelo://app?vid=fabf869f-7555-4944-9c98-cb0fdfcccc50"},"vehicle_type_id":"4","last_reported":1750184083,"current_range_meters":3600,"station_id":"ce4bhh12rcd13ifvqff0","pricing_plan_id":"cebpf4jnsgd1na2vs0mg"},{"bike_id":"00724460-d7a4-4693-941f-3a774ed96fa3","system_id":"levelo_inurba_marseille","lat":43.25719,"lon":5.4111,"is_reserved":false,"is_disabled":false,"rental_uris":{"android":"levelo://app?vid=00724460-d7a4-4693-941f-3a774ed96fa3","ios":"levelo://app?vid=00724460-d7a4-4693-941f-3a774ed96fa3"},"vehicle_type_id":"4","last_reported":1750184083,"current_range_meters":3600,"station_id":"ce4bhkp2rcd13ifvqgd0","pricing_plan_id":"cebpf4jnsgd1na2vs0mg"},{"bike_id":"4c4e7568-40c2-4793-83a1-8da4a77a2598","system_id":"levelo_inurba_marseille","lat":43.2408,"lon":5.37752,"is_reserved":false,"is_disabled":false,"rental_uris":{"android":"levelo://app?vid=4c4e7568-40c2-4793-83a1-8da4a77a2598","ios":"levelo://app?vid=4c4e7568-40c2-4793-83a1-8da4a77a2598"},"vehicle_type_id":"4","last_reported":1750184083,"current_range_meters":3600,"station_id":"ce4bhnp2rcd13ifvqgvg","pricing_plan_id":"cebpf4jnsgd1na2vs0mg"},{"bike_id":"98f83d7f-ec3a-4781-a81b-e950a0fce482","system_id":"levelo_inurba_marseille","lat":43.29929,"lon":5.3654,"is_reserved":false,"is_disabled":false,"rental_uris":{"android":"levelo://app?vid=98f83d7f-ec3a-4781-a81b-e950a0fce482","ios":"levelo://app?vid=98f83d7f-ec3a-4781-a81b-e950a0fce482"},"vehicle_type_id":"4","last_reported":1750184083,"current_range_meters":4000,"station_id":"ce4bgm92rcd13ifvqbr0","pricing_plan_id":"cebpf4jnsgd1na2vs0mg"},{"bike_id":"ea6a929b-d949-41a3-8a5a-2204805aae4e","system_id":"levelo_inurba_marseille","lat":43.29569,"lon":5.37527,"is_reserved":false,"is_disabled":false,"rental_uris":{"android":"levelo://app?vid=ea6a929b-d949-41a3-8a5a-2204805aae4e","ios":"levelo://app?vid=ea6a929b-d949-41a3-8a5a-2204805aae4e"},"vehicle_type_id":"4","last_reported":1750184083,"current_range_meters":4400,"station_id":"ce4bgh92rcd13ifvqb50","pricing_plan_id":"cebpf4jnsgd1na2vs0mg"},{"bike_id":"5f522537-b93b-4e75-8ca9-e804ceb2fbf9","system_id":"levelo_inurba_marseille","lat":43.29763,"lon":5.37103,"is_reserved":false,"is_disabled":false,"rental_uris":{"android":"levelo://app?vid=5f522537-b93b-4e75-8ca9-e804ceb2fbf9","ios":"levelo://app?vid=5f522537-b93b-4e75-8ca9-e804ceb2fbf9"},"vehicle_type_id":"4","last_reported":1750184083,"current_range_meters":4400,"station_id":"ce4bgop2rcd13ifvqc1g","pricing_plan_id":"cebpf4jnsgd1na2vs0mg"},{"bike_id":"c92049fe-4ceb-4378-ae91-19247f8fdc76","system_id":"levelo_inurba_marseille","lat":43.30071,"lon":5.39094,"is_reserved":false,"is_disabled":false,"rental_uris":{"android":"levelo://app?vid=c92049fe-4ceb-4378-ae91-19247f8fdc76","ios":"levelo://app?vid=c92049fe-4ceb-4378-ae91-19247f8fdc76"},"vehicle_type_id":"4","last_reported":1750184083,"current_range_meters":4400,"station_id":"ce4bh192rcd13ifvqdb0","pricing_plan_id":"cebpf4jnsgd1na2vs0mg"},{"bike_id":"bc3c874d-e6b7-4a3c-88b2-968c85fe93d2","system_id":"levelo_inurba_marseille","lat":43.26029,"lon":5.37549,"is_reserved":false,"is_disabled":false,"rental_uris":{"android":"levelo://app?vid=bc3c874d-e6b7-4a3c-88b2-968c85fe93d2","ios":"levelo://app?vid=bc3c874d-e6b7-4a3c-88b2-968c85fe93d2"},"vehicle_type_id":"4","last_reported":1750184083,"current_range_meters":4400,"station_id":"ce4bhgh2rcd13ifvqfa0","pricing_plan_id":"cebpf4jnsgd1na2vs0mg"},{"bike_id":"92d94771-b535-4bd7-a6cf-9d30b3c47cf2","system_id":"levelo_inurba_marseille","lat":43.26213,"lon":5.37441,"is_reserved":false,"is_disabled":false,"rental_uris":{"android":"levelo://app?vid=92d94771-b535-4bd7-a6cf-9d30b3c47cf2","ios":"levelo://app?vid=92d94771-b535-4bd7-a6cf-9d30b3c47cf2"},"vehicle_type_id":"4","last_reported":1750184083,"current_range_meters":4400,"station_id":"ce4bhgp2rcd13ifvqfc0","pricing_plan_id":"cebpf4jnsgd1na2vs0mg"},{"bike_id":"723e46b4-6f33-4711-b849-207f293070ce","system_id":"levelo_inurba_marseille","lat":43.30302,"lon":5.39212,"is_reserved":false,"is_disabled":false,"rental_uris":{"android":"levelo://app?vid=723e46b4-6f33-4711-b849-207f293070ce","ios":"levelo://app?vid=723e46b4-6f33-4711-b849-207f293070ce"},"vehicle_type_id":"4","last_reported":1750184083,"current_range_meters":5600,"station_id":"ce4bgkh2rcd13ifvqbk0","pricing_plan_id":"cebpf4jnsgd1na2vs0mg"},{"bike_id":"617563cb-f3af-4e48-925d-a55aa8f2ecb7","system_id":"levelo_inurba_marseille","lat":43.28665,"lon":5.36355,"is_reserved":false,"is_disabled":false,"rental_uris":{"android":"levelo://app?vid=617563cb-f3af-4e48-925d-a55aa8f2ecb7","ios":"levelo://app?vid=617563cb-f3af-4e48-925d-a55aa8f2ecb7"},"vehicle_type_id":"4","last_reported":1750184083,"current_range_meters":5600,"station_id":"ce4bhah2rcd13ifvqej0","pricing_plan_id":"cebpf4jnsgd1na2vs0mg"},{"bike_id":"2e595872-bcaa-4b30-a627-3fd6d8fbb03e","system_id":"levelo_inurba_marseille","lat":43.31878,"lon":5.40737,"is_reserved":false,"is_disabled":false,"rental_uris":{"android":"levelo://app?vid=2e595872-bcaa-4b30-a627-3fd6d8fbb03e","ios":"levelo://app?vid=2e595872-bcaa-4b30-a627-3fd6d8fbb03e"},"vehicle_type_id":"4","last_reported":1750184083,"current_range_meters":5600,"station_id":"ce4bhq12rcd13ifvqhig","pricing_plan_id":"cebpf4jnsgd1na2vs0mg"},{"bike_id":"a8560958-7a33-4e37-bad9-c9a1e686fc43","system_id":"levelo_inurba_marseille","lat":43.29232,"lon":5.37496,"is_reserved":false,"is_disabled":false,"rental_uris":{"android":"levelo://app?vid=a8560958-7a33-4e37-bad9-c9a1e686fc43","ios":"levelo://app?vid=a8560958-7a33-4e37-bad9-c9a1e686fc43"},"vehicle_type_id":"4","last_reported":1750184083,"current_range_meters":6400,"station_id":"","pricing_plan_id":"cebpf4jnsgd1na2vs0mg"},{"bike_id":"1bb7611f-8b52-4749-8af9-89ce1edc7b85","system_id":"levelo_inurba_marseille","lat":43.28459,"lon":5.35895,"is_reserved":false,"is_disabled":false,"rental_uris":{"android":"levelo://app?vid=1bb7611f-8b52-4749-8af9-89ce1edc7b85","ios":"levelo://app?vid=1bb7611f-8b52-4749-8af9-89ce1edc7b85"},"vehicle_type_id":"4","last_reported":1750184083,"current_range_meters":6400,"station_id":"ce4bhah2rcd13ifvqei0","pricing_plan_id":"cebpf4jnsgd1na2vs0mg"},{"bike_id":"178647ae-7879-4a58-9498-63b72c670276","system_id":"levelo_inurba_marseille","lat":43.33027,"lon":5.39044,"is_reserved":false,"is_disabled":false,"rental_uris":{"android":"levelo://app?vid=178647ae-7879-4a58-9498-63b72c670276","ios":"levelo://app?vid=178647ae-7879-4a58-9498-63b72c670276"},"vehicle_type_id":"4","last_reported":1750184083,"current_range_meters":6400,"station_id":"ce4bhr92rcd13ifvqhrg","pricing_plan_id":"cebpf4jnsgd1na2vs0mg"},{"bike_id":"ab97a84f-a0e4-4117-821f-72803609c63c","system_id":"levelo_inurba_marseille","lat":43.30566,"lon":5.40088,"is_reserved":false,"is_disabled":false,"rental_uris":{"android":"levelo://app?vid=ab97a84f-a0e4-4117-821f-72803609c63c","ios":"levelo://app?vid=ab97a84f-a0e4-4117-821f-72803609c63c"},"vehicle_type_id":"4","last_reported":1750184083,"current_range_meters":6800,"station_id":"ce4bh112rcd13ifvqda0","pricing_plan_id":"cebpf4jnsgd1na2vs0mg"},{"bike_id":"ede5e914-5a44-4805-8307-964130fa4f04","system_id":"levelo_inurba_marseille","lat":43.2885,"lon":5.35844,"is_reserved":false,"is_disabled":false,"rental_uris":{"android":"levelo://app?vid=ede5e914-5a44-4805-8307-964130fa4f04","ios":"levelo://app?vid=ede5e914-5a44-4805-8307-964130fa4f04"},"vehicle_type_id":"4","last_reported":1750184083,"current_range_meters":6800,"station_id":"ce4bhb12rcd13ifvqem0","pricing_plan_id":"cebpf4jnsgd1na2vs0mg"},{"bike_id":"e39d1a22-47de-4791-aa56-19d5d27490d2","system_id":"levelo_inurba_marseille","lat":43.26564,"lon":5.37282,"is_reserved":false,"is_disabled":false,"rental_uris":{"android":"levelo://app?vid=e39d1a22-47de-4791-aa56-19d5d27490d2","ios":"levelo://app?vid=e39d1a22-47de-4791-aa56-19d5d27490d2"},"vehicle_type_id":"4","last_reported":1750184083,"current_range_meters":6800,"station_id":"ce4bhg12rcd13ifvqf70","pricing_plan_id":"cebpf4jnsgd1na2vs0mg"},{"bike_id":"34044881-8609-4b78-b07f-810d8a33ab9f","system_id":"levelo_inurba_marseille","lat":43.26555,"lon":5.37281,"is_reserved":false,"is_disabled":false,"rental_uris":{"android":"levelo://app?vid=34044881-8609-4b78-b07f-810d8a33ab9f","ios":"levelo://app?vid=34044881-8609-4b78-b07f-810d8a33ab9f"},"vehicle_type_id":"4","last_reported":1750184083,"current_range_meters":6800,"station_id":"ce4bhg12rcd13ifvqf70","pricing_plan_id":"cebpf4jnsgd1na2vs0mg"},{"bike_id":"9b375ec0-1bee-4e54-b9d0-2138ef8439b5","system_id":"levelo_inurba_marseille","lat":43.24811,"lon":5.37454,"is_reserved":false,"is_disabled":false,"rental_uris":{"android":"levelo://app?vid=9b375ec0-1bee-4e54-b9d0-2138ef8439b5","ios":"levelo://app?vid=9b375ec0-1bee-4e54-b9d0-2138ef8439b5"},"vehicle_type_id":"4","last_reported":1750184083,"current_range_meters":7200,"station_id":"ce4bhgh2rcd13ifvqfb0","pricing_plan_id":"cebpf4jnsgd1na2vs0mg"},{"bike_id":"76ebc2a0-b68c-40c9-b1c9-676b9efccb38","system_id":"levelo_inurba_marseille","lat":43.29689,"lon":5.37708,"is_reserved":false,"is_disabled":false,"rental_uris":{"android":"levelo://app?vid=76ebc2a0-b68c-40c9-b1c9-676b9efccb38","ios":"levelo://app?vid=76ebc2a0-b68c-40c9-b1c9-676b9efccb38"},"vehicle_type_id":"4","last_reported":1750184083,"current_range_meters":8000,"station_id":"ce4bgkh2rcd13ifvqbl0","pricing_plan_id":"cebpf4jnsgd1na2vs0mg"},{"bike_id":"b347581c-b25d-4bee-b578-eb7c6b04c3f6","system_id":"levelo_inurba_marseille","lat":43.30921,"lon":5.40144,"is_reserved":false,"is_disabled":false,"rental_uris":{"android":"levelo://app?vid=b347581c-b25d-4bee-b578-eb7c6b04c3f6","ios":"levelo://app?vid=b347581c-b25d-4bee-b578-eb7c6b04c3f6"},"vehicle_type_id":"4","last_reported":1750184083,"current_range_meters":8000,"station_id":"ce4bgvp2rcd13ifvqct0","pricing_plan_id":"cebpf4jnsgd1na2vs0mg"},{"bike_id":"d850a66d-55a8-4322-abbc-ca11b69b7c04","system_id":"levelo_inurba_marseille","lat":43.26561,"lon":5.3728,"is_reserved":false,"is_disabled":false,"rental_uris":{"android":"levelo://app?vid=d850a66d-55a8-4322-abbc-ca11b69b7c04","ios":"levelo://app?vid=d850a66d-55a8-4322-abbc-ca11b69b7c04"},"vehicle_type_id":"4","last_reported":1750184083,"current_range_meters":8000,"station_id":"ce4bhg12rcd13ifvqf70","pricing_plan_id":"cebpf4jnsgd1na2vs0mg"},{"bike_id":"cd9f0a8d-2ea1-4af6-88f0-ed786eedd0d5","system_id":"levelo_inurba_marseille","lat":43.260559,"lon":5.394009,"is_reserved":false,"is_disabled":false,"rental_uris":{"android":"levelo://app?vid=cd9f0a8d-2ea1-4af6-88f0-ed786eedd0d5","ios":"levelo://app?vid=cd9f0a8d-2ea1-4af6-88f0-ed786eedd0d5"},"vehicle_type_id":"4","last_reported":1750184083,"current_range_meters":8000,"station_id":"ce4bhh92rcd13ifvqfj0","pricing_plan_id":"cebpf4jnsgd1na2vs0mg"},{"bike_id":"db9e1b37-c1ec-4ec6-b064-d99851c78ce3","system_id":"levelo_inurba_marseille","lat":43.28154,"lon":5.42636,"is_reserved":false,"is_disabled":false,"rental_uris":{"android":"levelo://app?vid=db9e1b37-c1ec-4ec6-b064-d99851c78ce3","ios":"levelo://app?vid=db9e1b37-c1ec-4ec6-b064-d99851c78ce3"},"vehicle_type_id":"4","last_reported":1750184083,"current_range_meters":8000,"station_id":"ce4bhnh2rcd13ifvqgug","pricing_plan_id":"cebpf4jnsgd1na2vs0mg"},{"bike_id":"d6a4176b-b607-42ea-9931-a207a567b534","system_id":"levelo_inurba_marseille","lat":43.28417,"lon":5.34996,"is_reserved":false,"is_disabled":false,"rental_uris":{"android":"levelo://app?vid=d6a4176b-b607-42ea-9931-a207a567b534","ios":"levelo://app?vid=d6a4176b-b607-42ea-9931-a207a567b534"},"vehicle_type_id":"4","last_reported":1750184083,"current_range_meters":8400,"station_id":"ce4bhbh2rcd13ifvqepg","pricing_plan_id":"cebpf4jnsgd1na2vs0mg"},{"bike_id":"9ed64ba7-3af1-4181-a4e6-0f30e9c489c8","system_id":"levelo_inurba_marseille","lat":43.28414,"lon":5.34991,"is_reserved":false,"is_disabled":false,"rental_uris":{"android":"levelo://app?vid=9ed64ba7-3af1-4181-a4e6-0f30e9c489c8","ios":"levelo://app?vid=9ed64ba7-3af1-4181-a4e6-0f30e9c489c8"},"vehicle_type_id":"4","last_reported":1750184083,"current_range_meters":8400,"station_id":"ce4bhbh2rcd13ifvqepg","pricing_plan_id":"cebpf4jnsgd1na2vs0mg"},{"bike_id":"95484ea2-8140-4a9b-95ac-91d6e057c8ab","system_id":"levelo_inurba_marseille","lat":43.28613,"lon":5.37071,"is_reserved":false,"is_disabled":false,"rental_uris":{"android":"levelo://app?vid=95484ea2-8140-4a9b-95ac-91d6e057c8ab","ios":"levelo://app?vid=95484ea2-8140-4a9b-95ac-91d6e057c8ab"},"vehicle_type_id":"4","last_reported":1750184083,"current_range_meters":8400,"station_id":"ce4bht12rcd13ifvqi60","pricing_plan_id":"cebpf4jnsgd1na2vs0mg"},{"bike_id":"da3e1724-606c-4f9a-9130-d56dd48e22e0","system_id":"levelo_inurba_marseille","lat":43.32961,"lon":5.4059,"is_reserved":false,"is_disabled":false,"rental_uris":{"android":"levelo://app?vid=da3e1724-606c-4f9a-9130-d56dd48e22e0","ios":"levelo://app?vid=da3e1724-606c-4f9a-9130-d56dd48e22e0"},"vehicle_type_id":"4","last_reported":1750184083,"current_range_meters":8800,"station_id":"","pricing_plan_id":"cebpf4jnsgd1na2vs0mg"},{"bike_id":"6ba80795-26da-43fa-ab60-6831760385ff","system_id":"levelo_inurba_marseille","lat":43.32597,"lon":5.41985,"is_reserved":false,"is_disabled":false,"rental_uris":{"android":"levelo://app?vid=6ba80795-26da-43fa-ab60-6831760385ff","ios":"levelo://app?vid=6ba80795-26da-43fa-ab60-6831760385ff"},"vehicle_type_id":"4","last_reported":1750184083,"current_range_meters":8800,"station_id":"","pricing_plan_id":"cebpf4jnsgd1na2vs0mg"},{"bike_id":"c0190dad-4383-4deb-b90d-d26426c1369d","system_id":"levelo_inurba_marseille","lat":43.30537,"lon":5.38428,"is_reserved":false,"is_disabled":false,"rental_uris":{"android":"levelo://app?vid=c0190dad-4383-4deb-b90d-d26426c1369d","ios":"levelo://app?vid=c0190dad-4383-4deb-b90d-d26426c1369d"},"vehicle_type_id":"4","last_reported":1750184083,"current_range_meters":8800,"station_id":"ce4bgg92rcd13ifvqb30","pricing_plan_id":"cebpf4jnsgd1na2vs0mg"},{"bike_id":"02f686ef-9920-4fb0-bf70-74c034a107f6","system_id":"levelo_inurba_marseille","lat":43.28639,"lon":5.36364,"is_reserved":false,"is_disabled":false,"rental_uris":{"android":"levelo://app?vid=02f686ef-9920-4fb0-bf70-74c034a107f6","ios":"levelo://app?vid=02f686ef-9920-4fb0-bf70-74c034a107f6"},"vehicle_type_id":"4","last_reported":1750184083,"current_range_meters":8800,"station_id":"ce4bhah2rcd13ifvqej0","pricing_plan_id":"cebpf4jnsgd1na2vs0mg"},{"bike_id":"07ff5b09-365b-4729-b204-35e97ae79864","system_id":"levelo_inurba_marseille","lat":43.24806,"lon":5.37461,"is_reserved":false,"is_disabled":false,"rental_uris":{"android":"levelo://app?vid=07ff5b09-365b-4729-b204-35e97ae79864","ios":"levelo://app?vid=07ff5b09-365b-4729-b204-35e97ae79864"},"vehicle_type_id":"4","last_reported":1750184083,"current_range_meters":8800,"station_id":"ce4bhgh2rcd13ifvqfb0","pricing_plan_id":"cebpf4jnsgd1na2vs0mg"},{"bike_id":"f843bc59-6748-4ecb-9b44-31b53dc48bad","system_id":"levelo_inurba_marseille","lat":43.2695,"lon":5.3862,"is_reserved":false,"is_disabled":false,"rental_uris":{"android":"levelo://app?vid=f843bc59-6748-4ecb-9b44-31b53dc48bad","ios":"levelo://app?vid=f843bc59-6748-4ecb-9b44-31b53dc48bad"},"vehicle_type_id":"4","last_reported":1750184083,"current_range_meters":8800,"station_id":"ce4bhh92rcd13ifvqfh0","pricing_plan_id":"cebpf4jnsgd1na2vs0mg"},{"bike_id":"f928d082-2755-47f4-8ce8-5fa20c46ecf1","system_id":"levelo_inurba_marseille","lat":43.27828,"lon":5.39209,"is_reserved":false,"is_disabled":false,"rental_uris":{"android":"levelo://app?vid=f928d082-2755-47f4-8ce8-5fa20c46ecf1","ios":"levelo://app?vid=f928d082-2755-47f4-8ce8-5fa20c46ecf1"},"vehicle_type_id":"4","last_reported":1750184083,"current_range_meters":8800,"station_id":"ce4bhjp2rcd13ifvqga0","pricing_plan_id":"cebpf4jnsgd1na2vs0mg"},{"bike_id":"ff4aef37-deb9-4e75-be52-fff1bd4017a6","system_id":"levelo_inurba_marseille","lat":43.30309,"lon":5.39213,"is_reserved":false,"is_disabled":false,"rental_uris":{"android":"levelo://app?vid=ff4aef37-deb9-4e75-be52-fff1bd4017a6","ios":"levelo://app?vid=ff4aef37-deb9-4e75-be52-fff1bd4017a6"},"vehicle_type_id":"4","last_reported":1750184083,"current_range_meters":9200,"station_id":"ce4bgkh2rcd13ifvqbk0","pricing_plan_id":"cebpf4jnsgd1na2vs0mg"},{"bike_id":"ea1f83b6-002e-4dd9-be07-16e01d5ba75d","system_id":"levelo_inurba_marseille","lat":43.293764,"lon":5.401406,"is_reserved":false,"is_disabled":false,"rental_uris":{"android":"levelo://app?vid=ea1f83b6-002e-4dd9-be07-16e01d5ba75d","ios":"levelo://app?vid=ea1f83b6-002e-4dd9-be07-16e01d5ba75d"},"vehicle_type_id":"4","last_reported":1750184083,"current_range_meters":9200,"station_id":"ce4bh312rcd13ifvqdj0","pricing_plan_id":"cebpf4jnsgd1na2vs0mg"},{"bike_id":"ae8524c6-7b10-43ef-8ed4-b8035f1213c1","system_id":"levelo_inurba_marseille","lat":43.33403,"lon":5.40047,"is_reserved":false,"is_disabled":false,"rental_uris":{"android":"levelo://app?vid=ae8524c6-7b10-43ef-8ed4-b8035f1213c1","ios":"levelo://app?vid=ae8524c6-7b10-43ef-8ed4-b8035f1213c1"},"vehicle_type_id":"4","last_reported":1750184083,"current_range_meters":9600,"station_id":"","pricing_plan_id":"cebpf4jnsgd1na2vs0mg"},{"bike_id":"ee491544-9803-4ec1-b982-13856f893206","system_id":"levelo_inurba_marseille","lat":43.30328,"lon":5.40441,"is_reserved":false,"is_disabled":false,"rental_uris":{"android":"levelo://app?vid=ee491544-9803-4ec1-b982-13856f893206","ios":"levelo://app?vid=ee491544-9803-4ec1-b982-13856f893206"},"vehicle_type_id":"4","last_reported":1750184083,"current_range_meters":9600,"station_id":"ce4bh012rcd13ifvqd10","pricing_plan_id":"cebpf4jnsgd1na2vs0mg"},{"bike_id":"3b136301-d892-4bf1-aa15-695ec30464ca","system_id":"levelo_inurba_marseille","lat":43.32083,"lon":5.36775,"is_reserved":false,"is_disabled":false,"rental_uris":{"android":"levelo://app?vid=3b136301-d892-4bf1-aa15-695ec30464ca","ios":"levelo://app?vid=3b136301-d892-4bf1-aa15-695ec30464ca"},"vehicle_type_id":"4","last_reported":1750184083,"current_range_meters":9600,"station_id":"ce4bhrh2rcd13ifvqhug","pricing_plan_id":"cebpf4jnsgd1na2vs0mg"},{"bike_id":"95e0d29a-fdad-45eb-a9e3-07866f4eac6d","system_id":"levelo_inurba_marseille","lat":43.29652,"lon":5.36245,"is_reserved":false,"is_disabled":false,"rental_uris":{"android":"levelo://app?vid=95e0d29a-fdad-45eb-a9e3-07866f4eac6d","ios":"levelo://app?vid=95e0d29a-fdad-45eb-a9e3-07866f4eac6d"},"vehicle_type_id":"4","last_reported":1750184083,"current_range_meters":10000,"station_id":"","pricing_plan_id":"cebpf4jnsgd1na2vs0mg"},{"bike_id":"0dfba49c-6841-4f89-bfd3-1f8b4ee79b78","system_id":"levelo_inurba_marseille","lat":43.28418,"lon":5.34985,"is_reserved":false,"is_disabled":false,"rental_uris":{"android":"levelo://app?vid=0dfba49c-6841-4f89-bfd3-1f8b4ee79b78","ios":"levelo://app?vid=0dfba49c-6841-4f89-bfd3-1f8b4ee79b78"},"vehicle_type_id":"4","last_reported":1750184083,"current_range_meters":10000,"station_id":"ce4bhbh2rcd13ifvqepg","pricing_plan_id":"cebpf4jnsgd1na2vs0mg"},{"bike_id":"b3527065-1299-4f86-b218-b15af285442a","system_id":"levelo_inurba_marseille","lat":43.27419,"lon":5.39422,"is_reserved":false,"is_disabled":false,"rental_uris":{"android":"levelo://app?vid=b3527065-1299-4f86-b218-b15af285442a","ios":"levelo://app?vid=b3527065-1299-4f86-b218-b15af285442a"},"vehicle_type_id":"4","last_reported":1750184083,"current_range_meters":10000,"station_id":"ce4bhdp2rcd13ifvqf20","pricing_plan_id":"cebpf4jnsgd1na2vs0mg"},{"bike_id":"caad0222-a046-415c-97eb-638e226f2464","system_id":"levelo_inurba_marseille","lat":43.27971,"lon":5.40038,"is_reserved":false,"is_disabled":false,"rental_uris":{"android":"levelo://app?vid=caad0222-a046-415c-97eb-638e226f2464","ios":"levelo://app?vid=caad0222-a046-415c-97eb-638e226f2464"},"vehicle_type_id":"4","last_reported":1750184083,"current_range_meters":10000,"station_id":"ce4bho92rcd13ifvqh4g","pricing_plan_id":"cebpf4jnsgd1na2vs0mg"},{"bike_id":"99cad508-6ecc-4a68-9c2f-388d966e9df1","system_id":"levelo_inurba_marseille","lat":43.30729,"lon":5.42441,"is_reserved":false,"is_disabled":false,"rental_uris":{"android":"levelo://app?vid=99cad508-6ecc-4a68-9c2f-388d966e9df1","ios":"levelo://app?vid=99cad508-6ecc-4a68-9c2f-388d966e9df1"},"vehicle_type_id":"4","last_reported":1750184083,"current_range_meters":10000,"station_id":"st_cvj6ca6bvosntc0bfgr0","pricing_plan_id":"cebpf4jnsgd1na2vs0mg"},{"bike_id":"76a83fca-07b3-4480-b79f-2a0c07dba84f","system_id":"levelo_inurba_marseille","lat":43.28413,"lon":5.3499,"is_reserved":false,"is_disabled":false,"rental_uris":{"android":"levelo://app?vid=76a83fca-07b3-4480-b79f-2a0c07dba84f","ios":"levelo://app?vid=76a83fca-07b3-4480-b79f-2a0c07dba84f"},"vehicle_type_id":"4","last_reported":1750184083,"current_range_meters":10800,"station_id":"ce4bhbh2rcd13ifvqepg","pricing_plan_id":"cebpf4jnsgd1na2vs0mg"},{"bike_id":"dbbc7403-7e64-4eee-8b48-29b3b9ec755d","system_id":"levelo_inurba_marseille","lat":43.28402,"lon":5.34998,"is_reserved":false,"is_disabled":false,"rental_uris":{"android":"levelo://app?vid=dbbc7403-7e64-4eee-8b48-29b3b9ec755d","ios":"levelo://app?vid=dbbc7403-7e64-4eee-8b48-29b3b9ec755d"},"vehicle_type_id":"4","last_reported":1750184083,"current_range_meters":10800,"station_id":"ce4bhbh2rcd13ifvqepg","pricing_plan_id":"cebpf4jnsgd1na2vs0mg"},{"bike_id":"1e373418-986e-4d3c-9ff7-c37dd7c7a214","system_id":"levelo_inurba_marseille","lat":43.29912,"lon":5.43645,"is_reserved":false,"is_disabled":false,"rental_uris":{"android":"levelo://app?vid=1e373418-986e-4d3c-9ff7-c37dd7c7a214","ios":"levelo://app?vid=1e373418-986e-4d3c-9ff7-c37dd7c7a214"},"vehicle_type_id":"4","last_reported":1750184083,"current_range_meters":10800,"station_id":"ce4bhpp2rcd13ifvqhfg","pricing_plan_id":"cebpf4jnsgd1na2vs0mg"},{"bike_id":"ff9bbb43-4d81-43ec-a29c-84052d3f02aa","system_id":"levelo_inurba_marseille","lat":43.293047,"lon":5.4023,"is_reserved":false,"is_disabled":false,"rental_uris":{"android":"levelo://app?vid=ff9bbb43-4d81-43ec-a29c-84052d3f02aa","ios":"levelo://app?vid=ff9bbb43-4d81-43ec-a29c-84052d3f02aa"},"vehicle_type_id":"4","last_reported":1750184083,"current_range_meters":11200,"station_id":"ce4bh192rcd13ifvqdc0","pricing_plan_id":"cebpf4jnsgd1na2vs0mg"},{"bike_id":"0a7c86d1-06c7-4d5a-bb76-1ba5f082fc5e","system_id":"levelo_inurba_marseille","lat":43.2551,"lon":5.37649,"is_reserved":false,"is_disabled":false,"rental_uris":{"android":"levelo://app?vid=0a7c86d1-06c7-4d5a-bb76-1ba5f082fc5e","ios":"levelo://app?vid=0a7c86d1-06c7-4d5a-bb76-1ba5f082fc5e"},"vehicle_type_id":"4","last_reported":1750184083,"current_range_meters":11200,"station_id":"ce4bhh12rcd13ifvqff0","pricing_plan_id":"cebpf4jnsgd1na2vs0mg"},{"bike_id":"0e27dafc-21df-4fb1-bd36-2450a7866702","system_id":"levelo_inurba_marseille","lat":43.2717,"lon":5.39985,"is_reserved":false,"is_disabled":false,"rental_uris":{"android":"levelo://app?vid=0e27dafc-21df-4fb1-bd36-2450a7866702","ios":"levelo://app?vid=0e27dafc-21df-4fb1-bd36-2450a7866702"},"vehicle_type_id":"4","last_reported":1750184083,"current_range_meters":11600,"station_id":"","pricing_plan_id":"cebpf4jnsgd1na2vs0mg"},{"bike_id":"f7d4c90d-2842-4806-af97-db61767a4e78","system_id":"levelo_inurba_marseille","lat":43.29438,"lon":5.39757,"is_reserved":false,"is_disabled":false,"rental_uris":{"android":"levelo://app?vid=f7d4c90d-2842-4806-af97-db61767a4e78","ios":"levelo://app?vid=f7d4c90d-2842-4806-af97-db61767a4e78"},"vehicle_type_id":"4","last_reported":1750184083,"current_range_meters":11600,"station_id":"ce4bh3h2rcd13ifvqdo0","pricing_plan_id":"cebpf4jnsgd1na2vs0mg"},{"bike_id":"25d4b077-a2b5-4e4f-8887-4ef8712608f5","system_id":"levelo_inurba_marseille","lat":43.28932,"lon":5.38401,"is_reserved":false,"is_disabled":false,"rental_uris":{"android":"levelo://app?vid=25d4b077-a2b5-4e4f-8887-4ef8712608f5","ios":"levelo://app?vid=25d4b077-a2b5-4e4f-8887-4ef8712608f5"},"vehicle_type_id":"4","last_reported":1750184083,"current_range_meters":11600,"station_id":"ce4bh612rcd13ifvqe6g","pricing_plan_id":"cebpf4jnsgd1na2vs0mg"},{"bike_id":"29c4c78e-0d1a-48ad-ae84-aa5a8f0e8b9c","system_id":"levelo_inurba_marseille","lat":43.273749,"lon":5.362621,"is_reserved":false,"is_disabled":false,"rental_uris":{"android":"levelo://app?vid=29c4c78e-0d1a-48ad-ae84-aa5a8f0e8b9c","ios":"levelo://app?vid=29c4c78e-0d1a-48ad-ae84-aa5a8f0e8b9c"},"vehicle_type_id":"4","last_reported":1750184083,"current_range_meters":11600,"station_id":"ce4bhbh2rcd13ifvqeo0","pricing_plan_id":"cebpf4jnsgd1na2vs0mg"},{"bike_id":"648813c6-5e1a-46eb-9644-0a5a9d483fa3","system_id":"levelo_inurba_marseille","lat":43.29088,"lon":5.38134,"is_reserved":false,"is_disabled":false,"rental_uris":{"android":"levelo://app?vid=648813c6-5e1a-46eb-9644-0a5a9d483fa3","ios":"levelo://app?vid=648813c6-5e1a-46eb-9644-0a5a9d483fa3"},"vehicle_type_id":"4","last_reported":1750184083,"current_range_meters":12000,"station_id":"ce4bh512rcd13ifvqe2g","pricing_plan_id":"cebpf4jnsgd1na2vs0mg"},{"bike_id":"8ca0868d-bd81-4dab-baba-25ffb0391ee9","system_id":"levelo_inurba_marseille","lat":43.284083,"lon":5.349817,"is_reserved":false,"is_disabled":false,"rental_uris":{"android":"levelo://app?vid=8ca0868d-bd81-4dab-baba-25ffb0391ee9","ios":"levelo://app?vid=8ca0868d-bd81-4dab-baba-25ffb0391ee9"},"vehicle_type_id":"4","last_reported":1750184083,"current_range_meters":12000,"station_id":"ce4bhbh2rcd13ifvqepg","pricing_plan_id":"cebpf4jnsgd1na2vs0mg"},{"bike_id":"3e510fa8-f04c-48da-bb9a-ac8762f257c7","system_id":"levelo_inurba_marseille","lat":43.28424,"lon":5.35008,"is_reserved":false,"is_disabled":false,"rental_uris":{"android":"levelo://app?vid=3e510fa8-f04c-48da-bb9a-ac8762f257c7","ios":"levelo://app?vid=3e510fa8-f04c-48da-bb9a-ac8762f257c7"},"vehicle_type_id":"4","last_reported":1750184083,"current_range_meters":12000,"station_id":"ce4bhbh2rcd13ifvqepg","pricing_plan_id":"cebpf4jnsgd1na2vs0mg"},{"bike_id":"b1bf682c-64b3-4854-ba17-966116a28d5c","system_id":"levelo_inurba_marseille","lat":43.28608,"lon":5.35104,"is_reserved":false,"is_disabled":false,"rental_uris":{"android":"levelo://app?vid=b1bf682c-64b3-4854-ba17-966116a28d5c","ios":"levelo://app?vid=b1bf682c-64b3-4854-ba17-966116a28d5c"},"vehicle_type_id":"4","last_reported":1750184083,"current_range_meters":12000,"station_id":"ce4bhch2rcd13ifvqeug","pricing_plan_id":"cebpf4jnsgd1na2vs0mg"},{"bike_id":"a3ba6fa8-a92d-4f4e-b59d-640018582dfd","system_id":"levelo_inurba_marseille","lat":43.27558,"lon":5.38435,"is_reserved":false,"is_disabled":false,"rental_uris":{"android":"levelo://app?vid=a3ba6fa8-a92d-4f4e-b59d-640018582dfd","ios":"levelo://app?vid=a3ba6fa8-a92d-4f4e-b59d-640018582dfd"},"vehicle_type_id":"4","last_reported":1750184083,"current_range_meters":12000,"station_id":"ce4bhh92rcd13ifvqfi0","pricing_plan_id":"cebpf4jnsgd1na2vs0mg"},{"bike_id":"1248c1bc-b304-4013-a7ed-8570888be41d","system_id":"levelo_inurba_marseille","lat":43.26062,"lon":5.39397,"is_reserved":false,"is_disabled":false,"rental_uris":{"android":"levelo://app?vid=1248c1bc-b304-4013-a7ed-8570888be41d","ios":"levelo://app?vid=1248c1bc-b304-4013-a7ed-8570888be41d"},"vehicle_type_id":"4","last_reported":1750184083,"current_range_meters":12000,"station_id":"ce4bhh92rcd13ifvqfj0","pricing_plan_id":"cebpf4jnsgd1na2vs0mg"},{"bike_id":"91f78cd6-38a2-44e7-86aa-18811c270d91","system_id":"levelo_inurba_marseille","lat":43.246583,"lon":5.381718,"is_reserved":false,"is_disabled":false,"rental_uris":{"android":"levelo://app?vid=91f78cd6-38a2-44e7-86aa-18811c270d91","ios":"levelo://app?vid=91f78cd6-38a2-44e7-86aa-18811c270d91"},"vehicle_type_id":"4","last_reported":1750184083,"current_range_meters":12000,"station_id":"ce4bhih2rcd13ifvqfr0","pricing_plan_id":"cebpf4jnsgd1na2vs0mg"},{"bike_id":"82d530db-50a5-4772-b81b-d1e8c9f642d6","system_id":"levelo_inurba_marseille","lat":43.23178,"lon":5.39988,"is_reserved":false,"is_disabled":false,"rental_uris":{"android":"levelo://app?vid=82d530db-50a5-4772-b81b-d1e8c9f642d6","ios":"levelo://app?vid=82d530db-50a5-4772-b81b-d1e8c9f642d6"},"vehicle_type_id":"4","last_reported":1750184083,"current_range_meters":12000,"station_id":"ce4bhn12rcd13ifvqgqg","pricing_plan_id":"cebpf4jnsgd1na2vs0mg"},{"bike_id":"eca25bd6-1b44-4388-a7b0-074a85a4f502","system_id":"levelo_inurba_marseille","lat":43.31095,"lon":5.39741,"is_reserved":false,"is_disabled":false,"rental_uris":{"android":"levelo://app?vid=eca25bd6-1b44-4388-a7b0-074a85a4f502","ios":"levelo://app?vid=eca25bd6-1b44-4388-a7b0-074a85a4f502"},"vehicle_type_id":"4","last_reported":1750184083,"current_range_meters":12400,"station_id":"","pricing_plan_id":"cebpf4jnsgd1na2vs0mg"},{"bike_id":"cef0c399-5fa5-4965-a38e-894e987e8614","system_id":"levelo_inurba_marseille","lat":43.28442,"lon":5.34962,"is_reserved":false,"is_disabled":false,"rental_uris":{"android":"levelo://app?vid=cef0c399-5fa5-4965-a38e-894e987e8614","ios":"levelo://app?vid=cef0c399-5fa5-4965-a38e-894e987e8614"},"vehicle_type_id":"4","last_reported":1750184083,"current_range_meters":12400,"station_id":"ce4bhbh2rcd13ifvqepg","pricing_plan_id":"cebpf4jnsgd1na2vs0mg"},{"bike_id":"09de8cea-135d-41a5-9f67-7ed4f01cade7","system_id":"levelo_inurba_marseille","lat":43.28271,"lon":5.35061,"is_reserved":false,"is_disabled":false,"rental_uris":{"android":"levelo://app?vid=09de8cea-135d-41a5-9f67-7ed4f01cade7","ios":"levelo://app?vid=09de8cea-135d-41a5-9f67-7ed4f01cade7"},"vehicle_type_id":"4","last_reported":1750184083,"current_range_meters":12400,"station_id":"ce4bhbp2rcd13ifvqerg","pricing_plan_id":"cebpf4jnsgd1na2vs0mg"},{"bike_id":"0f2b961f-43b1-4060-abc6-68842964f8d3","system_id":"levelo_inurba_marseille","lat":43.2407,"lon":5.3776,"is_reserved":false,"is_disabled":false,"rental_uris":{"android":"levelo://app?vid=0f2b961f-43b1-4060-abc6-68842964f8d3","ios":"levelo://app?vid=0f2b961f-43b1-4060-abc6-68842964f8d3"},"vehicle_type_id":"4","last_reported":1750184083,"current_range_meters":12400,"station_id":"ce4bhnp2rcd13ifvqgvg","pricing_plan_id":"cebpf4jnsgd1na2vs0mg"},{"bike_id":"94556628-72cd-4618-b5b6-25b5cfa4141b","system_id":"levelo_inurba_marseille","lat":43.21189,"lon":5.35079,"is_reserved":false,"is_disabled":false,"rental_uris":{"android":"levelo://app?vid=94556628-72cd-4618-b5b6-25b5cfa4141b","ios":"levelo://app?vid=94556628-72cd-4618-b5b6-25b5cfa4141b"},"vehicle_type_id":"4","last_reported":1750184083,"current_range_meters":12400,"station_id":"st_cvj6sg6p6f1abm77japg","pricing_plan_id":"cebpf4jnsgd1na2vs0mg"},{"bike_id":"369d9317-c728-442e-9c92-8c76ae1919e0","system_id":"levelo_inurba_marseille","lat":43.31217,"lon":5.3689,"is_reserved":false,"is_disabled":false,"rental_uris":{"android":"levelo://app?vid=369d9317-c728-442e-9c92-8c76ae1919e0","ios":"levelo://app?vid=369d9317-c728-442e-9c92-8c76ae1919e0"},"vehicle_type_id":"4","last_reported":1750184083,"current_range_meters":12800,"station_id":"ce4bgl92rcd13ifvqbq0","pricing_plan_id":"cebpf4jnsgd1na2vs0mg"},{"bike_id":"7c1eba4f-6608-454b-805b-2094bf3cad17","system_id":"levelo_inurba_marseille","lat":43.29029,"lon":5.38643,"is_reserved":false,"is_disabled":false,"rental_uris":{"android":"levelo://app?vid=7c1eba4f-6608-454b-805b-2094bf3cad17","ios":"levelo://app?vid=7c1eba4f-6608-454b-805b-2094bf3cad17"},"vehicle_type_id":"4","last_reported":1750184083,"current_range_meters":12800,"station_id":"ce4bh4p2rcd13ifvqe0g","pricing_plan_id":"cebpf4jnsgd1na2vs0mg"},{"bike_id":"97eb529e-6787-430a-9d9f-202c92dd3c03","system_id":"levelo_inurba_marseille","lat":43.28659,"lon":5.36356,"is_reserved":false,"is_disabled":false,"rental_uris":{"android":"levelo://app?vid=97eb529e-6787-430a-9d9f-202c92dd3c03","ios":"levelo://app?vid=97eb529e-6787-430a-9d9f-202c92dd3c03"},"vehicle_type_id":"4","last_reported":1750184083,"current_range_meters":12800,"station_id":"ce4bhah2rcd13ifvqej0","pricing_plan_id":"cebpf4jnsgd1na2vs0mg"},{"bike_id":"83cfee7d-980d-496a-98c8-745c7e44c68d","system_id":"levelo_inurba_marseille","lat":43.3288,"lon":5.39083,"is_reserved":false,"is_disabled":false,"rental_uris":{"android":"levelo://app?vid=83cfee7d-980d-496a-98c8-745c7e44c68d","ios":"levelo://app?vid=83cfee7d-980d-496a-98c8-745c7e44c68d"},"vehicle_type_id":"4","last_reported":1750184083,"current_range_meters":13600,"station_id":"","pricing_plan_id":"cebpf4jnsgd1na2vs0mg"},{"bike_id":"ebe811a7-194e-4b95-9a92-7beae7360b58","system_id":"levelo_inurba_marseille","lat":43.31227,"lon":5.36847,"is_reserved":false,"is_disabled":false,"rental_uris":{"android":"levelo://app?vid=ebe811a7-194e-4b95-9a92-7beae7360b58","ios":"levelo://app?vid=ebe811a7-194e-4b95-9a92-7beae7360b58"},"vehicle_type_id":"4","last_reported":1750184083,"current_range_meters":13600,"station_id":"ce4bgl92rcd13ifvqbq0","pricing_plan_id":"cebpf4jnsgd1na2vs0mg"},{"bike_id":"aaefd57e-ace9-48fb-aef8-6ebf64053e03","system_id":"levelo_inurba_marseille","lat":43.27377,"lon":5.36254,"is_reserved":false,"is_disabled":false,"rental_uris":{"android":"levelo://app?vid=aaefd57e-ace9-48fb-aef8-6ebf64053e03","ios":"levelo://app?vid=aaefd57e-ace9-48fb-aef8-6ebf64053e03"},"vehicle_type_id":"4","last_reported":1750184083,"current_range_meters":13600,"station_id":"ce4bhbh2rcd13ifvqeo0","pricing_plan_id":"cebpf4jnsgd1na2vs0mg"},{"bike_id":"93dcba2d-d386-44f6-ad85-b9e6cf410e58","system_id":"levelo_inurba_marseille","lat":43.28416,"lon":5.34986,"is_reserved":false,"is_disabled":false,"rental_uris":{"android":"levelo://app?vid=93dcba2d-d386-44f6-ad85-b9e6cf410e58","ios":"levelo://app?vid=93dcba2d-d386-44f6-ad85-b9e6cf410e58"},"vehicle_type_id":"4","last_reported":1750184083,"current_range_meters":13600,"station_id":"ce4bhbh2rcd13ifvqepg","pricing_plan_id":"cebpf4jnsgd1na2vs0mg"},{"bike_id":"47f3815b-1c52-4953-b707-67c99ebd7517","system_id":"levelo_inurba_marseille","lat":43.28269,"lon":5.35066,"is_reserved":false,"is_disabled":false,"rental_uris":{"android":"levelo://app?vid=47f3815b-1c52-4953-b707-67c99ebd7517","ios":"levelo://app?vid=47f3815b-1c52-4953-b707-67c99ebd7517"},"vehicle_type_id":"4","last_reported":1750184083,"current_range_meters":13600,"station_id":"ce4bhbp2rcd13ifvqerg","pricing_plan_id":"cebpf4jnsgd1na2vs0mg"},{"bike_id":"9a44419a-cbca-4ed7-b17f-43e7fa92db0d","system_id":"levelo_inurba_marseille","lat":43.26556,"lon":5.37281,"is_reserved":false,"is_disabled":false,"rental_uris":{"android":"levelo://app?vid=9a44419a-cbca-4ed7-b17f-43e7fa92db0d","ios":"levelo://app?vid=9a44419a-cbca-4ed7-b17f-43e7fa92db0d"},"vehicle_type_id":"4","last_reported":1750184083,"current_range_meters":13600,"station_id":"ce4bhg12rcd13ifvqf70","pricing_plan_id":"cebpf4jnsgd1na2vs0mg"},{"bike_id":"dac710ab-2f65-4b9e-ae52-c38634075f1b","system_id":"levelo_inurba_marseille","lat":43.28173,"lon":5.42667,"is_reserved":false,"is_disabled":false,"rental_uris":{"android":"levelo://app?vid=dac710ab-2f65-4b9e-ae52-c38634075f1b","ios":"levelo://app?vid=dac710ab-2f65-4b9e-ae52-c38634075f1b"},"vehicle_type_id":"4","last_reported":1750184083,"current_range_meters":13600,"station_id":"ce4bhnh2rcd13ifvqgug","pricing_plan_id":"cebpf4jnsgd1na2vs0mg"},{"bike_id":"bd974aa7-8150-4a7a-8310-24b04975ef30","system_id":"levelo_inurba_marseille","lat":43.24078,"lon":5.3776,"is_reserved":false,"is_disabled":false,"rental_uris":{"android":"levelo://app?vid=bd974aa7-8150-4a7a-8310-24b04975ef30","ios":"levelo://app?vid=bd974aa7-8150-4a7a-8310-24b04975ef30"},"vehicle_type_id":"4","last_reported":1750184083,"current_range_meters":13600,"station_id":"ce4bhnp2rcd13ifvqgvg","pricing_plan_id":"cebpf4jnsgd1na2vs0mg"},{"bike_id":"68177b0b-e3b4-4359-8230-29fe0ced4892","system_id":"levelo_inurba_marseille","lat":43.29977,"lon":5.3849,"is_reserved":false,"is_disabled":false,"rental_uris":{"android":"levelo://app?vid=68177b0b-e3b4-4359-8230-29fe0ced4892","ios":"levelo://app?vid=68177b0b-e3b4-4359-8230-29fe0ced4892"},"vehicle_type_id":"4","last_reported":1750184083,"current_range_meters":14000,"station_id":"ce4bgj92rcd13ifvqbd0","pricing_plan_id":"cebpf4jnsgd1na2vs0mg"},{"bike_id":"fa833bbb-a07f-460c-9e73-006f1fc69690","system_id":"levelo_inurba_marseille","lat":43.27611,"lon":5.36103,"is_reserved":false,"is_disabled":false,"rental_uris":{"android":"levelo://app?vid=fa833bbb-a07f-460c-9e73-006f1fc69690","ios":"levelo://app?vid=fa833bbb-a07f-460c-9e73-006f1fc69690"},"vehicle_type_id":"4","last_reported":1750184083,"current_range_meters":14000,"station_id":"ce4bgj92rcd13ifvqbe0","pricing_plan_id":"cebpf4jnsgd1na2vs0mg"},{"bike_id":"952cccd3-dc05-4deb-b6b1-1ab020910064","system_id":"levelo_inurba_marseille","lat":43.29187,"lon":5.35797,"is_reserved":false,"is_disabled":false,"rental_uris":{"android":"levelo://app?vid=952cccd3-dc05-4deb-b6b1-1ab020910064","ios":"levelo://app?vid=952cccd3-dc05-4deb-b6b1-1ab020910064"},"vehicle_type_id":"4","last_reported":1750184083,"current_range_meters":14000,"station_id":"ce4bhb12rcd13ifvqel0","pricing_plan_id":"cebpf4jnsgd1na2vs0mg"},{"bike_id":"445df193-ec6b-4fdf-8e20-0b59e57e3553","system_id":"levelo_inurba_marseille","lat":43.28157,"lon":5.42637,"is_reserved":false,"is_disabled":false,"rental_uris":{"android":"levelo://app?vid=445df193-ec6b-4fdf-8e20-0b59e57e3553","ios":"levelo://app?vid=445df193-ec6b-4fdf-8e20-0b59e57e3553"},"vehicle_type_id":"4","last_reported":1750184083,"current_range_meters":14000,"station_id":"ce4bhnh2rcd13ifvqgug","pricing_plan_id":"cebpf4jnsgd1na2vs0mg"},{"bike_id":"2090556a-ebe6-4fcd-b60b-df67d7c8e4f7","system_id":"levelo_inurba_marseille","lat":43.29902,"lon":5.43638,"is_reserved":false,"is_disabled":false,"rental_uris":{"android":"levelo://app?vid=2090556a-ebe6-4fcd-b60b-df67d7c8e4f7","ios":"levelo://app?vid=2090556a-ebe6-4fcd-b60b-df67d7c8e4f7"},"vehicle_type_id":"4","last_reported":1750184083,"current_range_meters":14000,"station_id":"ce4bhpp2rcd13ifvqhfg","pricing_plan_id":"cebpf4jnsgd1na2vs0mg"},{"bike_id":"cc2f158e-d43d-4219-a18a-c6a2cb2c8e3e","system_id":"levelo_inurba_marseille","lat":43.2811,"lon":5.37844,"is_reserved":false,"is_disabled":false,"rental_uris":{"android":"levelo://app?vid=cc2f158e-d43d-4219-a18a-c6a2cb2c8e3e","ios":"levelo://app?vid=cc2f158e-d43d-4219-a18a-c6a2cb2c8e3e"},"vehicle_type_id":"4","last_reported":1750184083,"current_range_meters":14400,"station_id":"","pricing_plan_id":"cebpf4jnsgd1na2vs0mg"},{"bike_id":"65e84276-2f9c-470e-a295-e16c280cedba","system_id":"levelo_inurba_marseille","lat":43.30885,"lon":5.39648,"is_reserved":false,"is_disabled":false,"rental_uris":{"android":"levelo://app?vid=65e84276-2f9c-470e-a295-e16c280cedba","ios":"levelo://app?vid=65e84276-2f9c-470e-a295-e16c280cedba"},"vehicle_type_id":"4","last_reported":1750184083,"current_range_meters":14400,"station_id":"ce4bh012rcd13ifvqcv0","pricing_plan_id":"cebpf4jnsgd1na2vs0mg"},{"bike_id":"33170a10-d526-4cb6-8780-757c4f6a0a37","system_id":"levelo_inurba_marseille","lat":43.29033,"lon":5.3757,"is_reserved":false,"is_disabled":false,"rental_uris":{"android":"levelo://app?vid=33170a10-d526-4cb6-8780-757c4f6a0a37","ios":"levelo://app?vid=33170a10-d526-4cb6-8780-757c4f6a0a37"},"vehicle_type_id":"4","last_reported":1750184083,"current_range_meters":14400,"station_id":"ce4bh692rcd13ifvqe90","pricing_plan_id":"cebpf4jnsgd1na2vs0mg"},{"bike_id":"e0427e77-73b0-4d6e-bf24-56249e653570","system_id":"levelo_inurba_marseille","lat":43.28614,"lon":5.35102,"is_reserved":false,"is_disabled":false,"rental_uris":{"android":"levelo://app?vid=e0427e77-73b0-4d6e-bf24-56249e653570","ios":"levelo://app?vid=e0427e77-73b0-4d6e-bf24-56249e653570"},"vehicle_type_id":"4","last_reported":1750184083,"current_range_meters":14400,"station_id":"ce4bhch2rcd13ifvqeug","pricing_plan_id":"cebpf4jnsgd1na2vs0mg"},{"bike_id":"967f6192-68b8-4aec-a674-d7b9b14e6279","system_id":"levelo_inurba_marseille","lat":43.2512,"lon":5.40321,"is_reserved":false,"is_disabled":false,"rental_uris":{"android":"levelo://app?vid=967f6192-68b8-4aec-a674-d7b9b14e6279","ios":"levelo://app?vid=967f6192-68b8-4aec-a674-d7b9b14e6279"},"vehicle_type_id":"4","last_reported":1750184083,"current_range_meters":14400,"station_id":"ce4bhlh2rcd13ifvqgig","pricing_plan_id":"cebpf4jnsgd1na2vs0mg"},{"bike_id":"388b7abd-6854-4482-b53d-9d85453141db","system_id":"levelo_inurba_marseille","lat":43.250838,"lon":5.395234,"is_reserved":false,"is_disabled":false,"rental_uris":{"android":"levelo://app?vid=388b7abd-6854-4482-b53d-9d85453141db","ios":"levelo://app?vid=388b7abd-6854-4482-b53d-9d85453141db"},"vehicle_type_id":"4","last_reported":1750184083,"current_range_meters":14400,"station_id":"ce4bhm12rcd13ifvqgkg","pricing_plan_id":"cebpf4jnsgd1na2vs0mg"},{"bike_id":"3d71d4df-44d5-4a43-b95c-ebb9fbdb915f","system_id":"levelo_inurba_marseille","lat":43.27939,"lon":5.41035,"is_reserved":false,"is_disabled":false,"rental_uris":{"android":"levelo://app?vid=3d71d4df-44d5-4a43-b95c-ebb9fbdb915f","ios":"levelo://app?vid=3d71d4df-44d5-4a43-b95c-ebb9fbdb915f"},"vehicle_type_id":"4","last_reported":1750184083,"current_range_meters":14400,"station_id":"ce4bhnp2rcd13ifvqh0g","pricing_plan_id":"cebpf4jnsgd1na2vs0mg"},{"bike_id":"89d04d83-c4a4-48bb-9d4d-bbddb93a35fe","system_id":"levelo_inurba_marseille","lat":43.27613,"lon":5.36107,"is_reserved":false,"is_disabled":false,"rental_uris":{"android":"levelo://app?vid=89d04d83-c4a4-48bb-9d4d-bbddb93a35fe","ios":"levelo://app?vid=89d04d83-c4a4-48bb-9d4d-bbddb93a35fe"},"vehicle_type_id":"4","last_reported":1750184083,"current_range_meters":14800,"station_id":"ce4bgj92rcd13ifvqbe0","pricing_plan_id":"cebpf4jnsgd1na2vs0mg"},{"bike_id":"fc12a0f3-12b8-440f-98ca-b7e16c7817d5","system_id":"levelo_inurba_marseille","lat":43.28425,"lon":5.34983,"is_reserved":false,"is_disabled":false,"rental_uris":{"android":"levelo://app?vid=fc12a0f3-12b8-440f-98ca-b7e16c7817d5","ios":"levelo://app?vid=fc12a0f3-12b8-440f-98ca-b7e16c7817d5"},"vehicle_type_id":"4","last_reported":1750184083,"current_range_meters":14800,"station_id":"ce4bhbh2rcd13ifvqepg","pricing_plan_id":"cebpf4jnsgd1na2vs0mg"},{"bike_id":"888561d2-8c8a-44d2-baec-44f6dfecf4b8","system_id":"levelo_inurba_marseille","lat":43.28421,"lon":5.34976,"is_reserved":false,"is_disabled":false,"rental_uris":{"android":"levelo://app?vid=888561d2-8c8a-44d2-baec-44f6dfecf4b8","ios":"levelo://app?vid=888561d2-8c8a-44d2-baec-44f6dfecf4b8"},"vehicle_type_id":"4","last_reported":1750184083,"current_range_meters":14800,"station_id":"ce4bhbh2rcd13ifvqepg","pricing_plan_id":"cebpf4jnsgd1na2vs0mg"},{"bike_id":"77aaf5ed-fd85-40f9-9fde-9aa0ea1d5742","system_id":"levelo_inurba_marseille","lat":43.26549,"lon":5.3729,"is_reserved":false,"is_disabled":false,"rental_uris":{"android":"levelo://app?vid=77aaf5ed-fd85-40f9-9fde-9aa0ea1d5742","ios":"levelo://app?vid=77aaf5ed-fd85-40f9-9fde-9aa0ea1d5742"},"vehicle_type_id":"4","last_reported":1750184083,"current_range_meters":14800,"station_id":"ce4bhg12rcd13ifvqf70","pricing_plan_id":"cebpf4jnsgd1na2vs0mg"},{"bike_id":"be7a5b37-07c8-46bf-899e-016876e1b81b","system_id":"levelo_inurba_marseille","lat":43.26213,"lon":5.37439,"is_reserved":false,"is_disabled":false,"rental_uris":{"android":"levelo://app?vid=be7a5b37-07c8-46bf-899e-016876e1b81b","ios":"levelo://app?vid=be7a5b37-07c8-46bf-899e-016876e1b81b"},"vehicle_type_id":"4","last_reported":1750184083,"current_range_meters":14800,"station_id":"ce4bhgp2rcd13ifvqfc0","pricing_plan_id":"cebpf4jnsgd1na2vs0mg"},{"bike_id":"ec791070-eafa-4c06-b970-7958cef6417d","system_id":"levelo_inurba_marseille","lat":43.23216,"lon":5.35555,"is_reserved":false,"is_disabled":false,"rental_uris":{"android":"levelo://app?vid=ec791070-eafa-4c06-b970-7958cef6417d","ios":"levelo://app?vid=ec791070-eafa-4c06-b970-7958cef6417d"},"vehicle_type_id":"4","last_reported":1750184083,"current_range_meters":14800,"station_id":"ce4bhu92rcd13ifvqi70","pricing_plan_id":"cebpf4jnsgd1na2vs0mg"},{"bike_id":"7dc82da4-2fd0-4569-a7e0-365fa1506f57","system_id":"levelo_inurba_marseille","lat":43.2293,"lon":5.35373,"is_reserved":false,"is_disabled":false,"rental_uris":{"android":"levelo://app?vid=7dc82da4-2fd0-4569-a7e0-365fa1506f57","ios":"levelo://app?vid=7dc82da4-2fd0-4569-a7e0-365fa1506f57"},"vehicle_type_id":"4","last_reported":1750184083,"current_range_meters":14800,"station_id":"cpo3532slgdg3j2ikp40","pricing_plan_id":"cebpf4jnsgd1na2vs0mg"},{"bike_id":"7cdf5be0-7245-4441-a00f-0e22a405eeff","system_id":"levelo_inurba_marseille","lat":43.3027,"lon":5.40068,"is_reserved":false,"is_disabled":false,"rental_uris":{"android":"levelo://app?vid=7cdf5be0-7245-4441-a00f-0e22a405eeff","ios":"levelo://app?vid=7cdf5be0-7245-4441-a00f-0e22a405eeff"},"vehicle_type_id":"4","last_reported":1750184083,"current_range_meters":15200,"station_id":"ce4bgvh2rcd13ifvqcs0","pricing_plan_id":"cebpf4jnsgd1na2vs0mg"},{"bike_id":"d585f3c1-07ec-464f-8529-635f25e4b0f4","system_id":"levelo_inurba_marseille","lat":43.27366,"lon":5.36248,"is_reserved":false,"is_disabled":false,"rental_uris":{"android":"levelo://app?vid=d585f3c1-07ec-464f-8529-635f25e4b0f4","ios":"levelo://app?vid=d585f3c1-07ec-464f-8529-635f25e4b0f4"},"vehicle_type_id":"4","last_reported":1750184083,"current_range_meters":15200,"station_id":"ce4bhbh2rcd13ifvqeo0","pricing_plan_id":"cebpf4jnsgd1na2vs0mg"},{"bike_id":"c13d2109-b7dd-4901-85e1-95e5a90f7920","system_id":"levelo_inurba_marseille","lat":43.28403,"lon":5.3499,"is_reserved":false,"is_disabled":false,"rental_uris":{"android":"levelo://app?vid=c13d2109-b7dd-4901-85e1-95e5a90f7920","ios":"levelo://app?vid=c13d2109-b7dd-4901-85e1-95e5a90f7920"},"vehicle_type_id":"4","last_reported":1750184083,"current_range_meters":15200,"station_id":"ce4bhbh2rcd13ifvqepg","pricing_plan_id":"cebpf4jnsgd1na2vs0mg"},{"bike_id":"1dca189b-e58d-407e-91a0-5d0b482c7bd9","system_id":"levelo_inurba_marseille","lat":43.28272,"lon":5.35068,"is_reserved":false,"is_disabled":false,"rental_uris":{"android":"levelo://app?vid=1dca189b-e58d-407e-91a0-5d0b482c7bd9","ios":"levelo://app?vid=1dca189b-e58d-407e-91a0-5d0b482c7bd9"},"vehicle_type_id":"4","last_reported":1750184083,"current_range_meters":15200,"station_id":"ce4bhbp2rcd13ifvqerg","pricing_plan_id":"cebpf4jnsgd1na2vs0mg"},{"bike_id":"70619f56-22b5-45cd-977c-640790522f68","system_id":"levelo_inurba_marseille","lat":43.2656,"lon":5.38989,"is_reserved":false,"is_disabled":false,"rental_uris":{"android":"levelo://app?vid=70619f56-22b5-45cd-977c-640790522f68","ios":"levelo://app?vid=70619f56-22b5-45cd-977c-640790522f68"},"vehicle_type_id":"4","last_reported":1750184083,"current_range_meters":15200,"station_id":"ce4bhe12rcd13ifvqf30","pricing_plan_id":"cebpf4jnsgd1na2vs0mg"},{"bike_id":"704614bd-2483-47f2-9c39-8f9ef1fa9ec5","system_id":"levelo_inurba_marseille","lat":43.2439,"lon":5.37061,"is_reserved":false,"is_disabled":false,"rental_uris":{"android":"levelo://app?vid=704614bd-2483-47f2-9c39-8f9ef1fa9ec5","ios":"levelo://app?vid=704614bd-2483-47f2-9c39-8f9ef1fa9ec5"},"vehicle_type_id":"4","last_reported":1750184083,"current_range_meters":15200,"station_id":"ce4bhhh2rcd13ifvqfk0","pricing_plan_id":"cebpf4jnsgd1na2vs0mg"},{"bike_id":"6bad5621-ab8e-420f-93db-f961ed8b9516","system_id":"levelo_inurba_marseille","lat":43.24388,"lon":5.37071,"is_reserved":false,"is_disabled":false,"rental_uris":{"android":"levelo://app?vid=6bad5621-ab8e-420f-93db-f961ed8b9516","ios":"levelo://app?vid=6bad5621-ab8e-420f-93db-f961ed8b9516"},"vehicle_type_id":"4","last_reported":1750184083,"current_range_meters":15200,"station_id":"ce4bhhh2rcd13ifvqfk0","pricing_plan_id":"cebpf4jnsgd1na2vs0mg"},{"bike_id":"e9a889ad-6f4b-4105-a2ed-cf8366b1b0f4","system_id":"levelo_inurba_marseille","lat":43.28613,"lon":5.37062,"is_reserved":false,"is_disabled":false,"rental_uris":{"android":"levelo://app?vid=e9a889ad-6f4b-4105-a2ed-cf8366b1b0f4","ios":"levelo://app?vid=e9a889ad-6f4b-4105-a2ed-cf8366b1b0f4"},"vehicle_type_id":"4","last_reported":1750184083,"current_range_meters":15200,"station_id":"ce4bht12rcd13ifvqi60","pricing_plan_id":"cebpf4jnsgd1na2vs0mg"},{"bike_id":"3518210a-6d90-482f-a11b-11cb7c94acd1","system_id":"levelo_inurba_marseille","lat":43.26486,"lon":5.3923,"is_reserved":false,"is_disabled":false,"rental_uris":{"android":"levelo://app?vid=3518210a-6d90-482f-a11b-11cb7c94acd1","ios":"levelo://app?vid=3518210a-6d90-482f-a11b-11cb7c94acd1"},"vehicle_type_id":"4","last_reported":1750184083,"current_range_meters":16000,"station_id":"","pricing_plan_id":"cebpf4jnsgd1na2vs0mg"},{"bike_id":"de0f7c2b-5974-4035-a240-8ed367c0e3f3","system_id":"levelo_inurba_marseille","lat":43.31952,"lon":5.37619,"is_reserved":false,"is_disabled":false,"rental_uris":{"android":"levelo://app?vid=de0f7c2b-5974-4035-a240-8ed367c0e3f3","ios":"levelo://app?vid=de0f7c2b-5974-4035-a240-8ed367c0e3f3"},"vehicle_type_id":"4","last_reported":1750184083,"current_range_meters":16000,"station_id":"","pricing_plan_id":"cebpf4jnsgd1na2vs0mg"},{"bike_id":"a2224ec3-c528-4d4f-9b63-bcd53d8d2e2b","system_id":"levelo_inurba_marseille","lat":43.30884,"lon":5.39643,"is_reserved":false,"is_disabled":false,"rental_uris":{"android":"levelo://app?vid=a2224ec3-c528-4d4f-9b63-bcd53d8d2e2b","ios":"levelo://app?vid=a2224ec3-c528-4d4f-9b63-bcd53d8d2e2b"},"vehicle_type_id":"4","last_reported":1750184083,"current_range_meters":16000,"station_id":"ce4bh012rcd13ifvqcv0","pricing_plan_id":"cebpf4jnsgd1na2vs0mg"},{"bike_id":"3e3e010e-8154-487f-b267-ec6ac92b9a0b","system_id":"levelo_inurba_marseille","lat":43.28415,"lon":5.34996,"is_reserved":false,"is_disabled":false,"rental_uris":{"android":"levelo://app?vid=3e3e010e-8154-487f-b267-ec6ac92b9a0b","ios":"levelo://app?vid=3e3e010e-8154-487f-b267-ec6ac92b9a0b"},"vehicle_type_id":"4","last_reported":1750184083,"current_range_meters":16000,"station_id":"ce4bhbh2rcd13ifvqepg","pricing_plan_id":"cebpf4jnsgd1na2vs0mg"},{"bike_id":"dfdd040b-3af9-4cf9-8013-fd90604c4ef3","system_id":"levelo_inurba_marseille","lat":43.294098,"lon":5.386278,"is_reserved":false,"is_disabled":false,"rental_uris":{"android":"levelo://app?vid=dfdd040b-3af9-4cf9-8013-fd90604c4ef3","ios":"levelo://app?vid=dfdd040b-3af9-4cf9-8013-fd90604c4ef3"},"vehicle_type_id":"4","last_reported":1750184083,"current_range_meters":16000,"station_id":"ce4bhbp2rcd13ifvqerg","pricing_plan_id":"cebpf4jnsgd1na2vs0mg"},{"bike_id":"31935c0e-1e0b-402a-ade7-50d98e4ee80d","system_id":"levelo_inurba_marseille","lat":43.31082,"lon":5.42428,"is_reserved":false,"is_disabled":false,"rental_uris":{"android":"levelo://app?vid=31935c0e-1e0b-402a-ade7-50d98e4ee80d","ios":"levelo://app?vid=31935c0e-1e0b-402a-ade7-50d98e4ee80d"},"vehicle_type_id":"4","last_reported":1750184083,"current_range_meters":16000,"station_id":"ce4bhp92rcd13ifvqhag","pricing_plan_id":"cebpf4jnsgd1na2vs0mg"},{"bike_id":"d6596571-2d47-4467-b9f1-c4fd4cb00dbe","system_id":"levelo_inurba_marseille","lat":43.23201,"lon":5.35549,"is_reserved":false,"is_disabled":false,"rental_uris":{"android":"levelo://app?vid=d6596571-2d47-4467-b9f1-c4fd4cb00dbe","ios":"levelo://app?vid=d6596571-2d47-4467-b9f1-c4fd4cb00dbe"},"vehicle_type_id":"4","last_reported":1750184083,"current_range_meters":16000,"station_id":"ce4bhu92rcd13ifvqi70","pricing_plan_id":"cebpf4jnsgd1na2vs0mg"},{"bike_id":"2dfb76f7-0a2f-4021-878a-5c434e85e2f7","system_id":"levelo_inurba_marseille","lat":43.29269,"lon":5.3844,"is_reserved":false,"is_disabled":false,"rental_uris":{"android":"levelo://app?vid=2dfb76f7-0a2f-4021-878a-5c434e85e2f7","ios":"levelo://app?vid=2dfb76f7-0a2f-4021-878a-5c434e85e2f7"},"vehicle_type_id":"4","last_reported":1750184083,"current_range_meters":16400,"station_id":"ce4bh692rcd13ifvqea0","pricing_plan_id":"cebpf4jnsgd1na2vs0mg"},{"bike_id":"aa95d82a-245b-4caf-8e37-93dc9566b5d5","system_id":"levelo_inurba_marseille","lat":43.27381,"lon":5.36251,"is_reserved":false,"is_disabled":false,"rental_uris":{"android":"levelo://app?vid=aa95d82a-245b-4caf-8e37-93dc9566b5d5","ios":"levelo://app?vid=aa95d82a-245b-4caf-8e37-93dc9566b5d5"},"vehicle_type_id":"4","last_reported":1750184083,"current_range_meters":16400,"station_id":"ce4bhbh2rcd13ifvqeo0","pricing_plan_id":"cebpf4jnsgd1na2vs0mg"},{"bike_id":"6a7a8432-cf6f-44a1-a32a-1493816e0681","system_id":"levelo_inurba_marseille","lat":43.282654,"lon":5.350639,"is_reserved":false,"is_disabled":false,"rental_uris":{"android":"levelo://app?vid=6a7a8432-cf6f-44a1-a32a-1493816e0681","ios":"levelo://app?vid=6a7a8432-cf6f-44a1-a32a-1493816e0681"},"vehicle_type_id":"4","last_reported":1750184083,"current_range_meters":16400,"station_id":"ce4bhbp2rcd13ifvqerg","pricing_plan_id":"cebpf4jnsgd1na2vs0mg"},{"bike_id":"448ba436-6ff2-4bb3-979c-e95e14c74387","system_id":"levelo_inurba_marseille","lat":43.28316,"lon":5.3503,"is_reserved":false,"is_disabled":false,"rental_uris":{"android":"levelo://app?vid=448ba436-6ff2-4bb3-979c-e95e14c74387","ios":"levelo://app?vid=448ba436-6ff2-4bb3-979c-e95e14c74387"},"vehicle_type_id":"4","last_reported":1750184083,"current_range_meters":16400,"station_id":"ce4bhbp2rcd13ifvqerg","pricing_plan_id":"cebpf4jnsgd1na2vs0mg"},{"bike_id":"5b6708ec-e0a9-4ee3-bca2-461fe7be08d1","system_id":"levelo_inurba_marseille","lat":43.31713,"lon":5.43703,"is_reserved":false,"is_disabled":false,"rental_uris":{"android":"levelo://app?vid=5b6708ec-e0a9-4ee3-bca2-461fe7be08d1","ios":"levelo://app?vid=5b6708ec-e0a9-4ee3-bca2-461fe7be08d1"},"vehicle_type_id":"4","last_reported":1750184083,"current_range_meters":16400,"station_id":"ce4bhp92rcd13ifvqhcg","pricing_plan_id":"cebpf4jnsgd1na2vs0mg"},{"bike_id":"d0b486c9-c6c6-42af-9d40-d688eb5c0c23","system_id":"levelo_inurba_marseille","lat":43.31531,"lon":5.38032,"is_reserved":false,"is_disabled":false,"rental_uris":{"android":"levelo://app?vid=d0b486c9-c6c6-42af-9d40-d688eb5c0c23","ios":"levelo://app?vid=d0b486c9-c6c6-42af-9d40-d688eb5c0c23"},"vehicle_type_id":"4","last_reported":1750184083,"current_range_meters":16400,"station_id":"ce4bhsp2rcd13ifvqi50","pricing_plan_id":"cebpf4jnsgd1na2vs0mg"},{"bike_id":"2f0f7865-53e4-4955-8eb9-1bb98bf95595","system_id":"levelo_inurba_marseille","lat":43.31756,"lon":5.37596,"is_reserved":false,"is_disabled":false,"rental_uris":{"android":"levelo://app?vid=2f0f7865-53e4-4955-8eb9-1bb98bf95595","ios":"levelo://app?vid=2f0f7865-53e4-4955-8eb9-1bb98bf95595"},"vehicle_type_id":"4","last_reported":1750184083,"current_range_meters":16800,"station_id":"","pricing_plan_id":"cebpf4jnsgd1na2vs0mg"},{"bike_id":"de0bda34-41a6-4231-8ed4-c93e07fc3176","system_id":"levelo_inurba_marseille","lat":43.32652,"lon":5.3748,"is_reserved":false,"is_disabled":false,"rental_uris":{"android":"levelo://app?vid=de0bda34-41a6-4231-8ed4-c93e07fc3176","ios":"levelo://app?vid=de0bda34-41a6-4231-8ed4-c93e07fc3176"},"vehicle_type_id":"4","last_reported":1750184083,"current_range_meters":16800,"station_id":"","pricing_plan_id":"cebpf4jnsgd1na2vs0mg"},{"bike_id":"41c2cbc1-719b-493d-b58b-e711a48c6ed9","system_id":"levelo_inurba_marseille","lat":43.29028,"lon":5.38128,"is_reserved":false,"is_disabled":false,"rental_uris":{"android":"levelo://app?vid=41c2cbc1-719b-493d-b58b-e711a48c6ed9","ios":"levelo://app?vid=41c2cbc1-719b-493d-b58b-e711a48c6ed9"},"vehicle_type_id":"4","last_reported":1750184083,"current_range_meters":16800,"station_id":"ce4bh4p2rcd13ifvqe1g","pricing_plan_id":"cebpf4jnsgd1na2vs0mg"},{"bike_id":"2766c131-5287-4ec6-8f94-d41b3b5d9579","system_id":"levelo_inurba_marseille","lat":43.28447,"lon":5.34971,"is_reserved":false,"is_disabled":false,"rental_uris":{"android":"levelo://app?vid=2766c131-5287-4ec6-8f94-d41b3b5d9579","ios":"levelo://app?vid=2766c131-5287-4ec6-8f94-d41b3b5d9579"},"vehicle_type_id":"4","last_reported":1750184083,"current_range_meters":16800,"station_id":"ce4bhbh2rcd13ifvqepg","pricing_plan_id":"cebpf4jnsgd1na2vs0mg"},{"bike_id":"d3eb365a-5d3d-4e65-a7d8-0c31915014e2","system_id":"levelo_inurba_marseille","lat":43.31719,"lon":5.42394,"is_reserved":false,"is_disabled":false,"rental_uris":{"android":"levelo://app?vid=d3eb365a-5d3d-4e65-a7d8-0c31915014e2","ios":"levelo://app?vid=d3eb365a-5d3d-4e65-a7d8-0c31915014e2"},"vehicle_type_id":"4","last_reported":1750184083,"current_range_meters":16800,"station_id":"ce4bhp92rcd13ifvqhbg","pricing_plan_id":"cebpf4jnsgd1na2vs0mg"},{"bike_id":"67ca52ac-2acb-4c92-a1bd-937f1e0787a8","system_id":"levelo_inurba_marseille","lat":43.32295,"lon":5.38273,"is_reserved":false,"is_disabled":false,"rental_uris":{"android":"levelo://app?vid=67ca52ac-2acb-4c92-a1bd-937f1e0787a8","ios":"levelo://app?vid=67ca52ac-2acb-4c92-a1bd-937f1e0787a8"},"vehicle_type_id":"4","last_reported":1750184083,"current_range_meters":16800,"station_id":"ce4bhr12rcd13ifvqhqg","pricing_plan_id":"cebpf4jnsgd1na2vs0mg"},{"bike_id":"4b8da722-ee9e-48a4-a5e5-3a8a10364708","system_id":"levelo_inurba_marseille","lat":43.31226,"lon":5.37809,"is_reserved":false,"is_disabled":false,"rental_uris":{"android":"levelo://app?vid=4b8da722-ee9e-48a4-a5e5-3a8a10364708","ios":"levelo://app?vid=4b8da722-ee9e-48a4-a5e5-3a8a10364708"},"vehicle_type_id":"4","last_reported":1750184083,"current_range_meters":17200,"station_id":"","pricing_plan_id":"cebpf4jnsgd1na2vs0mg"},{"bike_id":"4ce5b165-f22d-40cf-abd3-1cb294861955","system_id":"levelo_inurba_marseille","lat":43.21225,"lon":5.35161,"is_reserved":false,"is_disabled":false,"rental_uris":{"android":"levelo://app?vid=4ce5b165-f22d-40cf-abd3-1cb294861955","ios":"levelo://app?vid=4ce5b165-f22d-40cf-abd3-1cb294861955"},"vehicle_type_id":"4","last_reported":1750184083,"current_range_meters":17200,"station_id":"","pricing_plan_id":"cebpf4jnsgd1na2vs0mg"},{"bike_id":"6600f317-c572-4631-9f10-82676fc40f92","system_id":"levelo_inurba_marseille","lat":43.2962,"lon":5.37168,"is_reserved":false,"is_disabled":false,"rental_uris":{"android":"levelo://app?vid=6600f317-c572-4631-9f10-82676fc40f92","ios":"levelo://app?vid=6600f317-c572-4631-9f10-82676fc40f92"},"vehicle_type_id":"4","last_reported":1750184083,"current_range_meters":17200,"station_id":"ce4bgnh2rcd13ifvqc0g","pricing_plan_id":"cebpf4jnsgd1na2vs0mg"},{"bike_id":"0a729932-711b-4919-8b2d-451f1ceb93fd","system_id":"levelo_inurba_marseille","lat":43.28462,"lon":5.35905,"is_reserved":false,"is_disabled":false,"rental_uris":{"android":"levelo://app?vid=0a729932-711b-4919-8b2d-451f1ceb93fd","ios":"levelo://app?vid=0a729932-711b-4919-8b2d-451f1ceb93fd"},"vehicle_type_id":"4","last_reported":1750184083,"current_range_meters":17200,"station_id":"ce4bhah2rcd13ifvqei0","pricing_plan_id":"cebpf4jnsgd1na2vs0mg"},{"bike_id":"0fbee07e-8cd6-4286-9669-0e4d4b14d1b0","system_id":"levelo_inurba_marseille","lat":43.291654,"lon":5.355704,"is_reserved":false,"is_disabled":false,"rental_uris":{"android":"levelo://app?vid=0fbee07e-8cd6-4286-9669-0e4d4b14d1b0","ios":"levelo://app?vid=0fbee07e-8cd6-4286-9669-0e4d4b14d1b0"},"vehicle_type_id":"4","last_reported":1750184083,"current_range_meters":17200,"station_id":"ce4bhb92rcd13ifvqen0","pricing_plan_id":"cebpf4jnsgd1na2vs0mg"},{"bike_id":"2115f33a-30a7-4381-85fb-a2181f020403","system_id":"levelo_inurba_marseille","lat":43.26196,"lon":5.37446,"is_reserved":false,"is_disabled":false,"rental_uris":{"android":"levelo://app?vid=2115f33a-30a7-4381-85fb-a2181f020403","ios":"levelo://app?vid=2115f33a-30a7-4381-85fb-a2181f020403"},"vehicle_type_id":"4","last_reported":1750184083,"current_range_meters":17200,"station_id":"ce4bhgp2rcd13ifvqfc0","pricing_plan_id":"cebpf4jnsgd1na2vs0mg"},{"bike_id":"5cbdd979-131e-4b0a-a5c9-96ef156802c9","system_id":"levelo_inurba_marseille","lat":43.28442,"lon":5.39229,"is_reserved":false,"is_disabled":false,"rental_uris":{"android":"levelo://app?vid=5cbdd979-131e-4b0a-a5c9-96ef156802c9","ios":"levelo://app?vid=5cbdd979-131e-4b0a-a5c9-96ef156802c9"},"vehicle_type_id":"4","last_reported":1750184083,"current_range_meters":17200,"station_id":"ce4bhoh2rcd13ifvqh5g","pricing_plan_id":"cebpf4jnsgd1na2vs0mg"},{"bike_id":"6c2f7b30-5ca6-4bae-851f-63c297a86db1","system_id":"levelo_inurba_marseille","lat":43.23195,"lon":5.35548,"is_reserved":false,"is_disabled":false,"rental_uris":{"android":"levelo://app?vid=6c2f7b30-5ca6-4bae-851f-63c297a86db1","ios":"levelo://app?vid=6c2f7b30-5ca6-4bae-851f-63c297a86db1"},"vehicle_type_id":"4","last_reported":1750184083,"current_range_meters":17200,"station_id":"ce4bhu92rcd13ifvqi70","pricing_plan_id":"cebpf4jnsgd1na2vs0mg"},{"bike_id":"cc8086c3-023b-4662-b7ba-91199240f1a1","system_id":"levelo_inurba_marseille","lat":43.23056,"lon":5.35488,"is_reserved":false,"is_disabled":false,"rental_uris":{"android":"levelo://app?vid=cc8086c3-023b-4662-b7ba-91199240f1a1","ios":"levelo://app?vid=cc8086c3-023b-4662-b7ba-91199240f1a1"},"vehicle_type_id":"4","last_reported":1750184083,"current_range_meters":17200,"station_id":"cpo3342slgdg3j2ifvpg","pricing_plan_id":"cebpf4jnsgd1na2vs0mg"},{"bike_id":"4cda9327-46c6-426e-87dd-c291d5dc5ff7","system_id":"levelo_inurba_marseille","lat":43.211975,"lon":5.35073,"is_reserved":false,"is_disabled":false,"rental_uris":{"android":"levelo://app?vid=4cda9327-46c6-426e-87dd-c291d5dc5ff7","ios":"levelo://app?vid=4cda9327-46c6-426e-87dd-c291d5dc5ff7"},"vehicle_type_id":"4","last_reported":1750184083,"current_range_meters":17200,"station_id":"st_cvj6sg6p6f1abm77japg","pricing_plan_id":"cebpf4jnsgd1na2vs0mg"},{"bike_id":"653a05d9-205d-420f-b0c9-a638667f0917","system_id":"levelo_inurba_marseille","lat":43.21199,"lon":5.35072,"is_reserved":false,"is_disabled":false,"rental_uris":{"android":"levelo://app?vid=653a05d9-205d-420f-b0c9-a638667f0917","ios":"levelo://app?vid=653a05d9-205d-420f-b0c9-a638667f0917"},"vehicle_type_id":"4","last_reported":1750184083,"current_range_meters":17200,"station_id":"st_cvj6sg6p6f1abm77japg","pricing_plan_id":"cebpf4jnsgd1na2vs0mg"},{"bike_id":"faade479-00cd-43d7-afa5-1c4de86411bd","system_id":"levelo_inurba_marseille","lat":43.31723,"lon":5.423936,"is_reserved":false,"is_disabled":false,"rental_uris":{"android":"levelo://app?vid=faade479-00cd-43d7-afa5-1c4de86411bd","ios":"levelo://app?vid=faade479-00cd-43d7-afa5-1c4de86411bd"},"vehicle_type_id":"4","last_reported":1750184083,"current_range_meters":17600,"station_id":"ce4bhp92rcd13ifvqhbg","pricing_plan_id":"cebpf4jnsgd1na2vs0mg"},{"bike_id":"ed2b18d8-f5bf-4b6b-bab3-dc2b9ad0cb59","system_id":"levelo_inurba_marseille","lat":43.30196,"lon":5.3662,"is_reserved":false,"is_disabled":false,"rental_uris":{"android":"levelo://app?vid=ed2b18d8-f5bf-4b6b-bab3-dc2b9ad0cb59","ios":"levelo://app?vid=ed2b18d8-f5bf-4b6b-bab3-dc2b9ad0cb59"},"vehicle_type_id":"4","last_reported":1750184083,"current_range_meters":18000,"station_id":"ce4bgrh2rcd13ifvqc8g","pricing_plan_id":"cebpf4jnsgd1na2vs0mg"},{"bike_id":"757ee5fe-b511-4582-ba64-445cd6ee491b","system_id":"levelo_inurba_marseille","lat":43.30084,"lon":5.39078,"is_reserved":false,"is_disabled":false,"rental_uris":{"android":"levelo://app?vid=757ee5fe-b511-4582-ba64-445cd6ee491b","ios":"levelo://app?vid=757ee5fe-b511-4582-ba64-445cd6ee491b"},"vehicle_type_id":"4","last_reported":1750184083,"current_range_meters":18000,"station_id":"ce4bh192rcd13ifvqdb0","pricing_plan_id":"cebpf4jnsgd1na2vs0mg"},{"bike_id":"03b9bfab-0f36-4450-aeb1-75e414f11562","system_id":"levelo_inurba_marseille","lat":43.29056,"lon":5.35922,"is_reserved":false,"is_disabled":false,"rental_uris":{"android":"levelo://app?vid=03b9bfab-0f36-4450-aeb1-75e414f11562","ios":"levelo://app?vid=03b9bfab-0f36-4450-aeb1-75e414f11562"},"vehicle_type_id":"4","last_reported":1750184083,"current_range_meters":18000,"station_id":"ce4bha92rcd13ifvqeg0","pricing_plan_id":"cebpf4jnsgd1na2vs0mg"},{"bike_id":"fbcbfd58-84fd-4285-bea2-48fbde343737","system_id":"levelo_inurba_marseille","lat":43.28939,"lon":5.36617,"is_reserved":false,"is_disabled":false,"rental_uris":{"android":"levelo://app?vid=fbcbfd58-84fd-4285-bea2-48fbde343737","ios":"levelo://app?vid=fbcbfd58-84fd-4285-bea2-48fbde343737"},"vehicle_type_id":"4","last_reported":1750184083,"current_range_meters":18000,"station_id":"ce4bhap2rcd13ifvqek0","pricing_plan_id":"cebpf4jnsgd1na2vs0mg"},{"bike_id":"6f83a7ae-2d6b-499d-ac66-cad5eee0a015","system_id":"levelo_inurba_marseille","lat":43.27372,"lon":5.36253,"is_reserved":false,"is_disabled":false,"rental_uris":{"android":"levelo://app?vid=6f83a7ae-2d6b-499d-ac66-cad5eee0a015","ios":"levelo://app?vid=6f83a7ae-2d6b-499d-ac66-cad5eee0a015"},"vehicle_type_id":"4","last_reported":1750184083,"current_range_meters":18000,"station_id":"ce4bhbh2rcd13ifvqeo0","pricing_plan_id":"cebpf4jnsgd1na2vs0mg"},{"bike_id":"34469890-2c62-4d9e-8bee-69e94a3b1d95","system_id":"levelo_inurba_marseille","lat":43.2408,"lon":5.37751,"is_reserved":false,"is_disabled":false,"rental_uris":{"android":"levelo://app?vid=34469890-2c62-4d9e-8bee-69e94a3b1d95","ios":"levelo://app?vid=34469890-2c62-4d9e-8bee-69e94a3b1d95"},"vehicle_type_id":"4","last_reported":1750184083,"current_range_meters":18000,"station_id":"ce4bhnp2rcd13ifvqgvg","pricing_plan_id":"cebpf4jnsgd1na2vs0mg"},{"bike_id":"353d311d-54a6-4151-a3bd-6f76a7c05120","system_id":"levelo_inurba_marseille","lat":43.27936,"lon":5.41044,"is_reserved":false,"is_disabled":false,"rental_uris":{"android":"levelo://app?vid=353d311d-54a6-4151-a3bd-6f76a7c05120","ios":"levelo://app?vid=353d311d-54a6-4151-a3bd-6f76a7c05120"},"vehicle_type_id":"4","last_reported":1750184083,"current_range_meters":18000,"station_id":"ce4bhnp2rcd13ifvqh0g","pricing_plan_id":"cebpf4jnsgd1na2vs0mg"},{"bike_id":"69391ca7-3f01-4e51-a628-257cf9ff7306","system_id":"levelo_inurba_marseille","lat":43.3378,"lon":5.37439,"is_reserved":false,"is_disabled":false,"rental_uris":{"android":"levelo://app?vid=69391ca7-3f01-4e51-a628-257cf9ff7306","ios":"levelo://app?vid=69391ca7-3f01-4e51-a628-257cf9ff7306"},"vehicle_type_id":"4","last_reported":1750184083,"current_range_meters":18800,"station_id":"","pricing_plan_id":"cebpf4jnsgd1na2vs0mg"},{"bike_id":"268aafb4-1331-426c-97bc-a7d6564caeb6","system_id":"levelo_inurba_marseille","lat":43.32907,"lon":5.37901,"is_reserved":false,"is_disabled":false,"rental_uris":{"android":"levelo://app?vid=268aafb4-1331-426c-97bc-a7d6564caeb6","ios":"levelo://app?vid=268aafb4-1331-426c-97bc-a7d6564caeb6"},"vehicle_type_id":"4","last_reported":1750184083,"current_range_meters":18800,"station_id":"","pricing_plan_id":"cebpf4jnsgd1na2vs0mg"},{"bike_id":"3151b431-ae3a-411c-8189-09c45ab38d79","system_id":"levelo_inurba_marseille","lat":43.308613,"lon":5.37204,"is_reserved":false,"is_disabled":false,"rental_uris":{"android":"levelo://app?vid=3151b431-ae3a-411c-8189-09c45ab38d79","ios":"levelo://app?vid=3151b431-ae3a-411c-8189-09c45ab38d79"},"vehicle_type_id":"4","last_reported":1750184083,"current_range_meters":18800,"station_id":"","pricing_plan_id":"cebpf4jnsgd1na2vs0mg"},{"bike_id":"bb305b89-9cb4-48da-a7b7-de38314fb9cc","system_id":"levelo_inurba_marseille","lat":43.29312,"lon":5.37169,"is_reserved":false,"is_disabled":false,"rental_uris":{"android":"levelo://app?vid=bb305b89-9cb4-48da-a7b7-de38314fb9cc","ios":"levelo://app?vid=bb305b89-9cb4-48da-a7b7-de38314fb9cc"},"vehicle_type_id":"4","last_reported":1750184083,"current_range_meters":18800,"station_id":"ce4bgh92rcd13ifvqb40","pricing_plan_id":"cebpf4jnsgd1na2vs0mg"},{"bike_id":"8b8e3452-c32b-408e-938b-44cc98f0f857","system_id":"levelo_inurba_marseille","lat":43.28428,"lon":5.34985,"is_reserved":false,"is_disabled":false,"rental_uris":{"android":"levelo://app?vid=8b8e3452-c32b-408e-938b-44cc98f0f857","ios":"levelo://app?vid=8b8e3452-c32b-408e-938b-44cc98f0f857"},"vehicle_type_id":"4","last_reported":1750184083,"current_range_meters":18800,"station_id":"ce4bhbh2rcd13ifvqepg","pricing_plan_id":"cebpf4jnsgd1na2vs0mg"},{"bike_id":"d77d3ea8-c472-4dd8-8cca-110483e933e7","system_id":"levelo_inurba_marseille","lat":43.28613,"lon":5.35107,"is_reserved":false,"is_disabled":false,"rental_uris":{"android":"levelo://app?vid=d77d3ea8-c472-4dd8-8cca-110483e933e7","ios":"levelo://app?vid=d77d3ea8-c472-4dd8-8cca-110483e933e7"},"vehicle_type_id":"4","last_reported":1750184083,"current_range_meters":18800,"station_id":"ce4bhch2rcd13ifvqeug","pricing_plan_id":"cebpf4jnsgd1na2vs0mg"},{"bike_id":"611b086a-24bf-477e-9534-9d5e3b9dc406","system_id":"levelo_inurba_marseille","lat":43.28606,"lon":5.35113,"is_reserved":false,"is_disabled":false,"rental_uris":{"android":"levelo://app?vid=611b086a-24bf-477e-9534-9d5e3b9dc406","ios":"levelo://app?vid=611b086a-24bf-477e-9534-9d5e3b9dc406"},"vehicle_type_id":"4","last_reported":1750184083,"current_range_meters":18800,"station_id":"ce4bhch2rcd13ifvqeug","pricing_plan_id":"cebpf4jnsgd1na2vs0mg"},{"bike_id":"34011965-7337-4c76-bc6d-833dad6810be","system_id":"levelo_inurba_marseille","lat":43.262071,"lon":5.374423,"is_reserved":false,"is_disabled":false,"rental_uris":{"android":"levelo://app?vid=34011965-7337-4c76-bc6d-833dad6810be","ios":"levelo://app?vid=34011965-7337-4c76-bc6d-833dad6810be"},"vehicle_type_id":"4","last_reported":1750184083,"current_range_meters":18800,"station_id":"ce4bhgp2rcd13ifvqfc0","pricing_plan_id":"cebpf4jnsgd1na2vs0mg"},{"bike_id":"744cf4fa-bb14-4576-929f-2f6effc633c9","system_id":"levelo_inurba_marseille","lat":43.29553,"lon":5.42258,"is_reserved":false,"is_disabled":false,"rental_uris":{"android":"levelo://app?vid=744cf4fa-bb14-4576-929f-2f6effc633c9","ios":"levelo://app?vid=744cf4fa-bb14-4576-929f-2f6effc633c9"},"vehicle_type_id":"4","last_reported":1750184083,"current_range_meters":18800,"station_id":"ce4bhph2rcd13ifvqhdg","pricing_plan_id":"cebpf4jnsgd1na2vs0mg"},{"bike_id":"e92bd4cd-e5c6-40c9-80e9-52bc96a037f0","system_id":"levelo_inurba_marseille","lat":43.25486,"lon":5.4172,"is_reserved":false,"is_disabled":false,"rental_uris":{"android":"levelo://app?vid=e92bd4cd-e5c6-40c9-80e9-52bc96a037f0","ios":"levelo://app?vid=e92bd4cd-e5c6-40c9-80e9-52bc96a037f0"},"vehicle_type_id":"4","last_reported":1750184083,"current_range_meters":19200,"station_id":"","pricing_plan_id":"cebpf4jnsgd1na2vs0mg"},{"bike_id":"fd770e7c-df5b-4317-8212-d9408fa91951","system_id":"levelo_inurba_marseille","lat":43.29867,"lon":5.39729,"is_reserved":false,"is_disabled":false,"rental_uris":{"android":"levelo://app?vid=fd770e7c-df5b-4317-8212-d9408fa91951","ios":"levelo://app?vid=fd770e7c-df5b-4317-8212-d9408fa91951"},"vehicle_type_id":"4","last_reported":1750184083,"current_range_meters":19200,"station_id":"ce4bh0h2rcd13ifvqd50","pricing_plan_id":"cebpf4jnsgd1na2vs0mg"},{"bike_id":"608f8321-3a0a-4f7d-9fee-ae7a7885bc1c","system_id":"levelo_inurba_marseille","lat":43.29017,"lon":5.38134,"is_reserved":false,"is_disabled":false,"rental_uris":{"android":"levelo://app?vid=608f8321-3a0a-4f7d-9fee-ae7a7885bc1c","ios":"levelo://app?vid=608f8321-3a0a-4f7d-9fee-ae7a7885bc1c"},"vehicle_type_id":"4","last_reported":1750184083,"current_range_meters":19200,"station_id":"ce4bh4p2rcd13ifvqe1g","pricing_plan_id":"cebpf4jnsgd1na2vs0mg"},{"bike_id":"4f73a9ff-9dbd-493f-a61a-85dbc77cac04","system_id":"levelo_inurba_marseille","lat":43.289574,"lon":5.383782,"is_reserved":false,"is_disabled":false,"rental_uris":{"android":"levelo://app?vid=4f73a9ff-9dbd-493f-a61a-85dbc77cac04","ios":"levelo://app?vid=4f73a9ff-9dbd-493f-a61a-85dbc77cac04"},"vehicle_type_id":"4","last_reported":1750184083,"current_range_meters":19200,"station_id":"ce4bh612rcd13ifvqe6g","pricing_plan_id":"cebpf4jnsgd1na2vs0mg"},{"bike_id":"acdb666a-61cf-4d85-9184-29699061c9bf","system_id":"levelo_inurba_marseille","lat":43.28424,"lon":5.3498,"is_reserved":false,"is_disabled":false,"rental_uris":{"android":"levelo://app?vid=acdb666a-61cf-4d85-9184-29699061c9bf","ios":"levelo://app?vid=acdb666a-61cf-4d85-9184-29699061c9bf"},"vehicle_type_id":"4","last_reported":1750184083,"current_range_meters":19200,"station_id":"ce4bhbh2rcd13ifvqepg","pricing_plan_id":"cebpf4jnsgd1na2vs0mg"},{"bike_id":"a6e0c645-b8fb-43cf-a604-072cc870798a","system_id":"levelo_inurba_marseille","lat":43.28432,"lon":5.34979,"is_reserved":false,"is_disabled":false,"rental_uris":{"android":"levelo://app?vid=a6e0c645-b8fb-43cf-a604-072cc870798a","ios":"levelo://app?vid=a6e0c645-b8fb-43cf-a604-072cc870798a"},"vehicle_type_id":"4","last_reported":1750184083,"current_range_meters":19200,"station_id":"ce4bhbh2rcd13ifvqepg","pricing_plan_id":"cebpf4jnsgd1na2vs0mg"},{"bike_id":"7d323fe3-a48f-41da-8026-436298dd6903","system_id":"levelo_inurba_marseille","lat":43.28415,"lon":5.34994,"is_reserved":false,"is_disabled":false,"rental_uris":{"android":"levelo://app?vid=7d323fe3-a48f-41da-8026-436298dd6903","ios":"levelo://app?vid=7d323fe3-a48f-41da-8026-436298dd6903"},"vehicle_type_id":"4","last_reported":1750184083,"current_range_meters":19200,"station_id":"ce4bhbh2rcd13ifvqepg","pricing_plan_id":"cebpf4jnsgd1na2vs0mg"},{"bike_id":"b242a622-7fab-40d3-ae44-a212db7990a5","system_id":"levelo_inurba_marseille","lat":43.27906,"lon":5.39596,"is_reserved":false,"is_disabled":false,"rental_uris":{"android":"levelo://app?vid=b242a622-7fab-40d3-ae44-a212db7990a5","ios":"levelo://app?vid=b242a622-7fab-40d3-ae44-a212db7990a5"},"vehicle_type_id":"4","last_reported":1750184083,"current_range_meters":19200,"station_id":"ce4bhf92rcd13ifvqf40","pricing_plan_id":"cebpf4jnsgd1na2vs0mg"},{"bike_id":"f6ea18f4-d77c-4843-ab66-bba6fb8a9a88","system_id":"levelo_inurba_marseille","lat":43.25107,"lon":5.4032,"is_reserved":false,"is_disabled":false,"rental_uris":{"android":"levelo://app?vid=f6ea18f4-d77c-4843-ab66-bba6fb8a9a88","ios":"levelo://app?vid=f6ea18f4-d77c-4843-ab66-bba6fb8a9a88"},"vehicle_type_id":"4","last_reported":1750184083,"current_range_meters":19200,"station_id":"ce4bhlh2rcd13ifvqgig","pricing_plan_id":"cebpf4jnsgd1na2vs0mg"},{"bike_id":"a44ba06e-c79f-4f7d-9250-76e665d28f4c","system_id":"levelo_inurba_marseille","lat":43.24172,"lon":5.36396,"is_reserved":false,"is_disabled":false,"rental_uris":{"android":"levelo://app?vid=a44ba06e-c79f-4f7d-9250-76e665d28f4c","ios":"levelo://app?vid=a44ba06e-c79f-4f7d-9250-76e665d28f4c"},"vehicle_type_id":"4","last_reported":1750184083,"current_range_meters":19200,"station_id":"cpo36qri1sfpv3e86is0","pricing_plan_id":"cebpf4jnsgd1na2vs0mg"},{"bike_id":"28701354-04db-4ccd-965d-529bbc82fcd5","system_id":"levelo_inurba_marseille","lat":43.21202,"lon":5.35052,"is_reserved":false,"is_disabled":false,"rental_uris":{"android":"levelo://app?vid=28701354-04db-4ccd-965d-529bbc82fcd5","ios":"levelo://app?vid=28701354-04db-4ccd-965d-529bbc82fcd5"},"vehicle_type_id":"4","last_reported":1750184083,"current_range_meters":19200,"station_id":"st_cvj6sg6p6f1abm77japg","pricing_plan_id":"cebpf4jnsgd1na2vs0mg"},