{"last_updated":1739175183,"ttl":60,"version":"2.2","data":{"bikes":[{"bike_id":"9b232bcd-84e3-4ef9-b08f-211b12d665ca","system_id":"levelo_inurba_marseille","lat":43.29861,"lon":5.36304,"is_reserved":false,"is_disabled":false,"rental_uris":{"android":"levelo://app?vid=9b232bcd-84e3-4ef9-b08f-211b12d665ca","ios":"levelo://app?vid=9b232bcd-84e3-4ef9-b08f-211b12d665ca"},"vehicle_type_id":"4","last_reported":1739175183,"current_range_meters":30400,"station_id":"ce4bgpp2rcd13ifvqc3g","pricing_plan_id":"cebpf4jnsgd1na2vs0mg"},{"bike_id":"dc69b6ce-4f29-41fc-bb71-87b19b25f9f1","system_id":"levelo_inurba_marseille","lat":43.30471,"lon":5.37901,"is_reserved":false,"is_disabled":false,"rental_uris":{"android":"levelo://app?vid=dc69b6ce-4f29-41fc-bb71-87b19b25f9f1","ios":"levelo://app?vid=dc69b6ce-4f29-41fc-bb71-87b19b25f9f1"},"vehicle_type_id":"4","last_reported":1739175183,"current_range_meters":14400,"station_id":"ce4bgup2rcd13ifvqcn0","pricing_plan_id":"cebpf4jnsgd1na2vs0mg"},{"bike_id":"9144fded-e5c8-4434-a033-6a7428b34557","system_id":"levelo_inurba_marseille","lat":43.23966,"lon":5.36633,"is_reserved":false,"is_disabled":false,"rental_uris":{"android":"levelo://app?vid=9144fded-e5c8-4434-a033-6a7428b34557","ios":"levelo://app?vid=9144fded-e5c8-4434-a033-6a7428b34557"},"vehicle_type_id":"4","last_reported":1739175183,"current_range_meters":9200,"station_id":"ce4bhi12rcd13ifvqfp0","pricing_plan_id":"cebpf4jnsgd1na2vs0mg"},{"bike_id":"cfa7f1cc-5150-48ed-843c-f6960ddad1e1","system_id":"levelo_inurba_marseille","lat":43.26476,"lon":5.39566,"is_reserved":false,"is_disabled":true,"rental_uris":{"android":"levelo://app?vid=cfa7f1cc-5150-48ed-843c-f6960ddad1e1","ios":"levelo://app?vid=cfa7f1cc-5150-48ed-843c-f6960ddad1e1"},"vehicle_type_id":"4","last_reported":1739175183,"current_range_meters":6400,"station_id":"ce4bhi12rcd13ifvqfq0","pricing_plan_id":"cebpf4jnsgd1na2vs0mg"},{"bike_id":"222ed28d-f68c-48a1-8141-246ac0d9571f","system_id":"levelo_inurba_marseille","lat":43.30137,"lon":5.37426,"is_reserved":false,"is_disabled":false,"rental_uris":{"android":"levelo://app?vid=222ed28d-f68c-48a1-8141-246ac0d9571f","ios":"levelo://app?vid=222ed28d-f68c-48a1-8141-246ac0d9571f"},"vehicle_type_id":"4","last_reported":1739175183,"current_range_meters":38000,"station_id":"ce4bgs92rcd13ifvqcc0","pricing_plan_id":"cebpf4jnsgd1na2vs0mg"},{"bike_id":"a7cfb898-c168-4772-adb6-d7ea991ef424","system_id":"levelo_inurba_marseille","lat":43.243943,"lon":5.370485,"is_reserved":false,"is_disabled":false,"rental_uris":{"android":"levelo://app?vid=a7cfb898-c168-4772-adb6-d7ea991ef424","ios":"levelo://app?vid=a7cfb898-c168-4772-adb6-d7ea991ef424"},"vehicle_type_id":"4","last_reported":1739175183,"current_range_meters":37600,"station_id":"ce4bhhh2rcd13ifvqfk0","pricing_plan_id":"cebpf4jnsgd1na2vs0mg"},{"bike_id":"cd0ebd4f-6385-4615-8d6b-6b3cfeed5bc2","system_id":"levelo_inurba_marseille","lat":43.26771,"lon":5.39416,"is_reserved":false,"is_disabled":false,"rental_uris":{"android":"levelo://app?vid=cd0ebd4f-6385-4615-8d6b-6b3cfeed5bc2","ios":"levelo://app?vid=cd0ebd4f-6385-4615-8d6b-6b3cfeed5bc2"},"vehicle_type_id":"4","last_reported":1739175183,"current_range_meters":39200,"station_id":"ce4bhh12rcd13ifvqfg0","pricing_plan_id":"cebpf4jnsgd1na2vs0mg"},{"bike_id":"c821a5a7-7d37-4ed1-9337-8dde6a7c2aeb","system_id":"levelo_inurba_marseille","lat":43.32045,"lon":5.41545,"is_reserved":false,"is_disabled":false,"rental_uris":{"android":"levelo://app?vid=c821a5a7-7d37-4ed1-9337-8dde6a7c2aeb","ios":"levelo://app?vid=c821a5a7-7d37-4ed1-9337-8dde6a7c2aeb"},"vehicle_type_id":"4","last_reported":1739175183,"current_range_meters":39200,"station_id":"ce4bhq92rcd13ifvqhkg","pricing_plan_id":"cebpf4jnsgd1na2vs0mg"},{"bike_id":"ceb4f42b-4e2d-4180-924f-a68210d62481","system_id":"levelo_inurba_marseille","lat":43.2603,"lon":5.37544,"is_reserved":false,"is_disabled":false,"rental_uris":{"android":"levelo://app?vid=ceb4f42b-4e2d-4180-924f-a68210d62481","ios":"levelo://app?vid=ceb4f42b-4e2d-4180-924f-a68210d62481"},"vehicle_type_id":"4","last_reported":1739175183,"current_range_meters":36000,"station_id":"ce4bhgh2rcd13ifvqfa0","pricing_plan_id":"cebpf4jnsgd1na2vs0mg"},{"bike_id":"6c9af85d-aff4-47b9-9e99-a7f056838eeb","system_id":"levelo_inurba_marseille","lat":43.31706,"lon":5.37737,"is_reserved":false,"is_disabled":false,"rental_uris":{"android":"levelo://app?vid=6c9af85d-aff4-47b9-9e99-a7f056838eeb","ios":"levelo://app?vid=6c9af85d-aff4-47b9-9e99-a7f056838eeb"},"vehicle_type_id":"4","last_reported":1739175183,"current_range_meters":35600,"station_id":"ce4bgth2rcd13ifvqch0","pricing_plan_id":"cebpf4jnsgd1na2vs0mg"},{"bike_id":"952ab6ee-c71f-431a-a116-28c771dc3a24","system_id":"levelo_inurba_marseille","lat":43.27946,"lon":5.41045,"is_reserved":false,"is_disabled":true,"rental_uris":{"android":"levelo://app?vid=952ab6ee-c71f-431a-a116-28c771dc3a24","ios":"levelo://app?vid=952ab6ee-c71f-431a-a116-28c771dc3a24"},"vehicle_type_id":"4","last_reported":1739175183,"current_range_meters":0,"station_id":"ce4bhnp2rcd13ifvqh0g","pricing_plan_id":"cebpf4jnsgd1na2vs0mg"},{"bike_id":"d2ca646d-6c43-44e0-9ebb-f44c4b2c8ad4","system_id":"levelo_inurba_marseille","lat":43.33595,"lon":5.40959,"is_reserved":false,"is_disabled":false,"rental_uris":{"android":"levelo://app?vid=d2ca646d-6c43-44e0-9ebb-f44c4b2c8ad4","ios":"levelo://app?vid=d2ca646d-6c43-44e0-9ebb-f44c4b2c8ad4"},"vehicle_type_id":"4","last_reported":1739175183,"current_range_meters":19200,"station_id":"ce4bhqh2rcd13ifvqhmg","pricing_plan_id":"cebpf4jnsgd1na2vs0mg"},{"bike_id":"666c88b7-919a-45fe-b6a0-eceee0aaa826","system_id":"levelo_inurba_marseille","lat":43.30942,"lon":5.39041,"is_reserved":false,"is_disabled":false,"rental_uris":{"android":"levelo://app?vid=666c88b7-919a-45fe-b6a0-eceee0aaa826","ios":"levelo://app?vid=666c88b7-919a-45fe-b6a0-eceee0aaa826"},"vehicle_type_id":"4","last_reported":1739175183,"current_range_meters":10000,"station_id":"","pricing_plan_id":"cebpf4jnsgd1na2vs0mg"},{"bike_id":"dc3d08fc-10d7-48db-9b08-700191c05140","system_id":"levelo_inurba_marseille","lat":43.31687,"lon":5.40479,"is_reserved":false,"is_disabled":false,"rental_uris":{"android":"levelo://app?vid=dc3d08fc-10d7-48db-9b08-700191c05140","ios":"levelo://app?vid=dc3d08fc-10d7-48db-9b08-700191c05140"},"vehicle_type_id":"4","last_reported":1739175183,"current_range_meters":39200,"station_id":"ce4bh012rcd13ifvqd00","pricing_plan_id":"cebpf4jnsgd1na2vs0mg"},{"bike_id":"ead7d9be-8861-4014-859d-1d39a9641d37","system_id":"levelo_inurba_marseille","lat":43.29026,"lon":5.39992,"is_reserved":false,"is_disabled":false,"rental_uris":{"android":"levelo://app?vid=ead7d9be-8861-4014-859d-1d39a9641d37","ios":"levelo://app?vid=ead7d9be-8861-4014-859d-1d39a9641d37"},"vehicle_type_id":"4","last_reported":1739175183,"current_range_meters":38800,"station_id":"ce4bh392rcd13ifvqdm0","pricing_plan_id":"cebpf4jnsgd1na2vs0mg"},{"bike_id":"7d6642d0-4bac-41a9-ba01-0629752fea58","system_id":"levelo_inurba_marseille","lat":43.24664,"lon":5.38169,"is_reserved":false,"is_disabled":false,"rental_uris":{"android":"levelo://app?vid=7d6642d0-4bac-41a9-ba01-0629752fea58","ios":"levelo://app?vid=7d6642d0-4bac-41a9-ba01-0629752fea58"},"vehicle_type_id":"4","last_reported":1739175183,"current_range_meters":29600,"station_id":"ce4bhih2rcd13ifvqfr0","pricing_plan_id":"cebpf4jnsgd1na2vs0mg"},{"bike_id":"f65fd210-0eee-483d-9358-a299c163c8fd","system_id":"levelo_inurba_marseille","lat":43.31699,"lon":5.4045,"is_reserved":false,"is_disabled":false,"rental_uris":{"android":"levelo://app?vid=f65fd210-0eee-483d-9358-a299c163c8fd","ios":"levelo://app?vid=f65fd210-0eee-483d-9358-a299c163c8fd"},"vehicle_type_id":"4","last_reported":1739175183,"current_range_meters":39200,"station_id":"ce4bh012rcd13ifvqd00","pricing_plan_id":"cebpf4jnsgd1na2vs0mg"},{"bike_id":"41bc75aa-152b-48ff-a3dd-f4a228db5b81","system_id":"levelo_inurba_marseille","lat":43.3048,"lon":5.37899,"is_reserved":false,"is_disabled":false,"rental_uris":{"android":"levelo://app?vid=41bc75aa-152b-48ff-a3dd-f4a228db5b81","ios":"levelo://app?vid=41bc75aa-152b-48ff-a3dd-f4a228db5b81"},"vehicle_type_id":"4","last_reported":1739175183,"current_range_meters":38000,"station_id":"ce4bgup2rcd13ifvqcn0","pricing_plan_id":"cebpf4jnsgd1na2vs0mg"},{"bike_id":"4092ba49-55a1-4211-801e-d9c19102761b","system_id":"levelo_inurba_marseille","lat":43.30912,"lon":5.3686,"is_reserved":false,"is_disabled":false,"rental_uris":{"android":"levelo://app?vid=4092ba49-55a1-4211-801e-d9c19102761b","ios":"levelo://app?vid=4092ba49-55a1-4211-801e-d9c19102761b"},"vehicle_type_id":"4","last_reported":1739175183,"current_range_meters":39200,"station_id":"ce4bgn92rcd13ifvqbvg","pricing_plan_id":"cebpf4jnsgd1na2vs0mg"},{"bike_id":"27b79768-bfb5-4acf-aea3-498440a8fca1","system_id":"levelo_inurba_marseille","lat":43.30948,"lon":5.39042,"is_reserved":false,"is_disabled":false,"rental_uris":{"android":"levelo://app?vid=27b79768-bfb5-4acf-aea3-498440a8fca1","ios":"levelo://app?vid=27b79768-bfb5-4acf-aea3-498440a8fca1"},"vehicle_type_id":"4","last_reported":1739175183,"current_range_meters":11200,"station_id":"","pricing_plan_id":"cebpf4jnsgd1na2vs0mg"},{"bike_id":"7997428c-3fb5-43eb-8b41-6fd0852fe719","system_id":"levelo_inurba_marseille","lat":43.30529,"lon":5.36704,"is_reserved":false,"is_disabled":false,"rental_uris":{"android":"levelo://app?vid=7997428c-3fb5-43eb-8b41-6fd0852fe719","ios":"levelo://app?vid=7997428c-3fb5-43eb-8b41-6fd0852fe719"},"vehicle_type_id":"4","last_reported":1739175183,"current_range_meters":27600,"station_id":"ce4bgrp2rcd13ifvqc9g","pricing_plan_id":"cebpf4jnsgd1na2vs0mg"},{"bike_id":"4cc91565-c8c4-4dd8-85ce-4d4cb41d1ffc","system_id":"levelo_inurba_marseille","lat":43.28158,"lon":5.42648,"is_reserved":false,"is_disabled":false,"rental_uris":{"android":"levelo://app?vid=4cc91565-c8c4-4dd8-85ce-4d4cb41d1ffc","ios":"levelo://app?vid=4cc91565-c8c4-4dd8-85ce-4d4cb41d1ffc"},"vehicle_type_id":"4","last_reported":1739175183,"current_range_meters":38800,"station_id":"ce4bhnh2rcd13ifvqgug","pricing_plan_id":"cebpf4jnsgd1na2vs0mg"},{"bike_id":"734ad8ef-8f3b-4a01-b800-99f2e0cd8cb3","system_id":"levelo_inurba_marseille","lat":43.28571,"lon":5.36757,"is_reserved":false,"is_disabled":false,"rental_uris":{"android":"levelo://app?vid=734ad8ef-8f3b-4a01-b800-99f2e0cd8cb3","ios":"levelo://app?vid=734ad8ef-8f3b-4a01-b800-99f2e0cd8cb3"},"vehicle_type_id":"4","last_reported":1739175183,"current_range_meters":19600,"station_id":"","pricing_plan_id":"cebpf4jnsgd1na2vs0mg"},{"bike_id":"ab477c97-eb80-4558-9f73-598dbf16e965","system_id":"levelo_inurba_marseille","lat":43.296,"lon":5.36778,"is_reserved":false,"is_disabled":false,"rental_uris":{"android":"levelo://app?vid=ab477c97-eb80-4558-9f73-598dbf16e965","ios":"levelo://app?vid=ab477c97-eb80-4558-9f73-598dbf16e965"},"vehicle_type_id":"4","last_reported":1739175183,"current_range_meters":12800,"station_id":"ce4bgph2rcd13ifvqc2g","pricing_plan_id":"cebpf4jnsgd1na2vs0mg"},{"bike_id":"a17095f2-038f-4d81-998a-692f9ca70941","system_id":"levelo_inurba_marseille","lat":43.25496,"lon":5.3765,"is_reserved":false,"is_disabled":false,"rental_uris":{"android":"levelo://app?vid=a17095f2-038f-4d81-998a-692f9ca70941","ios":"levelo://app?vid=a17095f2-038f-4d81-998a-692f9ca70941"},"vehicle_type_id":"4","last_reported":1739175183,"current_range_meters":35200,"station_id":"ce4bhh12rcd13ifvqff0","pricing_plan_id":"cebpf4jnsgd1na2vs0mg"},{"bike_id":"bf1166a6-6d02-4b59-a461-8ee8d9697ddf","system_id":"levelo_inurba_marseille","lat":43.239584,"lon":5.366394,"is_reserved":false,"is_disabled":false,"rental_uris":{"android":"levelo://app?vid=bf1166a6-6d02-4b59-a461-8ee8d9697ddf","ios":"levelo://app?vid=bf1166a6-6d02-4b59-a461-8ee8d9697ddf"},"vehicle_type_id":"4","last_reported":1739175183,"current_range_meters":38000,"station_id":"ce4bhi12rcd13ifvqfp0","pricing_plan_id":"cebpf4jnsgd1na2vs0mg"},{"bike_id":"aa225991-345f-42dc-a7e3-708559444558","system_id":"levelo_inurba_marseille","lat":43.26188,"lon":5.37455,"is_reserved":false,"is_disabled":false,"rental_uris":{"android":"levelo://app?vid=aa225991-345f-42dc-a7e3-708559444558","ios":"levelo://app?vid=aa225991-345f-42dc-a7e3-708559444558"},"vehicle_type_id":"4","last_reported":1739175183,"current_range_meters":23200,"station_id":"ce4bhgp2rcd13ifvqfc0","pricing_plan_id":"cebpf4jnsgd1na2vs0mg"},{"bike_id":"8ab565bb-edc8-400e-b6e5-ed21342a5e2c","system_id":"levelo_inurba_marseille","lat":43.30149,"lon":5.38093,"is_reserved":false,"is_disabled":false,"rental_uris":{"android":"levelo://app?vid=8ab565bb-edc8-400e-b6e5-ed21342a5e2c","ios":"levelo://app?vid=8ab565bb-edc8-400e-b6e5-ed21342a5e2c"},"vehicle_type_id":"4","last_reported":1739175183,"current_range_meters":38000,"station_id":"ce4bgjp2rcd13ifvqbh0","pricing_plan_id":"cebpf4jnsgd1na2vs0mg"},{"bike_id":"c7214087-f338-4aa0-87d4-4c782ee32a35","system_id":"levelo_inurba_marseille","lat":43.2395,"lon":5.36657,"is_reserved":false,"is_disabled":false,"rental_uris":{"android":"levelo://app?vid=c7214087-f338-4aa0-87d4-4c782ee32a35","ios":"levelo://app?vid=c7214087-f338-4aa0-87d4-4c782ee32a35"},"vehicle_type_id":"4","last_reported":1739175183,"current_range_meters":38800,"station_id":"ce4bhi12rcd13ifvqfp0","pricing_plan_id":"cebpf4jnsgd1na2vs0mg"},{"bike_id":"4d8ba0f5-a051-4c5a-af9b-cb00943bc7b0","system_id":"levelo_inurba_marseille","lat":43.2904,"lon":5.39972,"is_reserved":false,"is_disabled":false,"rental_uris":{"android":"levelo://app?vid=4d8ba0f5-a051-4c5a-af9b-cb00943bc7b0","ios":"levelo://app?vid=4d8ba0f5-a051-4c5a-af9b-cb00943bc7b0"},"vehicle_type_id":"4","last_reported":1739175183,"current_range_meters":36800,"station_id":"ce4bh392rcd13ifvqdm0","pricing_plan_id":"cebpf4jnsgd1na2vs0mg"},{"bike_id":"af55f1fc-5910-411f-aec3-e5875e014fcd","system_id":"levelo_inurba_marseille","lat":43.2722,"lon":5.39181,"is_reserved":false,"is_disabled":false,"rental_uris":{"android":"levelo://app?vid=af55f1fc-5910-411f-aec3-e5875e014fcd","ios":"levelo://app?vid=af55f1fc-5910-411f-aec3-e5875e014fcd"},"vehicle_type_id":"4","last_reported":1739175183,"current_range_meters":10800,"station_id":"ce4bhhp2rcd13ifvqfm0","pricing_plan_id":"cebpf4jnsgd1na2vs0mg"},{"bike_id":"65a7c23e-796e-448a-9c20-43066b092b67","system_id":"levelo_inurba_marseille","lat":43.23966,"lon":5.3665,"is_reserved":false,"is_disabled":false,"rental_uris":{"android":"levelo://app?vid=65a7c23e-796e-448a-9c20-43066b092b67","ios":"levelo://app?vid=65a7c23e-796e-448a-9c20-43066b092b67"},"vehicle_type_id":"4","last_reported":1739175183,"current_range_meters":26800,"station_id":"ce4bhi12rcd13ifvqfp0","pricing_plan_id":"cebpf4jnsgd1na2vs0mg"},{"bike_id":"caa5df8d-7e03-466c-a218-989234e1b71c","system_id":"levelo_inurba_marseille","lat":43.32369,"lon":5.36761,"is_reserved":false,"is_disabled":false,"rental_uris":{"android":"levelo://app?vid=caa5df8d-7e03-466c-a218-989234e1b71c","ios":"levelo://app?vid=caa5df8d-7e03-466c-a218-989234e1b71c"},"vehicle_type_id":"4","last_reported":1739175183,"current_range_meters":33600,"station_id":"ce4bhsh2rcd13ifvqi2g","pricing_plan_id":"cebpf4jnsgd1na2vs0mg"},{"bike_id":"a0c84242-d232-4566-8480-8864106a62c0","system_id":"levelo_inurba_marseille","lat":43.28266,"lon":5.35062,"is_reserved":false,"is_disabled":false,"rental_uris":{"android":"levelo://app?vid=a0c84242-d232-4566-8480-8864106a62c0","ios":"levelo://app?vid=a0c84242-d232-4566-8480-8864106a62c0"},"vehicle_type_id":"4","last_reported":1739175183,"current_range_meters":14800,"station_id":"ce4bhbp2rcd13ifvqerg","pricing_plan_id":"cebpf4jnsgd1na2vs0mg"},{"bike_id":"2d6a2e4c-47bb-4bf8-8e22-1e9c987f8b16","system_id":"levelo_inurba_marseille","lat":43.2396,"lon":5.36639,"is_reserved":false,"is_disabled":false,"rental_uris":{"android":"levelo://app?vid=2d6a2e4c-47bb-4bf8-8e22-1e9c987f8b16","ios":"levelo://app?vid=2d6a2e4c-47bb-4bf8-8e22-1e9c987f8b16"},"vehicle_type_id":"4","last_reported":1739175183,"current_range_meters":38000,"station_id":"ce4bhi12rcd13ifvqfp0","pricing_plan_id":"cebpf4jnsgd1na2vs0mg"},{"bike_id":"605b43cc-2917-4b41-830c-35183c4d48dc","system_id":"levelo_inurba_marseille","lat":43.255815,"lon":5.382379,"is_reserved":false,"is_disabled":false,"rental_uris":{"android":"levelo://app?vid=605b43cc-2917-4b41-830c-35183c4d48dc","ios":"levelo://app?vid=605b43cc-2917-4b41-830c-35183c4d48dc"},"vehicle_type_id":"4","last_reported":1739175183,"current_range_meters":22400,"station_id":"ce4bhih2rcd13ifvqfs0","pricing_plan_id":"cebpf4jnsgd1na2vs0mg"},{"bike_id":"176cd7ea-f787-417a-8fa0-585f194a28e8","system_id":"levelo_inurba_marseille","lat":43.27859,"lon":5.39207,"is_reserved":false,"is_disabled":false,"rental_uris":{"android":"levelo://app?vid=176cd7ea-f787-417a-8fa0-585f194a28e8","ios":"levelo://app?vid=176cd7ea-f787-417a-8fa0-585f194a28e8"},"vehicle_type_id":"4","last_reported":1739175183,"current_range_meters":4800,"station_id":"ce4bhjp2rcd13ifvqga0","pricing_plan_id":"cebpf4jnsgd1na2vs0mg"},{"bike_id":"7dcbe0b9-0e25-410c-a9e9-55d48978ea00","system_id":"levelo_inurba_marseille","lat":43.30552,"lon":5.36688,"is_reserved":false,"is_disabled":false,"rental_uris":{"android":"levelo://app?vid=7dcbe0b9-0e25-410c-a9e9-55d48978ea00","ios":"levelo://app?vid=7dcbe0b9-0e25-410c-a9e9-55d48978ea00"},"vehicle_type_id":"4","last_reported":1739175183,"current_range_meters":30800,"station_id":"ce4bhs12rcd13ifvqhvg","pricing_plan_id":"cebpf4jnsgd1na2vs0mg"},{"bike_id":"a0522417-36fc-4abc-b26e-481d978b4ac9","system_id":"levelo_inurba_marseille","lat":43.29378,"lon":5.37879,"is_reserved":false,"is_disabled":false,"rental_uris":{"android":"levelo://app?vid=a0522417-36fc-4abc-b26e-481d978b4ac9","ios":"levelo://app?vid=a0522417-36fc-4abc-b26e-481d978b4ac9"},"vehicle_type_id":"4","last_reported":1739175183,"current_range_meters":38000,"station_id":"ce4bgjh2rcd13ifvqbf0","pricing_plan_id":"cebpf4jnsgd1na2vs0mg"},{"bike_id":"3ba26bce-5451-4186-8570-150535f6ec60","system_id":"levelo_inurba_marseille","lat":43.29191,"lon":5.3581,"is_reserved":false,"is_disabled":true,"rental_uris":{"android":"levelo://app?vid=3ba26bce-5451-4186-8570-150535f6ec60","ios":"levelo://app?vid=3ba26bce-5451-4186-8570-150535f6ec60"},"vehicle_type_id":"4","last_reported":1739175183,"current_range_meters":38400,"station_id":"ce4bhb12rcd13ifvqel0","pricing_plan_id":"cebpf4jnsgd1na2vs0mg"},{"bike_id":"81395efd-e057-4d4b-ad98-945a65f7f2fb","system_id":"levelo_inurba_marseille","lat":43.25934,"lon":5.40911,"is_reserved":false,"is_disabled":false,"rental_uris":{"android":"levelo://app?vid=81395efd-e057-4d4b-ad98-945a65f7f2fb","ios":"levelo://app?vid=81395efd-e057-4d4b-ad98-945a65f7f2fb"},"vehicle_type_id":"4","last_reported":1739175183,"current_range_meters":14000,"station_id":"ce4bhm92rcd13ifvqglg","pricing_plan_id":"cebpf4jnsgd1na2vs0mg"},{"bike_id":"f7664c8b-6032-41b2-9355-bc31c4ae36c6","system_id":"levelo_inurba_marseille","lat":43.30917,"lon":5.36849,"is_reserved":false,"is_disabled":false,"rental_uris":{"android":"levelo://app?vid=f7664c8b-6032-41b2-9355-bc31c4ae36c6","ios":"levelo://app?vid=f7664c8b-6032-41b2-9355-bc31c4ae36c6"},"vehicle_type_id":"4","last_reported":1739175183,"current_range_meters":38800,"station_id":"ce4bgn92rcd13ifvqbvg","pricing_plan_id":"cebpf4jnsgd1na2vs0mg"},{"bike_id":"474b2b53-423a-41c0-972d-ef66966d1287","system_id":"levelo_inurba_marseille","lat":43.26561,"lon":5.37306,"is_reserved":false,"is_disabled":false,"rental_uris":{"android":"levelo://app?vid=474b2b53-423a-41c0-972d-ef66966d1287","ios":"levelo://app?vid=474b2b53-423a-41c0-972d-ef66966d1287"},"vehicle_type_id":"4","last_reported":1739175183,"current_range_meters":30800,"station_id":"ce4bhg12rcd13ifvqf70","pricing_plan_id":"cebpf4jnsgd1na2vs0mg"},{"bike_id":"f6e2a094-f68f-404b-8aa4-b6ac30edba92","system_id":"levelo_inurba_marseille","lat":43.25935,"lon":5.40911,"is_reserved":false,"is_disabled":false,"rental_uris":{"android":"levelo://app?vid=f6e2a094-f68f-404b-8aa4-b6ac30edba92","ios":"levelo://app?vid=f6e2a094-f68f-404b-8aa4-b6ac30edba92"},"vehicle_type_id":"4","last_reported":1739175183,"current_range_meters":25600,"station_id":"ce4bhm92rcd13ifvqglg","pricing_plan_id":"cebpf4jnsgd1na2vs0mg"},{"bike_id":"eeada6f9-bc17-47bf-a657-75c63cc565ad","system_id":"levelo_inurba_marseille","lat":43.29007,"lon":5.356085,"is_reserved":false,"is_disabled":true,"rental_uris":{"android":"levelo://app?vid=eeada6f9-bc17-47bf-a657-75c63cc565ad","ios":"levelo://app?vid=eeada6f9-bc17-47bf-a657-75c63cc565ad"},"vehicle_type_id":"4","last_reported":1739175183,"current_range_meters":36400,"station_id":"ce4bhb92rcd13ifvqen0","pricing_plan_id":"cebpf4jnsgd1na2vs0mg"},{"bike_id":"9fad6b6a-c6c6-4faa-9121-4f670cab03f5","system_id":"levelo_inurba_marseille","lat":43.3301,"lon":5.39044,"is_reserved":false,"is_disabled":false,"rental_uris":{"android":"levelo://app?vid=9fad6b6a-c6c6-4faa-9121-4f670cab03f5","ios":"levelo://app?vid=9fad6b6a-c6c6-4faa-9121-4f670cab03f5"},"vehicle_type_id":"4","last_reported":1739175183,"current_range_meters":37600,"station_id":"ce4bhr92rcd13ifvqhrg","pricing_plan_id":"cebpf4jnsgd1na2vs0mg"},{"bike_id":"2ebd233c-fd15-4f13-9700-c155c053523f","system_id":"levelo_inurba_marseille","lat":43.25911,"lon":5.40909,"is_reserved":false,"is_disabled":true,"rental_uris":{"android":"levelo://app?vid=2ebd233c-fd15-4f13-9700-c155c053523f","ios":"levelo://app?vid=2ebd233c-fd15-4f13-9700-c155c053523f"},"vehicle_type_id":"4","last_reported":1739175183,"current_range_meters":14800,"station_id":"ce4bhm92rcd13ifvqglg","pricing_plan_id":"cebpf4jnsgd1na2vs0mg"},{"bike_id":"3cec9b73-5754-4090-b335-cfb9fae89528","system_id":"levelo_inurba_marseille","lat":43.30458,"lon":5.37899,"is_reserved":false,"is_disabled":false,"rental_uris":{"android":"levelo://app?vid=3cec9b73-5754-4090-b335-cfb9fae89528","ios":"levelo://app?vid=3cec9b73-5754-4090-b335-cfb9fae89528"},"vehicle_type_id":"4","last_reported":1739175183,"current_range_meters":28800,"station_id":"ce4bgup2rcd13ifvqcn0","pricing_plan_id":"cebpf4jnsgd1na2vs0mg"},{"bike_id":"be380a6b-c9c9-4b46-8385-5a09eaa3ab35","system_id":"levelo_inurba_marseille","lat":43.27068,"lon":5.4228,"is_reserved":false,"is_disabled":false,"rental_uris":{"android":"levelo://app?vid=be380a6b-c9c9-4b46-8385-5a09eaa3ab35","ios":"levelo://app?vid=be380a6b-c9c9-4b46-8385-5a09eaa3ab35"},"vehicle_type_id":"4","last_reported":1739175183,"current_range_meters":39200,"station_id":"ce4bhk92rcd13ifvqgb0","pricing_plan_id":"cebpf4jnsgd1na2vs0mg"},{"bike_id":"d415a4d3-8eac-442d-b68c-547e0ba97d1b","system_id":"levelo_inurba_marseille","lat":43.27978,"lon":5.44208,"is_reserved":false,"is_disabled":false,"rental_uris":{"android":"levelo://app?vid=d415a4d3-8eac-442d-b68c-547e0ba97d1b","ios":"levelo://app?vid=d415a4d3-8eac-442d-b68c-547e0ba97d1b"},"vehicle_type_id":"4","last_reported":1739175183,"current_range_meters":4400,"station_id":"","pricing_plan_id":"cebpf4jnsgd1na2vs0mg"},{"bike_id":"e3754be0-a936-4ca0-a876-8936c8812fa0","system_id":"levelo_inurba_marseille","lat":43.30945,"lon":5.39046,"is_reserved":false,"is_disabled":false,"rental_uris":{"android":"levelo://app?vid=e3754be0-a936-4ca0-a876-8936c8812fa0","ios":"levelo://app?vid=e3754be0-a936-4ca0-a876-8936c8812fa0"},"vehicle_type_id":"4","last_reported":1739175183,"current_range_meters":22800,"station_id":"","pricing_plan_id":"cebpf4jnsgd1na2vs0mg"},{"bike_id":"c13ae62e-d5d6-4d3f-b979-0be4fe4644ed","system_id":"levelo_inurba_marseille","lat":43.24675,"lon":5.38154,"is_reserved":false,"is_disabled":false,"rental_uris":{"android":"levelo://app?vid=c13ae62e-d5d6-4d3f-b979-0be4fe4644ed","ios":"levelo://app?vid=c13ae62e-d5d6-4d3f-b979-0be4fe4644ed"},"vehicle_type_id":"4","last_reported":1739175183,"current_range_meters":10000,"station_id":"ce4bhih2rcd13ifvqfr0","pricing_plan_id":"cebpf4jnsgd1na2vs0mg"},{"bike_id":"39136f8b-49b9-45bc-b6fd-fec73032d565","system_id":"levelo_inurba_marseille","lat":43.25936,"lon":5.40907,"is_reserved":false,"is_disabled":true,"rental_uris":{"android":"levelo://app?vid=39136f8b-49b9-45bc-b6fd-fec73032d565","ios":"levelo://app?vid=39136f8b-49b9-45bc-b6fd-fec73032d565"},"vehicle_type_id":"4","last_reported":1739175183,"current_range_meters":0,"station_id":"ce4bhm92rcd13ifvqglg","pricing_plan_id":"cebpf4jnsgd1na2vs0mg"},{"bike_id":"bd8ca020-fda8-4805-b382-496c28d5da7f","system_id":"levelo_inurba_marseille","lat":43.30958,"lon":5.39049,"is_reserved":false,"is_disabled":true,"rental_uris":{"android":"levelo://app?vid=bd8ca020-fda8-4805-b382-496c28d5da7f","ios":"levelo://app?vid=bd8ca020-fda8-4805-b382-496c28d5da7f"},"vehicle_type_id":"4","last_reported":1739175183,"current_range_meters":22000,"station_id":"","pricing_plan_id":"cebpf4jnsgd1na2vs0mg"},{"bike_id":"2ba197c5-59fe-4a9c-ba96-b1806efdcd97","system_id":"levelo_inurba_marseille","lat":43.241772,"lon":5.397235,"is_reserved":false,"is_disabled":false,"rental_uris":{"android":"levelo://app?vid=2ba197c5-59fe-4a9c-ba96-b1806efdcd97","ios":"levelo://app?vid=2ba197c5-59fe-4a9c-ba96-b1806efdcd97"},"vehicle_type_id":"4","last_reported":1739175183,"current_range_meters":7200,"station_id":"ce4bhn12rcd13ifvqgpg","pricing_plan_id":"cebpf4jnsgd1na2vs0mg"},{"bike_id":"1d9b9c9d-363a-40b7-904e-bb37859e7849","system_id":"levelo_inurba_marseille","lat":43.24828,"lon":5.37461,"is_reserved":false,"is_disabled":false,"rental_uris":{"android":"levelo://app?vid=1d9b9c9d-363a-40b7-904e-bb37859e7849","ios":"levelo://app?vid=1d9b9c9d-363a-40b7-904e-bb37859e7849"},"vehicle_type_id":"4","last_reported":1739175183,"current_range_meters":20000,"station_id":"ce4bhgh2rcd13ifvqfb0","pricing_plan_id":"cebpf4jnsgd1na2vs0mg"},{"bike_id":"d673d385-256b-4786-9ff8-e7f9b22ac5f8","system_id":"levelo_inurba_marseille","lat":43.239533,"lon":5.366311,"is_reserved":false,"is_disabled":false,"rental_uris":{"android":"levelo://app?vid=d673d385-256b-4786-9ff8-e7f9b22ac5f8","ios":"levelo://app?vid=d673d385-256b-4786-9ff8-e7f9b22ac5f8"},"vehicle_type_id":"4","last_reported":1739175183,"current_range_meters":34000,"station_id":"ce4bhi12rcd13ifvqfp0","pricing_plan_id":"cebpf4jnsgd1na2vs0mg"},{"bike_id":"54447e38-6339-405e-9429-46cb3f7c09bc","system_id":"levelo_inurba_marseille","lat":43.30524,"lon":5.36703,"is_reserved":false,"is_disabled":false,"rental_uris":{"android":"levelo://app?vid=54447e38-6339-405e-9429-46cb3f7c09bc","ios":"levelo://app?vid=54447e38-6339-405e-9429-46cb3f7c09bc"},"vehicle_type_id":"4","last_reported":1739175183,"current_range_meters":30800,"station_id":"ce4bgrp2rcd13ifvqc9g","pricing_plan_id":"cebpf4jnsgd1na2vs0mg"},{"bike_id":"c3297162-1cce-4aee-9ab9-0cb6b8c8d4b6","system_id":"levelo_inurba_marseille","lat":43.29543,"lon":5.42282,"is_reserved":false,"is_disabled":false,"rental_uris":{"android":"levelo://app?vid=c3297162-1cce-4aee-9ab9-0cb6b8c8d4b6","ios":"levelo://app?vid=c3297162-1cce-4aee-9ab9-0cb6b8c8d4b6"},"vehicle_type_id":"4","last_reported":1739175183,"current_range_meters":30800,"station_id":"ce4bhph2rcd13ifvqhdg","pricing_plan_id":"cebpf4jnsgd1na2vs0mg"},{"bike_id":"89912e32-c5f0-448f-82d2-e236e4d6d653","system_id":"levelo_inurba_marseille","lat":43.282614,"lon":5.407769,"is_reserved":false,"is_disabled":true,"rental_uris":{"android":"levelo://app?vid=89912e32-c5f0-448f-82d2-e236e4d6d653","ios":"levelo://app?vid=89912e32-c5f0-448f-82d2-e236e4d6d653"},"vehicle_type_id":"4","last_reported":1739175183,"current_range_meters":0,"station_id":"","pricing_plan_id":"cebpf4jnsgd1na2vs0mg"},{"bike_id":"f41d6147-575a-45b4-9379-d23a375ed6c0","system_id":"levelo_inurba_marseille","lat":43.292328,"lon":5.383218,"is_reserved":false,"is_disabled":true,"rental_uris":{"android":"levelo://app?vid=f41d6147-575a-45b4-9379-d23a375ed6c0","ios":"levelo://app?vid=f41d6147-575a-45b4-9379-d23a375ed6c0"},"vehicle_type_id":"4","last_reported":1739175183,"current_range_meters":28000,"station_id":"","pricing_plan_id":"cebpf4jnsgd1na2vs0mg"},{"bike_id":"4bd291fb-ee92-4d1f-a3ca-beb12487822b","system_id":"levelo_inurba_marseille","lat":43.317019,"lon":5.377821,"is_reserved":false,"is_disabled":false,"rental_uris":{"android":"levelo://app?vid=4bd291fb-ee92-4d1f-a3ca-beb12487822b","ios":"levelo://app?vid=4bd291fb-ee92-4d1f-a3ca-beb12487822b"},"vehicle_type_id":"4","last_reported":1739175183,"current_range_meters":38800,"station_id":"ce4bgth2rcd13ifvqch0","pricing_plan_id":"cebpf4jnsgd1na2vs0mg"},{"bike_id":"cb2f4474-4f54-40ac-8990-74aeefadff28","system_id":"levelo_inurba_marseille","lat":43.26685,"lon":5.38274,"is_reserved":false,"is_disabled":false,"rental_uris":{"android":"levelo://app?vid=cb2f4474-4f54-40ac-8990-74aeefadff28","ios":"levelo://app?vid=cb2f4474-4f54-40ac-8990-74aeefadff28"},"vehicle_type_id":"4","last_reported":1739175183,"current_range_meters":6400,"station_id":"ce4bhg92rcd13ifvqf90","pricing_plan_id":"cebpf4jnsgd1na2vs0mg"},{"bike_id":"e7e14db6-3bef-453a-aab6-06ade3cdd6b0","system_id":"levelo_inurba_marseille","lat":43.24405,"lon":5.44111,"is_reserved":false,"is_disabled":true,"rental_uris":{"android":"levelo://app?vid=e7e14db6-3bef-453a-aab6-06ade3cdd6b0","ios":"levelo://app?vid=e7e14db6-3bef-453a-aab6-06ade3cdd6b0"},"vehicle_type_id":"4","last_reported":1739175183,"current_range_meters":0,"station_id":"","pricing_plan_id":"cebpf4jnsgd1na2vs0mg"},{"bike_id":"3aa83459-0a4b-4810-ad7a-3d6d011eeb65","system_id":"levelo_inurba_marseille","lat":43.2795,"lon":5.3874,"is_reserved":false,"is_disabled":false,"rental_uris":{"android":"levelo://app?vid=3aa83459-0a4b-4810-ad7a-3d6d011eeb65","ios":"levelo://app?vid=3aa83459-0a4b-4810-ad7a-3d6d011eeb65"},"vehicle_type_id":"4","last_reported":1739175183,"current_range_meters":27200,"station_id":"ce4bhg12rcd13ifvqf80","pricing_plan_id":"cebpf4jnsgd1na2vs0mg"},{"bike_id":"fb5a704f-a51b-458c-a6e9-f5586a789b94","system_id":"levelo_inurba_marseille","lat":43.2416,"lon":5.36442,"is_reserved":false,"is_disabled":false,"rental_uris":{"android":"levelo://app?vid=fb5a704f-a51b-458c-a6e9-f5586a789b94","ios":"levelo://app?vid=fb5a704f-a51b-458c-a6e9-f5586a789b94"},"vehicle_type_id":"4","last_reported":1739175183,"current_range_meters":30400,"station_id":"cpo36qri1sfpv3e86is0","pricing_plan_id":"cebpf4jnsgd1na2vs0mg"},{"bike_id":"8e48750f-8571-4505-9265-6955445b96c6","system_id":"levelo_inurba_marseille","lat":43.31224,"lon":5.36847,"is_reserved":false,"is_disabled":false,"rental_uris":{"android":"levelo://app?vid=8e48750f-8571-4505-9265-6955445b96c6","ios":"levelo://app?vid=8e48750f-8571-4505-9265-6955445b96c6"},"vehicle_type_id":"4","last_reported":1739175183,"current_range_meters":11600,"station_id":"ce4bgl92rcd13ifvqbq0","pricing_plan_id":"cebpf4jnsgd1na2vs0mg"},{"bike_id":"bfd84249-0515-4ab9-801d-3a8bb75b155d","system_id":"levelo_inurba_marseille","lat":43.27567,"lon":5.384134,"is_reserved":false,"is_disabled":false,"rental_uris":{"android":"levelo://app?vid=bfd84249-0515-4ab9-801d-3a8bb75b155d","ios":"levelo://app?vid=bfd84249-0515-4ab9-801d-3a8bb75b155d"},"vehicle_type_id":"4","last_reported":1739175183,"current_range_meters":34800,"station_id":"ce4bhh92rcd13ifvqfi0","pricing_plan_id":"cebpf4jnsgd1na2vs0mg"},{"bike_id":"541b615b-e2ed-4faa-a27c-db4332c7fc44","system_id":"levelo_inurba_marseille","lat":43.2649,"lon":5.39539,"is_reserved":false,"is_disabled":false,"rental_uris":{"android":"levelo://app?vid=541b615b-e2ed-4faa-a27c-db4332c7fc44","ios":"levelo://app?vid=541b615b-e2ed-4faa-a27c-db4332c7fc44"},"vehicle_type_id":"4","last_reported":1739175183,"current_range_meters":38800,"station_id":"ce4bhi12rcd13ifvqfq0","pricing_plan_id":"cebpf4jnsgd1na2vs0mg"},{"bike_id":"ab54e2d0-4c2c-486a-84c7-811ed9008ddc","system_id":"levelo_inurba_marseille","lat":43.27981,"lon":5.42334,"is_reserved":false,"is_disabled":true,"rental_uris":{"android":"levelo://app?vid=ab54e2d0-4c2c-486a-84c7-811ed9008ddc","ios":"levelo://app?vid=ab54e2d0-4c2c-486a-84c7-811ed9008ddc"},"vehicle_type_id":"4","last_reported":1739175183,"current_range_meters":0,"station_id":"","pricing_plan_id":"cebpf4jnsgd1na2vs0mg"},{"bike_id":"04e9976f-fc67-4b3f-9a5f-08268a5eb49c","system_id":"levelo_inurba_marseille","lat":43.29409,"lon":5.38615,"is_reserved":false,"is_disabled":true,"rental_uris":{"android":"levelo://app?vid=04e9976f-fc67-4b3f-9a5f-08268a5eb49c","ios":"levelo://app?vid=04e9976f-fc67-4b3f-9a5f-08268a5eb49c"},"vehicle_type_id":"4","last_reported":1739175183,"current_range_meters":34000,"station_id":"ce4bh2h2rcd13ifvqdh0","pricing_plan_id":"cebpf4jnsgd1na2vs0mg"},{"bike_id":"22eb20c6-4116-4b2e-af4c-37e683c8e858","system_id":"levelo_inurba_marseille","lat":43.29419,"lon":5.38618,"is_reserved":false,"is_disabled":false,"rental_uris":{"android":"levelo://app?vid=22eb20c6-4116-4b2e-af4c-37e683c8e858","ios":"levelo://app?vid=22eb20c6-4116-4b2e-af4c-37e683c8e858"},"vehicle_type_id":"4","last_reported":1739175183,"current_range_meters":16400,"station_id":"ce4bh2h2rcd13ifvqdh0","pricing_plan_id":"cebpf4jnsgd1na2vs0mg"},{"bike_id":"61b62a5a-5bc2-487b-b92d-7b20142491cd","system_id":"levelo_inurba_marseille","lat":43.287281,"lon":5.399889,"is_reserved":false,"is_disabled":true,"rental_uris":{"android":"levelo://app?vid=61b62a5a-5bc2-487b-b92d-7b20142491cd","ios":"levelo://app?vid=61b62a5a-5bc2-487b-b92d-7b20142491cd"},"vehicle_type_id":"4","last_reported":1739175183,"current_range_meters":36800,"station_id":"ce4bho92rcd13ifvqh3g","pricing_plan_id":"cebpf4jnsgd1na2vs0mg"},{"bike_id":"b5135d91-2dbc-4326-bda2-20e06e74cbe2","system_id":"levelo_inurba_marseille","lat":43.29584,"lon":5.37026,"is_reserved":false,"is_disabled":true,"rental_uris":{"android":"levelo://app?vid=b5135d91-2dbc-4326-bda2-20e06e74cbe2","ios":"levelo://app?vid=b5135d91-2dbc-4326-bda2-20e06e74cbe2"},"vehicle_type_id":"4","last_reported":1739175183,"current_range_meters":12400,"station_id":"","pricing_plan_id":"cebpf4jnsgd1na2vs0mg"},{"bike_id":"167cf25b-6766-480f-a5ed-9c09e9c92509","system_id":"levelo_inurba_marseille","lat":43.266815,"lon":5.382626,"is_reserved":false,"is_disabled":false,"rental_uris":{"android":"levelo://app?vid=167cf25b-6766-480f-a5ed-9c09e9c92509","ios":"levelo://app?vid=167cf25b-6766-480f-a5ed-9c09e9c92509"},"vehicle_type_id":"4","last_reported":1739175183,"current_range_meters":39200,"station_id":"ce4bhg92rcd13ifvqf90","pricing_plan_id":"cebpf4jnsgd1na2vs0mg"},{"bike_id":"bb1bab95-412e-41ba-879a-c483b6ec0924","system_id":"levelo_inurba_marseille","lat":43.27809,"lon":5.40722,"is_reserved":false,"is_disabled":false,"rental_uris":{"android":"levelo://app?vid=bb1bab95-412e-41ba-879a-c483b6ec0924","ios":"levelo://app?vid=bb1bab95-412e-41ba-879a-c483b6ec0924"},"vehicle_type_id":"4","last_reported":1739175183,"current_range_meters":38800,"station_id":"ce4bhnh2rcd13ifvqgtg","pricing_plan_id":"cebpf4jnsgd1na2vs0mg"},{"bike_id":"57c8f955-25c7-41fd-8227-f09191fef8ad","system_id":"levelo_inurba_marseille","lat":43.31373,"lon":5.36709,"is_reserved":false,"is_disabled":false,"rental_uris":{"android":"levelo://app?vid=57c8f955-25c7-41fd-8227-f09191fef8ad","ios":"levelo://app?vid=57c8f955-25c7-41fd-8227-f09191fef8ad"},"vehicle_type_id":"4","last_reported":1739175183,"current_range_meters":38800,"station_id":"ce4bgr92rcd13ifvqc6g","pricing_plan_id":"cebpf4jnsgd1na2vs0mg"},{"bike_id":"d7b38d8a-d747-4eed-a466-e3cdc14f11dd","system_id":"levelo_inurba_marseille","lat":43.32471,"lon":5.36565,"is_reserved":false,"is_disabled":false,"rental_uris":{"android":"levelo://app?vid=d7b38d8a-d747-4eed-a466-e3cdc14f11dd","ios":"levelo://app?vid=d7b38d8a-d747-4eed-a466-e3cdc14f11dd"},"vehicle_type_id":"4","last_reported":1739175183,"current_range_meters":38400,"station_id":"ce4bhs12rcd13ifvqhvg","pricing_plan_id":"cebpf4jnsgd1na2vs0mg"},{"bike_id":"3600cf6e-b370-46a9-a53c-871abbc03398","system_id":"levelo_inurba_marseille","lat":43.282719,"lon":5.350605,"is_reserved":false,"is_disabled":true,"rental_uris":{"android":"levelo://app?vid=3600cf6e-b370-46a9-a53c-871abbc03398","ios":"levelo://app?vid=3600cf6e-b370-46a9-a53c-871abbc03398"},"vehicle_type_id":"4","last_reported":1739175183,"current_range_meters":37600,"station_id":"ce4bhbp2rcd13ifvqerg","pricing_plan_id":"cebpf4jnsgd1na2vs0mg"},{"bike_id":"9ee17cc6-94b6-42f9-a180-22e25ec3ed8d","system_id":"levelo_inurba_marseille","lat":43.28709,"lon":5.37404,"is_reserved":false,"is_disabled":true,"rental_uris":{"android":"levelo://app?vid=9ee17cc6-94b6-42f9-a180-22e25ec3ed8d","ios":"levelo://app?vid=9ee17cc6-94b6-42f9-a180-22e25ec3ed8d"},"vehicle_type_id":"4","last_reported":1739175183,"current_range_meters":36800,"station_id":"ce4bh3p2rcd13ifvqdq0","pricing_plan_id":"cebpf4jnsgd1na2vs0mg"},{"bike_id":"b30bb279-db30-4851-99d2-8db60359713f","system_id":"levelo_inurba_marseille","lat":43.23149,"lon":5.43721,"is_reserved":false,"is_disabled":false,"rental_uris":{"android":"levelo://app?vid=b30bb279-db30-4851-99d2-8db60359713f","ios":"levelo://app?vid=b30bb279-db30-4851-99d2-8db60359713f"},"vehicle_type_id":"4","last_reported":1739175183,"current_range_meters":20000,"station_id":"ce4bhmp2rcd13ifvqgog","pricing_plan_id":"cebpf4jnsgd1na2vs0mg"},{"bike_id":"84dabfe0-d972-4b71-87a7-c5d4ca9a6e13","system_id":"levelo_inurba_marseille","lat":43.24993,"lon":5.38938,"is_reserved":false,"is_disabled":false,"rental_uris":{"android":"levelo://app?vid=84dabfe0-d972-4b71-87a7-c5d4ca9a6e13","ios":"levelo://app?vid=84dabfe0-d972-4b71-87a7-c5d4ca9a6e13"},"vehicle_type_id":"4","last_reported":1739175183,"current_range_meters":25200,"station_id":"ce4bhgp2rcd13ifvqfd0","pricing_plan_id":"cebpf4jnsgd1na2vs0mg"},{"bike_id":"b9153e81-48d2-4ee4-b7ec-7f253fee4cd1","system_id":"levelo_inurba_marseille","lat":43.24998,"lon":5.38935,"is_reserved":false,"is_disabled":false,"rental_uris":{"android":"levelo://app?vid=b9153e81-48d2-4ee4-b7ec-7f253fee4cd1","ios":"levelo://app?vid=b9153e81-48d2-4ee4-b7ec-7f253fee4cd1"},"vehicle_type_id":"4","last_reported":1739175183,"current_range_meters":24400,"station_id":"ce4bhgp2rcd13ifvqfd0","pricing_plan_id":"cebpf4jnsgd1na2vs0mg"},{"bike_id":"8f9c655f-09d9-433c-880c-6a0bd2d1b600","system_id":"levelo_inurba_marseille","lat":43.33581,"lon":5.41028,"is_reserved":false,"is_disabled":false,"rental_uris":{"android":"levelo://app?vid=8f9c655f-09d9-433c-880c-6a0bd2d1b600","ios":"levelo://app?vid=8f9c655f-09d9-433c-880c-6a0bd2d1b600"},"vehicle_type_id":"4","last_reported":1739175183,"current_range_meters":31200,"station_id":"ce4bhqh2rcd13ifvqhmg","pricing_plan_id":"cebpf4jnsgd1na2vs0mg"},{"bike_id":"4913b8b5-d6bb-4003-9626-2e55d74c370d","system_id":"levelo_inurba_marseille","lat":43.23957,"lon":5.3664,"is_reserved":false,"is_disabled":false,"rental_uris":{"android":"levelo://app?vid=4913b8b5-d6bb-4003-9626-2e55d74c370d","ios":"levelo://app?vid=4913b8b5-d6bb-4003-9626-2e55d74c370d"},"vehicle_type_id":"4","last_reported":1739175183,"current_range_meters":38800,"station_id":"ce4bhi12rcd13ifvqfp0","pricing_plan_id":"cebpf4jnsgd1na2vs0mg"},{"bike_id":"5fdb6860-5ee3-463b-aea0-6848b9ff5ddc","system_id":"levelo_inurba_marseille","lat":43.262283,"lon":5.404595,"is_reserved":false,"is_disabled":false,"rental_uris":{"android":"levelo://app?vid=5fdb6860-5ee3-463b-aea0-6848b9ff5ddc","ios":"levelo://app?vid=5fdb6860-5ee3-463b-aea0-6848b9ff5ddc"},"vehicle_type_id":"4","last_reported":1739175183,"current_range_meters":19200,"station_id":"ce4bhmh2rcd13ifvqgmg","pricing_plan_id":"cebpf4jnsgd1na2vs0mg"},{"bike_id":"a0f38a2d-991d-47ec-8a68-ef22bb9d88ec","system_id":"levelo_inurba_marseille","lat":43.30536,"lon":5.36704,"is_reserved":false,"is_disabled":false,"rental_uris":{"android":"levelo://app?vid=a0f38a2d-991d-47ec-8a68-ef22bb9d88ec","ios":"levelo://app?vid=a0f38a2d-991d-47ec-8a68-ef22bb9d88ec"},"vehicle_type_id":"4","last_reported":1739175183,"current_range_meters":38000,"station_id":"ce4bgrp2rcd13ifvqc9g","pricing_plan_id":"cebpf4jnsgd1na2vs0mg"},{"bike_id":"12a6ecc7-a3a8-4f76-bbdf-c051b566d610","system_id":"levelo_inurba_marseille","lat":43.31884,"lon":5.40737,"is_reserved":false,"is_disabled":false,"rental_uris":{"android":"levelo://app?vid=12a6ecc7-a3a8-4f76-bbdf-c051b566d610","ios":"levelo://app?vid=12a6ecc7-a3a8-4f76-bbdf-c051b566d610"},"vehicle_type_id":"4","last_reported":1739175183,"current_range_meters":16000,"station_id":"ce4bhq12rcd13ifvqhig","pricing_plan_id":"cebpf4jnsgd1na2vs0mg"},{"bike_id":"61ed63bb-2d4f-4aa7-8caf-d67a438da3eb","system_id":"levelo_inurba_marseille","lat":43.32102,"lon":5.36778,"is_reserved":false,"is_disabled":false,"rental_uris":{"android":"levelo://app?vid=61ed63bb-2d4f-4aa7-8caf-d67a438da3eb","ios":"levelo://app?vid=61ed63bb-2d4f-4aa7-8caf-d67a438da3eb"},"vehicle_type_id":"4","last_reported":1739175183,"current_range_meters":36000,"station_id":"ce4bhrh2rcd13ifvqhug","pricing_plan_id":"cebpf4jnsgd1na2vs0mg"},{"bike_id":"0ccae692-16fa-48e3-88e0-236b5491d838","system_id":"levelo_inurba_marseille","lat":43.337327,"lon":5.391769,"is_reserved":false,"is_disabled":false,"rental_uris":{"android":"levelo://app?vid=0ccae692-16fa-48e3-88e0-236b5491d838","ios":"levelo://app?vid=0ccae692-16fa-48e3-88e0-236b5491d838"},"vehicle_type_id":"4","last_reported":1739175183,"current_range_meters":38800,"station_id":"ce4bhr92rcd13ifvqhsg","pricing_plan_id":"cebpf4jnsgd1na2vs0mg"},{"bike_id":"3387e857-76e8-4fc1-a1cf-94655f3cc3c6","system_id":"levelo_inurba_marseille","lat":43.23967,"lon":5.36618,"is_reserved":false,"is_disabled":false,"rental_uris":{"android":"levelo://app?vid=3387e857-76e8-4fc1-a1cf-94655f3cc3c6","ios":"levelo://app?vid=3387e857-76e8-4fc1-a1cf-94655f3cc3c6"},"vehicle_type_id":"4","last_reported":1739175183,"current_range_meters":26000,"station_id":"ce4bhi12rcd13ifvqfp0","pricing_plan_id":"cebpf4jnsgd1na2vs0mg"},{"bike_id":"ca330563-6e43-42e3-a473-ca0403faecc5","system_id":"levelo_inurba_marseille","lat":43.30472,"lon":5.37908,"is_reserved":false,"is_disabled":false,"rental_uris":{"android":"levelo://app?vid=ca330563-6e43-42e3-a473-ca0403faecc5","ios":"levelo://app?vid=ca330563-6e43-42e3-a473-ca0403faecc5"},"vehicle_type_id":"4","last_reported":1739175183,"current_range_meters":28800,"station_id":"ce4bgup2rcd13ifvqcn0","pricing_plan_id":"cebpf4jnsgd1na2vs0mg"},{"bike_id":"fb4ff991-8c44-4e6e-9881-23d19b1c7472","system_id":"levelo_inurba_marseille","lat":43.291001,"lon":5.381501,"is_reserved":false,"is_disabled":true,"rental_uris":{"android":"levelo://app?vid=fb4ff991-8c44-4e6e-9881-23d19b1c7472","ios":"levelo://app?vid=fb4ff991-8c44-4e6e-9881-23d19b1c7472"},"vehicle_type_id":"4","last_reported":1739175183,"current_range_meters":32800,"station_id":"ce4bh512rcd13ifvqe2g","pricing_plan_id":"cebpf4jnsgd1na2vs0mg"},{"bike_id":"c1067a5c-a817-4aeb-ac80-bb94ee4b61d8","system_id":"levelo_inurba_marseille","lat":43.29264,"lon":5.3844,"is_reserved":false,"is_disabled":false,"rental_uris":{"android":"levelo://app?vid=c1067a5c-a817-4aeb-ac80-bb94ee4b61d8","ios":"levelo://app?vid=c1067a5c-a817-4aeb-ac80-bb94ee4b61d8"},"vehicle_type_id":"4","last_reported":1739175183,"current_range_meters":36800,"station_id":"ce4bh692rcd13ifvqea0","pricing_plan_id":"cebpf4jnsgd1na2vs0mg"},{"bike_id":"7a849bda-7c44-4b3e-befe-45b60441252c","system_id":"levelo_inurba_marseille","lat":43.3414,"lon":5.40903,"is_reserved":false,"is_disabled":false,"rental_uris":{"android":"levelo://app?vid=7a849bda-7c44-4b3e-befe-45b60441252c","ios":"levelo://app?vid=7a849bda-7c44-4b3e-befe-45b60441252c"},"vehicle_type_id":"4","last_reported":1739175183,"current_range_meters":34000,"station_id":"ce4bhqh2rcd13ifvqhlg","pricing_plan_id":"cebpf4jnsgd1na2vs0mg"},{"bike_id":"45bb24a1-0c85-41c1-81d0-60806ea0d3e6","system_id":"levelo_inurba_marseille","lat":43.271795,"lon":5.409909,"is_reserved":false,"is_disabled":false,"rental_uris":{"android":"levelo://app?vid=45bb24a1-0c85-41c1-81d0-60806ea0d3e6","ios":"levelo://app?vid=45bb24a1-0c85-41c1-81d0-60806ea0d3e6"},"vehicle_type_id":"4","last_reported":1739175183,"current_range_meters":14000,"station_id":"ce4bhl12rcd13ifvqgf0","pricing_plan_id":"cebpf4jnsgd1na2vs0mg"},{"bike_id":"96fe1668-af51-4478-b65e-c78b039aaaeb","system_id":"levelo_inurba_marseille","lat":43.29518,"lon":5.37494,"is_reserved":false,"is_disabled":true,"rental_uris":{"android":"levelo://app?vid=96fe1668-af51-4478-b65e-c78b039aaaeb","ios":"levelo://app?vid=96fe1668-af51-4478-b65e-c78b039aaaeb"},"vehicle_type_id":"4","last_reported":1739175183,"current_range_meters":28400,"station_id":"ce4bgkp2rcd13ifvqbmg","pricing_plan_id":"cebpf4jnsgd1na2vs0mg"},{"bike_id":"9ef3ef24-bb77-4d32-bf44-decc200b23a8","system_id":"levelo_inurba_marseille","lat":43.25718,"lon":5.41117,"is_reserved":false,"is_disabled":false,"rental_uris":{"android":"levelo://app?vid=9ef3ef24-bb77-4d32-bf44-decc200b23a8","ios":"levelo://app?vid=9ef3ef24-bb77-4d32-bf44-decc200b23a8"},"vehicle_type_id":"4","last_reported":1739175183,"current_range_meters":28400,"station_id":"ce4bhkp2rcd13ifvqgd0","pricing_plan_id":"cebpf4jnsgd1na2vs0mg"},{"bike_id":"c396b743-cb15-4d1e-b90a-fbd81e5de246","system_id":"levelo_inurba_marseille","lat":43.27424,"lon":5.39423,"is_reserved":false,"is_disabled":false,"rental_uris":{"android":"levelo://app?vid=c396b743-cb15-4d1e-b90a-fbd81e5de246","ios":"levelo://app?vid=c396b743-cb15-4d1e-b90a-fbd81e5de246"},"vehicle_type_id":"4","last_reported":1739175183,"current_range_meters":39200,"station_id":"ce4bhdp2rcd13ifvqf20","pricing_plan_id":"cebpf4jnsgd1na2vs0mg"},{"bike_id":"e90ce1ed-64b5-41ca-ac41-97830c581c78","system_id":"levelo_inurba_marseille","lat":43.28472,"lon":5.38459,"is_reserved":false,"is_disabled":true,"rental_uris":{"android":"levelo://app?vid=e90ce1ed-64b5-41ca-ac41-97830c581c78","ios":"levelo://app?vid=e90ce1ed-64b5-41ca-ac41-97830c581c78"},"vehicle_type_id":"4","last_reported":1739175183,"current_range_meters":28800,"station_id":"ce4bh512rcd13ifvqe3g","pricing_plan_id":"cebpf4jnsgd1na2vs0mg"},{"bike_id":"5eb59fd4-34c7-4030-bbe2-18e35f7c6137","system_id":"levelo_inurba_marseille","lat":43.275678,"lon":5.384336,"is_reserved":false,"is_disabled":false,"rental_uris":{"android":"levelo://app?vid=5eb59fd4-34c7-4030-bbe2-18e35f7c6137","ios":"levelo://app?vid=5eb59fd4-34c7-4030-bbe2-18e35f7c6137"},"vehicle_type_id":"4","last_reported":1739175183,"current_range_meters":16800,"station_id":"ce4bhh92rcd13ifvqfi0","pricing_plan_id":"cebpf4jnsgd1na2vs0mg"},{"bike_id":"f67b7531-6c63-4f46-a9d4-4fdf588facb0","system_id":"levelo_inurba_marseille","lat":43.27874,"lon":5.40597,"is_reserved":false,"is_disabled":true,"rental_uris":{"android":"levelo://app?vid=f67b7531-6c63-4f46-a9d4-4fdf588facb0","ios":"levelo://app?vid=f67b7531-6c63-4f46-a9d4-4fdf588facb0"},"vehicle_type_id":"4","last_reported":1739175183,"current_range_meters":0,"station_id":"","pricing_plan_id":"cebpf4jnsgd1na2vs0mg"},{"bike_id":"ee70e8ce-15c0-4352-9986-1cf6f07503d2","system_id":"levelo_inurba_marseille","lat":43.26198,"lon":5.37934,"is_reserved":false,"is_disabled":false,"rental_uris":{"android":"levelo://app?vid=ee70e8ce-15c0-4352-9986-1cf6f07503d2","ios":"levelo://app?vid=ee70e8ce-15c0-4352-9986-1cf6f07503d2"},"vehicle_type_id":"4","last_reported":1739175183,"current_range_meters":36000,"station_id":"ce4bhjp2rcd13ifvqg90","pricing_plan_id":"cebpf4jnsgd1na2vs0mg"},{"bike_id":"6ea1d700-ef0e-4f94-bdfb-8f892ed92956","system_id":"levelo_inurba_marseille","lat":43.29038,"lon":5.39971,"is_reserved":false,"is_disabled":false,"rental_uris":{"android":"levelo://app?vid=6ea1d700-ef0e-4f94-bdfb-8f892ed92956","ios":"levelo://app?vid=6ea1d700-ef0e-4f94-bdfb-8f892ed92956"},"vehicle_type_id":"4","last_reported":1739175183,"current_range_meters":10000,"station_id":"ce4bh392rcd13ifvqdm0","pricing_plan_id":"cebpf4jnsgd1na2vs0mg"},{"bike_id":"1d849361-3f4a-4b95-8a2f-dc215017c47c","system_id":"levelo_inurba_marseille","lat":43.24058,"lon":5.37752,"is_reserved":false,"is_disabled":false,"rental_uris":{"android":"levelo://app?vid=1d849361-3f4a-4b95-8a2f-dc215017c47c","ios":"levelo://app?vid=1d849361-3f4a-4b95-8a2f-dc215017c47c"},"vehicle_type_id":"4","last_reported":1739175183,"current_range_meters":8400,"station_id":"ce4bhnp2rcd13ifvqgvg","pricing_plan_id":"cebpf4jnsgd1na2vs0mg"},{"bike_id":"74dda318-1b0b-46a6-82cc-20741b70a914","system_id":"levelo_inurba_marseille","lat":43.29347,"lon":5.3735,"is_reserved":false,"is_disabled":true,"rental_uris":{"android":"levelo://app?vid=74dda318-1b0b-46a6-82cc-20741b70a914","ios":"levelo://app?vid=74dda318-1b0b-46a6-82cc-20741b70a914"},"vehicle_type_id":"4","last_reported":1739175183,"current_range_meters":17200,"station_id":"","pricing_plan_id":"cebpf4jnsgd1na2vs0mg"},{"bike_id":"f48ad086-4c57-4084-896a-481d6c000544","system_id":"levelo_inurba_marseille","lat":43.24081,"lon":5.3775,"is_reserved":false,"is_disabled":false,"rental_uris":{"android":"levelo://app?vid=f48ad086-4c57-4084-896a-481d6c000544","ios":"levelo://app?vid=f48ad086-4c57-4084-896a-481d6c000544"},"vehicle_type_id":"4","last_reported":1739175183,"current_range_meters":5600,"station_id":"ce4bhnp2rcd13ifvqgvg","pricing_plan_id":"cebpf4jnsgd1na2vs0mg"},{"bike_id":"9e0a99c1-5ad2-48c7-930b-ed41b317d8a2","system_id":"levelo_inurba_marseille","lat":43.30173,"lon":5.38085,"is_reserved":false,"is_disabled":false,"rental_uris":{"android":"levelo://app?vid=9e0a99c1-5ad2-48c7-930b-ed41b317d8a2","ios":"levelo://app?vid=9e0a99c1-5ad2-48c7-930b-ed41b317d8a2"},"vehicle_type_id":"4","last_reported":1739175183,"current_range_meters":38800,"station_id":"ce4bgjp2rcd13ifvqbh0","pricing_plan_id":"cebpf4jnsgd1na2vs0mg"},{"bike_id":"dc42c0d5-524a-4b49-b016-85ef0b11acda","system_id":"levelo_inurba_marseille","lat":43.30275,"lon":5.3771,"is_reserved":false,"is_disabled":false,"rental_uris":{"android":"levelo://app?vid=dc42c0d5-524a-4b49-b016-85ef0b11acda","ios":"levelo://app?vid=dc42c0d5-524a-4b49-b016-85ef0b11acda"},"vehicle_type_id":"4","last_reported":1739175183,"current_range_meters":28800,"station_id":"ce4bguh2rcd13ifvqcj0","pricing_plan_id":"cebpf4jnsgd1na2vs0mg"},{"bike_id":"1c006256-7530-4a56-a25d-dca64c3573d8","system_id":"levelo_inurba_marseille","lat":43.28692,"lon":5.39985,"is_reserved":false,"is_disabled":true,"rental_uris":{"android":"levelo://app?vid=1c006256-7530-4a56-a25d-dca64c3573d8","ios":"levelo://app?vid=1c006256-7530-4a56-a25d-dca64c3573d8"},"vehicle_type_id":"4","last_reported":1739175183,"current_range_meters":36800,"station_id":"ce4bho92rcd13ifvqh3g","pricing_plan_id":"cebpf4jnsgd1na2vs0mg"},{"bike_id":"028e5bc2-b679-4b6c-a013-843d23405193","system_id":"levelo_inurba_marseille","lat":43.28695,"lon":5.37403,"is_reserved":false,"is_disabled":false,"rental_uris":{"android":"levelo://app?vid=028e5bc2-b679-4b6c-a013-843d23405193","ios":"levelo://app?vid=028e5bc2-b679-4b6c-a013-843d23405193"},"vehicle_type_id":"4","last_reported":1739175183,"current_range_meters":38400,"station_id":"ce4bh3p2rcd13ifvqdq0","pricing_plan_id":"cebpf4jnsgd1na2vs0mg"},{"bike_id":"ddcc94dc-8585-4cb1-af05-471cf80b9b38","system_id":"levelo_inurba_marseille","lat":43.32478,"lon":5.36565,"is_reserved":false,"is_disabled":false,"rental_uris":{"android":"levelo://app?vid=ddcc94dc-8585-4cb1-af05-471cf80b9b38","ios":"levelo://app?vid=ddcc94dc-8585-4cb1-af05-471cf80b9b38"},"vehicle_type_id":"4","last_reported":1739175183,"current_range_meters":39200,"station_id":"ce4bhs12rcd13ifvqhvg","pricing_plan_id":"cebpf4jnsgd1na2vs0mg"},{"bike_id":"5c7479b7-7263-4b4c-a3b1-0d7fb0f411f8","system_id":"levelo_inurba_marseille","lat":43.303164,"lon":5.404419,"is_reserved":false,"is_disabled":true,"rental_uris":{"android":"levelo://app?vid=5c7479b7-7263-4b4c-a3b1-0d7fb0f411f8","ios":"levelo://app?vid=5c7479b7-7263-4b4c-a3b1-0d7fb0f411f8"},"vehicle_type_id":"4","last_reported":1739175183,"current_range_meters":33600,"station_id":"ce4bh012rcd13ifvqd10","pricing_plan_id":"cebpf4jnsgd1na2vs0mg"},{"bike_id":"dbce0a2c-d399-453d-9b14-9a6cf741b605","system_id":"levelo_inurba_marseille","lat":43.323393,"lon":5.406201,"is_reserved":false,"is_disabled":false,"rental_uris":{"android":"levelo://app?vid=dbce0a2c-d399-453d-9b14-9a6cf741b605","ios":"levelo://app?vid=dbce0a2c-d399-453d-9b14-9a6cf741b605"},"vehicle_type_id":"4","last_reported":1739175183,"current_range_meters":22400,"station_id":"ce4bhq92rcd13ifvqhjg","pricing_plan_id":"cebpf4jnsgd1na2vs0mg"},{"bike_id":"5dec2fdf-46a6-4d2a-a8dd-9a8ec1a948d3","system_id":"levelo_inurba_marseille","lat":43.23189,"lon":5.35563,"is_reserved":false,"is_disabled":false,"rental_uris":{"android":"levelo://app?vid=5dec2fdf-46a6-4d2a-a8dd-9a8ec1a948d3","ios":"levelo://app?vid=5dec2fdf-46a6-4d2a-a8dd-9a8ec1a948d3"},"vehicle_type_id":"4","last_reported":1739175183,"current_range_meters":38000,"station_id":"ce4bhu92rcd13ifvqi70","pricing_plan_id":"cebpf4jnsgd1na2vs0mg"},{"bike_id":"d7a26be3-3eb7-4470-b83d-ff84360e9b18","system_id":"levelo_inurba_marseille","lat":43.2731,"lon":5.39083,"is_reserved":false,"is_disabled":false,"rental_uris":{"android":"levelo://app?vid=d7a26be3-3eb7-4470-b83d-ff84360e9b18","ios":"levelo://app?vid=d7a26be3-3eb7-4470-b83d-ff84360e9b18"},"vehicle_type_id":"4","last_reported":1739175183,"current_range_meters":8800,"station_id":"ce4bhgp2rcd13ifvqfe0","pricing_plan_id":"cebpf4jnsgd1na2vs0mg"},{"bike_id":"ba1a5220-ad16-42c4-8f84-c122c65e5feb","system_id":"levelo_inurba_marseille","lat":43.25813,"lon":5.39436,"is_reserved":false,"is_disabled":false,"rental_uris":{"android":"levelo://app?vid=ba1a5220-ad16-42c4-8f84-c122c65e5feb","ios":"levelo://app?vid=ba1a5220-ad16-42c4-8f84-c122c65e5feb"},"vehicle_type_id":"4","last_reported":1739175183,"current_range_meters":38400,"station_id":"ce4bhip2rcd13ifvqft0","pricing_plan_id":"cebpf4jnsgd1na2vs0mg"},{"bike_id":"22669ad6-c05b-49c6-864d-bb442ac14c15","system_id":"levelo_inurba_marseille","lat":43.25908,"lon":5.40897,"is_reserved":false,"is_disabled":false,"rental_uris":{"android":"levelo://app?vid=22669ad6-c05b-49c6-864d-bb442ac14c15","ios":"levelo://app?vid=22669ad6-c05b-49c6-864d-bb442ac14c15"},"vehicle_type_id":"4","last_reported":1739175183,"current_range_meters":27600,"station_id":"ce4bhm92rcd13ifvqglg","pricing_plan_id":"cebpf4jnsgd1na2vs0mg"},{"bike_id":"5c55719c-bf56-4316-adc3-30111af87656","system_id":"levelo_inurba_marseille","lat":43.22984,"lon":5.35511,"is_reserved":false,"is_disabled":false,"rental_uris":{"android":"levelo://app?vid=5c55719c-bf56-4316-adc3-30111af87656","ios":"levelo://app?vid=5c55719c-bf56-4316-adc3-30111af87656"},"vehicle_type_id":"4","last_reported":1739175183,"current_range_meters":38400,"station_id":"cpo3342slgdg3j2ifvpg","pricing_plan_id":"cebpf4jnsgd1na2vs0mg"},{"bike_id":"c2b542d5-20ee-4d02-a9e4-f66e0540bcfb","system_id":"levelo_inurba_marseille","lat":43.24174,"lon":5.39731,"is_reserved":false,"is_disabled":false,"rental_uris":{"android":"levelo://app?vid=c2b542d5-20ee-4d02-a9e4-f66e0540bcfb","ios":"levelo://app?vid=c2b542d5-20ee-4d02-a9e4-f66e0540bcfb"},"vehicle_type_id":"4","last_reported":1739175183,"current_range_meters":9200,"station_id":"ce4bhn12rcd13ifvqgpg","pricing_plan_id":"cebpf4jnsgd1na2vs0mg"},{"bike_id":"9d190229-9e80-48bf-91fc-fdc7e0686592","system_id":"levelo_inurba_marseille","lat":43.27937,"lon":5.38709,"is_reserved":false,"is_disabled":false,"rental_uris":{"android":"levelo://app?vid=9d190229-9e80-48bf-91fc-fdc7e0686592","ios":"levelo://app?vid=9d190229-9e80-48bf-91fc-fdc7e0686592"},"vehicle_type_id":"4","last_reported":1739175183,"current_range_meters":33200,"station_id":"","pricing_plan_id":"cebpf4jnsgd1na2vs0mg"},{"bike_id":"921532fe-4dc7-4d46-904d-c2be86caee52","system_id":"levelo_inurba_marseille","lat":43.30475,"lon":5.37905,"is_reserved":false,"is_disabled":false,"rental_uris":{"android":"levelo://app?vid=921532fe-4dc7-4d46-904d-c2be86caee52","ios":"levelo://app?vid=921532fe-4dc7-4d46-904d-c2be86caee52"},"vehicle_type_id":"4","last_reported":1739175183,"current_range_meters":18800,"station_id":"ce4bgup2rcd13ifvqcn0","pricing_plan_id":"cebpf4jnsgd1na2vs0mg"},{"bike_id":"1da8b17b-ad28-4780-a711-431647c244ed","system_id":"levelo_inurba_marseille","lat":43.239596,"lon":5.366266,"is_reserved":false,"is_disabled":false,"rental_uris":{"android":"levelo://app?vid=1da8b17b-ad28-4780-a711-431647c244ed","ios":"levelo://app?vid=1da8b17b-ad28-4780-a711-431647c244ed"},"vehicle_type_id":"4","last_reported":1739175183,"current_range_meters":16800,"station_id":"ce4bhi12rcd13ifvqfp0","pricing_plan_id":"cebpf4jnsgd1na2vs0mg"},{"bike_id":"387f62f2-7ff0-42c6-9bd7-464493172742","system_id":"levelo_inurba_marseille","lat":43.24382,"lon":5.37081,"is_reserved":false,"is_disabled":false,"rental_uris":{"android":"levelo://app?vid=387f62f2-7ff0-42c6-9bd7-464493172742","ios":"levelo://app?vid=387f62f2-7ff0-42c6-9bd7-464493172742"},"vehicle_type_id":"4","last_reported":1739175183,"current_range_meters":30000,"station_id":"ce4bhhh2rcd13ifvqfk0","pricing_plan_id":"cebpf4jnsgd1na2vs0mg"},{"bike_id":"70804fbe-b550-4515-88c1-663e84c1470b","system_id":"levelo_inurba_marseille","lat":43.26776,"lon":5.39424,"is_reserved":false,"is_disabled":false,"rental_uris":{"android":"levelo://app?vid=70804fbe-b550-4515-88c1-663e84c1470b","ios":"levelo://app?vid=70804fbe-b550-4515-88c1-663e84c1470b"},"vehicle_type_id":"4","last_reported":1739175183,"current_range_meters":39200,"station_id":"ce4bhh12rcd13ifvqfg0","pricing_plan_id":"cebpf4jnsgd1na2vs0mg"},{"bike_id":"f2d50267-98d9-493b-8957-63594a0dadcc","system_id":"levelo_inurba_marseille","lat":43.23042,"lon":5.35527,"is_reserved":false,"is_disabled":false,"rental_uris":{"android":"levelo://app?vid=f2d50267-98d9-493b-8957-63594a0dadcc","ios":"levelo://app?vid=f2d50267-98d9-493b-8957-63594a0dadcc"},"vehicle_type_id":"4","last_reported":1739175183,"current_range_meters":38400,"station_id":"cpo3342slgdg3j2ifvpg","pricing_plan_id":"cebpf4jnsgd1na2vs0mg"},{"bike_id":"985ea620-1838-4cc4-9f45-6622855b2de9","system_id":"levelo_inurba_marseille","lat":43.28002,"lon":5.40027,"is_reserved":false,"is_disabled":false,"rental_uris":{"android":"levelo://app?vid=985ea620-1838-4cc4-9f45-6622855b2de9","ios":"levelo://app?vid=985ea620-1838-4cc4-9f45-6622855b2de9"},"vehicle_type_id":"4","last_reported":1739175183,"current_range_meters":36800,"station_id":"ce4bho92rcd13ifvqh4g","pricing_plan_id":"cebpf4jnsgd1na2vs0mg"},{"bike_id":"b62dea62-0007-4bca-a1b0-d88bfab77dea","system_id":"levelo_inurba_marseille","lat":43.32432,"lon":5.36553,"is_reserved":false,"is_disabled":false,"rental_uris":{"android":"levelo://app?vid=b62dea62-0007-4bca-a1b0-d88bfab77dea","ios":"levelo://app?vid=b62dea62-0007-4bca-a1b0-d88bfab77dea"},"vehicle_type_id":"4","last_reported":1739175183,"current_range_meters":27200,"station_id":"ce4bhs12rcd13ifvqhvg","pricing_plan_id":"cebpf4jnsgd1na2vs0mg"},{"bike_id":"88d7d662-c0d3-417f-85e8-dc4e95cea20c","system_id":"levelo_inurba_marseille","lat":43.30539,"lon":5.36493,"is_reserved":false,"is_disabled":false,"rental_uris":{"android":"levelo://app?vid=88d7d662-c0d3-417f-85e8-dc4e95cea20c","ios":"levelo://app?vid=88d7d662-c0d3-417f-85e8-dc4e95cea20c"},"vehicle_type_id":"4","last_reported":1739175183,"current_range_meters":37600,"station_id":"ce4bgs12rcd13ifvqcag","pricing_plan_id":"cebpf4jnsgd1na2vs0mg"},{"bike_id":"7c0de3db-d7ac-4c9d-8d57-1dfbdd7f0c15","system_id":"levelo_inurba_marseille","lat":43.25105,"lon":5.40337,"is_reserved":false,"is_disabled":false,"rental_uris":{"android":"levelo://app?vid=7c0de3db-d7ac-4c9d-8d57-1dfbdd7f0c15","ios":"levelo://app?vid=7c0de3db-d7ac-4c9d-8d57-1dfbdd7f0c15"},"vehicle_type_id":"4","last_reported":1739175183,"current_range_meters":38800,"station_id":"ce4bhlh2rcd13ifvqgig","pricing_plan_id":"cebpf4jnsgd1na2vs0mg"},{"bike_id":"8ef414b5-1be8-420d-8c67-1b3ca68a38fc","system_id":"levelo_inurba_marseille","lat":43.3095,"lon":5.39031,"is_reserved":false,"is_disabled":false,"rental_uris":{"android":"levelo://app?vid=8ef414b5-1be8-420d-8c67-1b3ca68a38fc","ios":"levelo://app?vid=8ef414b5-1be8-420d-8c67-1b3ca68a38fc"},"vehicle_type_id":"4","last_reported":1739175183,"current_range_meters":37600,"station_id":"ce4bgup2rcd13ifvqco0","pricing_plan_id":"cebpf4jnsgd1na2vs0mg"},{"bike_id":"d97e4e37-ae66-4cfd-bb7f-464bcf9b6378","system_id":"levelo_inurba_marseille","lat":43.27998,"lon":5.40011,"is_reserved":false,"is_disabled":false,"rental_uris":{"android":"levelo://app?vid=d97e4e37-ae66-4cfd-bb7f-464bcf9b6378","ios":"levelo://app?vid=d97e4e37-ae66-4cfd-bb7f-464bcf9b6378"},"vehicle_type_id":"4","last_reported":1739175183,"current_range_meters":34000,"station_id":"ce4bho92rcd13ifvqh4g","pricing_plan_id":"cebpf4jnsgd1na2vs0mg"},{"bike_id":"c07725ed-0527-46d6-b17c-99fd5891c3a0","system_id":"levelo_inurba_marseille","lat":43.26679,"lon":5.38279,"is_reserved":false,"is_disabled":false,"rental_uris":{"android":"levelo://app?vid=c07725ed-0527-46d6-b17c-99fd5891c3a0","ios":"levelo://app?vid=c07725ed-0527-46d6-b17c-99fd5891c3a0"},"vehicle_type_id":"4","last_reported":1739175183,"current_range_meters":39200,"station_id":"ce4bhg92rcd13ifvqf90","pricing_plan_id":"cebpf4jnsgd1na2vs0mg"},{"bike_id":"6f2c96b5-8b55-47a9-8003-452561cb51d9","system_id":"levelo_inurba_marseille","lat":43.24651,"lon":5.38931,"is_reserved":false,"is_disabled":false,"rental_uris":{"android":"levelo://app?vid=6f2c96b5-8b55-47a9-8003-452561cb51d9","ios":"levelo://app?vid=6f2c96b5-8b55-47a9-8003-452561cb51d9"},"vehicle_type_id":"4","last_reported":1739175183,"current_range_meters":38800,"station_id":"ce4bhg12rcd13ifvqf60","pricing_plan_id":"cebpf4jnsgd1na2vs0mg"},{"bike_id":"22a5c6e1-bb6b-4333-8051-e7583e5afc36","system_id":"levelo_inurba_marseille","lat":43.29453,"lon":5.39792,"is_reserved":false,"is_disabled":true,"rental_uris":{"android":"levelo://app?vid=22a5c6e1-bb6b-4333-8051-e7583e5afc36","ios":"levelo://app?vid=22a5c6e1-bb6b-4333-8051-e7583e5afc36"},"vehicle_type_id":"4","last_reported":1739175183,"current_range_meters":38000,"station_id":"ce4bh3h2rcd13ifvqdo0","pricing_plan_id":"cebpf4jnsgd1na2vs0mg"},{"bike_id":"e922a998-68bd-49a9-b7e7-19716fa09a9c","system_id":"levelo_inurba_marseille","lat":43.29951,"lon":5.37205,"is_reserved":false,"is_disabled":false,"rental_uris":{"android":"levelo://app?vid=e922a998-68bd-49a9-b7e7-19716fa09a9c","ios":"levelo://app?vid=e922a998-68bd-49a9-b7e7-19716fa09a9c"},"vehicle_type_id":"4","last_reported":1739175183,"current_range_meters":39200,"station_id":"ce4bgr92rcd13ifvqc7g","pricing_plan_id":"cebpf4jnsgd1na2vs0mg"},{"bike_id":"ca0c614c-670c-43a6-86b7-b4135d71b228","system_id":"levelo_inurba_marseille","lat":43.30155,"lon":5.38074,"is_reserved":false,"is_disabled":false,"rental_uris":{"android":"levelo://app?vid=ca0c614c-670c-43a6-86b7-b4135d71b228","ios":"levelo://app?vid=ca0c614c-670c-43a6-86b7-b4135d71b228"},"vehicle_type_id":"4","last_reported":1739175183,"current_range_meters":38000,"station_id":"ce4bgjp2rcd13ifvqbh0","pricing_plan_id":"cebpf4jnsgd1na2vs0mg"},{"bike_id":"fdade5cc-f296-482b-bdab-dfbd9c557d3b","system_id":"levelo_inurba_marseille","lat":43.27406,"lon":5.39387,"is_reserved":false,"is_disabled":false,"rental_uris":{"android":"levelo://app?vid=fdade5cc-f296-482b-bdab-dfbd9c557d3b","ios":"levelo://app?vid=fdade5cc-f296-482b-bdab-dfbd9c557d3b"},"vehicle_type_id":"4","last_reported":1739175183,"current_range_meters":39200,"station_id":"ce4bhdp2rcd13ifvqf20","pricing_plan_id":"cebpf4jnsgd1na2vs0mg"},{"bike_id":"fd7f60dd-1b52-46f9-9b6b-de4b0fe7477f","system_id":"levelo_inurba_marseille","lat":43.2706,"lon":5.42275,"is_reserved":false,"is_disabled":false,"rental_uris":{"android":"levelo://app?vid=fd7f60dd-1b52-46f9-9b6b-de4b0fe7477f","ios":"levelo://app?vid=fd7f60dd-1b52-46f9-9b6b-de4b0fe7477f"},"vehicle_type_id":"4","last_reported":1739175183,"current_range_meters":30400,"station_id":"ce4bhk92rcd13ifvqgb0","pricing_plan_id":"cebpf4jnsgd1na2vs0mg"},{"bike_id":"3d7ea517-bb3a-4669-a95c-9ae4f8a9521d","system_id":"levelo_inurba_marseille","lat":43.30538,"lon":5.36716,"is_reserved":false,"is_disabled":false,"rental_uris":{"android":"levelo://app?vid=3d7ea517-bb3a-4669-a95c-9ae4f8a9521d","ios":"levelo://app?vid=3d7ea517-bb3a-4669-a95c-9ae4f8a9521d"},"vehicle_type_id":"4","last_reported":1739175183,"current_range_meters":24400,"station_id":"ce4bgrp2rcd13ifvqc9g","pricing_plan_id":"cebpf4jnsgd1na2vs0mg"},{"bike_id":"83537d38-2951-4064-a4a7-e3d430341907","system_id":"levelo_inurba_marseille","lat":43.30596,"lon":5.37206,"is_reserved":false,"is_disabled":false,"rental_uris":{"android":"levelo://app?vid=83537d38-2951-4064-a4a7-e3d430341907","ios":"levelo://app?vid=83537d38-2951-4064-a4a7-e3d430341907"},"vehicle_type_id":"4","last_reported":1739175183,"current_range_meters":24400,"station_id":"ce4bgqh2rcd13ifvqc4g","pricing_plan_id":"cebpf4jnsgd1na2vs0mg"},{"bike_id":"85774b37-2323-4ac0-bf1c-34d9b09cf14c","system_id":"levelo_inurba_marseille","lat":43.296356,"lon":5.405994,"is_reserved":false,"is_disabled":false,"rental_uris":{"android":"levelo://app?vid=85774b37-2323-4ac0-bf1c-34d9b09cf14c","ios":"levelo://app?vid=85774b37-2323-4ac0-bf1c-34d9b09cf14c"},"vehicle_type_id":"4","last_reported":1739175183,"current_range_meters":35200,"station_id":"ce4bh0h2rcd13ifvqd60","pricing_plan_id":"cebpf4jnsgd1na2vs0mg"},{"bike_id":"759f8255-23ab-44ca-a038-25cf44fbb8f4","system_id":"levelo_inurba_marseille","lat":43.31363,"lon":5.36707,"is_reserved":false,"is_disabled":false,"rental_uris":{"android":"levelo://app?vid=759f8255-23ab-44ca-a038-25cf44fbb8f4","ios":"levelo://app?vid=759f8255-23ab-44ca-a038-25cf44fbb8f4"},"vehicle_type_id":"4","last_reported":1739175183,"current_range_meters":22000,"station_id":"ce4bgr92rcd13ifvqc6g","pricing_plan_id":"cebpf4jnsgd1na2vs0mg"},{"bike_id":"35718970-6a10-41ea-96ff-2dd3a80d5379","system_id":"levelo_inurba_marseille","lat":43.2499,"lon":5.3893,"is_reserved":false,"is_disabled":false,"rental_uris":{"android":"levelo://app?vid=35718970-6a10-41ea-96ff-2dd3a80d5379","ios":"levelo://app?vid=35718970-6a10-41ea-96ff-2dd3a80d5379"},"vehicle_type_id":"4","last_reported":1739175183,"current_range_meters":35200,"station_id":"ce4bhgp2rcd13ifvqfd0","pricing_plan_id":"cebpf4jnsgd1na2vs0mg"},{"bike_id":"f3e13741-5479-40f6-ad00-db5a345bc194","system_id":"levelo_inurba_marseille","lat":43.29044,"lon":5.39948,"is_reserved":false,"is_disabled":false,"rental_uris":{"android":"levelo://app?vid=f3e13741-5479-40f6-ad00-db5a345bc194","ios":"levelo://app?vid=f3e13741-5479-40f6-ad00-db5a345bc194"},"vehicle_type_id":"4","last_reported":1739175183,"current_range_meters":38400,"station_id":"ce4bh392rcd13ifvqdm0","pricing_plan_id":"cebpf4jnsgd1na2vs0mg"},{"bike_id":"2d6cdf32-bc01-461c-abbf-fe5a422ec320","system_id":"levelo_inurba_marseille","lat":43.28991,"lon":5.37834,"is_reserved":false,"is_disabled":false,"rental_uris":{"android":"levelo://app?vid=2d6cdf32-bc01-461c-abbf-fe5a422ec320","ios":"levelo://app?vid=2d6cdf32-bc01-461c-abbf-fe5a422ec320"},"vehicle_type_id":"4","last_reported":1739175183,"current_range_meters":32000,"station_id":"ce4bh9p2rcd13ifvqed0","pricing_plan_id":"cebpf4jnsgd1na2vs0mg"},{"bike_id":"931b3afb-1d7d-4e1b-9407-1eb91016f602","system_id":"levelo_inurba_marseille","lat":43.27174,"lon":5.40999,"is_reserved":false,"is_disabled":false,"rental_uris":{"android":"levelo://app?vid=931b3afb-1d7d-4e1b-9407-1eb91016f602","ios":"levelo://app?vid=931b3afb-1d7d-4e1b-9407-1eb91016f602"},"vehicle_type_id":"4","last_reported":1739175183,"current_range_meters":27200,"station_id":"ce4bhl12rcd13ifvqgf0","pricing_plan_id":"cebpf4jnsgd1na2vs0mg"},{"bike_id":"a14ecdf5-f159-4bb8-94d9-d14724235785","system_id":"levelo_inurba_marseille","lat":43.27212,"lon":5.39196,"is_reserved":false,"is_disabled":false,"rental_uris":{"android":"levelo://app?vid=a14ecdf5-f159-4bb8-94d9-d14724235785","ios":"levelo://app?vid=a14ecdf5-f159-4bb8-94d9-d14724235785"},"vehicle_type_id":"4","last_reported":1739175183,"current_range_meters":38800,"station_id":"ce4bhhp2rcd13ifvqfm0","pricing_plan_id":"cebpf4jnsgd1na2vs0mg"},{"bike_id":"9da2535f-e77c-4f48-aae1-c197f0a0daad","system_id":"levelo_inurba_marseille","lat":43.28,"lon":5.41685,"is_reserved":false,"is_disabled":false,"rental_uris":{"android":"levelo://app?vid=9da2535f-e77c-4f48-aae1-c197f0a0daad","ios":"levelo://app?vid=9da2535f-e77c-4f48-aae1-c197f0a0daad"},"vehicle_type_id":"4","last_reported":1739175183,"current_range_meters":38400,"station_id":"ce4bho12rcd13ifvqh1g","pricing_plan_id":"cebpf4jnsgd1na2vs0mg"},{"bike_id":"03cff3c3-efa6-4c28-ab81-e84c7eb70293","system_id":"levelo_inurba_marseille","lat":43.28963,"lon":5.42716,"is_reserved":false,"is_disabled":false,"rental_uris":{"android":"levelo://app?vid=03cff3c3-efa6-4c28-ab81-e84c7eb70293","ios":"levelo://app?vid=03cff3c3-efa6-4c28-ab81-e84c7eb70293"},"vehicle_type_id":"4","last_reported":1739175183,"current_range_meters":28400,"station_id":"","pricing_plan_id":"cebpf4jnsgd1na2vs0mg"},{"bike_id":"b3afd291-9bb2-4888-9ddf-c61169bf792a","system_id":"levelo_inurba_marseille","lat":43.3021,"lon":5.39463,"is_reserved":false,"is_disabled":false,"rental_uris":{"android":"levelo://app?vid=b3afd291-9bb2-4888-9ddf-c61169bf792a","ios":"levelo://app?vid=b3afd291-9bb2-4888-9ddf-c61169bf792a"},"vehicle_type_id":"4","last_reported":1739175183,"current_range_meters":36800,"station_id":"ce4bh0p2rcd13ifvqd70","pricing_plan_id":"cebpf4jnsgd1na2vs0mg"},{"bike_id":"55650938-1571-4a39-b21c-44d249ddba93","system_id":"levelo_inurba_marseille","lat":43.30723,"lon":5.36719,"is_reserved":false,"is_disabled":false,"rental_uris":{"android":"levelo://app?vid=55650938-1571-4a39-b21c-44d249ddba93","ios":"levelo://app?vid=55650938-1571-4a39-b21c-44d249ddba93"},"vehicle_type_id":"4","last_reported":1739175183,"current_range_meters":38800,"station_id":"","pricing_plan_id":"cebpf4jnsgd1na2vs0mg"},{"bike_id":"eca0a8f8-8f0e-41e8-a928-fcaa19fa662a","system_id":"levelo_inurba_marseille","lat":43.30276,"lon":5.37716,"is_reserved":false,"is_disabled":false,"rental_uris":{"android":"levelo://app?vid=eca0a8f8-8f0e-41e8-a928-fcaa19fa662a","ios":"levelo://app?vid=eca0a8f8-8f0e-41e8-a928-fcaa19fa662a"},"vehicle_type_id":"4","last_reported":1739175183,"current_range_meters":22000,"station_id":"ce4bguh2rcd13ifvqcj0","pricing_plan_id":"cebpf4jnsgd1na2vs0mg"},{"bike_id":"29c9ba85-0135-4611-af6c-b8dee113d319","system_id":"levelo_inurba_marseille","lat":43.26945,"lon":5.3866,"is_reserved":false,"is_disabled":false,"rental_uris":{"android":"levelo://app?vid=29c9ba85-0135-4611-af6c-b8dee113d319","ios":"levelo://app?vid=29c9ba85-0135-4611-af6c-b8dee113d319"},"vehicle_type_id":"4","last_reported":1739175183,"current_range_meters":38000,"station_id":"ce4bhh92rcd13ifvqfh0","pricing_plan_id":"cebpf4jnsgd1na2vs0mg"},{"bike_id":"1ce1764c-394e-43d2-9be8-2c487193aeec","system_id":"levelo_inurba_marseille","lat":43.326626,"lon":5.409818,"is_reserved":false,"is_disabled":false,"rental_uris":{"android":"levelo://app?vid=1ce1764c-394e-43d2-9be8-2c487193aeec","ios":"levelo://app?vid=1ce1764c-394e-43d2-9be8-2c487193aeec"},"vehicle_type_id":"4","last_reported":1739175183,"current_range_meters":38800,"station_id":"ce4bhpp2rcd13ifvqhgg","pricing_plan_id":"cebpf4jnsgd1na2vs0mg"},{"bike_id":"36428f2e-0efe-4963-97cd-156909322e5e","system_id":"levelo_inurba_marseille","lat":43.27995,"lon":5.4003,"is_reserved":false,"is_disabled":false,"rental_uris":{"android":"levelo://app?vid=36428f2e-0efe-4963-97cd-156909322e5e","ios":"levelo://app?vid=36428f2e-0efe-4963-97cd-156909322e5e"},"vehicle_type_id":"4","last_reported":1739175183,"current_range_meters":16400,"station_id":"ce4bho92rcd13ifvqh4g","pricing_plan_id":"cebpf4jnsgd1na2vs0mg"},{"bike_id":"e6be63e9-14c3-419b-bde8-22acf2b44567","system_id":"levelo_inurba_marseille","lat":43.32355,"lon":5.3891,"is_reserved":false,"is_disabled":false,"rental_uris":{"android":"levelo://app?vid=e6be63e9-14c3-419b-bde8-22acf2b44567","ios":"levelo://app?vid=e6be63e9-14c3-419b-bde8-22acf2b44567"},"vehicle_type_id":"4","last_reported":1739175183,"current_range_meters":12800,"station_id":"ce4bhqp2rcd13ifvqhog","pricing_plan_id":"cebpf4jnsgd1na2vs0mg"},{"bike_id":"61b73614-d869-4073-b766-8ded0c792722","system_id":"levelo_inurba_marseille","lat":43.30189,"lon":5.36613,"is_reserved":false,"is_disabled":true,"rental_uris":{"android":"levelo://app?vid=61b73614-d869-4073-b766-8ded0c792722","ios":"levelo://app?vid=61b73614-d869-4073-b766-8ded0c792722"},"vehicle_type_id":"4","last_reported":1739175183,"current_range_meters":1200,"station_id":"ce4bgrh2rcd13ifvqc8g","pricing_plan_id":"cebpf4jnsgd1na2vs0mg"},{"bike_id":"40655dd3-a432-4ed7-a38a-b1243facaa3d","system_id":"levelo_inurba_marseille","lat":43.24999,"lon":5.38928,"is_reserved":false,"is_disabled":false,"rental_uris":{"android":"levelo://app?vid=40655dd3-a432-4ed7-a38a-b1243facaa3d","ios":"levelo://app?vid=40655dd3-a432-4ed7-a38a-b1243facaa3d"},"vehicle_type_id":"4","last_reported":1739175183,"current_range_meters":8800,"station_id":"ce4bhgp2rcd13ifvqfd0","pricing_plan_id":"cebpf4jnsgd1na2vs0mg"},{"bike_id":"d478fdd5-58c1-46fb-aa75-1a3e44a45360","system_id":"levelo_inurba_marseille","lat":43.3122,"lon":5.36851,"is_reserved":false,"is_disabled":false,"rental_uris":{"android":"levelo://app?vid=d478fdd5-58c1-46fb-aa75-1a3e44a45360","ios":"levelo://app?vid=d478fdd5-58c1-46fb-aa75-1a3e44a45360"},"vehicle_type_id":"4","last_reported":1739175183,"current_range_meters":39200,"station_id":"ce4bgl92rcd13ifvqbq0","pricing_plan_id":"cebpf4jnsgd1na2vs0mg"},{"bike_id":"34e6fa33-0c41-4468-852d-1827f4da05c9","system_id":"levelo_inurba_marseille","lat":43.249974,"lon":5.389287,"is_reserved":false,"is_disabled":false,"rental_uris":{"android":"levelo://app?vid=34e6fa33-0c41-4468-852d-1827f4da05c9","ios":"levelo://app?vid=34e6fa33-0c41-4468-852d-1827f4da05c9"},"vehicle_type_id":"4","last_reported":1739175183,"current_range_meters":6400,"station_id":"ce4bhgp2rcd13ifvqfd0","pricing_plan_id":"cebpf4jnsgd1na2vs0mg"},{"bike_id":"c5789181-d252-4c46-b75d-908f3a6a38fe","system_id":"levelo_inurba_marseille","lat":43.33722,"lon":5.39203,"is_reserved":false,"is_disabled":false,"rental_uris":{"android":"levelo://app?vid=c5789181-d252-4c46-b75d-908f3a6a38fe","ios":"levelo://app?vid=c5789181-d252-4c46-b75d-908f3a6a38fe"},"vehicle_type_id":"4","last_reported":1739175183,"current_range_meters":38800,"station_id":"ce4bhr92rcd13ifvqhsg","pricing_plan_id":"cebpf4jnsgd1na2vs0mg"},{"bike_id":"4662cadc-d8cc-46d4-8513-fe6cec73d116","system_id":"levelo_inurba_marseille","lat":43.31356,"lon":5.385043,"is_reserved":false,"is_disabled":false,"rental_uris":{"android":"levelo://app?vid=4662cadc-d8cc-46d4-8513-fe6cec73d116","ios":"levelo://app?vid=4662cadc-d8cc-46d4-8513-fe6cec73d116"},"vehicle_type_id":"4","last_reported":1739175183,"current_range_meters":34800,"station_id":"ce4bgt92rcd13ifvqcf0","pricing_plan_id":"cebpf4jnsgd1na2vs0mg"},{"bike_id":"32a37a7e-89e2-4471-ac71-bf659f459656","system_id":"levelo_inurba_marseille","lat":43.28834,"lon":5.39308,"is_reserved":false,"is_disabled":false,"rental_uris":{"android":"levelo://app?vid=32a37a7e-89e2-4471-ac71-bf659f459656","ios":"levelo://app?vid=32a37a7e-89e2-4471-ac71-bf659f459656"},"vehicle_type_id":"4","last_reported":1739175183,"current_range_meters":30800,"station_id":"ce4bh2p2rcd13ifvqdi0","pricing_plan_id":"cebpf4jnsgd1na2vs0mg"},{"bike_id":"cd1d501a-21cf-4740-9417-d1ef5cb1f36c","system_id":"levelo_inurba_marseille","lat":43.29042,"lon":5.39992,"is_reserved":false,"is_disabled":false,"rental_uris":{"android":"levelo://app?vid=cd1d501a-21cf-4740-9417-d1ef5cb1f36c","ios":"levelo://app?vid=cd1d501a-21cf-4740-9417-d1ef5cb1f36c"},"vehicle_type_id":"4","last_reported":1739175183,"current_range_meters":38800,"station_id":"ce4bh392rcd13ifvqdm0","pricing_plan_id":"cebpf4jnsgd1na2vs0mg"},{"bike_id":"aec70e69-6051-4962-b9c5-d72001832294","system_id":"levelo_inurba_marseille","lat":43.27566,"lon":5.38414,"is_reserved":false,"is_disabled":false,"rental_uris":{"android":"levelo://app?vid=aec70e69-6051-4962-b9c5-d72001832294","ios":"levelo://app?vid=aec70e69-6051-4962-b9c5-d72001832294"},"vehicle_type_id":"4","last_reported":1739175183,"current_range_meters":38400,"station_id":"ce4bhh92rcd13ifvqfi0","pricing_plan_id":"cebpf4jnsgd1na2vs0mg"},{"bike_id":"64d81ec7-3e38-4641-a45d-cb257f5c4aed","system_id":"levelo_inurba_marseille","lat":43.2781,"lon":5.40715,"is_reserved":false,"is_disabled":false,"rental_uris":{"android":"levelo://app?vid=64d81ec7-3e38-4641-a45d-cb257f5c4aed","ios":"levelo://app?vid=64d81ec7-3e38-4641-a45d-cb257f5c4aed"},"vehicle_type_id":"4","last_reported":1739175183,"current_range_meters":38400,"station_id":"ce4bhnh2rcd13ifvqgtg","pricing_plan_id":"cebpf4jnsgd1na2vs0mg"},{"bike_id":"c639e761-78ab-4037-aab4-60cfebbed0e1","system_id":"levelo_inurba_marseille","lat":43.28156,"lon":5.42629,"is_reserved":false,"is_disabled":false,"rental_uris":{"android":"levelo://app?vid=c639e761-78ab-4037-aab4-60cfebbed0e1","ios":"levelo://app?vid=c639e761-78ab-4037-aab4-60cfebbed0e1"},"vehicle_type_id":"4","last_reported":1739175183,"current_range_meters":26800,"station_id":"ce4bhnh2rcd13ifvqgug","pricing_plan_id":"cebpf4jnsgd1na2vs0mg"},{"bike_id":"a0e4aa32-2930-4b3f-a9c9-c8d667116e7d","system_id":"levelo_inurba_marseille","lat":43.30155,"lon":5.39685,"is_reserved":false,"is_disabled":false,"rental_uris":{"android":"levelo://app?vid=a0e4aa32-2930-4b3f-a9c9-c8d667116e7d","ios":"levelo://app?vid=a0e4aa32-2930-4b3f-a9c9-c8d667116e7d"},"vehicle_type_id":"4","last_reported":1739175183,"current_range_meters":19200,"station_id":"","pricing_plan_id":"cebpf4jnsgd1na2vs0mg"},{"bike_id":"212a6d7a-801d-490a-bada-935623e604e1","system_id":"levelo_inurba_marseille","lat":43.31675,"lon":5.40428,"is_reserved":false,"is_disabled":false,"rental_uris":{"android":"levelo://app?vid=212a6d7a-801d-490a-bada-935623e604e1","ios":"levelo://app?vid=212a6d7a-801d-490a-bada-935623e604e1"},"vehicle_type_id":"4","last_reported":1739175183,"current_range_meters":4400,"station_id":"ce4bh012rcd13ifvqd00","pricing_plan_id":"cebpf4jnsgd1na2vs0mg"},{"bike_id":"ff050fb7-3f07-4f26-a9d4-4bb701491a62","system_id":"levelo_inurba_marseille","lat":43.29287,"lon":5.38436,"is_reserved":false,"is_disabled":true,"rental_uris":{"android":"levelo://app?vid=ff050fb7-3f07-4f26-a9d4-4bb701491a62","ios":"levelo://app?vid=ff050fb7-3f07-4f26-a9d4-4bb701491a62"},"vehicle_type_id":"4","last_reported":1739175183,"current_range_meters":16400,"station_id":"ce4bh692rcd13ifvqea0","pricing_plan_id":"cebpf4jnsgd1na2vs0mg"},{"bike_id":"bc4abc58-0169-44e7-a2dd-d4fa4a8b4eb9","system_id":"levelo_inurba_marseille","lat":43.241791,"lon":5.39719,"is_reserved":false,"is_disabled":false,"rental_uris":{"android":"levelo://app?vid=bc4abc58-0169-44e7-a2dd-d4fa4a8b4eb9","ios":"levelo://app?vid=bc4abc58-0169-44e7-a2dd-d4fa4a8b4eb9"},"vehicle_type_id":"4","last_reported":1739175183,"current_range_meters":17600,"station_id":"ce4bhn12rcd13ifvqgpg","pricing_plan_id":"cebpf4jnsgd1na2vs0mg"},{"bike_id":"82e3a3d7-ff9f-49fd-b359-ad91d0d59537","system_id":"levelo_inurba_marseille","lat":43.27215,"lon":5.39181,"is_reserved":false,"is_disabled":false,"rental_uris":{"android":"levelo://app?vid=82e3a3d7-ff9f-49fd-b359-ad91d0d59537","ios":"levelo://app?vid=82e3a3d7-ff9f-49fd-b359-ad91d0d59537"},"vehicle_type_id":"4","last_reported":1739175183,"current_range_meters":37600,"station_id":"ce4bhhp2rcd13ifvqfm0","pricing_plan_id":"cebpf4jnsgd1na2vs0mg"},{"bike_id":"ad9500a3-1ba5-42fd-a85e-d5817c93185c","system_id":"levelo_inurba_marseille","lat":43.30526,"lon":5.36539,"is_reserved":false,"is_disabled":false,"rental_uris":{"android":"levelo://app?vid=ad9500a3-1ba5-42fd-a85e-d5817c93185c","ios":"levelo://app?vid=ad9500a3-1ba5-42fd-a85e-d5817c93185c"},"vehicle_type_id":"4","last_reported":1739175183,"current_range_meters":39200,"station_id":"ce4bgs12rcd13ifvqcag","pricing_plan_id":"cebpf4jnsgd1na2vs0mg"},{"bike_id":"880ce712-c0f5-4aaf-8504-50bcf653db47","system_id":"levelo_inurba_marseille","lat":43.24794,"lon":5.37466,"is_reserved":false,"is_disabled":false,"rental_uris":{"android":"levelo://app?vid=880ce712-c0f5-4aaf-8504-50bcf653db47","ios":"levelo://app?vid=880ce712-c0f5-4aaf-8504-50bcf653db47"},"vehicle_type_id":"4","last_reported":1739175183,"current_range_meters":25600,"station_id":"ce4bhgh2rcd13ifvqfb0","pricing_plan_id":"cebpf4jnsgd1na2vs0mg"},{"bike_id":"013ac57c-0826-426d-84a7-60e833c60d0a","system_id":"levelo_inurba_marseille","lat":43.32325,"lon":5.40636,"is_reserved":false,"is_disabled":false,"rental_uris":{"android":"levelo://app?vid=013ac57c-0826-426d-84a7-60e833c60d0a","ios":"levelo://app?vid=013ac57c-0826-426d-84a7-60e833c60d0a"},"vehicle_type_id":"4","last_reported":1739175183,"current_range_meters":10800,"station_id":"ce4bhq92rcd13ifvqhjg","pricing_plan_id":"cebpf4jnsgd1na2vs0mg"},{"bike_id":"656b3b3b-ebfa-4345-b7c9-9eedd9381155","system_id":"levelo_inurba_marseille","lat":43.30797,"lon":5.40019,"is_reserved":false,"is_disabled":false,"rental_uris":{"android":"levelo://app?vid=656b3b3b-ebfa-4345-b7c9-9eedd9381155","ios":"levelo://app?vid=656b3b3b-ebfa-4345-b7c9-9eedd9381155"},"vehicle_type_id":"4","last_reported":1739175183,"current_range_meters":8400,"station_id":"","pricing_plan_id":"cebpf4jnsgd1na2vs0mg"},{"bike_id":"fc34dd4a-8401-4452-b28c-284b4c758b9c","system_id":"levelo_inurba_marseille","lat":43.28422,"lon":5.34977,"is_reserved":false,"is_disabled":true,"rental_uris":{"android":"levelo://app?vid=fc34dd4a-8401-4452-b28c-284b4c758b9c","ios":"levelo://app?vid=fc34dd4a-8401-4452-b28c-284b4c758b9c"},"vehicle_type_id":"4","last_reported":1739175183,"current_range_meters":6800,"station_id":"ce4bhbh2rcd13ifvqepg","pricing_plan_id":"cebpf4jnsgd1na2vs0mg"},{"bike_id":"db03661d-a0d8-4317-9876-bcc22b7b92b1","system_id":"levelo_inurba_marseille","lat":43.29072,"lon":5.37168,"is_reserved":false,"is_disabled":false,"rental_uris":{"android":"levelo://app?vid=db03661d-a0d8-4317-9876-bcc22b7b92b1","ios":"levelo://app?vid=db03661d-a0d8-4317-9876-bcc22b7b92b1"},"vehicle_type_id":"4","last_reported":1739175183,"current_range_meters":8400,"station_id":"ce4bh5p2rcd13ifvqe4g","pricing_plan_id":"cebpf4jnsgd1na2vs0mg"},{"bike_id":"f9ec8a41-50bd-48e3-a9c3-1936ef8a8e37","system_id":"levelo_inurba_marseille","lat":43.26952,"lon":5.38658,"is_reserved":false,"is_disabled":false,"rental_uris":{"android":"levelo://app?vid=f9ec8a41-50bd-48e3-a9c3-1936ef8a8e37","ios":"levelo://app?vid=f9ec8a41-50bd-48e3-a9c3-1936ef8a8e37"},"vehicle_type_id":"4","last_reported":1739175183,"current_range_meters":39200,"station_id":"ce4bhh92rcd13ifvqfh0","pricing_plan_id":"cebpf4jnsgd1na2vs0mg"},{"bike_id":"735ef667-84c1-4946-be83-dbad6a1c65c1","system_id":"levelo_inurba_marseille","lat":43.28481,"lon":5.42655,"is_reserved":false,"is_disabled":true,"rental_uris":{"android":"levelo://app?vid=735ef667-84c1-4946-be83-dbad6a1c65c1","ios":"levelo://app?vid=735ef667-84c1-4946-be83-dbad6a1c65c1"},"vehicle_type_id":"4","last_reported":1739175183,"current_range_meters":800,"station_id":"ce4bho92rcd13ifvqh3g","pricing_plan_id":"cebpf4jnsgd1na2vs0mg"},{"bike_id":"2b5eff32-f6c8-49a7-88aa-222d16c262d1","system_id":"levelo_inurba_marseille","lat":43.29847,"lon":5.36285,"is_reserved":false,"is_disabled":false,"rental_uris":{"android":"levelo://app?vid=2b5eff32-f6c8-49a7-88aa-222d16c262d1","ios":"levelo://app?vid=2b5eff32-f6c8-49a7-88aa-222d16c262d1"},"vehicle_type_id":"4","last_reported":1739175183,"current_range_meters":34000,"station_id":"ce4bgpp2rcd13ifvqc3g","pricing_plan_id":"cebpf4jnsgd1na2vs0mg"},{"bike_id":"3f4ed027-7d8a-4bd5-a262-698a07451af5","system_id":"levelo_inurba_marseille","lat":43.30476,"lon":5.37897,"is_reserved":false,"is_disabled":false,"rental_uris":{"android":"levelo://app?vid=3f4ed027-7d8a-4bd5-a262-698a07451af5","ios":"levelo://app?vid=3f4ed027-7d8a-4bd5-a262-698a07451af5"},"vehicle_type_id":"4","last_reported":1739175183,"current_range_meters":23200,"station_id":"ce4bgup2rcd13ifvqcn0","pricing_plan_id":"cebpf4jnsgd1na2vs0mg"},{"bike_id":"7f2deb56-183c-436c-981c-cfbcfece13e6","system_id":"levelo_inurba_marseille","lat":43.23955,"lon":5.36646,"is_reserved":false,"is_disabled":false,"rental_uris":{"android":"levelo://app?vid=7f2deb56-183c-436c-981c-cfbcfece13e6","ios":"levelo://app?vid=7f2deb56-183c-436c-981c-cfbcfece13e6"},"vehicle_type_id":"4","last_reported":1739175183,"current_range_meters":38000,"station_id":"ce4bhi12rcd13ifvqfp0","pricing_plan_id":"cebpf4jnsgd1na2vs0mg"},{"bike_id":"e20626b6-00c6-48e9-9e98-5f5d7caf1cfd","system_id":"levelo_inurba_marseille","lat":43.30213,"lon":5.39464,"is_reserved":false,"is_disabled":false,"rental_uris":{"android":"levelo://app?vid=e20626b6-00c6-48e9-9e98-5f5d7caf1cfd","ios":"levelo://app?vid=e20626b6-00c6-48e9-9e98-5f5d7caf1cfd"},"vehicle_type_id":"4","last_reported":1739175183,"current_range_meters":3600,"station_id":"ce4bh0p2rcd13ifvqd70","pricing_plan_id":"cebpf4jnsgd1na2vs0mg"},{"bike_id":"a5a14ac8-8c40-406c-865a-09ed98e25470","system_id":"levelo_inurba_marseille","lat":43.23201,"lon":5.35543,"is_reserved":false,"is_disabled":false,"rental_uris":{"android":"levelo://app?vid=a5a14ac8-8c40-406c-865a-09ed98e25470","ios":"levelo://app?vid=a5a14ac8-8c40-406c-865a-09ed98e25470"},"vehicle_type_id":"4","last_reported":1739175183,"current_range_meters":10000,"station_id":"ce4bhu92rcd13ifvqi70","pricing_plan_id":"cebpf4jnsgd1na2vs0mg"},{"bike_id":"9d7240fb-8e21-4950-bea4-7cd7d1bcedc2","system_id":"levelo_inurba_marseille","lat":43.28174,"lon":5.42655,"is_reserved":false,"is_disabled":false,"rental_uris":{"android":"levelo://app?vid=9d7240fb-8e21-4950-bea4-7cd7d1bcedc2","ios":"levelo://app?vid=9d7240fb-8e21-4950-bea4-7cd7d1bcedc2"},"vehicle_type_id":"4","last_reported":1739175183,"current_range_meters":19600,"station_id":"ce4bhnh2rcd13ifvqgug","pricing_plan_id":"cebpf4jnsgd1na2vs0mg"},{"bike_id":"1fcc8d48-f839-4c72-9508-1b6b08bbda82","system_id":"levelo_inurba_marseille","lat":43.27924,"lon":5.38679,"is_reserved":false,"is_disabled":false,"rental_uris":{"android":"levelo://app?vid=1fcc8d48-f839-4c72-9508-1b6b08bbda82","ios":"levelo://app?vid=1fcc8d48-f839-4c72-9508-1b6b08bbda82"},"vehicle_type_id":"4","last_reported":1739175183,"current_range_meters":34000,"station_id":"ce4bhg12rcd13ifvqf80","pricing_plan_id":"cebpf4jnsgd1na2vs0mg"},{"bike_id":"87f55178-b221-4f5a-9b43-4df846d42ec8","system_id":"levelo_inurba_marseille","lat":43.32293,"lon":5.383,"is_reserved":false,"is_disabled":false,"rental_uris":{"android":"levelo://app?vid=87f55178-b221-4f5a-9b43-4df846d42ec8","ios":"levelo://app?vid=87f55178-b221-4f5a-9b43-4df846d42ec8"},"vehicle_type_id":"4","last_reported":1739175183,"current_range_meters":26000,"station_id":"ce4bhr12rcd13ifvqhqg","pricing_plan_id":"cebpf4jnsgd1na2vs0mg"},{"bike_id":"36456092-02af-4986-81b0-acf304d0e1aa","system_id":"levelo_inurba_marseille","lat":43.26724,"lon":5.3727,"is_reserved":false,"is_disabled":false,"rental_uris":{"android":"levelo://app?vid=36456092-02af-4986-81b0-acf304d0e1aa","ios":"levelo://app?vid=36456092-02af-4986-81b0-acf304d0e1aa"},"vehicle_type_id":"4","last_reported":1739175183,"current_range_meters":37600,"station_id":"","pricing_plan_id":"cebpf4jnsgd1na2vs0mg"},{"bike_id":"42da078a-a3f2-4210-a507-da2b76ddcd09","system_id":"levelo_inurba_marseille","lat":43.27924,"lon":5.41077,"is_reserved":false,"is_disabled":false,"rental_uris":{"android":"levelo://app?vid=42da078a-a3f2-4210-a507-da2b76ddcd09","ios":"levelo://app?vid=42da078a-a3f2-4210-a507-da2b76ddcd09"},"vehicle_type_id":"4","last_reported":1739175183,"current_range_meters":31200,"station_id":"ce4bhnp2rcd13ifvqh0g","pricing_plan_id":"cebpf4jnsgd1na2vs0mg"},{"bike_id":"59db9156-837c-4bef-bdf0-6cb05d00fb23","system_id":"levelo_inurba_marseille","lat":43.24161,"lon":5.36413,"is_reserved":false,"is_disabled":false,"rental_uris":{"android":"levelo://app?vid=59db9156-837c-4bef-bdf0-6cb05d00fb23","ios":"levelo://app?vid=59db9156-837c-4bef-bdf0-6cb05d00fb23"},"vehicle_type_id":"4","last_reported":1739175183,"current_range_meters":19600,"station_id":"cpo36qri1sfpv3e86is0","pricing_plan_id":"cebpf4jnsgd1na2vs0mg"},{"bike_id":"a82b86c8-b754-4eb7-a507-ae40937c827e","system_id":"levelo_inurba_marseille","lat":43.29035,"lon":5.39965,"is_reserved":false,"is_disabled":false,"rental_uris":{"android":"levelo://app?vid=a82b86c8-b754-4eb7-a507-ae40937c827e","ios":"levelo://app?vid=a82b86c8-b754-4eb7-a507-ae40937c827e"},"vehicle_type_id":"4","last_reported":1739175183,"current_range_meters":33600,"station_id":"ce4bh392rcd13ifvqdm0","pricing_plan_id":"cebpf4jnsgd1na2vs0mg"},{"bike_id":"86f518ee-9ada-41ed-8a82-0382259ca8c9","system_id":"levelo_inurba_marseille","lat":43.29981,"lon":5.37176,"is_reserved":false,"is_disabled":false,"rental_uris":{"android":"levelo://app?vid=86f518ee-9ada-41ed-8a82-0382259ca8c9","ios":"levelo://app?vid=86f518ee-9ada-41ed-8a82-0382259ca8c9"},"vehicle_type_id":"4","last_reported":1739175183,"current_range_meters":38000,"station_id":"ce4bgr92rcd13ifvqc7g","pricing_plan_id":"cebpf4jnsgd1na2vs0mg"},{"bike_id":"f1e9b514-8d63-4512-92a1-4bc9d87c157b","system_id":"levelo_inurba_marseille","lat":43.317034,"lon":5.437191,"is_reserved":false,"is_disabled":true,"rental_uris":{"android":"levelo://app?vid=f1e9b514-8d63-4512-92a1-4bc9d87c157b","ios":"levelo://app?vid=f1e9b514-8d63-4512-92a1-4bc9d87c157b"},"vehicle_type_id":"4","last_reported":1739175183,"current_range_meters":0,"station_id":"ce4bhp92rcd13ifvqhcg","pricing_plan_id":"cebpf4jnsgd1na2vs0mg"},{"bike_id":"116a180f-5576-4e39-be0a-546c9a9a25cf","system_id":"levelo_inurba_marseille","lat":43.27564,"lon":5.38453,"is_reserved":false,"is_disabled":false,"rental_uris":{"android":"levelo://app?vid=116a180f-5576-4e39-be0a-546c9a9a25cf","ios":"levelo://app?vid=116a180f-5576-4e39-be0a-546c9a9a25cf"},"vehicle_type_id":"4","last_reported":1739175183,"current_range_meters":5600,"station_id":"ce4bhh92rcd13ifvqfi0","pricing_plan_id":"cebpf4jnsgd1na2vs0mg"},{"bike_id":"81d37ca3-5a86-4697-be03-dd0b787f28cf","system_id":"levelo_inurba_marseille","lat":43.32324,"lon":5.40645,"is_reserved":false,"is_disabled":true,"rental_uris":{"android":"levelo://app?vid=81d37ca3-5a86-4697-be03-dd0b787f28cf","ios":"levelo://app?vid=81d37ca3-5a86-4697-be03-dd0b787f28cf"},"vehicle_type_id":"4","last_reported":1739175183,"current_range_meters":0,"station_id":"ce4bhq92rcd13ifvqhjg","pricing_plan_id":"cebpf4jnsgd1na2vs0mg"},{"bike_id":"27fe88b6-f81f-4aba-983f-e2e9fb819079","system_id":"levelo_inurba_marseille","lat":43.325479,"lon":5.414514,"is_reserved":false,"is_disabled":false,"rental_uris":{"android":"levelo://app?vid=27fe88b6-f81f-4aba-983f-e2e9fb819079","ios":"levelo://app?vid=27fe88b6-f81f-4aba-983f-e2e9fb819079"},"vehicle_type_id":"4","last_reported":1739175183,"current_range_meters":37600,"station_id":"ce4bhq12rcd13ifvqhhg","pricing_plan_id":"cebpf4jnsgd1na2vs0mg"},{"bike_id":"357a6733-cb79-45c6-aecb-bfb356c73e58","system_id":"levelo_inurba_marseille","lat":43.29922,"lon":5.37466,"is_reserved":false,"is_disabled":false,"rental_uris":{"android":"levelo://app?vid=357a6733-cb79-45c6-aecb-bfb356c73e58","ios":"levelo://app?vid=357a6733-cb79-45c6-aecb-bfb356c73e58"},"vehicle_type_id":"4","last_reported":1739175183,"current_range_meters":38800,"station_id":"ce4bgjh2rcd13ifvqbg0","pricing_plan_id":"cebpf4jnsgd1na2vs0mg"},{"bike_id":"e6dc9bdf-237c-47b7-ab28-1a867206a3b1","system_id":"levelo_inurba_marseille","lat":43.30146,"lon":5.38111,"is_reserved":false,"is_disabled":true,"rental_uris":{"android":"levelo://app?vid=e6dc9bdf-237c-47b7-ab28-1a867206a3b1","ios":"levelo://app?vid=e6dc9bdf-237c-47b7-ab28-1a867206a3b1"},"vehicle_type_id":"4","last_reported":1739175183,"current_range_meters":22800,"station_id":"ce4bgjp2rcd13ifvqbh0","pricing_plan_id":"cebpf4jnsgd1na2vs0mg"},{"bike_id":"9c3ed8fb-7268-418c-ac09-3f255c9e9b5e","system_id":"levelo_inurba_marseille","lat":43.28028,"lon":5.36956,"is_reserved":false,"is_disabled":false,"rental_uris":{"android":"levelo://app?vid=9c3ed8fb-7268-418c-ac09-3f255c9e9b5e","ios":"levelo://app?vid=9c3ed8fb-7268-418c-ac09-3f255c9e9b5e"},"vehicle_type_id":"4","last_reported":1739175183,"current_range_meters":34000,"station_id":"ce4bha12rcd13ifvqef0","pricing_plan_id":"cebpf4jnsgd1na2vs0mg"},{"bike_id":"d237dc9a-96b1-4020-9b6d-17c434a062bf","system_id":"levelo_inurba_marseille","lat":43.30455,"lon":5.37915,"is_reserved":false,"is_disabled":false,"rental_uris":{"android":"levelo://app?vid=d237dc9a-96b1-4020-9b6d-17c434a062bf","ios":"levelo://app?vid=d237dc9a-96b1-4020-9b6d-17c434a062bf"},"vehicle_type_id":"4","last_reported":1739175183,"current_range_meters":33600,"station_id":"ce4bgup2rcd13ifvqcn0","pricing_plan_id":"cebpf4jnsgd1na2vs0mg"},{"bike_id":"c91fa3f3-a774-43d0-92fe-010e57bc5d25","system_id":"levelo_inurba_marseille","lat":43.26206,"lon":5.37474,"is_reserved":false,"is_disabled":false,"rental_uris":{"android":"levelo://app?vid=c91fa3f3-a774-43d0-92fe-010e57bc5d25","ios":"levelo://app?vid=c91fa3f3-a774-43d0-92fe-010e57bc5d25"},"vehicle_type_id":"4","last_reported":1739175183,"current_range_meters":7200,"station_id":"ce4bhgp2rcd13ifvqfc0","pricing_plan_id":"cebpf4jnsgd1na2vs0mg"},{"bike_id":"277b6126-0441-4bd1-a1f0-147e7c5fd945","system_id":"levelo_inurba_marseille","lat":43.26028,"lon":5.37569,"is_reserved":false,"is_disabled":false,"rental_uris":{"android":"levelo://app?vid=277b6126-0441-4bd1-a1f0-147e7c5fd945","ios":"levelo://app?vid=277b6126-0441-4bd1-a1f0-147e7c5fd945"},"vehicle_type_id":"4","last_reported":1739175183,"current_range_meters":39200,"station_id":"ce4bhgh2rcd13ifvqfa0","pricing_plan_id":"cebpf4jnsgd1na2vs0mg"},{"bike_id":"6ff781d1-2621-44d1-b299-83b571f09432","system_id":"levelo_inurba_marseille","lat":43.34065,"lon":5.38515,"is_reserved":false,"is_disabled":true,"rental_uris":{"android":"levelo://app?vid=6ff781d1-2621-44d1-b299-83b571f09432","ios":"levelo://app?vid=6ff781d1-2621-44d1-b299-83b571f09432"},"vehicle_type_id":"4","last_reported":1739175183,"current_range_meters":0,"station_id":"","pricing_plan_id":"cebpf4jnsgd1na2vs0mg"},{"bike_id":"4bb456e6-a4c6-42a9-8a69-a7349e693bfb","system_id":"levelo_inurba_marseille","lat":43.295304,"lon":5.375099,"is_reserved":false,"is_disabled":true,"rental_uris":{"android":"levelo://app?vid=4bb456e6-a4c6-42a9-8a69-a7349e693bfb","ios":"levelo://app?vid=4bb456e6-a4c6-42a9-8a69-a7349e693bfb"},"vehicle_type_id":"4","last_reported":1739175183,"current_range_meters":38800,"station_id":"ce4bgkp2rcd13ifvqbmg","pricing_plan_id":"cebpf4jnsgd1na2vs0mg"},{"bike_id":"e0668dc4-b635-4db8-9d9b-275cae297a6f","system_id":"levelo_inurba_marseille","lat":43.30313,"lon":5.39216,"is_reserved":false,"is_disabled":true,"rental_uris":{"android":"levelo://app?vid=e0668dc4-b635-4db8-9d9b-275cae297a6f","ios":"levelo://app?vid=e0668dc4-b635-4db8-9d9b-275cae297a6f"},"vehicle_type_id":"4","last_reported":1739175183,"current_range_meters":37600,"station_id":"ce4bgkh2rcd13ifvqbk0","pricing_plan_id":"cebpf4jnsgd1na2vs0mg"},{"bike_id":"023da4ba-3275-433f-9c20-6aa1fe5c1824","system_id":"levelo_inurba_marseille","lat":43.24063,"lon":5.37771,"is_reserved":false,"is_disabled":false,"rental_uris":{"android":"levelo://app?vid=023da4ba-3275-433f-9c20-6aa1fe5c1824","ios":"levelo://app?vid=023da4ba-3275-433f-9c20-6aa1fe5c1824"},"vehicle_type_id":"4","last_reported":1739175183,"current_range_meters":31200,"station_id":"ce4bhnp2rcd13ifvqgvg","pricing_plan_id":"cebpf4jnsgd1na2vs0mg"},{"bike_id":"c0daa1cb-c45f-4bde-86b4-039c591e2949","system_id":"levelo_inurba_marseille","lat":43.26499,"lon":5.39546,"is_reserved":false,"is_disabled":false,"rental_uris":{"android":"levelo://app?vid=c0daa1cb-c45f-4bde-86b4-039c591e2949","ios":"levelo://app?vid=c0daa1cb-c45f-4bde-86b4-039c591e2949"},"vehicle_type_id":"4","last_reported":1739175183,"current_range_meters":24000,"station_id":"ce4bhi12rcd13ifvqfq0","pricing_plan_id":"cebpf4jnsgd1na2vs0mg"},{"bike_id":"5c4011be-9b33-43c9-a6d1-d3816c99eeee","system_id":"levelo_inurba_marseille","lat":43.24679,"lon":5.38193,"is_reserved":false,"is_disabled":false,"rental_uris":{"android":"levelo://app?vid=5c4011be-9b33-43c9-a6d1-d3816c99eeee","ios":"levelo://app?vid=5c4011be-9b33-43c9-a6d1-d3816c99eeee"},"vehicle_type_id":"4","last_reported":1739175183,"current_range_meters":12800,"station_id":"ce4bhih2rcd13ifvqfr0","pricing_plan_id":"cebpf4jnsgd1na2vs0mg"},{"bike_id":"dbfeedd8-80c9-4d32-8b86-65734d574fa9","system_id":"levelo_inurba_marseille","lat":43.30938,"lon":5.39036,"is_reserved":false,"is_disabled":false,"rental_uris":{"android":"levelo://app?vid=dbfeedd8-80c9-4d32-8b86-65734d574fa9","ios":"levelo://app?vid=dbfeedd8-80c9-4d32-8b86-65734d574fa9"},"vehicle_type_id":"4","last_reported":1739175183,"current_range_meters":11200,"station_id":"","pricing_plan_id":"cebpf4jnsgd1na2vs0mg"},{"bike_id":"03dc0a60-23d6-429c-a406-0c86a8f516e4","system_id":"levelo_inurba_marseille","lat":43.24189,"lon":5.39722,"is_reserved":false,"is_disabled":false,"rental_uris":{"android":"levelo://app?vid=03dc0a60-23d6-429c-a406-0c86a8f516e4","ios":"levelo://app?vid=03dc0a60-23d6-429c-a406-0c86a8f516e4"},"vehicle_type_id":"4","last_reported":1739175183,"current_range_meters":30400,"station_id":"ce4bhn12rcd13ifvqgpg","pricing_plan_id":"cebpf4jnsgd1na2vs0mg"},{"bike_id":"5091266a-e495-4bc0-a65c-8d8321e489e0","system_id":"levelo_inurba_marseille","lat":43.26223,"lon":5.40455,"is_reserved":false,"is_disabled":false,"rental_uris":{"android":"levelo://app?vid=5091266a-e495-4bc0-a65c-8d8321e489e0","ios":"levelo://app?vid=5091266a-e495-4bc0-a65c-8d8321e489e0"},"vehicle_type_id":"4","last_reported":1739175183,"current_range_meters":25200,"station_id":"ce4bhmh2rcd13ifvqgmg","pricing_plan_id":"cebpf4jnsgd1na2vs0mg"},{"bike_id":"9f21e339-4e95-427b-9f85-67601d50f9e4","system_id":"levelo_inurba_marseille","lat":43.30483,"lon":5.37909,"is_reserved":false,"is_disabled":false,"rental_uris":{"android":"levelo://app?vid=9f21e339-4e95-427b-9f85-67601d50f9e4","ios":"levelo://app?vid=9f21e339-4e95-427b-9f85-67601d50f9e4"},"vehicle_type_id":"4","last_reported":1739175183,"current_range_meters":36400,"station_id":"ce4bgup2rcd13ifvqcn0","pricing_plan_id":"cebpf4jnsgd1na2vs0mg"},{"bike_id":"5d153fb8-c265-4a6c-ab64-1863b21e42fd","system_id":"levelo_inurba_marseille","lat":43.29318,"lon":5.37181,"is_reserved":false,"is_disabled":false,"rental_uris":{"android":"levelo://app?vid=5d153fb8-c265-4a6c-ab64-1863b21e42fd","ios":"levelo://app?vid=5d153fb8-c265-4a6c-ab64-1863b21e42fd"},"vehicle_type_id":"4","last_reported":1739175183,"current_range_meters":12000,"station_id":"ce4bgh92rcd13ifvqb40","pricing_plan_id":"cebpf4jnsgd1na2vs0mg"},{"bike_id":"37fc9ecf-d187-4780-98f8-bfafd8664be0","system_id":"levelo_inurba_marseille","lat":43.2655,"lon":5.37306,"is_reserved":false,"is_disabled":true,"rental_uris":{"android":"levelo://app?vid=37fc9ecf-d187-4780-98f8-bfafd8664be0","ios":"levelo://app?vid=37fc9ecf-d187-4780-98f8-bfafd8664be0"},"vehicle_type_id":"4","last_reported":1739175183,"current_range_meters":32800,"station_id":"ce4bhg12rcd13ifvqf70","pricing_plan_id":"cebpf4jnsgd1na2vs0mg"},{"bike_id":"25533e91-1891-4bfd-b80c-b1a642f9255c","system_id":"levelo_inurba_marseille","lat":43.30546,"lon":5.36704,"is_reserved":false,"is_disabled":false,"rental_uris":{"android":"levelo://app?vid=25533e91-1891-4bfd-b80c-b1a642f9255c","ios":"levelo://app?vid=25533e91-1891-4bfd-b80c-b1a642f9255c"},"vehicle_type_id":"4","last_reported":1739175183,"current_range_meters":25200,"station_id":"","pricing_plan_id":"cebpf4jnsgd1na2vs0mg"},{"bike_id":"6dc8aad2-7037-4229-8043-78cd60c32539","system_id":"levelo_inurba_marseille","lat":43.23945,"lon":5.36688,"is_reserved":false,"is_disabled":false,"rental_uris":{"android":"levelo://app?vid=6dc8aad2-7037-4229-8043-78cd60c32539","ios":"levelo://app?vid=6dc8aad2-7037-4229-8043-78cd60c32539"},"vehicle_type_id":"4","last_reported":1739175183,"current_range_meters":37600,"station_id":"ce4bhi12rcd13ifvqfp0","pricing_plan_id":"cebpf4jnsgd1na2vs0mg"},{"bike_id":"adc44bc8-5d0f-4846-b9b6-46a8dd0978e5","system_id":"levelo_inurba_marseille","lat":43.29848,"lon":5.36272,"is_reserved":false,"is_disabled":false,"rental_uris":{"android":"levelo://app?vid=adc44bc8-5d0f-4846-b9b6-46a8dd0978e5","ios":"levelo://app?vid=adc44bc8-5d0f-4846-b9b6-46a8dd0978e5"},"vehicle_type_id":"4","last_reported":1739175183,"current_range_meters":37600,"station_id":"ce4bgpp2rcd13ifvqc3g","pricing_plan_id":"cebpf4jnsgd1na2vs0mg"},{"bike_id":"75a9aa3b-b15a-4da6-b982-b9a02dbb8ba8","system_id":"levelo_inurba_marseille","lat":43.30928,"lon":5.40155,"is_reserved":false,"is_disabled":false,"rental_uris":{"android":"levelo://app?vid=75a9aa3b-b15a-4da6-b982-b9a02dbb8ba8","ios":"levelo://app?vid=75a9aa3b-b15a-4da6-b982-b9a02dbb8ba8"},