{"last_updated":1756577542,"ttl":60,"version":"2.2","data":{"bikes":[{"bike_id":"3786bc3f-a1ef-4971-82b5-53ee21f255a9","system_id":"levelo_inurba_marseille","lat":43.337444,"lon":5.374475,"is_reserved":false,"is_disabled":true,"rental_uris":{"android":"levelo://app?vid=3786bc3f-a1ef-4971-82b5-53ee21f255a9","ios":"levelo://app?vid=3786bc3f-a1ef-4971-82b5-53ee21f255a9"},"vehicle_type_id":"4","last_reported":1756577542,"current_range_meters":0,"station_id":"","pricing_plan_id":"cebpf4jnsgd1na2vs0mg"},{"bike_id":"d165ff19-8e79-4669-a0ec-2766941625b3","system_id":"levelo_inurba_marseille","lat":43.337444,"lon":5.374475,"is_reserved":false,"is_disabled":true,"rental_uris":{"android":"levelo://app?vid=d165ff19-8e79-4669-a0ec-2766941625b3","ios":"levelo://app?vid=d165ff19-8e79-4669-a0ec-2766941625b3"},"vehicle_type_id":"4","last_reported":1756577542,"current_range_meters":0,"station_id":"","pricing_plan_id":"cebpf4jnsgd1na2vs0mg"},{"bike_id":"fee6e365-1410-47ff-aac6-460fe19870cf","system_id":"levelo_inurba_marseille","lat":43.33771,"lon":5.37424,"is_reserved":false,"is_disabled":true,"rental_uris":{"android":"levelo://app?vid=fee6e365-1410-47ff-aac6-460fe19870cf","ios":"levelo://app?vid=fee6e365-1410-47ff-aac6-460fe19870cf"},"vehicle_type_id":"4","last_reported":1756577542,"current_range_meters":0,"station_id":"","pricing_plan_id":"cebpf4jnsgd1na2vs0mg"},{"bike_id":"e7907bf2-9f85-4fec-b00b-f77b1a4a873c","system_id":"levelo_inurba_marseille","lat":43.33751,"lon":5.37456,"is_reserved":false,"is_disabled":true,"rental_uris":{"android":"levelo://app?vid=e7907bf2-9f85-4fec-b00b-f77b1a4a873c","ios":"levelo://app?vid=e7907bf2-9f85-4fec-b00b-f77b1a4a873c"},"vehicle_type_id":"4","last_reported":1756577542,"current_range_meters":0,"station_id":"","pricing_plan_id":"cebpf4jnsgd1na2vs0mg"},{"bike_id":"c060c1ec-0d33-42db-9a3d-6fb7fae5ea5e","system_id":"levelo_inurba_marseille","lat":43.33747,"lon":5.37463,"is_reserved":false,"is_disabled":true,"rental_uris":{"android":"levelo://app?vid=c060c1ec-0d33-42db-9a3d-6fb7fae5ea5e","ios":"levelo://app?vid=c060c1ec-0d33-42db-9a3d-6fb7fae5ea5e"},"vehicle_type_id":"1","last_reported":1756577542,"current_range_meters":0,"station_id":"","pricing_plan_id":"cebpf4jnsgd1na2vs0mg"},{"bike_id":"e6546109-cd3c-4cd0-ac12-e78c09da4ae6","system_id":"levelo_inurba_marseille","lat":43.33737,"lon":5.37465,"is_reserved":false,"is_disabled":true,"rental_uris":{"android":"levelo://app?vid=e6546109-cd3c-4cd0-ac12-e78c09da4ae6","ios":"levelo://app?vid=e6546109-cd3c-4cd0-ac12-e78c09da4ae6"},"vehicle_type_id":"4","last_reported":1756577542,"current_range_meters":0,"station_id":"","pricing_plan_id":"cebpf4jnsgd1na2vs0mg"},{"bike_id":"8facfda0-e588-46c6-8323-70578ba699b1","system_id":"levelo_inurba_marseille","lat":43.30501,"lon":5.37043,"is_reserved":false,"is_disabled":true,"rental_uris":{"android":"levelo://app?vid=8facfda0-e588-46c6-8323-70578ba699b1","ios":"levelo://app?vid=8facfda0-e588-46c6-8323-70578ba699b1"},"vehicle_type_id":"4","last_reported":1756577542,"current_range_meters":0,"station_id":"","pricing_plan_id":"cebpf4jnsgd1na2vs0mg"},{"bike_id":"b3fa04f4-753f-44ec-9319-e8b6b49d76a7","system_id":"levelo_inurba_marseille","lat":43.28837,"lon":5.38521,"is_reserved":false,"is_disabled":true,"rental_uris":{"android":"levelo://app?vid=b3fa04f4-753f-44ec-9319-e8b6b49d76a7","ios":"levelo://app?vid=b3fa04f4-753f-44ec-9319-e8b6b49d76a7"},"vehicle_type_id":"4","last_reported":1756577542,"current_range_meters":0,"station_id":"","pricing_plan_id":"cebpf4jnsgd1na2vs0mg"},{"bike_id":"47308bd1-5b1e-4b75-8530-31511209c845","system_id":"levelo_inurba_marseille","lat":43.2455,"lon":5.40323,"is_reserved":false,"is_disabled":true,"rental_uris":{"android":"levelo://app?vid=47308bd1-5b1e-4b75-8530-31511209c845","ios":"levelo://app?vid=47308bd1-5b1e-4b75-8530-31511209c845"},"vehicle_type_id":"4","last_reported":1756577542,"current_range_meters":0,"station_id":"","pricing_plan_id":"cebpf4jnsgd1na2vs0mg"},{"bike_id":"fc339252-21ad-47f2-ba34-d3945709367f","system_id":"levelo_inurba_marseille","lat":43.26654,"lon":5.38923,"is_reserved":false,"is_disabled":true,"rental_uris":{"android":"levelo://app?vid=fc339252-21ad-47f2-ba34-d3945709367f","ios":"levelo://app?vid=fc339252-21ad-47f2-ba34-d3945709367f"},"vehicle_type_id":"4","last_reported":1756577542,"current_range_meters":0,"station_id":"","pricing_plan_id":"cebpf4jnsgd1na2vs0mg"},{"bike_id":"5d315e57-bb67-481f-b455-26ecfe9889ad","system_id":"levelo_inurba_marseille","lat":43.28069,"lon":5.34773,"is_reserved":false,"is_disabled":true,"rental_uris":{"android":"levelo://app?vid=5d315e57-bb67-481f-b455-26ecfe9889ad","ios":"levelo://app?vid=5d315e57-bb67-481f-b455-26ecfe9889ad"},"vehicle_type_id":"4","last_reported":1756577542,"current_range_meters":0,"station_id":"","pricing_plan_id":"cebpf4jnsgd1na2vs0mg"},{"bike_id":"46c28713-bb2b-45d5-98fc-8d5e885d13cf","system_id":"levelo_inurba_marseille","lat":43.337444,"lon":5.374475,"is_reserved":false,"is_disabled":true,"rental_uris":{"android":"levelo://app?vid=46c28713-bb2b-45d5-98fc-8d5e885d13cf","ios":"levelo://app?vid=46c28713-bb2b-45d5-98fc-8d5e885d13cf"},"vehicle_type_id":"4","last_reported":1756577542,"current_range_meters":0,"station_id":"","pricing_plan_id":"cebpf4jnsgd1na2vs0mg"},{"bike_id":"a0694e39-95ef-4780-a7d3-06a17d4b8162","system_id":"levelo_inurba_marseille","lat":43.225387,"lon":5.348301,"is_reserved":false,"is_disabled":true,"rental_uris":{"android":"levelo://app?vid=a0694e39-95ef-4780-a7d3-06a17d4b8162","ios":"levelo://app?vid=a0694e39-95ef-4780-a7d3-06a17d4b8162"},"vehicle_type_id":"4","last_reported":1756577542,"current_range_meters":0,"station_id":"","pricing_plan_id":"cebpf4jnsgd1na2vs0mg"},{"bike_id":"4b3e69dc-5718-4781-8a2c-7b9910337884","system_id":"levelo_inurba_marseille","lat":43.2693,"lon":5.38921,"is_reserved":false,"is_disabled":true,"rental_uris":{"android":"levelo://app?vid=4b3e69dc-5718-4781-8a2c-7b9910337884","ios":"levelo://app?vid=4b3e69dc-5718-4781-8a2c-7b9910337884"},"vehicle_type_id":"4","last_reported":1756577542,"current_range_meters":0,"station_id":"","pricing_plan_id":"cebpf4jnsgd1na2vs0mg"},{"bike_id":"4e73ff7f-9a37-434b-a763-e40741c379e1","system_id":"levelo_inurba_marseille","lat":43.2481,"lon":5.40196,"is_reserved":false,"is_disabled":true,"rental_uris":{"android":"levelo://app?vid=4e73ff7f-9a37-434b-a763-e40741c379e1","ios":"levelo://app?vid=4e73ff7f-9a37-434b-a763-e40741c379e1"},"vehicle_type_id":"4","last_reported":1756577542,"current_range_meters":0,"station_id":"","pricing_plan_id":"cebpf4jnsgd1na2vs0mg"},{"bike_id":"78ca1117-b370-4eae-aec7-3c40b9bacb64","system_id":"levelo_inurba_marseille","lat":43.22533,"lon":5.348408,"is_reserved":false,"is_disabled":true,"rental_uris":{"android":"levelo://app?vid=78ca1117-b370-4eae-aec7-3c40b9bacb64","ios":"levelo://app?vid=78ca1117-b370-4eae-aec7-3c40b9bacb64"},"vehicle_type_id":"4","last_reported":1756577542,"current_range_meters":0,"station_id":"","pricing_plan_id":"cebpf4jnsgd1na2vs0mg"},{"bike_id":"bba73187-e40d-4fc1-aca5-92c82a80a125","system_id":"levelo_inurba_marseille","lat":43.27985,"lon":5.4059,"is_reserved":false,"is_disabled":true,"rental_uris":{"android":"levelo://app?vid=bba73187-e40d-4fc1-aca5-92c82a80a125","ios":"levelo://app?vid=bba73187-e40d-4fc1-aca5-92c82a80a125"},"vehicle_type_id":"4","last_reported":1756577542,"current_range_meters":0,"station_id":"","pricing_plan_id":"cebpf4jnsgd1na2vs0mg"},{"bike_id":"a6ef8657-5b8a-423b-993f-c3df43dec0a0","system_id":"levelo_inurba_marseille","lat":43.337595,"lon":5.374806,"is_reserved":false,"is_disabled":true,"rental_uris":{"android":"levelo://app?vid=a6ef8657-5b8a-423b-993f-c3df43dec0a0","ios":"levelo://app?vid=a6ef8657-5b8a-423b-993f-c3df43dec0a0"},"vehicle_type_id":"4","last_reported":1756577542,"current_range_meters":0,"station_id":"","pricing_plan_id":"cebpf4jnsgd1na2vs0mg"},{"bike_id":"b3fb0770-f390-4c99-b9e3-259921d31134","system_id":"levelo_inurba_marseille","lat":43.301703,"lon":5.375545,"is_reserved":false,"is_disabled":true,"rental_uris":{"android":"levelo://app?vid=b3fb0770-f390-4c99-b9e3-259921d31134","ios":"levelo://app?vid=b3fb0770-f390-4c99-b9e3-259921d31134"},"vehicle_type_id":"4","last_reported":1756577542,"current_range_meters":0,"station_id":"","pricing_plan_id":"cebpf4jnsgd1na2vs0mg"},{"bike_id":"7e72f701-d5ce-4f21-93fd-46f497633cb0","system_id":"levelo_inurba_marseille","lat":43.26639,"lon":5.3893,"is_reserved":false,"is_disabled":true,"rental_uris":{"android":"levelo://app?vid=7e72f701-d5ce-4f21-93fd-46f497633cb0","ios":"levelo://app?vid=7e72f701-d5ce-4f21-93fd-46f497633cb0"},"vehicle_type_id":"4","last_reported":1756577542,"current_range_meters":0,"station_id":"","pricing_plan_id":"cebpf4jnsgd1na2vs0mg"},{"bike_id":"85cc7315-ce0c-4603-a904-a8505aca9adb","system_id":"levelo_inurba_marseille","lat":43.26651,"lon":5.38929,"is_reserved":false,"is_disabled":true,"rental_uris":{"android":"levelo://app?vid=85cc7315-ce0c-4603-a904-a8505aca9adb","ios":"levelo://app?vid=85cc7315-ce0c-4603-a904-a8505aca9adb"},"vehicle_type_id":"4","last_reported":1756577542,"current_range_meters":0,"station_id":"","pricing_plan_id":"cebpf4jnsgd1na2vs0mg"},{"bike_id":"13900560-f316-4122-b787-8830a097e555","system_id":"levelo_inurba_marseille","lat":43.22539,"lon":5.34845,"is_reserved":false,"is_disabled":true,"rental_uris":{"android":"levelo://app?vid=13900560-f316-4122-b787-8830a097e555","ios":"levelo://app?vid=13900560-f316-4122-b787-8830a097e555"},"vehicle_type_id":"4","last_reported":1756577542,"current_range_meters":0,"station_id":"","pricing_plan_id":"cebpf4jnsgd1na2vs0mg"},{"bike_id":"4130c537-2bb8-4edd-8a6c-2d7770015be1","system_id":"levelo_inurba_marseille","lat":43.225356,"lon":5.348369,"is_reserved":false,"is_disabled":true,"rental_uris":{"android":"levelo://app?vid=4130c537-2bb8-4edd-8a6c-2d7770015be1","ios":"levelo://app?vid=4130c537-2bb8-4edd-8a6c-2d7770015be1"},"vehicle_type_id":"4","last_reported":1756577542,"current_range_meters":0,"station_id":"","pricing_plan_id":"cebpf4jnsgd1na2vs0mg"},{"bike_id":"52e2ab91-6c79-4a2c-9112-008b6466017c","system_id":"levelo_inurba_marseille","lat":43.25634,"lon":5.39518,"is_reserved":false,"is_disabled":true,"rental_uris":{"android":"levelo://app?vid=52e2ab91-6c79-4a2c-9112-008b6466017c","ios":"levelo://app?vid=52e2ab91-6c79-4a2c-9112-008b6466017c"},"vehicle_type_id":"4","last_reported":1756577542,"current_range_meters":0,"station_id":"","pricing_plan_id":"cebpf4jnsgd1na2vs0mg"},{"bike_id":"eba3f006-b5be-4310-94ef-e4f56d159ff3","system_id":"levelo_inurba_marseille","lat":43.29297,"lon":5.37237,"is_reserved":false,"is_disabled":true,"rental_uris":{"android":"levelo://app?vid=eba3f006-b5be-4310-94ef-e4f56d159ff3","ios":"levelo://app?vid=eba3f006-b5be-4310-94ef-e4f56d159ff3"},"vehicle_type_id":"4","last_reported":1756577542,"current_range_meters":0,"station_id":"ce4bgh92rcd13ifvqb40","pricing_plan_id":"cebpf4jnsgd1na2vs0mg"},{"bike_id":"5434793c-185e-4cab-b070-3d327511ec49","system_id":"levelo_inurba_marseille","lat":43.304277,"lon":5.388954,"is_reserved":false,"is_disabled":true,"rental_uris":{"android":"levelo://app?vid=5434793c-185e-4cab-b070-3d327511ec49","ios":"levelo://app?vid=5434793c-185e-4cab-b070-3d327511ec49"},"vehicle_type_id":"4","last_reported":1756577542,"current_range_meters":0,"station_id":"ce4bgih2rcd13ifvqba0","pricing_plan_id":"cebpf4jnsgd1na2vs0mg"},{"bike_id":"9492c006-873d-4be3-810b-2a68a6300c65","system_id":"levelo_inurba_marseille","lat":43.27613,"lon":5.36126,"is_reserved":false,"is_disabled":true,"rental_uris":{"android":"levelo://app?vid=9492c006-873d-4be3-810b-2a68a6300c65","ios":"levelo://app?vid=9492c006-873d-4be3-810b-2a68a6300c65"},"vehicle_type_id":"4","last_reported":1756577542,"current_range_meters":0,"station_id":"ce4bgj92rcd13ifvqbe0","pricing_plan_id":"cebpf4jnsgd1na2vs0mg"},{"bike_id":"6d070bec-9f10-4d74-93ec-94fe2f5a905c","system_id":"levelo_inurba_marseille","lat":43.29614,"lon":5.37159,"is_reserved":false,"is_disabled":true,"rental_uris":{"android":"levelo://app?vid=6d070bec-9f10-4d74-93ec-94fe2f5a905c","ios":"levelo://app?vid=6d070bec-9f10-4d74-93ec-94fe2f5a905c"},"vehicle_type_id":"4","last_reported":1756577542,"current_range_meters":0,"station_id":"ce4bgnh2rcd13ifvqc0g","pricing_plan_id":"cebpf4jnsgd1na2vs0mg"},{"bike_id":"832426a6-740d-4c38-aa9a-f30bd9138173","system_id":"levelo_inurba_marseille","lat":43.29783,"lon":5.37116,"is_reserved":false,"is_disabled":true,"rental_uris":{"android":"levelo://app?vid=832426a6-740d-4c38-aa9a-f30bd9138173","ios":"levelo://app?vid=832426a6-740d-4c38-aa9a-f30bd9138173"},"vehicle_type_id":"4","last_reported":1756577542,"current_range_meters":0,"station_id":"ce4bgop2rcd13ifvqc1g","pricing_plan_id":"cebpf4jnsgd1na2vs0mg"},{"bike_id":"5904766c-9f35-4034-abda-58c7286fea2b","system_id":"levelo_inurba_marseille","lat":43.314846,"lon":5.373033,"is_reserved":false,"is_disabled":true,"rental_uris":{"android":"levelo://app?vid=5904766c-9f35-4034-abda-58c7286fea2b","ios":"levelo://app?vid=5904766c-9f35-4034-abda-58c7286fea2b"},"vehicle_type_id":"4","last_reported":1756577542,"current_range_meters":0,"station_id":"ce4bgt12rcd13ifvqcd0","pricing_plan_id":"cebpf4jnsgd1na2vs0mg"},{"bike_id":"f1f52bf4-3df2-431e-9238-c6a82592a0ad","system_id":"levelo_inurba_marseille","lat":43.31358,"lon":5.38505,"is_reserved":false,"is_disabled":true,"rental_uris":{"android":"levelo://app?vid=f1f52bf4-3df2-431e-9238-c6a82592a0ad","ios":"levelo://app?vid=f1f52bf4-3df2-431e-9238-c6a82592a0ad"},"vehicle_type_id":"4","last_reported":1756577542,"current_range_meters":0,"station_id":"ce4bgt92rcd13ifvqcf0","pricing_plan_id":"cebpf4jnsgd1na2vs0mg"},{"bike_id":"bd4e388e-f671-43a1-a094-c5e7f49522fd","system_id":"levelo_inurba_marseille","lat":43.311707,"lon":5.387191,"is_reserved":false,"is_disabled":true,"rental_uris":{"android":"levelo://app?vid=bd4e388e-f671-43a1-a094-c5e7f49522fd","ios":"levelo://app?vid=bd4e388e-f671-43a1-a094-c5e7f49522fd"},"vehicle_type_id":"4","last_reported":1756577542,"current_range_meters":0,"station_id":"ce4bgv12rcd13ifvqcp0","pricing_plan_id":"cebpf4jnsgd1na2vs0mg"},{"bike_id":"faca59ce-141d-4e1b-926d-be8f9e91a7f7","system_id":"levelo_inurba_marseille","lat":43.31333,"lon":5.39717,"is_reserved":false,"is_disabled":true,"rental_uris":{"android":"levelo://app?vid=faca59ce-141d-4e1b-926d-be8f9e91a7f7","ios":"levelo://app?vid=faca59ce-141d-4e1b-926d-be8f9e91a7f7"},"vehicle_type_id":"4","last_reported":1756577542,"current_range_meters":0,"station_id":"ce4bgvp2rcd13ifvqcu0","pricing_plan_id":"cebpf4jnsgd1na2vs0mg"},{"bike_id":"f0cbd59a-7c01-4bf4-99ff-aa50b895cd21","system_id":"levelo_inurba_marseille","lat":43.306537,"lon":5.400695,"is_reserved":false,"is_disabled":true,"rental_uris":{"android":"levelo://app?vid=f0cbd59a-7c01-4bf4-99ff-aa50b895cd21","ios":"levelo://app?vid=f0cbd59a-7c01-4bf4-99ff-aa50b895cd21"},"vehicle_type_id":"4","last_reported":1756577542,"current_range_meters":0,"station_id":"ce4bh112rcd13ifvqda0","pricing_plan_id":"cebpf4jnsgd1na2vs0mg"},{"bike_id":"f34ce391-1a62-424c-9153-3c918743b2d8","system_id":"levelo_inurba_marseille","lat":43.292786,"lon":5.401107,"is_reserved":false,"is_disabled":true,"rental_uris":{"android":"levelo://app?vid=f34ce391-1a62-424c-9153-3c918743b2d8","ios":"levelo://app?vid=f34ce391-1a62-424c-9153-3c918743b2d8"},"vehicle_type_id":"4","last_reported":1756577542,"current_range_meters":0,"station_id":"ce4bh312rcd13ifvqdk0","pricing_plan_id":"cebpf4jnsgd1na2vs0mg"},{"bike_id":"935d9264-1e83-4abc-be36-6737e8659368","system_id":"levelo_inurba_marseille","lat":43.28694,"lon":5.37392,"is_reserved":false,"is_disabled":true,"rental_uris":{"android":"levelo://app?vid=935d9264-1e83-4abc-be36-6737e8659368","ios":"levelo://app?vid=935d9264-1e83-4abc-be36-6737e8659368"},"vehicle_type_id":"4","last_reported":1756577542,"current_range_meters":0,"station_id":"ce4bh3p2rcd13ifvqdq0","pricing_plan_id":"cebpf4jnsgd1na2vs0mg"},{"bike_id":"a38921ba-0779-4365-83cf-dac3014057b2","system_id":"levelo_inurba_marseille","lat":43.292572,"lon":5.384406,"is_reserved":false,"is_disabled":true,"rental_uris":{"android":"levelo://app?vid=a38921ba-0779-4365-83cf-dac3014057b2","ios":"levelo://app?vid=a38921ba-0779-4365-83cf-dac3014057b2"},"vehicle_type_id":"4","last_reported":1756577542,"current_range_meters":0,"station_id":"ce4bh692rcd13ifvqea0","pricing_plan_id":"cebpf4jnsgd1na2vs0mg"},{"bike_id":"4dfb36f2-77e1-4e88-8e17-8cc7d7983d99","system_id":"levelo_inurba_marseille","lat":43.283561,"lon":5.350274,"is_reserved":false,"is_disabled":true,"rental_uris":{"android":"levelo://app?vid=4dfb36f2-77e1-4e88-8e17-8cc7d7983d99","ios":"levelo://app?vid=4dfb36f2-77e1-4e88-8e17-8cc7d7983d99"},"vehicle_type_id":"4","last_reported":1756577542,"current_range_meters":0,"station_id":"ce4bhbh2rcd13ifvqepg","pricing_plan_id":"cebpf4jnsgd1na2vs0mg"},{"bike_id":"0f5c408e-1639-4aba-89c3-d93d90166e1f","system_id":"levelo_inurba_marseille","lat":43.29228,"lon":5.36069,"is_reserved":false,"is_disabled":true,"rental_uris":{"android":"levelo://app?vid=0f5c408e-1639-4aba-89c3-d93d90166e1f","ios":"levelo://app?vid=0f5c408e-1639-4aba-89c3-d93d90166e1f"},"vehicle_type_id":"4","last_reported":1756577542,"current_range_meters":0,"station_id":"ce4bhbh2rcd13ifvqeqg","pricing_plan_id":"cebpf4jnsgd1na2vs0mg"},{"bike_id":"cf154cc8-68e2-4779-812d-8ecaa5c96b79","system_id":"levelo_inurba_marseille","lat":43.282745,"lon":5.350598,"is_reserved":false,"is_disabled":true,"rental_uris":{"android":"levelo://app?vid=cf154cc8-68e2-4779-812d-8ecaa5c96b79","ios":"levelo://app?vid=cf154cc8-68e2-4779-812d-8ecaa5c96b79"},"vehicle_type_id":"4","last_reported":1756577542,"current_range_meters":0,"station_id":"ce4bhbp2rcd13ifvqerg","pricing_plan_id":"cebpf4jnsgd1na2vs0mg"},{"bike_id":"ddc55a76-9f38-46d4-a3c4-c371aafb6583","system_id":"levelo_inurba_marseille","lat":43.29281,"lon":5.36855,"is_reserved":false,"is_disabled":true,"rental_uris":{"android":"levelo://app?vid=ddc55a76-9f38-46d4-a3c4-c371aafb6583","ios":"levelo://app?vid=ddc55a76-9f38-46d4-a3c4-c371aafb6583"},"vehicle_type_id":"4","last_reported":1756577542,"current_range_meters":0,"station_id":"ce4bhbp2rcd13ifvqesg","pricing_plan_id":"cebpf4jnsgd1na2vs0mg"},{"bike_id":"b4e33503-eec3-4f0d-bab4-7d1c0357c45f","system_id":"levelo_inurba_marseille","lat":43.26672,"lon":5.38283,"is_reserved":false,"is_disabled":true,"rental_uris":{"android":"levelo://app?vid=b4e33503-eec3-4f0d-bab4-7d1c0357c45f","ios":"levelo://app?vid=b4e33503-eec3-4f0d-bab4-7d1c0357c45f"},"vehicle_type_id":"4","last_reported":1756577542,"current_range_meters":0,"station_id":"ce4bhg92rcd13ifvqf90","pricing_plan_id":"cebpf4jnsgd1na2vs0mg"},{"bike_id":"0de334ef-6e1e-4c38-8602-fc66b3f75ecf","system_id":"levelo_inurba_marseille","lat":43.27807,"lon":5.40714,"is_reserved":false,"is_disabled":true,"rental_uris":{"android":"levelo://app?vid=0de334ef-6e1e-4c38-8602-fc66b3f75ecf","ios":"levelo://app?vid=0de334ef-6e1e-4c38-8602-fc66b3f75ecf"},"vehicle_type_id":"4","last_reported":1756577542,"current_range_meters":0,"station_id":"ce4bhnh2rcd13ifvqgtg","pricing_plan_id":"cebpf4jnsgd1na2vs0mg"},{"bike_id":"909be848-1a9f-463b-b29f-63a646906044","system_id":"levelo_inurba_marseille","lat":43.31705,"lon":5.4244,"is_reserved":false,"is_disabled":true,"rental_uris":{"android":"levelo://app?vid=909be848-1a9f-463b-b29f-63a646906044","ios":"levelo://app?vid=909be848-1a9f-463b-b29f-63a646906044"},"vehicle_type_id":"4","last_reported":1756577542,"current_range_meters":0,"station_id":"ce4bhp92rcd13ifvqhbg","pricing_plan_id":"cebpf4jnsgd1na2vs0mg"},{"bike_id":"33ac57af-52ae-4a2e-bc98-fbbaa457d8d6","system_id":"levelo_inurba_marseille","lat":43.21741,"lon":5.3461,"is_reserved":false,"is_disabled":true,"rental_uris":{"android":"levelo://app?vid=33ac57af-52ae-4a2e-bc98-fbbaa457d8d6","ios":"levelo://app?vid=33ac57af-52ae-4a2e-bc98-fbbaa457d8d6"},"vehicle_type_id":"4","last_reported":1756577542,"current_range_meters":0,"station_id":"st_cvj6r9ubvosntc0bgbag","pricing_plan_id":"cebpf4jnsgd1na2vs0mg"},{"bike_id":"22ae76c3-0b92-4500-a92a-a87e5644f6cd","system_id":"levelo_inurba_marseille","lat":43.21747,"lon":5.34602,"is_reserved":false,"is_disabled":true,"rental_uris":{"android":"levelo://app?vid=22ae76c3-0b92-4500-a92a-a87e5644f6cd","ios":"levelo://app?vid=22ae76c3-0b92-4500-a92a-a87e5644f6cd"},"vehicle_type_id":"4","last_reported":1756577542,"current_range_meters":0,"station_id":"st_cvj6r9ubvosntc0bgbag","pricing_plan_id":"cebpf4jnsgd1na2vs0mg"},{"bike_id":"37d75875-2d22-4867-b9a5-c9a17c074877","system_id":"levelo_inurba_marseille","lat":43.21745,"lon":5.34597,"is_reserved":false,"is_disabled":true,"rental_uris":{"android":"levelo://app?vid=37d75875-2d22-4867-b9a5-c9a17c074877","ios":"levelo://app?vid=37d75875-2d22-4867-b9a5-c9a17c074877"},"vehicle_type_id":"4","last_reported":1756577542,"current_range_meters":0,"station_id":"st_cvj6r9ubvosntc0bgbag","pricing_plan_id":"cebpf4jnsgd1na2vs0mg"},{"bike_id":"e6840a59-6666-4cd5-b83a-803346c3260a","system_id":"levelo_inurba_marseille","lat":43.21192,"lon":5.35073,"is_reserved":false,"is_disabled":true,"rental_uris":{"android":"levelo://app?vid=e6840a59-6666-4cd5-b83a-803346c3260a","ios":"levelo://app?vid=e6840a59-6666-4cd5-b83a-803346c3260a"},"vehicle_type_id":"4","last_reported":1756577542,"current_range_meters":0,"station_id":"st_cvj6sg6p6f1abm77japg","pricing_plan_id":"cebpf4jnsgd1na2vs0mg"},{"bike_id":"d483eb89-e9cb-45dc-9ad8-740686752c91","system_id":"levelo_inurba_marseille","lat":43.21187,"lon":5.35076,"is_reserved":false,"is_disabled":true,"rental_uris":{"android":"levelo://app?vid=d483eb89-e9cb-45dc-9ad8-740686752c91","ios":"levelo://app?vid=d483eb89-e9cb-45dc-9ad8-740686752c91"},"vehicle_type_id":"4","last_reported":1756577542,"current_range_meters":0,"station_id":"st_cvj6sg6p6f1abm77japg","pricing_plan_id":"cebpf4jnsgd1na2vs0mg"},{"bike_id":"388e5c7e-8b07-4de9-ae33-360f66ddcebf","system_id":"levelo_inurba_marseille","lat":43.25332,"lon":5.4218,"is_reserved":false,"is_disabled":true,"rental_uris":{"android":"levelo://app?vid=388e5c7e-8b07-4de9-ae33-360f66ddcebf","ios":"levelo://app?vid=388e5c7e-8b07-4de9-ae33-360f66ddcebf"},"vehicle_type_id":"4","last_reported":1756577542,"current_range_meters":0,"station_id":"st_d2m65c5bi1j21697t3ng","pricing_plan_id":"cebpf4jnsgd1na2vs0mg"},{"bike_id":"5592a2a6-02ba-47e2-b9dc-8d57ddb4df03","system_id":"levelo_inurba_marseille","lat":43.2465,"lon":5.43143,"is_reserved":false,"is_disabled":true,"rental_uris":{"android":"levelo://app?vid=5592a2a6-02ba-47e2-b9dc-8d57ddb4df03","ios":"levelo://app?vid=5592a2a6-02ba-47e2-b9dc-8d57ddb4df03"},"vehicle_type_id":"4","last_reported":1756577542,"current_range_meters":0,"station_id":"st_d2m6c4gdas8pm72e190g","pricing_plan_id":"cebpf4jnsgd1na2vs0mg"},{"bike_id":"d84fbb73-29b3-4e8d-b65a-027064ccb595","system_id":"levelo_inurba_marseille","lat":43.22559,"lon":5.41632,"is_reserved":false,"is_disabled":true,"rental_uris":{"android":"levelo://app?vid=d84fbb73-29b3-4e8d-b65a-027064ccb595","ios":"levelo://app?vid=d84fbb73-29b3-4e8d-b65a-027064ccb595"},"vehicle_type_id":"4","last_reported":1756577542,"current_range_meters":0,"station_id":"st_d2o4gvlbi1j2169b742g","pricing_plan_id":"cebpf4jnsgd1na2vs0mg"},{"bike_id":"209e03a9-0999-458d-ac07-feb02ddded34","system_id":"levelo_inurba_marseille","lat":43.28032,"lon":5.36949,"is_reserved":false,"is_disabled":true,"rental_uris":{"android":"levelo://app?vid=209e03a9-0999-458d-ac07-feb02ddded34","ios":"levelo://app?vid=209e03a9-0999-458d-ac07-feb02ddded34"},"vehicle_type_id":"4","last_reported":1756577542,"current_range_meters":400,"station_id":"ce4bha12rcd13ifvqef0","pricing_plan_id":"cebpf4jnsgd1na2vs0mg"},{"bike_id":"b79eb116-dfc5-4b3f-be1c-58bf57bfb756","system_id":"levelo_inurba_marseille","lat":43.25498,"lon":5.37652,"is_reserved":false,"is_disabled":true,"rental_uris":{"android":"levelo://app?vid=b79eb116-dfc5-4b3f-be1c-58bf57bfb756","ios":"levelo://app?vid=b79eb116-dfc5-4b3f-be1c-58bf57bfb756"},"vehicle_type_id":"4","last_reported":1756577542,"current_range_meters":400,"station_id":"ce4bhh12rcd13ifvqff0","pricing_plan_id":"cebpf4jnsgd1na2vs0mg"},{"bike_id":"7a2d84cb-0454-4670-b854-2015dc4d5771","system_id":"levelo_inurba_marseille","lat":43.23149,"lon":5.43704,"is_reserved":false,"is_disabled":true,"rental_uris":{"android":"levelo://app?vid=7a2d84cb-0454-4670-b854-2015dc4d5771","ios":"levelo://app?vid=7a2d84cb-0454-4670-b854-2015dc4d5771"},"vehicle_type_id":"4","last_reported":1756577542,"current_range_meters":400,"station_id":"ce4bhmp2rcd13ifvqgog","pricing_plan_id":"cebpf4jnsgd1na2vs0mg"},{"bike_id":"5b249862-1dc8-49bf-b297-b98623243e28","system_id":"levelo_inurba_marseille","lat":43.27999,"lon":5.41664,"is_reserved":false,"is_disabled":true,"rental_uris":{"android":"levelo://app?vid=5b249862-1dc8-49bf-b297-b98623243e28","ios":"levelo://app?vid=5b249862-1dc8-49bf-b297-b98623243e28"},"vehicle_type_id":"4","last_reported":1756577542,"current_range_meters":400,"station_id":"ce4bho12rcd13ifvqh1g","pricing_plan_id":"cebpf4jnsgd1na2vs0mg"},{"bike_id":"84d6c0b0-63eb-4927-8203-9e37b46baeac","system_id":"levelo_inurba_marseille","lat":43.307311,"lon":5.424366,"is_reserved":false,"is_disabled":true,"rental_uris":{"android":"levelo://app?vid=84d6c0b0-63eb-4927-8203-9e37b46baeac","ios":"levelo://app?vid=84d6c0b0-63eb-4927-8203-9e37b46baeac"},"vehicle_type_id":"4","last_reported":1756577542,"current_range_meters":400,"station_id":"st_cvj6ca6bvosntc0bfgr0","pricing_plan_id":"cebpf4jnsgd1na2vs0mg"},{"bike_id":"ef7d6492-f1c5-41ef-b717-d1c5cc793164","system_id":"levelo_inurba_marseille","lat":43.21745,"lon":5.34604,"is_reserved":false,"is_disabled":true,"rental_uris":{"android":"levelo://app?vid=ef7d6492-f1c5-41ef-b717-d1c5cc793164","ios":"levelo://app?vid=ef7d6492-f1c5-41ef-b717-d1c5cc793164"},"vehicle_type_id":"4","last_reported":1756577542,"current_range_meters":400,"station_id":"st_cvj6r9ubvosntc0bgbag","pricing_plan_id":"cebpf4jnsgd1na2vs0mg"},{"bike_id":"c4c599ac-b19e-4d4e-8948-71de0ae3f446","system_id":"levelo_inurba_marseille","lat":43.21187,"lon":5.35076,"is_reserved":false,"is_disabled":true,"rental_uris":{"android":"levelo://app?vid=c4c599ac-b19e-4d4e-8948-71de0ae3f446","ios":"levelo://app?vid=c4c599ac-b19e-4d4e-8948-71de0ae3f446"},"vehicle_type_id":"4","last_reported":1756577542,"current_range_meters":400,"station_id":"st_cvj6sg6p6f1abm77japg","pricing_plan_id":"cebpf4jnsgd1na2vs0mg"},{"bike_id":"0bc745e7-9353-4134-8a14-0accd8c01c62","system_id":"levelo_inurba_marseille","lat":43.24635,"lon":5.4316,"is_reserved":false,"is_disabled":true,"rental_uris":{"android":"levelo://app?vid=0bc745e7-9353-4134-8a14-0accd8c01c62","ios":"levelo://app?vid=0bc745e7-9353-4134-8a14-0accd8c01c62"},"vehicle_type_id":"4","last_reported":1756577542,"current_range_meters":400,"station_id":"st_d2m6c4gdas8pm72e190g","pricing_plan_id":"cebpf4jnsgd1na2vs0mg"},{"bike_id":"29fb25c7-f65d-4e48-8b9c-a0720416753a","system_id":"levelo_inurba_marseille","lat":43.28991,"lon":5.3757,"is_reserved":false,"is_disabled":true,"rental_uris":{"android":"levelo://app?vid=29fb25c7-f65d-4e48-8b9c-a0720416753a","ios":"levelo://app?vid=29fb25c7-f65d-4e48-8b9c-a0720416753a"},"vehicle_type_id":"4","last_reported":1756577542,"current_range_meters":800,"station_id":"ce4bh692rcd13ifvqe90","pricing_plan_id":"cebpf4jnsgd1na2vs0mg"},{"bike_id":"3a07394b-bfeb-45d5-9245-bd3b250ef9e1","system_id":"levelo_inurba_marseille","lat":43.28273,"lon":5.35067,"is_reserved":false,"is_disabled":true,"rental_uris":{"android":"levelo://app?vid=3a07394b-bfeb-45d5-9245-bd3b250ef9e1","ios":"levelo://app?vid=3a07394b-bfeb-45d5-9245-bd3b250ef9e1"},"vehicle_type_id":"4","last_reported":1756577542,"current_range_meters":800,"station_id":"ce4bhbp2rcd13ifvqerg","pricing_plan_id":"cebpf4jnsgd1na2vs0mg"},{"bike_id":"5f69bdc8-5d79-4192-b5d2-eebc5661db85","system_id":"levelo_inurba_marseille","lat":43.29274,"lon":5.36842,"is_reserved":false,"is_disabled":true,"rental_uris":{"android":"levelo://app?vid=5f69bdc8-5d79-4192-b5d2-eebc5661db85","ios":"levelo://app?vid=5f69bdc8-5d79-4192-b5d2-eebc5661db85"},"vehicle_type_id":"4","last_reported":1756577542,"current_range_meters":800,"station_id":"ce4bhbp2rcd13ifvqesg","pricing_plan_id":"cebpf4jnsgd1na2vs0mg"},{"bike_id":"ec159fe1-1e8e-4dff-a5d5-6612234f170d","system_id":"levelo_inurba_marseille","lat":43.2119,"lon":5.35076,"is_reserved":false,"is_disabled":true,"rental_uris":{"android":"levelo://app?vid=ec159fe1-1e8e-4dff-a5d5-6612234f170d","ios":"levelo://app?vid=ec159fe1-1e8e-4dff-a5d5-6612234f170d"},"vehicle_type_id":"4","last_reported":1756577542,"current_range_meters":800,"station_id":"st_cvj6sg6p6f1abm77japg","pricing_plan_id":"cebpf4jnsgd1na2vs0mg"},{"bike_id":"b9ba3f67-029d-4047-b745-6d9cd09b9b30","system_id":"levelo_inurba_marseille","lat":43.30956,"lon":5.39038,"is_reserved":false,"is_disabled":true,"rental_uris":{"android":"levelo://app?vid=b9ba3f67-029d-4047-b745-6d9cd09b9b30","ios":"levelo://app?vid=b9ba3f67-029d-4047-b745-6d9cd09b9b30"},"vehicle_type_id":"4","last_reported":1756577542,"current_range_meters":1200,"station_id":"ce4bgup2rcd13ifvqco0","pricing_plan_id":"cebpf4jnsgd1na2vs0mg"},{"bike_id":"38059493-7664-4fd0-aceb-05525a6a8449","system_id":"levelo_inurba_marseille","lat":43.2987,"lon":5.397315,"is_reserved":false,"is_disabled":true,"rental_uris":{"android":"levelo://app?vid=38059493-7664-4fd0-aceb-05525a6a8449","ios":"levelo://app?vid=38059493-7664-4fd0-aceb-05525a6a8449"},"vehicle_type_id":"4","last_reported":1756577542,"current_range_meters":1200,"station_id":"ce4bh0h2rcd13ifvqd50","pricing_plan_id":"cebpf4jnsgd1na2vs0mg"},{"bike_id":"9e5f98cc-02ee-4d54-9db5-47ad8e2c1c6c","system_id":"levelo_inurba_marseille","lat":43.28998,"lon":5.35615,"is_reserved":false,"is_disabled":true,"rental_uris":{"android":"levelo://app?vid=9e5f98cc-02ee-4d54-9db5-47ad8e2c1c6c","ios":"levelo://app?vid=9e5f98cc-02ee-4d54-9db5-47ad8e2c1c6c"},"vehicle_type_id":"4","last_reported":1756577542,"current_range_meters":1200,"station_id":"ce4bhb92rcd13ifvqen0","pricing_plan_id":"cebpf4jnsgd1na2vs0mg"},{"bike_id":"b2b5cc89-b330-4687-9841-338b63316cdd","system_id":"levelo_inurba_marseille","lat":43.27371,"lon":5.36261,"is_reserved":false,"is_disabled":true,"rental_uris":{"android":"levelo://app?vid=b2b5cc89-b330-4687-9841-338b63316cdd","ios":"levelo://app?vid=b2b5cc89-b330-4687-9841-338b63316cdd"},"vehicle_type_id":"4","last_reported":1756577542,"current_range_meters":1200,"station_id":"ce4bhbh2rcd13ifvqeo0","pricing_plan_id":"cebpf4jnsgd1na2vs0mg"},{"bike_id":"e31186fd-9c98-4756-8130-d44b160121e9","system_id":"levelo_inurba_marseille","lat":43.25576,"lon":5.38231,"is_reserved":false,"is_disabled":true,"rental_uris":{"android":"levelo://app?vid=e31186fd-9c98-4756-8130-d44b160121e9","ios":"levelo://app?vid=e31186fd-9c98-4756-8130-d44b160121e9"},"vehicle_type_id":"4","last_reported":1756577542,"current_range_meters":1200,"station_id":"ce4bhih2rcd13ifvqfs0","pricing_plan_id":"cebpf4jnsgd1na2vs0mg"},{"bike_id":"3a530e56-7676-4eac-b6c0-ea51130ad75c","system_id":"levelo_inurba_marseille","lat":43.286955,"lon":5.399861,"is_reserved":false,"is_disabled":true,"rental_uris":{"android":"levelo://app?vid=3a530e56-7676-4eac-b6c0-ea51130ad75c","ios":"levelo://app?vid=3a530e56-7676-4eac-b6c0-ea51130ad75c"},"vehicle_type_id":"4","last_reported":1756577542,"current_range_meters":1200,"station_id":"ce4bho92rcd13ifvqh3g","pricing_plan_id":"cebpf4jnsgd1na2vs0mg"},{"bike_id":"8fdef09c-2e7a-4a65-80df-a2d08d66be1e","system_id":"levelo_inurba_marseille","lat":43.225353,"lon":5.348401,"is_reserved":false,"is_disabled":true,"rental_uris":{"android":"levelo://app?vid=8fdef09c-2e7a-4a65-80df-a2d08d66be1e","ios":"levelo://app?vid=8fdef09c-2e7a-4a65-80df-a2d08d66be1e"},"vehicle_type_id":"4","last_reported":1756577542,"current_range_meters":1600,"station_id":"","pricing_plan_id":"cebpf4jnsgd1na2vs0mg"},{"bike_id":"a801a7ea-6a94-4d9f-86bd-6452e74ee61e","system_id":"levelo_inurba_marseille","lat":43.30302,"lon":5.39211,"is_reserved":false,"is_disabled":true,"rental_uris":{"android":"levelo://app?vid=a801a7ea-6a94-4d9f-86bd-6452e74ee61e","ios":"levelo://app?vid=a801a7ea-6a94-4d9f-86bd-6452e74ee61e"},"vehicle_type_id":"4","last_reported":1756577542,"current_range_meters":1600,"station_id":"ce4bgkh2rcd13ifvqbk0","pricing_plan_id":"cebpf4jnsgd1na2vs0mg"},{"bike_id":"f0088439-554c-4d43-9e9d-796ffaffdcef","system_id":"levelo_inurba_marseille","lat":43.303076,"lon":5.368969,"is_reserved":false,"is_disabled":true,"rental_uris":{"android":"levelo://app?vid=f0088439-554c-4d43-9e9d-796ffaffdcef","ios":"levelo://app?vid=f0088439-554c-4d43-9e9d-796ffaffdcef"},"vehicle_type_id":"4","last_reported":1756577542,"current_range_meters":1600,"station_id":"ce4bgqh2rcd13ifvqc5g","pricing_plan_id":"cebpf4jnsgd1na2vs0mg"},{"bike_id":"752ca3ca-cd80-411b-9bbd-026d286c19e4","system_id":"levelo_inurba_marseille","lat":43.31114,"lon":5.37774,"is_reserved":false,"is_disabled":true,"rental_uris":{"android":"levelo://app?vid=752ca3ca-cd80-411b-9bbd-026d286c19e4","ios":"levelo://app?vid=752ca3ca-cd80-411b-9bbd-026d286c19e4"},"vehicle_type_id":"4","last_reported":1756577542,"current_range_meters":1600,"station_id":"ce4bgt92rcd13ifvqcg0","pricing_plan_id":"cebpf4jnsgd1na2vs0mg"},{"bike_id":"25df216a-7895-497c-b31a-b6675bf4e66a","system_id":"levelo_inurba_marseille","lat":43.260229,"lon":5.375559,"is_reserved":false,"is_disabled":true,"rental_uris":{"android":"levelo://app?vid=25df216a-7895-497c-b31a-b6675bf4e66a","ios":"levelo://app?vid=25df216a-7895-497c-b31a-b6675bf4e66a"},"vehicle_type_id":"4","last_reported":1756577542,"current_range_meters":1600,"station_id":"ce4bhgh2rcd13ifvqfa0","pricing_plan_id":"cebpf4jnsgd1na2vs0mg"},{"bike_id":"8de5a322-e52e-42ff-8cdb-6c38bdf64d53","system_id":"levelo_inurba_marseille","lat":43.24804,"lon":5.37453,"is_reserved":false,"is_disabled":true,"rental_uris":{"android":"levelo://app?vid=8de5a322-e52e-42ff-8cdb-6c38bdf64d53","ios":"levelo://app?vid=8de5a322-e52e-42ff-8cdb-6c38bdf64d53"},"vehicle_type_id":"4","last_reported":1756577542,"current_range_meters":1600,"station_id":"ce4bhgh2rcd13ifvqfb0","pricing_plan_id":"cebpf4jnsgd1na2vs0mg"},{"bike_id":"c3dbf8a4-b762-4f7b-abf7-40c4f2d99f79","system_id":"levelo_inurba_marseille","lat":43.2821,"lon":5.390639,"is_reserved":false,"is_disabled":true,"rental_uris":{"android":"levelo://app?vid=c3dbf8a4-b762-4f7b-abf7-40c4f2d99f79","ios":"levelo://app?vid=c3dbf8a4-b762-4f7b-abf7-40c4f2d99f79"},"vehicle_type_id":"4","last_reported":1756577542,"current_range_meters":1600,"station_id":"ce4bhn92rcd13ifvqgsg","pricing_plan_id":"cebpf4jnsgd1na2vs0mg"},{"bike_id":"f79acb67-0b73-43e8-99cb-4c23669e1839","system_id":"levelo_inurba_marseille","lat":43.30346,"lon":5.40441,"is_reserved":false,"is_disabled":true,"rental_uris":{"android":"levelo://app?vid=f79acb67-0b73-43e8-99cb-4c23669e1839","ios":"levelo://app?vid=f79acb67-0b73-43e8-99cb-4c23669e1839"},"vehicle_type_id":"4","last_reported":1756577542,"current_range_meters":2000,"station_id":"ce4bh012rcd13ifvqd10","pricing_plan_id":"cebpf4jnsgd1na2vs0mg"},{"bike_id":"5704d050-36dc-4f3f-92f5-69b2242b7dc8","system_id":"levelo_inurba_marseille","lat":43.29035,"lon":5.39966,"is_reserved":false,"is_disabled":true,"rental_uris":{"android":"levelo://app?vid=5704d050-36dc-4f3f-92f5-69b2242b7dc8","ios":"levelo://app?vid=5704d050-36dc-4f3f-92f5-69b2242b7dc8"},"vehicle_type_id":"4","last_reported":1756577542,"current_range_meters":2000,"station_id":"ce4bh392rcd13ifvqdm0","pricing_plan_id":"cebpf4jnsgd1na2vs0mg"},{"bike_id":"ef53936d-43e2-4595-a9a0-53c2c028e3d9","system_id":"levelo_inurba_marseille","lat":43.27563,"lon":5.38419,"is_reserved":false,"is_disabled":true,"rental_uris":{"android":"levelo://app?vid=ef53936d-43e2-4595-a9a0-53c2c028e3d9","ios":"levelo://app?vid=ef53936d-43e2-4595-a9a0-53c2c028e3d9"},"vehicle_type_id":"4","last_reported":1756577542,"current_range_meters":2000,"station_id":"ce4bhh92rcd13ifvqfi0","pricing_plan_id":"cebpf4jnsgd1na2vs0mg"},{"bike_id":"9eb6fe01-f252-40fa-aba1-44bb1906e0b3","system_id":"levelo_inurba_marseille","lat":43.255767,"lon":5.382417,"is_reserved":false,"is_disabled":true,"rental_uris":{"android":"levelo://app?vid=9eb6fe01-f252-40fa-aba1-44bb1906e0b3","ios":"levelo://app?vid=9eb6fe01-f252-40fa-aba1-44bb1906e0b3"},"vehicle_type_id":"4","last_reported":1756577542,"current_range_meters":2000,"station_id":"ce4bhih2rcd13ifvqfs0","pricing_plan_id":"cebpf4jnsgd1na2vs0mg"},{"bike_id":"e05a3a4d-498c-4631-8229-a29fbd8dadfa","system_id":"levelo_inurba_marseille","lat":43.29977,"lon":5.37183,"is_reserved":false,"is_disabled":false,"rental_uris":{"android":"levelo://app?vid=e05a3a4d-498c-4631-8229-a29fbd8dadfa","ios":"levelo://app?vid=e05a3a4d-498c-4631-8229-a29fbd8dadfa"},"vehicle_type_id":"4","last_reported":1756577542,"current_range_meters":2800,"station_id":"ce4bgr92rcd13ifvqc7g","pricing_plan_id":"cebpf4jnsgd1na2vs0mg"},{"bike_id":"fda4b8ec-bc83-422f-870c-ea81703ee365","system_id":"levelo_inurba_marseille","lat":43.29017,"lon":5.38142,"is_reserved":false,"is_disabled":false,"rental_uris":{"android":"levelo://app?vid=fda4b8ec-bc83-422f-870c-ea81703ee365","ios":"levelo://app?vid=fda4b8ec-bc83-422f-870c-ea81703ee365"},"vehicle_type_id":"4","last_reported":1756577542,"current_range_meters":2800,"station_id":"ce4bh4p2rcd13ifvqe1g","pricing_plan_id":"cebpf4jnsgd1na2vs0mg"},{"bike_id":"f2247c47-b198-4eb7-8a40-9bf0629dafe6","system_id":"levelo_inurba_marseille","lat":43.32109,"lon":5.36769,"is_reserved":false,"is_disabled":false,"rental_uris":{"android":"levelo://app?vid=f2247c47-b198-4eb7-8a40-9bf0629dafe6","ios":"levelo://app?vid=f2247c47-b198-4eb7-8a40-9bf0629dafe6"},"vehicle_type_id":"4","last_reported":1756577542,"current_range_meters":2800,"station_id":"ce4bhrh2rcd13ifvqhug","pricing_plan_id":"cebpf4jnsgd1na2vs0mg"},{"bike_id":"a1415cd2-f9a6-4b70-ab03-ac55706b91f8","system_id":"levelo_inurba_marseille","lat":43.28107,"lon":5.37832,"is_reserved":false,"is_disabled":false,"rental_uris":{"android":"levelo://app?vid=a1415cd2-f9a6-4b70-ab03-ac55706b91f8","ios":"levelo://app?vid=a1415cd2-f9a6-4b70-ab03-ac55706b91f8"},"vehicle_type_id":"4","last_reported":1756577542,"current_range_meters":3200,"station_id":"ce4bha12rcd13ifvqee0","pricing_plan_id":"cebpf4jnsgd1na2vs0mg"},{"bike_id":"29e32767-f3a7-4028-a22f-70db45fb912a","system_id":"levelo_inurba_marseille","lat":43.27807,"lon":5.40716,"is_reserved":false,"is_disabled":false,"rental_uris":{"android":"levelo://app?vid=29e32767-f3a7-4028-a22f-70db45fb912a","ios":"levelo://app?vid=29e32767-f3a7-4028-a22f-70db45fb912a"},"vehicle_type_id":"4","last_reported":1756577542,"current_range_meters":3200,"station_id":"ce4bhnh2rcd13ifvqgtg","pricing_plan_id":"cebpf4jnsgd1na2vs0mg"},{"bike_id":"e0d3ea6c-0e68-4e94-9fea-ba7789461f93","system_id":"levelo_inurba_marseille","lat":43.225334,"lon":5.348319,"is_reserved":false,"is_disabled":false,"rental_uris":{"android":"levelo://app?vid=e0d3ea6c-0e68-4e94-9fea-ba7789461f93","ios":"levelo://app?vid=e0d3ea6c-0e68-4e94-9fea-ba7789461f93"},"vehicle_type_id":"4","last_reported":1756577542,"current_range_meters":3600,"station_id":"","pricing_plan_id":"cebpf4jnsgd1na2vs0mg"},{"bike_id":"1d5ea05e-c17a-4410-9fb8-cf7122059dba","system_id":"levelo_inurba_marseille","lat":43.28471,"lon":5.38414,"is_reserved":false,"is_disabled":false,"rental_uris":{"android":"levelo://app?vid=1d5ea05e-c17a-4410-9fb8-cf7122059dba","ios":"levelo://app?vid=1d5ea05e-c17a-4410-9fb8-cf7122059dba"},"vehicle_type_id":"4","last_reported":1756577542,"current_range_meters":3600,"station_id":"ce4bh512rcd13ifvqe3g","pricing_plan_id":"cebpf4jnsgd1na2vs0mg"},{"bike_id":"ffe1a88d-3dcb-477e-9cda-8b426ee42ec3","system_id":"levelo_inurba_marseille","lat":43.29776,"lon":5.37108,"is_reserved":false,"is_disabled":false,"rental_uris":{"android":"levelo://app?vid=ffe1a88d-3dcb-477e-9cda-8b426ee42ec3","ios":"levelo://app?vid=ffe1a88d-3dcb-477e-9cda-8b426ee42ec3"},"vehicle_type_id":"4","last_reported":1756577542,"current_range_meters":4000,"station_id":"ce4bgop2rcd13ifvqc1g","pricing_plan_id":"cebpf4jnsgd1na2vs0mg"},{"bike_id":"2c5fc815-702c-432e-a1c6-09bb178eea78","system_id":"levelo_inurba_marseille","lat":43.31326,"lon":5.39688,"is_reserved":false,"is_disabled":false,"rental_uris":{"android":"levelo://app?vid=2c5fc815-702c-432e-a1c6-09bb178eea78","ios":"levelo://app?vid=2c5fc815-702c-432e-a1c6-09bb178eea78"},"vehicle_type_id":"4","last_reported":1756577542,"current_range_meters":4000,"station_id":"ce4bgvp2rcd13ifvqcu0","pricing_plan_id":"cebpf4jnsgd1na2vs0mg"},{"bike_id":"41221eda-d84d-4212-8243-e4e55feedd3c","system_id":"levelo_inurba_marseille","lat":43.28037,"lon":5.36951,"is_reserved":false,"is_disabled":false,"rental_uris":{"android":"levelo://app?vid=41221eda-d84d-4212-8243-e4e55feedd3c","ios":"levelo://app?vid=41221eda-d84d-4212-8243-e4e55feedd3c"},"vehicle_type_id":"4","last_reported":1756577542,"current_range_meters":4000,"station_id":"ce4bha12rcd13ifvqef0","pricing_plan_id":"cebpf4jnsgd1na2vs0mg"},{"bike_id":"ee85892d-fcec-4fb2-8448-d0e0b7ef0dde","system_id":"levelo_inurba_marseille","lat":43.23194,"lon":5.35561,"is_reserved":false,"is_disabled":false,"rental_uris":{"android":"levelo://app?vid=ee85892d-fcec-4fb2-8448-d0e0b7ef0dde","ios":"levelo://app?vid=ee85892d-fcec-4fb2-8448-d0e0b7ef0dde"},"vehicle_type_id":"4","last_reported":1756577542,"current_range_meters":4000,"station_id":"ce4bhu92rcd13ifvqi70","pricing_plan_id":"cebpf4jnsgd1na2vs0mg"},{"bike_id":"09021194-c905-453e-b123-2d696aeb0768","system_id":"levelo_inurba_marseille","lat":43.281629,"lon":5.406353,"is_reserved":false,"is_disabled":false,"rental_uris":{"android":"levelo://app?vid=09021194-c905-453e-b123-2d696aeb0768","ios":"levelo://app?vid=09021194-c905-453e-b123-2d696aeb0768"},"vehicle_type_id":"4","last_reported":1756577542,"current_range_meters":4400,"station_id":"","pricing_plan_id":"cebpf4jnsgd1na2vs0mg"},{"bike_id":"69fe2963-6ec0-418f-ad20-7d69a7bc9244","system_id":"levelo_inurba_marseille","lat":43.23972,"lon":5.36634,"is_reserved":false,"is_disabled":false,"rental_uris":{"android":"levelo://app?vid=69fe2963-6ec0-418f-ad20-7d69a7bc9244","ios":"levelo://app?vid=69fe2963-6ec0-418f-ad20-7d69a7bc9244"},"vehicle_type_id":"4","last_reported":1756577542,"current_range_meters":4400,"station_id":"ce4bhi12rcd13ifvqfp0","pricing_plan_id":"cebpf4jnsgd1na2vs0mg"},{"bike_id":"dc091e28-d3bb-417a-b68d-c6c41ff125c6","system_id":"levelo_inurba_marseille","lat":43.28154,"lon":5.4265,"is_reserved":false,"is_disabled":false,"rental_uris":{"android":"levelo://app?vid=dc091e28-d3bb-417a-b68d-c6c41ff125c6","ios":"levelo://app?vid=dc091e28-d3bb-417a-b68d-c6c41ff125c6"},"vehicle_type_id":"4","last_reported":1756577542,"current_range_meters":4400,"station_id":"ce4bhnh2rcd13ifvqgug","pricing_plan_id":"cebpf4jnsgd1na2vs0mg"},{"bike_id":"b4080877-c5dc-476f-8ab3-3d8c6f3bb6ad","system_id":"levelo_inurba_marseille","lat":43.22534,"lon":5.348349,"is_reserved":false,"is_disabled":false,"rental_uris":{"android":"levelo://app?vid=b4080877-c5dc-476f-8ab3-3d8c6f3bb6ad","ios":"levelo://app?vid=b4080877-c5dc-476f-8ab3-3d8c6f3bb6ad"},"vehicle_type_id":"4","last_reported":1756577542,"current_range_meters":4800,"station_id":"","pricing_plan_id":"cebpf4jnsgd1na2vs0mg"},{"bike_id":"ee1b88cb-6a8d-4388-acc5-196518d650d7","system_id":"levelo_inurba_marseille","lat":43.21227,"lon":5.35029,"is_reserved":false,"is_disabled":false,"rental_uris":{"android":"levelo://app?vid=ee1b88cb-6a8d-4388-acc5-196518d650d7","ios":"levelo://app?vid=ee1b88cb-6a8d-4388-acc5-196518d650d7"},"vehicle_type_id":"4","last_reported":1756577542,"current_range_meters":4800,"station_id":"","pricing_plan_id":"cebpf4jnsgd1na2vs0mg"},{"bike_id":"11e3b63a-7498-4037-a1da-178dcd0fbd98","system_id":"levelo_inurba_marseille","lat":43.337444,"lon":5.374475,"is_reserved":false,"is_disabled":false,"rental_uris":{"android":"levelo://app?vid=11e3b63a-7498-4037-a1da-178dcd0fbd98","ios":"levelo://app?vid=11e3b63a-7498-4037-a1da-178dcd0fbd98"},"vehicle_type_id":"4","last_reported":1756577542,"current_range_meters":4800,"station_id":"","pricing_plan_id":"cebpf4jnsgd1na2vs0mg"},{"bike_id":"dd7583c1-8f40-4a0f-86c5-4c2970994311","system_id":"levelo_inurba_marseille","lat":43.297,"lon":5.36608,"is_reserved":false,"is_disabled":false,"rental_uris":{"android":"levelo://app?vid=dd7583c1-8f40-4a0f-86c5-4c2970994311","ios":"levelo://app?vid=dd7583c1-8f40-4a0f-86c5-4c2970994311"},"vehicle_type_id":"4","last_reported":1756577542,"current_range_meters":4800,"station_id":"ce4bgn12rcd13ifvqbt0","pricing_plan_id":"cebpf4jnsgd1na2vs0mg"},{"bike_id":"9a03d550-f3f6-4f83-bc58-6ecb11a5aa8c","system_id":"levelo_inurba_marseille","lat":43.29573,"lon":5.39965,"is_reserved":false,"is_disabled":false,"rental_uris":{"android":"levelo://app?vid=9a03d550-f3f6-4f83-bc58-6ecb11a5aa8c","ios":"levelo://app?vid=9a03d550-f3f6-4f83-bc58-6ecb11a5aa8c"},"vehicle_type_id":"4","last_reported":1756577542,"current_range_meters":4800,"station_id":"ce4bh312rcd13ifvqdj0","pricing_plan_id":"cebpf4jnsgd1na2vs0mg"},{"bike_id":"f306fc93-a7b6-4697-bf7a-6d1a4bf50345","system_id":"levelo_inurba_marseille","lat":43.26561,"lon":5.39019,"is_reserved":false,"is_disabled":false,"rental_uris":{"android":"levelo://app?vid=f306fc93-a7b6-4697-bf7a-6d1a4bf50345","ios":"levelo://app?vid=f306fc93-a7b6-4697-bf7a-6d1a4bf50345"},"vehicle_type_id":"4","last_reported":1756577542,"current_range_meters":4800,"station_id":"ce4bhe12rcd13ifvqf30","pricing_plan_id":"cebpf4jnsgd1na2vs0mg"},{"bike_id":"5a6d1dcd-851f-41d6-ab24-5f3c0592e7ed","system_id":"levelo_inurba_marseille","lat":43.25111,"lon":5.4032,"is_reserved":false,"is_disabled":false,"rental_uris":{"android":"levelo://app?vid=5a6d1dcd-851f-41d6-ab24-5f3c0592e7ed","ios":"levelo://app?vid=5a6d1dcd-851f-41d6-ab24-5f3c0592e7ed"},"vehicle_type_id":"4","last_reported":1756577542,"current_range_meters":4800,"station_id":"ce4bhlh2rcd13ifvqgig","pricing_plan_id":"cebpf4jnsgd1na2vs0mg"},{"bike_id":"59521d5b-78d8-4d56-91a3-95a35d06475c","system_id":"levelo_inurba_marseille","lat":43.22549,"lon":5.34869,"is_reserved":false,"is_disabled":false,"rental_uris":{"android":"levelo://app?vid=59521d5b-78d8-4d56-91a3-95a35d06475c","ios":"levelo://app?vid=59521d5b-78d8-4d56-91a3-95a35d06475c"},"vehicle_type_id":"4","last_reported":1756577542,"current_range_meters":4800,"station_id":"st_cvj5dfep6f1abm77gieg","pricing_plan_id":"cebpf4jnsgd1na2vs0mg"},{"bike_id":"4dd49e41-0c66-4bb6-a410-5ed732fad939","system_id":"levelo_inurba_marseille","lat":43.225394,"lon":5.348367,"is_reserved":false,"is_disabled":false,"rental_uris":{"android":"levelo://app?vid=4dd49e41-0c66-4bb6-a410-5ed732fad939","ios":"levelo://app?vid=4dd49e41-0c66-4bb6-a410-5ed732fad939"},"vehicle_type_id":"4","last_reported":1756577542,"current_range_meters":5600,"station_id":"","pricing_plan_id":"cebpf4jnsgd1na2vs0mg"},{"bike_id":"9c59c413-681e-437e-a4d8-c532b5e5f763","system_id":"levelo_inurba_marseille","lat":43.28346,"lon":5.38107,"is_reserved":false,"is_disabled":false,"rental_uris":{"android":"levelo://app?vid=9c59c413-681e-437e-a4d8-c532b5e5f763","ios":"levelo://app?vid=9c59c413-681e-437e-a4d8-c532b5e5f763"},"vehicle_type_id":"4","last_reported":1756577542,"current_range_meters":5600,"station_id":"ce4bh412rcd13ifvqdr0","pricing_plan_id":"cebpf4jnsgd1na2vs0mg"},{"bike_id":"7a391c3c-d850-484a-ba42-7df742af6a8a","system_id":"levelo_inurba_marseille","lat":43.27377,"lon":5.36254,"is_reserved":false,"is_disabled":false,"rental_uris":{"android":"levelo://app?vid=7a391c3c-d850-484a-ba42-7df742af6a8a","ios":"levelo://app?vid=7a391c3c-d850-484a-ba42-7df742af6a8a"},"vehicle_type_id":"4","last_reported":1756577542,"current_range_meters":6000,"station_id":"","pricing_plan_id":"cebpf4jnsgd1na2vs0mg"},{"bike_id":"f1757ade-4fe1-4bc0-9ec8-6c6da4a87c27","system_id":"levelo_inurba_marseille","lat":43.27376,"lon":5.36258,"is_reserved":false,"is_disabled":false,"rental_uris":{"android":"levelo://app?vid=f1757ade-4fe1-4bc0-9ec8-6c6da4a87c27","ios":"levelo://app?vid=f1757ade-4fe1-4bc0-9ec8-6c6da4a87c27"},"vehicle_type_id":"4","last_reported":1756577542,"current_range_meters":6000,"station_id":"ce4bhbh2rcd13ifvqeo0","pricing_plan_id":"cebpf4jnsgd1na2vs0mg"},{"bike_id":"6d364d59-29fd-4c55-b0ce-93b87f937ba7","system_id":"levelo_inurba_marseille","lat":43.27378,"lon":5.36259,"is_reserved":false,"is_disabled":false,"rental_uris":{"android":"levelo://app?vid=6d364d59-29fd-4c55-b0ce-93b87f937ba7","ios":"levelo://app?vid=6d364d59-29fd-4c55-b0ce-93b87f937ba7"},"vehicle_type_id":"4","last_reported":1756577542,"current_range_meters":6000,"station_id":"ce4bhbh2rcd13ifvqeo0","pricing_plan_id":"cebpf4jnsgd1na2vs0mg"},{"bike_id":"63883be0-69a6-4a7b-89ec-f9b5c3e87c9c","system_id":"levelo_inurba_marseille","lat":43.28478,"lon":5.38427,"is_reserved":false,"is_disabled":false,"rental_uris":{"android":"levelo://app?vid=63883be0-69a6-4a7b-89ec-f9b5c3e87c9c","ios":"levelo://app?vid=63883be0-69a6-4a7b-89ec-f9b5c3e87c9c"},"vehicle_type_id":"4","last_reported":1756577542,"current_range_meters":6400,"station_id":"ce4bh512rcd13ifvqe3g","pricing_plan_id":"cebpf4jnsgd1na2vs0mg"},{"bike_id":"f5410771-5ce5-4f9e-b9ce-4f5d969dc46a","system_id":"levelo_inurba_marseille","lat":43.23965,"lon":5.36637,"is_reserved":false,"is_disabled":false,"rental_uris":{"android":"levelo://app?vid=f5410771-5ce5-4f9e-b9ce-4f5d969dc46a","ios":"levelo://app?vid=f5410771-5ce5-4f9e-b9ce-4f5d969dc46a"},"vehicle_type_id":"4","last_reported":1756577542,"current_range_meters":6400,"station_id":"ce4bhi12rcd13ifvqfp0","pricing_plan_id":"cebpf4jnsgd1na2vs0mg"},{"bike_id":"c6450df6-6780-4c10-b4a2-edac64ddae37","system_id":"levelo_inurba_marseille","lat":43.27058,"lon":5.40265,"is_reserved":false,"is_disabled":false,"rental_uris":{"android":"levelo://app?vid=c6450df6-6780-4c10-b4a2-edac64ddae37","ios":"levelo://app?vid=c6450df6-6780-4c10-b4a2-edac64ddae37"},"vehicle_type_id":"4","last_reported":1756577542,"current_range_meters":6400,"station_id":"ce4bhk92rcd13ifvqgc0","pricing_plan_id":"cebpf4jnsgd1na2vs0mg"},{"bike_id":"94aba79d-fb5a-44da-b86f-ecdc8c02a175","system_id":"levelo_inurba_marseille","lat":43.251243,"lon":5.40324,"is_reserved":false,"is_disabled":false,"rental_uris":{"android":"levelo://app?vid=94aba79d-fb5a-44da-b86f-ecdc8c02a175","ios":"levelo://app?vid=94aba79d-fb5a-44da-b86f-ecdc8c02a175"},"vehicle_type_id":"4","last_reported":1756577542,"current_range_meters":6400,"station_id":"ce4bhlh2rcd13ifvqgig","pricing_plan_id":"cebpf4jnsgd1na2vs0mg"},{"bike_id":"4e1b8f8b-c8be-4cae-9fc0-ff94fae76cd1","system_id":"levelo_inurba_marseille","lat":43.32335,"lon":5.40631,"is_reserved":false,"is_disabled":false,"rental_uris":{"android":"levelo://app?vid=4e1b8f8b-c8be-4cae-9fc0-ff94fae76cd1","ios":"levelo://app?vid=4e1b8f8b-c8be-4cae-9fc0-ff94fae76cd1"},"vehicle_type_id":"4","last_reported":1756577542,"current_range_meters":6400,"station_id":"ce4bhq92rcd13ifvqhjg","pricing_plan_id":"cebpf4jnsgd1na2vs0mg"},{"bike_id":"2785e56f-72bc-4b0d-bf47-484e8f4cbdd3","system_id":"levelo_inurba_marseille","lat":43.33013,"lon":5.39039,"is_reserved":false,"is_disabled":false,"rental_uris":{"android":"levelo://app?vid=2785e56f-72bc-4b0d-bf47-484e8f4cbdd3","ios":"levelo://app?vid=2785e56f-72bc-4b0d-bf47-484e8f4cbdd3"},"vehicle_type_id":"4","last_reported":1756577542,"current_range_meters":6400,"station_id":"ce4bhr92rcd13ifvqhrg","pricing_plan_id":"cebpf4jnsgd1na2vs0mg"},{"bike_id":"fc1e738e-c72b-403e-9111-cc618f342c2d","system_id":"levelo_inurba_marseille","lat":43.21187,"lon":5.35096,"is_reserved":false,"is_disabled":false,"rental_uris":{"android":"levelo://app?vid=fc1e738e-c72b-403e-9111-cc618f342c2d","ios":"levelo://app?vid=fc1e738e-c72b-403e-9111-cc618f342c2d"},"vehicle_type_id":"4","last_reported":1756577542,"current_range_meters":6400,"station_id":"st_cvj6sg6p6f1abm77japg","pricing_plan_id":"cebpf4jnsgd1na2vs0mg"},{"bike_id":"5fd5df87-18a0-47cc-8cc5-2edf55a684fc","system_id":"levelo_inurba_marseille","lat":43.27287,"lon":5.4294,"is_reserved":false,"is_disabled":false,"rental_uris":{"android":"levelo://app?vid=5fd5df87-18a0-47cc-8cc5-2edf55a684fc","ios":"levelo://app?vid=5fd5df87-18a0-47cc-8cc5-2edf55a684fc"},"vehicle_type_id":"4","last_reported":1756577542,"current_range_meters":6800,"station_id":"","pricing_plan_id":"cebpf4jnsgd1na2vs0mg"},{"bike_id":"a782b8e3-0ef4-49e6-afba-0afa001b190c","system_id":"levelo_inurba_marseille","lat":43.283501,"lon":5.434112,"is_reserved":false,"is_disabled":false,"rental_uris":{"android":"levelo://app?vid=a782b8e3-0ef4-49e6-afba-0afa001b190c","ios":"levelo://app?vid=a782b8e3-0ef4-49e6-afba-0afa001b190c"},"vehicle_type_id":"4","last_reported":1756577542,"current_range_meters":6800,"station_id":"","pricing_plan_id":"cebpf4jnsgd1na2vs0mg"},{"bike_id":"b601d92d-d7cf-4ee1-90df-a3eb0d88b25f","system_id":"levelo_inurba_marseille","lat":43.29,"lon":5.35612,"is_reserved":false,"is_disabled":false,"rental_uris":{"android":"levelo://app?vid=b601d92d-d7cf-4ee1-90df-a3eb0d88b25f","ios":"levelo://app?vid=b601d92d-d7cf-4ee1-90df-a3eb0d88b25f"},"vehicle_type_id":"4","last_reported":1756577542,"current_range_meters":6800,"station_id":"ce4bhb92rcd13ifvqen0","pricing_plan_id":"cebpf4jnsgd1na2vs0mg"},{"bike_id":"64df4b01-7f8d-4baa-a344-da698656ec92","system_id":"levelo_inurba_marseille","lat":43.24805,"lon":5.37455,"is_reserved":false,"is_disabled":false,"rental_uris":{"android":"levelo://app?vid=64df4b01-7f8d-4baa-a344-da698656ec92","ios":"levelo://app?vid=64df4b01-7f8d-4baa-a344-da698656ec92"},"vehicle_type_id":"4","last_reported":1756577542,"current_range_meters":6800,"station_id":"ce4bhgh2rcd13ifvqfb0","pricing_plan_id":"cebpf4jnsgd1na2vs0mg"},{"bike_id":"70b7a291-e3ad-44ce-aee9-d9b2d670d7cd","system_id":"levelo_inurba_marseille","lat":43.23965,"lon":5.36631,"is_reserved":false,"is_disabled":false,"rental_uris":{"android":"levelo://app?vid=70b7a291-e3ad-44ce-aee9-d9b2d670d7cd","ios":"levelo://app?vid=70b7a291-e3ad-44ce-aee9-d9b2d670d7cd"},"vehicle_type_id":"4","last_reported":1756577542,"current_range_meters":6800,"station_id":"ce4bhi12rcd13ifvqfp0","pricing_plan_id":"cebpf4jnsgd1na2vs0mg"},{"bike_id":"a3267735-3fcc-4290-9b16-88ce2e79fe4c","system_id":"levelo_inurba_marseille","lat":43.26809,"lon":5.40233,"is_reserved":false,"is_disabled":false,"rental_uris":{"android":"levelo://app?vid=a3267735-3fcc-4290-9b16-88ce2e79fe4c","ios":"levelo://app?vid=a3267735-3fcc-4290-9b16-88ce2e79fe4c"},"vehicle_type_id":"4","last_reported":1756577542,"current_range_meters":6800,"station_id":"ce501612rcd8frsf0b60","pricing_plan_id":"cebpf4jnsgd1na2vs0mg"},{"bike_id":"4fa1b941-c937-4afe-95fc-7ef983374d0b","system_id":"levelo_inurba_marseille","lat":43.299722,"lon":5.384931,"is_reserved":false,"is_disabled":false,"rental_uris":{"android":"levelo://app?vid=4fa1b941-c937-4afe-95fc-7ef983374d0b","ios":"levelo://app?vid=4fa1b941-c937-4afe-95fc-7ef983374d0b"},"vehicle_type_id":"4","last_reported":1756577542,"current_range_meters":7200,"station_id":"ce4bgj92rcd13ifvqbd0","pricing_plan_id":"cebpf4jnsgd1na2vs0mg"},{"bike_id":"25ef6414-5a84-41fe-bc1a-73087d5c0099","system_id":"levelo_inurba_marseille","lat":43.32109,"lon":5.36768,"is_reserved":false,"is_disabled":false,"rental_uris":{"android":"levelo://app?vid=25ef6414-5a84-41fe-bc1a-73087d5c0099","ios":"levelo://app?vid=25ef6414-5a84-41fe-bc1a-73087d5c0099"},"vehicle_type_id":"4","last_reported":1756577542,"current_range_meters":7200,"station_id":"ce4bhrh2rcd13ifvqhug","pricing_plan_id":"cebpf4jnsgd1na2vs0mg"},{"bike_id":"2f8ee034-ee62-4e77-85d3-d84f5e60b0e8","system_id":"levelo_inurba_marseille","lat":43.2861,"lon":5.37067,"is_reserved":false,"is_disabled":false,"rental_uris":{"android":"levelo://app?vid=2f8ee034-ee62-4e77-85d3-d84f5e60b0e8","ios":"levelo://app?vid=2f8ee034-ee62-4e77-85d3-d84f5e60b0e8"},"vehicle_type_id":"4","last_reported":1756577542,"current_range_meters":7200,"station_id":"ce4bht12rcd13ifvqi60","pricing_plan_id":"cebpf4jnsgd1na2vs0mg"},{"bike_id":"d810acf0-5bd2-4bf1-848d-31cd30d105e6","system_id":"levelo_inurba_marseille","lat":43.24629,"lon":5.43146,"is_reserved":false,"is_disabled":true,"rental_uris":{"android":"levelo://app?vid=d810acf0-5bd2-4bf1-848d-31cd30d105e6","ios":"levelo://app?vid=d810acf0-5bd2-4bf1-848d-31cd30d105e6"},"vehicle_type_id":"4","last_reported":1756577542,"current_range_meters":7200,"station_id":"st_d2m6c4gdas8pm72e190g","pricing_plan_id":"cebpf4jnsgd1na2vs0mg"},{"bike_id":"3fc4640a-0309-4859-a880-b0c019c33a0b","system_id":"levelo_inurba_marseille","lat":43.30459,"lon":5.37906,"is_reserved":false,"is_disabled":false,"rental_uris":{"android":"levelo://app?vid=3fc4640a-0309-4859-a880-b0c019c33a0b","ios":"levelo://app?vid=3fc4640a-0309-4859-a880-b0c019c33a0b"},"vehicle_type_id":"4","last_reported":1756577542,"current_range_meters":8000,"station_id":"ce4bgup2rcd13ifvqcn0","pricing_plan_id":"cebpf4jnsgd1na2vs0mg"},{"bike_id":"4980fee3-101e-4c6b-9993-5017477b5d14","system_id":"levelo_inurba_marseille","lat":43.274261,"lon":5.361854,"is_reserved":false,"is_disabled":false,"rental_uris":{"android":"levelo://app?vid=4980fee3-101e-4c6b-9993-5017477b5d14","ios":"levelo://app?vid=4980fee3-101e-4c6b-9993-5017477b5d14"},"vehicle_type_id":"4","last_reported":1756577542,"current_range_meters":8000,"station_id":"ce4bhbh2rcd13ifvqeo0","pricing_plan_id":"cebpf4jnsgd1na2vs0mg"},{"bike_id":"3a0e0d1f-d0cd-4134-a026-9c9d5150312e","system_id":"levelo_inurba_marseille","lat":43.24801,"lon":5.37456,"is_reserved":false,"is_disabled":false,"rental_uris":{"android":"levelo://app?vid=3a0e0d1f-d0cd-4134-a026-9c9d5150312e","ios":"levelo://app?vid=3a0e0d1f-d0cd-4134-a026-9c9d5150312e"},"vehicle_type_id":"4","last_reported":1756577542,"current_range_meters":8000,"station_id":"ce4bhgh2rcd13ifvqfb0","pricing_plan_id":"cebpf4jnsgd1na2vs0mg"},{"bike_id":"26908c19-7477-4c22-83b4-a3300b980291","system_id":"levelo_inurba_marseille","lat":43.299525,"lon":5.371754,"is_reserved":false,"is_disabled":false,"rental_uris":{"android":"levelo://app?vid=26908c19-7477-4c22-83b4-a3300b980291","ios":"levelo://app?vid=26908c19-7477-4c22-83b4-a3300b980291"},"vehicle_type_id":"4","last_reported":1756577542,"current_range_meters":8400,"station_id":"ce4bgr92rcd13ifvqc7g","pricing_plan_id":"cebpf4jnsgd1na2vs0mg"},{"bike_id":"25cd00db-01be-417e-be8c-5fbfa79ebce8","system_id":"levelo_inurba_marseille","lat":43.3095,"lon":5.39032,"is_reserved":false,"is_disabled":false,"rental_uris":{"android":"levelo://app?vid=25cd00db-01be-417e-be8c-5fbfa79ebce8","ios":"levelo://app?vid=25cd00db-01be-417e-be8c-5fbfa79ebce8"},"vehicle_type_id":"4","last_reported":1756577542,"current_range_meters":8400,"station_id":"ce4bgup2rcd13ifvqco0","pricing_plan_id":"cebpf4jnsgd1na2vs0mg"},{"bike_id":"341578d7-b7f5-4193-b345-424b68625260","system_id":"levelo_inurba_marseille","lat":43.311716,"lon":5.387164,"is_reserved":false,"is_disabled":false,"rental_uris":{"android":"levelo://app?vid=341578d7-b7f5-4193-b345-424b68625260","ios":"levelo://app?vid=341578d7-b7f5-4193-b345-424b68625260"},"vehicle_type_id":"4","last_reported":1756577542,"current_range_meters":8400,"station_id":"ce4bgv12rcd13ifvqcp0","pricing_plan_id":"cebpf4jnsgd1na2vs0mg"},{"bike_id":"989f1980-7d31-4bd0-864e-d3ed46e27e15","system_id":"levelo_inurba_marseille","lat":43.32374,"lon":5.38904,"is_reserved":false,"is_disabled":false,"rental_uris":{"android":"levelo://app?vid=989f1980-7d31-4bd0-864e-d3ed46e27e15","ios":"levelo://app?vid=989f1980-7d31-4bd0-864e-d3ed46e27e15"},"vehicle_type_id":"4","last_reported":1756577542,"current_range_meters":8400,"station_id":"ce4bhqp2rcd13ifvqhog","pricing_plan_id":"cebpf4jnsgd1na2vs0mg"},{"bike_id":"ff4ced9f-2139-4dde-a638-be71ee9df5a0","system_id":"levelo_inurba_marseille","lat":43.33023,"lon":5.39043,"is_reserved":false,"is_disabled":false,"rental_uris":{"android":"levelo://app?vid=ff4ced9f-2139-4dde-a638-be71ee9df5a0","ios":"levelo://app?vid=ff4ced9f-2139-4dde-a638-be71ee9df5a0"},"vehicle_type_id":"4","last_reported":1756577542,"current_range_meters":8400,"station_id":"ce4bhr92rcd13ifvqhrg","pricing_plan_id":"cebpf4jnsgd1na2vs0mg"},{"bike_id":"6a016b1f-6ff2-4367-9e46-b5ac09f5876c","system_id":"levelo_inurba_marseille","lat":43.291831,"lon":5.36542,"is_reserved":false,"is_disabled":false,"rental_uris":{"android":"levelo://app?vid=6a016b1f-6ff2-4367-9e46-b5ac09f5876c","ios":"levelo://app?vid=6a016b1f-6ff2-4367-9e46-b5ac09f5876c"},"vehicle_type_id":"4","last_reported":1756577542,"current_range_meters":8800,"station_id":"ce4bgih2rcd13ifvqba0","pricing_plan_id":"cebpf4jnsgd1na2vs0mg"},{"bike_id":"807668fa-96a7-4950-a792-671320325e2f","system_id":"levelo_inurba_marseille","lat":43.29527,"lon":5.38535,"is_reserved":false,"is_disabled":false,"rental_uris":{"android":"levelo://app?vid=807668fa-96a7-4950-a792-671320325e2f","ios":"levelo://app?vid=807668fa-96a7-4950-a792-671320325e2f"},"vehicle_type_id":"4","last_reported":1756577542,"current_range_meters":8800,"station_id":"ce4bgih2rcd13ifvqba0","pricing_plan_id":"cebpf4jnsgd1na2vs0mg"},{"bike_id":"b9fb9b49-04d0-4fb9-9d00-da9a207ba3da","system_id":"levelo_inurba_marseille","lat":43.29787,"lon":5.37106,"is_reserved":false,"is_disabled":false,"rental_uris":{"android":"levelo://app?vid=b9fb9b49-04d0-4fb9-9d00-da9a207ba3da","ios":"levelo://app?vid=b9fb9b49-04d0-4fb9-9d00-da9a207ba3da"},"vehicle_type_id":"4","last_reported":1756577542,"current_range_meters":8800,"station_id":"ce4bgop2rcd13ifvqc1g","pricing_plan_id":"cebpf4jnsgd1na2vs0mg"},{"bike_id":"f582e531-c847-4f54-bb7a-5f9dac5a34e1","system_id":"levelo_inurba_marseille","lat":43.31362,"lon":5.38503,"is_reserved":false,"is_disabled":false,"rental_uris":{"android":"levelo://app?vid=f582e531-c847-4f54-bb7a-5f9dac5a34e1","ios":"levelo://app?vid=f582e531-c847-4f54-bb7a-5f9dac5a34e1"},"vehicle_type_id":"4","last_reported":1756577542,"current_range_meters":8800,"station_id":"ce4bgt92rcd13ifvqcf0","pricing_plan_id":"cebpf4jnsgd1na2vs0mg"},{"bike_id":"b29a93e4-c601-432b-b947-f1ee7ae32754","system_id":"levelo_inurba_marseille","lat":43.300592,"lon":5.389945,"is_reserved":false,"is_disabled":false,"rental_uris":{"android":"levelo://app?vid=b29a93e4-c601-432b-b947-f1ee7ae32754","ios":"levelo://app?vid=b29a93e4-c601-432b-b947-f1ee7ae32754"},"vehicle_type_id":"4","last_reported":1756577542,"current_range_meters":8800,"station_id":"ce4bgvp2rcd13ifvqct0","pricing_plan_id":"cebpf4jnsgd1na2vs0mg"},{"bike_id":"90f60e8f-2c1b-4bdb-b91f-2a737329d789","system_id":"levelo_inurba_marseille","lat":43.29887,"lon":5.38887,"is_reserved":false,"is_disabled":false,"rental_uris":{"android":"levelo://app?vid=90f60e8f-2c1b-4bdb-b91f-2a737329d789","ios":"levelo://app?vid=90f60e8f-2c1b-4bdb-b91f-2a737329d789"},"vehicle_type_id":"4","last_reported":1756577542,"current_range_meters":8800,"station_id":"ce4bh392rcd13ifvqdl0","pricing_plan_id":"cebpf4jnsgd1na2vs0mg"},{"bike_id":"ba676230-d554-4947-bff1-f5c8506229d6","system_id":"levelo_inurba_marseille","lat":43.26953,"lon":5.38632,"is_reserved":false,"is_disabled":false,"rental_uris":{"android":"levelo://app?vid=ba676230-d554-4947-bff1-f5c8506229d6","ios":"levelo://app?vid=ba676230-d554-4947-bff1-f5c8506229d6"},"vehicle_type_id":"4","last_reported":1756577542,"current_range_meters":8800,"station_id":"ce4bhh92rcd13ifvqfh0","pricing_plan_id":"cebpf4jnsgd1na2vs0mg"},{"bike_id":"44ca0735-58ee-4441-b156-7891e76fc45c","system_id":"levelo_inurba_marseille","lat":43.262008,"lon":5.379272,"is_reserved":false,"is_disabled":false,"rental_uris":{"android":"levelo://app?vid=44ca0735-58ee-4441-b156-7891e76fc45c","ios":"levelo://app?vid=44ca0735-58ee-4441-b156-7891e76fc45c"},"vehicle_type_id":"4","last_reported":1756577542,"current_range_meters":8800,"station_id":"ce4bhjp2rcd13ifvqg90","pricing_plan_id":"cebpf4jnsgd1na2vs0mg"},{"bike_id":"51ef1eee-3584-44d6-b0f6-2a9c50e2ff52","system_id":"levelo_inurba_marseille","lat":43.29266,"lon":5.38431,"is_reserved":false,"is_disabled":false,"rental_uris":{"android":"levelo://app?vid=51ef1eee-3584-44d6-b0f6-2a9c50e2ff52","ios":"levelo://app?vid=51ef1eee-3584-44d6-b0f6-2a9c50e2ff52"},"vehicle_type_id":"4","last_reported":1756577542,"current_range_meters":9200,"station_id":"","pricing_plan_id":"cebpf4jnsgd1na2vs0mg"},{"bike_id":"adaa0c4e-4fca-4be2-9f86-72536a7a8cab","system_id":"levelo_inurba_marseille","lat":43.30127,"lon":5.39866,"is_reserved":false,"is_disabled":false,"rental_uris":{"android":"levelo://app?vid=adaa0c4e-4fca-4be2-9f86-72536a7a8cab","ios":"levelo://app?vid=adaa0c4e-4fca-4be2-9f86-72536a7a8cab"},"vehicle_type_id":"4","last_reported":1756577542,"current_range_meters":9200,"station_id":"ce4bh0h2rcd13ifvqd40","pricing_plan_id":"cebpf4jnsgd1na2vs0mg"},{"bike_id":"5946b7fb-a16a-4014-94c8-a3fcbc1c46b6","system_id":"levelo_inurba_marseille","lat":43.26698,"lon":5.38258,"is_reserved":false,"is_disabled":false,"rental_uris":{"android":"levelo://app?vid=5946b7fb-a16a-4014-94c8-a3fcbc1c46b6","ios":"levelo://app?vid=5946b7fb-a16a-4014-94c8-a3fcbc1c46b6"},"vehicle_type_id":"4","last_reported":1756577542,"current_range_meters":9200,"station_id":"ce4bhg92rcd13ifvqf90","pricing_plan_id":"cebpf4jnsgd1na2vs0mg"},{"bike_id":"a4abc8f5-96ef-4a31-a49c-9dc62cca86a5","system_id":"levelo_inurba_marseille","lat":43.25497,"lon":5.3765,"is_reserved":false,"is_disabled":false,"rental_uris":{"android":"levelo://app?vid=a4abc8f5-96ef-4a31-a49c-9dc62cca86a5","ios":"levelo://app?vid=a4abc8f5-96ef-4a31-a49c-9dc62cca86a5"},"vehicle_type_id":"4","last_reported":1756577542,"current_range_meters":9200,"station_id":"ce4bhh12rcd13ifvqff0","pricing_plan_id":"cebpf4jnsgd1na2vs0mg"},{"bike_id":"bb9faaff-032e-4f32-a311-e01d94d7b7db","system_id":"levelo_inurba_marseille","lat":43.282626,"lon":5.43148,"is_reserved":false,"is_disabled":false,"rental_uris":{"android":"levelo://app?vid=bb9faaff-032e-4f32-a311-e01d94d7b7db","ios":"levelo://app?vid=bb9faaff-032e-4f32-a311-e01d94d7b7db"},"vehicle_type_id":"4","last_reported":1756577542,"current_range_meters":9600,"station_id":"","pricing_plan_id":"cebpf4jnsgd1na2vs0mg"},{"bike_id":"8fe53d1b-b394-4a18-b5d7-6148e612ade9","system_id":"levelo_inurba_marseille","lat":43.29161,"lon":5.3715,"is_reserved":false,"is_disabled":false,"rental_uris":{"android":"levelo://app?vid=8fe53d1b-b394-4a18-b5d7-6148e612ade9","ios":"levelo://app?vid=8fe53d1b-b394-4a18-b5d7-6148e612ade9"},"vehicle_type_id":"4","last_reported":1756577542,"current_range_meters":9600,"station_id":"ce4bha92rcd13ifvqeh0","pricing_plan_id":"cebpf4jnsgd1na2vs0mg"},{"bike_id":"391fbafc-980f-4fa4-a1e1-f36090aade02","system_id":"levelo_inurba_marseille","lat":43.24802,"lon":5.37454,"is_reserved":false,"is_disabled":false,"rental_uris":{"android":"levelo://app?vid=391fbafc-980f-4fa4-a1e1-f36090aade02","ios":"levelo://app?vid=391fbafc-980f-4fa4-a1e1-f36090aade02"},"vehicle_type_id":"4","last_reported":1756577542,"current_range_meters":9600,"station_id":"ce4bhgh2rcd13ifvqfb0","pricing_plan_id":"cebpf4jnsgd1na2vs0mg"},{"bike_id":"bf8eb758-0c4a-49a1-9325-307e2e815ec0","system_id":"levelo_inurba_marseille","lat":43.25504,"lon":5.3765,"is_reserved":false,"is_disabled":false,"rental_uris":{"android":"levelo://app?vid=bf8eb758-0c4a-49a1-9325-307e2e815ec0","ios":"levelo://app?vid=bf8eb758-0c4a-49a1-9325-307e2e815ec0"},"vehicle_type_id":"4","last_reported":1756577542,"current_range_meters":9600,"station_id":"ce4bhh12rcd13ifvqff0","pricing_plan_id":"cebpf4jnsgd1na2vs0mg"},{"bike_id":"460da74f-627a-4bc4-b3b5-5a79a5ea7dff","system_id":"levelo_inurba_marseille","lat":43.27069,"lon":5.42278,"is_reserved":false,"is_disabled":false,"rental_uris":{"android":"levelo://app?vid=460da74f-627a-4bc4-b3b5-5a79a5ea7dff","ios":"levelo://app?vid=460da74f-627a-4bc4-b3b5-5a79a5ea7dff"},"vehicle_type_id":"4","last_reported":1756577542,"current_range_meters":9600,"station_id":"ce4bhk92rcd13ifvqgb0","pricing_plan_id":"cebpf4jnsgd1na2vs0mg"},{"bike_id":"8c3b340b-dab0-4f7d-bbd0-abcf0e056a57","system_id":"levelo_inurba_marseille","lat":43.2718,"lon":5.40983,"is_reserved":false,"is_disabled":false,"rental_uris":{"android":"levelo://app?vid=8c3b340b-dab0-4f7d-bbd0-abcf0e056a57","ios":"levelo://app?vid=8c3b340b-dab0-4f7d-bbd0-abcf0e056a57"},"vehicle_type_id":"4","last_reported":1756577542,"current_range_meters":9600,"station_id":"ce4bhl12rcd13ifvqgf0","pricing_plan_id":"cebpf4jnsgd1na2vs0mg"},{"bike_id":"f0e4e14d-436d-474b-b725-f5d49cc614a0","system_id":"levelo_inurba_marseille","lat":43.21172,"lon":5.3508,"is_reserved":false,"is_disabled":false,"rental_uris":{"android":"levelo://app?vid=f0e4e14d-436d-474b-b725-f5d49cc614a0","ios":"levelo://app?vid=f0e4e14d-436d-474b-b725-f5d49cc614a0"},"vehicle_type_id":"4","last_reported":1756577542,"current_range_meters":9600,"station_id":"st_cvj6sg6p6f1abm77japg","pricing_plan_id":"cebpf4jnsgd1na2vs0mg"},{"bike_id":"89396993-514d-437d-a1f7-8d7e86a4f397","system_id":"levelo_inurba_marseille","lat":43.27621,"lon":5.36108,"is_reserved":false,"is_disabled":false,"rental_uris":{"android":"levelo://app?vid=89396993-514d-437d-a1f7-8d7e86a4f397","ios":"levelo://app?vid=89396993-514d-437d-a1f7-8d7e86a4f397"},"vehicle_type_id":"4","last_reported":1756577542,"current_range_meters":10000,"station_id":"ce4bgj92rcd13ifvqbe0","pricing_plan_id":"cebpf4jnsgd1na2vs0mg"},{"bike_id":"1da8f2db-e4ff-4381-afd3-c2e0ab40fd90","system_id":"levelo_inurba_marseille","lat":43.30944,"lon":5.38997,"is_reserved":false,"is_disabled":false,"rental_uris":{"android":"levelo://app?vid=1da8f2db-e4ff-4381-afd3-c2e0ab40fd90","ios":"levelo://app?vid=1da8f2db-e4ff-4381-afd3-c2e0ab40fd90"},"vehicle_type_id":"4","last_reported":1756577542,"current_range_meters":10000,"station_id":"ce4bgup2rcd13ifvqco0","pricing_plan_id":"cebpf4jnsgd1na2vs0mg"},{"bike_id":"8210cc17-58f7-4cd1-9cb9-cf8353e9f2b5","system_id":"levelo_inurba_marseille","lat":43.28427,"lon":5.34996,"is_reserved":false,"is_disabled":false,"rental_uris":{"android":"levelo://app?vid=8210cc17-58f7-4cd1-9cb9-cf8353e9f2b5","ios":"levelo://app?vid=8210cc17-58f7-4cd1-9cb9-cf8353e9f2b5"},"vehicle_type_id":"4","last_reported":1756577542,"current_range_meters":10000,"station_id":"ce4bhbh2rcd13ifvqepg","pricing_plan_id":"cebpf4jnsgd1na2vs0mg"},{"bike_id":"c471b3d8-05e6-406e-b1fe-48fe30c816c6","system_id":"levelo_inurba_marseille","lat":43.26027,"lon":5.37551,"is_reserved":false,"is_disabled":false,"rental_uris":{"android":"levelo://app?vid=c471b3d8-05e6-406e-b1fe-48fe30c816c6","ios":"levelo://app?vid=c471b3d8-05e6-406e-b1fe-48fe30c816c6"},"vehicle_type_id":"4","last_reported":1756577542,"current_range_meters":10000,"station_id":"ce4bhgh2rcd13ifvqfa0","pricing_plan_id":"cebpf4jnsgd1na2vs0mg"},{"bike_id":"f9b9de41-8fc3-401a-a9eb-d78fe362ee69","system_id":"levelo_inurba_marseille","lat":43.282184,"lon":5.390516,"is_reserved":false,"is_disabled":false,"rental_uris":{"android":"levelo://app?vid=f9b9de41-8fc3-401a-a9eb-d78fe362ee69","ios":"levelo://app?vid=f9b9de41-8fc3-401a-a9eb-d78fe362ee69"},"vehicle_type_id":"4","last_reported":1756577542,"current_range_meters":10000,"station_id":"ce4bhn92rcd13ifvqgsg","pricing_plan_id":"cebpf4jnsgd1na2vs0mg"},{"bike_id":"355a8e96-55c5-4cc5-9872-7da6847dec8b","system_id":"levelo_inurba_marseille","lat":43.21186,"lon":5.35099,"is_reserved":false,"is_disabled":false,"rental_uris":{"android":"levelo://app?vid=355a8e96-55c5-4cc5-9872-7da6847dec8b","ios":"levelo://app?vid=355a8e96-55c5-4cc5-9872-7da6847dec8b"},"vehicle_type_id":"4","last_reported":1756577542,"current_range_meters":10000,"station_id":"st_cvj6sg6p6f1abm77japg","pricing_plan_id":"cebpf4jnsgd1na2vs0mg"},{"bike_id":"1a6c55c3-5641-49f7-836d-fbf2e21984d7","system_id":"levelo_inurba_marseille","lat":43.31836,"lon":5.37359,"is_reserved":false,"is_disabled":false,"rental_uris":{"android":"levelo://app?vid=1a6c55c3-5641-49f7-836d-fbf2e21984d7","ios":"levelo://app?vid=1a6c55c3-5641-49f7-836d-fbf2e21984d7"},"vehicle_type_id":"4","last_reported":1756577542,"current_range_meters":10800,"station_id":"","pricing_plan_id":"cebpf4jnsgd1na2vs0mg"},{"bike_id":"329cd2e3-3f50-464b-b205-37b738369eeb","system_id":"levelo_inurba_marseille","lat":43.32356,"lon":5.36679,"is_reserved":false,"is_disabled":false,"rental_uris":{"android":"levelo://app?vid=329cd2e3-3f50-464b-b205-37b738369eeb","ios":"levelo://app?vid=329cd2e3-3f50-464b-b205-37b738369eeb"},"vehicle_type_id":"4","last_reported":1756577542,"current_range_meters":10800,"station_id":"","pricing_plan_id":"cebpf4jnsgd1na2vs0mg"},{"bike_id":"9a46c7d1-f684-4f02-b768-6be443f10801","system_id":"levelo_inurba_marseille","lat":43.26582,"lon":5.39048,"is_reserved":false,"is_disabled":false,"rental_uris":{"android":"levelo://app?vid=9a46c7d1-f684-4f02-b768-6be443f10801","ios":"levelo://app?vid=9a46c7d1-f684-4f02-b768-6be443f10801"},"vehicle_type_id":"4","last_reported":1756577542,"current_range_meters":10800,"station_id":"ce4bhe12rcd13ifvqf30","pricing_plan_id":"cebpf4jnsgd1na2vs0mg"},{"bike_id":"88246e24-d9f1-4d57-a195-e9b6bce00854","system_id":"levelo_inurba_marseille","lat":43.24652,"lon":5.38901,"is_reserved":false,"is_disabled":false,"rental_uris":{"android":"levelo://app?vid=88246e24-d9f1-4d57-a195-e9b6bce00854","ios":"levelo://app?vid=88246e24-d9f1-4d57-a195-e9b6bce00854"},"vehicle_type_id":"4","last_reported":1756577542,"current_range_meters":10800,"station_id":"ce4bhg12rcd13ifvqf60","pricing_plan_id":"cebpf4jnsgd1na2vs0mg"},{"bike_id":"94b8c439-3a39-4702-a784-65ebf30e2834","system_id":"levelo_inurba_marseille","lat":43.26059,"lon":5.39397,"is_reserved":false,"is_disabled":false,"rental_uris":{"android":"levelo://app?vid=94b8c439-3a39-4702-a784-65ebf30e2834","ios":"levelo://app?vid=94b8c439-3a39-4702-a784-65ebf30e2834"},"vehicle_type_id":"4","last_reported":1756577542,"current_range_meters":10800,"station_id":"ce4bhh92rcd13ifvqfj0","pricing_plan_id":"cebpf4jnsgd1na2vs0mg"},{"bike_id":"cc3c6e2b-9133-4ae2-962f-1a0f3a17137e","system_id":"levelo_inurba_marseille","lat":43.31767,"lon":5.3902,"is_reserved":false,"is_disabled":false,"rental_uris":{"android":"levelo://app?vid=cc3c6e2b-9133-4ae2-962f-1a0f3a17137e","ios":"levelo://app?vid=cc3c6e2b-9133-4ae2-962f-1a0f3a17137e"},"vehicle_type_id":"4","last_reported":1756577542,"current_range_meters":10800,"station_id":"ce4bhqp2rcd13ifvqhng","pricing_plan_id":"cebpf4jnsgd1na2vs0mg"},{"bike_id":"0e16483d-7c29-42d6-90d2-d9cb7ef31592","system_id":"levelo_inurba_marseille","lat":43.32364,"lon":5.3676,"is_reserved":false,"is_disabled":false,"rental_uris":{"android":"levelo://app?vid=0e16483d-7c29-42d6-90d2-d9cb7ef31592","ios":"levelo://app?vid=0e16483d-7c29-42d6-90d2-d9cb7ef31592"},"vehicle_type_id":"4","last_reported":1756577542,"current_range_meters":10800,"station_id":"ce4bhsh2rcd13ifvqi2g","pricing_plan_id":"cebpf4jnsgd1na2vs0mg"},{"bike_id":"116831e2-351d-473f-a36a-57b17fecb62c","system_id":"levelo_inurba_marseille","lat":43.24632,"lon":5.43152,"is_reserved":false,"is_disabled":false,"rental_uris":{"android":"levelo://app?vid=116831e2-351d-473f-a36a-57b17fecb62c","ios":"levelo://app?vid=116831e2-351d-473f-a36a-57b17fecb62c"},"vehicle_type_id":"4","last_reported":1756577542,"current_range_meters":10800,"station_id":"st_d2m6c4gdas8pm72e190g","pricing_plan_id":"cebpf4jnsgd1na2vs0mg"},{"bike_id":"6e10289d-ad4d-4315-a3a6-fb95b3289b71","system_id":"levelo_inurba_marseille","lat":43.31357,"lon":5.38496,"is_reserved":false,"is_disabled":false,"rental_uris":{"android":"levelo://app?vid=6e10289d-ad4d-4315-a3a6-fb95b3289b71","ios":"levelo://app?vid=6e10289d-ad4d-4315-a3a6-fb95b3289b71"},"vehicle_type_id":"4","last_reported":1756577542,"current_range_meters":11200,"station_id":"ce4bgt92rcd13ifvqcf0","pricing_plan_id":"cebpf4jnsgd1na2vs0mg"},{"bike_id":"7eb745a3-b57e-49ec-9a06-ffd9c17fe97c","system_id":"levelo_inurba_marseille","lat":43.26951,"lon":5.3863,"is_reserved":false,"is_disabled":false,"rental_uris":{"android":"levelo://app?vid=7eb745a3-b57e-49ec-9a06-ffd9c17fe97c","ios":"levelo://app?vid=7eb745a3-b57e-49ec-9a06-ffd9c17fe97c"},"vehicle_type_id":"4","last_reported":1756577542,"current_range_meters":11200,"station_id":"ce4bhh92rcd13ifvqfh0","pricing_plan_id":"cebpf4jnsgd1na2vs0mg"},{"bike_id":"c1dbc3cb-b8a3-4614-81a9-9af25605794f","system_id":"levelo_inurba_marseille","lat":43.25469,"lon":5.37667,"is_reserved":false,"is_disabled":false,"rental_uris":{"android":"levelo://app?vid=c1dbc3cb-b8a3-4614-81a9-9af25605794f","ios":"levelo://app?vid=c1dbc3cb-b8a3-4614-81a9-9af25605794f"},"vehicle_type_id":"4","last_reported":1756577542,"current_range_meters":11600,"station_id":"","pricing_plan_id":"cebpf4jnsgd1na2vs0mg"},{"bike_id":"9c9a8623-72f4-4a64-8478-c9887a60f47f","system_id":"levelo_inurba_marseille","lat":43.30928,"lon":5.40148,"is_reserved":false,"is_disabled":false,"rental_uris":{"android":"levelo://app?vid=9c9a8623-72f4-4a64-8478-c9887a60f47f","ios":"levelo://app?vid=9c9a8623-72f4-4a64-8478-c9887a60f47f"},"vehicle_type_id":"4","last_reported":1756577542,"current_range_meters":11600,"station_id":"ce4bgvp2rcd13ifvqct0","pricing_plan_id":"cebpf4jnsgd1na2vs0mg"},{"bike_id":"ac4d1619-a66d-431d-b018-5758a0f351d5","system_id":"levelo_inurba_marseille","lat":43.31334,"lon":5.39691,"is_reserved":false,"is_disabled":false,"rental_uris":{"android":"levelo://app?vid=ac4d1619-a66d-431d-b018-5758a0f351d5","ios":"levelo://app?vid=ac4d1619-a66d-431d-b018-5758a0f351d5"},"vehicle_type_id":"4","last_reported":1756577542,"current_range_meters":11600,"station_id":"ce4bgvp2rcd13ifvqcu0","pricing_plan_id":"cebpf4jnsgd1na2vs0mg"},{"bike_id":"7762ed76-693a-4583-a428-f12a966314b8","system_id":"levelo_inurba_marseille","lat":43.24652,"lon":5.38908,"is_reserved":false,"is_disabled":false,"rental_uris":{"android":"levelo://app?vid=7762ed76-693a-4583-a428-f12a966314b8","ios":"levelo://app?vid=7762ed76-693a-4583-a428-f12a966314b8"},"vehicle_type_id":"4","last_reported":1756577542,"current_range_meters":11600,"station_id":"ce4bhg12rcd13ifvqf60","pricing_plan_id":"cebpf4jnsgd1na2vs0mg"},{"bike_id":"34c8ae44-8362-4c91-9391-0616f2ae8ba5","system_id":"levelo_inurba_marseille","lat":43.26555,"lon":5.37285,"is_reserved":false,"is_disabled":false,"rental_uris":{"android":"levelo://app?vid=34c8ae44-8362-4c91-9391-0616f2ae8ba5","ios":"levelo://app?vid=34c8ae44-8362-4c91-9391-0616f2ae8ba5"},"vehicle_type_id":"4","last_reported":1756577542,"current_range_meters":11600,"station_id":"ce4bhg12rcd13ifvqf70","pricing_plan_id":"cebpf4jnsgd1na2vs0mg"},{"bike_id":"f2b35bf3-e536-447e-ab87-733338a77ec3","system_id":"levelo_inurba_marseille","lat":43.26558,"lon":5.37304,"is_reserved":false,"is_disabled":false,"rental_uris":{"android":"levelo://app?vid=f2b35bf3-e536-447e-ab87-733338a77ec3","ios":"levelo://app?vid=f2b35bf3-e536-447e-ab87-733338a77ec3"},"vehicle_type_id":"4","last_reported":1756577542,"current_range_meters":11600,"station_id":"ce4bhg12rcd13ifvqf70","pricing_plan_id":"cebpf4jnsgd1na2vs0mg"},{"bike_id":"860b0d52-3a0d-4e19-b65e-7efc807953e0","system_id":"levelo_inurba_marseille","lat":43.26029,"lon":5.37569,"is_reserved":false,"is_disabled":false,"rental_uris":{"android":"levelo://app?vid=860b0d52-3a0d-4e19-b65e-7efc807953e0","ios":"levelo://app?vid=860b0d52-3a0d-4e19-b65e-7efc807953e0"},"vehicle_type_id":"4","last_reported":1756577542,"current_range_meters":11600,"station_id":"ce4bhgh2rcd13ifvqfa0","pricing_plan_id":"cebpf4jnsgd1na2vs0mg"},{"bike_id":"c0881cb5-357f-468d-a3c1-b313679c3509","system_id":"levelo_inurba_marseille","lat":43.337587,"lon":5.374364,"is_reserved":false,"is_disabled":false,"rental_uris":{"android":"levelo://app?vid=c0881cb5-357f-468d-a3c1-b313679c3509","ios":"levelo://app?vid=c0881cb5-357f-468d-a3c1-b313679c3509"},"vehicle_type_id":"4","last_reported":1756577542,"current_range_meters":12000,"station_id":"","pricing_plan_id":"cebpf4jnsgd1na2vs0mg"},{"bike_id":"94618724-41f4-4c20-9473-ddcf173353b4","system_id":"levelo_inurba_marseille","lat":43.26941,"lon":5.38927,"is_reserved":false,"is_disabled":false,"rental_uris":{"android":"levelo://app?vid=94618724-41f4-4c20-9473-ddcf173353b4","ios":"levelo://app?vid=94618724-41f4-4c20-9473-ddcf173353b4"},"vehicle_type_id":"4","last_reported":1756577542,"current_range_meters":12000,"station_id":"","pricing_plan_id":"cebpf4jnsgd1na2vs0mg"},{"bike_id":"5c46a293-2020-4e6e-a335-219b9383a700","system_id":"levelo_inurba_marseille","lat":43.2656,"lon":5.37303,"is_reserved":false,"is_disabled":false,"rental_uris":{"android":"levelo://app?vid=5c46a293-2020-4e6e-a335-219b9383a700","ios":"levelo://app?vid=5c46a293-2020-4e6e-a335-219b9383a700"},"vehicle_type_id":"4","last_reported":1756577542,"current_range_meters":12000,"station_id":"ce4bhg12rcd13ifvqf70","pricing_plan_id":"cebpf4jnsgd1na2vs0mg"},{"bike_id":"c1ec820f-fb43-4b37-969f-e91307a8b64d","system_id":"levelo_inurba_marseille","lat":43.24659,"lon":5.38166,"is_reserved":false,"is_disabled":false,"rental_uris":{"android":"levelo://app?vid=c1ec820f-fb43-4b37-969f-e91307a8b64d","ios":"levelo://app?vid=c1ec820f-fb43-4b37-969f-e91307a8b64d"},"vehicle_type_id":"4","last_reported":1756577542,"current_range_meters":12000,"station_id":"ce4bhih2rcd13ifvqfr0","pricing_plan_id":"cebpf4jnsgd1na2vs0mg"},{"bike_id":"d9e28a1f-3d97-422f-ae76-d73801f9bd02","system_id":"levelo_inurba_marseille","lat":43.25821,"lon":5.394374,"is_reserved":false,"is_disabled":false,"rental_uris":{"android":"levelo://app?vid=d9e28a1f-3d97-422f-ae76-d73801f9bd02","ios":"levelo://app?vid=d9e28a1f-3d97-422f-ae76-d73801f9bd02"},"vehicle_type_id":"4","last_reported":1756577542,"current_range_meters":12000,"station_id":"ce4bhip2rcd13ifvqft0","pricing_plan_id":"cebpf4jnsgd1na2vs0mg"},{"bike_id":"a902da07-a66e-489f-afd1-45dba1266e10","system_id":"levelo_inurba_marseille","lat":43.27491,"lon":5.42465,"is_reserved":false,"is_disabled":false,"rental_uris":{"android":"levelo://app?vid=a902da07-a66e-489f-afd1-45dba1266e10","ios":"levelo://app?vid=a902da07-a66e-489f-afd1-45dba1266e10"},"vehicle_type_id":"4","last_reported":1756577542,"current_range_meters":12000,"station_id":"ce4bhn92rcd13ifvqgrg","pricing_plan_id":"cebpf4jnsgd1na2vs0mg"},{"bike_id":"673dd2e4-e908-4bba-a826-445ed69ff645","system_id":"levelo_inurba_marseille","lat":43.27496,"lon":5.42457,"is_reserved":false,"is_disabled":false,"rental_uris":{"android":"levelo://app?vid=673dd2e4-e908-4bba-a826-445ed69ff645","ios":"levelo://app?vid=673dd2e4-e908-4bba-a826-445ed69ff645"},"vehicle_type_id":"4","last_reported":1756577542,"current_range_meters":12000,"station_id":"ce4bhn92rcd13ifvqgrg","pricing_plan_id":"cebpf4jnsgd1na2vs0mg"},{"bike_id":"1d680462-3886-4781-831a-c498eb31d0ce","system_id":"levelo_inurba_marseille","lat":43.240846,"lon":5.37738,"is_reserved":false,"is_disabled":false,"rental_uris":{"android":"levelo://app?vid=1d680462-3886-4781-831a-c498eb31d0ce","ios":"levelo://app?vid=1d680462-3886-4781-831a-c498eb31d0ce"},"vehicle_type_id":"4","last_reported":1756577542,"current_range_meters":12000,"station_id":"ce4bhnp2rcd13ifvqgvg","pricing_plan_id":"cebpf4jnsgd1na2vs0mg"},{"bike_id":"43b66363-b3f0-4b56-8513-647419da7876","system_id":"levelo_inurba_marseille","lat":43.29549,"lon":5.42283,"is_reserved":false,"is_disabled":false,"rental_uris":{"android":"levelo://app?vid=43b66363-b3f0-4b56-8513-647419da7876","ios":"levelo://app?vid=43b66363-b3f0-4b56-8513-647419da7876"},"vehicle_type_id":"4","last_reported":1756577542,"current_range_meters":12000,"station_id":"ce4bhph2rcd13ifvqhdg","pricing_plan_id":"cebpf4jnsgd1na2vs0mg"},{"bike_id":"88b64bbd-1e34-435d-8660-990718af83af","system_id":"levelo_inurba_marseille","lat":43.32099,"lon":5.36745,"is_reserved":false,"is_disabled":false,"rental_uris":{"android":"levelo://app?vid=88b64bbd-1e34-435d-8660-990718af83af","ios":"levelo://app?vid=88b64bbd-1e34-435d-8660-990718af83af"},"vehicle_type_id":"4","last_reported":1756577542,"current_range_meters":12000,"station_id":"ce4bhrh2rcd13ifvqhug","pricing_plan_id":"cebpf4jnsgd1na2vs0mg"},{"bike_id":"fc9b7f13-7e12-4e22-a2e9-4d73e71fe40c","system_id":"levelo_inurba_marseille","lat":43.30148,"lon":5.37404,"is_reserved":false,"is_disabled":false,"rental_uris":{"android":"levelo://app?vid=fc9b7f13-7e12-4e22-a2e9-4d73e71fe40c","ios":"levelo://app?vid=fc9b7f13-7e12-4e22-a2e9-4d73e71fe40c"},"vehicle_type_id":"4","last_reported":1756577542,"current_range_meters":12400,"station_id":"","pricing_plan_id":"cebpf4jnsgd1na2vs0mg"},{"bike_id":"2b0827d2-a5e1-499a-9f7e-d86612467421","system_id":"levelo_inurba_marseille","lat":43.30954,"lon":5.39029,"is_reserved":false,"is_disabled":false,"rental_uris":{"android":"levelo://app?vid=2b0827d2-a5e1-499a-9f7e-d86612467421","ios":"levelo://app?vid=2b0827d2-a5e1-499a-9f7e-d86612467421"},"vehicle_type_id":"4","last_reported":1756577542,"current_range_meters":12400,"station_id":"ce4bgup2rcd13ifvqco0","pricing_plan_id":"cebpf4jnsgd1na2vs0mg"},{"bike_id":"a5ea3b87-7c2c-44a3-be53-aa34becf64f9","system_id":"levelo_inurba_marseille","lat":43.30326,"lon":5.40442,"is_reserved":false,"is_disabled":false,"rental_uris":{"android":"levelo://app?vid=a5ea3b87-7c2c-44a3-be53-aa34becf64f9","ios":"levelo://app?vid=a5ea3b87-7c2c-44a3-be53-aa34becf64f9"},"vehicle_type_id":"4","last_reported":1756577542,"current_range_meters":12400,"station_id":"ce4bh012rcd13ifvqd10","pricing_plan_id":"cebpf4jnsgd1na2vs0mg"},{"bike_id":"3a8dd465-d05c-47b4-8a9c-a40c9d6abd5c","system_id":"levelo_inurba_marseille","lat":43.2927,"lon":5.38447,"is_reserved":false,"is_disabled":false,"rental_uris":{"android":"levelo://app?vid=3a8dd465-d05c-47b4-8a9c-a40c9d6abd5c","ios":"levelo://app?vid=3a8dd465-d05c-47b4-8a9c-a40c9d6abd5c"},"vehicle_type_id":"4","last_reported":1756577542,"current_range_meters":12400,"station_id":"ce4bh692rcd13ifvqea0","pricing_plan_id":"cebpf4jnsgd1na2vs0mg"},{"bike_id":"0f1d0d97-e7b7-4750-b5af-dd339b2d2e2e","system_id":"levelo_inurba_marseille","lat":43.2602,"lon":5.37577,"is_reserved":false,"is_disabled":false,"rental_uris":{"android":"levelo://app?vid=0f1d0d97-e7b7-4750-b5af-dd339b2d2e2e","ios":"levelo://app?vid=0f1d0d97-e7b7-4750-b5af-dd339b2d2e2e"},"vehicle_type_id":"4","last_reported":1756577542,"current_range_meters":12400,"station_id":"ce4bhgh2rcd13ifvqfa0","pricing_plan_id":"cebpf4jnsgd1na2vs0mg"},{"bike_id":"a5adfa3e-4874-4e59-9078-8e9852d20f7e","system_id":"levelo_inurba_marseille","lat":43.2845,"lon":5.39204,"is_reserved":false,"is_disabled":false,"rental_uris":{"android":"levelo://app?vid=a5adfa3e-4874-4e59-9078-8e9852d20f7e","ios":"levelo://app?vid=a5adfa3e-4874-4e59-9078-8e9852d20f7e"},"vehicle_type_id":"4","last_reported":1756577542,"current_range_meters":12400,"station_id":"ce4bhoh2rcd13ifvqh5g","pricing_plan_id":"cebpf4jnsgd1na2vs0mg"},{"bike_id":"f9ae6c14-cd03-4c62-b600-9d6cc2d50a4c","system_id":"levelo_inurba_marseille","lat":43.283503,"lon":5.408025,"is_reserved":false,"is_disabled":false,"rental_uris":{"android":"levelo://app?vid=f9ae6c14-cd03-4c62-b600-9d6cc2d50a4c","ios":"levelo://app?vid=f9ae6c14-cd03-4c62-b600-9d6cc2d50a4c"},"vehicle_type_id":"4","last_reported":1756577542,"current_range_meters":12800,"station_id":"","pricing_plan_id":"cebpf4jnsgd1na2vs0mg"},{"bike_id":"74493be5-8af1-44f6-981c-b485b5d7ca2e","system_id":"levelo_inurba_marseille","lat":43.30796,"lon":5.38144,"is_reserved":false,"is_disabled":false,"rental_uris":{"android":"levelo://app?vid=74493be5-8af1-44f6-981c-b485b5d7ca2e","ios":"levelo://app?vid=74493be5-8af1-44f6-981c-b485b5d7ca2e"},"vehicle_type_id":"4","last_reported":1756577542,"current_range_meters":12800,"station_id":"ce4bgt12rcd13ifvqce0","pricing_plan_id":"cebpf4jnsgd1na2vs0mg"},{"bike_id":"566b647b-5cd9-4569-bd9c-5c2dc5272094","system_id":"levelo_inurba_marseille","lat":43.31352,"lon":5.38499,"is_reserved":false,"is_disabled":false,"rental_uris":{"android":"levelo://app?vid=566b647b-5cd9-4569-bd9c-5c2dc5272094","ios":"levelo://app?vid=566b647b-5cd9-4569-bd9c-5c2dc5272094"},"vehicle_type_id":"4","last_reported":1756577542,"current_range_meters":12800,"station_id":"ce4bgt92rcd13ifvqcf0","pricing_plan_id":"cebpf4jnsgd1na2vs0mg"},{"bike_id":"5035cb8f-e3e5-4085-9d8f-35321608ae45","system_id":"levelo_inurba_marseille","lat":43.31165,"lon":5.38724,"is_reserved":false,"is_disabled":false,"rental_uris":{"android":"levelo://app?vid=5035cb8f-e3e5-4085-9d8f-35321608ae45","ios":"levelo://app?vid=5035cb8f-e3e5-4085-9d8f-35321608ae45"},"vehicle_type_id":"4","last_reported":1756577542,"current_range_meters":12800,"station_id":"ce4bgv12rcd13ifvqcp0","pricing_plan_id":"cebpf4jnsgd1na2vs0mg"},{"bike_id":"6e2ca2fa-30a6-40ba-b59a-d1607b6b08d4","system_id":"levelo_inurba_marseille","lat":43.26561,"lon":5.37302,"is_reserved":false,"is_disabled":false,"rental_uris":{"android":"levelo://app?vid=6e2ca2fa-30a6-40ba-b59a-d1607b6b08d4","ios":"levelo://app?vid=6e2ca2fa-30a6-40ba-b59a-d1607b6b08d4"},"vehicle_type_id":"4","last_reported":1756577542,"current_range_meters":12800,"station_id":"ce4bhg12rcd13ifvqf70","pricing_plan_id":"cebpf4jnsgd1na2vs0mg"},{"bike_id":"7df4a760-8503-4739-95bd-8bc92d217c85","system_id":"levelo_inurba_marseille","lat":43.2668,"lon":5.38275,"is_reserved":false,"is_disabled":false,"rental_uris":{"android":"levelo://app?vid=7df4a760-8503-4739-95bd-8bc92d217c85","ios":"levelo://app?vid=7df4a760-8503-4739-95bd-8bc92d217c85"},"vehicle_type_id":"4","last_reported":1756577542,"current_range_meters":12800,"station_id":"ce4bhg92rcd13ifvqf90","pricing_plan_id":"cebpf4jnsgd1na2vs0mg"},{"bike_id":"0cc97910-6247-4f52-8789-8b53ac8eae41","system_id":"levelo_inurba_marseille","lat":43.26675,"lon":5.38264,"is_reserved":false,"is_disabled":false,"rental_uris":{"android":"levelo://app?vid=0cc97910-6247-4f52-8789-8b53ac8eae41","ios":"levelo://app?vid=0cc97910-6247-4f52-8789-8b53ac8eae41"},"vehicle_type_id":"4","last_reported":1756577542,"current_range_meters":12800,"station_id":"ce4bhg92rcd13ifvqf90","pricing_plan_id":"cebpf4jnsgd1na2vs0mg"},{"bike_id":"c5978f3f-62d1-43b6-abfa-b6c76de20dbc","system_id":"levelo_inurba_marseille","lat":43.2481,"lon":5.37454,"is_reserved":false,"is_disabled":false,"rental_uris":{"android":"levelo://app?vid=c5978f3f-62d1-43b6-abfa-b6c76de20dbc","ios":"levelo://app?vid=c5978f3f-62d1-43b6-abfa-b6c76de20dbc"},"vehicle_type_id":"4","last_reported":1756577542,"current_range_meters":12800,"station_id":"ce4bhgh2rcd13ifvqfb0","pricing_plan_id":"cebpf4jnsgd1na2vs0mg"},{"bike_id":"d5a9561e-bfcb-4b29-96d2-196021978fed","system_id":"levelo_inurba_marseille","lat":43.26931,"lon":5.38922,"is_reserved":false,"is_disabled":false,"rental_uris":{"android":"levelo://app?vid=d5a9561e-bfcb-4b29-96d2-196021978fed","ios":"levelo://app?vid=d5a9561e-bfcb-4b29-96d2-196021978fed"},"vehicle_type_id":"4","last_reported":1756577542,"current_range_meters":12800,"station_id":"ce4bhhh2rcd13ifvqfl0","pricing_plan_id":"cebpf4jnsgd1na2vs0mg"},{"bike_id":"75eac3f5-9861-4e69-a6d2-fe003690fc17","system_id":"levelo_inurba_marseille","lat":43.28699,"lon":5.39982,"is_reserved":false,"is_disabled":false,"rental_uris":{"android":"levelo://app?vid=75eac3f5-9861-4e69-a6d2-fe003690fc17","ios":"levelo://app?vid=75eac3f5-9861-4e69-a6d2-fe003690fc17"},"vehicle_type_id":"4","last_reported":1756577542,"current_range_meters":12800,"station_id":"ce4bho92rcd13ifvqh3g","pricing_plan_id":"cebpf4jnsgd1na2vs0mg"},{"bike_id":"05955278-86d9-47b6-8d3a-f6df9e3a30d4","system_id":"levelo_inurba_marseille","lat":43.320948,"lon":5.367805,"is_reserved":false,"is_disabled":false,"rental_uris":{"android":"levelo://app?vid=05955278-86d9-47b6-8d3a-f6df9e3a30d4","ios":"levelo://app?vid=05955278-86d9-47b6-8d3a-f6df9e3a30d4"},"vehicle_type_id":"4","last_reported":1756577542,"current_range_meters":12800,"station_id":"ce4bhrh2rcd13ifvqhug","pricing_plan_id":"cebpf4jnsgd1na2vs0mg"},{"bike_id":"21151cd5-2935-499f-a61a-cb6389fb8316","system_id":"levelo_inurba_marseille","lat":43.30276,"lon":5.37719,"is_reserved":false,"is_disabled":false,"rental_uris":{"android":"levelo://app?vid=21151cd5-2935-499f-a61a-cb6389fb8316","ios":"levelo://app?vid=21151cd5-2935-499f-a61a-cb6389fb8316"},"vehicle_type_id":"4","last_reported":1756577542,"current_range_meters":13600,"station_id":"ce4bguh2rcd13ifvqcj0","pricing_plan_id":"cebpf4jnsgd1na2vs0mg"},{"bike_id":"49198490-c4b4-4856-bed5-b57b92281932","system_id":"levelo_inurba_marseille","lat":43.29267,"lon":5.38438,"is_reserved":false,"is_disabled":false,"rental_uris":{"android":"levelo://app?vid=49198490-c4b4-4856-bed5-b57b92281932","ios":"levelo://app?vid=49198490-c4b4-4856-bed5-b57b92281932"},"vehicle_type_id":"4","last_reported":1756577542,"current_range_meters":13600,"station_id":"ce4bh692rcd13ifvqea0","pricing_plan_id":"cebpf4jnsgd1na2vs0mg"},{"bike_id":"1841c2b1-46dc-4b21-ab58-337b660d798a","system_id":"levelo_inurba_marseille","lat":43.29003,"lon":5.35614,"is_reserved":false,"is_disabled":false,"rental_uris":{"android":"levelo://app?vid=1841c2b1-46dc-4b21-ab58-337b660d798a","ios":"levelo://app?vid=1841c2b1-46dc-4b21-ab58-337b660d798a"},"vehicle_type_id":"4","last_reported":1756577542,"current_range_meters":13600,"station_id":"ce4bhb92rcd13ifvqen0","pricing_plan_id":"cebpf4jnsgd1na2vs0mg"},{"bike_id":"f325bb49-160e-4935-89d9-c8a4f7e7550d","system_id":"levelo_inurba_marseille","lat":43.26683,"lon":5.38298,"is_reserved":false,"is_disabled":false,"rental_uris":{"android":"levelo://app?vid=f325bb49-160e-4935-89d9-c8a4f7e7550d","ios":"levelo://app?vid=f325bb49-160e-4935-89d9-c8a4f7e7550d"},"vehicle_type_id":"4","last_reported":1756577542,"current_range_meters":13600,"station_id":"ce4bhg92rcd13ifvqf90","pricing_plan_id":"cebpf4jnsgd1na2vs0mg"},{"bike_id":"c265e4f7-7694-4c99-a29d-49519c44c43c","system_id":"levelo_inurba_marseille","lat":43.320998,"lon":5.367736,"is_reserved":false,"is_disabled":false,"rental_uris":{"android":"levelo://app?vid=c265e4f7-7694-4c99-a29d-49519c44c43c","ios":"levelo://app?vid=c265e4f7-7694-4c99-a29d-49519c44c43c"},"vehicle_type_id":"4","last_reported":1756577542,"current_range_meters":13600,"station_id":"ce4bhrh2rcd13ifvqhug","pricing_plan_id":"cebpf4jnsgd1na2vs0mg"},{"bike_id":"e0b4c03b-1691-4b36-9ebc-35fa149798e4","system_id":"levelo_inurba_marseille","lat":43.337609,"lon":5.374408,"is_reserved":false,"is_disabled":false,"rental_uris":{"android":"levelo://app?vid=e0b4c03b-1691-4b36-9ebc-35fa149798e4","ios":"levelo://app?vid=e0b4c03b-1691-4b36-9ebc-35fa149798e4"},"vehicle_type_id":"4","last_reported":1756577542,"current_range_meters":14000,"station_id":"","pricing_plan_id":"cebpf4jnsgd1na2vs0mg"},{"bike_id":"66ab05e3-5fb4-49ea-9d40-847222fed897","system_id":"levelo_inurba_marseille","lat":43.225284,"lon":5.348295,"is_reserved":false,"is_disabled":false,"rental_uris":{"android":"levelo://app?vid=66ab05e3-5fb4-49ea-9d40-847222fed897","ios":"levelo://app?vid=66ab05e3-5fb4-49ea-9d40-847222fed897"},"vehicle_type_id":"4","last_reported":1756577542,"current_range_meters":14000,"station_id":"","pricing_plan_id":"cebpf4jnsgd1na2vs0mg"},{"bike_id":"28a7254f-6dad-41bc-a704-8874c4d88cc3","system_id":"levelo_inurba_marseille","lat":43.3136,"lon":5.3849,"is_reserved":false,"is_disabled":false,"rental_uris":{"android":"levelo://app?vid=28a7254f-6dad-41bc-a704-8874c4d88cc3","ios":"levelo://app?vid=28a7254f-6dad-41bc-a704-8874c4d88cc3"},"vehicle_type_id":"4","last_reported":1756577542,"current_range_meters":14000,"station_id":"ce4bgt92rcd13ifvqcf0","pricing_plan_id":"cebpf4jnsgd1na2vs0mg"},{"bike_id":"38ca8a75-7926-479c-9548-81ec06ec5ce8","system_id":"levelo_inurba_marseille","lat":43.29267,"lon":5.38451,"is_reserved":false,"is_disabled":false,"rental_uris":{"android":"levelo://app?vid=38ca8a75-7926-479c-9548-81ec06ec5ce8","ios":"levelo://app?vid=38ca8a75-7926-479c-9548-81ec06ec5ce8"},"vehicle_type_id":"4","last_reported":1756577542,"current_range_meters":14000,"station_id":"ce4bh692rcd13ifvqea0","pricing_plan_id":"cebpf4jnsgd1na2vs0mg"},{"bike_id":"11fc62c8-42aa-4dc2-bd1d-7efbd1af8ee8","system_id":"levelo_inurba_marseille","lat":43.265539,"lon":5.372873,"is_reserved":false,"is_disabled":false,"rental_uris":{"android":"levelo://app?vid=11fc62c8-42aa-4dc2-bd1d-7efbd1af8ee8","ios":"levelo://app?vid=11fc62c8-42aa-4dc2-bd1d-7efbd1af8ee8"},"vehicle_type_id":"4","last_reported":1756577542,"current_range_meters":14000,"station_id":"ce4bhg12rcd13ifvqf70","pricing_plan_id":"cebpf4jnsgd1na2vs0mg"},{"bike_id":"8f4d4211-6ac2-43d2-a762-dfbfe738981f","system_id":"levelo_inurba_marseille","lat":43.26687,"lon":5.38277,"is_reserved":false,"is_disabled":false,"rental_uris":{"android":"levelo://app?vid=8f4d4211-6ac2-43d2-a762-dfbfe738981f","ios":"levelo://app?vid=8f4d4211-6ac2-43d2-a762-dfbfe738981f"},"vehicle_type_id":"4","last_reported":1756577542,"current_range_meters":14000,"station_id":"ce4bhg92rcd13ifvqf90","pricing_plan_id":"cebpf4jnsgd1na2vs0mg"},{"bike_id":"950d6b99-d783-43f9-8092-1306b2213715","system_id":"levelo_inurba_marseille","lat":43.24143,"lon":5.39744,"is_reserved":false,"is_disabled":false,"rental_uris":{"android":"levelo://app?vid=950d6b99-d783-43f9-8092-1306b2213715","ios":"levelo://app?vid=950d6b99-d783-43f9-8092-1306b2213715"},"vehicle_type_id":"4","last_reported":1756577542,"current_range_meters":14000,"station_id":"ce4bhn12rcd13ifvqgpg","pricing_plan_id":"cebpf4jnsgd1na2vs0mg"},{"bike_id":"2ad07275-0259-442e-b055-109f0a6ecd26","system_id":"levelo_inurba_marseille","lat":43.28151,"lon":5.42647,"is_reserved":false,"is_disabled":false,"rental_uris":{"android":"levelo://app?vid=2ad07275-0259-442e-b055-109f0a6ecd26","ios":"levelo://app?vid=2ad07275-0259-442e-b055-109f0a6ecd26"},"vehicle_type_id":"4","last_reported":1756577542,"current_range_meters":14000,"station_id":"ce4bhnh2rcd13ifvqgug","pricing_plan_id":"cebpf4jnsgd1na2vs0mg"},{"bike_id":"433efb6b-0ba3-4097-9ce3-872c5ee66f75","system_id":"levelo_inurba_marseille","lat":43.32535,"lon":5.41422,"is_reserved":false,"is_disabled":false,"rental_uris":{"android":"levelo://app?vid=433efb6b-0ba3-4097-9ce3-872c5ee66f75","ios":"levelo://app?vid=433efb6b-0ba3-4097-9ce3-872c5ee66f75"},"vehicle_type_id":"4","last_reported":1756577542,"current_range_meters":14000,"station_id":"ce4bhq12rcd13ifvqhhg","pricing_plan_id":"cebpf4jnsgd1na2vs0mg"},{"bike_id":"b5fc05cb-c69d-46e4-a9e3-a000ba9eeb78","system_id":"levelo_inurba_marseille","lat":43.29783,"lon":5.39335,"is_reserved":false,"is_disabled":false,"rental_uris":{"android":"levelo://app?vid=b5fc05cb-c69d-46e4-a9e3-a000ba9eeb78","ios":"levelo://app?vid=b5fc05cb-c69d-46e4-a9e3-a000ba9eeb78"},"vehicle_type_id":"4","last_reported":1756577542,"current_range_meters":14000,"station_id":"chh1huq6cuj3fo74tm60","pricing_plan_id":"cebpf4jnsgd1na2vs0mg"},{"bike_id":"2006bb71-c37a-4ee8-93ce-12fae027c47b","system_id":"levelo_inurba_marseille","lat":43.28034,"lon":5.36945,"is_reserved":false,"is_disabled":false,"rental_uris":{"android":"levelo://app?vid=2006bb71-c37a-4ee8-93ce-12fae027c47b","ios":"levelo://app?vid=2006bb71-c37a-4ee8-93ce-12fae027c47b"},"vehicle_type_id":"4","last_reported":1756577542,"current_range_meters":14400,"station_id":"ce4bha12rcd13ifvqef0","pricing_plan_id":"cebpf4jnsgd1na2vs0mg"},{"bike_id":"2f3ab8ca-bcf0-42a3-b7af-3ed488a6ade2","system_id":"levelo_inurba_marseille","lat":43.26543,"lon":5.37287,"is_reserved":false,"is_disabled":false,"rental_uris":{"android":"levelo://app?vid=2f3ab8ca-bcf0-42a3-b7af-3ed488a6ade2","ios":"levelo://app?vid=2f3ab8ca-bcf0-42a3-b7af-3ed488a6ade2"},"vehicle_type_id":"4","last_reported":1756577542,"current_range_meters":14400,"station_id":"ce4bhg12rcd13ifvqf70","pricing_plan_id":"cebpf4jnsgd1na2vs0mg"},{"bike_id":"e3b21129-b826-4713-b2c7-ce7df7ddb4b3","system_id":"levelo_inurba_marseille","lat":43.25497,"lon":5.3765,"is_reserved":false,"is_disabled":false,"rental_uris":{"android":"levelo://app?vid=e3b21129-b826-4713-b2c7-ce7df7ddb4b3","ios":"levelo://app?vid=e3b21129-b826-4713-b2c7-ce7df7ddb4b3"},"vehicle_type_id":"4","last_reported":1756577542,"current_range_meters":14400,"station_id":"ce4bhh12rcd13ifvqff0","pricing_plan_id":"cebpf4jnsgd1na2vs0mg"},{"bike_id":"8ea1aa37-c779-4884-b375-fe6b1814ecd3","system_id":"levelo_inurba_marseille","lat":43.28155,"lon":5.4264,"is_reserved":false,"is_disabled":false,"rental_uris":{"android":"levelo://app?vid=8ea1aa37-c779-4884-b375-fe6b1814ecd3","ios":"levelo://app?vid=8ea1aa37-c779-4884-b375-fe6b1814ecd3"},"vehicle_type_id":"4","last_reported":1756577542,"current_range_meters":14400,"station_id":"ce4bhnh2rcd13ifvqgug","pricing_plan_id":"cebpf4jnsgd1na2vs0mg"},