{"last_updated":1744856543,"ttl":60,"version":"2.2","data":{"bikes":[{"bike_id":"5ff4a267-dd4b-4f48-8a0c-427c1ff032aa","system_id":"levelo_inurba_marseille","lat":43.25535,"lon":5.37584,"is_reserved":false,"is_disabled":false,"rental_uris":{"android":"levelo://app?vid=5ff4a267-dd4b-4f48-8a0c-427c1ff032aa","ios":"levelo://app?vid=5ff4a267-dd4b-4f48-8a0c-427c1ff032aa"},"vehicle_type_id":"4","last_reported":1744856544,"current_range_meters":3200,"station_id":"","pricing_plan_id":"cebpf4jnsgd1na2vs0mg"},{"bike_id":"7da39aba-455e-4163-9c62-41262016c1a1","system_id":"levelo_inurba_marseille","lat":43.283424,"lon":5.381113,"is_reserved":false,"is_disabled":false,"rental_uris":{"android":"levelo://app?vid=7da39aba-455e-4163-9c62-41262016c1a1","ios":"levelo://app?vid=7da39aba-455e-4163-9c62-41262016c1a1"},"vehicle_type_id":"4","last_reported":1744856544,"current_range_meters":4000,"station_id":"ce4bh412rcd13ifvqdr0","pricing_plan_id":"cebpf4jnsgd1na2vs0mg"},{"bike_id":"17af44ad-c187-4ce6-b5be-b66ff5c3a95e","system_id":"levelo_inurba_marseille","lat":43.30101,"lon":5.39086,"is_reserved":false,"is_disabled":false,"rental_uris":{"android":"levelo://app?vid=17af44ad-c187-4ce6-b5be-b66ff5c3a95e","ios":"levelo://app?vid=17af44ad-c187-4ce6-b5be-b66ff5c3a95e"},"vehicle_type_id":"4","last_reported":1744856544,"current_range_meters":4000,"station_id":"ce4bh192rcd13ifvqdb0","pricing_plan_id":"cebpf4jnsgd1na2vs0mg"},{"bike_id":"829f3683-c287-4d6f-92bc-edf58824bda1","system_id":"levelo_inurba_marseille","lat":43.28557,"lon":5.395,"is_reserved":false,"is_disabled":false,"rental_uris":{"android":"levelo://app?vid=829f3683-c287-4d6f-92bc-edf58824bda1","ios":"levelo://app?vid=829f3683-c287-4d6f-92bc-edf58824bda1"},"vehicle_type_id":"4","last_reported":1744856544,"current_range_meters":4000,"station_id":"ce4bh292rcd13ifvqdg0","pricing_plan_id":"cebpf4jnsgd1na2vs0mg"},{"bike_id":"1c1651e9-5063-477e-9001-42c212502c29","system_id":"levelo_inurba_marseille","lat":43.3021,"lon":5.39461,"is_reserved":false,"is_disabled":false,"rental_uris":{"android":"levelo://app?vid=1c1651e9-5063-477e-9001-42c212502c29","ios":"levelo://app?vid=1c1651e9-5063-477e-9001-42c212502c29"},"vehicle_type_id":"4","last_reported":1744856544,"current_range_meters":4800,"station_id":"ce4bh0p2rcd13ifvqd70","pricing_plan_id":"cebpf4jnsgd1na2vs0mg"},{"bike_id":"ea2b72b1-fb3d-493d-ab95-1557396ac249","system_id":"levelo_inurba_marseille","lat":43.28412,"lon":5.37494,"is_reserved":false,"is_disabled":true,"rental_uris":{"android":"levelo://app?vid=ea2b72b1-fb3d-493d-ab95-1557396ac249","ios":"levelo://app?vid=ea2b72b1-fb3d-493d-ab95-1557396ac249"},"vehicle_type_id":"4","last_reported":1744856544,"current_range_meters":5600,"station_id":"ce4bh412rcd13ifvqds0","pricing_plan_id":"cebpf4jnsgd1na2vs0mg"},{"bike_id":"4be423fc-b49d-4203-8abc-985b45dfd65e","system_id":"levelo_inurba_marseille","lat":43.329131,"lon":5.433718,"is_reserved":false,"is_disabled":false,"rental_uris":{"android":"levelo://app?vid=4be423fc-b49d-4203-8abc-985b45dfd65e","ios":"levelo://app?vid=4be423fc-b49d-4203-8abc-985b45dfd65e"},"vehicle_type_id":"4","last_reported":1744856544,"current_range_meters":5600,"station_id":"","pricing_plan_id":"cebpf4jnsgd1na2vs0mg"},{"bike_id":"4786349b-6fcd-48f5-a063-47028925e350","system_id":"levelo_inurba_marseille","lat":43.30898,"lon":5.39618,"is_reserved":false,"is_disabled":false,"rental_uris":{"android":"levelo://app?vid=4786349b-6fcd-48f5-a063-47028925e350","ios":"levelo://app?vid=4786349b-6fcd-48f5-a063-47028925e350"},"vehicle_type_id":"4","last_reported":1744856544,"current_range_meters":6400,"station_id":"ce4bh012rcd13ifvqcv0","pricing_plan_id":"cebpf4jnsgd1na2vs0mg"},{"bike_id":"376f754b-7bba-4962-babe-b49b1468281c","system_id":"levelo_inurba_marseille","lat":43.30931,"lon":5.40173,"is_reserved":false,"is_disabled":true,"rental_uris":{"android":"levelo://app?vid=376f754b-7bba-4962-babe-b49b1468281c","ios":"levelo://app?vid=376f754b-7bba-4962-babe-b49b1468281c"},"vehicle_type_id":"4","last_reported":1744856544,"current_range_meters":6400,"station_id":"ce4bgvp2rcd13ifvqct0","pricing_plan_id":"cebpf4jnsgd1na2vs0mg"},{"bike_id":"74310d95-bcc9-44f2-8a6f-aaa6598d45b5","system_id":"levelo_inurba_marseille","lat":43.28407,"lon":5.37528,"is_reserved":false,"is_disabled":false,"rental_uris":{"android":"levelo://app?vid=74310d95-bcc9-44f2-8a6f-aaa6598d45b5","ios":"levelo://app?vid=74310d95-bcc9-44f2-8a6f-aaa6598d45b5"},"vehicle_type_id":"4","last_reported":1744856544,"current_range_meters":6800,"station_id":"ce4bh412rcd13ifvqds0","pricing_plan_id":"cebpf4jnsgd1na2vs0mg"},{"bike_id":"27d65429-e235-4ad4-8e99-624219bf772a","system_id":"levelo_inurba_marseille","lat":43.30738,"lon":5.42438,"is_reserved":false,"is_disabled":false,"rental_uris":{"android":"levelo://app?vid=27d65429-e235-4ad4-8e99-624219bf772a","ios":"levelo://app?vid=27d65429-e235-4ad4-8e99-624219bf772a"},"vehicle_type_id":"4","last_reported":1744856544,"current_range_meters":6800,"station_id":"st_cvj6ca6bvosntc0bfgr0","pricing_plan_id":"cebpf4jnsgd1na2vs0mg"},{"bike_id":"bbc22841-832a-489c-90a6-2cac4a12221a","system_id":"levelo_inurba_marseille","lat":43.28443,"lon":5.35901,"is_reserved":false,"is_disabled":false,"rental_uris":{"android":"levelo://app?vid=bbc22841-832a-489c-90a6-2cac4a12221a","ios":"levelo://app?vid=bbc22841-832a-489c-90a6-2cac4a12221a"},"vehicle_type_id":"4","last_reported":1744856544,"current_range_meters":7200,"station_id":"ce4bhah2rcd13ifvqei0","pricing_plan_id":"cebpf4jnsgd1na2vs0mg"},{"bike_id":"2797dcdb-c4e1-48b2-82d6-5677d371fa39","system_id":"levelo_inurba_marseille","lat":43.24163,"lon":5.36392,"is_reserved":false,"is_disabled":false,"rental_uris":{"android":"levelo://app?vid=2797dcdb-c4e1-48b2-82d6-5677d371fa39","ios":"levelo://app?vid=2797dcdb-c4e1-48b2-82d6-5677d371fa39"},"vehicle_type_id":"4","last_reported":1744856544,"current_range_meters":7200,"station_id":"cpo36qri1sfpv3e86is0","pricing_plan_id":"cebpf4jnsgd1na2vs0mg"},{"bike_id":"0acf59b4-5717-44da-baf3-5ab1184645ae","system_id":"levelo_inurba_marseille","lat":43.30886,"lon":5.39651,"is_reserved":false,"is_disabled":false,"rental_uris":{"android":"levelo://app?vid=0acf59b4-5717-44da-baf3-5ab1184645ae","ios":"levelo://app?vid=0acf59b4-5717-44da-baf3-5ab1184645ae"},"vehicle_type_id":"4","last_reported":1744856544,"current_range_meters":7200,"station_id":"ce4bh012rcd13ifvqcv0","pricing_plan_id":"cebpf4jnsgd1na2vs0mg"},{"bike_id":"b69156c9-6a49-4ab5-9612-623049b026dd","system_id":"levelo_inurba_marseille","lat":43.26567,"lon":5.37279,"is_reserved":false,"is_disabled":false,"rental_uris":{"android":"levelo://app?vid=b69156c9-6a49-4ab5-9612-623049b026dd","ios":"levelo://app?vid=b69156c9-6a49-4ab5-9612-623049b026dd"},"vehicle_type_id":"4","last_reported":1744856544,"current_range_meters":7200,"station_id":"ce4bhg12rcd13ifvqf70","pricing_plan_id":"cebpf4jnsgd1na2vs0mg"},{"bike_id":"51875e50-7830-42ab-87b5-bc339625ae5c","system_id":"levelo_inurba_marseille","lat":43.23965,"lon":5.36628,"is_reserved":false,"is_disabled":false,"rental_uris":{"android":"levelo://app?vid=51875e50-7830-42ab-87b5-bc339625ae5c","ios":"levelo://app?vid=51875e50-7830-42ab-87b5-bc339625ae5c"},"vehicle_type_id":"4","last_reported":1744856544,"current_range_meters":8000,"station_id":"ce4bhi12rcd13ifvqfp0","pricing_plan_id":"cebpf4jnsgd1na2vs0mg"},{"bike_id":"47443ab8-6b57-4dfe-a926-b857d8c4a944","system_id":"levelo_inurba_marseille","lat":43.27222,"lon":5.39195,"is_reserved":false,"is_disabled":true,"rental_uris":{"android":"levelo://app?vid=47443ab8-6b57-4dfe-a926-b857d8c4a944","ios":"levelo://app?vid=47443ab8-6b57-4dfe-a926-b857d8c4a944"},"vehicle_type_id":"4","last_reported":1744856544,"current_range_meters":8000,"station_id":"ce4bhhp2rcd13ifvqfm0","pricing_plan_id":"cebpf4jnsgd1na2vs0mg"},{"bike_id":"29d892ff-396f-4d0b-a265-444cbe69d0d6","system_id":"levelo_inurba_marseille","lat":43.29881,"lon":5.38908,"is_reserved":false,"is_disabled":false,"rental_uris":{"android":"levelo://app?vid=29d892ff-396f-4d0b-a265-444cbe69d0d6","ios":"levelo://app?vid=29d892ff-396f-4d0b-a265-444cbe69d0d6"},"vehicle_type_id":"4","last_reported":1744856544,"current_range_meters":8400,"station_id":"ce4bh392rcd13ifvqdl0","pricing_plan_id":"cebpf4jnsgd1na2vs0mg"},{"bike_id":"eca7dcad-8489-4164-84a3-1781088dd692","system_id":"levelo_inurba_marseille","lat":43.31326,"lon":5.39693,"is_reserved":false,"is_disabled":true,"rental_uris":{"android":"levelo://app?vid=eca7dcad-8489-4164-84a3-1781088dd692","ios":"levelo://app?vid=eca7dcad-8489-4164-84a3-1781088dd692"},"vehicle_type_id":"4","last_reported":1744856544,"current_range_meters":8400,"station_id":"ce4bgvp2rcd13ifvqcu0","pricing_plan_id":"cebpf4jnsgd1na2vs0mg"},{"bike_id":"2c5537f8-0da6-4d33-8c3c-80c8d36d0e28","system_id":"levelo_inurba_marseille","lat":43.26564,"lon":5.39015,"is_reserved":false,"is_disabled":true,"rental_uris":{"android":"levelo://app?vid=2c5537f8-0da6-4d33-8c3c-80c8d36d0e28","ios":"levelo://app?vid=2c5537f8-0da6-4d33-8c3c-80c8d36d0e28"},"vehicle_type_id":"4","last_reported":1744856544,"current_range_meters":8400,"station_id":"ce4bhe12rcd13ifvqf30","pricing_plan_id":"cebpf4jnsgd1na2vs0mg"},{"bike_id":"eeec4aa3-87e9-4496-be2e-938ceb91cf85","system_id":"levelo_inurba_marseille","lat":43.293029,"lon":5.372212,"is_reserved":false,"is_disabled":true,"rental_uris":{"android":"levelo://app?vid=eeec4aa3-87e9-4496-be2e-938ceb91cf85","ios":"levelo://app?vid=eeec4aa3-87e9-4496-be2e-938ceb91cf85"},"vehicle_type_id":"4","last_reported":1744856544,"current_range_meters":8800,"station_id":"ce4bgh92rcd13ifvqb40","pricing_plan_id":"cebpf4jnsgd1na2vs0mg"},{"bike_id":"a23e2ddc-a10f-405f-9291-e215f2b934ed","system_id":"levelo_inurba_marseille","lat":43.28445,"lon":5.35897,"is_reserved":false,"is_disabled":false,"rental_uris":{"android":"levelo://app?vid=a23e2ddc-a10f-405f-9291-e215f2b934ed","ios":"levelo://app?vid=a23e2ddc-a10f-405f-9291-e215f2b934ed"},"vehicle_type_id":"4","last_reported":1744856544,"current_range_meters":8800,"station_id":"ce4bhah2rcd13ifvqei0","pricing_plan_id":"cebpf4jnsgd1na2vs0mg"},{"bike_id":"13212ea6-c79f-428f-bf88-2ce269adcaff","system_id":"levelo_inurba_marseille","lat":43.24811,"lon":5.37458,"is_reserved":false,"is_disabled":false,"rental_uris":{"android":"levelo://app?vid=13212ea6-c79f-428f-bf88-2ce269adcaff","ios":"levelo://app?vid=13212ea6-c79f-428f-bf88-2ce269adcaff"},"vehicle_type_id":"4","last_reported":1744856544,"current_range_meters":8800,"station_id":"ce4bhgh2rcd13ifvqfb0","pricing_plan_id":"cebpf4jnsgd1na2vs0mg"},{"bike_id":"da61630c-eec5-4651-ac57-e218f2e64d2c","system_id":"levelo_inurba_marseille","lat":43.30897,"lon":5.37215,"is_reserved":false,"is_disabled":false,"rental_uris":{"android":"levelo://app?vid=da61630c-eec5-4651-ac57-e218f2e64d2c","ios":"levelo://app?vid=da61630c-eec5-4651-ac57-e218f2e64d2c"},"vehicle_type_id":"4","last_reported":1744856544,"current_range_meters":8800,"station_id":"ce4bguh2rcd13ifvqckg","pricing_plan_id":"cebpf4jnsgd1na2vs0mg"},{"bike_id":"e8412f40-a8dc-44ee-bbc2-e01b1cf2ab9a","system_id":"levelo_inurba_marseille","lat":43.278357,"lon":5.391983,"is_reserved":false,"is_disabled":false,"rental_uris":{"android":"levelo://app?vid=e8412f40-a8dc-44ee-bbc2-e01b1cf2ab9a","ios":"levelo://app?vid=e8412f40-a8dc-44ee-bbc2-e01b1cf2ab9a"},"vehicle_type_id":"4","last_reported":1744856544,"current_range_meters":9200,"station_id":"ce4bhjp2rcd13ifvqga0","pricing_plan_id":"cebpf4jnsgd1na2vs0mg"},{"bike_id":"561936ef-54e4-4d15-b2a7-dfd018b9e12e","system_id":"levelo_inurba_marseille","lat":43.29788,"lon":5.39347,"is_reserved":false,"is_disabled":false,"rental_uris":{"android":"levelo://app?vid=561936ef-54e4-4d15-b2a7-dfd018b9e12e","ios":"levelo://app?vid=561936ef-54e4-4d15-b2a7-dfd018b9e12e"},"vehicle_type_id":"4","last_reported":1744856544,"current_range_meters":9200,"station_id":"chh1huq6cuj3fo74tm60","pricing_plan_id":"cebpf4jnsgd1na2vs0mg"},{"bike_id":"f813d5ea-a9c6-48a7-be5d-f7b6ce5328e6","system_id":"levelo_inurba_marseille","lat":43.24658,"lon":5.38157,"is_reserved":false,"is_disabled":false,"rental_uris":{"android":"levelo://app?vid=f813d5ea-a9c6-48a7-be5d-f7b6ce5328e6","ios":"levelo://app?vid=f813d5ea-a9c6-48a7-be5d-f7b6ce5328e6"},"vehicle_type_id":"4","last_reported":1744856544,"current_range_meters":9200,"station_id":"ce4bhih2rcd13ifvqfr0","pricing_plan_id":"cebpf4jnsgd1na2vs0mg"},{"bike_id":"478c28af-83c2-4fd5-b57f-f927fe52c007","system_id":"levelo_inurba_marseille","lat":43.23142,"lon":5.43746,"is_reserved":false,"is_disabled":false,"rental_uris":{"android":"levelo://app?vid=478c28af-83c2-4fd5-b57f-f927fe52c007","ios":"levelo://app?vid=478c28af-83c2-4fd5-b57f-f927fe52c007"},"vehicle_type_id":"4","last_reported":1744856544,"current_range_meters":9600,"station_id":"ce4bhmp2rcd13ifvqgog","pricing_plan_id":"cebpf4jnsgd1na2vs0mg"},{"bike_id":"dfc90e23-a51a-46c2-9aff-a5e54b4a553f","system_id":"levelo_inurba_marseille","lat":43.26225,"lon":5.40452,"is_reserved":false,"is_disabled":false,"rental_uris":{"android":"levelo://app?vid=dfc90e23-a51a-46c2-9aff-a5e54b4a553f","ios":"levelo://app?vid=dfc90e23-a51a-46c2-9aff-a5e54b4a553f"},"vehicle_type_id":"4","last_reported":1744856544,"current_range_meters":9600,"station_id":"ce4bhmh2rcd13ifvqgmg","pricing_plan_id":"cebpf4jnsgd1na2vs0mg"},{"bike_id":"14541b4c-c4ff-4f48-b140-23313b771198","system_id":"levelo_inurba_marseille","lat":43.27835,"lon":5.39218,"is_reserved":false,"is_disabled":false,"rental_uris":{"android":"levelo://app?vid=14541b4c-c4ff-4f48-b140-23313b771198","ios":"levelo://app?vid=14541b4c-c4ff-4f48-b140-23313b771198"},"vehicle_type_id":"4","last_reported":1744856544,"current_range_meters":9600,"station_id":"ce4bhjp2rcd13ifvqga0","pricing_plan_id":"cebpf4jnsgd1na2vs0mg"},{"bike_id":"7b38cb55-9c5f-4bca-a540-bfab855e7385","system_id":"levelo_inurba_marseille","lat":43.23967,"lon":5.36622,"is_reserved":false,"is_disabled":false,"rental_uris":{"android":"levelo://app?vid=7b38cb55-9c5f-4bca-a540-bfab855e7385","ios":"levelo://app?vid=7b38cb55-9c5f-4bca-a540-bfab855e7385"},"vehicle_type_id":"4","last_reported":1744856544,"current_range_meters":9600,"station_id":"ce4bhi12rcd13ifvqfp0","pricing_plan_id":"cebpf4jnsgd1na2vs0mg"},{"bike_id":"aafece41-771c-4727-9330-23c42c863e6d","system_id":"levelo_inurba_marseille","lat":43.28598,"lon":5.35106,"is_reserved":false,"is_disabled":false,"rental_uris":{"android":"levelo://app?vid=aafece41-771c-4727-9330-23c42c863e6d","ios":"levelo://app?vid=aafece41-771c-4727-9330-23c42c863e6d"},"vehicle_type_id":"4","last_reported":1744856544,"current_range_meters":10000,"station_id":"ce4bhch2rcd13ifvqeug","pricing_plan_id":"cebpf4jnsgd1na2vs0mg"},{"bike_id":"57758a02-2e61-4253-8d62-3d1aa1b54ab1","system_id":"levelo_inurba_marseille","lat":43.25575,"lon":5.38231,"is_reserved":false,"is_disabled":false,"rental_uris":{"android":"levelo://app?vid=57758a02-2e61-4253-8d62-3d1aa1b54ab1","ios":"levelo://app?vid=57758a02-2e61-4253-8d62-3d1aa1b54ab1"},"vehicle_type_id":"4","last_reported":1744856544,"current_range_meters":10000,"station_id":"ce4bhih2rcd13ifvqfs0","pricing_plan_id":"cebpf4jnsgd1na2vs0mg"},{"bike_id":"84b58d90-bb57-4bdb-8485-62b6e661a441","system_id":"levelo_inurba_marseille","lat":43.24176,"lon":5.39734,"is_reserved":false,"is_disabled":false,"rental_uris":{"android":"levelo://app?vid=84b58d90-bb57-4bdb-8485-62b6e661a441","ios":"levelo://app?vid=84b58d90-bb57-4bdb-8485-62b6e661a441"},"vehicle_type_id":"4","last_reported":1744856544,"current_range_meters":10000,"station_id":"ce4bhn12rcd13ifvqgpg","pricing_plan_id":"cebpf4jnsgd1na2vs0mg"},{"bike_id":"257cd67d-848f-46ff-a9b4-b9d60cab96e4","system_id":"levelo_inurba_marseille","lat":43.297865,"lon":5.393526,"is_reserved":false,"is_disabled":false,"rental_uris":{"android":"levelo://app?vid=257cd67d-848f-46ff-a9b4-b9d60cab96e4","ios":"levelo://app?vid=257cd67d-848f-46ff-a9b4-b9d60cab96e4"},"vehicle_type_id":"4","last_reported":1744856544,"current_range_meters":10000,"station_id":"chh1huq6cuj3fo74tm60","pricing_plan_id":"cebpf4jnsgd1na2vs0mg"},{"bike_id":"2c032a6e-a514-4c75-ac58-67d0e95dcf42","system_id":"levelo_inurba_marseille","lat":43.28582,"lon":5.35145,"is_reserved":false,"is_disabled":false,"rental_uris":{"android":"levelo://app?vid=2c032a6e-a514-4c75-ac58-67d0e95dcf42","ios":"levelo://app?vid=2c032a6e-a514-4c75-ac58-67d0e95dcf42"},"vehicle_type_id":"4","last_reported":1744856544,"current_range_meters":10000,"station_id":"","pricing_plan_id":"cebpf4jnsgd1na2vs0mg"},{"bike_id":"b1203870-4d45-4676-8ec7-5019ca28aac8","system_id":"levelo_inurba_marseille","lat":43.301022,"lon":5.390818,"is_reserved":false,"is_disabled":false,"rental_uris":{"android":"levelo://app?vid=b1203870-4d45-4676-8ec7-5019ca28aac8","ios":"levelo://app?vid=b1203870-4d45-4676-8ec7-5019ca28aac8"},"vehicle_type_id":"4","last_reported":1744856544,"current_range_meters":10000,"station_id":"ce4bh192rcd13ifvqdb0","pricing_plan_id":"cebpf4jnsgd1na2vs0mg"},{"bike_id":"ca4e1f9d-1ba6-4c9a-88af-8978a8ef4daa","system_id":"levelo_inurba_marseille","lat":43.3089,"lon":5.39653,"is_reserved":false,"is_disabled":false,"rental_uris":{"android":"levelo://app?vid=ca4e1f9d-1ba6-4c9a-88af-8978a8ef4daa","ios":"levelo://app?vid=ca4e1f9d-1ba6-4c9a-88af-8978a8ef4daa"},"vehicle_type_id":"4","last_reported":1744856544,"current_range_meters":10000,"station_id":"ce4bh012rcd13ifvqcv0","pricing_plan_id":"cebpf4jnsgd1na2vs0mg"},{"bike_id":"693abb56-2440-4e46-a9de-d094d1b968f7","system_id":"levelo_inurba_marseille","lat":43.2839,"lon":5.35903,"is_reserved":false,"is_disabled":false,"rental_uris":{"android":"levelo://app?vid=693abb56-2440-4e46-a9de-d094d1b968f7","ios":"levelo://app?vid=693abb56-2440-4e46-a9de-d094d1b968f7"},"vehicle_type_id":"4","last_reported":1744856544,"current_range_meters":10000,"station_id":"ce4bhah2rcd13ifvqei0","pricing_plan_id":"cebpf4jnsgd1na2vs0mg"},{"bike_id":"0a28e206-b3dd-43f2-8495-1759cdcbbe79","system_id":"levelo_inurba_marseille","lat":43.298809,"lon":5.389101,"is_reserved":false,"is_disabled":false,"rental_uris":{"android":"levelo://app?vid=0a28e206-b3dd-43f2-8495-1759cdcbbe79","ios":"levelo://app?vid=0a28e206-b3dd-43f2-8495-1759cdcbbe79"},"vehicle_type_id":"4","last_reported":1744856544,"current_range_meters":10800,"station_id":"ce4bh392rcd13ifvqdl0","pricing_plan_id":"cebpf4jnsgd1na2vs0mg"},{"bike_id":"834ec9e1-9d50-4bee-85ae-d1db335c55e5","system_id":"levelo_inurba_marseille","lat":43.3182,"lon":5.36455,"is_reserved":false,"is_disabled":false,"rental_uris":{"android":"levelo://app?vid=834ec9e1-9d50-4bee-85ae-d1db335c55e5","ios":"levelo://app?vid=834ec9e1-9d50-4bee-85ae-d1db335c55e5"},"vehicle_type_id":"4","last_reported":1744856544,"current_range_meters":10800,"station_id":"","pricing_plan_id":"cebpf4jnsgd1na2vs0mg"},{"bike_id":"1bc1ffd9-ea68-4189-8b4c-99816b896b8c","system_id":"levelo_inurba_marseille","lat":43.30589,"lon":5.39373,"is_reserved":false,"is_disabled":false,"rental_uris":{"android":"levelo://app?vid=1bc1ffd9-ea68-4189-8b4c-99816b896b8c","ios":"levelo://app?vid=1bc1ffd9-ea68-4189-8b4c-99816b896b8c"},"vehicle_type_id":"4","last_reported":1744856544,"current_range_meters":10800,"station_id":"ce4bh0p2rcd13ifvqd80","pricing_plan_id":"cebpf4jnsgd1na2vs0mg"},{"bike_id":"613dd6ef-98e9-4602-95a8-908e8fddce9f","system_id":"levelo_inurba_marseille","lat":43.29398,"lon":5.39754,"is_reserved":false,"is_disabled":false,"rental_uris":{"android":"levelo://app?vid=613dd6ef-98e9-4602-95a8-908e8fddce9f","ios":"levelo://app?vid=613dd6ef-98e9-4602-95a8-908e8fddce9f"},"vehicle_type_id":"4","last_reported":1744856544,"current_range_meters":11200,"station_id":"ce4bh3h2rcd13ifvqdo0","pricing_plan_id":"cebpf4jnsgd1na2vs0mg"},{"bike_id":"9002d50e-d6d6-46d0-9f04-b56806ecb3e7","system_id":"levelo_inurba_marseille","lat":43.286075,"lon":5.370503,"is_reserved":false,"is_disabled":false,"rental_uris":{"android":"levelo://app?vid=9002d50e-d6d6-46d0-9f04-b56806ecb3e7","ios":"levelo://app?vid=9002d50e-d6d6-46d0-9f04-b56806ecb3e7"},"vehicle_type_id":"4","last_reported":1744856544,"current_range_meters":11200,"station_id":"ce4bht12rcd13ifvqi60","pricing_plan_id":"cebpf4jnsgd1na2vs0mg"},{"bike_id":"cff7e17d-4349-4ec1-aff9-05067a138474","system_id":"levelo_inurba_marseille","lat":43.29184,"lon":5.39322,"is_reserved":false,"is_disabled":false,"rental_uris":{"android":"levelo://app?vid=cff7e17d-4349-4ec1-aff9-05067a138474","ios":"levelo://app?vid=cff7e17d-4349-4ec1-aff9-05067a138474"},"vehicle_type_id":"4","last_reported":1744856544,"current_range_meters":11200,"station_id":"ce4bh192rcd13ifvqdd0","pricing_plan_id":"cebpf4jnsgd1na2vs0mg"},{"bike_id":"76332156-cb3a-4e22-af8d-bb13db9ead2e","system_id":"levelo_inurba_marseille","lat":43.30332,"lon":5.40445,"is_reserved":false,"is_disabled":false,"rental_uris":{"android":"levelo://app?vid=76332156-cb3a-4e22-af8d-bb13db9ead2e","ios":"levelo://app?vid=76332156-cb3a-4e22-af8d-bb13db9ead2e"},"vehicle_type_id":"4","last_reported":1744856544,"current_range_meters":11200,"station_id":"ce4bh012rcd13ifvqd10","pricing_plan_id":"cebpf4jnsgd1na2vs0mg"},{"bike_id":"2e4df3f8-36a0-4aaa-a40e-25b01eb78413","system_id":"levelo_inurba_marseille","lat":43.31108,"lon":5.37767,"is_reserved":false,"is_disabled":false,"rental_uris":{"android":"levelo://app?vid=2e4df3f8-36a0-4aaa-a40e-25b01eb78413","ios":"levelo://app?vid=2e4df3f8-36a0-4aaa-a40e-25b01eb78413"},"vehicle_type_id":"4","last_reported":1744856544,"current_range_meters":11200,"station_id":"ce4bgt92rcd13ifvqcg0","pricing_plan_id":"cebpf4jnsgd1na2vs0mg"},{"bike_id":"5eccede5-a092-4c79-861e-9ba408b79172","system_id":"levelo_inurba_marseille","lat":43.321,"lon":5.36773,"is_reserved":false,"is_disabled":false,"rental_uris":{"android":"levelo://app?vid=5eccede5-a092-4c79-861e-9ba408b79172","ios":"levelo://app?vid=5eccede5-a092-4c79-861e-9ba408b79172"},"vehicle_type_id":"4","last_reported":1744856544,"current_range_meters":11200,"station_id":"ce4bhrh2rcd13ifvqhug","pricing_plan_id":"cebpf4jnsgd1na2vs0mg"},{"bike_id":"367f01cf-3209-4951-b89b-8264c8668817","system_id":"levelo_inurba_marseille","lat":43.30658,"lon":5.40042,"is_reserved":false,"is_disabled":false,"rental_uris":{"android":"levelo://app?vid=367f01cf-3209-4951-b89b-8264c8668817","ios":"levelo://app?vid=367f01cf-3209-4951-b89b-8264c8668817"},"vehicle_type_id":"4","last_reported":1744856544,"current_range_meters":11200,"station_id":"","pricing_plan_id":"cebpf4jnsgd1na2vs0mg"},{"bike_id":"93be371e-f079-4065-9c94-f1bd2172cfd1","system_id":"levelo_inurba_marseille","lat":43.28571,"lon":5.37072,"is_reserved":false,"is_disabled":false,"rental_uris":{"android":"levelo://app?vid=93be371e-f079-4065-9c94-f1bd2172cfd1","ios":"levelo://app?vid=93be371e-f079-4065-9c94-f1bd2172cfd1"},"vehicle_type_id":"4","last_reported":1744856544,"current_range_meters":11600,"station_id":"ce4bht12rcd13ifvqi60","pricing_plan_id":"cebpf4jnsgd1na2vs0mg"},{"bike_id":"736c7bdc-b98a-4581-a5dc-1bee5f63147b","system_id":"levelo_inurba_marseille","lat":43.30629,"lon":5.40083,"is_reserved":false,"is_disabled":false,"rental_uris":{"android":"levelo://app?vid=736c7bdc-b98a-4581-a5dc-1bee5f63147b","ios":"levelo://app?vid=736c7bdc-b98a-4581-a5dc-1bee5f63147b"},"vehicle_type_id":"4","last_reported":1744856544,"current_range_meters":11600,"station_id":"ce4bh112rcd13ifvqda0","pricing_plan_id":"cebpf4jnsgd1na2vs0mg"},{"bike_id":"75fe1ac9-0713-4597-92fb-c4b09207ec9e","system_id":"levelo_inurba_marseille","lat":43.292498,"lon":5.409103,"is_reserved":false,"is_disabled":false,"rental_uris":{"android":"levelo://app?vid=75fe1ac9-0713-4597-92fb-c4b09207ec9e","ios":"levelo://app?vid=75fe1ac9-0713-4597-92fb-c4b09207ec9e"},"vehicle_type_id":"4","last_reported":1744856544,"current_range_meters":11600,"station_id":"ce4bh192rcd13ifvqdc0","pricing_plan_id":"cebpf4jnsgd1na2vs0mg"},{"bike_id":"9032f14c-fd09-4b52-bf50-b879d730ed1b","system_id":"levelo_inurba_marseille","lat":43.25711,"lon":5.41119,"is_reserved":false,"is_disabled":false,"rental_uris":{"android":"levelo://app?vid=9032f14c-fd09-4b52-bf50-b879d730ed1b","ios":"levelo://app?vid=9032f14c-fd09-4b52-bf50-b879d730ed1b"},"vehicle_type_id":"4","last_reported":1744856544,"current_range_meters":12000,"station_id":"ce4bhkp2rcd13ifvqgd0","pricing_plan_id":"cebpf4jnsgd1na2vs0mg"},{"bike_id":"4b9b1e69-af86-4122-8d46-0d52505b1cab","system_id":"levelo_inurba_marseille","lat":43.27485,"lon":5.42453,"is_reserved":false,"is_disabled":false,"rental_uris":{"android":"levelo://app?vid=4b9b1e69-af86-4122-8d46-0d52505b1cab","ios":"levelo://app?vid=4b9b1e69-af86-4122-8d46-0d52505b1cab"},"vehicle_type_id":"4","last_reported":1744856544,"current_range_meters":12000,"station_id":"ce4bhn92rcd13ifvqgrg","pricing_plan_id":"cebpf4jnsgd1na2vs0mg"},{"bike_id":"1bdba7a7-a82e-4252-906c-80db6beb180e","system_id":"levelo_inurba_marseille","lat":43.24881,"lon":5.39422,"is_reserved":false,"is_disabled":false,"rental_uris":{"android":"levelo://app?vid=1bdba7a7-a82e-4252-906c-80db6beb180e","ios":"levelo://app?vid=1bdba7a7-a82e-4252-906c-80db6beb180e"},"vehicle_type_id":"4","last_reported":1744856544,"current_range_meters":12400,"station_id":"","pricing_plan_id":"cebpf4jnsgd1na2vs0mg"},{"bike_id":"96b3cd09-0bfe-4125-8dcf-c4bdc8601e42","system_id":"levelo_inurba_marseille","lat":43.31168,"lon":5.38699,"is_reserved":false,"is_disabled":false,"rental_uris":{"android":"levelo://app?vid=96b3cd09-0bfe-4125-8dcf-c4bdc8601e42","ios":"levelo://app?vid=96b3cd09-0bfe-4125-8dcf-c4bdc8601e42"},"vehicle_type_id":"4","last_reported":1744856544,"current_range_meters":12400,"station_id":"ce4bgv12rcd13ifvqcp0","pricing_plan_id":"cebpf4jnsgd1na2vs0mg"},{"bike_id":"6bf5a380-400e-4cd6-bc1e-356afac9ee45","system_id":"levelo_inurba_marseille","lat":43.24185,"lon":5.36389,"is_reserved":false,"is_disabled":false,"rental_uris":{"android":"levelo://app?vid=6bf5a380-400e-4cd6-bc1e-356afac9ee45","ios":"levelo://app?vid=6bf5a380-400e-4cd6-bc1e-356afac9ee45"},"vehicle_type_id":"4","last_reported":1744856544,"current_range_meters":12400,"station_id":"cpo36qri1sfpv3e86is0","pricing_plan_id":"cebpf4jnsgd1na2vs0mg"},{"bike_id":"7bb92bd6-336f-4157-96a4-14f4e43e3ba6","system_id":"levelo_inurba_marseille","lat":43.31075,"lon":5.38351,"is_reserved":false,"is_disabled":false,"rental_uris":{"android":"levelo://app?vid=7bb92bd6-336f-4157-96a4-14f4e43e3ba6","ios":"levelo://app?vid=7bb92bd6-336f-4157-96a4-14f4e43e3ba6"},"vehicle_type_id":"4","last_reported":1744856544,"current_range_meters":12400,"station_id":"ce4bgv92rcd13ifvqcr0","pricing_plan_id":"cebpf4jnsgd1na2vs0mg"},{"bike_id":"88a0cb80-a51d-46bc-8228-c9a9fb028348","system_id":"levelo_inurba_marseille","lat":43.2562,"lon":5.42011,"is_reserved":false,"is_disabled":false,"rental_uris":{"android":"levelo://app?vid=88a0cb80-a51d-46bc-8228-c9a9fb028348","ios":"levelo://app?vid=88a0cb80-a51d-46bc-8228-c9a9fb028348"},"vehicle_type_id":"4","last_reported":1744856544,"current_range_meters":12400,"station_id":"","pricing_plan_id":"cebpf4jnsgd1na2vs0mg"},{"bike_id":"b37478c9-c9d1-4921-942f-50c7a856681e","system_id":"levelo_inurba_marseille","lat":43.270561,"lon":5.40269,"is_reserved":false,"is_disabled":true,"rental_uris":{"android":"levelo://app?vid=b37478c9-c9d1-4921-942f-50c7a856681e","ios":"levelo://app?vid=b37478c9-c9d1-4921-942f-50c7a856681e"},"vehicle_type_id":"4","last_reported":1744856544,"current_range_meters":12400,"station_id":"ce4bhk92rcd13ifvqgc0","pricing_plan_id":"cebpf4jnsgd1na2vs0mg"},{"bike_id":"78639c4a-dfa5-4f82-b777-6fd3b58b5770","system_id":"levelo_inurba_marseille","lat":43.28102,"lon":5.37865,"is_reserved":false,"is_disabled":false,"rental_uris":{"android":"levelo://app?vid=78639c4a-dfa5-4f82-b777-6fd3b58b5770","ios":"levelo://app?vid=78639c4a-dfa5-4f82-b777-6fd3b58b5770"},"vehicle_type_id":"4","last_reported":1744856544,"current_range_meters":12800,"station_id":"ce4bha12rcd13ifvqee0","pricing_plan_id":"cebpf4jnsgd1na2vs0mg"},{"bike_id":"417e3a7a-0095-495e-9b83-1bc73bffd8f5","system_id":"levelo_inurba_marseille","lat":43.30892,"lon":5.39634,"is_reserved":false,"is_disabled":false,"rental_uris":{"android":"levelo://app?vid=417e3a7a-0095-495e-9b83-1bc73bffd8f5","ios":"levelo://app?vid=417e3a7a-0095-495e-9b83-1bc73bffd8f5"},"vehicle_type_id":"4","last_reported":1744856544,"current_range_meters":12800,"station_id":"ce4bh012rcd13ifvqcv0","pricing_plan_id":"cebpf4jnsgd1na2vs0mg"},{"bike_id":"6032e738-f012-4275-92a6-1c203e24e4cd","system_id":"levelo_inurba_marseille","lat":43.29883,"lon":5.43663,"is_reserved":false,"is_disabled":false,"rental_uris":{"android":"levelo://app?vid=6032e738-f012-4275-92a6-1c203e24e4cd","ios":"levelo://app?vid=6032e738-f012-4275-92a6-1c203e24e4cd"},"vehicle_type_id":"4","last_reported":1744856544,"current_range_meters":12800,"station_id":"ce4bhpp2rcd13ifvqhfg","pricing_plan_id":"cebpf4jnsgd1na2vs0mg"},{"bike_id":"2f957d05-dccb-4a4a-b923-f7da34c7ee93","system_id":"levelo_inurba_marseille","lat":43.30951,"lon":5.39057,"is_reserved":false,"is_disabled":false,"rental_uris":{"android":"levelo://app?vid=2f957d05-dccb-4a4a-b923-f7da34c7ee93","ios":"levelo://app?vid=2f957d05-dccb-4a4a-b923-f7da34c7ee93"},"vehicle_type_id":"4","last_reported":1744856544,"current_range_meters":12800,"station_id":"ce4bgup2rcd13ifvqco0","pricing_plan_id":"cebpf4jnsgd1na2vs0mg"},{"bike_id":"0bdb9c44-4315-4d6b-9cba-3d8155b8f804","system_id":"levelo_inurba_marseille","lat":43.26813,"lon":5.4025,"is_reserved":false,"is_disabled":false,"rental_uris":{"android":"levelo://app?vid=0bdb9c44-4315-4d6b-9cba-3d8155b8f804","ios":"levelo://app?vid=0bdb9c44-4315-4d6b-9cba-3d8155b8f804"},"vehicle_type_id":"4","last_reported":1744856544,"current_range_meters":13600,"station_id":"ce501612rcd8frsf0b60","pricing_plan_id":"cebpf4jnsgd1na2vs0mg"},{"bike_id":"4f3dfbf4-d1ae-44db-8110-b28c7d24107a","system_id":"levelo_inurba_marseille","lat":43.27042,"lon":5.40263,"is_reserved":false,"is_disabled":false,"rental_uris":{"android":"levelo://app?vid=4f3dfbf4-d1ae-44db-8110-b28c7d24107a","ios":"levelo://app?vid=4f3dfbf4-d1ae-44db-8110-b28c7d24107a"},"vehicle_type_id":"4","last_reported":1744856544,"current_range_meters":13600,"station_id":"ce4bhk92rcd13ifvqgc0","pricing_plan_id":"cebpf4jnsgd1na2vs0mg"},{"bike_id":"a5dcdcdd-bf90-4188-b000-5abff8fcd560","system_id":"levelo_inurba_marseille","lat":43.30946,"lon":5.40146,"is_reserved":false,"is_disabled":false,"rental_uris":{"android":"levelo://app?vid=a5dcdcdd-bf90-4188-b000-5abff8fcd560","ios":"levelo://app?vid=a5dcdcdd-bf90-4188-b000-5abff8fcd560"},"vehicle_type_id":"4","last_reported":1744856544,"current_range_meters":13600,"station_id":"ce4bgvp2rcd13ifvqct0","pricing_plan_id":"cebpf4jnsgd1na2vs0mg"},{"bike_id":"6695fc0d-b7c2-4b76-9759-125a5558ce82","system_id":"levelo_inurba_marseille","lat":43.30643,"lon":5.40076,"is_reserved":false,"is_disabled":false,"rental_uris":{"android":"levelo://app?vid=6695fc0d-b7c2-4b76-9759-125a5558ce82","ios":"levelo://app?vid=6695fc0d-b7c2-4b76-9759-125a5558ce82"},"vehicle_type_id":"4","last_reported":1744856544,"current_range_meters":13600,"station_id":"ce4bh112rcd13ifvqda0","pricing_plan_id":"cebpf4jnsgd1na2vs0mg"},{"bike_id":"847a57e8-0129-4285-b6be-15d7d295a3b2","system_id":"levelo_inurba_marseille","lat":43.29877,"lon":5.39738,"is_reserved":false,"is_disabled":false,"rental_uris":{"android":"levelo://app?vid=847a57e8-0129-4285-b6be-15d7d295a3b2","ios":"levelo://app?vid=847a57e8-0129-4285-b6be-15d7d295a3b2"},"vehicle_type_id":"4","last_reported":1744856544,"current_range_meters":14000,"station_id":"ce4bh0h2rcd13ifvqd50","pricing_plan_id":"cebpf4jnsgd1na2vs0mg"},{"bike_id":"c03ca11e-6bb5-4273-b6a6-171b93fa0cf8","system_id":"levelo_inurba_marseille","lat":43.29254,"lon":5.38349,"is_reserved":false,"is_disabled":false,"rental_uris":{"android":"levelo://app?vid=c03ca11e-6bb5-4273-b6a6-171b93fa0cf8","ios":"levelo://app?vid=c03ca11e-6bb5-4273-b6a6-171b93fa0cf8"},"vehicle_type_id":"4","last_reported":1744856544,"current_range_meters":14000,"station_id":"","pricing_plan_id":"cebpf4jnsgd1na2vs0mg"},{"bike_id":"35f3d1aa-7414-481f-a4b3-d31cb5ab7b8f","system_id":"levelo_inurba_marseille","lat":43.29013,"lon":5.38651,"is_reserved":false,"is_disabled":false,"rental_uris":{"android":"levelo://app?vid=35f3d1aa-7414-481f-a4b3-d31cb5ab7b8f","ios":"levelo://app?vid=35f3d1aa-7414-481f-a4b3-d31cb5ab7b8f"},"vehicle_type_id":"4","last_reported":1744856544,"current_range_meters":14000,"station_id":"ce4bh4p2rcd13ifvqe0g","pricing_plan_id":"cebpf4jnsgd1na2vs0mg"},{"bike_id":"57406be6-c0b4-4691-8abf-3f6842e4ec81","system_id":"levelo_inurba_marseille","lat":43.28437,"lon":5.39171,"is_reserved":false,"is_disabled":true,"rental_uris":{"android":"levelo://app?vid=57406be6-c0b4-4691-8abf-3f6842e4ec81","ios":"levelo://app?vid=57406be6-c0b4-4691-8abf-3f6842e4ec81"},"vehicle_type_id":"4","last_reported":1744856544,"current_range_meters":14000,"station_id":"ce4bhoh2rcd13ifvqh5g","pricing_plan_id":"cebpf4jnsgd1na2vs0mg"},{"bike_id":"482d7f53-ba94-4319-bdfb-94ad5dc0e6c3","system_id":"levelo_inurba_marseille","lat":43.295702,"lon":5.399849,"is_reserved":false,"is_disabled":false,"rental_uris":{"android":"levelo://app?vid=482d7f53-ba94-4319-bdfb-94ad5dc0e6c3","ios":"levelo://app?vid=482d7f53-ba94-4319-bdfb-94ad5dc0e6c3"},"vehicle_type_id":"4","last_reported":1744856544,"current_range_meters":14000,"station_id":"ce4bh312rcd13ifvqdj0","pricing_plan_id":"cebpf4jnsgd1na2vs0mg"},{"bike_id":"18b90a41-6be6-4c74-a522-ce5bf216390f","system_id":"levelo_inurba_marseille","lat":43.294371,"lon":5.397401,"is_reserved":false,"is_disabled":false,"rental_uris":{"android":"levelo://app?vid=18b90a41-6be6-4c74-a522-ce5bf216390f","ios":"levelo://app?vid=18b90a41-6be6-4c74-a522-ce5bf216390f"},"vehicle_type_id":"4","last_reported":1744856544,"current_range_meters":14400,"station_id":"ce4bh3h2rcd13ifvqdo0","pricing_plan_id":"cebpf4jnsgd1na2vs0mg"},{"bike_id":"35100e48-d85e-4592-93bf-b13bb8464f4f","system_id":"levelo_inurba_marseille","lat":43.27973,"lon":5.41658,"is_reserved":false,"is_disabled":false,"rental_uris":{"android":"levelo://app?vid=35100e48-d85e-4592-93bf-b13bb8464f4f","ios":"levelo://app?vid=35100e48-d85e-4592-93bf-b13bb8464f4f"},"vehicle_type_id":"4","last_reported":1744856544,"current_range_meters":14400,"station_id":"ce4bho12rcd13ifvqh1g","pricing_plan_id":"cebpf4jnsgd1na2vs0mg"},{"bike_id":"27ceca5f-cd6d-4256-96c8-0924d154f0b3","system_id":"levelo_inurba_marseille","lat":43.303022,"lon":5.392088,"is_reserved":false,"is_disabled":true,"rental_uris":{"android":"levelo://app?vid=27ceca5f-cd6d-4256-96c8-0924d154f0b3","ios":"levelo://app?vid=27ceca5f-cd6d-4256-96c8-0924d154f0b3"},"vehicle_type_id":"4","last_reported":1744856544,"current_range_meters":14400,"station_id":"ce4bgkh2rcd13ifvqbk0","pricing_plan_id":"cebpf4jnsgd1na2vs0mg"},{"bike_id":"a8f0bc92-4e6b-4d62-92c1-696ba5138149","system_id":"levelo_inurba_marseille","lat":43.286134,"lon":5.37064,"is_reserved":false,"is_disabled":false,"rental_uris":{"android":"levelo://app?vid=a8f0bc92-4e6b-4d62-92c1-696ba5138149","ios":"levelo://app?vid=a8f0bc92-4e6b-4d62-92c1-696ba5138149"},"vehicle_type_id":"4","last_reported":1744856544,"current_range_meters":14400,"station_id":"ce4bht12rcd13ifvqi60","pricing_plan_id":"cebpf4jnsgd1na2vs0mg"},{"bike_id":"394181cf-d138-4b85-a28e-7228cf97ac19","system_id":"levelo_inurba_marseille","lat":43.320009,"lon":5.381575,"is_reserved":false,"is_disabled":false,"rental_uris":{"android":"levelo://app?vid=394181cf-d138-4b85-a28e-7228cf97ac19","ios":"levelo://app?vid=394181cf-d138-4b85-a28e-7228cf97ac19"},"vehicle_type_id":"4","last_reported":1744856544,"current_range_meters":14800,"station_id":"ce4bhr12rcd13ifvqhpg","pricing_plan_id":"cebpf4jnsgd1na2vs0mg"},{"bike_id":"35442b16-33d9-4b20-92cf-b6f6d3bd2f31","system_id":"levelo_inurba_marseille","lat":43.28469,"lon":5.35854,"is_reserved":false,"is_disabled":false,"rental_uris":{"android":"levelo://app?vid=35442b16-33d9-4b20-92cf-b6f6d3bd2f31","ios":"levelo://app?vid=35442b16-33d9-4b20-92cf-b6f6d3bd2f31"},"vehicle_type_id":"4","last_reported":1744856544,"current_range_meters":14800,"station_id":"ce4bhah2rcd13ifvqei0","pricing_plan_id":"cebpf4jnsgd1na2vs0mg"},{"bike_id":"aa1c9e01-5061-491c-b98f-93c201b50d31","system_id":"levelo_inurba_marseille","lat":43.28506,"lon":5.38567,"is_reserved":false,"is_disabled":false,"rental_uris":{"android":"levelo://app?vid=aa1c9e01-5061-491c-b98f-93c201b50d31","ios":"levelo://app?vid=aa1c9e01-5061-491c-b98f-93c201b50d31"},"vehicle_type_id":"4","last_reported":1744856544,"current_range_meters":14800,"station_id":"ce4bh8p2rcd13ifvqeb0","pricing_plan_id":"cebpf4jnsgd1na2vs0mg"},{"bike_id":"589b9cd2-ef76-4919-bd77-0d4ad38ccad7","system_id":"levelo_inurba_marseille","lat":43.28663,"lon":5.3635,"is_reserved":false,"is_disabled":false,"rental_uris":{"android":"levelo://app?vid=589b9cd2-ef76-4919-bd77-0d4ad38ccad7","ios":"levelo://app?vid=589b9cd2-ef76-4919-bd77-0d4ad38ccad7"},"vehicle_type_id":"4","last_reported":1744856544,"current_range_meters":14800,"station_id":"ce4bhah2rcd13ifvqej0","pricing_plan_id":"cebpf4jnsgd1na2vs0mg"},{"bike_id":"ff935f1c-246d-4e07-a399-40ad7e059de5","system_id":"levelo_inurba_marseille","lat":43.25463,"lon":5.3768,"is_reserved":false,"is_disabled":true,"rental_uris":{"android":"levelo://app?vid=ff935f1c-246d-4e07-a399-40ad7e059de5","ios":"levelo://app?vid=ff935f1c-246d-4e07-a399-40ad7e059de5"},"vehicle_type_id":"4","last_reported":1744856544,"current_range_meters":15200,"station_id":"ce4bhh12rcd13ifvqff0","pricing_plan_id":"cebpf4jnsgd1na2vs0mg"},{"bike_id":"d9a74604-4e04-4138-8f3c-bfc766e9e048","system_id":"levelo_inurba_marseille","lat":43.25868,"lon":5.399047,"is_reserved":false,"is_disabled":false,"rental_uris":{"android":"levelo://app?vid=d9a74604-4e04-4138-8f3c-bfc766e9e048","ios":"levelo://app?vid=d9a74604-4e04-4138-8f3c-bfc766e9e048"},"vehicle_type_id":"4","last_reported":1744856544,"current_range_meters":15200,"station_id":"ce4bhl92rcd13ifvqghg","pricing_plan_id":"cebpf4jnsgd1na2vs0mg"},{"bike_id":"fe552450-c0a0-482b-ad4d-745c7e3315b5","system_id":"levelo_inurba_marseille","lat":43.239653,"lon":5.366375,"is_reserved":false,"is_disabled":false,"rental_uris":{"android":"levelo://app?vid=fe552450-c0a0-482b-ad4d-745c7e3315b5","ios":"levelo://app?vid=fe552450-c0a0-482b-ad4d-745c7e3315b5"},"vehicle_type_id":"4","last_reported":1744856544,"current_range_meters":16000,"station_id":"ce4bhi12rcd13ifvqfp0","pricing_plan_id":"cebpf4jnsgd1na2vs0mg"},{"bike_id":"da0699e6-fffb-42fd-bda2-fa249cfedfd8","system_id":"levelo_inurba_marseille","lat":43.31516,"lon":5.37263,"is_reserved":false,"is_disabled":false,"rental_uris":{"android":"levelo://app?vid=da0699e6-fffb-42fd-bda2-fa249cfedfd8","ios":"levelo://app?vid=da0699e6-fffb-42fd-bda2-fa249cfedfd8"},"vehicle_type_id":"4","last_reported":1744856544,"current_range_meters":16000,"station_id":"ce4bgt12rcd13ifvqcd0","pricing_plan_id":"cebpf4jnsgd1na2vs0mg"},{"bike_id":"69cfcd50-444a-4061-bc35-7d0c950adb68","system_id":"levelo_inurba_marseille","lat":43.28674,"lon":5.38661,"is_reserved":false,"is_disabled":false,"rental_uris":{"android":"levelo://app?vid=69cfcd50-444a-4061-bc35-7d0c950adb68","ios":"levelo://app?vid=69cfcd50-444a-4061-bc35-7d0c950adb68"},"vehicle_type_id":"4","last_reported":1744856544,"current_range_meters":16000,"station_id":"ce4bh492rcd13ifvqdug","pricing_plan_id":"cebpf4jnsgd1na2vs0mg"},{"bike_id":"0b7b9afc-b2db-43f5-aeb8-7a1248a5408e","system_id":"levelo_inurba_marseille","lat":43.31263,"lon":5.37775,"is_reserved":false,"is_disabled":false,"rental_uris":{"android":"levelo://app?vid=0b7b9afc-b2db-43f5-aeb8-7a1248a5408e","ios":"levelo://app?vid=0b7b9afc-b2db-43f5-aeb8-7a1248a5408e"},"vehicle_type_id":"4","last_reported":1744856544,"current_range_meters":16000,"station_id":"","pricing_plan_id":"cebpf4jnsgd1na2vs0mg"},{"bike_id":"f62e35d5-c38c-4e77-8e15-a67529f3fb9f","system_id":"levelo_inurba_marseille","lat":43.31497,"lon":5.373,"is_reserved":false,"is_disabled":false,"rental_uris":{"android":"levelo://app?vid=f62e35d5-c38c-4e77-8e15-a67529f3fb9f","ios":"levelo://app?vid=f62e35d5-c38c-4e77-8e15-a67529f3fb9f"},"vehicle_type_id":"4","last_reported":1744856544,"current_range_meters":16000,"station_id":"ce4bgt12rcd13ifvqcd0","pricing_plan_id":"cebpf4jnsgd1na2vs0mg"},{"bike_id":"baf04868-3ad9-4949-b39a-063b0d0c8334","system_id":"levelo_inurba_marseille","lat":43.30926,"lon":5.40146,"is_reserved":false,"is_disabled":false,"rental_uris":{"android":"levelo://app?vid=baf04868-3ad9-4949-b39a-063b0d0c8334","ios":"levelo://app?vid=baf04868-3ad9-4949-b39a-063b0d0c8334"},"vehicle_type_id":"4","last_reported":1744856544,"current_range_meters":16000,"station_id":"ce4bgvp2rcd13ifvqct0","pricing_plan_id":"cebpf4jnsgd1na2vs0mg"},{"bike_id":"0e7f3c1c-5749-4ea0-8c4b-38be5bb50b3a","system_id":"levelo_inurba_marseille","lat":43.30632,"lon":5.40166,"is_reserved":false,"is_disabled":false,"rental_uris":{"android":"levelo://app?vid=0e7f3c1c-5749-4ea0-8c4b-38be5bb50b3a","ios":"levelo://app?vid=0e7f3c1c-5749-4ea0-8c4b-38be5bb50b3a"},"vehicle_type_id":"4","last_reported":1744856544,"current_range_meters":16400,"station_id":"ce4bh112rcd13ifvqda0","pricing_plan_id":"cebpf4jnsgd1na2vs0mg"},{"bike_id":"ec8c9ac7-1e95-4171-97f3-226ce1e3c951","system_id":"levelo_inurba_marseille","lat":43.32109,"lon":5.3677,"is_reserved":false,"is_disabled":false,"rental_uris":{"android":"levelo://app?vid=ec8c9ac7-1e95-4171-97f3-226ce1e3c951","ios":"levelo://app?vid=ec8c9ac7-1e95-4171-97f3-226ce1e3c951"},"vehicle_type_id":"4","last_reported":1744856544,"current_range_meters":16400,"station_id":"ce4bhrh2rcd13ifvqhug","pricing_plan_id":"cebpf4jnsgd1na2vs0mg"},{"bike_id":"15d893b5-c05d-42c2-8fcb-c5f33968f5f5","system_id":"levelo_inurba_marseille","lat":43.2867,"lon":5.39984,"is_reserved":false,"is_disabled":false,"rental_uris":{"android":"levelo://app?vid=15d893b5-c05d-42c2-8fcb-c5f33968f5f5","ios":"levelo://app?vid=15d893b5-c05d-42c2-8fcb-c5f33968f5f5"},"vehicle_type_id":"4","last_reported":1744856544,"current_range_meters":16400,"station_id":"ce4bho92rcd13ifvqh3g","pricing_plan_id":"cebpf4jnsgd1na2vs0mg"},{"bike_id":"b86b724e-376e-45a4-a88f-c409bfcfa380","system_id":"levelo_inurba_marseille","lat":43.30884,"lon":5.39658,"is_reserved":false,"is_disabled":false,"rental_uris":{"android":"levelo://app?vid=b86b724e-376e-45a4-a88f-c409bfcfa380","ios":"levelo://app?vid=b86b724e-376e-45a4-a88f-c409bfcfa380"},"vehicle_type_id":"4","last_reported":1744856544,"current_range_meters":16400,"station_id":"ce4bh012rcd13ifvqcv0","pricing_plan_id":"cebpf4jnsgd1na2vs0mg"},{"bike_id":"f9294aff-5b6f-4d62-9db7-b7bdca4ffaf5","system_id":"levelo_inurba_marseille","lat":43.325428,"lon":5.414323,"is_reserved":false,"is_disabled":false,"rental_uris":{"android":"levelo://app?vid=f9294aff-5b6f-4d62-9db7-b7bdca4ffaf5","ios":"levelo://app?vid=f9294aff-5b6f-4d62-9db7-b7bdca4ffaf5"},"vehicle_type_id":"4","last_reported":1744856544,"current_range_meters":16400,"station_id":"ce4bhq12rcd13ifvqhhg","pricing_plan_id":"cebpf4jnsgd1na2vs0mg"},{"bike_id":"2909136c-832d-48b6-ae24-8dbd950af2de","system_id":"levelo_inurba_marseille","lat":43.28399,"lon":5.37536,"is_reserved":false,"is_disabled":false,"rental_uris":{"android":"levelo://app?vid=2909136c-832d-48b6-ae24-8dbd950af2de","ios":"levelo://app?vid=2909136c-832d-48b6-ae24-8dbd950af2de"},"vehicle_type_id":"4","last_reported":1744856544,"current_range_meters":16400,"station_id":"ce4bh412rcd13ifvqds0","pricing_plan_id":"cebpf4jnsgd1na2vs0mg"},{"bike_id":"173d39b4-7a97-4693-9385-db8bda0fe199","system_id":"levelo_inurba_marseille","lat":43.21733,"lon":5.34579,"is_reserved":false,"is_disabled":false,"rental_uris":{"android":"levelo://app?vid=173d39b4-7a97-4693-9385-db8bda0fe199","ios":"levelo://app?vid=173d39b4-7a97-4693-9385-db8bda0fe199"},"vehicle_type_id":"4","last_reported":1744856544,"current_range_meters":16800,"station_id":"st_cvj6r9ubvosntc0bgbag","pricing_plan_id":"cebpf4jnsgd1na2vs0mg"},{"bike_id":"dc88ca14-385b-47d2-8f34-ba0ff66a2869","system_id":"levelo_inurba_marseille","lat":43.309266,"lon":5.378873,"is_reserved":false,"is_disabled":false,"rental_uris":{"android":"levelo://app?vid=dc88ca14-385b-47d2-8f34-ba0ff66a2869","ios":"levelo://app?vid=dc88ca14-385b-47d2-8f34-ba0ff66a2869"},"vehicle_type_id":"4","last_reported":1744856544,"current_range_meters":16800,"station_id":"","pricing_plan_id":"cebpf4jnsgd1na2vs0mg"},{"bike_id":"8bc01458-e04d-4e1e-9f4f-473a9ad28594","system_id":"levelo_inurba_marseille","lat":43.27914,"lon":5.39614,"is_reserved":false,"is_disabled":false,"rental_uris":{"android":"levelo://app?vid=8bc01458-e04d-4e1e-9f4f-473a9ad28594","ios":"levelo://app?vid=8bc01458-e04d-4e1e-9f4f-473a9ad28594"},"vehicle_type_id":"4","last_reported":1744856544,"current_range_meters":17200,"station_id":"ce4bhf92rcd13ifvqf40","pricing_plan_id":"cebpf4jnsgd1na2vs0mg"},{"bike_id":"0291b7a7-5f86-48ec-8437-eba04e7bafe8","system_id":"levelo_inurba_marseille","lat":43.32274,"lon":5.36757,"is_reserved":false,"is_disabled":false,"rental_uris":{"android":"levelo://app?vid=0291b7a7-5f86-48ec-8437-eba04e7bafe8","ios":"levelo://app?vid=0291b7a7-5f86-48ec-8437-eba04e7bafe8"},"vehicle_type_id":"4","last_reported":1744856544,"current_range_meters":17200,"station_id":"ce4bhsh2rcd13ifvqi2g","pricing_plan_id":"cebpf4jnsgd1na2vs0mg"},{"bike_id":"f637015a-f468-4470-b7ec-72a0f3fb0055","system_id":"levelo_inurba_marseille","lat":43.30354,"lon":5.42496,"is_reserved":false,"is_disabled":false,"rental_uris":{"android":"levelo://app?vid=f637015a-f468-4470-b7ec-72a0f3fb0055","ios":"levelo://app?vid=f637015a-f468-4470-b7ec-72a0f3fb0055"},"vehicle_type_id":"4","last_reported":1744856544,"current_range_meters":17200,"station_id":"ce4bhoh2rcd13ifvqh6g","pricing_plan_id":"cebpf4jnsgd1na2vs0mg"},{"bike_id":"87cde924-2a81-438b-a29c-971b9fe65d0b","system_id":"levelo_inurba_marseille","lat":43.28105,"lon":5.37826,"is_reserved":false,"is_disabled":false,"rental_uris":{"android":"levelo://app?vid=87cde924-2a81-438b-a29c-971b9fe65d0b","ios":"levelo://app?vid=87cde924-2a81-438b-a29c-971b9fe65d0b"},"vehicle_type_id":"4","last_reported":1744856544,"current_range_meters":17200,"station_id":"ce4bha12rcd13ifvqee0","pricing_plan_id":"cebpf4jnsgd1na2vs0mg"},{"bike_id":"927e7dc3-fe22-45a3-9137-be86ccd6ca89","system_id":"levelo_inurba_marseille","lat":43.286795,"lon":5.386675,"is_reserved":false,"is_disabled":false,"rental_uris":{"android":"levelo://app?vid=927e7dc3-fe22-45a3-9137-be86ccd6ca89","ios":"levelo://app?vid=927e7dc3-fe22-45a3-9137-be86ccd6ca89"},"vehicle_type_id":"4","last_reported":1744856544,"current_range_meters":17200,"station_id":"ce4bh492rcd13ifvqdug","pricing_plan_id":"cebpf4jnsgd1na2vs0mg"},{"bike_id":"a0ddb0a5-f7f0-4281-aa27-9e82747cc573","system_id":"levelo_inurba_marseille","lat":43.337619,"lon":5.374828,"is_reserved":false,"is_disabled":false,"rental_uris":{"android":"levelo://app?vid=a0ddb0a5-f7f0-4281-aa27-9e82747cc573","ios":"levelo://app?vid=a0ddb0a5-f7f0-4281-aa27-9e82747cc573"},"vehicle_type_id":"4","last_reported":1744856544,"current_range_meters":17200,"station_id":"","pricing_plan_id":"cebpf4jnsgd1na2vs0mg"},{"bike_id":"ab6b275b-a8c0-4b2d-aed8-e3e8f2827030","system_id":"levelo_inurba_marseille","lat":43.29617,"lon":5.4058,"is_reserved":false,"is_disabled":false,"rental_uris":{"android":"levelo://app?vid=ab6b275b-a8c0-4b2d-aed8-e3e8f2827030","ios":"levelo://app?vid=ab6b275b-a8c0-4b2d-aed8-e3e8f2827030"},"vehicle_type_id":"4","last_reported":1744856544,"current_range_meters":17600,"station_id":"ce4bh0h2rcd13ifvqd60","pricing_plan_id":"cebpf4jnsgd1na2vs0mg"},{"bike_id":"0f2f13a0-6a8d-44d3-bc7e-ecbee79e2e90","system_id":"levelo_inurba_marseille","lat":43.28652,"lon":5.36359,"is_reserved":false,"is_disabled":false,"rental_uris":{"android":"levelo://app?vid=0f2f13a0-6a8d-44d3-bc7e-ecbee79e2e90","ios":"levelo://app?vid=0f2f13a0-6a8d-44d3-bc7e-ecbee79e2e90"},"vehicle_type_id":"4","last_reported":1744856544,"current_range_meters":17600,"station_id":"ce4bhah2rcd13ifvqej0","pricing_plan_id":"cebpf4jnsgd1na2vs0mg"},{"bike_id":"0620d2fb-fed7-4ee2-913e-6d03123ff78c","system_id":"levelo_inurba_marseille","lat":43.22912,"lon":5.35405,"is_reserved":false,"is_disabled":false,"rental_uris":{"android":"levelo://app?vid=0620d2fb-fed7-4ee2-913e-6d03123ff78c","ios":"levelo://app?vid=0620d2fb-fed7-4ee2-913e-6d03123ff78c"},"vehicle_type_id":"4","last_reported":1744856544,"current_range_meters":17600,"station_id":"cpo3532slgdg3j2ikp40","pricing_plan_id":"cebpf4jnsgd1na2vs0mg"},{"bike_id":"b652bdb7-a4d5-4927-bd0c-73ce3a2e3721","system_id":"levelo_inurba_marseille","lat":43.26771,"lon":5.40285,"is_reserved":false,"is_disabled":false,"rental_uris":{"android":"levelo://app?vid=b652bdb7-a4d5-4927-bd0c-73ce3a2e3721","ios":"levelo://app?vid=b652bdb7-a4d5-4927-bd0c-73ce3a2e3721"},"vehicle_type_id":"4","last_reported":1744856544,"current_range_meters":17600,"station_id":"ce501612rcd8frsf0b60","pricing_plan_id":"cebpf4jnsgd1na2vs0mg"},{"bike_id":"d750596a-6ac6-4755-84cc-45acd4464f3d","system_id":"levelo_inurba_marseille","lat":43.24485,"lon":5.37001,"is_reserved":false,"is_disabled":false,"rental_uris":{"android":"levelo://app?vid=d750596a-6ac6-4755-84cc-45acd4464f3d","ios":"levelo://app?vid=d750596a-6ac6-4755-84cc-45acd4464f3d"},"vehicle_type_id":"4","last_reported":1744856544,"current_range_meters":18000,"station_id":"ce4bhhh2rcd13ifvqfk0","pricing_plan_id":"cebpf4jnsgd1na2vs0mg"},{"bike_id":"1ba209ac-2422-41b4-800d-e278d14e1319","system_id":"levelo_inurba_marseille","lat":43.30636,"lon":5.40069,"is_reserved":false,"is_disabled":false,"rental_uris":{"android":"levelo://app?vid=1ba209ac-2422-41b4-800d-e278d14e1319","ios":"levelo://app?vid=1ba209ac-2422-41b4-800d-e278d14e1319"},"vehicle_type_id":"4","last_reported":1744856544,"current_range_meters":18000,"station_id":"ce4bh112rcd13ifvqda0","pricing_plan_id":"cebpf4jnsgd1na2vs0mg"},{"bike_id":"7326dfef-2b8e-4219-96ec-b38956cbab1b","system_id":"levelo_inurba_marseille","lat":43.29806,"lon":5.40402,"is_reserved":false,"is_disabled":false,"rental_uris":{"android":"levelo://app?vid=7326dfef-2b8e-4219-96ec-b38956cbab1b","ios":"levelo://app?vid=7326dfef-2b8e-4219-96ec-b38956cbab1b"},"vehicle_type_id":"4","last_reported":1744856544,"current_range_meters":18000,"station_id":"ce4bh112rcd13ifvqd90","pricing_plan_id":"cebpf4jnsgd1na2vs0mg"},{"bike_id":"5e1950f1-3570-4e07-a7cc-3dbf8a21d845","system_id":"levelo_inurba_marseille","lat":43.28153,"lon":5.426397,"is_reserved":false,"is_disabled":false,"rental_uris":{"android":"levelo://app?vid=5e1950f1-3570-4e07-a7cc-3dbf8a21d845","ios":"levelo://app?vid=5e1950f1-3570-4e07-a7cc-3dbf8a21d845"},"vehicle_type_id":"4","last_reported":1744856544,"current_range_meters":18000,"station_id":"ce4bhnh2rcd13ifvqgug","pricing_plan_id":"cebpf4jnsgd1na2vs0mg"},{"bike_id":"2b0b4af8-8b6f-489a-93f8-1b4ec9ffba4d","system_id":"levelo_inurba_marseille","lat":43.311116,"lon":5.377629,"is_reserved":false,"is_disabled":false,"rental_uris":{"android":"levelo://app?vid=2b0b4af8-8b6f-489a-93f8-1b4ec9ffba4d","ios":"levelo://app?vid=2b0b4af8-8b6f-489a-93f8-1b4ec9ffba4d"},"vehicle_type_id":"4","last_reported":1744856544,"current_range_meters":18000,"station_id":"ce4bgt92rcd13ifvqcg0","pricing_plan_id":"cebpf4jnsgd1na2vs0mg"},{"bike_id":"85e8aa86-a8ab-4e3e-b05c-5ae434bba4a7","system_id":"levelo_inurba_marseille","lat":43.28676,"lon":5.38669,"is_reserved":false,"is_disabled":false,"rental_uris":{"android":"levelo://app?vid=85e8aa86-a8ab-4e3e-b05c-5ae434bba4a7","ios":"levelo://app?vid=85e8aa86-a8ab-4e3e-b05c-5ae434bba4a7"},"vehicle_type_id":"4","last_reported":1744856544,"current_range_meters":18000,"station_id":"ce4bh492rcd13ifvqdug","pricing_plan_id":"cebpf4jnsgd1na2vs0mg"},{"bike_id":"d67b9230-76ac-44c0-a11d-f5f9ea7f9459","system_id":"levelo_inurba_marseille","lat":43.26673,"lon":5.38238,"is_reserved":false,"is_disabled":false,"rental_uris":{"android":"levelo://app?vid=d67b9230-76ac-44c0-a11d-f5f9ea7f9459","ios":"levelo://app?vid=d67b9230-76ac-44c0-a11d-f5f9ea7f9459"},"vehicle_type_id":"4","last_reported":1744856544,"current_range_meters":18800,"station_id":"ce4bhg92rcd13ifvqf90","pricing_plan_id":"cebpf4jnsgd1na2vs0mg"},{"bike_id":"08f4dcee-7656-4957-9022-f13783bb2667","system_id":"levelo_inurba_marseille","lat":43.2969,"lon":5.37267,"is_reserved":false,"is_disabled":false,"rental_uris":{"android":"levelo://app?vid=08f4dcee-7656-4957-9022-f13783bb2667","ios":"levelo://app?vid=08f4dcee-7656-4957-9022-f13783bb2667"},"vehicle_type_id":"4","last_reported":1744856544,"current_range_meters":18800,"station_id":"ce4bgk12rcd13ifvqbj0","pricing_plan_id":"cebpf4jnsgd1na2vs0mg"},{"bike_id":"41fb0398-f2fe-4abb-ae37-a38f47615ea9","system_id":"levelo_inurba_marseille","lat":43.3236,"lon":5.36768,"is_reserved":false,"is_disabled":false,"rental_uris":{"android":"levelo://app?vid=41fb0398-f2fe-4abb-ae37-a38f47615ea9","ios":"levelo://app?vid=41fb0398-f2fe-4abb-ae37-a38f47615ea9"},"vehicle_type_id":"4","last_reported":1744856544,"current_range_meters":18800,"station_id":"ce4bhsh2rcd13ifvqi2g","pricing_plan_id":"cebpf4jnsgd1na2vs0mg"},{"bike_id":"e34f3682-76dc-4df7-ae85-ddbd10f0a68b","system_id":"levelo_inurba_marseille","lat":43.30207,"lon":5.39479,"is_reserved":false,"is_disabled":false,"rental_uris":{"android":"levelo://app?vid=e34f3682-76dc-4df7-ae85-ddbd10f0a68b","ios":"levelo://app?vid=e34f3682-76dc-4df7-ae85-ddbd10f0a68b"},"vehicle_type_id":"4","last_reported":1744856544,"current_range_meters":18800,"station_id":"ce4bh0p2rcd13ifvqd70","pricing_plan_id":"cebpf4jnsgd1na2vs0mg"},{"bike_id":"46a5578a-729e-4c53-9f4e-14e153654f39","system_id":"levelo_inurba_marseille","lat":43.30812,"lon":5.38158,"is_reserved":false,"is_disabled":false,"rental_uris":{"android":"levelo://app?vid=46a5578a-729e-4c53-9f4e-14e153654f39","ios":"levelo://app?vid=46a5578a-729e-4c53-9f4e-14e153654f39"},"vehicle_type_id":"4","last_reported":1744856544,"current_range_meters":18800,"station_id":"ce4bgt12rcd13ifvqce0","pricing_plan_id":"cebpf4jnsgd1na2vs0mg"},{"bike_id":"a9a13b2f-e2de-4f40-968c-4382de62974d","system_id":"levelo_inurba_marseille","lat":43.27938,"lon":5.41029,"is_reserved":false,"is_disabled":false,"rental_uris":{"android":"levelo://app?vid=a9a13b2f-e2de-4f40-968c-4382de62974d","ios":"levelo://app?vid=a9a13b2f-e2de-4f40-968c-4382de62974d"},"vehicle_type_id":"4","last_reported":1744856544,"current_range_meters":18800,"station_id":"ce4bhnp2rcd13ifvqh0g","pricing_plan_id":"cebpf4jnsgd1na2vs0mg"},{"bike_id":"b557e27d-0f32-4a0a-b488-e6933e60a2bf","system_id":"levelo_inurba_marseille","lat":43.29793,"lon":5.39342,"is_reserved":false,"is_disabled":false,"rental_uris":{"android":"levelo://app?vid=b557e27d-0f32-4a0a-b488-e6933e60a2bf","ios":"levelo://app?vid=b557e27d-0f32-4a0a-b488-e6933e60a2bf"},"vehicle_type_id":"4","last_reported":1744856544,"current_range_meters":18800,"station_id":"chh1huq6cuj3fo74tm60","pricing_plan_id":"cebpf4jnsgd1na2vs0mg"},{"bike_id":"04fb422e-0aec-4205-8e11-f392462c55c3","system_id":"levelo_inurba_marseille","lat":43.26811,"lon":5.40277,"is_reserved":false,"is_disabled":false,"rental_uris":{"android":"levelo://app?vid=04fb422e-0aec-4205-8e11-f392462c55c3","ios":"levelo://app?vid=04fb422e-0aec-4205-8e11-f392462c55c3"},"vehicle_type_id":"4","last_reported":1744856544,"current_range_meters":19200,"station_id":"ce501612rcd8frsf0b60","pricing_plan_id":"cebpf4jnsgd1na2vs0mg"},{"bike_id":"d486101b-072f-470b-a885-f5f95c61cd86","system_id":"levelo_inurba_marseille","lat":43.31455,"lon":5.37295,"is_reserved":false,"is_disabled":false,"rental_uris":{"android":"levelo://app?vid=d486101b-072f-470b-a885-f5f95c61cd86","ios":"levelo://app?vid=d486101b-072f-470b-a885-f5f95c61cd86"},"vehicle_type_id":"4","last_reported":1744856544,"current_range_meters":19200,"station_id":"ce4bgt12rcd13ifvqcd0","pricing_plan_id":"cebpf4jnsgd1na2vs0mg"},{"bike_id":"d539324f-6b6b-4525-b920-ac614066a0d9","system_id":"levelo_inurba_marseille","lat":43.30872,"lon":5.39638,"is_reserved":false,"is_disabled":false,"rental_uris":{"android":"levelo://app?vid=d539324f-6b6b-4525-b920-ac614066a0d9","ios":"levelo://app?vid=d539324f-6b6b-4525-b920-ac614066a0d9"},"vehicle_type_id":"4","last_reported":1744856544,"current_range_meters":19200,"station_id":"ce4bh012rcd13ifvqcv0","pricing_plan_id":"cebpf4jnsgd1na2vs0mg"},{"bike_id":"31281794-86da-43f1-be4d-cec41a15e4cd","system_id":"levelo_inurba_marseille","lat":43.28103,"lon":5.37836,"is_reserved":false,"is_disabled":false,"rental_uris":{"android":"levelo://app?vid=31281794-86da-43f1-be4d-cec41a15e4cd","ios":"levelo://app?vid=31281794-86da-43f1-be4d-cec41a15e4cd"},"vehicle_type_id":"4","last_reported":1744856544,"current_range_meters":19200,"station_id":"ce4bha12rcd13ifvqee0","pricing_plan_id":"cebpf4jnsgd1na2vs0mg"},{"bike_id":"bbb1c662-cc65-4c72-8489-de78d2f0f12f","system_id":"levelo_inurba_marseille","lat":43.23066,"lon":5.35492,"is_reserved":false,"is_disabled":false,"rental_uris":{"android":"levelo://app?vid=bbb1c662-cc65-4c72-8489-de78d2f0f12f","ios":"levelo://app?vid=bbb1c662-cc65-4c72-8489-de78d2f0f12f"},"vehicle_type_id":"4","last_reported":1744856544,"current_range_meters":19600,"station_id":"cpo3342slgdg3j2ifvpg","pricing_plan_id":"cebpf4jnsgd1na2vs0mg"},{"bike_id":"8934c9ff-b955-4903-b5d2-c595dc711b7c","system_id":"levelo_inurba_marseille","lat":43.29532,"lon":5.39968,"is_reserved":false,"is_disabled":true,"rental_uris":{"android":"levelo://app?vid=8934c9ff-b955-4903-b5d2-c595dc711b7c","ios":"levelo://app?vid=8934c9ff-b955-4903-b5d2-c595dc711b7c"},"vehicle_type_id":"4","last_reported":1744856544,"current_range_meters":19600,"station_id":"ce4bh312rcd13ifvqdj0","pricing_plan_id":"cebpf4jnsgd1na2vs0mg"},{"bike_id":"8fd2cdd0-07d7-4c01-add2-10309aca4136","system_id":"levelo_inurba_marseille","lat":43.267169,"lon":5.394645,"is_reserved":false,"is_disabled":true,"rental_uris":{"android":"levelo://app?vid=8fd2cdd0-07d7-4c01-add2-10309aca4136","ios":"levelo://app?vid=8fd2cdd0-07d7-4c01-add2-10309aca4136"},"vehicle_type_id":"4","last_reported":1744856544,"current_range_meters":19600,"station_id":"","pricing_plan_id":"cebpf4jnsgd1na2vs0mg"},{"bike_id":"d30fbe0e-2023-4bc5-a49e-70875652d939","system_id":"levelo_inurba_marseille","lat":43.298783,"lon":5.391414,"is_reserved":false,"is_disabled":false,"rental_uris":{"android":"levelo://app?vid=d30fbe0e-2023-4bc5-a49e-70875652d939","ios":"levelo://app?vid=d30fbe0e-2023-4bc5-a49e-70875652d939"},"vehicle_type_id":"4","last_reported":1744856544,"current_range_meters":19600,"station_id":"ce4bgk12rcd13ifvqbi0","pricing_plan_id":"cebpf4jnsgd1na2vs0mg"},{"bike_id":"84ad3fe7-f181-4334-ae1e-26549de53940","system_id":"levelo_inurba_marseille","lat":43.28458,"lon":5.358769,"is_reserved":false,"is_disabled":false,"rental_uris":{"android":"levelo://app?vid=84ad3fe7-f181-4334-ae1e-26549de53940","ios":"levelo://app?vid=84ad3fe7-f181-4334-ae1e-26549de53940"},"vehicle_type_id":"4","last_reported":1744856544,"current_range_meters":19600,"station_id":"ce4bhah2rcd13ifvqei0","pricing_plan_id":"cebpf4jnsgd1na2vs0mg"},{"bike_id":"9b32d9b0-b425-4d34-812f-0c610ee31565","system_id":"levelo_inurba_marseille","lat":43.30198,"lon":5.39463,"is_reserved":false,"is_disabled":true,"rental_uris":{"android":"levelo://app?vid=9b32d9b0-b425-4d34-812f-0c610ee31565","ios":"levelo://app?vid=9b32d9b0-b425-4d34-812f-0c610ee31565"},"vehicle_type_id":"4","last_reported":1744856544,"current_range_meters":20000,"station_id":"ce4bh0p2rcd13ifvqd70","pricing_plan_id":"cebpf4jnsgd1na2vs0mg"},{"bike_id":"653749e8-30e0-4c48-aa00-f9b072b9dd97","system_id":"levelo_inurba_marseille","lat":43.30876,"lon":5.39638,"is_reserved":false,"is_disabled":false,"rental_uris":{"android":"levelo://app?vid=653749e8-30e0-4c48-aa00-f9b072b9dd97","ios":"levelo://app?vid=653749e8-30e0-4c48-aa00-f9b072b9dd97"},"vehicle_type_id":"4","last_reported":1744856544,"current_range_meters":20000,"station_id":"ce4bh012rcd13ifvqcv0","pricing_plan_id":"cebpf4jnsgd1na2vs0mg"},{"bike_id":"84c48c85-9b00-408c-a761-1ac18b23fed5","system_id":"levelo_inurba_marseille","lat":43.24395,"lon":5.37063,"is_reserved":false,"is_disabled":false,"rental_uris":{"android":"levelo://app?vid=84c48c85-9b00-408c-a761-1ac18b23fed5","ios":"levelo://app?vid=84c48c85-9b00-408c-a761-1ac18b23fed5"},"vehicle_type_id":"4","last_reported":1744856544,"current_range_meters":20000,"station_id":"ce4bhhh2rcd13ifvqfk0","pricing_plan_id":"cebpf4jnsgd1na2vs0mg"},{"bike_id":"5376db3a-f912-4a95-826f-4197746248f5","system_id":"levelo_inurba_marseille","lat":43.30326,"lon":5.42496,"is_reserved":false,"is_disabled":false,"rental_uris":{"android":"levelo://app?vid=5376db3a-f912-4a95-826f-4197746248f5","ios":"levelo://app?vid=5376db3a-f912-4a95-826f-4197746248f5"},"vehicle_type_id":"4","last_reported":1744856544,"current_range_meters":20000,"station_id":"ce4bhoh2rcd13ifvqh6g","pricing_plan_id":"cebpf4jnsgd1na2vs0mg"},{"bike_id":"c8622233-5825-4cce-ad31-9ac0f6854c02","system_id":"levelo_inurba_marseille","lat":43.288487,"lon":5.358499,"is_reserved":false,"is_disabled":false,"rental_uris":{"android":"levelo://app?vid=c8622233-5825-4cce-ad31-9ac0f6854c02","ios":"levelo://app?vid=c8622233-5825-4cce-ad31-9ac0f6854c02"},"vehicle_type_id":"4","last_reported":1744856544,"current_range_meters":20000,"station_id":"ce4bhb12rcd13ifvqem0","pricing_plan_id":"cebpf4jnsgd1na2vs0mg"},{"bike_id":"3eb8d19d-dc63-48a7-802c-6f59b7f4ce2f","system_id":"levelo_inurba_marseille","lat":43.262281,"lon":5.404535,"is_reserved":false,"is_disabled":false,"rental_uris":{"android":"levelo://app?vid=3eb8d19d-dc63-48a7-802c-6f59b7f4ce2f","ios":"levelo://app?vid=3eb8d19d-dc63-48a7-802c-6f59b7f4ce2f"},"vehicle_type_id":"4","last_reported":1744856544,"current_range_meters":20000,"station_id":"ce4bhmh2rcd13ifvqgmg","pricing_plan_id":"cebpf4jnsgd1na2vs0mg"},{"bike_id":"73437772-d7f3-4ec8-9513-a4fcf17b9e79","system_id":"levelo_inurba_marseille","lat":43.31066,"lon":5.38352,"is_reserved":false,"is_disabled":false,"rental_uris":{"android":"levelo://app?vid=73437772-d7f3-4ec8-9513-a4fcf17b9e79","ios":"levelo://app?vid=73437772-d7f3-4ec8-9513-a4fcf17b9e79"},"vehicle_type_id":"4","last_reported":1744856544,"current_range_meters":20400,"station_id":"ce4bgv92rcd13ifvqcr0","pricing_plan_id":"cebpf4jnsgd1na2vs0mg"},{"bike_id":"bf719354-3a0f-4a08-a3dc-ea01891f96a8","system_id":"levelo_inurba_marseille","lat":43.292581,"lon":5.384386,"is_reserved":false,"is_disabled":true,"rental_uris":{"android":"levelo://app?vid=bf719354-3a0f-4a08-a3dc-ea01891f96a8","ios":"levelo://app?vid=bf719354-3a0f-4a08-a3dc-ea01891f96a8"},"vehicle_type_id":"4","last_reported":1744856544,"current_range_meters":20400,"station_id":"ce4bh692rcd13ifvqea0","pricing_plan_id":"cebpf4jnsgd1na2vs0mg"},{"bike_id":"8fb8db65-2b1d-4ee2-a4a9-94f09782265d","system_id":"levelo_inurba_marseille","lat":43.298046,"lon":5.40402,"is_reserved":false,"is_disabled":false,"rental_uris":{"android":"levelo://app?vid=8fb8db65-2b1d-4ee2-a4a9-94f09782265d","ios":"levelo://app?vid=8fb8db65-2b1d-4ee2-a4a9-94f09782265d"},"vehicle_type_id":"4","last_reported":1744856544,"current_range_meters":20400,"station_id":"ce4bh112rcd13ifvqd90","pricing_plan_id":"cebpf4jnsgd1na2vs0mg"},{"bike_id":"02d21972-fec1-40b1-b30a-48e3b7202348","system_id":"levelo_inurba_marseille","lat":43.30887,"lon":5.3962,"is_reserved":false,"is_disabled":false,"rental_uris":{"android":"levelo://app?vid=02d21972-fec1-40b1-b30a-48e3b7202348","ios":"levelo://app?vid=02d21972-fec1-40b1-b30a-48e3b7202348"},"vehicle_type_id":"4","last_reported":1744856544,"current_range_meters":20400,"station_id":"ce4bh012rcd13ifvqcv0","pricing_plan_id":"cebpf4jnsgd1na2vs0mg"},{"bike_id":"0113ed11-7a29-404c-8c2e-46e6b3486f36","system_id":"levelo_inurba_marseille","lat":43.31065,"lon":5.38348,"is_reserved":false,"is_disabled":false,"rental_uris":{"android":"levelo://app?vid=0113ed11-7a29-404c-8c2e-46e6b3486f36","ios":"levelo://app?vid=0113ed11-7a29-404c-8c2e-46e6b3486f36"},"vehicle_type_id":"4","last_reported":1744856544,"current_range_meters":20400,"station_id":"ce4bgv92rcd13ifvqcr0","pricing_plan_id":"cebpf4jnsgd1na2vs0mg"},{"bike_id":"926d437c-ff30-43a8-befb-7e373c75d533","system_id":"levelo_inurba_marseille","lat":43.28455,"lon":5.35881,"is_reserved":false,"is_disabled":false,"rental_uris":{"android":"levelo://app?vid=926d437c-ff30-43a8-befb-7e373c75d533","ios":"levelo://app?vid=926d437c-ff30-43a8-befb-7e373c75d533"},"vehicle_type_id":"4","last_reported":1744856544,"current_range_meters":20800,"station_id":"ce4bhah2rcd13ifvqei0","pricing_plan_id":"cebpf4jnsgd1na2vs0mg"},{"bike_id":"1d00456f-29c8-4f2b-94ca-209c3cd1138b","system_id":"levelo_inurba_marseille","lat":43.294468,"lon":5.397458,"is_reserved":false,"is_disabled":false,"rental_uris":{"android":"levelo://app?vid=1d00456f-29c8-4f2b-94ca-209c3cd1138b","ios":"levelo://app?vid=1d00456f-29c8-4f2b-94ca-209c3cd1138b"},"vehicle_type_id":"4","last_reported":1744856544,"current_range_meters":20800,"station_id":"ce4bh3h2rcd13ifvqdo0","pricing_plan_id":"cebpf4jnsgd1na2vs0mg"},{"bike_id":"d7676a18-4d03-4a89-8def-d9f87f68b92b","system_id":"levelo_inurba_marseille","lat":43.30881,"lon":5.39642,"is_reserved":false,"is_disabled":false,"rental_uris":{"android":"levelo://app?vid=d7676a18-4d03-4a89-8def-d9f87f68b92b","ios":"levelo://app?vid=d7676a18-4d03-4a89-8def-d9f87f68b92b"},"vehicle_type_id":"4","last_reported":1744856544,"current_range_meters":20800,"station_id":"ce4bh012rcd13ifvqcv0","pricing_plan_id":"cebpf4jnsgd1na2vs0mg"},{"bike_id":"2d9b72bb-af7d-431d-9cde-4a3fe902ebe7","system_id":"levelo_inurba_marseille","lat":43.311678,"lon":5.387131,"is_reserved":false,"is_disabled":false,"rental_uris":{"android":"levelo://app?vid=2d9b72bb-af7d-431d-9cde-4a3fe902ebe7","ios":"levelo://app?vid=2d9b72bb-af7d-431d-9cde-4a3fe902ebe7"},"vehicle_type_id":"4","last_reported":1744856544,"current_range_meters":20800,"station_id":"ce4bgv12rcd13ifvqcp0","pricing_plan_id":"cebpf4jnsgd1na2vs0mg"},{"bike_id":"ef6e9c6f-8f69-4fcf-9727-b556a001e5bc","system_id":"levelo_inurba_marseille","lat":43.29567,"lon":5.42278,"is_reserved":false,"is_disabled":false,"rental_uris":{"android":"levelo://app?vid=ef6e9c6f-8f69-4fcf-9727-b556a001e5bc","ios":"levelo://app?vid=ef6e9c6f-8f69-4fcf-9727-b556a001e5bc"},"vehicle_type_id":"4","last_reported":1744856544,"current_range_meters":20800,"station_id":"ce4bhph2rcd13ifvqhdg","pricing_plan_id":"cebpf4jnsgd1na2vs0mg"},{"bike_id":"7eb8853e-3665-40f5-8308-1299f0674652","system_id":"levelo_inurba_marseille","lat":43.30365,"lon":5.42501,"is_reserved":false,"is_disabled":false,"rental_uris":{"android":"levelo://app?vid=7eb8853e-3665-40f5-8308-1299f0674652","ios":"levelo://app?vid=7eb8853e-3665-40f5-8308-1299f0674652"},"vehicle_type_id":"4","last_reported":1744856544,"current_range_meters":20800,"station_id":"ce4bhoh2rcd13ifvqh6g","pricing_plan_id":"cebpf4jnsgd1na2vs0mg"},{"bike_id":"f682fad4-58d9-4a44-80a1-b3510c534418","system_id":"levelo_inurba_marseille","lat":43.29274,"lon":5.368356,"is_reserved":false,"is_disabled":true,"rental_uris":{"android":"levelo://app?vid=f682fad4-58d9-4a44-80a1-b3510c534418","ios":"levelo://app?vid=f682fad4-58d9-4a44-80a1-b3510c534418"},"vehicle_type_id":"4","last_reported":1744856544,"current_range_meters":21600,"station_id":"ce4bhbp2rcd13ifvqesg","pricing_plan_id":"cebpf4jnsgd1na2vs0mg"},{"bike_id":"345f3b88-e34e-4d48-9f0c-6592661ae354","system_id":"levelo_inurba_marseille","lat":43.27946,"lon":5.41035,"is_reserved":false,"is_disabled":false,"rental_uris":{"android":"levelo://app?vid=345f3b88-e34e-4d48-9f0c-6592661ae354","ios":"levelo://app?vid=345f3b88-e34e-4d48-9f0c-6592661ae354"},"vehicle_type_id":"4","last_reported":1744856544,"current_range_meters":21600,"station_id":"ce4bhnp2rcd13ifvqh0g","pricing_plan_id":"cebpf4jnsgd1na2vs0mg"},{"bike_id":"e1ac574f-f09f-4066-84f0-29335a400ef5","system_id":"levelo_inurba_marseille","lat":43.2791,"lon":5.39578,"is_reserved":false,"is_disabled":false,"rental_uris":{"android":"levelo://app?vid=e1ac574f-f09f-4066-84f0-29335a400ef5","ios":"levelo://app?vid=e1ac574f-f09f-4066-84f0-29335a400ef5"},"vehicle_type_id":"4","last_reported":1744856544,"current_range_meters":21600,"station_id":"ce4bhf92rcd13ifvqf40","pricing_plan_id":"cebpf4jnsgd1na2vs0mg"},{"bike_id":"789c3822-56ca-4769-bcd4-8845bdea2fda","system_id":"levelo_inurba_marseille","lat":43.24165,"lon":5.36391,"is_reserved":false,"is_disabled":false,"rental_uris":{"android":"levelo://app?vid=789c3822-56ca-4769-bcd4-8845bdea2fda","ios":"levelo://app?vid=789c3822-56ca-4769-bcd4-8845bdea2fda"},"vehicle_type_id":"4","last_reported":1744856544,"current_range_meters":21600,"station_id":"cpo36qri1sfpv3e86is0","pricing_plan_id":"cebpf4jnsgd1na2vs0mg"},{"bike_id":"7ed91d22-3d5b-4254-83bf-64eb2a7d5481","system_id":"levelo_inurba_marseille","lat":43.22501,"lon":5.34777,"is_reserved":false,"is_disabled":false,"rental_uris":{"android":"levelo://app?vid=7ed91d22-3d5b-4254-83bf-64eb2a7d5481","ios":"levelo://app?vid=7ed91d22-3d5b-4254-83bf-64eb2a7d5481"},"vehicle_type_id":"4","last_reported":1744856544,"current_range_meters":21600,"station_id":"","pricing_plan_id":"cebpf4jnsgd1na2vs0mg"},{"bike_id":"33efbe4e-e642-4271-be29-4926b421ca5b","system_id":"levelo_inurba_marseille","lat":43.24159,"lon":5.3639,"is_reserved":false,"is_disabled":false,"rental_uris":{"android":"levelo://app?vid=33efbe4e-e642-4271-be29-4926b421ca5b","ios":"levelo://app?vid=33efbe4e-e642-4271-be29-4926b421ca5b"},"vehicle_type_id":"4","last_reported":1744856544,"current_range_meters":21600,"station_id":"cpo36qri1sfpv3e86is0","pricing_plan_id":"cebpf4jnsgd1na2vs0mg"},{"bike_id":"21f826db-5070-49f5-892f-84f485b6e13f","system_id":"levelo_inurba_marseille","lat":43.305974,"lon":5.393431,"is_reserved":false,"is_disabled":false,"rental_uris":{"android":"levelo://app?vid=21f826db-5070-49f5-892f-84f485b6e13f","ios":"levelo://app?vid=21f826db-5070-49f5-892f-84f485b6e13f"},"vehicle_type_id":"4","last_reported":1744856544,"current_range_meters":21600,"station_id":"ce4bh0p2rcd13ifvqd80","pricing_plan_id":"cebpf4jnsgd1na2vs0mg"},{"bike_id":"cc250298-de78-48ca-910c-a354646c94bb","system_id":"levelo_inurba_marseille","lat":43.31995,"lon":5.38148,"is_reserved":false,"is_disabled":false,"rental_uris":{"android":"levelo://app?vid=cc250298-de78-48ca-910c-a354646c94bb","ios":"levelo://app?vid=cc250298-de78-48ca-910c-a354646c94bb"},"vehicle_type_id":"4","last_reported":1744856544,"current_range_meters":21600,"station_id":"ce4bhr12rcd13ifvqhpg","pricing_plan_id":"cebpf4jnsgd1na2vs0mg"},{"bike_id":"421b8527-ab9a-4d48-8e78-647564edc005","system_id":"levelo_inurba_marseille","lat":43.28332,"lon":5.38099,"is_reserved":false,"is_disabled":false,"rental_uris":{"android":"levelo://app?vid=421b8527-ab9a-4d48-8e78-647564edc005","ios":"levelo://app?vid=421b8527-ab9a-4d48-8e78-647564edc005"},"vehicle_type_id":"4","last_reported":1744856544,"current_range_meters":21600,"station_id":"ce4bh412rcd13ifvqdr0","pricing_plan_id":"cebpf4jnsgd1na2vs0mg"},{"bike_id":"88ff5eb1-99b3-4756-8b5e-280ffad10818","system_id":"levelo_inurba_marseille","lat":43.310766,"lon":5.383435,"is_reserved":false,"is_disabled":false,"rental_uris":{"android":"levelo://app?vid=88ff5eb1-99b3-4756-8b5e-280ffad10818","ios":"levelo://app?vid=88ff5eb1-99b3-4756-8b5e-280ffad10818"},"vehicle_type_id":"4","last_reported":1744856544,"current_range_meters":22000,"station_id":"ce4bgv92rcd13ifvqcr0","pricing_plan_id":"cebpf4jnsgd1na2vs0mg"},{"bike_id":"f1e90bd1-7b15-4d73-9cf8-b8bcae41f5fb","system_id":"levelo_inurba_marseille","lat":43.292423,"lon":5.409069,"is_reserved":false,"is_disabled":false,"rental_uris":{"android":"levelo://app?vid=f1e90bd1-7b15-4d73-9cf8-b8bcae41f5fb","ios":"levelo://app?vid=f1e90bd1-7b15-4d73-9cf8-b8bcae41f5fb"},"vehicle_type_id":"4","last_reported":1744856544,"current_range_meters":22000,"station_id":"ce4bh192rcd13ifvqdc0","pricing_plan_id":"cebpf4jnsgd1na2vs0mg"},{"bike_id":"2a3df68e-728a-4b9c-bbc2-4259a4448e26","system_id":"levelo_inurba_marseille","lat":43.27989,"lon":5.40007,"is_reserved":false,"is_disabled":false,"rental_uris":{"android":"levelo://app?vid=2a3df68e-728a-4b9c-bbc2-4259a4448e26","ios":"levelo://app?vid=2a3df68e-728a-4b9c-bbc2-4259a4448e26"},"vehicle_type_id":"4","last_reported":1744856544,"current_range_meters":22000,"station_id":"ce4bho92rcd13ifvqh4g","pricing_plan_id":"cebpf4jnsgd1na2vs0mg"},{"bike_id":"92194084-ec06-47a7-83e4-0f79cd022e22","system_id":"levelo_inurba_marseille","lat":43.31287,"lon":5.40144,"is_reserved":false,"is_disabled":false,"rental_uris":{"android":"levelo://app?vid=92194084-ec06-47a7-83e4-0f79cd022e22","ios":"levelo://app?vid=92194084-ec06-47a7-83e4-0f79cd022e22"},"vehicle_type_id":"4","last_reported":1744856544,"current_range_meters":22000,"station_id":"ce4bh092rcd13ifvqd30","pricing_plan_id":"cebpf4jnsgd1na2vs0mg"},{"bike_id":"3d14c271-2e99-49aa-81d5-0fef16e91490","system_id":"levelo_inurba_marseille","lat":43.28664,"lon":5.36342,"is_reserved":false,"is_disabled":false,"rental_uris":{"android":"levelo://app?vid=3d14c271-2e99-49aa-81d5-0fef16e91490","ios":"levelo://app?vid=3d14c271-2e99-49aa-81d5-0fef16e91490"},"vehicle_type_id":"4","last_reported":1744856544,"current_range_meters":22000,"station_id":"ce4bhah2rcd13ifvqej0","pricing_plan_id":"cebpf4jnsgd1na2vs0mg"},{"bike_id":"e87617ae-6b99-40b9-85b1-d3c6923a68ac","system_id":"levelo_inurba_marseille","lat":43.30326,"lon":5.4044,"is_reserved":false,"is_disabled":false,"rental_uris":{"android":"levelo://app?vid=e87617ae-6b99-40b9-85b1-d3c6923a68ac","ios":"levelo://app?vid=e87617ae-6b99-40b9-85b1-d3c6923a68ac"},"vehicle_type_id":"4","last_reported":1744856544,"current_range_meters":22000,"station_id":"ce4bh012rcd13ifvqd10","pricing_plan_id":"cebpf4jnsgd1na2vs0mg"},{"bike_id":"bd3f7c87-2214-4add-a4a2-d3b9bb19b65d","system_id":"levelo_inurba_marseille","lat":43.31752,"lon":5.38833,"is_reserved":false,"is_disabled":false,"rental_uris":{"android":"levelo://app?vid=bd3f7c87-2214-4add-a4a2-d3b9bb19b65d","ios":"levelo://app?vid=bd3f7c87-2214-4add-a4a2-d3b9bb19b65d"},"vehicle_type_id":"4","last_reported":1744856544,"current_range_meters":22000,"station_id":"","pricing_plan_id":"cebpf4jnsgd1na2vs0mg"},{"bike_id":"3b15e86a-6b6f-4ec6-9418-eeb3ac36c10f","system_id":"levelo_inurba_marseille","lat":43.32022,"lon":5.38539,"is_reserved":false,"is_disabled":false,"rental_uris":{"android":"levelo://app?vid=3b15e86a-6b6f-4ec6-9418-eeb3ac36c10f","ios":"levelo://app?vid=3b15e86a-6b6f-4ec6-9418-eeb3ac36c10f"},"vehicle_type_id":"4","last_reported":1744856544,"current_range_meters":22000,"station_id":"","pricing_plan_id":"cebpf4jnsgd1na2vs0mg"},{"bike_id":"68342d9f-f0b6-47e7-b690-b27078e67a77","system_id":"levelo_inurba_marseille","lat":43.24181,"lon":5.36387,"is_reserved":false,"is_disabled":false,"rental_uris":{"android":"levelo://app?vid=68342d9f-f0b6-47e7-b690-b27078e67a77","ios":"levelo://app?vid=68342d9f-f0b6-47e7-b690-b27078e67a77"},"vehicle_type_id":"4","last_reported":1744856544,"current_range_meters":22400,"station_id":"cpo36qri1sfpv3e86is0","pricing_plan_id":"cebpf4jnsgd1na2vs0mg"},{"bike_id":"49656461-bedc-4f0f-a69f-7ac8c555c02a","system_id":"levelo_inurba_marseille","lat":43.24386,"lon":5.37041,"is_reserved":false,"is_disabled":false,"rental_uris":{"android":"levelo://app?vid=49656461-bedc-4f0f-a69f-7ac8c555c02a","ios":"levelo://app?vid=49656461-bedc-4f0f-a69f-7ac8c555c02a"},"vehicle_type_id":"4","last_reported":1744856544,"current_range_meters":22400,"station_id":"ce4bhhh2rcd13ifvqfk0","pricing_plan_id":"cebpf4jnsgd1na2vs0mg"},{"bike_id":"ce91a124-09ea-4ce6-b45e-165b6a5bcd52","system_id":"levelo_inurba_marseille","lat":43.29027,"lon":5.38144,"is_reserved":false,"is_disabled":true,"rental_uris":{"android":"levelo://app?vid=ce91a124-09ea-4ce6-b45e-165b6a5bcd52","ios":"levelo://app?vid=ce91a124-09ea-4ce6-b45e-165b6a5bcd52"},"vehicle_type_id":"4","last_reported":1744856544,"current_range_meters":22400,"station_id":"ce4bh4p2rcd13ifvqe1g","pricing_plan_id":"cebpf4jnsgd1na2vs0mg"},{"bike_id":"e41011a7-8027-4449-ac4f-d29c72ebb945","system_id":"levelo_inurba_marseille","lat":43.29707,"lon":5.37697,"is_reserved":false,"is_disabled":false,"rental_uris":{"android":"levelo://app?vid=e41011a7-8027-4449-ac4f-d29c72ebb945","ios":"levelo://app?vid=e41011a7-8027-4449-ac4f-d29c72ebb945"},"vehicle_type_id":"4","last_reported":1744856544,"current_range_meters":22000,"station_id":"ce4bgkh2rcd13ifvqbl0","pricing_plan_id":"cebpf4jnsgd1na2vs0mg"},{"bike_id":"cc0feacd-d51b-44b3-a5a9-a04ccc7260ea","system_id":"levelo_inurba_marseille","lat":43.28976,"lon":5.37837,"is_reserved":false,"is_disabled":true,"rental_uris":{"android":"levelo://app?vid=cc0feacd-d51b-44b3-a5a9-a04ccc7260ea","ios":"levelo://app?vid=cc0feacd-d51b-44b3-a5a9-a04ccc7260ea"},"vehicle_type_id":"4","last_reported":1744856544,"current_range_meters":22400,"station_id":"ce4bh9p2rcd13ifvqed0","pricing_plan_id":"cebpf4jnsgd1na2vs0mg"},{"bike_id":"d39e5537-c00a-4bf8-9f22-53966b448679","system_id":"levelo_inurba_marseille","lat":43.29568,"lon":5.42262,"is_reserved":false,"is_disabled":false,"rental_uris":{"android":"levelo://app?vid=d39e5537-c00a-4bf8-9f22-53966b448679","ios":"levelo://app?vid=d39e5537-c00a-4bf8-9f22-53966b448679"},"vehicle_type_id":"4","last_reported":1744856544,"current_range_meters":22800,"station_id":"ce4bhph2rcd13ifvqhdg","pricing_plan_id":"cebpf4jnsgd1na2vs0mg"},{"bike_id":"88bfa4d6-b033-456c-a8d9-b51526e39406","system_id":"levelo_inurba_marseille","lat":43.29905,"lon":5.43666,"is_reserved":false,"is_disabled":false,"rental_uris":{"android":"levelo://app?vid=88bfa4d6-b033-456c-a8d9-b51526e39406","ios":"levelo://app?vid=88bfa4d6-b033-456c-a8d9-b51526e39406"},"vehicle_type_id":"4","last_reported":1744856544,"current_range_meters":22800,"station_id":"ce4bhpp2rcd13ifvqhfg","pricing_plan_id":"cebpf4jnsgd1na2vs0mg"},{"bike_id":"f9d3fbe6-73e5-424e-af02-f446d5b07152","system_id":"levelo_inurba_marseille","lat":43.21732,"lon":5.34625,"is_reserved":false,"is_disabled":false,"rental_uris":{"android":"levelo://app?vid=f9d3fbe6-73e5-424e-af02-f446d5b07152","ios":"levelo://app?vid=f9d3fbe6-73e5-424e-af02-f446d5b07152"},"vehicle_type_id":"4","last_reported":1744856544,"current_range_meters":22800,"station_id":"st_cvj6r9ubvosntc0bgbag","pricing_plan_id":"cebpf4jnsgd1na2vs0mg"},{"bike_id":"f49b23d8-f4bc-47a8-96e7-11a27acaa310","system_id":"levelo_inurba_marseille","lat":43.28695,"lon":5.39973,"is_reserved":false,"is_disabled":false,"rental_uris":{"android":"levelo://app?vid=f49b23d8-f4bc-47a8-96e7-11a27acaa310","ios":"levelo://app?vid=f49b23d8-f4bc-47a8-96e7-11a27acaa310"},"vehicle_type_id":"4","last_reported":1744856544,"current_range_meters":22800,"station_id":"ce4bho92rcd13ifvqh3g","pricing_plan_id":"cebpf4jnsgd1na2vs0mg"},{"bike_id":"5fda126a-22f8-41ba-814e-a3e97f7a3c4e","system_id":"levelo_inurba_marseille","lat":43.28656,"lon":5.36352,"is_reserved":false,"is_disabled":false,"rental_uris":{"android":"levelo://app?vid=5fda126a-22f8-41ba-814e-a3e97f7a3c4e","ios":"levelo://app?vid=5fda126a-22f8-41ba-814e-a3e97f7a3c4e"},"vehicle_type_id":"4","last_reported":1744856544,"current_range_meters":23200,"station_id":"ce4bhah2rcd13ifvqej0","pricing_plan_id":"cebpf4jnsgd1na2vs0mg"},{"bike_id":"0f4056ac-eb73-4412-997d-5d670d6a2981","system_id":"levelo_inurba_marseille","lat":43.28334,"lon":5.38101,"is_reserved":false,"is_disabled":false,"rental_uris":{"android":"levelo://app?vid=0f4056ac-eb73-4412-997d-5d670d6a2981","ios":"levelo://app?vid=0f4056ac-eb73-4412-997d-5d670d6a2981"},"vehicle_type_id":"4","last_reported":1744856544,"current_range_meters":23200,"station_id":"ce4bh412rcd13ifvqdr0","pricing_plan_id":"cebpf4jnsgd1na2vs0mg"},{"bike_id":"33bf5d63-424c-48d6-a0cb-a0565488ee3e","system_id":"levelo_inurba_marseille","lat":43.24174,"lon":5.39734,"is_reserved":false,"is_disabled":false,"rental_uris":{"android":"levelo://app?vid=33bf5d63-424c-48d6-a0cb-a0565488ee3e","ios":"levelo://app?vid=33bf5d63-424c-48d6-a0cb-a0565488ee3e"},"vehicle_type_id":"4","last_reported":1744856544,"current_range_meters":23200,"station_id":"ce4bhn12rcd13ifvqgpg","pricing_plan_id":"cebpf4jnsgd1na2vs0mg"},{"bike_id":"04cd718a-739b-4f09-8fdf-74e445452766","system_id":"levelo_inurba_marseille","lat":43.31484,"lon":5.37284,"is_reserved":false,"is_disabled":false,"rental_uris":{"android":"levelo://app?vid=04cd718a-739b-4f09-8fdf-74e445452766","ios":"levelo://app?vid=04cd718a-739b-4f09-8fdf-74e445452766"},"vehicle_type_id":"4","last_reported":1744856544,"current_range_meters":23200,"station_id":"ce4bgt12rcd13ifvqcd0","pricing_plan_id":"cebpf4jnsgd1na2vs0mg"},{"bike_id":"4cf9816a-d3d2-47a3-b1bd-70998bd96aff","system_id":"levelo_inurba_marseille","lat":43.29456,"lon":5.39752,"is_reserved":false,"is_disabled":false,"rental_uris":{"android":"levelo://app?vid=4cf9816a-d3d2-47a3-b1bd-70998bd96aff","ios":"levelo://app?vid=4cf9816a-d3d2-47a3-b1bd-70998bd96aff"},"vehicle_type_id":"4","last_reported":1744856544,"current_range_meters":23200,"station_id":"ce4bh3h2rcd13ifvqdo0","pricing_plan_id":"cebpf4jnsgd1na2vs0mg"},{"bike_id":"04b0cb39-9229-4c02-890e-562e273ff746","system_id":"levelo_inurba_marseille","lat":43.29772,"lon":5.38117,"is_reserved":false,"is_disabled":true,"rental_uris":{"android":"levelo://app?vid=04b0cb39-9229-4c02-890e-562e273ff746","ios":"levelo://app?vid=04b0cb39-9229-4c02-890e-562e273ff746"},"vehicle_type_id":"4","last_reported":1744856544,"current_range_meters":23200,"station_id":"ce4bgip2rcd13ifvqbb0","pricing_plan_id":"cebpf4jnsgd1na2vs0mg"},{"bike_id":"8c0be09f-1a08-4f03-adf3-9ab53d05b7e1","system_id":"levelo_inurba_marseille","lat":43.30415,"lon":5.41281,"is_reserved":false,"is_disabled":true,"rental_uris":{"android":"levelo://app?vid=8c0be09f-1a08-4f03-adf3-9ab53d05b7e1","ios":"levelo://app?vid=8c0be09f-1a08-4f03-adf3-9ab53d05b7e1"},"vehicle_type_id":"4","last_reported":1744856544,"current_range_meters":23200,"station_id":"ce4bhop2rcd13ifvqh8g","pricing_plan_id":"cebpf4jnsgd1na2vs0mg"},{"bike_id":"7bce0807-93f9-4e13-8b17-c78186d378c3","system_id":"levelo_inurba_marseille","lat":43.26222,"lon":5.40478,"is_reserved":false,"is_disabled":false,"rental_uris":{"android":"levelo://app?vid=7bce0807-93f9-4e13-8b17-c78186d378c3","ios":"levelo://app?vid=7bce0807-93f9-4e13-8b17-c78186d378c3"},"vehicle_type_id":"4","last_reported":1744856544,"current_range_meters":23200,"station_id":"ce4bhmh2rcd13ifvqgmg","pricing_plan_id":"cebpf4jnsgd1na2vs0mg"},{"bike_id":"829ce4a6-dd7c-4bdf-8d60-b533479cab14","system_id":"levelo_inurba_marseille","lat":43.26222,"lon":5.40457,"is_reserved":false,"is_disabled":false,"rental_uris":{"android":"levelo://app?vid=829ce4a6-dd7c-4bdf-8d60-b533479cab14","ios":"levelo://app?vid=829ce4a6-dd7c-4bdf-8d60-b533479cab14"},"vehicle_type_id":"4","last_reported":1744856544,"current_range_meters":23200,"station_id":"ce4bhmh2rcd13ifvqgmg","pricing_plan_id":"cebpf4jnsgd1na2vs0mg"},{"bike_id":"bfc0f2bb-f1f4-4fed-b9af-c547a21d1d5d","system_id":"levelo_inurba_marseille","lat":43.286234,"lon":5.351032,"is_reserved":false,"is_disabled":false,"rental_uris":{"android":"levelo://app?vid=bfc0f2bb-f1f4-4fed-b9af-c547a21d1d5d","ios":"levelo://app?vid=bfc0f2bb-f1f4-4fed-b9af-c547a21d1d5d"},"vehicle_type_id":"4","last_reported":1744856544,"current_range_meters":23200,"station_id":"ce4bhch2rcd13ifvqeug","pricing_plan_id":"cebpf4jnsgd1na2vs0mg"},{"bike_id":"f47d0f94-8da3-44a8-aa47-8e9634ca35cd","system_id":"levelo_inurba_marseille","lat":43.292286,"lon":5.360722,"is_reserved":false,"is_disabled":false,"rental_uris":{"android":"levelo://app?vid=f47d0f94-8da3-44a8-aa47-8e9634ca35cd","ios":"levelo://app?vid=f47d0f94-8da3-44a8-aa47-8e9634ca35cd"},"vehicle_type_id":"4","last_reported":1744856544,"current_range_meters":23200,"station_id":"ce4bhbh2rcd13ifvqeqg","pricing_plan_id":"cebpf4jnsgd1na2vs0mg"},{"bike_id":"5e6be620-a3d0-49c3-9ff0-b85332cde817","system_id":"levelo_inurba_marseille","lat":43.23189,"lon":5.35564,"is_reserved":false,"is_disabled":false,"rental_uris":{"android":"levelo://app?vid=5e6be620-a3d0-49c3-9ff0-b85332cde817","ios":"levelo://app?vid=5e6be620-a3d0-49c3-9ff0-b85332cde817"},"vehicle_type_id":"4","last_reported":1744856544,"current_range_meters":23200,"station_id":"ce4bhu92rcd13ifvqi70","pricing_plan_id":"cebpf4jnsgd1na2vs0mg"},{"bike_id":"076bb169-0108-486d-9730-cd19b81c20d7","system_id":"levelo_inurba_marseille","lat":43.26507,"lon":5.39533,"is_reserved":false,"is_disabled":false,"rental_uris":{"android":"levelo://app?vid=076bb169-0108-486d-9730-cd19b81c20d7","ios":"levelo://app?vid=076bb169-0108-486d-9730-cd19b81c20d7"},"vehicle_type_id":"4","last_reported":1744856544,"current_range_meters":23200,"station_id":"ce4bhi12rcd13ifvqfq0","pricing_plan_id":"cebpf4jnsgd1na2vs0mg"},{"bike_id":"c305c827-8b59-4e6c-91de-4d8a3fcbcac2","system_id":"levelo_inurba_marseille","lat":43.24166,"lon":5.36395,"is_reserved":false,"is_disabled":false,"rental_uris":{"android":"levelo://app?vid=c305c827-8b59-4e6c-91de-4d8a3fcbcac2","ios":"levelo://app?vid=c305c827-8b59-4e6c-91de-4d8a3fcbcac2"},"vehicle_type_id":"4","last_reported":1744856544,"current_range_meters":23200,"station_id":"cpo36qri1sfpv3e86is0","pricing_plan_id":"cebpf4jnsgd1na2vs0mg"},{"bike_id":"cc02cdb7-d6dd-4713-8b60-0ed1220619e4","system_id":"levelo_inurba_marseille","lat":43.29289,"lon":5.37432,"is_reserved":false,"is_disabled":true,"rental_uris":{"android":"levelo://app?vid=cc02cdb7-d6dd-4713-8b60-0ed1220619e4","ios":"levelo://app?vid=cc02cdb7-d6dd-4713-8b60-0ed1220619e4"},"vehicle_type_id":"4","last_reported":1744856544,"current_range_meters":24000,"station_id":"ce4bgi12rcd13ifvqb70","pricing_plan_id":"cebpf4jnsgd1na2vs0mg"},{"bike_id":"111a9116-5ac2-4b6d-93d2-b92f401f8e89","system_id":"levelo_inurba_marseille","lat":43.318556,"lon":5.374746,"is_reserved":false,"is_disabled":false,"rental_uris":{"android":"levelo://app?vid=111a9116-5ac2-4b6d-93d2-b92f401f8e89","ios":"levelo://app?vid=111a9116-5ac2-4b6d-93d2-b92f401f8e89"},"vehicle_type_id":"4","last_reported":1744856544,"current_range_meters":24000,"station_id":"","pricing_plan_id":"cebpf4jnsgd1na2vs0mg"},{"bike_id":"98220245-a74d-423a-9a8a-fd0c504b7a32","system_id":"levelo_inurba_marseille","lat":43.295713,"lon":5.3997,"is_reserved":false,"is_disabled":false,"rental_uris":{"android":"levelo://app?vid=98220245-a74d-423a-9a8a-fd0c504b7a32","ios":"levelo://app?vid=98220245-a74d-423a-9a8a-fd0c504b7a32"},"vehicle_type_id":"4","last_reported":1744856544,"current_range_meters":24000,"station_id":"ce4bh312rcd13ifvqdj0","pricing_plan_id":"cebpf4jnsgd1na2vs0mg"},{"bike_id":"c2b0291e-bbf6-42ba-9e6a-ba571be0ae46","system_id":"levelo_inurba_marseille","lat":43.30662,"lon":5.40041,"is_reserved":false,"is_disabled":false,"rental_uris":{"android":"levelo://app?vid=c2b0291e-bbf6-42ba-9e6a-ba571be0ae46","ios":"levelo://app?vid=c2b0291e-bbf6-42ba-9e6a-ba571be0ae46"},"vehicle_type_id":"4","last_reported":1744856544,"current_range_meters":24000,"station_id":"","pricing_plan_id":"cebpf4jnsgd1na2vs0mg"},{"bike_id":"8b9fb812-f558-47ea-bc7c-250a930fe748","system_id":"levelo_inurba_marseille","lat":43.288515,"lon":5.393085,"is_reserved":false,"is_disabled":false,"rental_uris":{"android":"levelo://app?vid=8b9fb812-f558-47ea-bc7c-250a930fe748","ios":"levelo://app?vid=8b9fb812-f558-47ea-bc7c-250a930fe748"},"vehicle_type_id":"4","last_reported":1744856544,"current_range_meters":24000,"station_id":"ce4bh2p2rcd13ifvqdi0","pricing_plan_id":"cebpf4jnsgd1na2vs0mg"},{"bike_id":"b1a40dc4-be56-4cd8-809a-03d48e89c946","system_id":"levelo_inurba_marseille","lat":43.3235,"lon":5.36742,"is_reserved":false,"is_disabled":false,"rental_uris":{"android":"levelo://app?vid=b1a40dc4-be56-4cd8-809a-03d48e89c946","ios":"levelo://app?vid=b1a40dc4-be56-4cd8-809a-03d48e89c946"},"vehicle_type_id":"4","last_reported":1744856544,"current_range_meters":24000,"station_id":"ce4bhsh2rcd13ifvqi2g","pricing_plan_id":"cebpf4jnsgd1na2vs0mg"},{"bike_id":"567df3a0-a47e-4d18-bbd3-763580c2d71f","system_id":"levelo_inurba_marseille","lat":43.32479,"lon":5.3657,"is_reserved":false,"is_disabled":false,"rental_uris":{"android":"levelo://app?vid=567df3a0-a47e-4d18-bbd3-763580c2d71f","ios":"levelo://app?vid=567df3a0-a47e-4d18-bbd3-763580c2d71f"},"vehicle_type_id":"4","last_reported":1744856544,"current_range_meters":24000,"station_id":"ce4bhs12rcd13ifvqhvg","pricing_plan_id":"cebpf4jnsgd1na2vs0mg"},{"bike_id":"8eeca69c-3648-4186-8717-79c788e93d87","system_id":"levelo_inurba_marseille","lat":43.31194,"lon":5.3868,"is_reserved":false,"is_disabled":false,"rental_uris":{"android":"levelo://app?vid=8eeca69c-3648-4186-8717-79c788e93d87","ios":"levelo://app?vid=8eeca69c-3648-4186-8717-79c788e93d87"},"vehicle_type_id":"4","last_reported":1744856544,"current_range_meters":24000,"station_id":"ce4bgv12rcd13ifvqcp0","pricing_plan_id":"cebpf4jnsgd1na2vs0mg"},{"bike_id":"266004ed-06d1-4253-aa75-877c710de273","system_id":"levelo_inurba_marseille","lat":43.279742,"lon":5.387382,"is_reserved":false,"is_disabled":false,"rental_uris":{"android":"levelo://app?vid=266004ed-06d1-4253-aa75-877c710de273","ios":"levelo://app?vid=266004ed-06d1-4253-aa75-877c710de273"},"vehicle_type_id":"4","last_reported":1744856544,"current_range_meters":24000,"station_id":"ce4bhg12rcd13ifvqf80","pricing_plan_id":"cebpf4jnsgd1na2vs0mg"},{"bike_id":"2bf4fdfe-fc61-43a8-81f9-f2c1f5848721","system_id":"levelo_inurba_marseille","lat":43.2989,"lon":5.39739,"is_reserved":false,"is_disabled":false,"rental_uris":{"android":"levelo://app?vid=2bf4fdfe-fc61-43a8-81f9-f2c1f5848721","ios":"levelo://app?vid=2bf4fdfe-fc61-43a8-81f9-f2c1f5848721"},"vehicle_type_id":"4","last_reported":1744856544,"current_range_meters":24000,"station_id":"ce4bh0h2rcd13ifvqd50","pricing_plan_id":"cebpf4jnsgd1na2vs0mg"},{"bike_id":"fbb8a581-843b-4a99-9fc5-b863843f9bb6","system_id":"levelo_inurba_marseille","lat":43.292585,"lon":5.409098,"is_reserved":false,"is_disabled":false,"rental_uris":{"android":"levelo://app?vid=fbb8a581-843b-4a99-9fc5-b863843f9bb6","ios":"levelo://app?vid=fbb8a581-843b-4a99-9fc5-b863843f9bb6"},"vehicle_type_id":"4","last_reported":1744856544,"current_range_meters":24000,"station_id":"ce4bh192rcd13ifvqdc0","pricing_plan_id":"cebpf4jnsgd1na2vs0mg"},{"bike_id":"d1a2b493-7d30-4a9c-a02b-dfad0b4f73f7","system_id":"levelo_inurba_marseille","lat":43.248138,"lon":5.374589,"is_reserved":false,"is_disabled":false,"rental_uris":{"android":"levelo://app?vid=d1a2b493-7d30-4a9c-a02b-dfad0b4f73f7","ios":"levelo://app?vid=d1a2b493-7d30-4a9c-a02b-dfad0b4f73f7"},"vehicle_type_id":"4","last_reported":1744856544,"current_range_meters":24000,"station_id":"ce4bhgh2rcd13ifvqfb0","pricing_plan_id":"cebpf4jnsgd1na2vs0mg"},{"bike_id":"c211eda0-2bf1-4f64-a659-aad36c81259a","system_id":"levelo_inurba_marseille","lat":43.288419,"lon":5.358484,"is_reserved":false,"is_disabled":false,"rental_uris":{"android":"levelo://app?vid=c211eda0-2bf1-4f64-a659-aad36c81259a","ios":"levelo://app?vid=c211eda0-2bf1-4f64-a659-aad36c81259a"},"vehicle_type_id":"4","last_reported":1744856544,"current_range_meters":24400,"station_id":"ce4bhb12rcd13ifvqem0","pricing_plan_id":"cebpf4jnsgd1na2vs0mg"},{"bike_id":"79e58b79-0b6b-4842-aa6b-b9cbe4151290","system_id":"levelo_inurba_marseille","lat":43.31112,"lon":5.37778,"is_reserved":false,"is_disabled":false,"rental_uris":{"android":"levelo://app?vid=79e58b79-0b6b-4842-aa6b-b9cbe4151290","ios":"levelo://app?vid=79e58b79-0b6b-4842-aa6b-b9cbe4151290"},"vehicle_type_id":"4","last_reported":1744856544,"current_range_meters":24400,"station_id":"ce4bgt92rcd13ifvqcg0","pricing_plan_id":"cebpf4jnsgd1na2vs0mg"},{"bike_id":"7e2b1f25-9563-49f7-8e92-8965f8392c33","system_id":"levelo_inurba_marseille","lat":43.33025,"lon":5.39008,"is_reserved":false,"is_disabled":false,"rental_uris":{"android":"levelo://app?vid=7e2b1f25-9563-49f7-8e92-8965f8392c33","ios":"levelo://app?vid=7e2b1f25-9563-49f7-8e92-8965f8392c33"},"vehicle_type_id":"4","last_reported":1744856544,"current_range_meters":24400,"station_id":"","pricing_plan_id":"cebpf4jnsgd1na2vs0mg"},{"bike_id":"3c863c1e-5703-459e-86f2-3e252f5541e4","system_id":"levelo_inurba_marseille","lat":43.29396,"lon":5.3862,"is_reserved":false,"is_disabled":true,"rental_uris":{"android":"levelo://app?vid=3c863c1e-5703-459e-86f2-3e252f5541e4","ios":"levelo://app?vid=3c863c1e-5703-459e-86f2-3e252f5541e4"},"vehicle_type_id":"4","last_reported":1744856544,"current_range_meters":24400,"station_id":"ce4bh2h2rcd13ifvqdh0","pricing_plan_id":"cebpf4jnsgd1na2vs0mg"},{"bike_id":"4d0bfab2-f999-49b4-8d4f-9ccb19c747ee","system_id":"levelo_inurba_marseille","lat":43.2834,"lon":5.38108,"is_reserved":false,"is_disabled":false,"rental_uris":{"android":"levelo://app?vid=4d0bfab2-f999-49b4-8d4f-9ccb19c747ee","ios":"levelo://app?vid=4d0bfab2-f999-49b4-8d4f-9ccb19c747ee"},"vehicle_type_id":"4","last_reported":1744856544,"current_range_meters":24400,"station_id":"ce4bh412rcd13ifvqdr0","pricing_plan_id":"cebpf4jnsgd1na2vs0mg"},{"bike_id":"873bcab6-b973-48ed-b129-34762c209441","system_id":"levelo_inurba_marseille","lat":43.31465,"lon":5.37282,"is_reserved":false,"is_disabled":false,"rental_uris":{"android":"levelo://app?vid=873bcab6-b973-48ed-b129-34762c209441","ios":"levelo://app?vid=873bcab6-b973-48ed-b129-34762c209441"},"vehicle_type_id":"4","last_reported":1744856544,"current_range_meters":24400,"station_id":"ce4bgt12rcd13ifvqcd0","pricing_plan_id":"cebpf4jnsgd1na2vs0mg"},{"bike_id":"77af2e9c-aeeb-43df-af25-c39d1dba9c28","system_id":"levelo_inurba_marseille","lat":43.30589,"lon":5.39353,"is_reserved":false,"is_disabled":false,"rental_uris":{"android":"levelo://app?vid=77af2e9c-aeeb-43df-af25-c39d1dba9c28","ios":"levelo://app?vid=77af2e9c-aeeb-43df-af25-c39d1dba9c28"},"vehicle_type_id":"4","last_reported":1744856544,"current_range_meters":24400,"station_id":"ce4bh0p2rcd13ifvqd80","pricing_plan_id":"cebpf4jnsgd1na2vs0mg"},{"bike_id":"1a9aac4e-3d91-4274-a239-65896c06ebd8","system_id":"levelo_inurba_marseille","lat":43.26555,"lon":5.37287,"is_reserved":false,"is_disabled":false,"rental_uris":{"android":"levelo://app?vid=1a9aac4e-3d91-4274-a239-65896c06ebd8","ios":"levelo://app?vid=1a9aac4e-3d91-4274-a239-65896c06ebd8"},"vehicle_type_id":"4","last_reported":1744856544,"current_range_meters":24400,"station_id":"ce4bhg12rcd13ifvqf70","pricing_plan_id":"cebpf4jnsgd1na2vs0mg"},{"bike_id":"db3f61c8-5340-4682-8118-fc423fbe004d","system_id":"levelo_inurba_marseille","lat":43.28996,"lon":5.356087,"is_reserved":false,"is_disabled":false,"rental_uris":{"android":"levelo://app?vid=db3f61c8-5340-4682-8118-fc423fbe004d","ios":"levelo://app?vid=db3f61c8-5340-4682-8118-fc423fbe004d"},"vehicle_type_id":"4","last_reported":1744856544,"current_range_meters":24400,"station_id":"ce4bhb92rcd13ifvqen0","pricing_plan_id":"cebpf4jnsgd1na2vs0mg"},{"bike_id":"ca1ac32f-daa3-46e9-879b-68321276778e","system_id":"levelo_inurba_marseille","lat":43.31112,"lon":5.37767,"is_reserved":false,"is_disabled":false,"rental_uris":{"android":"levelo://app?vid=ca1ac32f-daa3-46e9-879b-68321276778e","ios":"levelo://app?vid=ca1ac32f-daa3-46e9-879b-68321276778e"},"vehicle_type_id":"4","last_reported":1744856544,"current_range_meters":24400,"station_id":"ce4bgt92rcd13ifvqcg0","pricing_plan_id":"cebpf4jnsgd1na2vs0mg"},{"bike_id":"7915b2b3-61bc-483e-94f5-64bb37d1d55b","system_id":"levelo_inurba_marseille","lat":43.282746,"lon":5.350758,"is_reserved":false,"is_disabled":false,"rental_uris":{"android":"levelo://app?vid=7915b2b3-61bc-483e-94f5-64bb37d1d55b","ios":"levelo://app?vid=7915b2b3-61bc-483e-94f5-64bb37d1d55b"},"vehicle_type_id":"4","last_reported":1744856544,"current_range_meters":24400,"station_id":"ce4bhbp2rcd13ifvqerg","pricing_plan_id":"cebpf4jnsgd1na2vs0mg"},{"bike_id":"e7418951-ceeb-404d-a2d7-c47bf109d0ee","system_id":"levelo_inurba_marseille","lat":43.28453,"lon":5.35878,"is_reserved":false,"is_disabled":false,"rental_uris":{"android":"levelo://app?vid=e7418951-ceeb-404d-a2d7-c47bf109d0ee","ios":"levelo://app?vid=e7418951-ceeb-404d-a2d7-c47bf109d0ee"},"vehicle_type_id":"4","last_reported":1744856544,"current_range_meters":24400,"station_id":"ce4bhah2rcd13ifvqei0","pricing_plan_id":"cebpf4jnsgd1na2vs0mg"},{"bike_id":"80bac1fe-218c-4068-937c-4aa733df023f","system_id":"levelo_inurba_marseille","lat":43.286,"lon":5.37072,"is_reserved":false,"is_disabled":false,"rental_uris":{"android":"levelo://app?vid=80bac1fe-218c-4068-937c-4aa733df023f","ios":"levelo://app?vid=80bac1fe-218c-4068-937c-4aa733df023f"},"vehicle_type_id":"4","last_reported":1744856544,"current_range_meters":24400,"station_id":"ce4bht12rcd13ifvqi60","pricing_plan_id":"cebpf4jnsgd1na2vs0mg"},{"bike_id":"dc8f699c-e3e7-4669-ba42-be1dbdb422ba","system_id":"levelo_inurba_marseille","lat":43.30575,"lon":5.39333,"is_reserved":false,"is_disabled":false,"rental_uris":{"android":"levelo://app?vid=dc8f699c-e3e7-4669-ba42-be1dbdb422ba","ios":"levelo://app?vid=dc8f699c-e3e7-4669-ba42-be1dbdb422ba"},"vehicle_type_id":"4","last_reported":1744856544,"current_range_meters":24800,"station_id":"ce4bh0p2rcd13ifvqd80","pricing_plan_id":"cebpf4jnsgd1na2vs0mg"},{"bike_id":"d05b7cc4-f88b-4d02-ae6c-c344f22c0e5c","system_id":"levelo_inurba_marseille","lat":43.297835,"lon":5.365555,"is_reserved":false,"is_disabled":false,"rental_uris":{"android":"levelo://app?vid=d05b7cc4-f88b-4d02-ae6c-c344f22c0e5c","ios":"levelo://app?vid=d05b7cc4-f88b-4d02-ae6c-c344f22c0e5c"},"vehicle_type_id":"4","last_reported":1744856544,"current_range_meters":24800,"station_id":"","pricing_plan_id":"cebpf4jnsgd1na2vs0mg"},{"bike_id":"e17fb8f6-7851-4a7a-be31-c6d1d98e0415","system_id":"levelo_inurba_marseille","lat":43.31572,"lon":5.4064,"is_reserved":false,"is_disabled":false,"rental_uris":{"android":"levelo://app?vid=e17fb8f6-7851-4a7a-be31-c6d1d98e0415","ios":"levelo://app?vid=e17fb8f6-7851-4a7a-be31-c6d1d98e0415"},"vehicle_type_id":"4","last_reported":1744856544,"current_range_meters":24800,"station_id":"","pricing_plan_id":"cebpf4jnsgd1na2vs0mg"},{"bike_id":"a12fcb40-6a57-41e4-93cc-27db680785df","system_id":"levelo_inurba_marseille","lat":43.284588,"lon":5.358845,"is_reserved":false,"is_disabled":false,"rental_uris":{"android":"levelo://app?vid=a12fcb40-6a57-41e4-93cc-27db680785df","ios":"levelo://app?vid=a12fcb40-6a57-41e4-93cc-27db680785df"},"vehicle_type_id":"4","last_reported":1744856544,"current_range_meters":24800,"station_id":"ce4bhah2rcd13ifvqei0","pricing_plan_id":"cebpf4jnsgd1na2vs0mg"},{"bike_id":"91aa591a-3e56-4092-a295-ecb6aebe69eb","system_id":"levelo_inurba_marseille","lat":43.22475,"lon":5.34802,"is_reserved":false,"is_disabled":false,"rental_uris":{"android":"levelo://app?vid=91aa591a-3e56-4092-a295-ecb6aebe69eb","ios":"levelo://app?vid=91aa591a-3e56-4092-a295-ecb6aebe69eb"},"vehicle_type_id":"4","last_reported":1744856544,"current_range_meters":24800,"station_id":"st_cvj5dfep6f1abm77gieg","pricing_plan_id":"cebpf4jnsgd1na2vs0mg"},{"bike_id":"7d1b0b4b-e95b-4533-8309-734860489786","system_id":"levelo_inurba_marseille","lat":43.27493,"lon":5.41132,"is_reserved":false,"is_disabled":false,"rental_uris":{"android":"levelo://app?vid=7d1b0b4b-e95b-4533-8309-734860489786","ios":"levelo://app?vid=7d1b0b4b-e95b-4533-8309-734860489786"},"vehicle_type_id":"4","last_reported":1744856544,"current_range_meters":24800,"station_id":"","pricing_plan_id":"cebpf4jnsgd1na2vs0mg"},{"bike_id":"f1439bbf-3f90-4d8a-b558-ba1d984b3cc6","system_id":"levelo_inurba_marseille","lat":43.30895,"lon":5.39675,"is_reserved":false,"is_disabled":false,"rental_uris":{"android":"levelo://app?vid=f1439bbf-3f90-4d8a-b558-ba1d984b3cc6","ios":"levelo://app?vid=f1439bbf-3f90-4d8a-b558-ba1d984b3cc6"},"vehicle_type_id":"4","last_reported":1744856544,"current_range_meters":24800,"station_id":"ce4bh012rcd13ifvqcv0","pricing_plan_id":"cebpf4jnsgd1na2vs0mg"},{"bike_id":"aea2afb6-112e-4c3a-968a-5eb5aa77e9be","system_id":"levelo_inurba_marseille","lat":43.21198,"lon":5.35064,"is_reserved":false,"is_disabled":false,"rental_uris":{"android":"levelo://app?vid=aea2afb6-112e-4c3a-968a-5eb5aa77e9be","ios":"levelo://app?vid=aea2afb6-112e-4c3a-968a-5eb5aa77e9be"},"vehicle_type_id":"4","last_reported":1744856544,"current_range_meters":24800,"station_id":"st_cvj6sg6p6f1abm77japg","pricing_plan_id":"cebpf4jnsgd1na2vs0mg"},