{"last_updated":1723399907,"ttl":30,"version":"2.2","data":{"bikes":[{"bike_id":"97eafc09-36d4-4c77-9889-bdf34ab5556a","system_id":"levelo_inurba_marseille","lat":43.313391,"lon":5.36706,"is_reserved":false,"is_disabled":false,"rental_uris":{"android":"levelo://app?vid=97eafc09-36d4-4c77-9889-bdf34ab5556a","ios":"levelo://app?vid=97eafc09-36d4-4c77-9889-bdf34ab5556a"},"vehicle_type_id":"4","last_reported":1723399907,"current_range_meters":0,"station_id":"ce4bgr92rcd13ifvqc6g","pricing_plan_id":"cebpf4jnsgd1na2vs0mg"},{"bike_id":"06951404-debc-48f6-a6b5-18191d965945","system_id":"levelo_inurba_marseille","lat":43.312239,"lon":5.368562,"is_reserved":false,"is_disabled":false,"rental_uris":{"android":"levelo://app?vid=06951404-debc-48f6-a6b5-18191d965945","ios":"levelo://app?vid=06951404-debc-48f6-a6b5-18191d965945"},"vehicle_type_id":"4","last_reported":1723399907,"current_range_meters":24400,"station_id":"ce4bgl92rcd13ifvqbq0","pricing_plan_id":"cebpf4jnsgd1na2vs0mg"},{"bike_id":"9e77a0ed-64b9-439a-b408-229d3ff56bf7","system_id":"levelo_inurba_marseille","lat":43.314811,"lon":5.373103,"is_reserved":false,"is_disabled":false,"rental_uris":{"android":"levelo://app?vid=9e77a0ed-64b9-439a-b408-229d3ff56bf7","ios":"levelo://app?vid=9e77a0ed-64b9-439a-b408-229d3ff56bf7"},"vehicle_type_id":"4","last_reported":1723399907,"current_range_meters":24000,"station_id":"ce4bgt12rcd13ifvqcd0","pricing_plan_id":"cebpf4jnsgd1na2vs0mg"},{"bike_id":"69c5593e-aa9d-4b80-afc2-396e77469c5e","system_id":"levelo_inurba_marseille","lat":43.314811,"lon":5.373103,"is_reserved":false,"is_disabled":false,"rental_uris":{"android":"levelo://app?vid=69c5593e-aa9d-4b80-afc2-396e77469c5e","ios":"levelo://app?vid=69c5593e-aa9d-4b80-afc2-396e77469c5e"},"vehicle_type_id":"4","last_reported":1723399907,"current_range_meters":0,"station_id":"ce4bgt12rcd13ifvqcd0","pricing_plan_id":"cebpf4jnsgd1na2vs0mg"},{"bike_id":"ede1a775-2563-410c-8aec-8793a4eed04b","system_id":"levelo_inurba_marseille","lat":43.309039,"lon":5.371797,"is_reserved":false,"is_disabled":false,"rental_uris":{"android":"levelo://app?vid=ede1a775-2563-410c-8aec-8793a4eed04b","ios":"levelo://app?vid=ede1a775-2563-410c-8aec-8793a4eed04b"},"vehicle_type_id":"4","last_reported":1723399907,"current_range_meters":1600,"station_id":"ce4bguh2rcd13ifvqckg","pricing_plan_id":"cebpf4jnsgd1na2vs0mg"},{"bike_id":"c54d203d-1c2d-4713-b20e-4ba8834b4596","system_id":"levelo_inurba_marseille","lat":43.309039,"lon":5.371797,"is_reserved":false,"is_disabled":false,"rental_uris":{"android":"levelo://app?vid=c54d203d-1c2d-4713-b20e-4ba8834b4596","ios":"levelo://app?vid=c54d203d-1c2d-4713-b20e-4ba8834b4596"},"vehicle_type_id":"4","last_reported":1723399907,"current_range_meters":20000,"station_id":"ce4bguh2rcd13ifvqckg","pricing_plan_id":"cebpf4jnsgd1na2vs0mg"},{"bike_id":"0a0d1504-0816-45d1-a14b-7aedf3610e22","system_id":"levelo_inurba_marseille","lat":43.31452,"lon":5.37375,"is_reserved":false,"is_disabled":false,"rental_uris":{"android":"levelo://app?vid=0a0d1504-0816-45d1-a14b-7aedf3610e22","ios":"levelo://app?vid=0a0d1504-0816-45d1-a14b-7aedf3610e22"},"vehicle_type_id":"4","last_reported":1723399907,"current_range_meters":5600,"station_id":"","pricing_plan_id":"cebpf4jnsgd1na2vs0mg"},{"bike_id":"80f9f110-4ffc-4297-bf57-2bf2a710da39","system_id":"levelo_inurba_marseille","lat":43.31802,"lon":5.36814,"is_reserved":false,"is_disabled":false,"rental_uris":{"android":"levelo://app?vid=80f9f110-4ffc-4297-bf57-2bf2a710da39","ios":"levelo://app?vid=80f9f110-4ffc-4297-bf57-2bf2a710da39"},"vehicle_type_id":"4","last_reported":1723399907,"current_range_meters":12400,"station_id":"","pricing_plan_id":"cebpf4jnsgd1na2vs0mg"},{"bike_id":"324a3bbe-0918-4869-9f41-62cde0dda99b","system_id":"levelo_inurba_marseille","lat":43.324771,"lon":5.36557,"is_reserved":false,"is_disabled":false,"rental_uris":{"android":"levelo://app?vid=324a3bbe-0918-4869-9f41-62cde0dda99b","ios":"levelo://app?vid=324a3bbe-0918-4869-9f41-62cde0dda99b"},"vehicle_type_id":"4","last_reported":1723399907,"current_range_meters":23600,"station_id":"ce4bhs12rcd13ifvqhvg","pricing_plan_id":"cebpf4jnsgd1na2vs0mg"},{"bike_id":"dde65a12-0062-4444-a22c-b8c54b32472c","system_id":"levelo_inurba_marseille","lat":43.305283,"lon":5.36726,"is_reserved":false,"is_disabled":false,"rental_uris":{"android":"levelo://app?vid=dde65a12-0062-4444-a22c-b8c54b32472c","ios":"levelo://app?vid=dde65a12-0062-4444-a22c-b8c54b32472c"},"vehicle_type_id":"4","last_reported":1723399907,"current_range_meters":4000,"station_id":"","pricing_plan_id":"cebpf4jnsgd1na2vs0mg"},{"bike_id":"e8b6f33b-9b7b-4acc-b069-fb4e7d40a494","system_id":"levelo_inurba_marseille","lat":43.305989,"lon":5.37225,"is_reserved":false,"is_disabled":false,"rental_uris":{"android":"levelo://app?vid=e8b6f33b-9b7b-4acc-b069-fb4e7d40a494","ios":"levelo://app?vid=e8b6f33b-9b7b-4acc-b069-fb4e7d40a494"},"vehicle_type_id":"4","last_reported":1723399907,"current_range_meters":22800,"station_id":"ce4bgqh2rcd13ifvqc4g","pricing_plan_id":"cebpf4jnsgd1na2vs0mg"},{"bike_id":"3dafb059-04f3-4273-96a4-ed07ca1743f0","system_id":"levelo_inurba_marseille","lat":43.311125,"lon":5.377624,"is_reserved":false,"is_disabled":false,"rental_uris":{"android":"levelo://app?vid=3dafb059-04f3-4273-96a4-ed07ca1743f0","ios":"levelo://app?vid=3dafb059-04f3-4273-96a4-ed07ca1743f0"},"vehicle_type_id":"4","last_reported":1723399907,"current_range_meters":19600,"station_id":"ce4bgt92rcd13ifvqcg0","pricing_plan_id":"cebpf4jnsgd1na2vs0mg"},{"bike_id":"e3c37a77-466f-4fac-8ce0-e1bca0d9a4cc","system_id":"levelo_inurba_marseille","lat":43.311131,"lon":5.377651,"is_reserved":false,"is_disabled":false,"rental_uris":{"android":"levelo://app?vid=e3c37a77-466f-4fac-8ce0-e1bca0d9a4cc","ios":"levelo://app?vid=e3c37a77-466f-4fac-8ce0-e1bca0d9a4cc"},"vehicle_type_id":"4","last_reported":1723399907,"current_range_meters":20000,"station_id":"ce4bgt92rcd13ifvqcg0","pricing_plan_id":"cebpf4jnsgd1na2vs0mg"},{"bike_id":"837559eb-35f5-4c83-b144-af6390a76848","system_id":"levelo_inurba_marseille","lat":43.30778,"lon":5.37652,"is_reserved":false,"is_disabled":false,"rental_uris":{"android":"levelo://app?vid=837559eb-35f5-4c83-b144-af6390a76848","ios":"levelo://app?vid=837559eb-35f5-4c83-b144-af6390a76848"},"vehicle_type_id":"4","last_reported":1723399907,"current_range_meters":23600,"station_id":"","pricing_plan_id":"cebpf4jnsgd1na2vs0mg"},{"bike_id":"ede6cec9-25d9-4f88-881d-3ea92d3c6b24","system_id":"levelo_inurba_marseille","lat":43.317075,"lon":5.377367,"is_reserved":false,"is_disabled":false,"rental_uris":{"android":"levelo://app?vid=ede6cec9-25d9-4f88-881d-3ea92d3c6b24","ios":"levelo://app?vid=ede6cec9-25d9-4f88-881d-3ea92d3c6b24"},"vehicle_type_id":"4","last_reported":1723399907,"current_range_meters":20800,"station_id":"ce4bgth2rcd13ifvqch0","pricing_plan_id":"cebpf4jnsgd1na2vs0mg"},{"bike_id":"78c8d586-f078-4816-b18b-7bd3ddfd330b","system_id":"levelo_inurba_marseille","lat":43.30992,"lon":5.379395,"is_reserved":false,"is_disabled":false,"rental_uris":{"android":"levelo://app?vid=78c8d586-f078-4816-b18b-7bd3ddfd330b","ios":"levelo://app?vid=78c8d586-f078-4816-b18b-7bd3ddfd330b"},"vehicle_type_id":"4","last_reported":1723399907,"current_range_meters":8400,"station_id":"","pricing_plan_id":"cebpf4jnsgd1na2vs0mg"},{"bike_id":"8d35f185-04d6-47c1-9f87-2d4553c52cbf","system_id":"levelo_inurba_marseille","lat":43.304606,"lon":5.379026,"is_reserved":false,"is_disabled":false,"rental_uris":{"android":"levelo://app?vid=8d35f185-04d6-47c1-9f87-2d4553c52cbf","ios":"levelo://app?vid=8d35f185-04d6-47c1-9f87-2d4553c52cbf"},"vehicle_type_id":"4","last_reported":1723399907,"current_range_meters":5600,"station_id":"ce4bgup2rcd13ifvqcn0","pricing_plan_id":"cebpf4jnsgd1na2vs0mg"},{"bike_id":"6274f13f-6fa8-4269-aefd-7938f85eec7d","system_id":"levelo_inurba_marseille","lat":43.32477,"lon":5.3656,"is_reserved":false,"is_disabled":false,"rental_uris":{"android":"levelo://app?vid=6274f13f-6fa8-4269-aefd-7938f85eec7d","ios":"levelo://app?vid=6274f13f-6fa8-4269-aefd-7938f85eec7d"},"vehicle_type_id":"4","last_reported":1723399907,"current_range_meters":10000,"station_id":"ce4bhs12rcd13ifvqhvg","pricing_plan_id":"cebpf4jnsgd1na2vs0mg"},{"bike_id":"c02e1dbe-12d8-4207-91f4-37bf2f9743f3","system_id":"levelo_inurba_marseille","lat":43.32477,"lon":5.36557,"is_reserved":false,"is_disabled":false,"rental_uris":{"android":"levelo://app?vid=c02e1dbe-12d8-4207-91f4-37bf2f9743f3","ios":"levelo://app?vid=c02e1dbe-12d8-4207-91f4-37bf2f9743f3"},"vehicle_type_id":"4","last_reported":1723399907,"current_range_meters":0,"station_id":"ce4bhs12rcd13ifvqhvg","pricing_plan_id":"cebpf4jnsgd1na2vs0mg"},{"bike_id":"19361ee9-48d5-412d-ac99-d0c97d7bccb4","system_id":"levelo_inurba_marseille","lat":43.32486,"lon":5.36581,"is_reserved":false,"is_disabled":false,"rental_uris":{"android":"levelo://app?vid=19361ee9-48d5-412d-ac99-d0c97d7bccb4","ios":"levelo://app?vid=19361ee9-48d5-412d-ac99-d0c97d7bccb4"},"vehicle_type_id":"4","last_reported":1723399907,"current_range_meters":24000,"station_id":"ce4bhs12rcd13ifvqhvg","pricing_plan_id":"cebpf4jnsgd1na2vs0mg"},{"bike_id":"e808a47c-f1ab-49c8-9868-162ce164be9e","system_id":"levelo_inurba_marseille","lat":43.324771,"lon":5.36557,"is_reserved":false,"is_disabled":false,"rental_uris":{"android":"levelo://app?vid=e808a47c-f1ab-49c8-9868-162ce164be9e","ios":"levelo://app?vid=e808a47c-f1ab-49c8-9868-162ce164be9e"},"vehicle_type_id":"4","last_reported":1723399907,"current_range_meters":31600,"station_id":"ce4bhs12rcd13ifvqhvg","pricing_plan_id":"cebpf4jnsgd1na2vs0mg"},{"bike_id":"4ca70298-b035-4275-ab83-3baaf2981e6c","system_id":"levelo_inurba_marseille","lat":43.32487,"lon":5.36575,"is_reserved":false,"is_disabled":false,"rental_uris":{"android":"levelo://app?vid=4ca70298-b035-4275-ab83-3baaf2981e6c","ios":"levelo://app?vid=4ca70298-b035-4275-ab83-3baaf2981e6c"},"vehicle_type_id":"4","last_reported":1723399907,"current_range_meters":9200,"station_id":"ce4bhs12rcd13ifvqhvg","pricing_plan_id":"cebpf4jnsgd1na2vs0mg"},{"bike_id":"eb2ebe14-c3bd-4675-a842-6cb3312d3650","system_id":"levelo_inurba_marseille","lat":43.310804,"lon":5.38359,"is_reserved":false,"is_disabled":false,"rental_uris":{"android":"levelo://app?vid=eb2ebe14-c3bd-4675-a842-6cb3312d3650","ios":"levelo://app?vid=eb2ebe14-c3bd-4675-a842-6cb3312d3650"},"vehicle_type_id":"4","last_reported":1723399907,"current_range_meters":18800,"station_id":"ce4bgv92rcd13ifvqcr0","pricing_plan_id":"cebpf4jnsgd1na2vs0mg"},{"bike_id":"00c5167a-237f-4d3e-b7cb-395f7077c561","system_id":"levelo_inurba_marseille","lat":43.31637,"lon":5.3834,"is_reserved":false,"is_disabled":false,"rental_uris":{"android":"levelo://app?vid=00c5167a-237f-4d3e-b7cb-395f7077c561","ios":"levelo://app?vid=00c5167a-237f-4d3e-b7cb-395f7077c561"},"vehicle_type_id":"4","last_reported":1723399907,"current_range_meters":7200,"station_id":"","pricing_plan_id":"cebpf4jnsgd1na2vs0mg"},{"bike_id":"057ccf9f-39fa-445b-aa8c-1553727eb8e1","system_id":"levelo_inurba_marseille","lat":43.31994,"lon":5.38152,"is_reserved":false,"is_disabled":false,"rental_uris":{"android":"levelo://app?vid=057ccf9f-39fa-445b-aa8c-1553727eb8e1","ios":"levelo://app?vid=057ccf9f-39fa-445b-aa8c-1553727eb8e1"},"vehicle_type_id":"4","last_reported":1723399907,"current_range_meters":30000,"station_id":"ce4bhr12rcd13ifvqhpg","pricing_plan_id":"cebpf4jnsgd1na2vs0mg"},{"bike_id":"93251842-21e4-4970-8026-f9acb9b172c9","system_id":"levelo_inurba_marseille","lat":43.319935,"lon":5.381699,"is_reserved":false,"is_disabled":false,"rental_uris":{"android":"levelo://app?vid=93251842-21e4-4970-8026-f9acb9b172c9","ios":"levelo://app?vid=93251842-21e4-4970-8026-f9acb9b172c9"},"vehicle_type_id":"4","last_reported":1723399907,"current_range_meters":0,"station_id":"ce4bhr12rcd13ifvqhpg","pricing_plan_id":"cebpf4jnsgd1na2vs0mg"},{"bike_id":"dc8b43c1-dad1-434c-ae57-0ae222f13308","system_id":"levelo_inurba_marseille","lat":43.31994,"lon":5.38171,"is_reserved":false,"is_disabled":false,"rental_uris":{"android":"levelo://app?vid=dc8b43c1-dad1-434c-ae57-0ae222f13308","ios":"levelo://app?vid=dc8b43c1-dad1-434c-ae57-0ae222f13308"},"vehicle_type_id":"4","last_reported":1723399907,"current_range_meters":10000,"station_id":"ce4bhr12rcd13ifvqhpg","pricing_plan_id":"cebpf4jnsgd1na2vs0mg"},{"bike_id":"5cb9e66d-22fa-40fb-bbec-15529310012f","system_id":"levelo_inurba_marseille","lat":43.31354,"lon":5.38497,"is_reserved":false,"is_disabled":false,"rental_uris":{"android":"levelo://app?vid=5cb9e66d-22fa-40fb-bbec-15529310012f","ios":"levelo://app?vid=5cb9e66d-22fa-40fb-bbec-15529310012f"},"vehicle_type_id":"4","last_reported":1723399907,"current_range_meters":28400,"station_id":"ce4bgt92rcd13ifvqcf0","pricing_plan_id":"cebpf4jnsgd1na2vs0mg"},{"bike_id":"7c858aa2-f571-44af-87b6-ec7b7533837d","system_id":"levelo_inurba_marseille","lat":43.299222,"lon":5.365554,"is_reserved":false,"is_disabled":false,"rental_uris":{"android":"levelo://app?vid=7c858aa2-f571-44af-87b6-ec7b7533837d","ios":"levelo://app?vid=7c858aa2-f571-44af-87b6-ec7b7533837d"},"vehicle_type_id":"4","last_reported":1723399907,"current_range_meters":8000,"station_id":"ce4bgm92rcd13ifvqbr0","pricing_plan_id":"cebpf4jnsgd1na2vs0mg"},{"bike_id":"3948e316-57f7-4189-a8ca-de7a3257199d","system_id":"levelo_inurba_marseille","lat":43.299724,"lon":5.371829,"is_reserved":false,"is_disabled":false,"rental_uris":{"android":"levelo://app?vid=3948e316-57f7-4189-a8ca-de7a3257199d","ios":"levelo://app?vid=3948e316-57f7-4189-a8ca-de7a3257199d"},"vehicle_type_id":"4","last_reported":1723399907,"current_range_meters":10800,"station_id":"ce4bgr92rcd13ifvqc7g","pricing_plan_id":"cebpf4jnsgd1na2vs0mg"},{"bike_id":"b5c4f3bc-04cb-4dec-b5ab-b14377242933","system_id":"levelo_inurba_marseille","lat":43.299222,"lon":5.365554,"is_reserved":false,"is_disabled":false,"rental_uris":{"android":"levelo://app?vid=b5c4f3bc-04cb-4dec-b5ab-b14377242933","ios":"levelo://app?vid=b5c4f3bc-04cb-4dec-b5ab-b14377242933"},"vehicle_type_id":"4","last_reported":1723399907,"current_range_meters":28800,"station_id":"ce4bgm92rcd13ifvqbr0","pricing_plan_id":"cebpf4jnsgd1na2vs0mg"},{"bike_id":"1b3ff6f9-a042-466a-a7c6-37e2f3454711","system_id":"levelo_inurba_marseille","lat":43.299222,"lon":5.365554,"is_reserved":false,"is_disabled":false,"rental_uris":{"android":"levelo://app?vid=1b3ff6f9-a042-466a-a7c6-37e2f3454711","ios":"levelo://app?vid=1b3ff6f9-a042-466a-a7c6-37e2f3454711"},"vehicle_type_id":"4","last_reported":1723399907,"current_range_meters":26400,"station_id":"ce4bgm92rcd13ifvqbr0","pricing_plan_id":"cebpf4jnsgd1na2vs0mg"},{"bike_id":"564485d2-0ce9-4f7d-895c-b326d4523a84","system_id":"levelo_inurba_marseille","lat":43.30545,"lon":5.38432,"is_reserved":false,"is_disabled":false,"rental_uris":{"android":"levelo://app?vid=564485d2-0ce9-4f7d-895c-b326d4523a84","ios":"levelo://app?vid=564485d2-0ce9-4f7d-895c-b326d4523a84"},"vehicle_type_id":"4","last_reported":1723399907,"current_range_meters":14400,"station_id":"ce4bgg92rcd13ifvqb30","pricing_plan_id":"cebpf4jnsgd1na2vs0mg"},{"bike_id":"81b4d275-9639-4b4b-97a8-6d428c50fa97","system_id":"levelo_inurba_marseille","lat":43.299033,"lon":5.374763,"is_reserved":false,"is_disabled":false,"rental_uris":{"android":"levelo://app?vid=81b4d275-9639-4b4b-97a8-6d428c50fa97","ios":"levelo://app?vid=81b4d275-9639-4b4b-97a8-6d428c50fa97"},"vehicle_type_id":"4","last_reported":1723399907,"current_range_meters":30800,"station_id":"ce4bgjh2rcd13ifvqbg0","pricing_plan_id":"cebpf4jnsgd1na2vs0mg"},{"bike_id":"df99e6f9-c321-4854-9a8e-f5eb8fec657d","system_id":"levelo_inurba_marseille","lat":43.297774,"lon":5.370875,"is_reserved":false,"is_disabled":false,"rental_uris":{"android":"levelo://app?vid=df99e6f9-c321-4854-9a8e-f5eb8fec657d","ios":"levelo://app?vid=df99e6f9-c321-4854-9a8e-f5eb8fec657d"},"vehicle_type_id":"4","last_reported":1723399907,"current_range_meters":2000,"station_id":"ce4bgop2rcd13ifvqc1g","pricing_plan_id":"cebpf4jnsgd1na2vs0mg"},{"bike_id":"c944c94d-2838-4e7d-bf1f-fabd60ddb34e","system_id":"levelo_inurba_marseille","lat":43.29781,"lon":5.37104,"is_reserved":false,"is_disabled":false,"rental_uris":{"android":"levelo://app?vid=c944c94d-2838-4e7d-bf1f-fabd60ddb34e","ios":"levelo://app?vid=c944c94d-2838-4e7d-bf1f-fabd60ddb34e"},"vehicle_type_id":"4","last_reported":1723399907,"current_range_meters":3600,"station_id":"ce4bgop2rcd13ifvqc1g","pricing_plan_id":"cebpf4jnsgd1na2vs0mg"},{"bike_id":"1f7b93ea-120d-4e07-9dda-b5fdac1fd64f","system_id":"levelo_inurba_marseille","lat":43.32264,"lon":5.38287,"is_reserved":false,"is_disabled":false,"rental_uris":{"android":"levelo://app?vid=1f7b93ea-120d-4e07-9dda-b5fdac1fd64f","ios":"levelo://app?vid=1f7b93ea-120d-4e07-9dda-b5fdac1fd64f"},"vehicle_type_id":"4","last_reported":1723399907,"current_range_meters":18000,"station_id":"ce4bhr12rcd13ifvqhqg","pricing_plan_id":"cebpf4jnsgd1na2vs0mg"},{"bike_id":"f6c62d45-e447-4893-a20d-2e880ff970a0","system_id":"levelo_inurba_marseille","lat":43.297163,"lon":5.365866,"is_reserved":false,"is_disabled":false,"rental_uris":{"android":"levelo://app?vid=f6c62d45-e447-4893-a20d-2e880ff970a0","ios":"levelo://app?vid=f6c62d45-e447-4893-a20d-2e880ff970a0"},"vehicle_type_id":"4","last_reported":1723399907,"current_range_meters":400,"station_id":"ce4bgn12rcd13ifvqbt0","pricing_plan_id":"cebpf4jnsgd1na2vs0mg"},{"bike_id":"77fa85f0-d993-4301-b7ed-38b06370819a","system_id":"levelo_inurba_marseille","lat":43.323743,"lon":5.384123,"is_reserved":false,"is_disabled":false,"rental_uris":{"android":"levelo://app?vid=77fa85f0-d993-4301-b7ed-38b06370819a","ios":"levelo://app?vid=77fa85f0-d993-4301-b7ed-38b06370819a"},"vehicle_type_id":"4","last_reported":1723399907,"current_range_meters":4800,"station_id":"","pricing_plan_id":"cebpf4jnsgd1na2vs0mg"},{"bike_id":"c568f253-f437-40d7-91e0-8a0c20115011","system_id":"levelo_inurba_marseille","lat":43.322864,"lon":5.385484,"is_reserved":false,"is_disabled":false,"rental_uris":{"android":"levelo://app?vid=c568f253-f437-40d7-91e0-8a0c20115011","ios":"levelo://app?vid=c568f253-f437-40d7-91e0-8a0c20115011"},"vehicle_type_id":"4","last_reported":1723399907,"current_range_meters":13200,"station_id":"","pricing_plan_id":"cebpf4jnsgd1na2vs0mg"},{"bike_id":"313d6c58-3ae9-4c82-b601-95e8d6d39897","system_id":"levelo_inurba_marseille","lat":43.29622,"lon":5.37169,"is_reserved":false,"is_disabled":false,"rental_uris":{"android":"levelo://app?vid=313d6c58-3ae9-4c82-b601-95e8d6d39897","ios":"levelo://app?vid=313d6c58-3ae9-4c82-b601-95e8d6d39897"},"vehicle_type_id":"4","last_reported":1723399907,"current_range_meters":2400,"station_id":"ce4bgnh2rcd13ifvqc0g","pricing_plan_id":"cebpf4jnsgd1na2vs0mg"},{"bike_id":"772b5d73-9993-427c-895b-71f3534efe20","system_id":"levelo_inurba_marseille","lat":43.29582,"lon":5.3674,"is_reserved":false,"is_disabled":false,"rental_uris":{"android":"levelo://app?vid=772b5d73-9993-427c-895b-71f3534efe20","ios":"levelo://app?vid=772b5d73-9993-427c-895b-71f3534efe20"},"vehicle_type_id":"4","last_reported":1723399907,"current_range_meters":0,"station_id":"ce4bgph2rcd13ifvqc2g","pricing_plan_id":"cebpf4jnsgd1na2vs0mg"},{"bike_id":"584923b8-ee58-4fb3-93d5-34c7c67b5c0a","system_id":"levelo_inurba_marseille","lat":43.29573,"lon":5.367355,"is_reserved":false,"is_disabled":false,"rental_uris":{"android":"levelo://app?vid=584923b8-ee58-4fb3-93d5-34c7c67b5c0a","ios":"levelo://app?vid=584923b8-ee58-4fb3-93d5-34c7c67b5c0a"},"vehicle_type_id":"4","last_reported":1723399907,"current_range_meters":31200,"station_id":"ce4bgph2rcd13ifvqc2g","pricing_plan_id":"cebpf4jnsgd1na2vs0mg"},{"bike_id":"4b3e3cc4-1743-4709-a93d-6c86d464f034","system_id":"levelo_inurba_marseille","lat":43.29573,"lon":5.367355,"is_reserved":false,"is_disabled":false,"rental_uris":{"android":"levelo://app?vid=4b3e3cc4-1743-4709-a93d-6c86d464f034","ios":"levelo://app?vid=4b3e3cc4-1743-4709-a93d-6c86d464f034"},"vehicle_type_id":"4","last_reported":1723399907,"current_range_meters":18800,"station_id":"ce4bgph2rcd13ifvqc2g","pricing_plan_id":"cebpf4jnsgd1na2vs0mg"},{"bike_id":"5094bb3e-66f1-42f8-91e4-434125fb40a0","system_id":"levelo_inurba_marseille","lat":43.296935,"lon":5.376544,"is_reserved":false,"is_disabled":false,"rental_uris":{"android":"levelo://app?vid=5094bb3e-66f1-42f8-91e4-434125fb40a0","ios":"levelo://app?vid=5094bb3e-66f1-42f8-91e4-434125fb40a0"},"vehicle_type_id":"4","last_reported":1723399907,"current_range_meters":0,"station_id":"ce4bgkh2rcd13ifvqbl0","pricing_plan_id":"cebpf4jnsgd1na2vs0mg"},{"bike_id":"21ad1362-814f-46c3-b10e-c67f3c9fd20d","system_id":"levelo_inurba_marseille","lat":43.299028,"lon":5.381509,"is_reserved":false,"is_disabled":false,"rental_uris":{"android":"levelo://app?vid=21ad1362-814f-46c3-b10e-c67f3c9fd20d","ios":"levelo://app?vid=21ad1362-814f-46c3-b10e-c67f3c9fd20d"},"vehicle_type_id":"4","last_reported":1723399907,"current_range_meters":0,"station_id":"ce4bgj12rcd13ifvqbc0","pricing_plan_id":"cebpf4jnsgd1na2vs0mg"},{"bike_id":"fd60d3d4-6310-4e7b-9f89-6c3cb4cfb778","system_id":"levelo_inurba_marseille","lat":43.309589,"lon":5.390258,"is_reserved":false,"is_disabled":false,"rental_uris":{"android":"levelo://app?vid=fd60d3d4-6310-4e7b-9f89-6c3cb4cfb778","ios":"levelo://app?vid=fd60d3d4-6310-4e7b-9f89-6c3cb4cfb778"},"vehicle_type_id":"4","last_reported":1723399907,"current_range_meters":20800,"station_id":"ce4bgup2rcd13ifvqco0","pricing_plan_id":"cebpf4jnsgd1na2vs0mg"},{"bike_id":"ed788100-5403-4e53-b131-ed76e6e22485","system_id":"levelo_inurba_marseille","lat":43.32213,"lon":5.38697,"is_reserved":false,"is_disabled":false,"rental_uris":{"android":"levelo://app?vid=ed788100-5403-4e53-b131-ed76e6e22485","ios":"levelo://app?vid=ed788100-5403-4e53-b131-ed76e6e22485"},"vehicle_type_id":"4","last_reported":1723399907,"current_range_meters":0,"station_id":"","pricing_plan_id":"cebpf4jnsgd1na2vs0mg"},{"bike_id":"9a6b359e-356f-421f-99f3-f216d5e4b31e","system_id":"levelo_inurba_marseille","lat":43.317557,"lon":5.390173,"is_reserved":false,"is_disabled":false,"rental_uris":{"android":"levelo://app?vid=9a6b359e-356f-421f-99f3-f216d5e4b31e","ios":"levelo://app?vid=9a6b359e-356f-421f-99f3-f216d5e4b31e"},"vehicle_type_id":"4","last_reported":1723399907,"current_range_meters":14400,"station_id":"ce4bhqp2rcd13ifvqhng","pricing_plan_id":"cebpf4jnsgd1na2vs0mg"},{"bike_id":"f6ce6431-58c6-45ac-96cb-e261fcd64a97","system_id":"levelo_inurba_marseille","lat":43.304278,"lon":5.388868,"is_reserved":false,"is_disabled":false,"rental_uris":{"android":"levelo://app?vid=f6ce6431-58c6-45ac-96cb-e261fcd64a97","ios":"levelo://app?vid=f6ce6431-58c6-45ac-96cb-e261fcd64a97"},"vehicle_type_id":"4","last_reported":1723399907,"current_range_meters":0,"station_id":"ce4bgk12rcd13ifvqbi0","pricing_plan_id":"cebpf4jnsgd1na2vs0mg"},{"bike_id":"16140d6a-7522-4f26-81a3-860967c98bec","system_id":"levelo_inurba_marseille","lat":43.29572,"lon":5.37511,"is_reserved":false,"is_disabled":false,"rental_uris":{"android":"levelo://app?vid=16140d6a-7522-4f26-81a3-860967c98bec","ios":"levelo://app?vid=16140d6a-7522-4f26-81a3-860967c98bec"},"vehicle_type_id":"4","last_reported":1723399907,"current_range_meters":22000,"station_id":"ce4bgh92rcd13ifvqb50","pricing_plan_id":"cebpf4jnsgd1na2vs0mg"},{"bike_id":"a7f98a51-e004-4d06-af43-de0fd4b622e2","system_id":"levelo_inurba_marseille","lat":43.298037,"lon":5.381066,"is_reserved":false,"is_disabled":false,"rental_uris":{"android":"levelo://app?vid=a7f98a51-e004-4d06-af43-de0fd4b622e2","ios":"levelo://app?vid=a7f98a51-e004-4d06-af43-de0fd4b622e2"},"vehicle_type_id":"4","last_reported":1723399907,"current_range_meters":400,"station_id":"ce4bgip2rcd13ifvqbb0","pricing_plan_id":"cebpf4jnsgd1na2vs0mg"},{"bike_id":"d570398b-1f5d-4784-8af0-7b6605886013","system_id":"levelo_inurba_marseille","lat":43.29894,"lon":5.38306,"is_reserved":false,"is_disabled":false,"rental_uris":{"android":"levelo://app?vid=d570398b-1f5d-4784-8af0-7b6605886013","ios":"levelo://app?vid=d570398b-1f5d-4784-8af0-7b6605886013"},"vehicle_type_id":"4","last_reported":1723399907,"current_range_meters":22800,"station_id":"","pricing_plan_id":"cebpf4jnsgd1na2vs0mg"},{"bike_id":"77192461-172c-4d40-8ca2-f5aa19dcb034","system_id":"levelo_inurba_marseille","lat":43.330565,"lon":5.358735,"is_reserved":false,"is_disabled":false,"rental_uris":{"android":"levelo://app?vid=77192461-172c-4d40-8ca2-f5aa19dcb034","ios":"levelo://app?vid=77192461-172c-4d40-8ca2-f5aa19dcb034"},"vehicle_type_id":"4","last_reported":1723399907,"current_range_meters":10400,"station_id":"","pricing_plan_id":"cebpf4jnsgd1na2vs0mg"},{"bike_id":"0d11eaa1-a6cc-40c1-b7dd-3440f61c207e","system_id":"levelo_inurba_marseille","lat":43.301396,"lon":5.387812,"is_reserved":false,"is_disabled":false,"rental_uris":{"android":"levelo://app?vid=0d11eaa1-a6cc-40c1-b7dd-3440f61c207e","ios":"levelo://app?vid=0d11eaa1-a6cc-40c1-b7dd-3440f61c207e"},"vehicle_type_id":"4","last_reported":1723399907,"current_range_meters":0,"station_id":"ce4bghh2rcd13ifvqb60","pricing_plan_id":"cebpf4jnsgd1na2vs0mg"},{"bike_id":"9662bda7-c98b-482c-acb6-5f2d4a6281ec","system_id":"levelo_inurba_marseille","lat":43.304606,"lon":5.379026,"is_reserved":false,"is_disabled":false,"rental_uris":{"android":"levelo://app?vid=9662bda7-c98b-482c-acb6-5f2d4a6281ec","ios":"levelo://app?vid=9662bda7-c98b-482c-acb6-5f2d4a6281ec"},"vehicle_type_id":"4","last_reported":1723399907,"current_range_meters":26800,"station_id":"ce4bgup2rcd13ifvqcn0","pricing_plan_id":"cebpf4jnsgd1na2vs0mg"},{"bike_id":"dc6fd1c5-284e-4c28-af61-96df5caac593","system_id":"levelo_inurba_marseille","lat":43.32367,"lon":5.388836,"is_reserved":false,"is_disabled":false,"rental_uris":{"android":"levelo://app?vid=dc6fd1c5-284e-4c28-af61-96df5caac593","ios":"levelo://app?vid=dc6fd1c5-284e-4c28-af61-96df5caac593"},"vehicle_type_id":"4","last_reported":1723399907,"current_range_meters":13200,"station_id":"ce4bhqp2rcd13ifvqhog","pricing_plan_id":"cebpf4jnsgd1na2vs0mg"},{"bike_id":"08db0afc-b9d5-416f-afef-3b7f504f8cf3","system_id":"levelo_inurba_marseille","lat":43.32367,"lon":5.388836,"is_reserved":false,"is_disabled":false,"rental_uris":{"android":"levelo://app?vid=08db0afc-b9d5-416f-afef-3b7f504f8cf3","ios":"levelo://app?vid=08db0afc-b9d5-416f-afef-3b7f504f8cf3"},"vehicle_type_id":"4","last_reported":1723399907,"current_range_meters":800,"station_id":"ce4bhqp2rcd13ifvqhog","pricing_plan_id":"cebpf4jnsgd1na2vs0mg"},{"bike_id":"d93c2721-daca-4616-abb0-f3d43fb42ca4","system_id":"levelo_inurba_marseille","lat":43.29604,"lon":5.38105,"is_reserved":false,"is_disabled":false,"rental_uris":{"android":"levelo://app?vid=d93c2721-daca-4616-abb0-f3d43fb42ca4","ios":"levelo://app?vid=d93c2721-daca-4616-abb0-f3d43fb42ca4"},"vehicle_type_id":"4","last_reported":1723399907,"current_range_meters":0,"station_id":"ce4bgl12rcd13ifvqbo0","pricing_plan_id":"cebpf4jnsgd1na2vs0mg"},{"bike_id":"b31d652c-49bf-44d7-b926-4ee504adcfc2","system_id":"levelo_inurba_marseille","lat":43.29602,"lon":5.381084,"is_reserved":false,"is_disabled":false,"rental_uris":{"android":"levelo://app?vid=b31d652c-49bf-44d7-b926-4ee504adcfc2","ios":"levelo://app?vid=b31d652c-49bf-44d7-b926-4ee504adcfc2"},"vehicle_type_id":"4","last_reported":1723399907,"current_range_meters":2000,"station_id":"ce4bgl12rcd13ifvqbo0","pricing_plan_id":"cebpf4jnsgd1na2vs0mg"},{"bike_id":"1a308fda-724f-4330-ba27-ac1c82a8acbc","system_id":"levelo_inurba_marseille","lat":43.31835,"lon":5.39328,"is_reserved":false,"is_disabled":false,"rental_uris":{"android":"levelo://app?vid=1a308fda-724f-4330-ba27-ac1c82a8acbc","ios":"levelo://app?vid=1a308fda-724f-4330-ba27-ac1c82a8acbc"},"vehicle_type_id":"4","last_reported":1723399907,"current_range_meters":3600,"station_id":"","pricing_plan_id":"cebpf4jnsgd1na2vs0mg"},{"bike_id":"303491ad-6426-4e14-98ae-bd19301eead3","system_id":"levelo_inurba_marseille","lat":43.293259,"lon":5.371586,"is_reserved":false,"is_disabled":false,"rental_uris":{"android":"levelo://app?vid=303491ad-6426-4e14-98ae-bd19301eead3","ios":"levelo://app?vid=303491ad-6426-4e14-98ae-bd19301eead3"},"vehicle_type_id":"4","last_reported":1723399907,"current_range_meters":0,"station_id":"ce4bgh92rcd13ifvqb40","pricing_plan_id":"cebpf4jnsgd1na2vs0mg"},{"bike_id":"0a456c6e-69a6-4df6-88ba-7e003e45863e","system_id":"levelo_inurba_marseille","lat":43.29276,"lon":5.36838,"is_reserved":false,"is_disabled":false,"rental_uris":{"android":"levelo://app?vid=0a456c6e-69a6-4df6-88ba-7e003e45863e","ios":"levelo://app?vid=0a456c6e-69a6-4df6-88ba-7e003e45863e"},"vehicle_type_id":"4","last_reported":1723399907,"current_range_meters":0,"station_id":"ce4bhbp2rcd13ifvqesg","pricing_plan_id":"cebpf4jnsgd1na2vs0mg"},{"bike_id":"b3f73f4d-6a24-410b-ba22-34b9c69922f4","system_id":"levelo_inurba_marseille","lat":43.29852,"lon":5.3865,"is_reserved":false,"is_disabled":false,"rental_uris":{"android":"levelo://app?vid=b3f73f4d-6a24-410b-ba22-34b9c69922f4","ios":"levelo://app?vid=b3f73f4d-6a24-410b-ba22-34b9c69922f4"},"vehicle_type_id":"4","last_reported":1723399907,"current_range_meters":30400,"station_id":"","pricing_plan_id":"cebpf4jnsgd1na2vs0mg"},{"bike_id":"8d37495d-9961-45f8-ba67-ee81725ae3ae","system_id":"levelo_inurba_marseille","lat":43.29228,"lon":5.36363,"is_reserved":false,"is_disabled":false,"rental_uris":{"android":"levelo://app?vid=8d37495d-9961-45f8-ba67-ee81725ae3ae","ios":"levelo://app?vid=8d37495d-9961-45f8-ba67-ee81725ae3ae"},"vehicle_type_id":"4","last_reported":1723399907,"current_range_meters":4400,"station_id":"","pricing_plan_id":"cebpf4jnsgd1na2vs0mg"},{"bike_id":"48a46166-22f6-435a-ade8-ff44863fd33b","system_id":"levelo_inurba_marseille","lat":43.30305,"lon":5.392,"is_reserved":false,"is_disabled":false,"rental_uris":{"android":"levelo://app?vid=48a46166-22f6-435a-ade8-ff44863fd33b","ios":"levelo://app?vid=48a46166-22f6-435a-ade8-ff44863fd33b"},"vehicle_type_id":"4","last_reported":1723399907,"current_range_meters":0,"station_id":"ce4bgkh2rcd13ifvqbk0","pricing_plan_id":"cebpf4jnsgd1na2vs0mg"},{"bike_id":"59222f59-3d5d-443b-b45f-3628856c079b","system_id":"levelo_inurba_marseille","lat":43.2936,"lon":5.37835,"is_reserved":false,"is_disabled":false,"rental_uris":{"android":"levelo://app?vid=59222f59-3d5d-443b-b45f-3628856c079b","ios":"levelo://app?vid=59222f59-3d5d-443b-b45f-3628856c079b"},"vehicle_type_id":"4","last_reported":1723399907,"current_range_meters":18800,"station_id":"ce4bgjh2rcd13ifvqbf0","pricing_plan_id":"cebpf4jnsgd1na2vs0mg"},{"bike_id":"de0d7ba4-bea0-40c2-b2fe-0024b0b9145a","system_id":"levelo_inurba_marseille","lat":43.2936,"lon":5.37835,"is_reserved":false,"is_disabled":false,"rental_uris":{"android":"levelo://app?vid=de0d7ba4-bea0-40c2-b2fe-0024b0b9145a","ios":"levelo://app?vid=de0d7ba4-bea0-40c2-b2fe-0024b0b9145a"},"vehicle_type_id":"4","last_reported":1723399907,"current_range_meters":800,"station_id":"ce4bgjh2rcd13ifvqbf0","pricing_plan_id":"cebpf4jnsgd1na2vs0mg"},{"bike_id":"5e73ed43-021f-4f96-a9bb-d574b8dfde8b","system_id":"levelo_inurba_marseille","lat":43.30085,"lon":5.390856,"is_reserved":false,"is_disabled":false,"rental_uris":{"android":"levelo://app?vid=5e73ed43-021f-4f96-a9bb-d574b8dfde8b","ios":"levelo://app?vid=5e73ed43-021f-4f96-a9bb-d574b8dfde8b"},"vehicle_type_id":"4","last_reported":1723399907,"current_range_meters":0,"station_id":"ce4bh192rcd13ifvqdb0","pricing_plan_id":"cebpf4jnsgd1na2vs0mg"},{"bike_id":"f2f9e8fa-69cc-4a90-9d0f-bbbe2d7e36be","system_id":"levelo_inurba_marseille","lat":43.29223,"lon":5.36073,"is_reserved":false,"is_disabled":false,"rental_uris":{"android":"levelo://app?vid=f2f9e8fa-69cc-4a90-9d0f-bbbe2d7e36be","ios":"levelo://app?vid=f2f9e8fa-69cc-4a90-9d0f-bbbe2d7e36be"},"vehicle_type_id":"4","last_reported":1723399907,"current_range_meters":0,"station_id":"ce4bhbh2rcd13ifvqeqg","pricing_plan_id":"cebpf4jnsgd1na2vs0mg"},{"bike_id":"575c8f27-1337-4c33-9540-0bf9af1568b1","system_id":"levelo_inurba_marseille","lat":43.29224,"lon":5.360636,"is_reserved":false,"is_disabled":false,"rental_uris":{"android":"levelo://app?vid=575c8f27-1337-4c33-9540-0bf9af1568b1","ios":"levelo://app?vid=575c8f27-1337-4c33-9540-0bf9af1568b1"},"vehicle_type_id":"4","last_reported":1723399907,"current_range_meters":27200,"station_id":"ce4bhbh2rcd13ifvqeqg","pricing_plan_id":"cebpf4jnsgd1na2vs0mg"},{"bike_id":"21a77f2e-6325-47b2-aa50-831e8d426a9b","system_id":"levelo_inurba_marseille","lat":43.291675,"lon":5.371583,"is_reserved":false,"is_disabled":false,"rental_uris":{"android":"levelo://app?vid=21a77f2e-6325-47b2-aa50-831e8d426a9b","ios":"levelo://app?vid=21a77f2e-6325-47b2-aa50-831e8d426a9b"},"vehicle_type_id":"4","last_reported":1723399907,"current_range_meters":16000,"station_id":"ce4bha92rcd13ifvqeh0","pricing_plan_id":"cebpf4jnsgd1na2vs0mg"},{"bike_id":"232d7745-c52f-492e-bca3-8bbe7deff986","system_id":"levelo_inurba_marseille","lat":43.29871,"lon":5.3891,"is_reserved":false,"is_disabled":false,"rental_uris":{"android":"levelo://app?vid=232d7745-c52f-492e-bca3-8bbe7deff986","ios":"levelo://app?vid=232d7745-c52f-492e-bca3-8bbe7deff986"},"vehicle_type_id":"4","last_reported":1723399907,"current_range_meters":30800,"station_id":"ce4bh392rcd13ifvqdl0","pricing_plan_id":"cebpf4jnsgd1na2vs0mg"},{"bike_id":"8669c215-f64f-4991-918a-38e605b47e3d","system_id":"levelo_inurba_marseille","lat":43.292905,"lon":5.355531,"is_reserved":false,"is_disabled":false,"rental_uris":{"android":"levelo://app?vid=8669c215-f64f-4991-918a-38e605b47e3d","ios":"levelo://app?vid=8669c215-f64f-4991-918a-38e605b47e3d"},"vehicle_type_id":"4","last_reported":1723399907,"current_range_meters":2000,"station_id":"","pricing_plan_id":"cebpf4jnsgd1na2vs0mg"},{"bike_id":"4e4d60f7-4c47-4115-947d-ed08421b9aa6","system_id":"levelo_inurba_marseille","lat":43.291994,"lon":5.357886,"is_reserved":false,"is_disabled":false,"rental_uris":{"android":"levelo://app?vid=4e4d60f7-4c47-4115-947d-ed08421b9aa6","ios":"levelo://app?vid=4e4d60f7-4c47-4115-947d-ed08421b9aa6"},"vehicle_type_id":"4","last_reported":1723399907,"current_range_meters":0,"station_id":"ce4bhb12rcd13ifvqel0","pricing_plan_id":"cebpf4jnsgd1na2vs0mg"},{"bike_id":"c1feec92-0694-4a2b-8b3f-8c147991c09f","system_id":"levelo_inurba_marseille","lat":43.292005,"lon":5.357875,"is_reserved":false,"is_disabled":false,"rental_uris":{"android":"levelo://app?vid=c1feec92-0694-4a2b-8b3f-8c147991c09f","ios":"levelo://app?vid=c1feec92-0694-4a2b-8b3f-8c147991c09f"},"vehicle_type_id":"4","last_reported":1723399907,"current_range_meters":0,"station_id":"ce4bhb12rcd13ifvqel0","pricing_plan_id":"cebpf4jnsgd1na2vs0mg"},{"bike_id":"9d4b68a5-c93f-4844-a235-5ff4a055b660","system_id":"levelo_inurba_marseille","lat":43.292385,"lon":5.37767,"is_reserved":false,"is_disabled":false,"rental_uris":{"android":"levelo://app?vid=9d4b68a5-c93f-4844-a235-5ff4a055b660","ios":"levelo://app?vid=9d4b68a5-c93f-4844-a235-5ff4a055b660"},"vehicle_type_id":"4","last_reported":1723399907,"current_range_meters":7200,"station_id":"","pricing_plan_id":"cebpf4jnsgd1na2vs0mg"},{"bike_id":"908e3f2d-9b75-4ad3-8ef0-0e9a81f26fc6","system_id":"levelo_inurba_marseille","lat":43.313291,"lon":5.396838,"is_reserved":false,"is_disabled":false,"rental_uris":{"android":"levelo://app?vid=908e3f2d-9b75-4ad3-8ef0-0e9a81f26fc6","ios":"levelo://app?vid=908e3f2d-9b75-4ad3-8ef0-0e9a81f26fc6"},"vehicle_type_id":"4","last_reported":1723399907,"current_range_meters":22400,"station_id":"ce4bgvp2rcd13ifvqcu0","pricing_plan_id":"cebpf4jnsgd1na2vs0mg"},{"bike_id":"c7b6e0fc-817d-48b3-9324-d1865c53e641","system_id":"levelo_inurba_marseille","lat":43.309038,"lon":5.396546,"is_reserved":false,"is_disabled":false,"rental_uris":{"android":"levelo://app?vid=c7b6e0fc-817d-48b3-9324-d1865c53e641","ios":"levelo://app?vid=c7b6e0fc-817d-48b3-9324-d1865c53e641"},"vehicle_type_id":"4","last_reported":1723399907,"current_range_meters":18000,"station_id":"ce4bh012rcd13ifvqcv0","pricing_plan_id":"cebpf4jnsgd1na2vs0mg"},{"bike_id":"c3bcd834-4f42-4003-86c8-370a21207c76","system_id":"levelo_inurba_marseille","lat":43.309047,"lon":5.396551,"is_reserved":false,"is_disabled":false,"rental_uris":{"android":"levelo://app?vid=c3bcd834-4f42-4003-86c8-370a21207c76","ios":"levelo://app?vid=c3bcd834-4f42-4003-86c8-370a21207c76"},"vehicle_type_id":"4","last_reported":1723399907,"current_range_meters":1600,"station_id":"ce4bh012rcd13ifvqcv0","pricing_plan_id":"cebpf4jnsgd1na2vs0mg"},{"bike_id":"7bbda0ce-125a-4bf4-8e19-d7966d7aa5b5","system_id":"levelo_inurba_marseille","lat":43.290779,"lon":5.371482,"is_reserved":false,"is_disabled":false,"rental_uris":{"android":"levelo://app?vid=7bbda0ce-125a-4bf4-8e19-d7966d7aa5b5","ios":"levelo://app?vid=7bbda0ce-125a-4bf4-8e19-d7966d7aa5b5"},"vehicle_type_id":"4","last_reported":1723399907,"current_range_meters":13600,"station_id":"ce4bh5p2rcd13ifvqe4g","pricing_plan_id":"cebpf4jnsgd1na2vs0mg"},{"bike_id":"6c3486be-9b36-47d8-b2bd-71e24629e2b8","system_id":"levelo_inurba_marseille","lat":43.290779,"lon":5.371482,"is_reserved":false,"is_disabled":false,"rental_uris":{"android":"levelo://app?vid=6c3486be-9b36-47d8-b2bd-71e24629e2b8","ios":"levelo://app?vid=6c3486be-9b36-47d8-b2bd-71e24629e2b8"},"vehicle_type_id":"4","last_reported":1723399907,"current_range_meters":28000,"station_id":"ce4bh5p2rcd13ifvqe4g","pricing_plan_id":"cebpf4jnsgd1na2vs0mg"},{"bike_id":"f487b378-cf2d-4387-b118-1081f1938911","system_id":"levelo_inurba_marseille","lat":43.29294,"lon":5.3824,"is_reserved":false,"is_disabled":false,"rental_uris":{"android":"levelo://app?vid=f487b378-cf2d-4387-b118-1081f1938911","ios":"levelo://app?vid=f487b378-cf2d-4387-b118-1081f1938911"},"vehicle_type_id":"4","last_reported":1723399907,"current_range_meters":400,"station_id":"","pricing_plan_id":"cebpf4jnsgd1na2vs0mg"},{"bike_id":"97e81552-92ad-45f6-bfdb-1091b5157da6","system_id":"levelo_inurba_marseille","lat":43.302008,"lon":5.394694,"is_reserved":false,"is_disabled":false,"rental_uris":{"android":"levelo://app?vid=97e81552-92ad-45f6-bfdb-1091b5157da6","ios":"levelo://app?vid=97e81552-92ad-45f6-bfdb-1091b5157da6"},"vehicle_type_id":"4","last_reported":1723399907,"current_range_meters":13200,"station_id":"ce4bh0p2rcd13ifvqd70","pricing_plan_id":"cebpf4jnsgd1na2vs0mg"},{"bike_id":"94052d98-6a4d-420a-95cd-dd3756c6ccd4","system_id":"levelo_inurba_marseille","lat":43.302008,"lon":5.394694,"is_reserved":false,"is_disabled":false,"rental_uris":{"android":"levelo://app?vid=94052d98-6a4d-420a-95cd-dd3756c6ccd4","ios":"levelo://app?vid=94052d98-6a4d-420a-95cd-dd3756c6ccd4"},"vehicle_type_id":"4","last_reported":1723399907,"current_range_meters":8000,"station_id":"ce4bh0p2rcd13ifvqd70","pricing_plan_id":"cebpf4jnsgd1na2vs0mg"},{"bike_id":"8712e469-b928-40b2-943c-1670d26511db","system_id":"levelo_inurba_marseille","lat":43.294153,"lon":5.386305,"is_reserved":false,"is_disabled":false,"rental_uris":{"android":"levelo://app?vid=8712e469-b928-40b2-943c-1670d26511db","ios":"levelo://app?vid=8712e469-b928-40b2-943c-1670d26511db"},"vehicle_type_id":"4","last_reported":1723399907,"current_range_meters":3200,"station_id":"ce4bh2h2rcd13ifvqdh0","pricing_plan_id":"cebpf4jnsgd1na2vs0mg"},{"bike_id":"492edcde-25b3-4246-a02a-25a242a461a7","system_id":"levelo_inurba_marseille","lat":43.2894,"lon":5.36632,"is_reserved":false,"is_disabled":false,"rental_uris":{"android":"levelo://app?vid=492edcde-25b3-4246-a02a-25a242a461a7","ios":"levelo://app?vid=492edcde-25b3-4246-a02a-25a242a461a7"},"vehicle_type_id":"4","last_reported":1723399907,"current_range_meters":22000,"station_id":"ce4bhap2rcd13ifvqek0","pricing_plan_id":"cebpf4jnsgd1na2vs0mg"},{"bike_id":"fc1d0256-9707-4c4d-b5e8-b628edd759da","system_id":"levelo_inurba_marseille","lat":43.2894,"lon":5.36625,"is_reserved":false,"is_disabled":false,"rental_uris":{"android":"levelo://app?vid=fc1d0256-9707-4c4d-b5e8-b628edd759da","ios":"levelo://app?vid=fc1d0256-9707-4c4d-b5e8-b628edd759da"},"vehicle_type_id":"4","last_reported":1723399907,"current_range_meters":0,"station_id":"ce4bhap2rcd13ifvqek0","pricing_plan_id":"cebpf4jnsgd1na2vs0mg"},{"bike_id":"2b176ffd-7e91-4957-baa6-bc2a4854b28e","system_id":"levelo_inurba_marseille","lat":43.289184,"lon":5.366408,"is_reserved":false,"is_disabled":false,"rental_uris":{"android":"levelo://app?vid=2b176ffd-7e91-4957-baa6-bc2a4854b28e","ios":"levelo://app?vid=2b176ffd-7e91-4957-baa6-bc2a4854b28e"},"vehicle_type_id":"4","last_reported":1723399907,"current_range_meters":12400,"station_id":"ce4bhap2rcd13ifvqek0","pricing_plan_id":"cebpf4jnsgd1na2vs0mg"},{"bike_id":"301c24f7-67cd-4b26-bbbf-cd304c68a53d","system_id":"levelo_inurba_marseille","lat":43.289468,"lon":5.363719,"is_reserved":false,"is_disabled":false,"rental_uris":{"android":"levelo://app?vid=301c24f7-67cd-4b26-bbbf-cd304c68a53d","ios":"levelo://app?vid=301c24f7-67cd-4b26-bbbf-cd304c68a53d"},"vehicle_type_id":"4","last_reported":1723399907,"current_range_meters":800,"station_id":"ce4bhc92rcd13ifvqetg","pricing_plan_id":"cebpf4jnsgd1na2vs0mg"},{"bike_id":"86483ccc-03ad-4434-aff3-45443b812468","system_id":"levelo_inurba_marseille","lat":43.289468,"lon":5.363719,"is_reserved":false,"is_disabled":false,"rental_uris":{"android":"levelo://app?vid=86483ccc-03ad-4434-aff3-45443b812468","ios":"levelo://app?vid=86483ccc-03ad-4434-aff3-45443b812468"},"vehicle_type_id":"4","last_reported":1723399907,"current_range_meters":18400,"station_id":"ce4bhc92rcd13ifvqetg","pricing_plan_id":"cebpf4jnsgd1na2vs0mg"},{"bike_id":"04031490-6bee-442c-ba5c-c7c83f59e115","system_id":"levelo_inurba_marseille","lat":43.29276,"lon":5.38441,"is_reserved":false,"is_disabled":false,"rental_uris":{"android":"levelo://app?vid=04031490-6bee-442c-ba5c-c7c83f59e115","ios":"levelo://app?vid=04031490-6bee-442c-ba5c-c7c83f59e115"},"vehicle_type_id":"4","last_reported":1723399907,"current_range_meters":0,"station_id":"ce4bh692rcd13ifvqea0","pricing_plan_id":"cebpf4jnsgd1na2vs0mg"},{"bike_id":"0b219926-b38a-4e47-9716-740bdfeadbb4","system_id":"levelo_inurba_marseille","lat":43.2927,"lon":5.38438,"is_reserved":false,"is_disabled":false,"rental_uris":{"android":"levelo://app?vid=0b219926-b38a-4e47-9716-740bdfeadbb4","ios":"levelo://app?vid=0b219926-b38a-4e47-9716-740bdfeadbb4"},"vehicle_type_id":"4","last_reported":1723399907,"current_range_meters":0,"station_id":"ce4bh692rcd13ifvqea0","pricing_plan_id":"cebpf4jnsgd1na2vs0mg"},{"bike_id":"468979d0-2eeb-4209-8742-c1e4c74d472b","system_id":"levelo_inurba_marseille","lat":43.292642,"lon":5.384254,"is_reserved":false,"is_disabled":false,"rental_uris":{"android":"levelo://app?vid=468979d0-2eeb-4209-8742-c1e4c74d472b","ios":"levelo://app?vid=468979d0-2eeb-4209-8742-c1e4c74d472b"},"vehicle_type_id":"4","last_reported":1723399907,"current_range_meters":8400,"station_id":"ce4bh692rcd13ifvqea0","pricing_plan_id":"cebpf4jnsgd1na2vs0mg"},{"bike_id":"3bc0a3f0-275b-4c0a-96ed-8e84b599aafc","system_id":"levelo_inurba_marseille","lat":43.292657,"lon":5.384453,"is_reserved":false,"is_disabled":false,"rental_uris":{"android":"levelo://app?vid=3bc0a3f0-275b-4c0a-96ed-8e84b599aafc","ios":"levelo://app?vid=3bc0a3f0-275b-4c0a-96ed-8e84b599aafc"},"vehicle_type_id":"4","last_reported":1723399907,"current_range_meters":0,"station_id":"ce4bh692rcd13ifvqea0","pricing_plan_id":"cebpf4jnsgd1na2vs0mg"},{"bike_id":"14e8b97e-80cd-4885-b32e-9d395a61c3de","system_id":"levelo_inurba_marseille","lat":43.292644,"lon":5.384257,"is_reserved":false,"is_disabled":false,"rental_uris":{"android":"levelo://app?vid=14e8b97e-80cd-4885-b32e-9d395a61c3de","ios":"levelo://app?vid=14e8b97e-80cd-4885-b32e-9d395a61c3de"},"vehicle_type_id":"4","last_reported":1723399907,"current_range_meters":0,"station_id":"ce4bh692rcd13ifvqea0","pricing_plan_id":"cebpf4jnsgd1na2vs0mg"},{"bike_id":"ab8b5882-09c4-4a37-b819-c676ace6c351","system_id":"levelo_inurba_marseille","lat":43.29006,"lon":5.35608,"is_reserved":false,"is_disabled":false,"rental_uris":{"android":"levelo://app?vid=ab8b5882-09c4-4a37-b819-c676ace6c351","ios":"levelo://app?vid=ab8b5882-09c4-4a37-b819-c676ace6c351"},"vehicle_type_id":"4","last_reported":1723399907,"current_range_meters":0,"station_id":"ce4bhb92rcd13ifvqen0","pricing_plan_id":"cebpf4jnsgd1na2vs0mg"},{"bike_id":"c3d326e4-cc43-41ed-ac20-5184c6eea0dc","system_id":"levelo_inurba_marseille","lat":43.290103,"lon":5.356114,"is_reserved":false,"is_disabled":false,"rental_uris":{"android":"levelo://app?vid=c3d326e4-cc43-41ed-ac20-5184c6eea0dc","ios":"levelo://app?vid=c3d326e4-cc43-41ed-ac20-5184c6eea0dc"},"vehicle_type_id":"4","last_reported":1723399907,"current_range_meters":28800,"station_id":"ce4bhb92rcd13ifvqen0","pricing_plan_id":"cebpf4jnsgd1na2vs0mg"},{"bike_id":"7f551bb1-dc86-4335-a363-b6de61624418","system_id":"levelo_inurba_marseille","lat":43.290995,"lon":5.381361,"is_reserved":false,"is_disabled":false,"rental_uris":{"android":"levelo://app?vid=7f551bb1-dc86-4335-a363-b6de61624418","ios":"levelo://app?vid=7f551bb1-dc86-4335-a363-b6de61624418"},"vehicle_type_id":"4","last_reported":1723399907,"current_range_meters":0,"station_id":"ce4bh512rcd13ifvqe2g","pricing_plan_id":"cebpf4jnsgd1na2vs0mg"},{"bike_id":"60f8468a-3196-4127-8b87-f7d266c4535a","system_id":"levelo_inurba_marseille","lat":43.29098,"lon":5.381185,"is_reserved":false,"is_disabled":false,"rental_uris":{"android":"levelo://app?vid=60f8468a-3196-4127-8b87-f7d266c4535a","ios":"levelo://app?vid=60f8468a-3196-4127-8b87-f7d266c4535a"},"vehicle_type_id":"4","last_reported":1723399907,"current_range_meters":0,"station_id":"ce4bh512rcd13ifvqe2g","pricing_plan_id":"cebpf4jnsgd1na2vs0mg"},{"bike_id":"740165af-d14d-454f-8523-8944efa4e749","system_id":"levelo_inurba_marseille","lat":43.295169,"lon":5.390426,"is_reserved":false,"is_disabled":false,"rental_uris":{"android":"levelo://app?vid=740165af-d14d-454f-8523-8944efa4e749","ios":"levelo://app?vid=740165af-d14d-454f-8523-8944efa4e749"},"vehicle_type_id":"4","last_reported":1723399907,"current_range_meters":30800,"station_id":"ce4bh3p2rcd13ifvqdp0","pricing_plan_id":"cebpf4jnsgd1na2vs0mg"},{"bike_id":"f66aeb79-8cd6-4ba9-a9ef-727fa04752b7","system_id":"levelo_inurba_marseille","lat":43.2898,"lon":5.37839,"is_reserved":false,"is_disabled":false,"rental_uris":{"android":"levelo://app?vid=f66aeb79-8cd6-4ba9-a9ef-727fa04752b7","ios":"levelo://app?vid=f66aeb79-8cd6-4ba9-a9ef-727fa04752b7"},"vehicle_type_id":"4","last_reported":1723399907,"current_range_meters":22800,"station_id":"ce4bh9p2rcd13ifvqed0","pricing_plan_id":"cebpf4jnsgd1na2vs0mg"},{"bike_id":"840eabea-44df-45f8-8771-651a58885ab9","system_id":"levelo_inurba_marseille","lat":43.330442,"lon":5.389148,"is_reserved":false,"is_disabled":false,"rental_uris":{"android":"levelo://app?vid=840eabea-44df-45f8-8771-651a58885ab9","ios":"levelo://app?vid=840eabea-44df-45f8-8771-651a58885ab9"},"vehicle_type_id":"4","last_reported":1723399907,"current_range_meters":400,"station_id":"ce4bhr92rcd13ifvqhrg","pricing_plan_id":"cebpf4jnsgd1na2vs0mg"},{"bike_id":"7e78ebbb-b09c-4c74-b5c3-a4faeb718822","system_id":"levelo_inurba_marseille","lat":43.2951,"lon":5.39022,"is_reserved":false,"is_disabled":false,"rental_uris":{"android":"levelo://app?vid=7e78ebbb-b09c-4c74-b5c3-a4faeb718822","ios":"levelo://app?vid=7e78ebbb-b09c-4c74-b5c3-a4faeb718822"},"vehicle_type_id":"4","last_reported":1723399907,"current_range_meters":800,"station_id":"ce4bh3p2rcd13ifvqdp0","pricing_plan_id":"cebpf4jnsgd1na2vs0mg"},{"bike_id":"743d1aeb-28f9-42d4-a7a4-30d3b11fa42e","system_id":"levelo_inurba_marseille","lat":43.33024,"lon":5.39046,"is_reserved":false,"is_disabled":false,"rental_uris":{"android":"levelo://app?vid=743d1aeb-28f9-42d4-a7a4-30d3b11fa42e","ios":"levelo://app?vid=743d1aeb-28f9-42d4-a7a4-30d3b11fa42e"},"vehicle_type_id":"4","last_reported":1723399907,"current_range_meters":5200,"station_id":"ce4bhr92rcd13ifvqhrg","pricing_plan_id":"cebpf4jnsgd1na2vs0mg"},{"bike_id":"4dd3df97-f042-4ef0-9fba-47ec4b401346","system_id":"levelo_inurba_marseille","lat":43.2883,"lon":5.37357,"is_reserved":false,"is_disabled":false,"rental_uris":{"android":"levelo://app?vid=4dd3df97-f042-4ef0-9fba-47ec4b401346","ios":"levelo://app?vid=4dd3df97-f042-4ef0-9fba-47ec4b401346"},"vehicle_type_id":"4","last_reported":1723399907,"current_range_meters":20000,"station_id":"","pricing_plan_id":"cebpf4jnsgd1na2vs0mg"},{"bike_id":"ed076a5b-5fbc-4fdf-9742-41870a05cf01","system_id":"levelo_inurba_marseille","lat":43.28856,"lon":5.358371,"is_reserved":false,"is_disabled":false,"rental_uris":{"android":"levelo://app?vid=ed076a5b-5fbc-4fdf-9742-41870a05cf01","ios":"levelo://app?vid=ed076a5b-5fbc-4fdf-9742-41870a05cf01"},"vehicle_type_id":"4","last_reported":1723399907,"current_range_meters":17200,"station_id":"ce4bhb12rcd13ifvqem0","pricing_plan_id":"cebpf4jnsgd1na2vs0mg"},{"bike_id":"c2033b37-a8e2-481e-b680-f52ef40493e9","system_id":"levelo_inurba_marseille","lat":43.28856,"lon":5.358371,"is_reserved":false,"is_disabled":false,"rental_uris":{"android":"levelo://app?vid=c2033b37-a8e2-481e-b680-f52ef40493e9","ios":"levelo://app?vid=c2033b37-a8e2-481e-b680-f52ef40493e9"},"vehicle_type_id":"4","last_reported":1723399907,"current_range_meters":8400,"station_id":"ce4bhb12rcd13ifvqem0","pricing_plan_id":"cebpf4jnsgd1na2vs0mg"},{"bike_id":"c3cf305c-692c-41ed-b07c-7ebbc13f240d","system_id":"levelo_inurba_marseille","lat":43.337405,"lon":5.374624,"is_reserved":false,"is_disabled":false,"rental_uris":{"android":"levelo://app?vid=c3cf305c-692c-41ed-b07c-7ebbc13f240d","ios":"levelo://app?vid=c3cf305c-692c-41ed-b07c-7ebbc13f240d"},"vehicle_type_id":"4","last_reported":1723399907,"current_range_meters":14800,"station_id":"","pricing_plan_id":"cebpf4jnsgd1na2vs0mg"},{"bike_id":"ac75d8e5-5139-4e43-a64e-51e7994c2517","system_id":"levelo_inurba_marseille","lat":43.337444,"lon":5.374475,"is_reserved":false,"is_disabled":false,"rental_uris":{"android":"levelo://app?vid=ac75d8e5-5139-4e43-a64e-51e7994c2517","ios":"levelo://app?vid=ac75d8e5-5139-4e43-a64e-51e7994c2517"},"vehicle_type_id":"3","last_reported":1723399907,"current_range_meters":24800,"station_id":"","pricing_plan_id":"cebpf4jnsgd1na2vs0mg"},{"bike_id":"43f21911-683d-4ba4-93d3-8a7e20e1c78c","system_id":"levelo_inurba_marseille","lat":43.337433,"lon":5.374599,"is_reserved":false,"is_disabled":false,"rental_uris":{"android":"levelo://app?vid=43f21911-683d-4ba4-93d3-8a7e20e1c78c","ios":"levelo://app?vid=43f21911-683d-4ba4-93d3-8a7e20e1c78c"},"vehicle_type_id":"4","last_reported":1723399907,"current_range_meters":26400,"station_id":"","pricing_plan_id":"cebpf4jnsgd1na2vs0mg"},{"bike_id":"0383329a-65ca-4c9b-8997-fe954c13a783","system_id":"levelo_inurba_marseille","lat":43.309371,"lon":5.401449,"is_reserved":false,"is_disabled":false,"rental_uris":{"android":"levelo://app?vid=0383329a-65ca-4c9b-8997-fe954c13a783","ios":"levelo://app?vid=0383329a-65ca-4c9b-8997-fe954c13a783"},"vehicle_type_id":"4","last_reported":1723399907,"current_range_meters":26800,"station_id":"ce4bgvp2rcd13ifvqct0","pricing_plan_id":"cebpf4jnsgd1na2vs0mg"},{"bike_id":"8b5f6228-3582-497c-9919-c849c8ef0c9b","system_id":"levelo_inurba_marseille","lat":43.337436,"lon":5.374589,"is_reserved":false,"is_disabled":false,"rental_uris":{"android":"levelo://app?vid=8b5f6228-3582-497c-9919-c849c8ef0c9b","ios":"levelo://app?vid=8b5f6228-3582-497c-9919-c849c8ef0c9b"},"vehicle_type_id":"4","last_reported":1723399907,"current_range_meters":0,"station_id":"","pricing_plan_id":"cebpf4jnsgd1na2vs0mg"},{"bike_id":"7553d7c6-8eef-4b21-9dca-534ec43256a6","system_id":"levelo_inurba_marseille","lat":43.33745,"lon":5.37452,"is_reserved":false,"is_disabled":false,"rental_uris":{"android":"levelo://app?vid=7553d7c6-8eef-4b21-9dca-534ec43256a6","ios":"levelo://app?vid=7553d7c6-8eef-4b21-9dca-534ec43256a6"},"vehicle_type_id":"4","last_reported":1723399907,"current_range_meters":8800,"station_id":"","pricing_plan_id":"cebpf4jnsgd1na2vs0mg"},{"bike_id":"a99690a8-3e4f-41a1-9b6a-5b43249a269f","system_id":"levelo_inurba_marseille","lat":43.33746,"lon":5.37457,"is_reserved":false,"is_disabled":false,"rental_uris":{"android":"levelo://app?vid=a99690a8-3e4f-41a1-9b6a-5b43249a269f","ios":"levelo://app?vid=a99690a8-3e4f-41a1-9b6a-5b43249a269f"},"vehicle_type_id":"4","last_reported":1723399907,"current_range_meters":400,"station_id":"","pricing_plan_id":"cebpf4jnsgd1na2vs0mg"},{"bike_id":"72e00df0-82bb-467f-b042-082a98f20769","system_id":"levelo_inurba_marseille","lat":43.309371,"lon":5.401449,"is_reserved":false,"is_disabled":false,"rental_uris":{"android":"levelo://app?vid=72e00df0-82bb-467f-b042-082a98f20769","ios":"levelo://app?vid=72e00df0-82bb-467f-b042-082a98f20769"},"vehicle_type_id":"4","last_reported":1723399907,"current_range_meters":1200,"station_id":"ce4bgvp2rcd13ifvqct0","pricing_plan_id":"cebpf4jnsgd1na2vs0mg"},{"bike_id":"6137b86e-8de9-4c4f-94ef-bfa372175031","system_id":"levelo_inurba_marseille","lat":43.337513,"lon":5.37454,"is_reserved":false,"is_disabled":false,"rental_uris":{"android":"levelo://app?vid=6137b86e-8de9-4c4f-94ef-bfa372175031","ios":"levelo://app?vid=6137b86e-8de9-4c4f-94ef-bfa372175031"},"vehicle_type_id":"4","last_reported":1723399907,"current_range_meters":11200,"station_id":"","pricing_plan_id":"cebpf4jnsgd1na2vs0mg"},{"bike_id":"e9167cca-271f-4a16-84e8-13366aab74c8","system_id":"levelo_inurba_marseille","lat":43.309371,"lon":5.401449,"is_reserved":false,"is_disabled":false,"rental_uris":{"android":"levelo://app?vid=e9167cca-271f-4a16-84e8-13366aab74c8","ios":"levelo://app?vid=e9167cca-271f-4a16-84e8-13366aab74c8"},"vehicle_type_id":"4","last_reported":1723399907,"current_range_meters":2400,"station_id":"ce4bgvp2rcd13ifvqct0","pricing_plan_id":"cebpf4jnsgd1na2vs0mg"},{"bike_id":"6f8a75ef-cfde-4da5-99c7-85f9ae9b026b","system_id":"levelo_inurba_marseille","lat":43.33763,"lon":5.37433,"is_reserved":false,"is_disabled":false,"rental_uris":{"android":"levelo://app?vid=6f8a75ef-cfde-4da5-99c7-85f9ae9b026b","ios":"levelo://app?vid=6f8a75ef-cfde-4da5-99c7-85f9ae9b026b"},"vehicle_type_id":"4","last_reported":1723399907,"current_range_meters":20400,"station_id":"","pricing_plan_id":"cebpf4jnsgd1na2vs0mg"},{"bike_id":"1ece39e8-5ec5-465b-b0d5-bdea3554c74d","system_id":"levelo_inurba_marseille","lat":43.337619,"lon":5.374534,"is_reserved":false,"is_disabled":false,"rental_uris":{"android":"levelo://app?vid=1ece39e8-5ec5-465b-b0d5-bdea3554c74d","ios":"levelo://app?vid=1ece39e8-5ec5-465b-b0d5-bdea3554c74d"},"vehicle_type_id":"4","last_reported":1723399907,"current_range_meters":20400,"station_id":"","pricing_plan_id":"cebpf4jnsgd1na2vs0mg"},{"bike_id":"ea1cc1bc-b3f0-4093-8f5f-6dfff1fa63d9","system_id":"levelo_inurba_marseille","lat":43.337575,"lon":5.37485,"is_reserved":false,"is_disabled":false,"rental_uris":{"android":"levelo://app?vid=ea1cc1bc-b3f0-4093-8f5f-6dfff1fa63d9","ios":"levelo://app?vid=ea1cc1bc-b3f0-4093-8f5f-6dfff1fa63d9"},"vehicle_type_id":"4","last_reported":1723399907,"current_range_meters":30800,"station_id":"","pricing_plan_id":"cebpf4jnsgd1na2vs0mg"},{"bike_id":"e0da458e-1309-458b-956b-aab617b2ea05","system_id":"levelo_inurba_marseille","lat":43.3376,"lon":5.37473,"is_reserved":false,"is_disabled":false,"rental_uris":{"android":"levelo://app?vid=e0da458e-1309-458b-956b-aab617b2ea05","ios":"levelo://app?vid=e0da458e-1309-458b-956b-aab617b2ea05"},"vehicle_type_id":"4","last_reported":1723399907,"current_range_meters":22800,"station_id":"","pricing_plan_id":"cebpf4jnsgd1na2vs0mg"},{"bike_id":"5cb0d0f3-eacc-40eb-a46e-542fc59e15f6","system_id":"levelo_inurba_marseille","lat":43.337571,"lon":5.374945,"is_reserved":false,"is_disabled":false,"rental_uris":{"android":"levelo://app?vid=5cb0d0f3-eacc-40eb-a46e-542fc59e15f6","ios":"levelo://app?vid=5cb0d0f3-eacc-40eb-a46e-542fc59e15f6"},"vehicle_type_id":"4","last_reported":1723399907,"current_range_meters":28800,"station_id":"","pricing_plan_id":"cebpf4jnsgd1na2vs0mg"},{"bike_id":"a7e71684-8757-4c0e-98c0-cd5b05cd0ba7","system_id":"levelo_inurba_marseille","lat":43.337583,"lon":5.374932,"is_reserved":false,"is_disabled":false,"rental_uris":{"android":"levelo://app?vid=a7e71684-8757-4c0e-98c0-cd5b05cd0ba7","ios":"levelo://app?vid=a7e71684-8757-4c0e-98c0-cd5b05cd0ba7"},"vehicle_type_id":"4","last_reported":1723399907,"current_range_meters":28800,"station_id":"","pricing_plan_id":"cebpf4jnsgd1na2vs0mg"},{"bike_id":"475ed14f-5d86-4ce1-9e44-9d4d1bef7035","system_id":"levelo_inurba_marseille","lat":43.33765,"lon":5.37486,"is_reserved":false,"is_disabled":false,"rental_uris":{"android":"levelo://app?vid=475ed14f-5d86-4ce1-9e44-9d4d1bef7035","ios":"levelo://app?vid=475ed14f-5d86-4ce1-9e44-9d4d1bef7035"},"vehicle_type_id":"4","last_reported":1723399907,"current_range_meters":20800,"station_id":"","pricing_plan_id":"cebpf4jnsgd1na2vs0mg"},{"bike_id":"57da0337-159a-4148-be4f-fc6e9aca3c31","system_id":"levelo_inurba_marseille","lat":43.337094,"lon":5.355766,"is_reserved":false,"is_disabled":false,"rental_uris":{"android":"levelo://app?vid=57da0337-159a-4148-be4f-fc6e9aca3c31","ios":"levelo://app?vid=57da0337-159a-4148-be4f-fc6e9aca3c31"},"vehicle_type_id":"4","last_reported":1723399907,"current_range_meters":4000,"station_id":"","pricing_plan_id":"cebpf4jnsgd1na2vs0mg"},{"bike_id":"976d0109-9de7-4d45-bd81-5491eb52ebe8","system_id":"levelo_inurba_marseille","lat":43.33035,"lon":5.39354,"is_reserved":false,"is_disabled":false,"rental_uris":{"android":"levelo://app?vid=976d0109-9de7-4d45-bd81-5491eb52ebe8","ios":"levelo://app?vid=976d0109-9de7-4d45-bd81-5491eb52ebe8"},"vehicle_type_id":"4","last_reported":1723399907,"current_range_meters":6000,"station_id":"","pricing_plan_id":"cebpf4jnsgd1na2vs0mg"},{"bike_id":"3e79a9db-ab8a-4744-8037-da33163a4731","system_id":"levelo_inurba_marseille","lat":43.286961,"lon":5.373785,"is_reserved":false,"is_disabled":false,"rental_uris":{"android":"levelo://app?vid=3e79a9db-ab8a-4744-8037-da33163a4731","ios":"levelo://app?vid=3e79a9db-ab8a-4744-8037-da33163a4731"},"vehicle_type_id":"4","last_reported":1723399907,"current_range_meters":5200,"station_id":"ce4bh3p2rcd13ifvqdq0","pricing_plan_id":"cebpf4jnsgd1na2vs0mg"},{"bike_id":"de6f9a8d-a672-4757-bdf8-4f9213f8ae8a","system_id":"levelo_inurba_marseille","lat":43.286591,"lon":5.363346,"is_reserved":false,"is_disabled":false,"rental_uris":{"android":"levelo://app?vid=de6f9a8d-a672-4757-bdf8-4f9213f8ae8a","ios":"levelo://app?vid=de6f9a8d-a672-4757-bdf8-4f9213f8ae8a"},"vehicle_type_id":"4","last_reported":1723399907,"current_range_meters":10400,"station_id":"ce4bhah2rcd13ifvqej0","pricing_plan_id":"cebpf4jnsgd1na2vs0mg"},{"bike_id":"23033574-0022-4dcc-a19e-45dd425d50ef","system_id":"levelo_inurba_marseille","lat":43.286593,"lon":5.363346,"is_reserved":false,"is_disabled":false,"rental_uris":{"android":"levelo://app?vid=23033574-0022-4dcc-a19e-45dd425d50ef","ios":"levelo://app?vid=23033574-0022-4dcc-a19e-45dd425d50ef"},"vehicle_type_id":"4","last_reported":1723399907,"current_range_meters":31200,"station_id":"ce4bhah2rcd13ifvqej0","pricing_plan_id":"cebpf4jnsgd1na2vs0mg"},{"bike_id":"d2230a6d-31f7-4113-9508-cd8bb5227db2","system_id":"levelo_inurba_marseille","lat":43.286591,"lon":5.363346,"is_reserved":false,"is_disabled":false,"rental_uris":{"android":"levelo://app?vid=d2230a6d-31f7-4113-9508-cd8bb5227db2","ios":"levelo://app?vid=d2230a6d-31f7-4113-9508-cd8bb5227db2"},"vehicle_type_id":"4","last_reported":1723399907,"current_range_meters":22400,"station_id":"ce4bhah2rcd13ifvqej0","pricing_plan_id":"cebpf4jnsgd1na2vs0mg"},{"bike_id":"63c52c0e-b6ee-4163-9323-5388781fe8b7","system_id":"levelo_inurba_marseille","lat":43.28925,"lon":5.38386,"is_reserved":false,"is_disabled":false,"rental_uris":{"android":"levelo://app?vid=63c52c0e-b6ee-4163-9323-5388781fe8b7","ios":"levelo://app?vid=63c52c0e-b6ee-4163-9323-5388781fe8b7"},"vehicle_type_id":"4","last_reported":1723399907,"current_range_meters":0,"station_id":"ce4bh612rcd13ifvqe6g","pricing_plan_id":"cebpf4jnsgd1na2vs0mg"},{"bike_id":"908ec671-4ce2-4f7b-931a-76c58197bc15","system_id":"levelo_inurba_marseille","lat":43.302395,"lon":5.40059,"is_reserved":false,"is_disabled":false,"rental_uris":{"android":"levelo://app?vid=908ec671-4ce2-4f7b-931a-76c58197bc15","ios":"levelo://app?vid=908ec671-4ce2-4f7b-931a-76c58197bc15"},"vehicle_type_id":"4","last_reported":1723399907,"current_range_meters":0,"station_id":"ce4bgvh2rcd13ifvqcs0","pricing_plan_id":"cebpf4jnsgd1na2vs0mg"},{"bike_id":"71e0d454-3b2d-45cb-812d-ce001690d533","system_id":"levelo_inurba_marseille","lat":43.292311,"lon":5.360731,"is_reserved":false,"is_disabled":false,"rental_uris":{"android":"levelo://app?vid=71e0d454-3b2d-45cb-812d-ce001690d533","ios":"levelo://app?vid=71e0d454-3b2d-45cb-812d-ce001690d533"},"vehicle_type_id":"4","last_reported":1723399907,"current_range_meters":12400,"station_id":"ce4bhbh2rcd13ifvqeqg","pricing_plan_id":"cebpf4jnsgd1na2vs0mg"},{"bike_id":"00d4249d-f3a5-43be-9114-663b27e0b861","system_id":"levelo_inurba_marseille","lat":43.28608,"lon":5.3706,"is_reserved":false,"is_disabled":false,"rental_uris":{"android":"levelo://app?vid=00d4249d-f3a5-43be-9114-663b27e0b861","ios":"levelo://app?vid=00d4249d-f3a5-43be-9114-663b27e0b861"},"vehicle_type_id":"4","last_reported":1723399907,"current_range_meters":0,"station_id":"ce4bht12rcd13ifvqi60","pricing_plan_id":"cebpf4jnsgd1na2vs0mg"},{"bike_id":"60c04a1e-56e4-4f68-b89f-dbd601fa5932","system_id":"levelo_inurba_marseille","lat":43.286039,"lon":5.370681,"is_reserved":false,"is_disabled":false,"rental_uris":{"android":"levelo://app?vid=60c04a1e-56e4-4f68-b89f-dbd601fa5932","ios":"levelo://app?vid=60c04a1e-56e4-4f68-b89f-dbd601fa5932"},"vehicle_type_id":"4","last_reported":1723399907,"current_range_meters":2400,"station_id":"ce4bht12rcd13ifvqi60","pricing_plan_id":"cebpf4jnsgd1na2vs0mg"},{"bike_id":"996d9335-1178-45af-90fc-d6d4c239eba1","system_id":"levelo_inurba_marseille","lat":43.28718,"lon":5.37928,"is_reserved":false,"is_disabled":false,"rental_uris":{"android":"levelo://app?vid=996d9335-1178-45af-90fc-d6d4c239eba1","ios":"levelo://app?vid=996d9335-1178-45af-90fc-d6d4c239eba1"},"vehicle_type_id":"4","last_reported":1723399907,"current_range_meters":0,"station_id":"ce4bh9p2rcd13ifvqec0","pricing_plan_id":"cebpf4jnsgd1na2vs0mg"},{"bike_id":"f4b2df18-57c8-4f2c-b63c-766f94ef32b8","system_id":"levelo_inurba_marseille","lat":43.287185,"lon":5.379373,"is_reserved":false,"is_disabled":false,"rental_uris":{"android":"levelo://app?vid=f4b2df18-57c8-4f2c-b63c-766f94ef32b8","ios":"levelo://app?vid=f4b2df18-57c8-4f2c-b63c-766f94ef32b8"},"vehicle_type_id":"4","last_reported":1723399907,"current_range_meters":6800,"station_id":"ce4bh9p2rcd13ifvqec0","pricing_plan_id":"cebpf4jnsgd1na2vs0mg"},{"bike_id":"18839b36-ddde-431e-bca4-2ca4f4bfccd9","system_id":"levelo_inurba_marseille","lat":43.301117,"lon":5.398795,"is_reserved":false,"is_disabled":false,"rental_uris":{"android":"levelo://app?vid=18839b36-ddde-431e-bca4-2ca4f4bfccd9","ios":"levelo://app?vid=18839b36-ddde-431e-bca4-2ca4f4bfccd9"},"vehicle_type_id":"4","last_reported":1723399907,"current_range_meters":0,"station_id":"ce4bh0h2rcd13ifvqd40","pricing_plan_id":"cebpf4jnsgd1na2vs0mg"},{"bike_id":"cea4b786-d381-490f-8259-dbff49de1d6d","system_id":"levelo_inurba_marseille","lat":43.29203,"lon":5.39322,"is_reserved":false,"is_disabled":false,"rental_uris":{"android":"levelo://app?vid=cea4b786-d381-490f-8259-dbff49de1d6d","ios":"levelo://app?vid=cea4b786-d381-490f-8259-dbff49de1d6d"},"vehicle_type_id":"4","last_reported":1723399907,"current_range_meters":10000,"station_id":"","pricing_plan_id":"cebpf4jnsgd1na2vs0mg"},{"bike_id":"9f31f1a6-6db7-4856-a90d-83dc348dfec4","system_id":"levelo_inurba_marseille","lat":43.284538,"lon":5.358657,"is_reserved":false,"is_disabled":false,"rental_uris":{"android":"levelo://app?vid=9f31f1a6-6db7-4856-a90d-83dc348dfec4","ios":"levelo://app?vid=9f31f1a6-6db7-4856-a90d-83dc348dfec4"},"vehicle_type_id":"4","last_reported":1723399907,"current_range_meters":11600,"station_id":"ce4bhah2rcd13ifvqei0","pricing_plan_id":"cebpf4jnsgd1na2vs0mg"},{"bike_id":"f06f6f0f-af3e-4397-9591-9ef0b50b5d15","system_id":"levelo_inurba_marseille","lat":43.28619,"lon":5.35104,"is_reserved":false,"is_disabled":false,"rental_uris":{"android":"levelo://app?vid=f06f6f0f-af3e-4397-9591-9ef0b50b5d15","ios":"levelo://app?vid=f06f6f0f-af3e-4397-9591-9ef0b50b5d15"},"vehicle_type_id":"4","last_reported":1723399907,"current_range_meters":0,"station_id":"ce4bhch2rcd13ifvqeug","pricing_plan_id":"cebpf4jnsgd1na2vs0mg"},{"bike_id":"25a13ac4-4953-45ab-a8e6-6f2102a11c2c","system_id":"levelo_inurba_marseille","lat":43.28617,"lon":5.35102,"is_reserved":false,"is_disabled":false,"rental_uris":{"android":"levelo://app?vid=25a13ac4-4953-45ab-a8e6-6f2102a11c2c","ios":"levelo://app?vid=25a13ac4-4953-45ab-a8e6-6f2102a11c2c"},"vehicle_type_id":"4","last_reported":1723399907,"current_range_meters":0,"station_id":"ce4bhch2rcd13ifvqeug","pricing_plan_id":"cebpf4jnsgd1na2vs0mg"},{"bike_id":"881a4b48-cab8-4a7f-a0a4-be8dd64ca3e9","system_id":"levelo_inurba_marseille","lat":43.28615,"lon":5.35103,"is_reserved":false,"is_disabled":false,"rental_uris":{"android":"levelo://app?vid=881a4b48-cab8-4a7f-a0a4-be8dd64ca3e9","ios":"levelo://app?vid=881a4b48-cab8-4a7f-a0a4-be8dd64ca3e9"},"vehicle_type_id":"4","last_reported":1723399907,"current_range_meters":0,"station_id":"ce4bhch2rcd13ifvqeug","pricing_plan_id":"cebpf4jnsgd1na2vs0mg"},{"bike_id":"656aaf4c-3afb-43e4-92af-8ba99bd629dd","system_id":"levelo_inurba_marseille","lat":43.2841,"lon":5.375017,"is_reserved":false,"is_disabled":false,"rental_uris":{"android":"levelo://app?vid=656aaf4c-3afb-43e4-92af-8ba99bd629dd","ios":"levelo://app?vid=656aaf4c-3afb-43e4-92af-8ba99bd629dd"},"vehicle_type_id":"4","last_reported":1723399907,"current_range_meters":0,"station_id":"ce4bh412rcd13ifvqds0","pricing_plan_id":"cebpf4jnsgd1na2vs0mg"},{"bike_id":"7c1f499f-ba6a-40ad-a58b-964f018fca62","system_id":"levelo_inurba_marseille","lat":43.295713,"lon":5.399639,"is_reserved":false,"is_disabled":false,"rental_uris":{"android":"levelo://app?vid=7c1f499f-ba6a-40ad-a58b-964f018fca62","ios":"levelo://app?vid=7c1f499f-ba6a-40ad-a58b-964f018fca62"},"vehicle_type_id":"4","last_reported":1723399907,"current_range_meters":0,"station_id":"ce4bh312rcd13ifvqdj0","pricing_plan_id":"cebpf4jnsgd1na2vs0mg"},{"bike_id":"2179b089-a7e1-4189-8776-eec95063b1bc","system_id":"levelo_inurba_marseille","lat":43.295713,"lon":5.399639,"is_reserved":false,"is_disabled":false,"rental_uris":{"android":"levelo://app?vid=2179b089-a7e1-4189-8776-eec95063b1bc","ios":"levelo://app?vid=2179b089-a7e1-4189-8776-eec95063b1bc"},"vehicle_type_id":"4","last_reported":1723399907,"current_range_meters":28400,"station_id":"ce4bh312rcd13ifvqdj0","pricing_plan_id":"cebpf4jnsgd1na2vs0mg"},{"bike_id":"7366fe35-a81d-45c9-b8ed-cd9efc101e88","system_id":"levelo_inurba_marseille","lat":43.28404,"lon":5.37507,"is_reserved":false,"is_disabled":false,"rental_uris":{"android":"levelo://app?vid=7366fe35-a81d-45c9-b8ed-cd9efc101e88","ios":"levelo://app?vid=7366fe35-a81d-45c9-b8ed-cd9efc101e88"},"vehicle_type_id":"4","last_reported":1723399907,"current_range_meters":4000,"station_id":"ce4bh412rcd13ifvqds0","pricing_plan_id":"cebpf4jnsgd1na2vs0mg"},{"bike_id":"a8bf2c4f-3702-4f6e-92cb-c7ca3dc11bb1","system_id":"levelo_inurba_marseille","lat":43.295713,"lon":5.399639,"is_reserved":false,"is_disabled":false,"rental_uris":{"android":"levelo://app?vid=a8bf2c4f-3702-4f6e-92cb-c7ca3dc11bb1","ios":"levelo://app?vid=a8bf2c4f-3702-4f6e-92cb-c7ca3dc11bb1"},"vehicle_type_id":"4","last_reported":1723399907,"current_range_meters":0,"station_id":"ce4bh312rcd13ifvqdj0","pricing_plan_id":"cebpf4jnsgd1na2vs0mg"},{"bike_id":"7ef2fb8e-1993-4967-b603-88bc26da33af","system_id":"levelo_inurba_marseille","lat":43.28396,"lon":5.37513,"is_reserved":false,"is_disabled":false,"rental_uris":{"android":"levelo://app?vid=7ef2fb8e-1993-4967-b603-88bc26da33af","ios":"levelo://app?vid=7ef2fb8e-1993-4967-b603-88bc26da33af"},"vehicle_type_id":"4","last_reported":1723399907,"current_range_meters":0,"station_id":"ce4bh412rcd13ifvqds0","pricing_plan_id":"cebpf4jnsgd1na2vs0mg"},{"bike_id":"7b249f9c-992e-4cf9-be4c-c15ff6e3ef81","system_id":"levelo_inurba_marseille","lat":43.290412,"lon":5.399633,"is_reserved":false,"is_disabled":false,"rental_uris":{"android":"levelo://app?vid=7b249f9c-992e-4cf9-be4c-c15ff6e3ef81","ios":"levelo://app?vid=7b249f9c-992e-4cf9-be4c-c15ff6e3ef81"},"vehicle_type_id":"4","last_reported":1723399907,"current_range_meters":0,"station_id":"ce4bh392rcd13ifvqdm0","pricing_plan_id":"cebpf4jnsgd1na2vs0mg"},{"bike_id":"0c36929a-6251-42cc-88aa-0590c622ea3b","system_id":"levelo_inurba_marseille","lat":43.286595,"lon":5.386795,"is_reserved":false,"is_disabled":false,"rental_uris":{"android":"levelo://app?vid=0c36929a-6251-42cc-88aa-0590c622ea3b","ios":"levelo://app?vid=0c36929a-6251-42cc-88aa-0590c622ea3b"},"vehicle_type_id":"4","last_reported":1723399907,"current_range_meters":17600,"station_id":"ce4bh492rcd13ifvqdug","pricing_plan_id":"cebpf4jnsgd1na2vs0mg"},{"bike_id":"6054a324-ead2-4f26-8dd8-b88e342df39c","system_id":"levelo_inurba_marseille","lat":43.286243,"lon":5.385477,"is_reserved":false,"is_disabled":false,"rental_uris":{"android":"levelo://app?vid=6054a324-ead2-4f26-8dd8-b88e342df39c","ios":"levelo://app?vid=6054a324-ead2-4f26-8dd8-b88e342df39c"},"vehicle_type_id":"4","last_reported":1723399907,"current_range_meters":16800,"station_id":"","pricing_plan_id":"cebpf4jnsgd1na2vs0mg"},{"bike_id":"bdb4903c-790d-4e67-9e3b-541082a1293e","system_id":"levelo_inurba_marseille","lat":43.288497,"lon":5.393089,"is_reserved":false,"is_disabled":false,"rental_uris":{"android":"levelo://app?vid=bdb4903c-790d-4e67-9e3b-541082a1293e","ios":"levelo://app?vid=bdb4903c-790d-4e67-9e3b-541082a1293e"},"vehicle_type_id":"4","last_reported":1723399907,"current_range_meters":7600,"station_id":"ce4bh2p2rcd13ifvqdi0","pricing_plan_id":"cebpf4jnsgd1na2vs0mg"},{"bike_id":"96da2f25-7604-4845-bb93-501a8fe3a108","system_id":"levelo_inurba_marseille","lat":43.284787,"lon":5.384116,"is_reserved":false,"is_disabled":false,"rental_uris":{"android":"levelo://app?vid=96da2f25-7604-4845-bb93-501a8fe3a108","ios":"levelo://app?vid=96da2f25-7604-4845-bb93-501a8fe3a108"},"vehicle_type_id":"4","last_reported":1723399907,"current_range_meters":24400,"station_id":"ce4bh512rcd13ifvqe3g","pricing_plan_id":"cebpf4jnsgd1na2vs0mg"},{"bike_id":"4159cafc-4ce6-4648-a465-4cd543c120b8","system_id":"levelo_inurba_marseille","lat":43.28487,"lon":5.38429,"is_reserved":false,"is_disabled":false,"rental_uris":{"android":"levelo://app?vid=4159cafc-4ce6-4648-a465-4cd543c120b8","ios":"levelo://app?vid=4159cafc-4ce6-4648-a465-4cd543c120b8"},"vehicle_type_id":"4","last_reported":1723399907,"current_range_meters":30400,"station_id":"ce4bh512rcd13ifvqe3g","pricing_plan_id":"cebpf4jnsgd1na2vs0mg"},{"bike_id":"8bd7ed5f-2e37-48f7-9bce-6fcc5dcd7edf","system_id":"levelo_inurba_marseille","lat":43.284793,"lon":5.384113,"is_reserved":false,"is_disabled":false,"rental_uris":{"android":"levelo://app?vid=8bd7ed5f-2e37-48f7-9bce-6fcc5dcd7edf","ios":"levelo://app?vid=8bd7ed5f-2e37-48f7-9bce-6fcc5dcd7edf"},"vehicle_type_id":"4","last_reported":1723399907,"current_range_meters":400,"station_id":"ce4bh512rcd13ifvqe3g","pricing_plan_id":"cebpf4jnsgd1na2vs0mg"},{"bike_id":"b2dfd3d7-c223-4a7e-8936-90c1aa03c4b1","system_id":"levelo_inurba_marseille","lat":43.284787,"lon":5.384116,"is_reserved":false,"is_disabled":false,"rental_uris":{"android":"levelo://app?vid=b2dfd3d7-c223-4a7e-8936-90c1aa03c4b1","ios":"levelo://app?vid=b2dfd3d7-c223-4a7e-8936-90c1aa03c4b1"},"vehicle_type_id":"4","last_reported":1723399907,"current_range_meters":22400,"station_id":"ce4bh512rcd13ifvqe3g","pricing_plan_id":"cebpf4jnsgd1na2vs0mg"},{"bike_id":"c195ea64-2442-4e29-8fc3-605383b72efe","system_id":"levelo_inurba_marseille","lat":43.28471,"lon":5.38418,"is_reserved":false,"is_disabled":false,"rental_uris":{"android":"levelo://app?vid=c195ea64-2442-4e29-8fc3-605383b72efe","ios":"levelo://app?vid=c195ea64-2442-4e29-8fc3-605383b72efe"},"vehicle_type_id":"4","last_reported":1723399907,"current_range_meters":0,"station_id":"ce4bh512rcd13ifvqe3g","pricing_plan_id":"cebpf4jnsgd1na2vs0mg"},{"bike_id":"e4a46ff9-17fc-4270-be85-149a773b2afb","system_id":"levelo_inurba_marseille","lat":43.29795,"lon":5.404086,"is_reserved":false,"is_disabled":false,"rental_uris":{"android":"levelo://app?vid=e4a46ff9-17fc-4270-be85-149a773b2afb","ios":"levelo://app?vid=e4a46ff9-17fc-4270-be85-149a773b2afb"},"vehicle_type_id":"4","last_reported":1723399907,"current_range_meters":2400,"station_id":"ce4bh112rcd13ifvqd90","pricing_plan_id":"cebpf4jnsgd1na2vs0mg"},{"bike_id":"bd2da560-22cb-4fd3-87c0-22d6099d871b","system_id":"levelo_inurba_marseille","lat":43.288501,"lon":5.393087,"is_reserved":false,"is_disabled":false,"rental_uris":{"android":"levelo://app?vid=bd2da560-22cb-4fd3-87c0-22d6099d871b","ios":"levelo://app?vid=bd2da560-22cb-4fd3-87c0-22d6099d871b"},"vehicle_type_id":"4","last_reported":1723399907,"current_range_meters":16400,"station_id":"ce4bh2p2rcd13ifvqdi0","pricing_plan_id":"cebpf4jnsgd1na2vs0mg"},{"bike_id":"50747847-07eb-48b4-a915-0ebdaa9f328e","system_id":"levelo_inurba_marseille","lat":43.28454,"lon":5.34957,"is_reserved":false,"is_disabled":false,"rental_uris":{"android":"levelo://app?vid=50747847-07eb-48b4-a915-0ebdaa9f328e","ios":"levelo://app?vid=50747847-07eb-48b4-a915-0ebdaa9f328e"},"vehicle_type_id":"4","last_reported":1723399907,"current_range_meters":23200,"station_id":"ce4bhbh2rcd13ifvqepg","pricing_plan_id":"cebpf4jnsgd1na2vs0mg"},{"bike_id":"d30dff41-7911-43ee-a226-3ac383a0119b","system_id":"levelo_inurba_marseille","lat":43.288759,"lon":5.393799,"is_reserved":false,"is_disabled":false,"rental_uris":{"android":"levelo://app?vid=d30dff41-7911-43ee-a226-3ac383a0119b","ios":"levelo://app?vid=d30dff41-7911-43ee-a226-3ac383a0119b"},"vehicle_type_id":"4","last_reported":1723399907,"current_range_meters":0,"station_id":"","pricing_plan_id":"cebpf4jnsgd1na2vs0mg"},{"bike_id":"91a1890a-c4be-4af4-a2e1-0bf74f6af703","system_id":"levelo_inurba_marseille","lat":43.283498,"lon":5.380948,"is_reserved":false,"is_disabled":false,"rental_uris":{"android":"levelo://app?vid=91a1890a-c4be-4af4-a2e1-0bf74f6af703","ios":"levelo://app?vid=91a1890a-c4be-4af4-a2e1-0bf74f6af703"},"vehicle_type_id":"4","last_reported":1723399907,"current_range_meters":8000,"station_id":"ce4bh412rcd13ifvqdr0","pricing_plan_id":"cebpf4jnsgd1na2vs0mg"},{"bike_id":"d3705b1a-5c3f-4c68-bd7b-e07d4d77ecfa","system_id":"levelo_inurba_marseille","lat":43.28477,"lon":5.38541,"is_reserved":false,"is_disabled":false,"rental_uris":{"android":"levelo://app?vid=d3705b1a-5c3f-4c68-bd7b-e07d4d77ecfa","ios":"levelo://app?vid=d3705b1a-5c3f-4c68-bd7b-e07d4d77ecfa"},"vehicle_type_id":"4","last_reported":1723399907,"current_range_meters":0,"station_id":"ce4bh8p2rcd13ifvqeb0","pricing_plan_id":"cebpf4jnsgd1na2vs0mg"},{"bike_id":"ab1d7dc0-c411-4da3-bf27-30c30ad1794a","system_id":"levelo_inurba_marseille","lat":43.284219,"lon":5.3497,"is_reserved":false,"is_disabled":false,"rental_uris":{"android":"levelo://app?vid=ab1d7dc0-c411-4da3-bf27-30c30ad1794a","ios":"levelo://app?vid=ab1d7dc0-c411-4da3-bf27-30c30ad1794a"},"vehicle_type_id":"4","last_reported":1723399907,"current_range_meters":0,"station_id":"ce4bhbh2rcd13ifvqepg","pricing_plan_id":"cebpf4jnsgd1na2vs0mg"},{"bike_id":"e46bec30-0c72-47a9-aaa6-c849c4ace782","system_id":"levelo_inurba_marseille","lat":43.284219,"lon":5.3497,"is_reserved":false,"is_disabled":false,"rental_uris":{"android":"levelo://app?vid=e46bec30-0c72-47a9-aaa6-c849c4ace782","ios":"levelo://app?vid=e46bec30-0c72-47a9-aaa6-c849c4ace782"},"vehicle_type_id":"4","last_reported":1723399907,"current_range_meters":2800,"station_id":"ce4bhbh2rcd13ifvqepg","pricing_plan_id":"cebpf4jnsgd1na2vs0mg"},{"bike_id":"d338c6d2-ece2-4318-b227-27a177218931","system_id":"levelo_inurba_marseille","lat":43.284217,"lon":5.349697,"is_reserved":false,"is_disabled":false,"rental_uris":{"android":"levelo://app?vid=d338c6d2-ece2-4318-b227-27a177218931","ios":"levelo://app?vid=d338c6d2-ece2-4318-b227-27a177218931"},"vehicle_type_id":"4","last_reported":1723399907,"current_range_meters":6400,"station_id":"ce4bhbh2rcd13ifvqepg","pricing_plan_id":"cebpf4jnsgd1na2vs0mg"},{"bike_id":"88a869aa-9c8c-4862-adc5-f50729dc8f01","system_id":"levelo_inurba_marseille","lat":43.28415,"lon":5.34976,"is_reserved":false,"is_disabled":false,"rental_uris":{"android":"levelo://app?vid=88a869aa-9c8c-4862-adc5-f50729dc8f01","ios":"levelo://app?vid=88a869aa-9c8c-4862-adc5-f50729dc8f01"},"vehicle_type_id":"4","last_reported":1723399907,"current_range_meters":0,"station_id":"ce4bhbh2rcd13ifvqepg","pricing_plan_id":"cebpf4jnsgd1na2vs0mg"},{"bike_id":"a9bda689-de60-4920-963a-a661e1952161","system_id":"levelo_inurba_marseille","lat":43.2827,"lon":5.35061,"is_reserved":false,"is_disabled":false,"rental_uris":{"android":"levelo://app?vid=a9bda689-de60-4920-963a-a661e1952161","ios":"levelo://app?vid=a9bda689-de60-4920-963a-a661e1952161"},"vehicle_type_id":"4","last_reported":1723399907,"current_range_meters":0,"station_id":"ce4bhbp2rcd13ifvqerg","pricing_plan_id":"cebpf4jnsgd1na2vs0mg"},{"bike_id":"4e21a31c-a13d-4a40-a743-cc4018b05fce","system_id":"levelo_inurba_marseille","lat":43.282744,"lon":5.350533,"is_reserved":false,"is_disabled":false,"rental_uris":{"android":"levelo://app?vid=4e21a31c-a13d-4a40-a743-cc4018b05fce","ios":"levelo://app?vid=4e21a31c-a13d-4a40-a743-cc4018b05fce"},"vehicle_type_id":"4","last_reported":1723399907,"current_range_meters":0,"station_id":"ce4bhbp2rcd13ifvqerg","pricing_plan_id":"cebpf4jnsgd1na2vs0mg"},{"bike_id":"704e498c-7b39-4a6a-8b85-4d8f0806fccd","system_id":"levelo_inurba_marseille","lat":43.283502,"lon":5.386471,"is_reserved":false,"is_disabled":false,"rental_uris":{"android":"levelo://app?vid=704e498c-7b39-4a6a-8b85-4d8f0806fccd","ios":"levelo://app?vid=704e498c-7b39-4a6a-8b85-4d8f0806fccd"},"vehicle_type_id":"4","last_reported":1723399907,"current_range_meters":5600,"station_id":"ce4bh492rcd13ifvqdvg","pricing_plan_id":"cebpf4jnsgd1na2vs0mg"},{"bike_id":"22621c84-3453-4ee1-9444-0a2e8f39e884","system_id":"levelo_inurba_marseille","lat":43.28268,"lon":5.35049,"is_reserved":false,"is_disabled":false,"rental_uris":{"android":"levelo://app?vid=22621c84-3453-4ee1-9444-0a2e8f39e884","ios":"levelo://app?vid=22621c84-3453-4ee1-9444-0a2e8f39e884"},"vehicle_type_id":"4","last_reported":1723399907,"current_range_meters":17200,"station_id":"ce4bhbp2rcd13ifvqerg","pricing_plan_id":"cebpf4jnsgd1na2vs0mg"},{"bike_id":"6b28f23a-902d-4fe6-b93e-49b54d1b3e9e","system_id":"levelo_inurba_marseille","lat":43.28265,"lon":5.35057,"is_reserved":false,"is_disabled":false,"rental_uris":{"android":"levelo://app?vid=6b28f23a-902d-4fe6-b93e-49b54d1b3e9e","ios":"levelo://app?vid=6b28f23a-902d-4fe6-b93e-49b54d1b3e9e"},"vehicle_type_id":"4","last_reported":1723399907,"current_range_meters":31200,"station_id":"ce4bhbp2rcd13ifvqerg","pricing_plan_id":"cebpf4jnsgd1na2vs0mg"},{"bike_id":"c0a9d111-3374-40d0-ba5d-d986598ac3c3","system_id":"levelo_inurba_marseille","lat":43.283502,"lon":5.386471,"is_reserved":false,"is_disabled":false,"rental_uris":{"android":"levelo://app?vid=c0a9d111-3374-40d0-ba5d-d986598ac3c3","ios":"levelo://app?vid=c0a9d111-3374-40d0-ba5d-d986598ac3c3"},"vehicle_type_id":"4","last_reported":1723399907,"current_range_meters":25600,"station_id":"ce4bh492rcd13ifvqdvg","pricing_plan_id":"cebpf4jnsgd1na2vs0mg"},{"bike_id":"eaf08411-d795-4ae6-b9b2-88d14df18ad4","system_id":"levelo_inurba_marseille","lat":43.28039,"lon":5.36933,"is_reserved":false,"is_disabled":false,"rental_uris":{"android":"levelo://app?vid=eaf08411-d795-4ae6-b9b2-88d14df18ad4","ios":"levelo://app?vid=eaf08411-d795-4ae6-b9b2-88d14df18ad4"},"vehicle_type_id":"4","last_reported":1723399907,"current_range_meters":20000,"station_id":"ce4bha12rcd13ifvqef0","pricing_plan_id":"cebpf4jnsgd1na2vs0mg"},{"bike_id":"7aa2183d-c24e-4220-b6d0-7c4d50a0dc0f","system_id":"levelo_inurba_marseille","lat":43.28038,"lon":5.369415,"is_reserved":false,"is_disabled":false,"rental_uris":{"android":"levelo://app?vid=7aa2183d-c24e-4220-b6d0-7c4d50a0dc0f","ios":"levelo://app?vid=7aa2183d-c24e-4220-b6d0-7c4d50a0dc0f"},"vehicle_type_id":"4","last_reported":1723399907,"current_range_meters":29200,"station_id":"ce4bha12rcd13ifvqef0","pricing_plan_id":"cebpf4jnsgd1na2vs0mg"},{"bike_id":"838ec9c1-80d4-4dad-bcd0-179097851524","system_id":"levelo_inurba_marseille","lat":43.28037,"lon":5.36939,"is_reserved":false,"is_disabled":false,"rental_uris":{"android":"levelo://app?vid=838ec9c1-80d4-4dad-bcd0-179097851524","ios":"levelo://app?vid=838ec9c1-80d4-4dad-bcd0-179097851524"},"vehicle_type_id":"4","last_reported":1723399907,"current_range_meters":16400,"station_id":"ce4bha12rcd13ifvqef0","pricing_plan_id":"cebpf4jnsgd1na2vs0mg"},{"bike_id":"ff9b1c21-37f9-4a83-ac49-3738e5ee4a0f","system_id":"levelo_inurba_marseille","lat":43.279952,"lon":5.400085,"is_reserved":false,"is_disabled":false,"rental_uris":{"android":"levelo://app?vid=ff9b1c21-37f9-4a83-ac49-3738e5ee4a0f","ios":"levelo://app?vid=ff9b1c21-37f9-4a83-ac49-3738e5ee4a0f"},"vehicle_type_id":"4","last_reported":1723399907,"current_range_meters":4800,"station_id":"ce4bho92rcd13ifvqh4g","pricing_plan_id":"cebpf4jnsgd1na2vs0mg"},{"bike_id":"45c2628a-07a0-41af-bd9c-8e78925c929f","system_id":"levelo_inurba_marseille","lat":43.290412,"lon":5.399633,"is_reserved":false,"is_disabled":false,"rental_uris":{"android":"levelo://app?vid=45c2628a-07a0-41af-bd9c-8e78925c929f","ios":"levelo://app?vid=45c2628a-07a0-41af-bd9c-8e78925c929f"},"vehicle_type_id":"4","last_reported":1723399907,"current_range_meters":17200,"station_id":"ce4bh392rcd13ifvqdm0","pricing_plan_id":"cebpf4jnsgd1na2vs0mg"},{"bike_id":"5a578faf-41d5-4ab0-9f01-b9f78c2ee94e","system_id":"levelo_inurba_marseille","lat":43.290412,"lon":5.399633,"is_reserved":false,"is_disabled":false,"rental_uris":{"android":"levelo://app?vid=5a578faf-41d5-4ab0-9f01-b9f78c2ee94e","ios":"levelo://app?vid=5a578faf-41d5-4ab0-9f01-b9f78c2ee94e"},"vehicle_type_id":"4","last_reported":1723399907,"current_range_meters":22400,"station_id":"ce4bh392rcd13ifvqdm0","pricing_plan_id":"cebpf4jnsgd1na2vs0mg"},{"bike_id":"59208d76-6b53-49f5-8f6f-d6f51f892105","system_id":"levelo_inurba_marseille","lat":43.290412,"lon":5.399633,"is_reserved":false,"is_disabled":false,"rental_uris":{"android":"levelo://app?vid=59208d76-6b53-49f5-8f6f-d6f51f892105","ios":"levelo://app?vid=59208d76-6b53-49f5-8f6f-d6f51f892105"},"vehicle_type_id":"4","last_reported":1723399907,"current_range_meters":14400,"station_id":"ce4bh392rcd13ifvqdm0","pricing_plan_id":"cebpf4jnsgd1na2vs0mg"},{"bike_id":"731ccf83-e7f9-4fc5-88ac-d06b0217d2c0","system_id":"levelo_inurba_marseille","lat":43.281044,"lon":5.378308,"is_reserved":false,"is_disabled":false,"rental_uris":{"android":"levelo://app?vid=731ccf83-e7f9-4fc5-88ac-d06b0217d2c0","ios":"levelo://app?vid=731ccf83-e7f9-4fc5-88ac-d06b0217d2c0"},"vehicle_type_id":"4","last_reported":1723399907,"current_range_meters":18800,"station_id":"ce4bha12rcd13ifvqee0","pricing_plan_id":"cebpf4jnsgd1na2vs0mg"},{"bike_id":"3d1c0f26-83ff-404b-b2c2-2bdaaef12a3b","system_id":"levelo_inurba_marseille","lat":43.290412,"lon":5.399633,"is_reserved":false,"is_disabled":false,"rental_uris":{"android":"levelo://app?vid=3d1c0f26-83ff-404b-b2c2-2bdaaef12a3b","ios":"levelo://app?vid=3d1c0f26-83ff-404b-b2c2-2bdaaef12a3b"},"vehicle_type_id":"4","last_reported":1723399907,"current_range_meters":2800,"station_id":"ce4bh392rcd13ifvqdm0","pricing_plan_id":"cebpf4jnsgd1na2vs0mg"},{"bike_id":"5452d187-dedb-464c-b3d3-63b9ace2e357","system_id":"levelo_inurba_marseille","lat":43.281044,"lon":5.378308,"is_reserved":false,"is_disabled":false,"rental_uris":{"android":"levelo://app?vid=5452d187-dedb-464c-b3d3-63b9ace2e357","ios":"levelo://app?vid=5452d187-dedb-464c-b3d3-63b9ace2e357"},"vehicle_type_id":"4","last_reported":1723399907,"current_range_meters":21200,"station_id":"ce4bha12rcd13ifvqee0","pricing_plan_id":"cebpf4jnsgd1na2vs0mg"},{"bike_id":"0051a9f0-439d-439e-94a5-87d8cc531431","system_id":"levelo_inurba_marseille","lat":43.29638,"lon":5.406,"is_reserved":false,"is_disabled":false,"rental_uris":{"android":"levelo://app?vid=0051a9f0-439d-439e-94a5-87d8cc531431","ios":"levelo://app?vid=0051a9f0-439d-439e-94a5-87d8cc531431"},"vehicle_type_id":"4","last_reported":1723399907,"current_range_meters":0,"station_id":"ce4bh0h2rcd13ifvqd60","pricing_plan_id":"cebpf4jnsgd1na2vs0mg"},{"bike_id":"3ec0402e-9c21-40da-a3ea-fcca9a8b3ce6","system_id":"levelo_inurba_marseille","lat":43.284462,"lon":5.392121,"is_reserved":false,"is_disabled":false,"rental_uris":{"android":"levelo://app?vid=3ec0402e-9c21-40da-a3ea-fcca9a8b3ce6","ios":"levelo://app?vid=3ec0402e-9c21-40da-a3ea-fcca9a8b3ce6"},"vehicle_type_id":"4","last_reported":1723399907,"current_range_meters":0,"station_id":"ce4bhoh2rcd13ifvqh5g","pricing_plan_id":"cebpf4jnsgd1na2vs0mg"},{"bike_id":"bea70f5b-8f5b-436f-91e8-af22d736274f","system_id":"levelo_inurba_marseille","lat":43.2805,"lon":5.3533,"is_reserved":false,"is_disabled":false,"rental_uris":{"android":"levelo://app?vid=bea70f5b-8f5b-436f-91e8-af22d736274f","ios":"levelo://app?vid=bea70f5b-8f5b-436f-91e8-af22d736274f"},"vehicle_type_id":"4","last_reported":1723399907,"current_range_meters":14800,"station_id":"","pricing_plan_id":"cebpf4jnsgd1na2vs0mg"},{"bike_id":"f81a1333-c56a-4d0b-a0a2-bb9674ad95d7","system_id":"levelo_inurba_marseille","lat":43.3042,"lon":5.41277,"is_reserved":false,"is_disabled":false,"rental_uris":{"android":"levelo://app?vid=f81a1333-c56a-4d0b-a0a2-bb9674ad95d7","ios":"levelo://app?vid=f81a1333-c56a-4d0b-a0a2-bb9674ad95d7"},"vehicle_type_id":"4","last_reported":1723399907,"current_range_meters":0,"station_id":"ce4bhop2rcd13ifvqh8g","pricing_plan_id":"cebpf4jnsgd1na2vs0mg"},{"bike_id":"d3286d14-0abc-4118-9759-8430db0d579c","system_id":"levelo_inurba_marseille","lat":43.280748,"lon":5.347613,"is_reserved":false,"is_disabled":false,"rental_uris":{"android":"levelo://app?vid=d3286d14-0abc-4118-9759-8430db0d579c","ios":"levelo://app?vid=d3286d14-0abc-4118-9759-8430db0d579c"},"vehicle_type_id":"4","last_reported":1723399907,"current_range_meters":18000,"station_id":"","pricing_plan_id":"cebpf4jnsgd1na2vs0mg"},{"bike_id":"4e71353a-0b90-4386-bb5d-408c766c1c64","system_id":"levelo_inurba_marseille","lat":43.279087,"lon":5.380114,"is_reserved":false,"is_disabled":false,"rental_uris":{"android":"levelo://app?vid=4e71353a-0b90-4386-bb5d-408c766c1c64","ios":"levelo://app?vid=4e71353a-0b90-4386-bb5d-408c766c1c64"},"vehicle_type_id":"4","last_reported":1723399907,"current_range_meters":6800,"station_id":"ce4bhf92rcd13ifvqf50","pricing_plan_id":"cebpf4jnsgd1na2vs0mg"},{"bike_id":"8948e793-f35d-4a69-a72e-8059cb74c05d","system_id":"levelo_inurba_marseille","lat":43.28063,"lon":5.34766,"is_reserved":false,"is_disabled":false,"rental_uris":{"android":"levelo://app?vid=8948e793-f35d-4a69-a72e-8059cb74c05d","ios":"levelo://app?vid=8948e793-f35d-4a69-a72e-8059cb74c05d"},"vehicle_type_id":"4","last_reported":1723399907,"current_range_meters":15600,"station_id":"","pricing_plan_id":"cebpf4jnsgd1na2vs0mg"},{"bike_id":"92c15e79-72d7-4140-838e-dd57dc760b86","system_id":"levelo_inurba_marseille","lat":43.279017,"lon":5.380115,"is_reserved":false,"is_disabled":false,"rental_uris":{"android":"levelo://app?vid=92c15e79-72d7-4140-838e-dd57dc760b86","ios":"levelo://app?vid=92c15e79-72d7-4140-838e-dd57dc760b86"},"vehicle_type_id":"4","last_reported":1723399907,"current_range_meters":9600,"station_id":"","pricing_plan_id":"cebpf4jnsgd1na2vs0mg"},{"bike_id":"90de5895-2a20-48bc-930f-3ff52119591a","system_id":"levelo_inurba_marseille","lat":43.287154,"lon":5.399979,"is_reserved":false,"is_disabled":false,"rental_uris":{"android":"levelo://app?vid=90de5895-2a20-48bc-930f-3ff52119591a","ios":"levelo://app?vid=90de5895-2a20-48bc-930f-3ff52119591a"},"vehicle_type_id":"4","last_reported":1723399907,"current_range_meters":6000,"station_id":"ce4bho92rcd13ifvqh3g","pricing_plan_id":"cebpf4jnsgd1na2vs0mg"},{"bike_id":"ecd76627-e798-47fa-bb8a-80b33c91f972","system_id":"levelo_inurba_marseille","lat":43.279742,"lon":5.38744,"is_reserved":false,"is_disabled":false,"rental_uris":{"android":"levelo://app?vid=ecd76627-e798-47fa-bb8a-80b33c91f972","ios":"levelo://app?vid=ecd76627-e798-47fa-bb8a-80b33c91f972"},"vehicle_type_id":"4","last_reported":1723399907,"current_range_meters":0,"station_id":"ce4bhg12rcd13ifvqf80","pricing_plan_id":"cebpf4jnsgd1na2vs0mg"},{"bike_id":"74432f42-593f-4389-bdd1-31ace6dc4a65","system_id":"levelo_inurba_marseille","lat":43.279742,"lon":5.38744,"is_reserved":false,"is_disabled":false,"rental_uris":{"android":"levelo://app?vid=74432f42-593f-4389-bdd1-31ace6dc4a65","ios":"levelo://app?vid=74432f42-593f-4389-bdd1-31ace6dc4a65"},"vehicle_type_id":"4","last_reported":1723399907,"current_range_meters":400,"station_id":"ce4bhg12rcd13ifvqf80","pricing_plan_id":"cebpf4jnsgd1na2vs0mg"},{"bike_id":"bbbec359-6110-4eb8-9aa8-e601ab117b46","system_id":"levelo_inurba_marseille","lat":43.279742,"lon":5.38744,"is_reserved":false,"is_disabled":false,"rental_uris":{"android":"levelo://app?vid=bbbec359-6110-4eb8-9aa8-e601ab117b46","ios":"levelo://app?vid=bbbec359-6110-4eb8-9aa8-e601ab117b46"},"vehicle_type_id":"4","last_reported":1723399907,"current_range_meters":19200,"station_id":"ce4bhg12rcd13ifvqf80","pricing_plan_id":"cebpf4jnsgd1na2vs0mg"},{"bike_id":"69c2c08f-4a79-40aa-aec9-5ae9759ed9ee","system_id":"levelo_inurba_marseille","lat":43.279742,"lon":5.38744,"is_reserved":false,"is_disabled":false,"rental_uris":{"android":"levelo://app?vid=69c2c08f-4a79-40aa-aec9-5ae9759ed9ee","ios":"levelo://app?vid=69c2c08f-4a79-40aa-aec9-5ae9759ed9ee"},"vehicle_type_id":"4","last_reported":1723399907,"current_range_meters":400,"station_id":"ce4bhg12rcd13ifvqf80","pricing_plan_id":"cebpf4jnsgd1na2vs0mg"},{"bike_id":"982faa08-c39c-4d27-88d4-35d892326ed8","system_id":"levelo_inurba_marseille","lat":43.279742,"lon":5.38744,"is_reserved":false,"is_disabled":false,"rental_uris":{"android":"levelo://app?vid=982faa08-c39c-4d27-88d4-35d892326ed8","ios":"levelo://app?vid=982faa08-c39c-4d27-88d4-35d892326ed8"},"vehicle_type_id":"4","last_reported":1723399907,"current_range_meters":25200,"station_id":"ce4bhg12rcd13ifvqf80","pricing_plan_id":"cebpf4jnsgd1na2vs0mg"},{"bike_id":"7a31e3ec-7d51-4e29-abc1-1406944dbd23","system_id":"levelo_inurba_marseille","lat":43.292569,"lon":5.409107,"is_reserved":false,"is_disabled":false,"rental_uris":{"android":"levelo://app?vid=7a31e3ec-7d51-4e29-abc1-1406944dbd23","ios":"levelo://app?vid=7a31e3ec-7d51-4e29-abc1-1406944dbd23"},"vehicle_type_id":"4","last_reported":1723399907,"current_range_meters":1200,"station_id":"ce4bh192rcd13ifvqdc0","pricing_plan_id":"cebpf4jnsgd1na2vs0mg"},{"bike_id":"63068a40-de58-4abf-b4f2-e03d765e03ed","system_id":"levelo_inurba_marseille","lat":43.292569,"lon":5.409107,"is_reserved":false,"is_disabled":false,"rental_uris":{"android":"levelo://app?vid=63068a40-de58-4abf-b4f2-e03d765e03ed","ios":"levelo://app?vid=63068a40-de58-4abf-b4f2-e03d765e03ed"},"vehicle_type_id":"4","last_reported":1723399907,"current_range_meters":21600,"station_id":"ce4bh192rcd13ifvqdc0","pricing_plan_id":"cebpf4jnsgd1na2vs0mg"},{"bike_id":"061d8f56-34a3-44e8-b041-9b08e4c12786","system_id":"levelo_inurba_marseille","lat":43.29249,"lon":5.40911,"is_reserved":false,"is_disabled":false,"rental_uris":{"android":"levelo://app?vid=061d8f56-34a3-44e8-b041-9b08e4c12786","ios":"levelo://app?vid=061d8f56-34a3-44e8-b041-9b08e4c12786"},"vehicle_type_id":"4","last_reported":1723399907,"current_range_meters":0,"station_id":"ce4bh192rcd13ifvqdc0","pricing_plan_id":"cebpf4jnsgd1na2vs0mg"},{"bike_id":"1e100dbe-c53c-4838-8aed-8fa5f18950f6","system_id":"levelo_inurba_marseille","lat":43.27618,"lon":5.361009,"is_reserved":false,"is_disabled":false,"rental_uris":{"android":"levelo://app?vid=1e100dbe-c53c-4838-8aed-8fa5f18950f6","ios":"levelo://app?vid=1e100dbe-c53c-4838-8aed-8fa5f18950f6"},"vehicle_type_id":"4","last_reported":1723399907,"current_range_meters":12400,"station_id":"ce4bgj92rcd13ifvqbe0","pricing_plan_id":"cebpf4jnsgd1na2vs0mg"},{"bike_id":"ba0b677d-6843-473c-a11f-a0fc72885a2a","system_id":"levelo_inurba_marseille","lat":43.27618,"lon":5.361009,"is_reserved":false,"is_disabled":false,"rental_uris":{"android":"levelo://app?vid=ba0b677d-6843-473c-a11f-a0fc72885a2a","ios":"levelo://app?vid=ba0b677d-6843-473c-a11f-a0fc72885a2a"},"vehicle_type_id":"4","last_reported":1723399907,"current_range_meters":28000,"station_id":"ce4bgj92rcd13ifvqbe0","pricing_plan_id":"cebpf4jnsgd1na2vs0mg"},{"bike_id":"61d89c95-1f4a-48f9-9fbe-de735515bb21","system_id":"levelo_inurba_marseille","lat":43.273809,"lon":5.362537,"is_reserved":false,"is_disabled":false,"rental_uris":{"android":"levelo://app?vid=61d89c95-1f4a-48f9-9fbe-de735515bb21","ios":"levelo://app?vid=61d89c95-1f4a-48f9-9fbe-de735515bb21"},"vehicle_type_id":"4","last_reported":1723399907,"current_range_meters":27600,"station_id":"ce4bhbh2rcd13ifvqeo0","pricing_plan_id":"cebpf4jnsgd1na2vs0mg"},{"bike_id":"66c032a2-c2c3-480e-84ad-6cbbdfc4c36b","system_id":"levelo_inurba_marseille","lat":43.2738,"lon":5.36244,"is_reserved":false,"is_disabled":false,"rental_uris":{"android":"levelo://app?vid=66c032a2-c2c3-480e-84ad-6cbbdfc4c36b","ios":"levelo://app?vid=66c032a2-c2c3-480e-84ad-6cbbdfc4c36b"},"vehicle_type_id":"4","last_reported":1723399907,"current_range_meters":24800,"station_id":"ce4bhbh2rcd13ifvqeo0","pricing_plan_id":"cebpf4jnsgd1na2vs0mg"},{"bike_id":"899b346f-f63c-4d4b-a231-646b29eaf32e","system_id":"levelo_inurba_marseille","lat":43.293009,"lon":5.374584,"is_reserved":false,"is_disabled":false,"rental_uris":{"android":"levelo://app?vid=899b346f-f63c-4d4b-a231-646b29eaf32e","ios":"levelo://app?vid=899b346f-f63c-4d4b-a231-646b29eaf32e"},"vehicle_type_id":"4","last_reported":1723399907,"current_range_meters":0,"station_id":"ce4bgi12rcd13ifvqb70","pricing_plan_id":"cebpf4jnsgd1na2vs0mg"},{"bike_id":"9071b116-a352-44f5-9f47-e58f5305f492","system_id":"levelo_inurba_marseille","lat":43.27376,"lon":5.36246,"is_reserved":false,"is_disabled":false,"rental_uris":{"android":"levelo://app?vid=9071b116-a352-44f5-9f47-e58f5305f492","ios":"levelo://app?vid=9071b116-a352-44f5-9f47-e58f5305f492"},"vehicle_type_id":"4","last_reported":1723399907,"current_range_meters":27600,"station_id":"ce4bhbh2rcd13ifvqeo0","pricing_plan_id":"cebpf4jnsgd1na2vs0mg"},{"bike_id":"e0901117-b4d8-4319-b76b-f7bed6d98b12","system_id":"levelo_inurba_marseille","lat":43.27373,"lon":5.36264,"is_reserved":false,"is_disabled":false,"rental_uris":{"android":"levelo://app?vid=e0901117-b4d8-4319-b76b-f7bed6d98b12","ios":"levelo://app?vid=e0901117-b4d8-4319-b76b-f7bed6d98b12"},"vehicle_type_id":"4","last_reported":1723399907,"current_range_meters":26400,"station_id":"ce4bhbh2rcd13ifvqeo0","pricing_plan_id":"cebpf4jnsgd1na2vs0mg"},{"bike_id":"2c00f1d0-2788-4127-98b4-0ff8e3ccc256","system_id":"levelo_inurba_marseille","lat":43.273724,"lon":5.362635,"is_reserved":false,"is_disabled":false,"rental_uris":{"android":"levelo://app?vid=2c00f1d0-2788-4127-98b4-0ff8e3ccc256","ios":"levelo://app?vid=2c00f1d0-2788-4127-98b4-0ff8e3ccc256"},"vehicle_type_id":"4","last_reported":1723399907,"current_range_meters":26400,"station_id":"ce4bhbh2rcd13ifvqeo0","pricing_plan_id":"cebpf4jnsgd1na2vs0mg"},{"bike_id":"92ca93e3-970a-4252-a833-9c72faad1302","system_id":"levelo_inurba_marseille","lat":43.336134,"lon":5.410341,"is_reserved":false,"is_disabled":false,"rental_uris":{"android":"levelo://app?vid=92ca93e3-970a-4252-a833-9c72faad1302","ios":"levelo://app?vid=92ca93e3-970a-4252-a833-9c72faad1302"},"vehicle_type_id":"4","last_reported":1723399907,"current_range_meters":24000,"station_id":"ce4bhqh2rcd13ifvqhmg","pricing_plan_id":"cebpf4jnsgd1na2vs0mg"},{"bike_id":"e367502a-294a-441a-88c3-483c97a3c1a5","system_id":"levelo_inurba_marseille","lat":43.336134,"lon":5.410341,"is_reserved":false,"is_disabled":false,"rental_uris":{"android":"levelo://app?vid=e367502a-294a-441a-88c3-483c97a3c1a5","ios":"levelo://app?vid=e367502a-294a-441a-88c3-483c97a3c1a5"},"vehicle_type_id":"4","last_reported":1723399907,"current_range_meters":3200,"station_id":"ce4bhqh2rcd13ifvqhmg","pricing_plan_id":"cebpf4jnsgd1na2vs0mg"},{"bike_id":"0e6a8fef-46e3-4817-9fd8-cb9bc5cf9112","system_id":"levelo_inurba_marseille","lat":43.27668,"lon":5.38906,"is_reserved":false,"is_disabled":false,"rental_uris":{"android":"levelo://app?vid=0e6a8fef-46e3-4817-9fd8-cb9bc5cf9112","ios":"levelo://app?vid=0e6a8fef-46e3-4817-9fd8-cb9bc5cf9112"},"vehicle_type_id":"4","last_reported":1723399907,"current_range_meters":28400,"station_id":"ce4bhi12rcd13ifvqfo0","pricing_plan_id":"cebpf4jnsgd1na2vs0mg"},{"bike_id":"6fae9c1b-9a15-40d9-b123-e6b907da1c5d","system_id":"levelo_inurba_marseille","lat":43.2792,"lon":5.39568,"is_reserved":false,"is_disabled":false,"rental_uris":{"android":"levelo://app?vid=6fae9c1b-9a15-40d9-b123-e6b907da1c5d","ios":"levelo://app?vid=6fae9c1b-9a15-40d9-b123-e6b907da1c5d"},"vehicle_type_id":"4","last_reported":1723399907,"current_range_meters":29600,"station_id":"ce4bhf92rcd13ifvqf40","pricing_plan_id":"cebpf4jnsgd1na2vs0mg"},{"bike_id":"d7139ed4-22b2-4b01-86f7-8ef27913d39d","system_id":"levelo_inurba_marseille","lat":43.279185,"lon":5.395692,"is_reserved":false,"is_disabled":false,"rental_uris":{"android":"levelo://app?vid=d7139ed4-22b2-4b01-86f7-8ef27913d39d","ios":"levelo://app?vid=d7139ed4-22b2-4b01-86f7-8ef27913d39d"},"vehicle_type_id":"4","last_reported":1723399907,"current_range_meters":30800,"station_id":"ce4bhf92rcd13ifvqf40","pricing_plan_id":"cebpf4jnsgd1na2vs0mg"},{"bike_id":"f0ef4f25-a8e6-42c1-8884-18d65143cfa3","system_id":"levelo_inurba_marseille","lat":43.28204,"lon":5.40343,"is_reserved":false,"is_disabled":false,"rental_uris":{"android":"levelo://app?vid=f0ef4f25-a8e6-42c1-8884-18d65143cfa3","ios":"levelo://app?vid=f0ef4f25-a8e6-42c1-8884-18d65143cfa3"},"vehicle_type_id":"4","last_reported":1723399907,"current_range_meters":0,"station_id":"","pricing_plan_id":"cebpf4jnsgd1na2vs0mg"},{"bike_id":"9afe80cd-0843-4065-aac9-6b8f40c1b718","system_id":"levelo_inurba_marseille","lat":43.279975,"lon":5.40009,"is_reserved":false,"is_disabled":false,"rental_uris":{"android":"levelo://app?vid=9afe80cd-0843-4065-aac9-6b8f40c1b718","ios":"levelo://app?vid=9afe80cd-0843-4065-aac9-6b8f40c1b718"},"vehicle_type_id":"4","last_reported":1723399907,"current_range_meters":24000,"station_id":"ce4bho92rcd13ifvqh4g","pricing_plan_id":"cebpf4jnsgd1na2vs0mg"},{"bike_id":"98274f24-72a6-4a87-9b78-0975b5627a05","system_id":"levelo_inurba_marseille","lat":43.279952,"lon":5.400085,"is_reserved":false,"is_disabled":false,"rental_uris":{"android":"levelo://app?vid=98274f24-72a6-4a87-9b78-0975b5627a05","ios":"levelo://app?vid=98274f24-72a6-4a87-9b78-0975b5627a05"},"vehicle_type_id":"4","last_reported":1723399907,"current_range_meters":7200,"station_id":"ce4bho92rcd13ifvqh4g","pricing_plan_id":"cebpf4jnsgd1na2vs0mg"},{"bike_id":"abd86009-9905-4fe6-ac33-93b720710f55","system_id":"levelo_inurba_marseille","lat":43.279952,"lon":5.400085,"is_reserved":false,"is_disabled":false,"rental_uris":{"android":"levelo://app?vid=abd86009-9905-4fe6-ac33-93b720710f55","ios":"levelo://app?vid=abd86009-9905-4fe6-ac33-93b720710f55"},"vehicle_type_id":"4","last_reported":1723399907,"current_range_meters":31200,"station_id":"ce4bho92rcd13ifvqh4g","pricing_plan_id":"cebpf4jnsgd1na2vs0mg"},{"bike_id":"b2087f5c-eb2a-46e5-80d0-f234012860df","system_id":"levelo_inurba_marseille","lat":43.279952,"lon":5.400085,"is_reserved":false,"is_disabled":false,"rental_uris":{"android":"levelo://app?vid=b2087f5c-eb2a-46e5-80d0-f234012860df","ios":"levelo://app?vid=b2087f5c-eb2a-46e5-80d0-f234012860df"},"vehicle_type_id":"4","last_reported":1723399907,"current_range_meters":18000,"station_id":"ce4bho92rcd13ifvqh4g","pricing_plan_id":"cebpf4jnsgd1na2vs0mg"},