{"last_updated":1771403574,"ttl":60,"version":"2.2","data":{"bikes":[{"bike_id":"0d8f60b5-7d2d-4641-b40a-9554efa1a326","system_id":"levelo_inurba_marseille","lat":43.24961,"lon":5.40499,"is_reserved":false,"is_disabled":false,"rental_uris":{"android":"levelo://app?vid=0d8f60b5-7d2d-4641-b40a-9554efa1a326","ios":"levelo://app?vid=0d8f60b5-7d2d-4641-b40a-9554efa1a326"},"vehicle_type_id":"4","last_reported":1771403575,"current_range_meters":28000,"station_id":"st_d2ngiaodas8pm72gd1h0","pricing_plan_id":"cebpf4jnsgd1na2vs0mg"},{"bike_id":"ac2d6f68-e3d5-4e25-a04e-7dbc807cca84","system_id":"levelo_inurba_marseille","lat":43.30456,"lon":5.37906,"is_reserved":false,"is_disabled":false,"rental_uris":{"android":"levelo://app?vid=ac2d6f68-e3d5-4e25-a04e-7dbc807cca84","ios":"levelo://app?vid=ac2d6f68-e3d5-4e25-a04e-7dbc807cca84"},"vehicle_type_id":"4","last_reported":1771403575,"current_range_meters":40000,"station_id":"ce4bgup2rcd13ifvqcn0","pricing_plan_id":"cebpf4jnsgd1na2vs0mg"},{"bike_id":"f56469d6-156e-4dc9-9c3e-3416ed76c4ba","system_id":"levelo_inurba_marseille","lat":43.33183,"lon":5.37616,"is_reserved":false,"is_disabled":false,"rental_uris":{"android":"levelo://app?vid=f56469d6-156e-4dc9-9c3e-3416ed76c4ba","ios":"levelo://app?vid=f56469d6-156e-4dc9-9c3e-3416ed76c4ba"},"vehicle_type_id":"4","last_reported":1771403575,"current_range_meters":26000,"station_id":"st_d46cu089ee8s73dldbu0","pricing_plan_id":"cebpf4jnsgd1na2vs0mg"},{"bike_id":"6fdf3c0c-e2fd-48ef-ba20-cd96942d8a55","system_id":"levelo_inurba_marseille","lat":43.26229,"lon":5.40453,"is_reserved":false,"is_disabled":false,"rental_uris":{"android":"levelo://app?vid=6fdf3c0c-e2fd-48ef-ba20-cd96942d8a55","ios":"levelo://app?vid=6fdf3c0c-e2fd-48ef-ba20-cd96942d8a55"},"vehicle_type_id":"4","last_reported":1771403575,"current_range_meters":17600,"station_id":"ce4bhmh2rcd13ifvqgmg","pricing_plan_id":"cebpf4jnsgd1na2vs0mg"},{"bike_id":"06a34078-94eb-4d3e-892d-220088c210e5","system_id":"levelo_inurba_marseille","lat":43.28845,"lon":5.35883,"is_reserved":false,"is_disabled":false,"rental_uris":{"android":"levelo://app?vid=06a34078-94eb-4d3e-892d-220088c210e5","ios":"levelo://app?vid=06a34078-94eb-4d3e-892d-220088c210e5"},"vehicle_type_id":"4","last_reported":1771403575,"current_range_meters":34800,"station_id":"ce4bhb12rcd13ifvqem0","pricing_plan_id":"cebpf4jnsgd1na2vs0mg"},{"bike_id":"db2fa9a0-de2e-4c1f-b709-42804478283d","system_id":"levelo_inurba_marseille","lat":43.24548,"lon":5.39516,"is_reserved":false,"is_disabled":false,"rental_uris":{"android":"levelo://app?vid=db2fa9a0-de2e-4c1f-b709-42804478283d","ios":"levelo://app?vid=db2fa9a0-de2e-4c1f-b709-42804478283d"},"vehicle_type_id":"4","last_reported":1771403575,"current_range_meters":29600,"station_id":"ce4bhlp2rcd13ifvqgjg","pricing_plan_id":"cebpf4jnsgd1na2vs0mg"},{"bike_id":"9f4a73af-cbba-4b98-906a-d98ba0517574","system_id":"levelo_inurba_marseille","lat":43.26542,"lon":5.37296,"is_reserved":false,"is_disabled":true,"rental_uris":{"android":"levelo://app?vid=9f4a73af-cbba-4b98-906a-d98ba0517574","ios":"levelo://app?vid=9f4a73af-cbba-4b98-906a-d98ba0517574"},"vehicle_type_id":"4","last_reported":1771403575,"current_range_meters":36000,"station_id":"ce4bhg12rcd13ifvqf70","pricing_plan_id":"cebpf4jnsgd1na2vs0mg"},{"bike_id":"8edd566c-9374-439c-ba80-1121ac81978b","system_id":"levelo_inurba_marseille","lat":43.27894,"lon":5.41066,"is_reserved":false,"is_disabled":false,"rental_uris":{"android":"levelo://app?vid=8edd566c-9374-439c-ba80-1121ac81978b","ios":"levelo://app?vid=8edd566c-9374-439c-ba80-1121ac81978b"},"vehicle_type_id":"4","last_reported":1771403575,"current_range_meters":7200,"station_id":"","pricing_plan_id":"cebpf4jnsgd1na2vs0mg"},{"bike_id":"df2b51b8-6266-41bb-a3ab-a4dcd1fc3155","system_id":"levelo_inurba_marseille","lat":43.304207,"lon":5.412811,"is_reserved":false,"is_disabled":false,"rental_uris":{"android":"levelo://app?vid=df2b51b8-6266-41bb-a3ab-a4dcd1fc3155","ios":"levelo://app?vid=df2b51b8-6266-41bb-a3ab-a4dcd1fc3155"},"vehicle_type_id":"4","last_reported":1771403575,"current_range_meters":4400,"station_id":"ce4bhop2rcd13ifvqh8g","pricing_plan_id":"cebpf4jnsgd1na2vs0mg"},{"bike_id":"37b7f341-16d7-4eb9-9d63-c0dc411fcc94","system_id":"levelo_inurba_marseille","lat":43.24152,"lon":5.39725,"is_reserved":false,"is_disabled":false,"rental_uris":{"android":"levelo://app?vid=37b7f341-16d7-4eb9-9d63-c0dc411fcc94","ios":"levelo://app?vid=37b7f341-16d7-4eb9-9d63-c0dc411fcc94"},"vehicle_type_id":"4","last_reported":1771403575,"current_range_meters":22000,"station_id":"ce4bhn12rcd13ifvqgpg","pricing_plan_id":"cebpf4jnsgd1na2vs0mg"},{"bike_id":"d2bb17c7-6558-4b9c-ae8a-0d2292552853","system_id":"levelo_inurba_marseille","lat":43.285,"lon":5.48419,"is_reserved":false,"is_disabled":false,"rental_uris":{"android":"levelo://app?vid=d2bb17c7-6558-4b9c-ae8a-0d2292552853","ios":"levelo://app?vid=d2bb17c7-6558-4b9c-ae8a-0d2292552853"},"vehicle_type_id":"4","last_reported":1771403575,"current_range_meters":38000,"station_id":"","pricing_plan_id":"cebpf4jnsgd1na2vs0mg"},{"bike_id":"4d35fe7b-86de-4d39-8d3a-f34d3a60dc73","system_id":"levelo_inurba_marseille","lat":43.28715,"lon":5.37939,"is_reserved":false,"is_disabled":true,"rental_uris":{"android":"levelo://app?vid=4d35fe7b-86de-4d39-8d3a-f34d3a60dc73","ios":"levelo://app?vid=4d35fe7b-86de-4d39-8d3a-f34d3a60dc73"},"vehicle_type_id":"4","last_reported":1771403575,"current_range_meters":2800,"station_id":"ce4bh9p2rcd13ifvqec0","pricing_plan_id":"cebpf4jnsgd1na2vs0mg"},{"bike_id":"da4093a5-6673-43a8-b7ee-b4859a45cac4","system_id":"levelo_inurba_marseille","lat":43.243938,"lon":5.370769,"is_reserved":false,"is_disabled":false,"rental_uris":{"android":"levelo://app?vid=da4093a5-6673-43a8-b7ee-b4859a45cac4","ios":"levelo://app?vid=da4093a5-6673-43a8-b7ee-b4859a45cac4"},"vehicle_type_id":"4","last_reported":1771403575,"current_range_meters":9200,"station_id":"ce4bhhh2rcd13ifvqfk0","pricing_plan_id":"cebpf4jnsgd1na2vs0mg"},{"bike_id":"c68ee61e-e73b-4a40-9338-bbc32d0135df","system_id":"levelo_inurba_marseille","lat":43.304593,"lon":5.378997,"is_reserved":false,"is_disabled":false,"rental_uris":{"android":"levelo://app?vid=c68ee61e-e73b-4a40-9338-bbc32d0135df","ios":"levelo://app?vid=c68ee61e-e73b-4a40-9338-bbc32d0135df"},"vehicle_type_id":"4","last_reported":1771403575,"current_range_meters":26800,"station_id":"ce4bgup2rcd13ifvqcn0","pricing_plan_id":"cebpf4jnsgd1na2vs0mg"},{"bike_id":"aa7cd85b-6905-4e19-8b16-011f41518318","system_id":"levelo_inurba_marseille","lat":43.28977,"lon":5.37837,"is_reserved":false,"is_disabled":false,"rental_uris":{"android":"levelo://app?vid=aa7cd85b-6905-4e19-8b16-011f41518318","ios":"levelo://app?vid=aa7cd85b-6905-4e19-8b16-011f41518318"},"vehicle_type_id":"4","last_reported":1771403575,"current_range_meters":7200,"station_id":"ce4bh9p2rcd13ifvqed0","pricing_plan_id":"cebpf4jnsgd1na2vs0mg"},{"bike_id":"ac64c99d-9c3f-47f4-aa0b-060593732cb7","system_id":"levelo_inurba_marseille","lat":43.27829,"lon":5.39204,"is_reserved":false,"is_disabled":false,"rental_uris":{"android":"levelo://app?vid=ac64c99d-9c3f-47f4-aa0b-060593732cb7","ios":"levelo://app?vid=ac64c99d-9c3f-47f4-aa0b-060593732cb7"},"vehicle_type_id":"4","last_reported":1771403575,"current_range_meters":37600,"station_id":"ce4bhjp2rcd13ifvqga0","pricing_plan_id":"cebpf4jnsgd1na2vs0mg"},{"bike_id":"5d343a1d-c35d-4bc8-be83-8dcbd3a36889","system_id":"levelo_inurba_marseille","lat":43.27937,"lon":5.38745,"is_reserved":false,"is_disabled":false,"rental_uris":{"android":"levelo://app?vid=5d343a1d-c35d-4bc8-be83-8dcbd3a36889","ios":"levelo://app?vid=5d343a1d-c35d-4bc8-be83-8dcbd3a36889"},"vehicle_type_id":"4","last_reported":1771403575,"current_range_meters":8800,"station_id":"ce4bhg12rcd13ifvqf80","pricing_plan_id":"cebpf4jnsgd1na2vs0mg"},{"bike_id":"d1cc4ebd-98d2-45dc-9142-f081efbe4d46","system_id":"levelo_inurba_marseille","lat":43.27568,"lon":5.38425,"is_reserved":false,"is_disabled":false,"rental_uris":{"android":"levelo://app?vid=d1cc4ebd-98d2-45dc-9142-f081efbe4d46","ios":"levelo://app?vid=d1cc4ebd-98d2-45dc-9142-f081efbe4d46"},"vehicle_type_id":"4","last_reported":1771403575,"current_range_meters":30400,"station_id":"ce4bhh92rcd13ifvqfi0","pricing_plan_id":"cebpf4jnsgd1na2vs0mg"},{"bike_id":"86e74fc6-e834-47ce-9abe-466a18f19f3c","system_id":"levelo_inurba_marseille","lat":43.30873,"lon":5.37203,"is_reserved":false,"is_disabled":false,"rental_uris":{"android":"levelo://app?vid=86e74fc6-e834-47ce-9abe-466a18f19f3c","ios":"levelo://app?vid=86e74fc6-e834-47ce-9abe-466a18f19f3c"},"vehicle_type_id":"4","last_reported":1771403575,"current_range_meters":36000,"station_id":"ce4bguh2rcd13ifvqckg","pricing_plan_id":"cebpf4jnsgd1na2vs0mg"},{"bike_id":"faecdf78-8109-4d36-933f-5c27a14446f1","system_id":"levelo_inurba_marseille","lat":43.29091,"lon":5.40118,"is_reserved":false,"is_disabled":false,"rental_uris":{"android":"levelo://app?vid=faecdf78-8109-4d36-933f-5c27a14446f1","ios":"levelo://app?vid=faecdf78-8109-4d36-933f-5c27a14446f1"},"vehicle_type_id":"4","last_reported":1771403575,"current_range_meters":34000,"station_id":"ce4bh392rcd13ifvqdm0","pricing_plan_id":"cebpf4jnsgd1na2vs0mg"},{"bike_id":"b9bf90bb-42ac-4ca0-a9ca-05ae535f415b","system_id":"levelo_inurba_marseille","lat":43.30525,"lon":5.3673,"is_reserved":false,"is_disabled":false,"rental_uris":{"android":"levelo://app?vid=b9bf90bb-42ac-4ca0-a9ca-05ae535f415b","ios":"levelo://app?vid=b9bf90bb-42ac-4ca0-a9ca-05ae535f415b"},"vehicle_type_id":"4","last_reported":1771403575,"current_range_meters":36000,"station_id":"ce4bgrp2rcd13ifvqc9g","pricing_plan_id":"cebpf4jnsgd1na2vs0mg"},{"bike_id":"d497dbc2-b9f0-474e-88b3-17571c1e67cf","system_id":"levelo_inurba_marseille","lat":43.27803,"lon":5.40716,"is_reserved":false,"is_disabled":false,"rental_uris":{"android":"levelo://app?vid=d497dbc2-b9f0-474e-88b3-17571c1e67cf","ios":"levelo://app?vid=d497dbc2-b9f0-474e-88b3-17571c1e67cf"},"vehicle_type_id":"4","last_reported":1771403575,"current_range_meters":28000,"station_id":"ce4bhnh2rcd13ifvqgtg","pricing_plan_id":"cebpf4jnsgd1na2vs0mg"},{"bike_id":"97e5b8bb-9ce2-4a3e-b4a9-8b7acc5a9dcc","system_id":"levelo_inurba_marseille","lat":43.29232,"lon":5.36099,"is_reserved":false,"is_disabled":false,"rental_uris":{"android":"levelo://app?vid=97e5b8bb-9ce2-4a3e-b4a9-8b7acc5a9dcc","ios":"levelo://app?vid=97e5b8bb-9ce2-4a3e-b4a9-8b7acc5a9dcc"},"vehicle_type_id":"4","last_reported":1771403575,"current_range_meters":32400,"station_id":"ce4bhbh2rcd13ifvqeqg","pricing_plan_id":"cebpf4jnsgd1na2vs0mg"},{"bike_id":"c0be5c69-d4d0-408f-9686-7f71cf6f7bc9","system_id":"levelo_inurba_marseille","lat":43.29263,"lon":5.37619,"is_reserved":false,"is_disabled":false,"rental_uris":{"android":"levelo://app?vid=c0be5c69-d4d0-408f-9686-7f71cf6f7bc9","ios":"levelo://app?vid=c0be5c69-d4d0-408f-9686-7f71cf6f7bc9"},"vehicle_type_id":"4","last_reported":1771403575,"current_range_meters":20400,"station_id":"ce4bgi12rcd13ifvqb80","pricing_plan_id":"cebpf4jnsgd1na2vs0mg"},{"bike_id":"0b0e423c-db6c-414d-8673-81468a2b7d18","system_id":"levelo_inurba_marseille","lat":43.25922,"lon":5.40917,"is_reserved":false,"is_disabled":false,"rental_uris":{"android":"levelo://app?vid=0b0e423c-db6c-414d-8673-81468a2b7d18","ios":"levelo://app?vid=0b0e423c-db6c-414d-8673-81468a2b7d18"},"vehicle_type_id":"4","last_reported":1771403575,"current_range_meters":33600,"station_id":"ce4bhm92rcd13ifvqglg","pricing_plan_id":"cebpf4jnsgd1na2vs0mg"},{"bike_id":"9daa25c7-d524-46ae-8d41-0a3c36c8c2a4","system_id":"levelo_inurba_marseille","lat":43.29093,"lon":5.4005,"is_reserved":false,"is_disabled":false,"rental_uris":{"android":"levelo://app?vid=9daa25c7-d524-46ae-8d41-0a3c36c8c2a4","ios":"levelo://app?vid=9daa25c7-d524-46ae-8d41-0a3c36c8c2a4"},"vehicle_type_id":"4","last_reported":1771403575,"current_range_meters":20400,"station_id":"","pricing_plan_id":"cebpf4jnsgd1na2vs0mg"},{"bike_id":"748e0f94-1d84-4e99-a2d8-3ed4f6188416","system_id":"levelo_inurba_marseille","lat":43.2511,"lon":5.40325,"is_reserved":false,"is_disabled":false,"rental_uris":{"android":"levelo://app?vid=748e0f94-1d84-4e99-a2d8-3ed4f6188416","ios":"levelo://app?vid=748e0f94-1d84-4e99-a2d8-3ed4f6188416"},"vehicle_type_id":"4","last_reported":1771403575,"current_range_meters":36800,"station_id":"ce4bhlh2rcd13ifvqgig","pricing_plan_id":"cebpf4jnsgd1na2vs0mg"},{"bike_id":"dea12119-0d2f-4d5b-b2b8-4fba663d926e","system_id":"levelo_inurba_marseille","lat":43.2928,"lon":5.40129,"is_reserved":false,"is_disabled":false,"rental_uris":{"android":"levelo://app?vid=dea12119-0d2f-4d5b-b2b8-4fba663d926e","ios":"levelo://app?vid=dea12119-0d2f-4d5b-b2b8-4fba663d926e"},"vehicle_type_id":"4","last_reported":1771403575,"current_range_meters":16400,"station_id":"ce4bh312rcd13ifvqdk0","pricing_plan_id":"cebpf4jnsgd1na2vs0mg"},{"bike_id":"d79e1eed-e7b0-47cf-9683-1c9779ae0325","system_id":"levelo_inurba_marseille","lat":43.29054,"lon":5.40004,"is_reserved":false,"is_disabled":false,"rental_uris":{"android":"levelo://app?vid=d79e1eed-e7b0-47cf-9683-1c9779ae0325","ios":"levelo://app?vid=d79e1eed-e7b0-47cf-9683-1c9779ae0325"},"vehicle_type_id":"4","last_reported":1771403575,"current_range_meters":38000,"station_id":"ce4bh392rcd13ifvqdm0","pricing_plan_id":"cebpf4jnsgd1na2vs0mg"},{"bike_id":"817c48d7-5f7e-446a-9f12-2e4fff60d2e1","system_id":"levelo_inurba_marseille","lat":43.29267,"lon":5.3763,"is_reserved":false,"is_disabled":false,"rental_uris":{"android":"levelo://app?vid=817c48d7-5f7e-446a-9f12-2e4fff60d2e1","ios":"levelo://app?vid=817c48d7-5f7e-446a-9f12-2e4fff60d2e1"},"vehicle_type_id":"4","last_reported":1771403575,"current_range_meters":25200,"station_id":"ce4bgi12rcd13ifvqb80","pricing_plan_id":"cebpf4jnsgd1na2vs0mg"},{"bike_id":"d627de23-3635-4871-9aeb-de1777615514","system_id":"levelo_inurba_marseille","lat":43.31085,"lon":5.42432,"is_reserved":false,"is_disabled":false,"rental_uris":{"android":"levelo://app?vid=d627de23-3635-4871-9aeb-de1777615514","ios":"levelo://app?vid=d627de23-3635-4871-9aeb-de1777615514"},"vehicle_type_id":"4","last_reported":1771403575,"current_range_meters":26800,"station_id":"ce4bhp92rcd13ifvqhag","pricing_plan_id":"cebpf4jnsgd1na2vs0mg"},{"bike_id":"e071cb6b-00dd-46cc-bbae-0c336769674f","system_id":"levelo_inurba_marseille","lat":43.26466,"lon":5.39553,"is_reserved":false,"is_disabled":false,"rental_uris":{"android":"levelo://app?vid=e071cb6b-00dd-46cc-bbae-0c336769674f","ios":"levelo://app?vid=e071cb6b-00dd-46cc-bbae-0c336769674f"},"vehicle_type_id":"4","last_reported":1771403575,"current_range_meters":33600,"station_id":"ce4bhi12rcd13ifvqfq0","pricing_plan_id":"cebpf4jnsgd1na2vs0mg"},{"bike_id":"01c62984-a2ae-4489-84a9-6a173aa3a0f3","system_id":"levelo_inurba_marseille","lat":43.31234,"lon":5.36864,"is_reserved":false,"is_disabled":true,"rental_uris":{"android":"levelo://app?vid=01c62984-a2ae-4489-84a9-6a173aa3a0f3","ios":"levelo://app?vid=01c62984-a2ae-4489-84a9-6a173aa3a0f3"},"vehicle_type_id":"4","last_reported":1771403575,"current_range_meters":37600,"station_id":"ce4bgl92rcd13ifvqbq0","pricing_plan_id":"cebpf4jnsgd1na2vs0mg"},{"bike_id":"bd750488-0a42-4846-a96c-1ffb9cee5c62","system_id":"levelo_inurba_marseille","lat":43.30874,"lon":5.37201,"is_reserved":false,"is_disabled":false,"rental_uris":{"android":"levelo://app?vid=bd750488-0a42-4846-a96c-1ffb9cee5c62","ios":"levelo://app?vid=bd750488-0a42-4846-a96c-1ffb9cee5c62"},"vehicle_type_id":"4","last_reported":1771403575,"current_range_meters":38800,"station_id":"ce4bguh2rcd13ifvqckg","pricing_plan_id":"cebpf4jnsgd1na2vs0mg"},{"bike_id":"e9c8c195-4938-4494-9005-66aa872cbce1","system_id":"levelo_inurba_marseille","lat":43.31164,"lon":5.36821,"is_reserved":false,"is_disabled":false,"rental_uris":{"android":"levelo://app?vid=e9c8c195-4938-4494-9005-66aa872cbce1","ios":"levelo://app?vid=e9c8c195-4938-4494-9005-66aa872cbce1"},"vehicle_type_id":"4","last_reported":1771403575,"current_range_meters":17600,"station_id":"ce4bgl92rcd13ifvqbq0","pricing_plan_id":"cebpf4jnsgd1na2vs0mg"},{"bike_id":"b8fe5bc1-0e9e-4342-b58f-11eaa4ededc1","system_id":"levelo_inurba_marseille","lat":43.29371,"lon":5.37841,"is_reserved":false,"is_disabled":false,"rental_uris":{"android":"levelo://app?vid=b8fe5bc1-0e9e-4342-b58f-11eaa4ededc1","ios":"levelo://app?vid=b8fe5bc1-0e9e-4342-b58f-11eaa4ededc1"},"vehicle_type_id":"4","last_reported":1771403575,"current_range_meters":39200,"station_id":"ce4bgjh2rcd13ifvqbf0","pricing_plan_id":"cebpf4jnsgd1na2vs0mg"},{"bike_id":"a2aac6db-ff2a-410f-9224-52b6b4391027","system_id":"levelo_inurba_marseille","lat":43.25104,"lon":5.40306,"is_reserved":false,"is_disabled":false,"rental_uris":{"android":"levelo://app?vid=a2aac6db-ff2a-410f-9224-52b6b4391027","ios":"levelo://app?vid=a2aac6db-ff2a-410f-9224-52b6b4391027"},"vehicle_type_id":"4","last_reported":1771403575,"current_range_meters":28400,"station_id":"ce4bhlh2rcd13ifvqgig","pricing_plan_id":"cebpf4jnsgd1na2vs0mg"},{"bike_id":"926897a4-8741-4d6d-b33c-0b6162331ef7","system_id":"levelo_inurba_marseille","lat":43.30309,"lon":5.36886,"is_reserved":false,"is_disabled":false,"rental_uris":{"android":"levelo://app?vid=926897a4-8741-4d6d-b33c-0b6162331ef7","ios":"levelo://app?vid=926897a4-8741-4d6d-b33c-0b6162331ef7"},"vehicle_type_id":"4","last_reported":1771403575,"current_range_meters":39200,"station_id":"ce4bgqh2rcd13ifvqc5g","pricing_plan_id":"cebpf4jnsgd1na2vs0mg"},{"bike_id":"4a8cd272-628d-4ba5-ae9a-98dead38959e","system_id":"levelo_inurba_marseille","lat":43.25557,"lon":5.38219,"is_reserved":false,"is_disabled":false,"rental_uris":{"android":"levelo://app?vid=4a8cd272-628d-4ba5-ae9a-98dead38959e","ios":"levelo://app?vid=4a8cd272-628d-4ba5-ae9a-98dead38959e"},"vehicle_type_id":"4","last_reported":1771403575,"current_range_meters":15200,"station_id":"ce4bhih2rcd13ifvqfs0","pricing_plan_id":"cebpf4jnsgd1na2vs0mg"},{"bike_id":"c0712f42-27dc-4f55-bbca-ca941c02c3e8","system_id":"levelo_inurba_marseille","lat":43.2649,"lon":5.39554,"is_reserved":false,"is_disabled":false,"rental_uris":{"android":"levelo://app?vid=c0712f42-27dc-4f55-bbca-ca941c02c3e8","ios":"levelo://app?vid=c0712f42-27dc-4f55-bbca-ca941c02c3e8"},"vehicle_type_id":"4","last_reported":1771403575,"current_range_meters":32800,"station_id":"ce4bhi12rcd13ifvqfq0","pricing_plan_id":"cebpf4jnsgd1na2vs0mg"},{"bike_id":"0b03371f-d614-4a77-84aa-be5c89a9402b","system_id":"levelo_inurba_marseille","lat":43.2606,"lon":5.39384,"is_reserved":false,"is_disabled":true,"rental_uris":{"android":"levelo://app?vid=0b03371f-d614-4a77-84aa-be5c89a9402b","ios":"levelo://app?vid=0b03371f-d614-4a77-84aa-be5c89a9402b"},"vehicle_type_id":"4","last_reported":1771403575,"current_range_meters":6800,"station_id":"ce4bhh92rcd13ifvqfj0","pricing_plan_id":"cebpf4jnsgd1na2vs0mg"},{"bike_id":"659923c1-de2a-425b-b089-253fcf51c04f","system_id":"levelo_inurba_marseille","lat":43.241726,"lon":5.363881,"is_reserved":false,"is_disabled":false,"rental_uris":{"android":"levelo://app?vid=659923c1-de2a-425b-b089-253fcf51c04f","ios":"levelo://app?vid=659923c1-de2a-425b-b089-253fcf51c04f"},"vehicle_type_id":"4","last_reported":1771403575,"current_range_meters":29600,"station_id":"cpo36qri1sfpv3e86is0","pricing_plan_id":"cebpf4jnsgd1na2vs0mg"},{"bike_id":"83565195-c921-4ffb-bd2a-2249f412d62b","system_id":"levelo_inurba_marseille","lat":43.29261,"lon":5.37621,"is_reserved":false,"is_disabled":false,"rental_uris":{"android":"levelo://app?vid=83565195-c921-4ffb-bd2a-2249f412d62b","ios":"levelo://app?vid=83565195-c921-4ffb-bd2a-2249f412d62b"},"vehicle_type_id":"4","last_reported":1771403575,"current_range_meters":36800,"station_id":"ce4bgi12rcd13ifvqb80","pricing_plan_id":"cebpf4jnsgd1na2vs0mg"},{"bike_id":"290649bd-a460-4d95-8c0d-616519ef9e83","system_id":"levelo_inurba_marseille","lat":43.303745,"lon":5.42489,"is_reserved":false,"is_disabled":false,"rental_uris":{"android":"levelo://app?vid=290649bd-a460-4d95-8c0d-616519ef9e83","ios":"levelo://app?vid=290649bd-a460-4d95-8c0d-616519ef9e83"},"vehicle_type_id":"4","last_reported":1771403575,"current_range_meters":25600,"station_id":"ce4bhoh2rcd13ifvqh6g","pricing_plan_id":"cebpf4jnsgd1na2vs0mg"},{"bike_id":"a8ac64ba-4309-4021-98a9-d1607f0b1c3c","system_id":"levelo_inurba_marseille","lat":43.29223,"lon":5.36071,"is_reserved":false,"is_disabled":false,"rental_uris":{"android":"levelo://app?vid=a8ac64ba-4309-4021-98a9-d1607f0b1c3c","ios":"levelo://app?vid=a8ac64ba-4309-4021-98a9-d1607f0b1c3c"},"vehicle_type_id":"4","last_reported":1771403575,"current_range_meters":24400,"station_id":"ce4bhbh2rcd13ifvqeqg","pricing_plan_id":"cebpf4jnsgd1na2vs0mg"},{"bike_id":"adf114b1-1ae6-4ec4-8bac-696d0b1beeb3","system_id":"levelo_inurba_marseille","lat":43.29043,"lon":5.39944,"is_reserved":false,"is_disabled":false,"rental_uris":{"android":"levelo://app?vid=adf114b1-1ae6-4ec4-8bac-696d0b1beeb3","ios":"levelo://app?vid=adf114b1-1ae6-4ec4-8bac-696d0b1beeb3"},"vehicle_type_id":"4","last_reported":1771403575,"current_range_meters":39200,"station_id":"ce4bh392rcd13ifvqdm0","pricing_plan_id":"cebpf4jnsgd1na2vs0mg"},{"bike_id":"5c0952e3-3469-48d1-b0ac-88596b084e30","system_id":"levelo_inurba_marseille","lat":43.33762,"lon":5.37481,"is_reserved":false,"is_disabled":false,"rental_uris":{"android":"levelo://app?vid=5c0952e3-3469-48d1-b0ac-88596b084e30","ios":"levelo://app?vid=5c0952e3-3469-48d1-b0ac-88596b084e30"},"vehicle_type_id":"4","last_reported":1771403575,"current_range_meters":38400,"station_id":"","pricing_plan_id":"cebpf4jnsgd1na2vs0mg"},{"bike_id":"36295592-4069-4c13-b064-4dff7bdf8bf7","system_id":"levelo_inurba_marseille","lat":43.30891,"lon":5.37191,"is_reserved":false,"is_disabled":false,"rental_uris":{"android":"levelo://app?vid=36295592-4069-4c13-b064-4dff7bdf8bf7","ios":"levelo://app?vid=36295592-4069-4c13-b064-4dff7bdf8bf7"},"vehicle_type_id":"4","last_reported":1771403575,"current_range_meters":34800,"station_id":"ce4bguh2rcd13ifvqckg","pricing_plan_id":"cebpf4jnsgd1na2vs0mg"},{"bike_id":"c4194e41-de52-45db-97b1-1968612c04dc","system_id":"levelo_inurba_marseille","lat":43.299687,"lon":5.413161,"is_reserved":false,"is_disabled":false,"rental_uris":{"android":"levelo://app?vid=c4194e41-de52-45db-97b1-1968612c04dc","ios":"levelo://app?vid=c4194e41-de52-45db-97b1-1968612c04dc"},"vehicle_type_id":"4","last_reported":1771403575,"current_range_meters":7200,"station_id":"ce4bhp12rcd13ifvqh9g","pricing_plan_id":"cebpf4jnsgd1na2vs0mg"},{"bike_id":"6f34c8e9-45c6-4c7c-b2e1-4ab2ec4f226d","system_id":"levelo_inurba_marseille","lat":43.30128,"lon":5.37453,"is_reserved":false,"is_disabled":false,"rental_uris":{"android":"levelo://app?vid=6f34c8e9-45c6-4c7c-b2e1-4ab2ec4f226d","ios":"levelo://app?vid=6f34c8e9-45c6-4c7c-b2e1-4ab2ec4f226d"},"vehicle_type_id":"4","last_reported":1771403575,"current_range_meters":36800,"station_id":"ce4bgs92rcd13ifvqcc0","pricing_plan_id":"cebpf4jnsgd1na2vs0mg"},{"bike_id":"0e32680e-83e6-4dcc-b5a5-6a59ea180e21","system_id":"levelo_inurba_marseille","lat":43.286126,"lon":5.37065,"is_reserved":false,"is_disabled":false,"rental_uris":{"android":"levelo://app?vid=0e32680e-83e6-4dcc-b5a5-6a59ea180e21","ios":"levelo://app?vid=0e32680e-83e6-4dcc-b5a5-6a59ea180e21"},"vehicle_type_id":"4","last_reported":1771403575,"current_range_meters":28400,"station_id":"ce4bht12rcd13ifvqi60","pricing_plan_id":"cebpf4jnsgd1na2vs0mg"},{"bike_id":"1109909b-0fb0-4ad8-ad62-9fa4976a7b86","system_id":"levelo_inurba_marseille","lat":43.30907,"lon":5.3684,"is_reserved":false,"is_disabled":false,"rental_uris":{"android":"levelo://app?vid=1109909b-0fb0-4ad8-ad62-9fa4976a7b86","ios":"levelo://app?vid=1109909b-0fb0-4ad8-ad62-9fa4976a7b86"},"vehicle_type_id":"4","last_reported":1771403575,"current_range_meters":28800,"station_id":"ce4bgn92rcd13ifvqbvg","pricing_plan_id":"cebpf4jnsgd1na2vs0mg"},{"bike_id":"d11215e4-09de-48a1-8e26-cf34a99f9354","system_id":"levelo_inurba_marseille","lat":43.31055,"lon":5.42441,"is_reserved":false,"is_disabled":false,"rental_uris":{"android":"levelo://app?vid=d11215e4-09de-48a1-8e26-cf34a99f9354","ios":"levelo://app?vid=d11215e4-09de-48a1-8e26-cf34a99f9354"},"vehicle_type_id":"4","last_reported":1771403575,"current_range_meters":38000,"station_id":"ce4bhp92rcd13ifvqhag","pricing_plan_id":"cebpf4jnsgd1na2vs0mg"},{"bike_id":"2cbbc2f5-92a3-4c38-a0e2-181ee10ae410","system_id":"levelo_inurba_marseille","lat":43.27516,"lon":5.42452,"is_reserved":false,"is_disabled":false,"rental_uris":{"android":"levelo://app?vid=2cbbc2f5-92a3-4c38-a0e2-181ee10ae410","ios":"levelo://app?vid=2cbbc2f5-92a3-4c38-a0e2-181ee10ae410"},"vehicle_type_id":"4","last_reported":1771403575,"current_range_meters":38400,"station_id":"ce4bhn92rcd13ifvqgrg","pricing_plan_id":"cebpf4jnsgd1na2vs0mg"},{"bike_id":"a8e81460-a4ac-4735-9fe0-f6458607162e","system_id":"levelo_inurba_marseille","lat":43.25933,"lon":5.40907,"is_reserved":false,"is_disabled":false,"rental_uris":{"android":"levelo://app?vid=a8e81460-a4ac-4735-9fe0-f6458607162e","ios":"levelo://app?vid=a8e81460-a4ac-4735-9fe0-f6458607162e"},"vehicle_type_id":"4","last_reported":1771403575,"current_range_meters":36800,"station_id":"ce4bhm92rcd13ifvqglg","pricing_plan_id":"cebpf4jnsgd1na2vs0mg"},{"bike_id":"ad2477be-7724-4710-8a1f-27fc9f03e3e0","system_id":"levelo_inurba_marseille","lat":43.262189,"lon":5.404588,"is_reserved":false,"is_disabled":false,"rental_uris":{"android":"levelo://app?vid=ad2477be-7724-4710-8a1f-27fc9f03e3e0","ios":"levelo://app?vid=ad2477be-7724-4710-8a1f-27fc9f03e3e0"},"vehicle_type_id":"4","last_reported":1771403575,"current_range_meters":28400,"station_id":"ce4bhmh2rcd13ifvqgmg","pricing_plan_id":"cebpf4jnsgd1na2vs0mg"},{"bike_id":"2479a531-6d9d-4bb6-8c57-955fbd8fe7f3","system_id":"levelo_inurba_marseille","lat":43.32495,"lon":5.38275,"is_reserved":false,"is_disabled":false,"rental_uris":{"android":"levelo://app?vid=2479a531-6d9d-4bb6-8c57-955fbd8fe7f3","ios":"levelo://app?vid=2479a531-6d9d-4bb6-8c57-955fbd8fe7f3"},"vehicle_type_id":"4","last_reported":1771403575,"current_range_meters":30000,"station_id":"st_d4asgbiv49dc73anf9m0","pricing_plan_id":"cebpf4jnsgd1na2vs0mg"},{"bike_id":"6f9ecf2e-5389-4ba1-b606-54b5a69c8f65","system_id":"levelo_inurba_marseille","lat":43.28179,"lon":5.42607,"is_reserved":false,"is_disabled":false,"rental_uris":{"android":"levelo://app?vid=6f9ecf2e-5389-4ba1-b606-54b5a69c8f65","ios":"levelo://app?vid=6f9ecf2e-5389-4ba1-b606-54b5a69c8f65"},"vehicle_type_id":"4","last_reported":1771403575,"current_range_meters":37600,"station_id":"ce4bhnh2rcd13ifvqgug","pricing_plan_id":"cebpf4jnsgd1na2vs0mg"},{"bike_id":"fc1aa6b8-6e5e-467f-92e9-aae02099ae9d","system_id":"levelo_inurba_marseille","lat":43.24625,"lon":5.43154,"is_reserved":false,"is_disabled":false,"rental_uris":{"android":"levelo://app?vid=fc1aa6b8-6e5e-467f-92e9-aae02099ae9d","ios":"levelo://app?vid=fc1aa6b8-6e5e-467f-92e9-aae02099ae9d"},"vehicle_type_id":"4","last_reported":1771403575,"current_range_meters":10000,"station_id":"st_d2m6c4gdas8pm72e190g","pricing_plan_id":"cebpf4jnsgd1na2vs0mg"},{"bike_id":"8f275b0d-88f7-42d9-b94a-236cbb0bb5d5","system_id":"levelo_inurba_marseille","lat":43.30957,"lon":5.38357,"is_reserved":false,"is_disabled":false,"rental_uris":{"android":"levelo://app?vid=8f275b0d-88f7-42d9-b94a-236cbb0bb5d5","ios":"levelo://app?vid=8f275b0d-88f7-42d9-b94a-236cbb0bb5d5"},"vehicle_type_id":"4","last_reported":1771403575,"current_range_meters":3600,"station_id":"","pricing_plan_id":"cebpf4jnsgd1na2vs0mg"},{"bike_id":"67285332-5652-4c2b-b8be-d99c6194277d","system_id":"levelo_inurba_marseille","lat":43.2606,"lon":5.39384,"is_reserved":false,"is_disabled":false,"rental_uris":{"android":"levelo://app?vid=67285332-5652-4c2b-b8be-d99c6194277d","ios":"levelo://app?vid=67285332-5652-4c2b-b8be-d99c6194277d"},"vehicle_type_id":"4","last_reported":1771403575,"current_range_meters":27200,"station_id":"ce4bhh92rcd13ifvqfj0","pricing_plan_id":"cebpf4jnsgd1na2vs0mg"},{"bike_id":"bc08d338-970c-4939-b5cf-2cda36932ee4","system_id":"levelo_inurba_marseille","lat":43.29629,"lon":5.40602,"is_reserved":false,"is_disabled":false,"rental_uris":{"android":"levelo://app?vid=bc08d338-970c-4939-b5cf-2cda36932ee4","ios":"levelo://app?vid=bc08d338-970c-4939-b5cf-2cda36932ee4"},"vehicle_type_id":"4","last_reported":1771403575,"current_range_meters":39200,"station_id":"ce4bh0h2rcd13ifvqd60","pricing_plan_id":"cebpf4jnsgd1na2vs0mg"},{"bike_id":"d9177323-b0a3-404c-a969-2b73fa11563a","system_id":"levelo_inurba_marseille","lat":43.2901,"lon":5.38099,"is_reserved":false,"is_disabled":false,"rental_uris":{"android":"levelo://app?vid=d9177323-b0a3-404c-a969-2b73fa11563a","ios":"levelo://app?vid=d9177323-b0a3-404c-a969-2b73fa11563a"},"vehicle_type_id":"4","last_reported":1771403575,"current_range_meters":38000,"station_id":"ce4bh4p2rcd13ifvqe1g","pricing_plan_id":"cebpf4jnsgd1na2vs0mg"},{"bike_id":"57723f7a-061e-46b7-a0ae-b6210e118d77","system_id":"levelo_inurba_marseille","lat":43.3092,"lon":5.36835,"is_reserved":false,"is_disabled":false,"rental_uris":{"android":"levelo://app?vid=57723f7a-061e-46b7-a0ae-b6210e118d77","ios":"levelo://app?vid=57723f7a-061e-46b7-a0ae-b6210e118d77"},"vehicle_type_id":"4","last_reported":1771403575,"current_range_meters":34000,"station_id":"ce4bgn92rcd13ifvqbvg","pricing_plan_id":"cebpf4jnsgd1na2vs0mg"},{"bike_id":"c1b26ae8-8837-4bd2-b0e2-b890b8516fff","system_id":"levelo_inurba_marseille","lat":43.31262,"lon":5.36862,"is_reserved":false,"is_disabled":false,"rental_uris":{"android":"levelo://app?vid=c1b26ae8-8837-4bd2-b0e2-b890b8516fff","ios":"levelo://app?vid=c1b26ae8-8837-4bd2-b0e2-b890b8516fff"},"vehicle_type_id":"4","last_reported":1771403575,"current_range_meters":39200,"station_id":"ce4bgl92rcd13ifvqbq0","pricing_plan_id":"cebpf4jnsgd1na2vs0mg"},{"bike_id":"3cf9a213-82f8-4af5-954b-9210b699cd7b","system_id":"levelo_inurba_marseille","lat":43.33145,"lon":5.377,"is_reserved":false,"is_disabled":false,"rental_uris":{"android":"levelo://app?vid=3cf9a213-82f8-4af5-954b-9210b699cd7b","ios":"levelo://app?vid=3cf9a213-82f8-4af5-954b-9210b699cd7b"},"vehicle_type_id":"4","last_reported":1771403575,"current_range_meters":34800,"station_id":"st_d46cu089ee8s73dldbu0","pricing_plan_id":"cebpf4jnsgd1na2vs0mg"},{"bike_id":"f4b72c32-b078-47bf-bd6e-2a4cf9260d45","system_id":"levelo_inurba_marseille","lat":43.28688,"lon":5.35508,"is_reserved":false,"is_disabled":true,"rental_uris":{"android":"levelo://app?vid=f4b72c32-b078-47bf-bd6e-2a4cf9260d45","ios":"levelo://app?vid=f4b72c32-b078-47bf-bd6e-2a4cf9260d45"},"vehicle_type_id":"4","last_reported":1771403575,"current_range_meters":36000,"station_id":"","pricing_plan_id":"cebpf4jnsgd1na2vs0mg"},{"bike_id":"786db946-01e6-401d-825a-5be2365421b8","system_id":"levelo_inurba_marseille","lat":43.25559,"lon":5.3822,"is_reserved":false,"is_disabled":false,"rental_uris":{"android":"levelo://app?vid=786db946-01e6-401d-825a-5be2365421b8","ios":"levelo://app?vid=786db946-01e6-401d-825a-5be2365421b8"},"vehicle_type_id":"4","last_reported":1771403575,"current_range_meters":20800,"station_id":"ce4bhih2rcd13ifvqfs0","pricing_plan_id":"cebpf4jnsgd1na2vs0mg"},{"bike_id":"d12980c3-f7e1-4abf-8dbe-54dfcdbdccdd","system_id":"levelo_inurba_marseille","lat":43.29577,"lon":5.37541,"is_reserved":false,"is_disabled":false,"rental_uris":{"android":"levelo://app?vid=d12980c3-f7e1-4abf-8dbe-54dfcdbdccdd","ios":"levelo://app?vid=d12980c3-f7e1-4abf-8dbe-54dfcdbdccdd"},"vehicle_type_id":"4","last_reported":1771403575,"current_range_meters":12400,"station_id":"ce4bgh92rcd13ifvqb50","pricing_plan_id":"cebpf4jnsgd1na2vs0mg"},{"bike_id":"f5d22547-d06e-4fad-85c6-2cbbdcd29ad4","system_id":"levelo_inurba_marseille","lat":43.29166,"lon":5.37199,"is_reserved":false,"is_disabled":false,"rental_uris":{"android":"levelo://app?vid=f5d22547-d06e-4fad-85c6-2cbbdcd29ad4","ios":"levelo://app?vid=f5d22547-d06e-4fad-85c6-2cbbdcd29ad4"},"vehicle_type_id":"4","last_reported":1771403575,"current_range_meters":32400,"station_id":"ce4bha92rcd13ifvqeh0","pricing_plan_id":"cebpf4jnsgd1na2vs0mg"},{"bike_id":"129a8aa9-45a0-44b6-a529-a251cbb2fb68","system_id":"levelo_inurba_marseille","lat":43.28612,"lon":5.351152,"is_reserved":false,"is_disabled":false,"rental_uris":{"android":"levelo://app?vid=129a8aa9-45a0-44b6-a529-a251cbb2fb68","ios":"levelo://app?vid=129a8aa9-45a0-44b6-a529-a251cbb2fb68"},"vehicle_type_id":"4","last_reported":1771403575,"current_range_meters":17600,"station_id":"ce4bhch2rcd13ifvqeug","pricing_plan_id":"cebpf4jnsgd1na2vs0mg"},{"bike_id":"ae5d88a9-282f-4d97-bc7a-de0291fdda30","system_id":"levelo_inurba_marseille","lat":43.27466,"lon":5.42442,"is_reserved":false,"is_disabled":true,"rental_uris":{"android":"levelo://app?vid=ae5d88a9-282f-4d97-bc7a-de0291fdda30","ios":"levelo://app?vid=ae5d88a9-282f-4d97-bc7a-de0291fdda30"},"vehicle_type_id":"4","last_reported":1771403575,"current_range_meters":8400,"station_id":"ce4bhn92rcd13ifvqgrg","pricing_plan_id":"cebpf4jnsgd1na2vs0mg"},{"bike_id":"4511de4e-1a9d-4723-972e-c4ceb0f413e1","system_id":"levelo_inurba_marseille","lat":43.27414,"lon":5.39407,"is_reserved":false,"is_disabled":false,"rental_uris":{"android":"levelo://app?vid=4511de4e-1a9d-4723-972e-c4ceb0f413e1","ios":"levelo://app?vid=4511de4e-1a9d-4723-972e-c4ceb0f413e1"},"vehicle_type_id":"4","last_reported":1771403575,"current_range_meters":26000,"station_id":"ce4bhdp2rcd13ifvqf20","pricing_plan_id":"cebpf4jnsgd1na2vs0mg"},{"bike_id":"b7601282-08f0-4516-b769-80e43d9f0326","system_id":"levelo_inurba_marseille","lat":43.29277,"lon":5.36836,"is_reserved":false,"is_disabled":false,"rental_uris":{"android":"levelo://app?vid=b7601282-08f0-4516-b769-80e43d9f0326","ios":"levelo://app?vid=b7601282-08f0-4516-b769-80e43d9f0326"},"vehicle_type_id":"4","last_reported":1771403575,"current_range_meters":38400,"station_id":"ce4bhbp2rcd13ifvqesg","pricing_plan_id":"cebpf4jnsgd1na2vs0mg"},{"bike_id":"412589ca-fe8c-458e-b4aa-1cef05f963b6","system_id":"levelo_inurba_marseille","lat":43.29616,"lon":5.3771,"is_reserved":false,"is_disabled":false,"rental_uris":{"android":"levelo://app?vid=412589ca-fe8c-458e-b4aa-1cef05f963b6","ios":"levelo://app?vid=412589ca-fe8c-458e-b4aa-1cef05f963b6"},"vehicle_type_id":"4","last_reported":1771403575,"current_range_meters":38800,"station_id":"ce4bgi92rcd13ifvqb90","pricing_plan_id":"cebpf4jnsgd1na2vs0mg"},{"bike_id":"3d2c12f1-defb-4522-b608-822fdca70d5a","system_id":"levelo_inurba_marseille","lat":43.3032,"lon":5.40272,"is_reserved":false,"is_disabled":false,"rental_uris":{"android":"levelo://app?vid=3d2c12f1-defb-4522-b608-822fdca70d5a","ios":"levelo://app?vid=3d2c12f1-defb-4522-b608-822fdca70d5a"},"vehicle_type_id":"4","last_reported":1771403575,"current_range_meters":9200,"station_id":"","pricing_plan_id":"cebpf4jnsgd1na2vs0mg"},{"bike_id":"cdcd8c42-d26a-4e42-9873-59170e37aa87","system_id":"levelo_inurba_marseille","lat":43.2308,"lon":5.35492,"is_reserved":false,"is_disabled":false,"rental_uris":{"android":"levelo://app?vid=cdcd8c42-d26a-4e42-9873-59170e37aa87","ios":"levelo://app?vid=cdcd8c42-d26a-4e42-9873-59170e37aa87"},"vehicle_type_id":"4","last_reported":1771403575,"current_range_meters":38800,"station_id":"cpo3342slgdg3j2ifvpg","pricing_plan_id":"cebpf4jnsgd1na2vs0mg"},{"bike_id":"3175b63f-a262-4a36-bf98-2a5af02532e4","system_id":"levelo_inurba_marseille","lat":43.23374,"lon":5.41232,"is_reserved":false,"is_disabled":false,"rental_uris":{"android":"levelo://app?vid=3175b63f-a262-4a36-bf98-2a5af02532e4","ios":"levelo://app?vid=3175b63f-a262-4a36-bf98-2a5af02532e4"},"vehicle_type_id":"4","last_reported":1771403575,"current_range_meters":26000,"station_id":"","pricing_plan_id":"cebpf4jnsgd1na2vs0mg"},{"bike_id":"e7def23d-4cb3-4f70-ad84-7e80f75f4887","system_id":"levelo_inurba_marseille","lat":43.24804,"lon":5.37455,"is_reserved":false,"is_disabled":false,"rental_uris":{"android":"levelo://app?vid=e7def23d-4cb3-4f70-ad84-7e80f75f4887","ios":"levelo://app?vid=e7def23d-4cb3-4f70-ad84-7e80f75f4887"},"vehicle_type_id":"4","last_reported":1771403575,"current_range_meters":38000,"station_id":"ce4bhgh2rcd13ifvqfb0","pricing_plan_id":"cebpf4jnsgd1na2vs0mg"},{"bike_id":"dd8100c3-3169-4922-bf7d-5a153f40b247","system_id":"levelo_inurba_marseille","lat":43.27843,"lon":5.40811,"is_reserved":false,"is_disabled":false,"rental_uris":{"android":"levelo://app?vid=dd8100c3-3169-4922-bf7d-5a153f40b247","ios":"levelo://app?vid=dd8100c3-3169-4922-bf7d-5a153f40b247"},"vehicle_type_id":"4","last_reported":1771403575,"current_range_meters":17200,"station_id":"","pricing_plan_id":"cebpf4jnsgd1na2vs0mg"},{"bike_id":"acc728cd-ad25-43c2-b545-1e473d88f901","system_id":"levelo_inurba_marseille","lat":43.27955,"lon":5.38652,"is_reserved":false,"is_disabled":false,"rental_uris":{"android":"levelo://app?vid=acc728cd-ad25-43c2-b545-1e473d88f901","ios":"levelo://app?vid=acc728cd-ad25-43c2-b545-1e473d88f901"},"vehicle_type_id":"4","last_reported":1771403575,"current_range_meters":24800,"station_id":"","pricing_plan_id":"cebpf4jnsgd1na2vs0mg"},{"bike_id":"91f95071-cb44-4294-8d05-12a1be58ba9d","system_id":"levelo_inurba_marseille","lat":43.25137,"lon":5.40312,"is_reserved":false,"is_disabled":false,"rental_uris":{"android":"levelo://app?vid=91f95071-cb44-4294-8d05-12a1be58ba9d","ios":"levelo://app?vid=91f95071-cb44-4294-8d05-12a1be58ba9d"},"vehicle_type_id":"4","last_reported":1771403575,"current_range_meters":37600,"station_id":"ce4bhlh2rcd13ifvqgig","pricing_plan_id":"cebpf4jnsgd1na2vs0mg"},{"bike_id":"180e5942-7cde-4b03-949b-44ef424b5e5d","system_id":"levelo_inurba_marseille","lat":43.29618,"lon":5.37719,"is_reserved":false,"is_disabled":false,"rental_uris":{"android":"levelo://app?vid=180e5942-7cde-4b03-949b-44ef424b5e5d","ios":"levelo://app?vid=180e5942-7cde-4b03-949b-44ef424b5e5d"},"vehicle_type_id":"4","last_reported":1771403575,"current_range_meters":18000,"station_id":"ce4bgi92rcd13ifvqb90","pricing_plan_id":"cebpf4jnsgd1na2vs0mg"},{"bike_id":"f855f696-c685-4602-9971-e745bddf53bc","system_id":"levelo_inurba_marseille","lat":43.28425,"lon":5.34983,"is_reserved":false,"is_disabled":false,"rental_uris":{"android":"levelo://app?vid=f855f696-c685-4602-9971-e745bddf53bc","ios":"levelo://app?vid=f855f696-c685-4602-9971-e745bddf53bc"},"vehicle_type_id":"4","last_reported":1771403575,"current_range_meters":19200,"station_id":"ce4bhbh2rcd13ifvqepg","pricing_plan_id":"cebpf4jnsgd1na2vs0mg"},{"bike_id":"a051e224-3ae4-4cad-afae-0fc8af5edf92","system_id":"levelo_inurba_marseille","lat":43.318985,"lon":5.407305,"is_reserved":false,"is_disabled":false,"rental_uris":{"android":"levelo://app?vid=a051e224-3ae4-4cad-afae-0fc8af5edf92","ios":"levelo://app?vid=a051e224-3ae4-4cad-afae-0fc8af5edf92"},"vehicle_type_id":"4","last_reported":1771403575,"current_range_meters":39200,"station_id":"ce4bhq12rcd13ifvqhig","pricing_plan_id":"cebpf4jnsgd1na2vs0mg"},{"bike_id":"808e17f3-e8fb-4322-91e5-e0d3af4ac05c","system_id":"levelo_inurba_marseille","lat":43.23214,"lon":5.39986,"is_reserved":false,"is_disabled":false,"rental_uris":{"android":"levelo://app?vid=808e17f3-e8fb-4322-91e5-e0d3af4ac05c","ios":"levelo://app?vid=808e17f3-e8fb-4322-91e5-e0d3af4ac05c"},"vehicle_type_id":"4","last_reported":1771403575,"current_range_meters":6800,"station_id":"ce4bhn12rcd13ifvqgqg","pricing_plan_id":"cebpf4jnsgd1na2vs0mg"},{"bike_id":"0cd885fc-f607-4775-bbd9-be3deac4a95d","system_id":"levelo_inurba_marseille","lat":43.29709,"lon":5.36626,"is_reserved":false,"is_disabled":false,"rental_uris":{"android":"levelo://app?vid=0cd885fc-f607-4775-bbd9-be3deac4a95d","ios":"levelo://app?vid=0cd885fc-f607-4775-bbd9-be3deac4a95d"},"vehicle_type_id":"4","last_reported":1771403575,"current_range_meters":14000,"station_id":"ce4bgn12rcd13ifvqbt0","pricing_plan_id":"cebpf4jnsgd1na2vs0mg"},{"bike_id":"0e6ee23f-9e32-448f-beee-c38d92668003","system_id":"levelo_inurba_marseille","lat":43.3046,"lon":5.37905,"is_reserved":false,"is_disabled":false,"rental_uris":{"android":"levelo://app?vid=0e6ee23f-9e32-448f-beee-c38d92668003","ios":"levelo://app?vid=0e6ee23f-9e32-448f-beee-c38d92668003"},"vehicle_type_id":"4","last_reported":1771403575,"current_range_meters":37600,"station_id":"ce4bgup2rcd13ifvqcn0","pricing_plan_id":"cebpf4jnsgd1na2vs0mg"},{"bike_id":"a68b4305-b95a-44fa-a8f9-fb050648ab50","system_id":"levelo_inurba_marseille","lat":43.27373,"lon":5.36238,"is_reserved":false,"is_disabled":true,"rental_uris":{"android":"levelo://app?vid=a68b4305-b95a-44fa-a8f9-fb050648ab50","ios":"levelo://app?vid=a68b4305-b95a-44fa-a8f9-fb050648ab50"},"vehicle_type_id":"4","last_reported":1771403575,"current_range_meters":0,"station_id":"ce4bhbh2rcd13ifvqeo0","pricing_plan_id":"cebpf4jnsgd1na2vs0mg"},{"bike_id":"ed801aba-6299-4abc-846c-98c2ac128308","system_id":"levelo_inurba_marseille","lat":43.24393,"lon":5.37069,"is_reserved":false,"is_disabled":false,"rental_uris":{"android":"levelo://app?vid=ed801aba-6299-4abc-846c-98c2ac128308","ios":"levelo://app?vid=ed801aba-6299-4abc-846c-98c2ac128308"},"vehicle_type_id":"4","last_reported":1771403575,"current_range_meters":23200,"station_id":"ce4bhhh2rcd13ifvqfk0","pricing_plan_id":"cebpf4jnsgd1na2vs0mg"},{"bike_id":"7073527e-a9ce-4e55-aa22-a8c5d17b756c","system_id":"levelo_inurba_marseille","lat":43.30601,"lon":5.37214,"is_reserved":false,"is_disabled":false,"rental_uris":{"android":"levelo://app?vid=7073527e-a9ce-4e55-aa22-a8c5d17b756c","ios":"levelo://app?vid=7073527e-a9ce-4e55-aa22-a8c5d17b756c"},"vehicle_type_id":"4","last_reported":1771403575,"current_range_meters":9600,"station_id":"ce4bgqh2rcd13ifvqc4g","pricing_plan_id":"cebpf4jnsgd1na2vs0mg"},{"bike_id":"0d1233e3-1195-40cd-8c66-3b11e1089ff0","system_id":"levelo_inurba_marseille","lat":43.280001,"lon":5.400091,"is_reserved":false,"is_disabled":false,"rental_uris":{"android":"levelo://app?vid=0d1233e3-1195-40cd-8c66-3b11e1089ff0","ios":"levelo://app?vid=0d1233e3-1195-40cd-8c66-3b11e1089ff0"},"vehicle_type_id":"4","last_reported":1771403575,"current_range_meters":37600,"station_id":"ce4bho92rcd13ifvqh4g","pricing_plan_id":"cebpf4jnsgd1na2vs0mg"},{"bike_id":"1b4c8f4f-9a12-4948-93fb-3c3dd57799f8","system_id":"levelo_inurba_marseille","lat":43.25565,"lon":5.38249,"is_reserved":false,"is_disabled":false,"rental_uris":{"android":"levelo://app?vid=1b4c8f4f-9a12-4948-93fb-3c3dd57799f8","ios":"levelo://app?vid=1b4c8f4f-9a12-4948-93fb-3c3dd57799f8"},"vehicle_type_id":"4","last_reported":1771403575,"current_range_meters":39200,"station_id":"ce4bhih2rcd13ifvqfs0","pricing_plan_id":"cebpf4jnsgd1na2vs0mg"},{"bike_id":"e59f665b-ca8e-40ab-a2ed-9455369e7fbf","system_id":"levelo_inurba_marseille","lat":43.28468,"lon":5.48398,"is_reserved":false,"is_disabled":false,"rental_uris":{"android":"levelo://app?vid=e59f665b-ca8e-40ab-a2ed-9455369e7fbf","ios":"levelo://app?vid=e59f665b-ca8e-40ab-a2ed-9455369e7fbf"},"vehicle_type_id":"4","last_reported":1771403575,"current_range_meters":28400,"station_id":"","pricing_plan_id":"cebpf4jnsgd1na2vs0mg"},{"bike_id":"95633e65-b602-48e1-a431-ae106c2dc067","system_id":"levelo_inurba_marseille","lat":43.24786,"lon":5.37466,"is_reserved":false,"is_disabled":false,"rental_uris":{"android":"levelo://app?vid=95633e65-b602-48e1-a431-ae106c2dc067","ios":"levelo://app?vid=95633e65-b602-48e1-a431-ae106c2dc067"},"vehicle_type_id":"4","last_reported":1771403575,"current_range_meters":39200,"station_id":"ce4bhgh2rcd13ifvqfb0","pricing_plan_id":"cebpf4jnsgd1na2vs0mg"},{"bike_id":"7b8c7193-f1f2-43c9-91a4-a4cc93269862","system_id":"levelo_inurba_marseille","lat":43.29563,"lon":5.42295,"is_reserved":false,"is_disabled":false,"rental_uris":{"android":"levelo://app?vid=7b8c7193-f1f2-43c9-91a4-a4cc93269862","ios":"levelo://app?vid=7b8c7193-f1f2-43c9-91a4-a4cc93269862"},"vehicle_type_id":"4","last_reported":1771403575,"current_range_meters":19200,"station_id":"ce4bhph2rcd13ifvqhdg","pricing_plan_id":"cebpf4jnsgd1na2vs0mg"},{"bike_id":"8c21ace2-0801-4586-8cea-064ccad16c99","system_id":"levelo_inurba_marseille","lat":43.22565,"lon":5.41622,"is_reserved":false,"is_disabled":false,"rental_uris":{"android":"levelo://app?vid=8c21ace2-0801-4586-8cea-064ccad16c99","ios":"levelo://app?vid=8c21ace2-0801-4586-8cea-064ccad16c99"},"vehicle_type_id":"4","last_reported":1771403575,"current_range_meters":2800,"station_id":"st_d2o4gvlbi1j2169b742g","pricing_plan_id":"cebpf4jnsgd1na2vs0mg"},{"bike_id":"0e05e070-4bde-49c4-addd-7b85f3d51760","system_id":"levelo_inurba_marseille","lat":43.26497,"lon":5.39543,"is_reserved":false,"is_disabled":false,"rental_uris":{"android":"levelo://app?vid=0e05e070-4bde-49c4-addd-7b85f3d51760","ios":"levelo://app?vid=0e05e070-4bde-49c4-addd-7b85f3d51760"},"vehicle_type_id":"4","last_reported":1771403575,"current_range_meters":30400,"station_id":"ce4bhi12rcd13ifvqfq0","pricing_plan_id":"cebpf4jnsgd1na2vs0mg"},{"bike_id":"bf9fd963-c917-4987-b8fc-44045f07c08b","system_id":"levelo_inurba_marseille","lat":43.31089,"lon":5.42428,"is_reserved":false,"is_disabled":false,"rental_uris":{"android":"levelo://app?vid=bf9fd963-c917-4987-b8fc-44045f07c08b","ios":"levelo://app?vid=bf9fd963-c917-4987-b8fc-44045f07c08b"},"vehicle_type_id":"4","last_reported":1771403575,"current_range_meters":22000,"station_id":"ce4bhp92rcd13ifvqhag","pricing_plan_id":"cebpf4jnsgd1na2vs0mg"},{"bike_id":"6a073e53-b7ba-45d5-a82b-20ab8b7b8e96","system_id":"levelo_inurba_marseille","lat":43.33478,"lon":5.3755,"is_reserved":false,"is_disabled":false,"rental_uris":{"android":"levelo://app?vid=6a073e53-b7ba-45d5-a82b-20ab8b7b8e96","ios":"levelo://app?vid=6a073e53-b7ba-45d5-a82b-20ab8b7b8e96"},"vehicle_type_id":"4","last_reported":1771403575,"current_range_meters":22400,"station_id":"st_d46tts09ee8s73dlu43g","pricing_plan_id":"cebpf4jnsgd1na2vs0mg"},{"bike_id":"27586e15-78a0-41b9-981d-e5de2751a5b3","system_id":"levelo_inurba_marseille","lat":43.30306,"lon":5.36886,"is_reserved":false,"is_disabled":false,"rental_uris":{"android":"levelo://app?vid=27586e15-78a0-41b9-981d-e5de2751a5b3","ios":"levelo://app?vid=27586e15-78a0-41b9-981d-e5de2751a5b3"},"vehicle_type_id":"4","last_reported":1771403575,"current_range_meters":20400,"station_id":"ce4bgqh2rcd13ifvqc5g","pricing_plan_id":"cebpf4jnsgd1na2vs0mg"},{"bike_id":"c1c9eb2a-e5f4-4aef-ad76-98cc8c908c90","system_id":"levelo_inurba_marseille","lat":43.29521,"lon":5.39404,"is_reserved":false,"is_disabled":false,"rental_uris":{"android":"levelo://app?vid=c1c9eb2a-e5f4-4aef-ad76-98cc8c908c90","ios":"levelo://app?vid=c1c9eb2a-e5f4-4aef-ad76-98cc8c908c90"},"vehicle_type_id":"4","last_reported":1771403575,"current_range_meters":24000,"station_id":"ce4bh292rcd13ifvqdf0","pricing_plan_id":"cebpf4jnsgd1na2vs0mg"},{"bike_id":"d3f778af-559d-4a52-8daa-42df030a0c20","system_id":"levelo_inurba_marseille","lat":43.29549,"lon":5.37541,"is_reserved":false,"is_disabled":false,"rental_uris":{"android":"levelo://app?vid=d3f778af-559d-4a52-8daa-42df030a0c20","ios":"levelo://app?vid=d3f778af-559d-4a52-8daa-42df030a0c20"},"vehicle_type_id":"4","last_reported":1771403575,"current_range_meters":39200,"station_id":"ce4bgh92rcd13ifvqb50","pricing_plan_id":"cebpf4jnsgd1na2vs0mg"},{"bike_id":"e87cafb3-c406-4824-9e46-4ead45fa0dad","system_id":"levelo_inurba_marseille","lat":43.2761,"lon":5.36111,"is_reserved":false,"is_disabled":false,"rental_uris":{"android":"levelo://app?vid=e87cafb3-c406-4824-9e46-4ead45fa0dad","ios":"levelo://app?vid=e87cafb3-c406-4824-9e46-4ead45fa0dad"},"vehicle_type_id":"4","last_reported":1771403575,"current_range_meters":19600,"station_id":"ce4bgj92rcd13ifvqbe0","pricing_plan_id":"cebpf4jnsgd1na2vs0mg"},{"bike_id":"b256f836-d3c4-4133-9b55-7e5a3accf6d7","system_id":"levelo_inurba_marseille","lat":43.2667,"lon":5.38299,"is_reserved":false,"is_disabled":false,"rental_uris":{"android":"levelo://app?vid=b256f836-d3c4-4133-9b55-7e5a3accf6d7","ios":"levelo://app?vid=b256f836-d3c4-4133-9b55-7e5a3accf6d7"},"vehicle_type_id":"4","last_reported":1771403575,"current_range_meters":33600,"station_id":"ce4bhg92rcd13ifvqf90","pricing_plan_id":"cebpf4jnsgd1na2vs0mg"},{"bike_id":"cdedfe68-8f81-48b1-a1d4-83bdd88645c6","system_id":"levelo_inurba_marseille","lat":43.22944,"lon":5.35379,"is_reserved":false,"is_disabled":false,"rental_uris":{"android":"levelo://app?vid=cdedfe68-8f81-48b1-a1d4-83bdd88645c6","ios":"levelo://app?vid=cdedfe68-8f81-48b1-a1d4-83bdd88645c6"},"vehicle_type_id":"4","last_reported":1771403575,"current_range_meters":33200,"station_id":"cpo3532slgdg3j2ikp40","pricing_plan_id":"cebpf4jnsgd1na2vs0mg"},{"bike_id":"e115df23-e43f-4ccb-8317-226a8cedd683","system_id":"levelo_inurba_marseille","lat":43.29569,"lon":5.36735,"is_reserved":false,"is_disabled":false,"rental_uris":{"android":"levelo://app?vid=e115df23-e43f-4ccb-8317-226a8cedd683","ios":"levelo://app?vid=e115df23-e43f-4ccb-8317-226a8cedd683"},"vehicle_type_id":"4","last_reported":1771403575,"current_range_meters":2800,"station_id":"ce4bgph2rcd13ifvqc2g","pricing_plan_id":"cebpf4jnsgd1na2vs0mg"},{"bike_id":"9f7d4120-88c6-4f00-9c71-dc530593e541","system_id":"levelo_inurba_marseille","lat":43.27995,"lon":5.41668,"is_reserved":false,"is_disabled":false,"rental_uris":{"android":"levelo://app?vid=9f7d4120-88c6-4f00-9c71-dc530593e541","ios":"levelo://app?vid=9f7d4120-88c6-4f00-9c71-dc530593e541"},"vehicle_type_id":"4","last_reported":1771403575,"current_range_meters":30400,"station_id":"ce4bho12rcd13ifvqh1g","pricing_plan_id":"cebpf4jnsgd1na2vs0mg"},{"bike_id":"db69142c-22a4-4f82-9e9d-07c13829958a","system_id":"levelo_inurba_marseille","lat":43.30296,"lon":5.36897,"is_reserved":false,"is_disabled":false,"rental_uris":{"android":"levelo://app?vid=db69142c-22a4-4f82-9e9d-07c13829958a","ios":"levelo://app?vid=db69142c-22a4-4f82-9e9d-07c13829958a"},"vehicle_type_id":"4","last_reported":1771403575,"current_range_meters":24000,"station_id":"ce4bgqh2rcd13ifvqc5g","pricing_plan_id":"cebpf4jnsgd1na2vs0mg"},{"bike_id":"12673977-5b25-450a-8cdc-00ac951258dd","system_id":"levelo_inurba_marseille","lat":43.31043,"lon":5.37161,"is_reserved":false,"is_disabled":true,"rental_uris":{"android":"levelo://app?vid=12673977-5b25-450a-8cdc-00ac951258dd","ios":"levelo://app?vid=12673977-5b25-450a-8cdc-00ac951258dd"},"vehicle_type_id":"4","last_reported":1771403575,"current_range_meters":37600,"station_id":"st_d4kl2rp97mjs73e7tdfg","pricing_plan_id":"cebpf4jnsgd1na2vs0mg"},{"bike_id":"099fe592-2fa3-4f57-bfab-42a8e4b3770c","system_id":"levelo_inurba_marseille","lat":43.23202,"lon":5.39955,"is_reserved":false,"is_disabled":false,"rental_uris":{"android":"levelo://app?vid=099fe592-2fa3-4f57-bfab-42a8e4b3770c","ios":"levelo://app?vid=099fe592-2fa3-4f57-bfab-42a8e4b3770c"},"vehicle_type_id":"4","last_reported":1771403575,"current_range_meters":22000,"station_id":"ce4bhn12rcd13ifvqgqg","pricing_plan_id":"cebpf4jnsgd1na2vs0mg"},{"bike_id":"5c78c42d-845c-4a8b-b717-4af1db2a9508","system_id":"levelo_inurba_marseille","lat":43.305095,"lon":5.375462,"is_reserved":false,"is_disabled":false,"rental_uris":{"android":"levelo://app?vid=5c78c42d-845c-4a8b-b717-4af1db2a9508","ios":"levelo://app?vid=5c78c42d-845c-4a8b-b717-4af1db2a9508"},"vehicle_type_id":"4","last_reported":1771403575,"current_range_meters":12400,"station_id":"ce4bgup2rcd13ifvqcn0","pricing_plan_id":"cebpf4jnsgd1na2vs0mg"},{"bike_id":"dbee3b04-5ad0-4739-9be1-4a344053621f","system_id":"levelo_inurba_marseille","lat":43.299656,"lon":5.413229,"is_reserved":false,"is_disabled":false,"rental_uris":{"android":"levelo://app?vid=dbee3b04-5ad0-4739-9be1-4a344053621f","ios":"levelo://app?vid=dbee3b04-5ad0-4739-9be1-4a344053621f"},"vehicle_type_id":"4","last_reported":1771403575,"current_range_meters":28400,"station_id":"ce4bhp12rcd13ifvqh9g","pricing_plan_id":"cebpf4jnsgd1na2vs0mg"},{"bike_id":"3d7a6183-9ffb-4611-a687-1a007981da8e","system_id":"levelo_inurba_marseille","lat":43.29278,"lon":5.40133,"is_reserved":false,"is_disabled":false,"rental_uris":{"android":"levelo://app?vid=3d7a6183-9ffb-4611-a687-1a007981da8e","ios":"levelo://app?vid=3d7a6183-9ffb-4611-a687-1a007981da8e"},"vehicle_type_id":"4","last_reported":1771403575,"current_range_meters":38400,"station_id":"ce4bh312rcd13ifvqdk0","pricing_plan_id":"cebpf4jnsgd1na2vs0mg"},{"bike_id":"201ca36c-c632-433f-8e63-028103426023","system_id":"levelo_inurba_marseille","lat":43.284727,"lon":5.484041,"is_reserved":false,"is_disabled":false,"rental_uris":{"android":"levelo://app?vid=201ca36c-c632-433f-8e63-028103426023","ios":"levelo://app?vid=201ca36c-c632-433f-8e63-028103426023"},"vehicle_type_id":"4","last_reported":1771403575,"current_range_meters":16000,"station_id":"","pricing_plan_id":"cebpf4jnsgd1na2vs0mg"},{"bike_id":"ef70ce12-fd44-42a0-88ed-3b2ca489b7fa","system_id":"levelo_inurba_marseille","lat":43.28865,"lon":5.42529,"is_reserved":false,"is_disabled":false,"rental_uris":{"android":"levelo://app?vid=ef70ce12-fd44-42a0-88ed-3b2ca489b7fa","ios":"levelo://app?vid=ef70ce12-fd44-42a0-88ed-3b2ca489b7fa"},"vehicle_type_id":"4","last_reported":1771403575,"current_range_meters":38800,"station_id":"st_d3b462108ojc7389ooeg","pricing_plan_id":"cebpf4jnsgd1na2vs0mg"},{"bike_id":"5fac5634-f083-42b7-984e-ddde0d7aba68","system_id":"levelo_inurba_marseille","lat":43.26685,"lon":5.382675,"is_reserved":false,"is_disabled":false,"rental_uris":{"android":"levelo://app?vid=5fac5634-f083-42b7-984e-ddde0d7aba68","ios":"levelo://app?vid=5fac5634-f083-42b7-984e-ddde0d7aba68"},"vehicle_type_id":"4","last_reported":1771403575,"current_range_meters":20800,"station_id":"ce4bhg92rcd13ifvqf90","pricing_plan_id":"cebpf4jnsgd1na2vs0mg"},{"bike_id":"caa5ea2a-af5e-4ffa-9170-2afae278b38b","system_id":"levelo_inurba_marseille","lat":43.31104,"lon":5.37759,"is_reserved":false,"is_disabled":false,"rental_uris":{"android":"levelo://app?vid=caa5ea2a-af5e-4ffa-9170-2afae278b38b","ios":"levelo://app?vid=caa5ea2a-af5e-4ffa-9170-2afae278b38b"},"vehicle_type_id":"4","last_reported":1771403575,"current_range_meters":39200,"station_id":"ce4bgt92rcd13ifvqcg0","pricing_plan_id":"cebpf4jnsgd1na2vs0mg"},{"bike_id":"6fec69ba-0d14-4aa9-ac7c-84360db34806","system_id":"levelo_inurba_marseille","lat":43.245,"lon":5.42535,"is_reserved":false,"is_disabled":false,"rental_uris":{"android":"levelo://app?vid=6fec69ba-0d14-4aa9-ac7c-84360db34806","ios":"levelo://app?vid=6fec69ba-0d14-4aa9-ac7c-84360db34806"},"vehicle_type_id":"4","last_reported":1771403575,"current_range_meters":20800,"station_id":"st_d4a3vfp97mjs738cd8kg","pricing_plan_id":"cebpf4jnsgd1na2vs0mg"},{"bike_id":"24bfcccb-9737-4ff6-b269-73bf67dd668b","system_id":"levelo_inurba_marseille","lat":43.27221,"lon":5.39158,"is_reserved":false,"is_disabled":false,"rental_uris":{"android":"levelo://app?vid=24bfcccb-9737-4ff6-b269-73bf67dd668b","ios":"levelo://app?vid=24bfcccb-9737-4ff6-b269-73bf67dd668b"},"vehicle_type_id":"4","last_reported":1771403575,"current_range_meters":12400,"station_id":"ce4bhhp2rcd13ifvqfm0","pricing_plan_id":"cebpf4jnsgd1na2vs0mg"},{"bike_id":"63fc87af-2496-4657-92a6-ed15e18402ae","system_id":"levelo_inurba_marseille","lat":43.2953,"lon":5.38547,"is_reserved":false,"is_disabled":false,"rental_uris":{"android":"levelo://app?vid=63fc87af-2496-4657-92a6-ed15e18402ae","ios":"levelo://app?vid=63fc87af-2496-4657-92a6-ed15e18402ae"},"vehicle_type_id":"4","last_reported":1771403575,"current_range_meters":3200,"station_id":"ce4bgih2rcd13ifvqba0","pricing_plan_id":"cebpf4jnsgd1na2vs0mg"},{"bike_id":"5b012de4-7e8b-4538-86be-6640a0946719","system_id":"levelo_inurba_marseille","lat":43.241746,"lon":5.363959,"is_reserved":false,"is_disabled":true,"rental_uris":{"android":"levelo://app?vid=5b012de4-7e8b-4538-86be-6640a0946719","ios":"levelo://app?vid=5b012de4-7e8b-4538-86be-6640a0946719"},"vehicle_type_id":"4","last_reported":1771403575,"current_range_meters":18000,"station_id":"cpo36qri1sfpv3e86is0","pricing_plan_id":"cebpf4jnsgd1na2vs0mg"},{"bike_id":"22ff029c-b630-4deb-8eec-2cfea2fb6d21","system_id":"levelo_inurba_marseille","lat":43.28453,"lon":5.35892,"is_reserved":false,"is_disabled":false,"rental_uris":{"android":"levelo://app?vid=22ff029c-b630-4deb-8eec-2cfea2fb6d21","ios":"levelo://app?vid=22ff029c-b630-4deb-8eec-2cfea2fb6d21"},"vehicle_type_id":"4","last_reported":1771403575,"current_range_meters":8800,"station_id":"ce4bhah2rcd13ifvqei0","pricing_plan_id":"cebpf4jnsgd1na2vs0mg"},{"bike_id":"4176571c-754f-4582-8e5a-2f156b2feddd","system_id":"levelo_inurba_marseille","lat":43.2557,"lon":5.38242,"is_reserved":false,"is_disabled":false,"rental_uris":{"android":"levelo://app?vid=4176571c-754f-4582-8e5a-2f156b2feddd","ios":"levelo://app?vid=4176571c-754f-4582-8e5a-2f156b2feddd"},"vehicle_type_id":"4","last_reported":1771403575,"current_range_meters":27200,"station_id":"ce4bhih2rcd13ifvqfs0","pricing_plan_id":"cebpf4jnsgd1na2vs0mg"},{"bike_id":"e764085e-f4e1-42a6-baab-ba6d13c85e46","system_id":"levelo_inurba_marseille","lat":43.27374,"lon":5.36265,"is_reserved":false,"is_disabled":false,"rental_uris":{"android":"levelo://app?vid=e764085e-f4e1-42a6-baab-ba6d13c85e46","ios":"levelo://app?vid=e764085e-f4e1-42a6-baab-ba6d13c85e46"},"vehicle_type_id":"4","last_reported":1771403575,"current_range_meters":14800,"station_id":"ce4bhbh2rcd13ifvqeo0","pricing_plan_id":"cebpf4jnsgd1na2vs0mg"},{"bike_id":"96438059-8ec7-4cad-b18f-887d9f3a4374","system_id":"levelo_inurba_marseille","lat":43.31492,"lon":5.37315,"is_reserved":false,"is_disabled":false,"rental_uris":{"android":"levelo://app?vid=96438059-8ec7-4cad-b18f-887d9f3a4374","ios":"levelo://app?vid=96438059-8ec7-4cad-b18f-887d9f3a4374"},"vehicle_type_id":"4","last_reported":1771403575,"current_range_meters":37600,"station_id":"ce4bgt12rcd13ifvqcd0","pricing_plan_id":"cebpf4jnsgd1na2vs0mg"},{"bike_id":"d1443d61-dcd2-47be-98af-542c0d116e2b","system_id":"levelo_inurba_marseille","lat":43.30602,"lon":5.37192,"is_reserved":false,"is_disabled":false,"rental_uris":{"android":"levelo://app?vid=d1443d61-dcd2-47be-98af-542c0d116e2b","ios":"levelo://app?vid=d1443d61-dcd2-47be-98af-542c0d116e2b"},"vehicle_type_id":"4","last_reported":1771403575,"current_range_meters":28000,"station_id":"ce4bgqh2rcd13ifvqc4g","pricing_plan_id":"cebpf4jnsgd1na2vs0mg"},{"bike_id":"0dfa6421-c8cf-4d26-9aa4-6c0a5c5b4d53","system_id":"levelo_inurba_marseille","lat":43.26678,"lon":5.38259,"is_reserved":false,"is_disabled":false,"rental_uris":{"android":"levelo://app?vid=0dfa6421-c8cf-4d26-9aa4-6c0a5c5b4d53","ios":"levelo://app?vid=0dfa6421-c8cf-4d26-9aa4-6c0a5c5b4d53"},"vehicle_type_id":"4","last_reported":1771403575,"current_range_meters":32400,"station_id":"ce4bhg92rcd13ifvqf90","pricing_plan_id":"cebpf4jnsgd1na2vs0mg"},{"bike_id":"3cdfc664-9aa0-4197-963c-e24c4c695787","system_id":"levelo_inurba_marseille","lat":43.27049,"lon":5.42318,"is_reserved":false,"is_disabled":false,"rental_uris":{"android":"levelo://app?vid=3cdfc664-9aa0-4197-963c-e24c4c695787","ios":"levelo://app?vid=3cdfc664-9aa0-4197-963c-e24c4c695787"},"vehicle_type_id":"4","last_reported":1771403575,"current_range_meters":39200,"station_id":"ce4bhk92rcd13ifvqgb0","pricing_plan_id":"cebpf4jnsgd1na2vs0mg"},{"bike_id":"9c7f6069-ad07-4506-a19b-00813fe867d7","system_id":"levelo_inurba_marseille","lat":43.30873,"lon":5.36973,"is_reserved":false,"is_disabled":true,"rental_uris":{"android":"levelo://app?vid=9c7f6069-ad07-4506-a19b-00813fe867d7","ios":"levelo://app?vid=9c7f6069-ad07-4506-a19b-00813fe867d7"},"vehicle_type_id":"4","last_reported":1771403575,"current_range_meters":40000,"station_id":"ce4bgn92rcd13ifvqbvg","pricing_plan_id":"cebpf4jnsgd1na2vs0mg"},{"bike_id":"60d19533-d916-46e5-9e83-963557cfb5f0","system_id":"levelo_inurba_marseille","lat":43.30925,"lon":5.36864,"is_reserved":false,"is_disabled":false,"rental_uris":{"android":"levelo://app?vid=60d19533-d916-46e5-9e83-963557cfb5f0","ios":"levelo://app?vid=60d19533-d916-46e5-9e83-963557cfb5f0"},"vehicle_type_id":"4","last_reported":1771403575,"current_range_meters":36400,"station_id":"ce4bgn92rcd13ifvqbvg","pricing_plan_id":"cebpf4jnsgd1na2vs0mg"},{"bike_id":"200f07f2-6ab6-46ed-9f22-639cf1d5ab95","system_id":"levelo_inurba_marseille","lat":43.27089,"lon":5.42341,"is_reserved":false,"is_disabled":false,"rental_uris":{"android":"levelo://app?vid=200f07f2-6ab6-46ed-9f22-639cf1d5ab95","ios":"levelo://app?vid=200f07f2-6ab6-46ed-9f22-639cf1d5ab95"},"vehicle_type_id":"4","last_reported":1771403575,"current_range_meters":34000,"station_id":"","pricing_plan_id":"cebpf4jnsgd1na2vs0mg"},{"bike_id":"7381437b-194b-488a-adf6-3b2cbe972537","system_id":"levelo_inurba_marseille","lat":43.30954,"lon":5.39032,"is_reserved":false,"is_disabled":false,"rental_uris":{"android":"levelo://app?vid=7381437b-194b-488a-adf6-3b2cbe972537","ios":"levelo://app?vid=7381437b-194b-488a-adf6-3b2cbe972537"},"vehicle_type_id":"4","last_reported":1771403575,"current_range_meters":33200,"station_id":"ce4bgup2rcd13ifvqco0","pricing_plan_id":"cebpf4jnsgd1na2vs0mg"},{"bike_id":"b1048a2f-4d8d-48be-b11f-0004985f0961","system_id":"levelo_inurba_marseille","lat":43.29876,"lon":5.3892,"is_reserved":false,"is_disabled":false,"rental_uris":{"android":"levelo://app?vid=b1048a2f-4d8d-48be-b11f-0004985f0961","ios":"levelo://app?vid=b1048a2f-4d8d-48be-b11f-0004985f0961"},"vehicle_type_id":"4","last_reported":1771403575,"current_range_meters":38400,"station_id":"ce4bh392rcd13ifvqdl0","pricing_plan_id":"cebpf4jnsgd1na2vs0mg"},{"bike_id":"37b24720-0338-482f-86af-66c169d136d2","system_id":"levelo_inurba_marseille","lat":43.29285,"lon":5.37617,"is_reserved":false,"is_disabled":false,"rental_uris":{"android":"levelo://app?vid=37b24720-0338-482f-86af-66c169d136d2","ios":"levelo://app?vid=37b24720-0338-482f-86af-66c169d136d2"},"vehicle_type_id":"4","last_reported":1771403575,"current_range_meters":35200,"station_id":"ce4bgi12rcd13ifvqb80","pricing_plan_id":"cebpf4jnsgd1na2vs0mg"},{"bike_id":"bfe5da93-4140-4f08-a5ec-776d11f15a62","system_id":"levelo_inurba_marseille","lat":43.29886,"lon":5.38904,"is_reserved":false,"is_disabled":true,"rental_uris":{"android":"levelo://app?vid=bfe5da93-4140-4f08-a5ec-776d11f15a62","ios":"levelo://app?vid=bfe5da93-4140-4f08-a5ec-776d11f15a62"},"vehicle_type_id":"4","last_reported":1771403575,"current_range_meters":27600,"station_id":"ce4bh392rcd13ifvqdl0","pricing_plan_id":"cebpf4jnsgd1na2vs0mg"},{"bike_id":"f6041667-a189-4c35-8328-024fab0e230c","system_id":"levelo_inurba_marseille","lat":43.26489,"lon":5.39544,"is_reserved":false,"is_disabled":false,"rental_uris":{"android":"levelo://app?vid=f6041667-a189-4c35-8328-024fab0e230c","ios":"levelo://app?vid=f6041667-a189-4c35-8328-024fab0e230c"},"vehicle_type_id":"4","last_reported":1771403575,"current_range_meters":14800,"station_id":"ce4bhi12rcd13ifvqfq0","pricing_plan_id":"cebpf4jnsgd1na2vs0mg"},{"bike_id":"9da307a9-6eeb-417a-bd1a-5a2bc5ec4b21","system_id":"levelo_inurba_marseille","lat":43.297003,"lon":5.376916,"is_reserved":false,"is_disabled":false,"rental_uris":{"android":"levelo://app?vid=9da307a9-6eeb-417a-bd1a-5a2bc5ec4b21","ios":"levelo://app?vid=9da307a9-6eeb-417a-bd1a-5a2bc5ec4b21"},"vehicle_type_id":"4","last_reported":1771403575,"current_range_meters":30800,"station_id":"ce4bh4p2rcd13ifvqe1g","pricing_plan_id":"cebpf4jnsgd1na2vs0mg"},{"bike_id":"c7d2b54a-d383-408d-9a81-b600a9105a37","system_id":"levelo_inurba_marseille","lat":43.33534,"lon":5.37485,"is_reserved":false,"is_disabled":false,"rental_uris":{"android":"levelo://app?vid=c7d2b54a-d383-408d-9a81-b600a9105a37","ios":"levelo://app?vid=c7d2b54a-d383-408d-9a81-b600a9105a37"},"vehicle_type_id":"4","last_reported":1771403575,"current_range_meters":25200,"station_id":"st_d46tts09ee8s73dlu43g","pricing_plan_id":"cebpf4jnsgd1na2vs0mg"},{"bike_id":"7fad2838-a1c4-4318-ad98-d68b8e542b3b","system_id":"levelo_inurba_marseille","lat":43.28941,"lon":5.3963,"is_reserved":false,"is_disabled":false,"rental_uris":{"android":"levelo://app?vid=7fad2838-a1c4-4318-ad98-d68b8e542b3b","ios":"levelo://app?vid=7fad2838-a1c4-4318-ad98-d68b8e542b3b"},"vehicle_type_id":"4","last_reported":1771403575,"current_range_meters":27200,"station_id":"ce4bh3h2rcd13ifvqdn0","pricing_plan_id":"cebpf4jnsgd1na2vs0mg"},{"bike_id":"03ae242d-7c3f-4e64-b4ea-0fd10be2035b","system_id":"levelo_inurba_marseille","lat":43.29731,"lon":5.42785,"is_reserved":false,"is_disabled":false,"rental_uris":{"android":"levelo://app?vid=03ae242d-7c3f-4e64-b4ea-0fd10be2035b","ios":"levelo://app?vid=03ae242d-7c3f-4e64-b4ea-0fd10be2035b"},"vehicle_type_id":"4","last_reported":1771403575,"current_range_meters":30800,"station_id":"st_d3md5207bmas73dh9klg","pricing_plan_id":"cebpf4jnsgd1na2vs0mg"},{"bike_id":"f7362065-d420-4b4c-a6f8-9f535aa6199b","system_id":"levelo_inurba_marseille","lat":43.297856,"lon":5.393375,"is_reserved":false,"is_disabled":false,"rental_uris":{"android":"levelo://app?vid=f7362065-d420-4b4c-a6f8-9f535aa6199b","ios":"levelo://app?vid=f7362065-d420-4b4c-a6f8-9f535aa6199b"},"vehicle_type_id":"4","last_reported":1771403575,"current_range_meters":36400,"station_id":"chh1huq6cuj3fo74tm60","pricing_plan_id":"cebpf4jnsgd1na2vs0mg"},{"bike_id":"bc33fc08-f85a-4f32-84fb-8b24d5daa10d","system_id":"levelo_inurba_marseille","lat":43.27977,"lon":5.41664,"is_reserved":false,"is_disabled":false,"rental_uris":{"android":"levelo://app?vid=bc33fc08-f85a-4f32-84fb-8b24d5daa10d","ios":"levelo://app?vid=bc33fc08-f85a-4f32-84fb-8b24d5daa10d"},"vehicle_type_id":"4","last_reported":1771403575,"current_range_meters":36000,"station_id":"ce4bho12rcd13ifvqh1g","pricing_plan_id":"cebpf4jnsgd1na2vs0mg"},{"bike_id":"092117a9-4db6-42cb-9df2-c9f3a42c8f5a","system_id":"levelo_inurba_marseille","lat":43.248131,"lon":5.374611,"is_reserved":false,"is_disabled":false,"rental_uris":{"android":"levelo://app?vid=092117a9-4db6-42cb-9df2-c9f3a42c8f5a","ios":"levelo://app?vid=092117a9-4db6-42cb-9df2-c9f3a42c8f5a"},"vehicle_type_id":"4","last_reported":1771403575,"current_range_meters":39200,"station_id":"ce4bhgh2rcd13ifvqfb0","pricing_plan_id":"cebpf4jnsgd1na2vs0mg"},{"bike_id":"b56380f9-a759-4bad-ae97-ee9b0c34fdbe","system_id":"levelo_inurba_marseille","lat":43.33554,"lon":5.37462,"is_reserved":false,"is_disabled":false,"rental_uris":{"android":"levelo://app?vid=b56380f9-a759-4bad-ae97-ee9b0c34fdbe","ios":"levelo://app?vid=b56380f9-a759-4bad-ae97-ee9b0c34fdbe"},"vehicle_type_id":"4","last_reported":1771403575,"current_range_meters":25600,"station_id":"st_d46tts09ee8s73dlu43g","pricing_plan_id":"cebpf4jnsgd1na2vs0mg"},{"bike_id":"ec4dbac0-9bbc-4877-b0a4-5e970b8017d8","system_id":"levelo_inurba_marseille","lat":43.3133,"lon":5.36727,"is_reserved":false,"is_disabled":false,"rental_uris":{"android":"levelo://app?vid=ec4dbac0-9bbc-4877-b0a4-5e970b8017d8","ios":"levelo://app?vid=ec4dbac0-9bbc-4877-b0a4-5e970b8017d8"},"vehicle_type_id":"4","last_reported":1771403575,"current_range_meters":11600,"station_id":"ce4bgr92rcd13ifvqc6g","pricing_plan_id":"cebpf4jnsgd1na2vs0mg"},{"bike_id":"307f9d95-61f7-497f-86a7-f2fa0db54b05","system_id":"levelo_inurba_marseille","lat":43.27682,"lon":5.38874,"is_reserved":false,"is_disabled":false,"rental_uris":{"android":"levelo://app?vid=307f9d95-61f7-497f-86a7-f2fa0db54b05","ios":"levelo://app?vid=307f9d95-61f7-497f-86a7-f2fa0db54b05"},"vehicle_type_id":"4","last_reported":1771403575,"current_range_meters":32800,"station_id":"ce4bhi12rcd13ifvqfo0","pricing_plan_id":"cebpf4jnsgd1na2vs0mg"},{"bike_id":"e5c37de4-5b20-40fe-851e-2d0c03d75c93","system_id":"levelo_inurba_marseille","lat":43.33125,"lon":5.39271,"is_reserved":false,"is_disabled":false,"rental_uris":{"android":"levelo://app?vid=e5c37de4-5b20-40fe-851e-2d0c03d75c93","ios":"levelo://app?vid=e5c37de4-5b20-40fe-851e-2d0c03d75c93"},"vehicle_type_id":"4","last_reported":1771403575,"current_range_meters":17200,"station_id":"","pricing_plan_id":"cebpf4jnsgd1na2vs0mg"},{"bike_id":"07b0f432-5e82-4f8c-81ee-67d93dfdf4d8","system_id":"levelo_inurba_marseille","lat":43.28612,"lon":5.35097,"is_reserved":false,"is_disabled":false,"rental_uris":{"android":"levelo://app?vid=07b0f432-5e82-4f8c-81ee-67d93dfdf4d8","ios":"levelo://app?vid=07b0f432-5e82-4f8c-81ee-67d93dfdf4d8"},"vehicle_type_id":"4","last_reported":1771403575,"current_range_meters":9600,"station_id":"ce4bhch2rcd13ifvqeug","pricing_plan_id":"cebpf4jnsgd1na2vs0mg"},{"bike_id":"127677c5-4cab-4685-9cfe-a1e546a48838","system_id":"levelo_inurba_marseille","lat":43.32106,"lon":5.36771,"is_reserved":false,"is_disabled":false,"rental_uris":{"android":"levelo://app?vid=127677c5-4cab-4685-9cfe-a1e546a48838","ios":"levelo://app?vid=127677c5-4cab-4685-9cfe-a1e546a48838"},"vehicle_type_id":"4","last_reported":1771403575,"current_range_meters":20000,"station_id":"ce4bhrh2rcd13ifvqhug","pricing_plan_id":"cebpf4jnsgd1na2vs0mg"},{"bike_id":"dcd0cf55-ffb3-4ae8-85bc-3fda68997124","system_id":"levelo_inurba_marseille","lat":43.26983,"lon":5.38638,"is_reserved":false,"is_disabled":false,"rental_uris":{"android":"levelo://app?vid=dcd0cf55-ffb3-4ae8-85bc-3fda68997124","ios":"levelo://app?vid=dcd0cf55-ffb3-4ae8-85bc-3fda68997124"},"vehicle_type_id":"4","last_reported":1771403575,"current_range_meters":16000,"station_id":"ce4bhh92rcd13ifvqfh0","pricing_plan_id":"cebpf4jnsgd1na2vs0mg"},{"bike_id":"693baac7-a4d3-48c1-ab3f-02c00c02f8e1","system_id":"levelo_inurba_marseille","lat":43.240734,"lon":5.377607,"is_reserved":false,"is_disabled":false,"rental_uris":{"android":"levelo://app?vid=693baac7-a4d3-48c1-ab3f-02c00c02f8e1","ios":"levelo://app?vid=693baac7-a4d3-48c1-ab3f-02c00c02f8e1"},"vehicle_type_id":"4","last_reported":1771403575,"current_range_meters":9200,"station_id":"","pricing_plan_id":"cebpf4jnsgd1na2vs0mg"},{"bike_id":"ad0ae30e-5c7c-4f06-9da3-238a8444897d","system_id":"levelo_inurba_marseille","lat":43.28597,"lon":5.35163,"is_reserved":false,"is_disabled":false,"rental_uris":{"android":"levelo://app?vid=ad0ae30e-5c7c-4f06-9da3-238a8444897d","ios":"levelo://app?vid=ad0ae30e-5c7c-4f06-9da3-238a8444897d"},"vehicle_type_id":"4","last_reported":1771403575,"current_range_meters":36000,"station_id":"","pricing_plan_id":"cebpf4jnsgd1na2vs0mg"},{"bike_id":"47788a9b-3d71-4615-adaa-2c88572889ac","system_id":"levelo_inurba_marseille","lat":43.31478,"lon":5.37309,"is_reserved":false,"is_disabled":false,"rental_uris":{"android":"levelo://app?vid=47788a9b-3d71-4615-adaa-2c88572889ac","ios":"levelo://app?vid=47788a9b-3d71-4615-adaa-2c88572889ac"},"vehicle_type_id":"4","last_reported":1771403575,"current_range_meters":33600,"station_id":"ce4bgt12rcd13ifvqcd0","pricing_plan_id":"cebpf4jnsgd1na2vs0mg"},{"bike_id":"1dfc9df6-efc3-44e1-bfa7-eabdccc695a9","system_id":"levelo_inurba_marseille","lat":43.33534,"lon":5.37427,"is_reserved":false,"is_disabled":false,"rental_uris":{"android":"levelo://app?vid=1dfc9df6-efc3-44e1-bfa7-eabdccc695a9","ios":"levelo://app?vid=1dfc9df6-efc3-44e1-bfa7-eabdccc695a9"},"vehicle_type_id":"4","last_reported":1771403575,"current_range_meters":14800,"station_id":"st_d46tts09ee8s73dlu43g","pricing_plan_id":"cebpf4jnsgd1na2vs0mg"},{"bike_id":"feddf533-e694-4295-8a00-2ac5034dd517","system_id":"levelo_inurba_marseille","lat":43.23963,"lon":5.36641,"is_reserved":false,"is_disabled":false,"rental_uris":{"android":"levelo://app?vid=feddf533-e694-4295-8a00-2ac5034dd517","ios":"levelo://app?vid=feddf533-e694-4295-8a00-2ac5034dd517"},"vehicle_type_id":"4","last_reported":1771403575,"current_range_meters":24000,"station_id":"ce4bhi12rcd13ifvqfp0","pricing_plan_id":"cebpf4jnsgd1na2vs0mg"},{"bike_id":"14867868-6aed-41c1-9296-5792e4f862f8","system_id":"levelo_inurba_marseille","lat":43.25325,"lon":5.42169,"is_reserved":false,"is_disabled":false,"rental_uris":{"android":"levelo://app?vid=14867868-6aed-41c1-9296-5792e4f862f8","ios":"levelo://app?vid=14867868-6aed-41c1-9296-5792e4f862f8"},"vehicle_type_id":"4","last_reported":1771403575,"current_range_meters":28000,"station_id":"st_d2m65c5bi1j21697t3ng","pricing_plan_id":"cebpf4jnsgd1na2vs0mg"},{"bike_id":"2f84c6f6-1af1-4f12-9943-f4b364371f34","system_id":"levelo_inurba_marseille","lat":43.305502,"lon":5.365259,"is_reserved":false,"is_disabled":false,"rental_uris":{"android":"levelo://app?vid=2f84c6f6-1af1-4f12-9943-f4b364371f34","ios":"levelo://app?vid=2f84c6f6-1af1-4f12-9943-f4b364371f34"},"vehicle_type_id":"4","last_reported":1771403575,"current_range_meters":10000,"station_id":"ce4bgs12rcd13ifvqcag","pricing_plan_id":"cebpf4jnsgd1na2vs0mg"},{"bike_id":"dd69c8ef-07be-45ad-91de-2e98fabbe046","system_id":"levelo_inurba_marseille","lat":43.23197,"lon":5.3556,"is_reserved":false,"is_disabled":false,"rental_uris":{"android":"levelo://app?vid=dd69c8ef-07be-45ad-91de-2e98fabbe046","ios":"levelo://app?vid=dd69c8ef-07be-45ad-91de-2e98fabbe046"},"vehicle_type_id":"4","last_reported":1771403575,"current_range_meters":6400,"station_id":"","pricing_plan_id":"cebpf4jnsgd1na2vs0mg"},{"bike_id":"e5ddf298-59a6-48a6-9f22-1ea1820e4aeb","system_id":"levelo_inurba_marseille","lat":43.280885,"lon":5.396235,"is_reserved":false,"is_disabled":false,"rental_uris":{"android":"levelo://app?vid=e5ddf298-59a6-48a6-9f22-1ea1820e4aeb","ios":"levelo://app?vid=e5ddf298-59a6-48a6-9f22-1ea1820e4aeb"},"vehicle_type_id":"4","last_reported":1771403575,"current_range_meters":39200,"station_id":"ce4bho12rcd13ifvqh2g","pricing_plan_id":"cebpf4jnsgd1na2vs0mg"},{"bike_id":"400a55e3-1f67-48f3-b2a0-4ffd9094c8ef","system_id":"levelo_inurba_marseille","lat":43.25806,"lon":5.4099,"is_reserved":false,"is_disabled":false,"rental_uris":{"android":"levelo://app?vid=400a55e3-1f67-48f3-b2a0-4ffd9094c8ef","ios":"levelo://app?vid=400a55e3-1f67-48f3-b2a0-4ffd9094c8ef"},"vehicle_type_id":"4","last_reported":1771403575,"current_range_meters":28400,"station_id":"","pricing_plan_id":"cebpf4jnsgd1na2vs0mg"},{"bike_id":"d62a45b9-4827-4d38-b36b-656d8a9fce75","system_id":"levelo_inurba_marseille","lat":43.273264,"lon":5.390733,"is_reserved":false,"is_disabled":false,"rental_uris":{"android":"levelo://app?vid=d62a45b9-4827-4d38-b36b-656d8a9fce75","ios":"levelo://app?vid=d62a45b9-4827-4d38-b36b-656d8a9fce75"},"vehicle_type_id":"4","last_reported":1771403575,"current_range_meters":26800,"station_id":"","pricing_plan_id":"cebpf4jnsgd1na2vs0mg"},{"bike_id":"4ec29948-c60f-4139-b4b2-dc04182e0373","system_id":"levelo_inurba_marseille","lat":43.26682,"lon":5.38265,"is_reserved":false,"is_disabled":false,"rental_uris":{"android":"levelo://app?vid=4ec29948-c60f-4139-b4b2-dc04182e0373","ios":"levelo://app?vid=4ec29948-c60f-4139-b4b2-dc04182e0373"},"vehicle_type_id":"4","last_reported":1771403575,"current_range_meters":31200,"station_id":"ce4bhg92rcd13ifvqf90","pricing_plan_id":"cebpf4jnsgd1na2vs0mg"},{"bike_id":"319254b7-6ddf-4175-ab42-06a111dc7f62","system_id":"levelo_inurba_marseille","lat":43.24946,"lon":5.40498,"is_reserved":false,"is_disabled":false,"rental_uris":{"android":"levelo://app?vid=319254b7-6ddf-4175-ab42-06a111dc7f62","ios":"levelo://app?vid=319254b7-6ddf-4175-ab42-06a111dc7f62"},"vehicle_type_id":"4","last_reported":1771403575,"current_range_meters":26800,"station_id":"st_d2ngiaodas8pm72gd1h0","pricing_plan_id":"cebpf4jnsgd1na2vs0mg"},{"bike_id":"822a37e9-cc86-4db6-b810-29ef8016af0b","system_id":"levelo_inurba_marseille","lat":43.29812,"lon":5.4406,"is_reserved":false,"is_disabled":false,"rental_uris":{"android":"levelo://app?vid=822a37e9-cc86-4db6-b810-29ef8016af0b","ios":"levelo://app?vid=822a37e9-cc86-4db6-b810-29ef8016af0b"},"vehicle_type_id":"4","last_reported":1771403575,"current_range_meters":24800,"station_id":"st_d3jp68qikq2c7381ktn0","pricing_plan_id":"cebpf4jnsgd1na2vs0mg"},{"bike_id":"987e7efd-0a48-4308-ad01-128b347c901f","system_id":"levelo_inurba_marseille","lat":43.29648,"lon":5.40614,"is_reserved":false,"is_disabled":false,"rental_uris":{"android":"levelo://app?vid=987e7efd-0a48-4308-ad01-128b347c901f","ios":"levelo://app?vid=987e7efd-0a48-4308-ad01-128b347c901f"},"vehicle_type_id":"4","last_reported":1771403575,"current_range_meters":39200,"station_id":"ce4bh0h2rcd13ifvqd60","pricing_plan_id":"cebpf4jnsgd1na2vs0mg"},{"bike_id":"a80a5edf-9c06-430b-a090-097190f72f17","system_id":"levelo_inurba_marseille","lat":43.27044,"lon":5.40275,"is_reserved":false,"is_disabled":true,"rental_uris":{"android":"levelo://app?vid=a80a5edf-9c06-430b-a090-097190f72f17","ios":"levelo://app?vid=a80a5edf-9c06-430b-a090-097190f72f17"},"vehicle_type_id":"4","last_reported":1771403575,"current_range_meters":30400,"station_id":"ce4bhk92rcd13ifvqgc0","pricing_plan_id":"cebpf4jnsgd1na2vs0mg"},{"bike_id":"55eb0aad-f6b5-4ef8-8c2b-ee220d251165","system_id":"levelo_inurba_marseille","lat":43.23964,"lon":5.36639,"is_reserved":false,"is_disabled":false,"rental_uris":{"android":"levelo://app?vid=55eb0aad-f6b5-4ef8-8c2b-ee220d251165","ios":"levelo://app?vid=55eb0aad-f6b5-4ef8-8c2b-ee220d251165"},"vehicle_type_id":"4","last_reported":1771403575,"current_range_meters":30000,"station_id":"ce4bhi12rcd13ifvqfp0","pricing_plan_id":"cebpf4jnsgd1na2vs0mg"},{"bike_id":"59aabee3-6211-4f8a-9630-29cde1e1b3d7","system_id":"levelo_inurba_marseille","lat":43.29541,"lon":5.37488,"is_reserved":false,"is_disabled":false,"rental_uris":{"android":"levelo://app?vid=59aabee3-6211-4f8a-9630-29cde1e1b3d7","ios":"levelo://app?vid=59aabee3-6211-4f8a-9630-29cde1e1b3d7"},"vehicle_type_id":"4","last_reported":1771403575,"current_range_meters":21600,"station_id":"ce4bgkp2rcd13ifvqbmg","pricing_plan_id":"cebpf4jnsgd1na2vs0mg"},{"bike_id":"0cfdbe3b-68a4-4046-9e9f-1c14c8f99095","system_id":"levelo_inurba_marseille","lat":43.2904,"lon":5.37566,"is_reserved":false,"is_disabled":false,"rental_uris":{"android":"levelo://app?vid=0cfdbe3b-68a4-4046-9e9f-1c14c8f99095","ios":"levelo://app?vid=0cfdbe3b-68a4-4046-9e9f-1c14c8f99095"},"vehicle_type_id":"4","last_reported":1771403575,"current_range_meters":34800,"station_id":"ce4bh692rcd13ifvqe90","pricing_plan_id":"cebpf4jnsgd1na2vs0mg"},{"bike_id":"012436c7-b0d2-44f6-9f1e-20d7a40c23a6","system_id":"levelo_inurba_marseille","lat":43.26217,"lon":5.40451,"is_reserved":false,"is_disabled":false,"rental_uris":{"android":"levelo://app?vid=012436c7-b0d2-44f6-9f1e-20d7a40c23a6","ios":"levelo://app?vid=012436c7-b0d2-44f6-9f1e-20d7a40c23a6"},"vehicle_type_id":"4","last_reported":1771403575,"current_range_meters":37600,"station_id":"ce4bhmh2rcd13ifvqgmg","pricing_plan_id":"cebpf4jnsgd1na2vs0mg"},{"bike_id":"ddb35e99-7580-4184-b1a3-39dee08fd05d","system_id":"levelo_inurba_marseille","lat":43.2959,"lon":5.43926,"is_reserved":false,"is_disabled":false,"rental_uris":{"android":"levelo://app?vid=ddb35e99-7580-4184-b1a3-39dee08fd05d","ios":"levelo://app?vid=ddb35e99-7580-4184-b1a3-39dee08fd05d"},"vehicle_type_id":"4","last_reported":1771403575,"current_range_meters":17600,"station_id":"","pricing_plan_id":"cebpf4jnsgd1na2vs0mg"},{"bike_id":"4d976bf5-f813-4b36-99cd-ae82b3487f1d","system_id":"levelo_inurba_marseille","lat":43.27983,"lon":5.41662,"is_reserved":false,"is_disabled":false,"rental_uris":{"android":"levelo://app?vid=4d976bf5-f813-4b36-99cd-ae82b3487f1d","ios":"levelo://app?vid=4d976bf5-f813-4b36-99cd-ae82b3487f1d"},"vehicle_type_id":"4","last_reported":1771403575,"current_range_meters":9600,"station_id":"ce4bho12rcd13ifvqh1g","pricing_plan_id":"cebpf4jnsgd1na2vs0mg"},{"bike_id":"635c9c39-632a-46e9-bf95-a85388f579d0","system_id":"levelo_inurba_marseille","lat":43.30458,"lon":5.37908,"is_reserved":false,"is_disabled":false,"rental_uris":{"android":"levelo://app?vid=635c9c39-632a-46e9-bf95-a85388f579d0","ios":"levelo://app?vid=635c9c39-632a-46e9-bf95-a85388f579d0"},"vehicle_type_id":"4","last_reported":1771403575,"current_range_meters":30400,"station_id":"ce4bgup2rcd13ifvqcn0","pricing_plan_id":"cebpf4jnsgd1na2vs0mg"},{"bike_id":"6ceab81b-89d1-4001-b550-d5245646f91e","system_id":"levelo_inurba_marseille","lat":43.30176,"lon":5.36658,"is_reserved":false,"is_disabled":false,"rental_uris":{"android":"levelo://app?vid=6ceab81b-89d1-4001-b550-d5245646f91e","ios":"levelo://app?vid=6ceab81b-89d1-4001-b550-d5245646f91e"},"vehicle_type_id":"4","last_reported":1771403575,"current_range_meters":39200,"station_id":"ce4bgrh2rcd13ifvqc8g","pricing_plan_id":"cebpf4jnsgd1na2vs0mg"},{"bike_id":"c4cd2fb5-4770-4824-ab07-f6c1cd3d489f","system_id":"levelo_inurba_marseille","lat":43.27965,"lon":5.38783,"is_reserved":false,"is_disabled":false,"rental_uris":{"android":"levelo://app?vid=c4cd2fb5-4770-4824-ab07-f6c1cd3d489f","ios":"levelo://app?vid=c4cd2fb5-4770-4824-ab07-f6c1cd3d489f"},"vehicle_type_id":"4","last_reported":1771403575,"current_range_meters":9600,"station_id":"ce4bhg12rcd13ifvqf80","pricing_plan_id":"cebpf4jnsgd1na2vs0mg"},{"bike_id":"e20c4760-3d10-4402-8539-0046b00120e2","system_id":"levelo_inurba_marseille","lat":43.25732,"lon":5.41147,"is_reserved":false,"is_disabled":false,"rental_uris":{"android":"levelo://app?vid=e20c4760-3d10-4402-8539-0046b00120e2","ios":"levelo://app?vid=e20c4760-3d10-4402-8539-0046b00120e2"},"vehicle_type_id":"4","last_reported":1771403575,"current_range_meters":38800,"station_id":"ce4bhkp2rcd13ifvqgd0","pricing_plan_id":"cebpf4jnsgd1na2vs0mg"},{"bike_id":"879e0c84-e0dc-4632-84b1-8940f1f8ae4b","system_id":"levelo_inurba_marseille","lat":43.23962,"lon":5.36619,"is_reserved":false,"is_disabled":false,"rental_uris":{"android":"levelo://app?vid=879e0c84-e0dc-4632-84b1-8940f1f8ae4b","ios":"levelo://app?vid=879e0c84-e0dc-4632-84b1-8940f1f8ae4b"},"vehicle_type_id":"4","last_reported":1771403575,"current_range_meters":34000,"station_id":"ce4bhi12rcd13ifvqfp0","pricing_plan_id":"cebpf4jnsgd1na2vs0mg"},{"bike_id":"75ff77ab-0718-4ffe-9971-8ff6433968eb","system_id":"levelo_inurba_marseille","lat":43.24659,"lon":5.38877,"is_reserved":false,"is_disabled":false,"rental_uris":{"android":"levelo://app?vid=75ff77ab-0718-4ffe-9971-8ff6433968eb","ios":"levelo://app?vid=75ff77ab-0718-4ffe-9971-8ff6433968eb"},"vehicle_type_id":"4","last_reported":1771403575,"current_range_meters":16400,"station_id":"ce4bhg12rcd13ifvqf60","pricing_plan_id":"cebpf4jnsgd1na2vs0mg"},{"bike_id":"0c285a3b-0a97-45f4-bbcf-2e8735c1e540","system_id":"levelo_inurba_marseille","lat":43.25348,"lon":5.42168,"is_reserved":false,"is_disabled":false,"rental_uris":{"android":"levelo://app?vid=0c285a3b-0a97-45f4-bbcf-2e8735c1e540","ios":"levelo://app?vid=0c285a3b-0a97-45f4-bbcf-2e8735c1e540"},"vehicle_type_id":"4","last_reported":1771403575,"current_range_meters":7200,"station_id":"st_d2m65c5bi1j21697t3ng","pricing_plan_id":"cebpf4jnsgd1na2vs0mg"},{"bike_id":"9d0d8253-9a64-4660-bdb5-37cb7d39316b","system_id":"levelo_inurba_marseille","lat":43.29797,"lon":5.38103,"is_reserved":false,"is_disabled":false,"rental_uris":{"android":"levelo://app?vid=9d0d8253-9a64-4660-bdb5-37cb7d39316b","ios":"levelo://app?vid=9d0d8253-9a64-4660-bdb5-37cb7d39316b"},"vehicle_type_id":"4","last_reported":1771403575,"current_range_meters":8000,"station_id":"ce4bgip2rcd13ifvqbb0","pricing_plan_id":"cebpf4jnsgd1na2vs0mg"},{"bike_id":"412faf5a-cc25-4156-ad69-888407301d08","system_id":"levelo_inurba_marseille","lat":43.23181,"lon":5.3999,"is_reserved":false,"is_disabled":false,"rental_uris":{"android":"levelo://app?vid=412faf5a-cc25-4156-ad69-888407301d08","ios":"levelo://app?vid=412faf5a-cc25-4156-ad69-888407301d08"},"vehicle_type_id":"4","last_reported":1771403575,"current_range_meters":25200,"station_id":"ce4bhn12rcd13ifvqgqg","pricing_plan_id":"cebpf4jnsgd1na2vs0mg"},{"bike_id":"759f0a09-9669-46dc-9822-7ecc825b93de","system_id":"levelo_inurba_marseille","lat":43.30562,"lon":5.36533,"is_reserved":false,"is_disabled":false,"rental_uris":{"android":"levelo://app?vid=759f0a09-9669-46dc-9822-7ecc825b93de","ios":"levelo://app?vid=759f0a09-9669-46dc-9822-7ecc825b93de"},"vehicle_type_id":"4","last_reported":1771403575,"current_range_meters":17200,"station_id":"ce4bgs12rcd13ifvqcag","pricing_plan_id":"cebpf4jnsgd1na2vs0mg"},{"bike_id":"e383e633-27a1-4fd4-9366-8380206952e4","system_id":"levelo_inurba_marseille","lat":43.28754,"lon":5.36111,"is_reserved":false,"is_disabled":false,"rental_uris":{"android":"levelo://app?vid=e383e633-27a1-4fd4-9366-8380206952e4","ios":"levelo://app?vid=e383e633-27a1-4fd4-9366-8380206952e4"},"vehicle_type_id":"4","last_reported":1771403575,"current_range_meters":16400,"station_id":"cki0cbj6b192h4jlfktg","pricing_plan_id":"cebpf4jnsgd1na2vs0mg"},{"bike_id":"b8dcc597-4759-4122-9592-969487759374","system_id":"levelo_inurba_marseille","lat":43.26216,"lon":5.40448,"is_reserved":false,"is_disabled":false,"rental_uris":{"android":"levelo://app?vid=b8dcc597-4759-4122-9592-969487759374","ios":"levelo://app?vid=b8dcc597-4759-4122-9592-969487759374"},"vehicle_type_id":"4","last_reported":1771403575,"current_range_meters":22000,"station_id":"ce4bhmh2rcd13ifvqgmg","pricing_plan_id":"cebpf4jnsgd1na2vs0mg"},{"bike_id":"de5e1e69-f468-4e77-9f30-c471406e2287","system_id":"levelo_inurba_marseille","lat":43.29538,"lon":5.37515,"is_reserved":false,"is_disabled":false,"rental_uris":{"android":"levelo://app?vid=de5e1e69-f468-4e77-9f30-c471406e2287","ios":"levelo://app?vid=de5e1e69-f468-4e77-9f30-c471406e2287"},"vehicle_type_id":"4","last_reported":1771403575,"current_range_meters":38000,"station_id":"ce4bgkp2rcd13ifvqbmg","pricing_plan_id":"cebpf4jnsgd1na2vs0mg"},{"bike_id":"1f736713-40bb-4417-989e-c059341c3cc8","system_id":"levelo_inurba_marseille","lat":43.29818,"lon":5.44066,"is_reserved":false,"is_disabled":false,"rental_uris":{"android":"levelo://app?vid=1f736713-40bb-4417-989e-c059341c3cc8","ios":"levelo://app?vid=1f736713-40bb-4417-989e-c059341c3cc8"},"vehicle_type_id":"4","last_reported":1771403575,"current_range_meters":6000,"station_id":"st_d3jp68qikq2c7381ktn0","pricing_plan_id":"cebpf4jnsgd1na2vs0mg"},{"bike_id":"c2c2130e-3619-441c-98ea-236501eb01ac","system_id":"levelo_inurba_marseille","lat":43.3015,"lon":5.38089,"is_reserved":false,"is_disabled":false,"rental_uris":{"android":"levelo://app?vid=c2c2130e-3619-441c-98ea-236501eb01ac","ios":"levelo://app?vid=c2c2130e-3619-441c-98ea-236501eb01ac"},"vehicle_type_id":"4","last_reported":1771403575,"current_range_meters":33200,"station_id":"ce4bgjp2rcd13ifvqbh0","pricing_plan_id":"cebpf4jnsgd1na2vs0mg"},{"bike_id":"17f7ca05-9ff1-4847-81f4-6f637ce906bc","system_id":"levelo_inurba_marseille","lat":43.25351,"lon":5.42187,"is_reserved":false,"is_disabled":false,"rental_uris":{"android":"levelo://app?vid=17f7ca05-9ff1-4847-81f4-6f637ce906bc","ios":"levelo://app?vid=17f7ca05-9ff1-4847-81f4-6f637ce906bc"},"vehicle_type_id":"4","last_reported":1771403575,"current_range_meters":3600,"station_id":"st_d2m65c5bi1j21697t3ng","pricing_plan_id":"cebpf4jnsgd1na2vs0mg"},{"bike_id":"27ed4924-56a6-459c-9a7d-83062ab9f46c","system_id":"levelo_inurba_marseille","lat":43.30266,"lon":5.37721,"is_reserved":false,"is_disabled":false,"rental_uris":{"android":"levelo://app?vid=27ed4924-56a6-459c-9a7d-83062ab9f46c","ios":"levelo://app?vid=27ed4924-56a6-459c-9a7d-83062ab9f46c"},"vehicle_type_id":"4","last_reported":1771403575,"current_range_meters":30000,"station_id":"ce4bguh2rcd13ifvqcj0","pricing_plan_id":"cebpf4jnsgd1na2vs0mg"},{"bike_id":"4452f42b-b8ed-44bd-9d47-dff6f1173951","system_id":"levelo_inurba_marseille","lat":43.27537,"lon":5.39443,"is_reserved":false,"is_disabled":false,"rental_uris":{"android":"levelo://app?vid=4452f42b-b8ed-44bd-9d47-dff6f1173951","ios":"levelo://app?vid=4452f42b-b8ed-44bd-9d47-dff6f1173951"},"vehicle_type_id":"4","last_reported":1771403575,"current_range_meters":19600,"station_id":"","pricing_plan_id":"cebpf4jnsgd1na2vs0mg"},{"bike_id":"95ac3875-f146-4303-af46-f73fc1aee76b","system_id":"levelo_inurba_marseille","lat":43.28481,"lon":5.48393,"is_reserved":false,"is_disabled":false,"rental_uris":{"android":"levelo://app?vid=95ac3875-f146-4303-af46-f73fc1aee76b","ios":"levelo://app?vid=95ac3875-f146-4303-af46-f73fc1aee76b"},"vehicle_type_id":"4","last_reported":1771403575,"current_range_meters":6800,"station_id":"st_d3svhcjqgbts73a3dn0g","pricing_plan_id":"cebpf4jnsgd1na2vs0mg"},{"bike_id":"5a7441dd-4a33-48a2-b3bf-8431fc7d51d9","system_id":"levelo_inurba_marseille","lat":43.24403,"lon":5.37051,"is_reserved":false,"is_disabled":false,"rental_uris":{"android":"levelo://app?vid=5a7441dd-4a33-48a2-b3bf-8431fc7d51d9","ios":"levelo://app?vid=5a7441dd-4a33-48a2-b3bf-8431fc7d51d9"},"vehicle_type_id":"4","last_reported":1771403575,"current_range_meters":30000,"station_id":"ce4bhhh2rcd13ifvqfk0","pricing_plan_id":"cebpf4jnsgd1na2vs0mg"},{"bike_id":"53e5edc9-c7ea-4838-9734-674f94ba359f","system_id":"levelo_inurba_marseille","lat":43.30464,"lon":5.3791,"is_reserved":false,"is_disabled":false,"rental_uris":{"android":"levelo://app?vid=53e5edc9-c7ea-4838-9734-674f94ba359f","ios":"levelo://app?vid=53e5edc9-c7ea-4838-9734-674f94ba359f"},"vehicle_type_id":"4","last_reported":1771403575,"current_range_meters":8400,"station_id":"ce4bgup2rcd13ifvqcn0","pricing_plan_id":"cebpf4jnsgd1na2vs0mg"},{"bike_id":"e7c7548e-e7b3-4abf-bdf6-6a87f196a6e3","system_id":"levelo_inurba_marseille","lat":43.28648,"lon":5.3945,"is_reserved":false,"is_disabled":true,"rental_uris":{"android":"levelo://app?vid=e7c7548e-e7b3-4abf-bdf6-6a87f196a6e3","ios":"levelo://app?vid=e7c7548e-e7b3-4abf-bdf6-6a87f196a6e3"},"vehicle_type_id":"4","last_reported":1771403575,"current_range_meters":39200,"station_id":"","pricing_plan_id":"cebpf4jnsgd1na2vs0mg"},{"bike_id":"4ee8176d-a3fd-4a4e-a68b-f588e9cae3f0","system_id":"levelo_inurba_marseille","lat":43.28361,"lon":5.38641,"is_reserved":false,"is_disabled":false,"rental_uris":{"android":"levelo://app?vid=4ee8176d-a3fd-4a4e-a68b-f588e9cae3f0","ios":"levelo://app?vid=4ee8176d-a3fd-4a4e-a68b-f588e9cae3f0"},"vehicle_type_id":"4","last_reported":1771403575,"current_range_meters":3600,"station_id":"ce4bh492rcd13ifvqdvg","pricing_plan_id":"cebpf4jnsgd1na2vs0mg"},{"bike_id":"aa60fccf-958f-477e-87de-c38c44ce2662","system_id":"levelo_inurba_marseille","lat":43.33764,"lon":5.3744,"is_reserved":false,"is_disabled":false,"rental_uris":{"android":"levelo://app?vid=aa60fccf-958f-477e-87de-c38c44ce2662","ios":"levelo://app?vid=aa60fccf-958f-477e-87de-c38c44ce2662"},"vehicle_type_id":"4","last_reported":1771403575,"current_range_meters":21600,"station_id":"","pricing_plan_id":"cebpf4jnsgd1na2vs0mg"},{"bike_id":"4fd41949-dfc1-4b76-95b6-c5735c293800","system_id":"levelo_inurba_marseille","lat":43.25727,"lon":5.41087,"is_reserved":false,"is_disabled":false,"rental_uris":{"android":"levelo://app?vid=4fd41949-dfc1-4b76-95b6-c5735c293800","ios":"levelo://app?vid=4fd41949-dfc1-4b76-95b6-c5735c293800"},"vehicle_type_id":"4","last_reported":1771403575,"current_range_meters":33200,"station_id":"ce4bhkp2rcd13ifvqgd0","pricing_plan_id":"cebpf4jnsgd1na2vs0mg"},{"bike_id":"d3d75c56-7154-426f-a990-51e29722596b","system_id":"levelo_inurba_marseille","lat":43.231685,"lon":5.43694,"is_reserved":false,"is_disabled":true,"rental_uris":{"android":"levelo://app?vid=d3d75c56-7154-426f-a990-51e29722596b","ios":"levelo://app?vid=d3d75c56-7154-426f-a990-51e29722596b"},"vehicle_type_id":"4","last_reported":1771403575,"current_range_meters":38400,"station_id":"ce4bhmp2rcd13ifvqgog","pricing_plan_id":"cebpf4jnsgd1na2vs0mg"},{"bike_id":"ce9e9485-2f02-49c5-81ab-b31dbb5f770f","system_id":"levelo_inurba_marseille","lat":43.24068,"lon":5.37756,"is_reserved":false,"is_disabled":false,"rental_uris":{"android":"levelo://app?vid=ce9e9485-2f02-49c5-81ab-b31dbb5f770f","ios":"levelo://app?vid=ce9e9485-2f02-49c5-81ab-b31dbb5f770f"},"vehicle_type_id":"4","last_reported":1771403575,"current_range_meters":38400,"station_id":"ce4bhnp2rcd13ifvqgvg","pricing_plan_id":"cebpf4jnsgd1na2vs0mg"},{"bike_id":"b17b59e0-45b5-4a28-9c0b-fa0d086392c0","system_id":"levelo_inurba_marseille","lat":43.3054,"lon":5.3653,"is_reserved":false,"is_disabled":false,"rental_uris":{"android":"levelo://app?vid=b17b59e0-45b5-4a28-9c0b-fa0d086392c0","ios":"levelo://app?vid=b17b59e0-45b5-4a28-9c0b-fa0d086392c0"},"vehicle_type_id":"4","last_reported":1771403575,"current_range_meters":14400,"station_id":"ce4bgs12rcd13ifvqcag","pricing_plan_id":"cebpf4jnsgd1na2vs0mg"},{"bike_id":"62a875eb-61c9-41f9-b692-be1a6da44258","system_id":"levelo_inurba_marseille","lat":43.29274,"lon":5.36845,"is_reserved":false,"is_disabled":false,"rental_uris":{"android":"levelo://app?vid=62a875eb-61c9-41f9-b692-be1a6da44258","ios":"levelo://app?vid=62a875eb-61c9-41f9-b692-be1a6da44258"},"vehicle_type_id":"4","last_reported":1771403575,"current_range_meters":37600,"station_id":"ce4bhbp2rcd13ifvqesg","pricing_plan_id":"cebpf4jnsgd1na2vs0mg"},{"bike_id":"73dbc20f-98b6-4732-adae-58a3fee0d37e","system_id":"levelo_inurba_marseille","lat":43.28035,"lon":5.36943,"is_reserved":false,"is_disabled":false,"rental_uris":{"android":"levelo://app?vid=73dbc20f-98b6-4732-adae-58a3fee0d37e","ios":"levelo://app?vid=73dbc20f-98b6-4732-adae-58a3fee0d37e"},"vehicle_type_id":"4","last_reported":1771403575,"current_range_meters":11200,"station_id":"ce4bha12rcd13ifvqef0","pricing_plan_id":"cebpf4jnsgd1na2vs0mg"},{"bike_id":"f5a83828-f353-4692-b521-be18cc9b6b45","system_id":"levelo_inurba_marseille","lat":43.290001,"lon":5.356107,"is_reserved":false,"is_disabled":false,"rental_uris":{"android":"levelo://app?vid=f5a83828-f353-4692-b521-be18cc9b6b45","ios":"levelo://app?vid=f5a83828-f353-4692-b521-be18cc9b6b45"},"vehicle_type_id":"4","last_reported":1771403575,"current_range_meters":25200,"station_id":"ce4bhb92rcd13ifvqen0","pricing_plan_id":"cebpf4jnsgd1na2vs0mg"},{"bike_id":"e5a53d9a-99d1-43d7-ae95-edc0215af7c2","system_id":"levelo_inurba_marseille","lat":43.30236,"lon":5.37716,"is_reserved":false,"is_disabled":false,"rental_uris":{"android":"levelo://app?vid=e5a53d9a-99d1-43d7-ae95-edc0215af7c2","ios":"levelo://app?vid=e5a53d9a-99d1-43d7-ae95-edc0215af7c2"},"vehicle_type_id":"4","last_reported":1771403575,"current_range_meters":39200,"station_id":"ce4bguh2rcd13ifvqcj0","pricing_plan_id":"cebpf4jnsgd1na2vs0mg"},{"bike_id":"01d76427-0dce-4b4b-a4d9-164cfbd98362","system_id":"levelo_inurba_marseille","lat":43.287,"lon":5.39992,"is_reserved":false,"is_disabled":false,"rental_uris":{"android":"levelo://app?vid=01d76427-0dce-4b4b-a4d9-164cfbd98362","ios":"levelo://app?vid=01d76427-0dce-4b4b-a4d9-164cfbd98362"},"vehicle_type_id":"4","last_reported":1771403575,"current_range_meters":9200,"station_id":"ce4bho92rcd13ifvqh3g","pricing_plan_id":"cebpf4jnsgd1na2vs0mg"},{"bike_id":"b99b4796-4e85-4608-b2e8-0bb86f73e0dc","system_id":"levelo_inurba_marseille","lat":43.31709,"lon":5.43697,"is_reserved":false,"is_disabled":false,"rental_uris":{"android":"levelo://app?vid=b99b4796-4e85-4608-b2e8-0bb86f73e0dc","ios":"levelo://app?vid=b99b4796-4e85-4608-b2e8-0bb86f73e0dc"},"vehicle_type_id":"4","last_reported":1771403575,"current_range_meters":24400,"station_id":"ce4bhp92rcd13ifvqhcg","pricing_plan_id":"cebpf4jnsgd1na2vs0mg"},{"bike_id":"aa2207b7-265c-4ad3-bf19-8d2f813f1c3e","system_id":"levelo_inurba_marseille","lat":43.24543,"lon":5.39525,"is_reserved":false,"is_disabled":false,"rental_uris":{"android":"levelo://app?vid=aa2207b7-265c-4ad3-bf19-8d2f813f1c3e","ios":"levelo://app?vid=aa2207b7-265c-4ad3-bf19-8d2f813f1c3e"},"vehicle_type_id":"4","last_reported":1771403575,"current_range_meters":31200,"station_id":"ce4bhlp2rcd13ifvqgjg","pricing_plan_id":"cebpf4jnsgd1na2vs0mg"},{"bike_id":"cda45325-a578-440e-959f-d35161defe9b","system_id":"levelo_inurba_marseille","lat":43.29869,"lon":5.39726,"is_reserved":false,"is_disabled":false,"rental_uris":{"android":"levelo://app?vid=cda45325-a578-440e-959f-d35161defe9b","ios":"levelo://app?vid=cda45325-a578-440e-959f-d35161defe9b"},"vehicle_type_id":"4","last_reported":1771403575,"current_range_meters":34800,"station_id":"ce4bh0h2rcd13ifvqd50","pricing_plan_id":"cebpf4jnsgd1na2vs0mg"},{"bike_id":"2348469c-45b7-4332-b9e2-b2adf4281a44","system_id":"levelo_inurba_marseille","lat":43.28614,"lon":5.35102,"is_reserved":false,"is_disabled":false,"rental_uris":{"android":"levelo://app?vid=2348469c-45b7-4332-b9e2-b2adf4281a44","ios":"levelo://app?vid=2348469c-45b7-4332-b9e2-b2adf4281a44"},"vehicle_type_id":"4","last_reported":1771403575,"current_range_meters":18000,"station_id":"ce4bhch2rcd13ifvqeug","pricing_plan_id":"cebpf4jnsgd1na2vs0mg"},{"bike_id":"203389d2-db71-424b-bc25-f4ac96ab8010","system_id":"levelo_inurba_marseille","lat":43.279687,"lon":5.41619,"is_reserved":false,"is_disabled":false,"rental_uris":{"android":"levelo://app?vid=203389d2-db71-424b-bc25-f4ac96ab8010","ios":"levelo://app?vid=203389d2-db71-424b-bc25-f4ac96ab8010"},"vehicle_type_id":"4","last_reported":1771403575,"current_range_meters":36800,"station_id":"ce4bho12rcd13ifvqh1g","pricing_plan_id":"cebpf4jnsgd1na2vs0mg"},{"bike_id":"c1b93aaa-3851-4141-a3a2-469a9b9eac56","system_id":"levelo_inurba_marseille","lat":43.31204,"lon":5.36802,"is_reserved":false,"is_disabled":false,"rental_uris":{"android":"levelo://app?vid=c1b93aaa-3851-4141-a3a2-469a9b9eac56","ios":"levelo://app?vid=c1b93aaa-3851-4141-a3a2-469a9b9eac56"},"vehicle_type_id":"4","last_reported":1771403575,"current_range_meters":39200,"station_id":"ce4bgl92rcd13ifvqbq0","pricing_plan_id":"cebpf4jnsgd1na2vs0mg"},{"bike_id":"2c2661ae-ead4-40d4-991b-9fc93c540ace","system_id":"levelo_inurba_marseille","lat":43.27515,"lon":5.42471,"is_reserved":false,"is_disabled":false,"rental_uris":{"android":"levelo://app?vid=2c2661ae-ead4-40d4-991b-9fc93c540ace","ios":"levelo://app?vid=2c2661ae-ead4-40d4-991b-9fc93c540ace"},"vehicle_type_id":"4","last_reported":1771403575,"current_range_meters":24000,"station_id":"ce4bhn92rcd13ifvqgrg","pricing_plan_id":"cebpf4jnsgd1na2vs0mg"},{"bike_id":"6dca4464-4955-47d4-a773-df0c504b4817","system_id":"levelo_inurba_marseille","lat":43.31242,"lon":5.36861,"is_reserved":false,"is_disabled":false,"rental_uris":{"android":"levelo://app?vid=6dca4464-4955-47d4-a773-df0c504b4817","ios":"levelo://app?vid=6dca4464-4955-47d4-a773-df0c504b4817"},"vehicle_type_id":"4","last_reported":1771403575,"current_range_meters":32400,"station_id":"ce4bgl92rcd13ifvqbq0","pricing_plan_id":"cebpf4jnsgd1na2vs0mg"},{"bike_id":"4998ee73-3c0d-4876-8d83-cc4a52db2d79","system_id":"levelo_inurba_marseille","lat":43.22921,"lon":5.354,"is_reserved":false,"is_disabled":false,"rental_uris":{"android":"levelo://app?vid=4998ee73-3c0d-4876-8d83-cc4a52db2d79","ios":"levelo://app?vid=4998ee73-3c0d-4876-8d83-cc4a52db2d79"},"vehicle_type_id":"4","last_reported":1771403575,"current_range_meters":10800,"station_id":"cpo3532slgdg3j2ikp40","pricing_plan_id":"cebpf4jnsgd1na2vs0mg"},{"bike_id":"1e6a97aa-1c30-4645-a5bc-1aa99801ff3b","system_id":"levelo_inurba_marseille","lat":43.29255,"lon":5.37611,"is_reserved":false,"is_disabled":false,"rental_uris":{"android":"levelo://app?vid=1e6a97aa-1c30-4645-a5bc-1aa99801ff3b","ios":"levelo://app?vid=1e6a97aa-1c30-4645-a5bc-1aa99801ff3b"},"vehicle_type_id":"4","last_reported":1771403575,"current_range_meters":32400,"station_id":"ce4bgi12rcd13ifvqb80","pricing_plan_id":"cebpf4jnsgd1na2vs0mg"},{"bike_id":"2bbbd6ff-b367-48e1-9ed2-2b1a67ff69e8","system_id":"levelo_inurba_marseille","lat":43.29627,"lon":5.37158,"is_reserved":false,"is_disabled":false,"rental_uris":{"android":"levelo://app?vid=2bbbd6ff-b367-48e1-9ed2-2b1a67ff69e8","ios":"levelo://app?vid=2bbbd6ff-b367-48e1-9ed2-2b1a67ff69e8"},"vehicle_type_id":"4","last_reported":1771403575,"current_range_meters":36800,"station_id":"ce4bgnh2rcd13ifvqc0g","pricing_plan_id":"cebpf4jnsgd1na2vs0mg"},{"bike_id":"12ce26f0-b4b0-427e-bc3e-613916dcee0d","system_id":"levelo_inurba_marseille","lat":43.31326,"lon":5.3673,"is_reserved":false,"is_disabled":false,"rental_uris":{"android":"levelo://app?vid=12ce26f0-b4b0-427e-bc3e-613916dcee0d","ios":"levelo://app?vid=12ce26f0-b4b0-427e-bc3e-613916dcee0d"},"vehicle_type_id":"4","last_reported":1771403575,"current_range_meters":32000,"station_id":"ce4bgr92rcd13ifvqc6g","pricing_plan_id":"cebpf4jnsgd1na2vs0mg"},{"bike_id":"e781c6f9-8583-4730-9cf9-88952111dcd2","system_id":"levelo_inurba_marseille","lat":43.30536,"lon":5.36694,"is_reserved":false,"is_disabled":false,"rental_uris":{"android":"levelo://app?vid=e781c6f9-8583-4730-9cf9-88952111dcd2","ios":"levelo://app?vid=e781c6f9-8583-4730-9cf9-88952111dcd2"},"vehicle_type_id":"4","last_reported":1771403575,"current_range_meters":34000,"station_id":"ce4bgrp2rcd13ifvqc9g","pricing_plan_id":"cebpf4jnsgd1na2vs0mg"},