{"last_updated":1758831074,"ttl":60,"version":"2.2","data":{"bikes":[{"bike_id":"4ff04acb-92d3-471d-8692-920822b48aa4","system_id":"levelo_inurba_marseille","lat":43.262851,"lon":5.374128,"is_reserved":false,"is_disabled":false,"rental_uris":{"android":"levelo://app?vid=4ff04acb-92d3-471d-8692-920822b48aa4","ios":"levelo://app?vid=4ff04acb-92d3-471d-8692-920822b48aa4"},"vehicle_type_id":"4","last_reported":1758831074,"current_range_meters":2800,"station_id":"ce4bhbh2rcd13ifvqeo0","pricing_plan_id":"cebpf4jnsgd1na2vs0mg"},{"bike_id":"c70ef7ef-ef78-47ae-b5fc-1c8a4b5858b9","system_id":"levelo_inurba_marseille","lat":43.27908,"lon":5.39593,"is_reserved":false,"is_disabled":true,"rental_uris":{"android":"levelo://app?vid=c70ef7ef-ef78-47ae-b5fc-1c8a4b5858b9","ios":"levelo://app?vid=c70ef7ef-ef78-47ae-b5fc-1c8a4b5858b9"},"vehicle_type_id":"4","last_reported":1758831074,"current_range_meters":2800,"station_id":"ce4bhf92rcd13ifvqf40","pricing_plan_id":"cebpf4jnsgd1na2vs0mg"},{"bike_id":"dfa2e0eb-c01c-40f5-bdf0-94cf19dc56f0","system_id":"levelo_inurba_marseille","lat":43.250972,"lon":5.39523,"is_reserved":false,"is_disabled":true,"rental_uris":{"android":"levelo://app?vid=dfa2e0eb-c01c-40f5-bdf0-94cf19dc56f0","ios":"levelo://app?vid=dfa2e0eb-c01c-40f5-bdf0-94cf19dc56f0"},"vehicle_type_id":"4","last_reported":1758831074,"current_range_meters":2800,"station_id":"ce4bhm12rcd13ifvqgkg","pricing_plan_id":"cebpf4jnsgd1na2vs0mg"},{"bike_id":"1efddf8d-578f-4e4c-8c3f-e3a8bd592ba4","system_id":"levelo_inurba_marseille","lat":43.29953,"lon":5.37317,"is_reserved":false,"is_disabled":false,"rental_uris":{"android":"levelo://app?vid=1efddf8d-578f-4e4c-8c3f-e3a8bd592ba4","ios":"levelo://app?vid=1efddf8d-578f-4e4c-8c3f-e3a8bd592ba4"},"vehicle_type_id":"4","last_reported":1758831074,"current_range_meters":3200,"station_id":"","pricing_plan_id":"cebpf4jnsgd1na2vs0mg"},{"bike_id":"4736207d-942c-4db1-a3a0-3b7f20f74b2c","system_id":"levelo_inurba_marseille","lat":43.28092,"lon":5.38229,"is_reserved":false,"is_disabled":false,"rental_uris":{"android":"levelo://app?vid=4736207d-942c-4db1-a3a0-3b7f20f74b2c","ios":"levelo://app?vid=4736207d-942c-4db1-a3a0-3b7f20f74b2c"},"vehicle_type_id":"4","last_reported":1758831074,"current_range_meters":3200,"station_id":"","pricing_plan_id":"cebpf4jnsgd1na2vs0mg"},{"bike_id":"8a75e316-5575-4d4d-93f3-0d0218d12c60","system_id":"levelo_inurba_marseille","lat":43.31956,"lon":5.38156,"is_reserved":false,"is_disabled":false,"rental_uris":{"android":"levelo://app?vid=8a75e316-5575-4d4d-93f3-0d0218d12c60","ios":"levelo://app?vid=8a75e316-5575-4d4d-93f3-0d0218d12c60"},"vehicle_type_id":"4","last_reported":1758831074,"current_range_meters":3200,"station_id":"ce4bhr12rcd13ifvqhpg","pricing_plan_id":"cebpf4jnsgd1na2vs0mg"},{"bike_id":"b2b4fe0f-f783-41aa-8d54-3eb168df5e47","system_id":"levelo_inurba_marseille","lat":43.29255,"lon":5.40917,"is_reserved":false,"is_disabled":false,"rental_uris":{"android":"levelo://app?vid=b2b4fe0f-f783-41aa-8d54-3eb168df5e47","ios":"levelo://app?vid=b2b4fe0f-f783-41aa-8d54-3eb168df5e47"},"vehicle_type_id":"4","last_reported":1758831074,"current_range_meters":3200,"station_id":"ce4bh192rcd13ifvqdc0","pricing_plan_id":"cebpf4jnsgd1na2vs0mg"},{"bike_id":"47007103-1d5f-4e7a-94b8-229920ace1cb","system_id":"levelo_inurba_marseille","lat":43.3176,"lon":5.39021,"is_reserved":false,"is_disabled":false,"rental_uris":{"android":"levelo://app?vid=47007103-1d5f-4e7a-94b8-229920ace1cb","ios":"levelo://app?vid=47007103-1d5f-4e7a-94b8-229920ace1cb"},"vehicle_type_id":"4","last_reported":1758831074,"current_range_meters":3600,"station_id":"ce4bhqp2rcd13ifvqhng","pricing_plan_id":"cebpf4jnsgd1na2vs0mg"},{"bike_id":"fcec26ab-b957-40d8-86a1-49306e072c9c","system_id":"levelo_inurba_marseille","lat":43.31366,"lon":5.38492,"is_reserved":false,"is_disabled":false,"rental_uris":{"android":"levelo://app?vid=fcec26ab-b957-40d8-86a1-49306e072c9c","ios":"levelo://app?vid=fcec26ab-b957-40d8-86a1-49306e072c9c"},"vehicle_type_id":"4","last_reported":1758831074,"current_range_meters":3600,"station_id":"ce4bgt92rcd13ifvqcf0","pricing_plan_id":"cebpf4jnsgd1na2vs0mg"},{"bike_id":"b9fd35c7-b53e-4955-a635-500a4e05d492","system_id":"levelo_inurba_marseille","lat":43.29171,"lon":5.37166,"is_reserved":false,"is_disabled":false,"rental_uris":{"android":"levelo://app?vid=b9fd35c7-b53e-4955-a635-500a4e05d492","ios":"levelo://app?vid=b9fd35c7-b53e-4955-a635-500a4e05d492"},"vehicle_type_id":"4","last_reported":1758831074,"current_range_meters":3600,"station_id":"ce4bha92rcd13ifvqeh0","pricing_plan_id":"cebpf4jnsgd1na2vs0mg"},{"bike_id":"3d476d69-4af4-40a8-8ecd-153d3d338261","system_id":"levelo_inurba_marseille","lat":43.27182,"lon":5.4287,"is_reserved":false,"is_disabled":false,"rental_uris":{"android":"levelo://app?vid=3d476d69-4af4-40a8-8ecd-153d3d338261","ios":"levelo://app?vid=3d476d69-4af4-40a8-8ecd-153d3d338261"},"vehicle_type_id":"4","last_reported":1758831074,"current_range_meters":4000,"station_id":"","pricing_plan_id":"cebpf4jnsgd1na2vs0mg"},{"bike_id":"7c0482c3-9253-4d1b-b4f3-be55cdb7721d","system_id":"levelo_inurba_marseille","lat":43.33757,"lon":5.37466,"is_reserved":false,"is_disabled":false,"rental_uris":{"android":"levelo://app?vid=7c0482c3-9253-4d1b-b4f3-be55cdb7721d","ios":"levelo://app?vid=7c0482c3-9253-4d1b-b4f3-be55cdb7721d"},"vehicle_type_id":"4","last_reported":1758831074,"current_range_meters":4000,"station_id":"","pricing_plan_id":"cebpf4jnsgd1na2vs0mg"},{"bike_id":"c80e1f6e-41df-47e3-91cd-de5847cd5136","system_id":"levelo_inurba_marseille","lat":43.32331,"lon":5.39306,"is_reserved":false,"is_disabled":false,"rental_uris":{"android":"levelo://app?vid=c80e1f6e-41df-47e3-91cd-de5847cd5136","ios":"levelo://app?vid=c80e1f6e-41df-47e3-91cd-de5847cd5136"},"vehicle_type_id":"4","last_reported":1758831074,"current_range_meters":4000,"station_id":"","pricing_plan_id":"cebpf4jnsgd1na2vs0mg"},{"bike_id":"f724d3b2-7a50-42bc-b4fc-01f16aa3a6e2","system_id":"levelo_inurba_marseille","lat":43.24666,"lon":5.38166,"is_reserved":false,"is_disabled":false,"rental_uris":{"android":"levelo://app?vid=f724d3b2-7a50-42bc-b4fc-01f16aa3a6e2","ios":"levelo://app?vid=f724d3b2-7a50-42bc-b4fc-01f16aa3a6e2"},"vehicle_type_id":"4","last_reported":1758831074,"current_range_meters":4400,"station_id":"ce4bhih2rcd13ifvqfr0","pricing_plan_id":"cebpf4jnsgd1na2vs0mg"},{"bike_id":"e76ca2c0-a531-4fe0-b5f3-0af3000ce7b6","system_id":"levelo_inurba_marseille","lat":43.280018,"lon":5.416717,"is_reserved":false,"is_disabled":false,"rental_uris":{"android":"levelo://app?vid=e76ca2c0-a531-4fe0-b5f3-0af3000ce7b6","ios":"levelo://app?vid=e76ca2c0-a531-4fe0-b5f3-0af3000ce7b6"},"vehicle_type_id":"4","last_reported":1758831074,"current_range_meters":4400,"station_id":"ce4bho12rcd13ifvqh1g","pricing_plan_id":"cebpf4jnsgd1na2vs0mg"},{"bike_id":"939538dc-20bd-4d94-8a10-8e1e0a179bc7","system_id":"levelo_inurba_marseille","lat":43.304706,"lon":5.366664,"is_reserved":false,"is_disabled":false,"rental_uris":{"android":"levelo://app?vid=939538dc-20bd-4d94-8a10-8e1e0a179bc7","ios":"levelo://app?vid=939538dc-20bd-4d94-8a10-8e1e0a179bc7"},"vehicle_type_id":"4","last_reported":1758831074,"current_range_meters":4800,"station_id":"","pricing_plan_id":"cebpf4jnsgd1na2vs0mg"},{"bike_id":"cb3d83dd-8277-415b-bc5d-a118e1200728","system_id":"levelo_inurba_marseille","lat":43.300988,"lon":5.410223,"is_reserved":false,"is_disabled":false,"rental_uris":{"android":"levelo://app?vid=cb3d83dd-8277-415b-bc5d-a118e1200728","ios":"levelo://app?vid=cb3d83dd-8277-415b-bc5d-a118e1200728"},"vehicle_type_id":"4","last_reported":1758831074,"current_range_meters":4800,"station_id":"","pricing_plan_id":"cebpf4jnsgd1na2vs0mg"},{"bike_id":"73c557fb-54bb-4513-9a85-5b0b20333b27","system_id":"levelo_inurba_marseille","lat":43.28352,"lon":5.38102,"is_reserved":false,"is_disabled":false,"rental_uris":{"android":"levelo://app?vid=73c557fb-54bb-4513-9a85-5b0b20333b27","ios":"levelo://app?vid=73c557fb-54bb-4513-9a85-5b0b20333b27"},"vehicle_type_id":"4","last_reported":1758831074,"current_range_meters":4800,"station_id":"ce4bh412rcd13ifvqdr0","pricing_plan_id":"cebpf4jnsgd1na2vs0mg"},{"bike_id":"e77388af-d05b-4ee4-abd4-e457b66d7edc","system_id":"levelo_inurba_marseille","lat":43.28938,"lon":5.36412,"is_reserved":false,"is_disabled":false,"rental_uris":{"android":"levelo://app?vid=e77388af-d05b-4ee4-abd4-e457b66d7edc","ios":"levelo://app?vid=e77388af-d05b-4ee4-abd4-e457b66d7edc"},"vehicle_type_id":"4","last_reported":1758831074,"current_range_meters":5600,"station_id":"ce4bhc92rcd13ifvqetg","pricing_plan_id":"cebpf4jnsgd1na2vs0mg"},{"bike_id":"9c4a7bdb-c552-4dfd-8efb-40b9e0b0b147","system_id":"levelo_inurba_marseille","lat":43.30941,"lon":5.36739,"is_reserved":false,"is_disabled":false,"rental_uris":{"android":"levelo://app?vid=9c4a7bdb-c552-4dfd-8efb-40b9e0b0b147","ios":"levelo://app?vid=9c4a7bdb-c552-4dfd-8efb-40b9e0b0b147"},"vehicle_type_id":"4","last_reported":1758831074,"current_range_meters":5600,"station_id":"","pricing_plan_id":"cebpf4jnsgd1na2vs0mg"},{"bike_id":"136a707a-b224-4c44-8119-f846f7b7d0a7","system_id":"levelo_inurba_marseille","lat":43.29516,"lon":5.37375,"is_reserved":false,"is_disabled":false,"rental_uris":{"android":"levelo://app?vid=136a707a-b224-4c44-8119-f846f7b7d0a7","ios":"levelo://app?vid=136a707a-b224-4c44-8119-f846f7b7d0a7"},"vehicle_type_id":"4","last_reported":1758831074,"current_range_meters":6000,"station_id":"","pricing_plan_id":"cebpf4jnsgd1na2vs0mg"},{"bike_id":"2b6c533e-5c1e-42ab-9758-b73c0679b6e4","system_id":"levelo_inurba_marseille","lat":43.26786,"lon":5.40265,"is_reserved":false,"is_disabled":false,"rental_uris":{"android":"levelo://app?vid=2b6c533e-5c1e-42ab-9758-b73c0679b6e4","ios":"levelo://app?vid=2b6c533e-5c1e-42ab-9758-b73c0679b6e4"},"vehicle_type_id":"4","last_reported":1758831074,"current_range_meters":6000,"station_id":"ce501612rcd8frsf0b60","pricing_plan_id":"cebpf4jnsgd1na2vs0mg"},{"bike_id":"fee47420-432e-4dd1-bac7-1e093f3984f7","system_id":"levelo_inurba_marseille","lat":43.29526,"lon":5.38554,"is_reserved":false,"is_disabled":false,"rental_uris":{"android":"levelo://app?vid=fee47420-432e-4dd1-bac7-1e093f3984f7","ios":"levelo://app?vid=fee47420-432e-4dd1-bac7-1e093f3984f7"},"vehicle_type_id":"4","last_reported":1758831074,"current_range_meters":6400,"station_id":"ce4bgih2rcd13ifvqba0","pricing_plan_id":"cebpf4jnsgd1na2vs0mg"},{"bike_id":"2a21c7e2-caa8-4b6d-a1a1-aeee3726ddd2","system_id":"levelo_inurba_marseille","lat":43.30895,"lon":5.37175,"is_reserved":false,"is_disabled":false,"rental_uris":{"android":"levelo://app?vid=2a21c7e2-caa8-4b6d-a1a1-aeee3726ddd2","ios":"levelo://app?vid=2a21c7e2-caa8-4b6d-a1a1-aeee3726ddd2"},"vehicle_type_id":"4","last_reported":1758831074,"current_range_meters":6000,"station_id":"ce4bguh2rcd13ifvqckg","pricing_plan_id":"cebpf4jnsgd1na2vs0mg"},{"bike_id":"1fab86d6-4674-4763-b767-ae4d7f6c28a0","system_id":"levelo_inurba_marseille","lat":43.27212,"lon":5.39186,"is_reserved":false,"is_disabled":false,"rental_uris":{"android":"levelo://app?vid=1fab86d6-4674-4763-b767-ae4d7f6c28a0","ios":"levelo://app?vid=1fab86d6-4674-4763-b767-ae4d7f6c28a0"},"vehicle_type_id":"4","last_reported":1758831074,"current_range_meters":6400,"station_id":"ce4bhhp2rcd13ifvqfm0","pricing_plan_id":"cebpf4jnsgd1na2vs0mg"},{"bike_id":"c8a8b1da-ed33-4045-a3b5-8dc8e90b3795","system_id":"levelo_inurba_marseille","lat":43.296225,"lon":5.371551,"is_reserved":false,"is_disabled":false,"rental_uris":{"android":"levelo://app?vid=c8a8b1da-ed33-4045-a3b5-8dc8e90b3795","ios":"levelo://app?vid=c8a8b1da-ed33-4045-a3b5-8dc8e90b3795"},"vehicle_type_id":"4","last_reported":1758831074,"current_range_meters":6000,"station_id":"ce4bgnh2rcd13ifvqc0g","pricing_plan_id":"cebpf4jnsgd1na2vs0mg"},{"bike_id":"afde7177-3a72-45a5-b408-37153da0aceb","system_id":"levelo_inurba_marseille","lat":43.28433,"lon":5.35,"is_reserved":false,"is_disabled":false,"rental_uris":{"android":"levelo://app?vid=afde7177-3a72-45a5-b408-37153da0aceb","ios":"levelo://app?vid=afde7177-3a72-45a5-b408-37153da0aceb"},"vehicle_type_id":"4","last_reported":1758831074,"current_range_meters":6400,"station_id":"ce4bhbh2rcd13ifvqepg","pricing_plan_id":"cebpf4jnsgd1na2vs0mg"},{"bike_id":"58bcb43d-c000-4e3e-b004-30450f57645b","system_id":"levelo_inurba_marseille","lat":43.29527,"lon":5.37448,"is_reserved":false,"is_disabled":false,"rental_uris":{"android":"levelo://app?vid=58bcb43d-c000-4e3e-b004-30450f57645b","ios":"levelo://app?vid=58bcb43d-c000-4e3e-b004-30450f57645b"},"vehicle_type_id":"4","last_reported":1758831074,"current_range_meters":6400,"station_id":"","pricing_plan_id":"cebpf4jnsgd1na2vs0mg"},{"bike_id":"5efb8686-b6a8-4cc7-b96c-ed5da08a47ac","system_id":"levelo_inurba_marseille","lat":43.2835,"lon":5.38102,"is_reserved":false,"is_disabled":false,"rental_uris":{"android":"levelo://app?vid=5efb8686-b6a8-4cc7-b96c-ed5da08a47ac","ios":"levelo://app?vid=5efb8686-b6a8-4cc7-b96c-ed5da08a47ac"},"vehicle_type_id":"4","last_reported":1758831074,"current_range_meters":6000,"station_id":"ce4bh412rcd13ifvqdr0","pricing_plan_id":"cebpf4jnsgd1na2vs0mg"},{"bike_id":"4e737411-53ce-4bdf-9802-c3bc30d9bc94","system_id":"levelo_inurba_marseille","lat":43.29553,"lon":5.40617,"is_reserved":false,"is_disabled":false,"rental_uris":{"android":"levelo://app?vid=4e737411-53ce-4bdf-9802-c3bc30d9bc94","ios":"levelo://app?vid=4e737411-53ce-4bdf-9802-c3bc30d9bc94"},"vehicle_type_id":"4","last_reported":1758831074,"current_range_meters":6800,"station_id":"","pricing_plan_id":"cebpf4jnsgd1na2vs0mg"},{"bike_id":"438ead59-de14-4fa0-a61d-03a70a4122ae","system_id":"levelo_inurba_marseille","lat":43.97269,"lon":4.89111,"is_reserved":false,"is_disabled":true,"rental_uris":{"android":"levelo://app?vid=438ead59-de14-4fa0-a61d-03a70a4122ae","ios":"levelo://app?vid=438ead59-de14-4fa0-a61d-03a70a4122ae"},"vehicle_type_id":"4","last_reported":1758831074,"current_range_meters":6800,"station_id":"","pricing_plan_id":"cebpf4jnsgd1na2vs0mg"},{"bike_id":"7e66907c-db6f-461e-b18b-3d675bb9fed7","system_id":"levelo_inurba_marseille","lat":43.28418,"lon":5.37521,"is_reserved":false,"is_disabled":false,"rental_uris":{"android":"levelo://app?vid=7e66907c-db6f-461e-b18b-3d675bb9fed7","ios":"levelo://app?vid=7e66907c-db6f-461e-b18b-3d675bb9fed7"},"vehicle_type_id":"4","last_reported":1758831074,"current_range_meters":6800,"station_id":"ce4bh412rcd13ifvqds0","pricing_plan_id":"cebpf4jnsgd1na2vs0mg"},{"bike_id":"208333f3-1be0-46ef-8ec5-a4abb2b01562","system_id":"levelo_inurba_marseille","lat":43.279695,"lon":5.383535,"is_reserved":false,"is_disabled":true,"rental_uris":{"android":"levelo://app?vid=208333f3-1be0-46ef-8ec5-a4abb2b01562","ios":"levelo://app?vid=208333f3-1be0-46ef-8ec5-a4abb2b01562"},"vehicle_type_id":"4","last_reported":1758831074,"current_range_meters":6800,"station_id":"ce4bhg92rcd13ifvqf90","pricing_plan_id":"cebpf4jnsgd1na2vs0mg"},{"bike_id":"ddd8c0a7-a7ac-4c34-b48b-0710c492a44c","system_id":"levelo_inurba_marseille","lat":43.32296,"lon":5.39381,"is_reserved":false,"is_disabled":false,"rental_uris":{"android":"levelo://app?vid=ddd8c0a7-a7ac-4c34-b48b-0710c492a44c","ios":"levelo://app?vid=ddd8c0a7-a7ac-4c34-b48b-0710c492a44c"},"vehicle_type_id":"4","last_reported":1758831074,"current_range_meters":6800,"station_id":"","pricing_plan_id":"cebpf4jnsgd1na2vs0mg"},{"bike_id":"e3118e49-d55a-4a7e-8b62-e885c0de05e0","system_id":"levelo_inurba_marseille","lat":43.32721,"lon":5.39247,"is_reserved":false,"is_disabled":false,"rental_uris":{"android":"levelo://app?vid=e3118e49-d55a-4a7e-8b62-e885c0de05e0","ios":"levelo://app?vid=e3118e49-d55a-4a7e-8b62-e885c0de05e0"},"vehicle_type_id":"4","last_reported":1758831074,"current_range_meters":7200,"station_id":"","pricing_plan_id":"cebpf4jnsgd1na2vs0mg"},{"bike_id":"838c3fde-9015-4727-8d6d-14fda1454c7b","system_id":"levelo_inurba_marseille","lat":43.31332,"lon":5.39725,"is_reserved":false,"is_disabled":false,"rental_uris":{"android":"levelo://app?vid=838c3fde-9015-4727-8d6d-14fda1454c7b","ios":"levelo://app?vid=838c3fde-9015-4727-8d6d-14fda1454c7b"},"vehicle_type_id":"4","last_reported":1758831074,"current_range_meters":6800,"station_id":"ce4bgvp2rcd13ifvqcu0","pricing_plan_id":"cebpf4jnsgd1na2vs0mg"},{"bike_id":"069a836b-5a03-43a3-a809-fd0b218a6a49","system_id":"levelo_inurba_marseille","lat":43.26556,"lon":5.37281,"is_reserved":false,"is_disabled":false,"rental_uris":{"android":"levelo://app?vid=069a836b-5a03-43a3-a809-fd0b218a6a49","ios":"levelo://app?vid=069a836b-5a03-43a3-a809-fd0b218a6a49"},"vehicle_type_id":"4","last_reported":1758831074,"current_range_meters":8000,"station_id":"ce4bhg12rcd13ifvqf70","pricing_plan_id":"cebpf4jnsgd1na2vs0mg"},{"bike_id":"fac3cd4a-3ec8-4724-9183-71e253e9d2b2","system_id":"levelo_inurba_marseille","lat":43.29715,"lon":5.36604,"is_reserved":false,"is_disabled":false,"rental_uris":{"android":"levelo://app?vid=fac3cd4a-3ec8-4724-9183-71e253e9d2b2","ios":"levelo://app?vid=fac3cd4a-3ec8-4724-9183-71e253e9d2b2"},"vehicle_type_id":"4","last_reported":1758831074,"current_range_meters":8000,"station_id":"ce4bgn12rcd13ifvqbt0","pricing_plan_id":"cebpf4jnsgd1na2vs0mg"},{"bike_id":"58e095fe-697c-492a-860a-ada78513b493","system_id":"levelo_inurba_marseille","lat":43.31079,"lon":5.38347,"is_reserved":false,"is_disabled":true,"rental_uris":{"android":"levelo://app?vid=58e095fe-697c-492a-860a-ada78513b493","ios":"levelo://app?vid=58e095fe-697c-492a-860a-ada78513b493"},"vehicle_type_id":"4","last_reported":1758831074,"current_range_meters":8000,"station_id":"ce4bgv92rcd13ifvqcr0","pricing_plan_id":"cebpf4jnsgd1na2vs0mg"},{"bike_id":"e38e20e4-dea1-446a-acc7-b6b7a5fdd97e","system_id":"levelo_inurba_marseille","lat":43.29043,"lon":5.3996,"is_reserved":false,"is_disabled":false,"rental_uris":{"android":"levelo://app?vid=e38e20e4-dea1-446a-acc7-b6b7a5fdd97e","ios":"levelo://app?vid=e38e20e4-dea1-446a-acc7-b6b7a5fdd97e"},"vehicle_type_id":"4","last_reported":1758831074,"current_range_meters":8400,"station_id":"ce4bh392rcd13ifvqdm0","pricing_plan_id":"cebpf4jnsgd1na2vs0mg"},{"bike_id":"94b2f036-4ca4-4693-89f2-72df2150ee98","system_id":"levelo_inurba_marseille","lat":43.258265,"lon":5.394374,"is_reserved":false,"is_disabled":true,"rental_uris":{"android":"levelo://app?vid=94b2f036-4ca4-4693-89f2-72df2150ee98","ios":"levelo://app?vid=94b2f036-4ca4-4693-89f2-72df2150ee98"},"vehicle_type_id":"4","last_reported":1758831074,"current_range_meters":8400,"station_id":"ce4bhip2rcd13ifvqft0","pricing_plan_id":"cebpf4jnsgd1na2vs0mg"},{"bike_id":"61a7ae45-d42d-4a5e-b814-92f79b8399b8","system_id":"levelo_inurba_marseille","lat":43.23964,"lon":5.36635,"is_reserved":false,"is_disabled":false,"rental_uris":{"android":"levelo://app?vid=61a7ae45-d42d-4a5e-b814-92f79b8399b8","ios":"levelo://app?vid=61a7ae45-d42d-4a5e-b814-92f79b8399b8"},"vehicle_type_id":"4","last_reported":1758831074,"current_range_meters":8000,"station_id":"ce4bhi12rcd13ifvqfp0","pricing_plan_id":"cebpf4jnsgd1na2vs0mg"},{"bike_id":"3a83ddcd-ce03-4ed4-a7fa-b273c2464f02","system_id":"levelo_inurba_marseille","lat":43.27963,"lon":5.36326,"is_reserved":false,"is_disabled":false,"rental_uris":{"android":"levelo://app?vid=3a83ddcd-ce03-4ed4-a7fa-b273c2464f02","ios":"levelo://app?vid=3a83ddcd-ce03-4ed4-a7fa-b273c2464f02"},"vehicle_type_id":"4","last_reported":1758831074,"current_range_meters":8800,"station_id":"","pricing_plan_id":"cebpf4jnsgd1na2vs0mg"},{"bike_id":"117acf13-6b03-4ee3-b4a5-edb1f47e11bc","system_id":"levelo_inurba_marseille","lat":43.26849,"lon":5.3871,"is_reserved":false,"is_disabled":true,"rental_uris":{"android":"levelo://app?vid=117acf13-6b03-4ee3-b4a5-edb1f47e11bc","ios":"levelo://app?vid=117acf13-6b03-4ee3-b4a5-edb1f47e11bc"},"vehicle_type_id":"4","last_reported":1758831074,"current_range_meters":8800,"station_id":"","pricing_plan_id":"cebpf4jnsgd1na2vs0mg"},{"bike_id":"af314b0a-5064-4223-8ad6-f11662032379","system_id":"levelo_inurba_marseille","lat":43.30246,"lon":5.40063,"is_reserved":false,"is_disabled":false,"rental_uris":{"android":"levelo://app?vid=af314b0a-5064-4223-8ad6-f11662032379","ios":"levelo://app?vid=af314b0a-5064-4223-8ad6-f11662032379"},"vehicle_type_id":"4","last_reported":1758831074,"current_range_meters":8800,"station_id":"ce4bgvh2rcd13ifvqcs0","pricing_plan_id":"cebpf4jnsgd1na2vs0mg"},{"bike_id":"450844ba-2fc2-47be-9959-8fee61f07fb6","system_id":"levelo_inurba_marseille","lat":43.31741,"lon":5.39024,"is_reserved":false,"is_disabled":false,"rental_uris":{"android":"levelo://app?vid=450844ba-2fc2-47be-9959-8fee61f07fb6","ios":"levelo://app?vid=450844ba-2fc2-47be-9959-8fee61f07fb6"},"vehicle_type_id":"4","last_reported":1758831074,"current_range_meters":9200,"station_id":"ce4bhqp2rcd13ifvqhng","pricing_plan_id":"cebpf4jnsgd1na2vs0mg"},{"bike_id":"aa200d5b-4ba2-4c3f-9fd7-30e24b2cf02d","system_id":"levelo_inurba_marseille","lat":43.29209,"lon":5.36067,"is_reserved":false,"is_disabled":false,"rental_uris":{"android":"levelo://app?vid=aa200d5b-4ba2-4c3f-9fd7-30e24b2cf02d","ios":"levelo://app?vid=aa200d5b-4ba2-4c3f-9fd7-30e24b2cf02d"},"vehicle_type_id":"4","last_reported":1758831074,"current_range_meters":9200,"station_id":"ce4bhbh2rcd13ifvqeqg","pricing_plan_id":"cebpf4jnsgd1na2vs0mg"},{"bike_id":"a294ec25-f643-41e6-b75e-f26534f372ee","system_id":"levelo_inurba_marseille","lat":43.2919,"lon":5.388405,"is_reserved":false,"is_disabled":false,"rental_uris":{"android":"levelo://app?vid=a294ec25-f643-41e6-b75e-f26534f372ee","ios":"levelo://app?vid=a294ec25-f643-41e6-b75e-f26534f372ee"},"vehicle_type_id":"4","last_reported":1758831074,"current_range_meters":9200,"station_id":"","pricing_plan_id":"cebpf4jnsgd1na2vs0mg"},{"bike_id":"4035ffcf-62d8-4fb0-89da-8d7b6b41ef29","system_id":"levelo_inurba_marseille","lat":43.29444,"lon":5.39763,"is_reserved":false,"is_disabled":true,"rental_uris":{"android":"levelo://app?vid=4035ffcf-62d8-4fb0-89da-8d7b6b41ef29","ios":"levelo://app?vid=4035ffcf-62d8-4fb0-89da-8d7b6b41ef29"},"vehicle_type_id":"4","last_reported":1758831074,"current_range_meters":9200,"station_id":"ce4bh3h2rcd13ifvqdo0","pricing_plan_id":"cebpf4jnsgd1na2vs0mg"},{"bike_id":"3fdfca0f-bd46-41c4-85d0-131b2d5c4132","system_id":"levelo_inurba_marseille","lat":43.24945,"lon":5.40489,"is_reserved":false,"is_disabled":false,"rental_uris":{"android":"levelo://app?vid=3fdfca0f-bd46-41c4-85d0-131b2d5c4132","ios":"levelo://app?vid=3fdfca0f-bd46-41c4-85d0-131b2d5c4132"},"vehicle_type_id":"4","last_reported":1758831074,"current_range_meters":9200,"station_id":"st_d2ngiaodas8pm72gd1h0","pricing_plan_id":"cebpf4jnsgd1na2vs0mg"},{"bike_id":"1f06a3e3-12af-42ce-879d-764cd221ec77","system_id":"levelo_inurba_marseille","lat":43.2811,"lon":5.37847,"is_reserved":false,"is_disabled":false,"rental_uris":{"android":"levelo://app?vid=1f06a3e3-12af-42ce-879d-764cd221ec77","ios":"levelo://app?vid=1f06a3e3-12af-42ce-879d-764cd221ec77"},"vehicle_type_id":"4","last_reported":1758831074,"current_range_meters":9200,"station_id":"ce4bha12rcd13ifvqee0","pricing_plan_id":"cebpf4jnsgd1na2vs0mg"},{"bike_id":"2e3e2341-4f79-4086-85e3-dae48d8cf587","system_id":"levelo_inurba_marseille","lat":43.29185,"lon":5.3932,"is_reserved":false,"is_disabled":false,"rental_uris":{"android":"levelo://app?vid=2e3e2341-4f79-4086-85e3-dae48d8cf587","ios":"levelo://app?vid=2e3e2341-4f79-4086-85e3-dae48d8cf587"},"vehicle_type_id":"4","last_reported":1758831074,"current_range_meters":9600,"station_id":"ce4bh192rcd13ifvqdd0","pricing_plan_id":"cebpf4jnsgd1na2vs0mg"},{"bike_id":"0e9ca394-4351-4bf8-a641-f4e5215baf20","system_id":"levelo_inurba_marseille","lat":43.282681,"lon":5.35083,"is_reserved":false,"is_disabled":false,"rental_uris":{"android":"levelo://app?vid=0e9ca394-4351-4bf8-a641-f4e5215baf20","ios":"levelo://app?vid=0e9ca394-4351-4bf8-a641-f4e5215baf20"},"vehicle_type_id":"4","last_reported":1758831074,"current_range_meters":9600,"station_id":"ce4bhbp2rcd13ifvqerg","pricing_plan_id":"cebpf4jnsgd1na2vs0mg"},{"bike_id":"b58b2195-7f29-410e-95b1-bc7841c5107d","system_id":"levelo_inurba_marseille","lat":43.25826,"lon":5.39437,"is_reserved":false,"is_disabled":false,"rental_uris":{"android":"levelo://app?vid=b58b2195-7f29-410e-95b1-bc7841c5107d","ios":"levelo://app?vid=b58b2195-7f29-410e-95b1-bc7841c5107d"},"vehicle_type_id":"4","last_reported":1758831074,"current_range_meters":9600,"station_id":"ce4bhip2rcd13ifvqft0","pricing_plan_id":"cebpf4jnsgd1na2vs0mg"},{"bike_id":"379911e0-a8b9-4b05-96ac-c75be54d3c45","system_id":"levelo_inurba_marseille","lat":43.288596,"lon":5.425188,"is_reserved":false,"is_disabled":false,"rental_uris":{"android":"levelo://app?vid=379911e0-a8b9-4b05-96ac-c75be54d3c45","ios":"levelo://app?vid=379911e0-a8b9-4b05-96ac-c75be54d3c45"},"vehicle_type_id":"4","last_reported":1758831074,"current_range_meters":9600,"station_id":"","pricing_plan_id":"cebpf4jnsgd1na2vs0mg"},{"bike_id":"b762ce87-636e-4770-a79e-976d2f9a6a8f","system_id":"levelo_inurba_marseille","lat":43.29595,"lon":5.38116,"is_reserved":false,"is_disabled":false,"rental_uris":{"android":"levelo://app?vid=b762ce87-636e-4770-a79e-976d2f9a6a8f","ios":"levelo://app?vid=b762ce87-636e-4770-a79e-976d2f9a6a8f"},"vehicle_type_id":"4","last_reported":1758831074,"current_range_meters":10000,"station_id":"ce4bgl12rcd13ifvqbo0","pricing_plan_id":"cebpf4jnsgd1na2vs0mg"},{"bike_id":"d5632eaf-207f-4351-be9c-95c58bc9c538","system_id":"levelo_inurba_marseille","lat":43.29534,"lon":5.37497,"is_reserved":false,"is_disabled":true,"rental_uris":{"android":"levelo://app?vid=d5632eaf-207f-4351-be9c-95c58bc9c538","ios":"levelo://app?vid=d5632eaf-207f-4351-be9c-95c58bc9c538"},"vehicle_type_id":"4","last_reported":1758831074,"current_range_meters":10000,"station_id":"ce4bgkp2rcd13ifvqbmg","pricing_plan_id":"cebpf4jnsgd1na2vs0mg"},{"bike_id":"8eae954c-dab6-4303-94f5-569e1c483f62","system_id":"levelo_inurba_marseille","lat":43.294582,"lon":5.407465,"is_reserved":false,"is_disabled":false,"rental_uris":{"android":"levelo://app?vid=8eae954c-dab6-4303-94f5-569e1c483f62","ios":"levelo://app?vid=8eae954c-dab6-4303-94f5-569e1c483f62"},"vehicle_type_id":"4","last_reported":1758831074,"current_range_meters":10000,"station_id":"","pricing_plan_id":"cebpf4jnsgd1na2vs0mg"},{"bike_id":"237c6c1c-3b20-4dcb-82ea-76107a136d3e","system_id":"levelo_inurba_marseille","lat":43.29272,"lon":5.36852,"is_reserved":false,"is_disabled":true,"rental_uris":{"android":"levelo://app?vid=237c6c1c-3b20-4dcb-82ea-76107a136d3e","ios":"levelo://app?vid=237c6c1c-3b20-4dcb-82ea-76107a136d3e"},"vehicle_type_id":"4","last_reported":1758831074,"current_range_meters":10000,"station_id":"ce4bhbp2rcd13ifvqesg","pricing_plan_id":"cebpf4jnsgd1na2vs0mg"},{"bike_id":"b467065d-40c8-4639-a94e-77f0f1d0a8da","system_id":"levelo_inurba_marseille","lat":43.28459,"lon":5.35899,"is_reserved":false,"is_disabled":false,"rental_uris":{"android":"levelo://app?vid=b467065d-40c8-4639-a94e-77f0f1d0a8da","ios":"levelo://app?vid=b467065d-40c8-4639-a94e-77f0f1d0a8da"},"vehicle_type_id":"4","last_reported":1758831074,"current_range_meters":10000,"station_id":"ce4bhah2rcd13ifvqei0","pricing_plan_id":"cebpf4jnsgd1na2vs0mg"},{"bike_id":"36fce021-90b4-4dc3-8ea3-d6024faf8f05","system_id":"levelo_inurba_marseille","lat":43.284177,"lon":5.349913,"is_reserved":false,"is_disabled":false,"rental_uris":{"android":"levelo://app?vid=36fce021-90b4-4dc3-8ea3-d6024faf8f05","ios":"levelo://app?vid=36fce021-90b4-4dc3-8ea3-d6024faf8f05"},"vehicle_type_id":"4","last_reported":1758831074,"current_range_meters":10000,"station_id":"ce4bhbh2rcd13ifvqepg","pricing_plan_id":"cebpf4jnsgd1na2vs0mg"},{"bike_id":"0ef81889-2d7f-4e70-b480-0b08f55cbfba","system_id":"levelo_inurba_marseille","lat":43.30867,"lon":5.36833,"is_reserved":false,"is_disabled":false,"rental_uris":{"android":"levelo://app?vid=0ef81889-2d7f-4e70-b480-0b08f55cbfba","ios":"levelo://app?vid=0ef81889-2d7f-4e70-b480-0b08f55cbfba"},"vehicle_type_id":"4","last_reported":1758831074,"current_range_meters":10000,"station_id":"ce4bgn92rcd13ifvqbvg","pricing_plan_id":"cebpf4jnsgd1na2vs0mg"},{"bike_id":"8584eb3e-f7b4-4300-97fe-005a37d8d75b","system_id":"levelo_inurba_marseille","lat":43.36826,"lon":5.36307,"is_reserved":false,"is_disabled":false,"rental_uris":{"android":"levelo://app?vid=8584eb3e-f7b4-4300-97fe-005a37d8d75b","ios":"levelo://app?vid=8584eb3e-f7b4-4300-97fe-005a37d8d75b"},"vehicle_type_id":"4","last_reported":1758831074,"current_range_meters":10000,"station_id":"","pricing_plan_id":"cebpf4jnsgd1na2vs0mg"},{"bike_id":"60603f32-1d75-4a7a-9929-dcc7d1c1706c","system_id":"levelo_inurba_marseille","lat":43.30433,"lon":5.39747,"is_reserved":false,"is_disabled":false,"rental_uris":{"android":"levelo://app?vid=60603f32-1d75-4a7a-9929-dcc7d1c1706c","ios":"levelo://app?vid=60603f32-1d75-4a7a-9929-dcc7d1c1706c"},"vehicle_type_id":"4","last_reported":1758831074,"current_range_meters":10000,"station_id":"ce4bh092rcd13ifvqd20","pricing_plan_id":"cebpf4jnsgd1na2vs0mg"},{"bike_id":"c0fd3e27-9fb0-47a6-b1e2-87022db7acdd","system_id":"levelo_inurba_marseille","lat":43.30423,"lon":5.39757,"is_reserved":false,"is_disabled":false,"rental_uris":{"android":"levelo://app?vid=c0fd3e27-9fb0-47a6-b1e2-87022db7acdd","ios":"levelo://app?vid=c0fd3e27-9fb0-47a6-b1e2-87022db7acdd"},"vehicle_type_id":"4","last_reported":1758831074,"current_range_meters":10800,"station_id":"ce4bh092rcd13ifvqd20","pricing_plan_id":"cebpf4jnsgd1na2vs0mg"},{"bike_id":"bdec3261-de13-477f-818b-7af8ae1d1f6a","system_id":"levelo_inurba_marseille","lat":43.23972,"lon":5.37681,"is_reserved":false,"is_disabled":false,"rental_uris":{"android":"levelo://app?vid=bdec3261-de13-477f-818b-7af8ae1d1f6a","ios":"levelo://app?vid=bdec3261-de13-477f-818b-7af8ae1d1f6a"},"vehicle_type_id":"4","last_reported":1758831074,"current_range_meters":10800,"station_id":"","pricing_plan_id":"cebpf4jnsgd1na2vs0mg"},{"bike_id":"67b8aaae-0d39-414d-ba59-1a62d33b4066","system_id":"levelo_inurba_marseille","lat":43.305161,"lon":5.400067,"is_reserved":false,"is_disabled":false,"rental_uris":{"android":"levelo://app?vid=67b8aaae-0d39-414d-ba59-1a62d33b4066","ios":"levelo://app?vid=67b8aaae-0d39-414d-ba59-1a62d33b4066"},"vehicle_type_id":"4","last_reported":1758831074,"current_range_meters":10800,"station_id":"","pricing_plan_id":"cebpf4jnsgd1na2vs0mg"},{"bike_id":"003515e8-8117-44bb-979d-5f47e8d50fda","system_id":"levelo_inurba_marseille","lat":43.30622,"lon":5.3757,"is_reserved":false,"is_disabled":false,"rental_uris":{"android":"levelo://app?vid=003515e8-8117-44bb-979d-5f47e8d50fda","ios":"levelo://app?vid=003515e8-8117-44bb-979d-5f47e8d50fda"},"vehicle_type_id":"4","last_reported":1758831074,"current_range_meters":11200,"station_id":"","pricing_plan_id":"cebpf4jnsgd1na2vs0mg"},{"bike_id":"e6683e4c-018f-4ae5-b2b2-e329a3ab638c","system_id":"levelo_inurba_marseille","lat":43.29074,"lon":5.37173,"is_reserved":false,"is_disabled":false,"rental_uris":{"android":"levelo://app?vid=e6683e4c-018f-4ae5-b2b2-e329a3ab638c","ios":"levelo://app?vid=e6683e4c-018f-4ae5-b2b2-e329a3ab638c"},"vehicle_type_id":"4","last_reported":1758831074,"current_range_meters":10800,"station_id":"ce4bh5p2rcd13ifvqe4g","pricing_plan_id":"cebpf4jnsgd1na2vs0mg"},{"bike_id":"1d83c96d-d874-4e8c-bc91-af13c750bf6c","system_id":"levelo_inurba_marseille","lat":43.265667,"lon":5.403245,"is_reserved":false,"is_disabled":false,"rental_uris":{"android":"levelo://app?vid=1d83c96d-d874-4e8c-bc91-af13c750bf6c","ios":"levelo://app?vid=1d83c96d-d874-4e8c-bc91-af13c750bf6c"},"vehicle_type_id":"4","last_reported":1758831074,"current_range_meters":11200,"station_id":"ce4bhmp2rcd13ifvqgng","pricing_plan_id":"cebpf4jnsgd1na2vs0mg"},{"bike_id":"d9b8fa0e-57f1-4026-9be2-2d0e2e94a52b","system_id":"levelo_inurba_marseille","lat":43.24651,"lon":5.43148,"is_reserved":false,"is_disabled":false,"rental_uris":{"android":"levelo://app?vid=d9b8fa0e-57f1-4026-9be2-2d0e2e94a52b","ios":"levelo://app?vid=d9b8fa0e-57f1-4026-9be2-2d0e2e94a52b"},"vehicle_type_id":"4","last_reported":1758831074,"current_range_meters":11200,"station_id":"st_d2m6c4gdas8pm72e190g","pricing_plan_id":"cebpf4jnsgd1na2vs0mg"},{"bike_id":"85844ed9-26ca-4f60-979f-2dda4a493f13","system_id":"levelo_inurba_marseille","lat":43.29253,"lon":5.38437,"is_reserved":false,"is_disabled":false,"rental_uris":{"android":"levelo://app?vid=85844ed9-26ca-4f60-979f-2dda4a493f13","ios":"levelo://app?vid=85844ed9-26ca-4f60-979f-2dda4a493f13"},"vehicle_type_id":"4","last_reported":1758831074,"current_range_meters":11200,"station_id":"ce4bh692rcd13ifvqea0","pricing_plan_id":"cebpf4jnsgd1na2vs0mg"},{"bike_id":"e829109c-8169-48cf-8415-a12ef809c1fc","system_id":"levelo_inurba_marseille","lat":43.31364,"lon":5.38496,"is_reserved":false,"is_disabled":false,"rental_uris":{"android":"levelo://app?vid=e829109c-8169-48cf-8415-a12ef809c1fc","ios":"levelo://app?vid=e829109c-8169-48cf-8415-a12ef809c1fc"},"vehicle_type_id":"4","last_reported":1758831074,"current_range_meters":11200,"station_id":"ce4bgt92rcd13ifvqcf0","pricing_plan_id":"cebpf4jnsgd1na2vs0mg"},{"bike_id":"46923300-e0d3-40c1-8c76-7dadc761100f","system_id":"levelo_inurba_marseille","lat":43.2898,"lon":5.3561,"is_reserved":false,"is_disabled":false,"rental_uris":{"android":"levelo://app?vid=46923300-e0d3-40c1-8c76-7dadc761100f","ios":"levelo://app?vid=46923300-e0d3-40c1-8c76-7dadc761100f"},"vehicle_type_id":"4","last_reported":1758831074,"current_range_meters":11200,"station_id":"ce4bhb92rcd13ifvqen0","pricing_plan_id":"cebpf4jnsgd1na2vs0mg"},{"bike_id":"212de2eb-8bbc-413c-b204-9fe1facd76e8","system_id":"levelo_inurba_marseille","lat":43.31275,"lon":5.37827,"is_reserved":false,"is_disabled":false,"rental_uris":{"android":"levelo://app?vid=212de2eb-8bbc-413c-b204-9fe1facd76e8","ios":"levelo://app?vid=212de2eb-8bbc-413c-b204-9fe1facd76e8"},"vehicle_type_id":"4","last_reported":1758831074,"current_range_meters":11200,"station_id":"","pricing_plan_id":"cebpf4jnsgd1na2vs0mg"},{"bike_id":"f9af076b-c426-46f0-97f6-f6a5a530c8e2","system_id":"levelo_inurba_marseille","lat":43.33055,"lon":5.39463,"is_reserved":false,"is_disabled":false,"rental_uris":{"android":"levelo://app?vid=f9af076b-c426-46f0-97f6-f6a5a530c8e2","ios":"levelo://app?vid=f9af076b-c426-46f0-97f6-f6a5a530c8e2"},"vehicle_type_id":"4","last_reported":1758831074,"current_range_meters":11200,"station_id":"","pricing_plan_id":"cebpf4jnsgd1na2vs0mg"},{"bike_id":"e793b8a8-4611-4404-a8bd-2a019b0a204d","system_id":"levelo_inurba_marseille","lat":43.29595,"lon":5.38622,"is_reserved":false,"is_disabled":false,"rental_uris":{"android":"levelo://app?vid=e793b8a8-4611-4404-a8bd-2a019b0a204d","ios":"levelo://app?vid=e793b8a8-4611-4404-a8bd-2a019b0a204d"},"vehicle_type_id":"4","last_reported":1758831074,"current_range_meters":11600,"station_id":"","pricing_plan_id":"cebpf4jnsgd1na2vs0mg"},{"bike_id":"ee37266a-4bb5-4da4-9d2c-3ed4c716a19d","system_id":"levelo_inurba_marseille","lat":43.29525,"lon":5.3942,"is_reserved":false,"is_disabled":false,"rental_uris":{"android":"levelo://app?vid=ee37266a-4bb5-4da4-9d2c-3ed4c716a19d","ios":"levelo://app?vid=ee37266a-4bb5-4da4-9d2c-3ed4c716a19d"},"vehicle_type_id":"4","last_reported":1758831074,"current_range_meters":11600,"station_id":"ce4bh292rcd13ifvqdf0","pricing_plan_id":"cebpf4jnsgd1na2vs0mg"},{"bike_id":"8a1e6ae7-98e9-4985-adf4-7a2489ac0ee2","system_id":"levelo_inurba_marseille","lat":43.24804,"lon":5.37456,"is_reserved":false,"is_disabled":false,"rental_uris":{"android":"levelo://app?vid=8a1e6ae7-98e9-4985-adf4-7a2489ac0ee2","ios":"levelo://app?vid=8a1e6ae7-98e9-4985-adf4-7a2489ac0ee2"},"vehicle_type_id":"4","last_reported":1758831074,"current_range_meters":11200,"station_id":"ce4bhgh2rcd13ifvqfb0","pricing_plan_id":"cebpf4jnsgd1na2vs0mg"},{"bike_id":"2bd2a176-8590-4e06-8b8c-a96b49b7b36a","system_id":"levelo_inurba_marseille","lat":43.242409,"lon":5.41085,"is_reserved":false,"is_disabled":false,"rental_uris":{"android":"levelo://app?vid=2bd2a176-8590-4e06-8b8c-a96b49b7b36a","ios":"levelo://app?vid=2bd2a176-8590-4e06-8b8c-a96b49b7b36a"},"vehicle_type_id":"4","last_reported":1758831074,"current_range_meters":11600,"station_id":"","pricing_plan_id":"cebpf4jnsgd1na2vs0mg"},{"bike_id":"8fe6899c-f678-4f46-be40-9ca7596a0783","system_id":"levelo_inurba_marseille","lat":43.28915,"lon":5.38398,"is_reserved":false,"is_disabled":true,"rental_uris":{"android":"levelo://app?vid=8fe6899c-f678-4f46-be40-9ca7596a0783","ios":"levelo://app?vid=8fe6899c-f678-4f46-be40-9ca7596a0783"},"vehicle_type_id":"4","last_reported":1758831074,"current_range_meters":11600,"station_id":"ce4bh612rcd13ifvqe6g","pricing_plan_id":"cebpf4jnsgd1na2vs0mg"},{"bike_id":"87c11965-076e-4550-9974-a643a31a03fa","system_id":"levelo_inurba_marseille","lat":43.26234,"lon":5.40445,"is_reserved":false,"is_disabled":false,"rental_uris":{"android":"levelo://app?vid=87c11965-076e-4550-9974-a643a31a03fa","ios":"levelo://app?vid=87c11965-076e-4550-9974-a643a31a03fa"},"vehicle_type_id":"4","last_reported":1758831074,"current_range_meters":11600,"station_id":"ce4bhmh2rcd13ifvqgmg","pricing_plan_id":"cebpf4jnsgd1na2vs0mg"},{"bike_id":"623865ec-2214-4964-848c-9f7d06a9251a","system_id":"levelo_inurba_marseille","lat":43.32716,"lon":5.39249,"is_reserved":false,"is_disabled":false,"rental_uris":{"android":"levelo://app?vid=623865ec-2214-4964-848c-9f7d06a9251a","ios":"levelo://app?vid=623865ec-2214-4964-848c-9f7d06a9251a"},"vehicle_type_id":"4","last_reported":1758831074,"current_range_meters":11600,"station_id":"","pricing_plan_id":"cebpf4jnsgd1na2vs0mg"},{"bike_id":"dd47cc9a-8f6a-4c62-9b7c-bd17d8798bcf","system_id":"levelo_inurba_marseille","lat":43.27919,"lon":5.39591,"is_reserved":false,"is_disabled":false,"rental_uris":{"android":"levelo://app?vid=dd47cc9a-8f6a-4c62-9b7c-bd17d8798bcf","ios":"levelo://app?vid=dd47cc9a-8f6a-4c62-9b7c-bd17d8798bcf"},"vehicle_type_id":"4","last_reported":1758831074,"current_range_meters":11600,"station_id":"ce4bhf92rcd13ifvqf40","pricing_plan_id":"cebpf4jnsgd1na2vs0mg"},{"bike_id":"7bc9e158-af64-4fa0-a3d2-6f150a0bd49d","system_id":"levelo_inurba_marseille","lat":43.24641,"lon":5.43145,"is_reserved":false,"is_disabled":false,"rental_uris":{"android":"levelo://app?vid=7bc9e158-af64-4fa0-a3d2-6f150a0bd49d","ios":"levelo://app?vid=7bc9e158-af64-4fa0-a3d2-6f150a0bd49d"},"vehicle_type_id":"4","last_reported":1758831074,"current_range_meters":12000,"station_id":"st_d2m6c4gdas8pm72e190g","pricing_plan_id":"cebpf4jnsgd1na2vs0mg"},{"bike_id":"02212ec5-e517-4a4c-bf69-5117e317eb1a","system_id":"levelo_inurba_marseille","lat":43.32094,"lon":5.36774,"is_reserved":false,"is_disabled":false,"rental_uris":{"android":"levelo://app?vid=02212ec5-e517-4a4c-bf69-5117e317eb1a","ios":"levelo://app?vid=02212ec5-e517-4a4c-bf69-5117e317eb1a"},"vehicle_type_id":"4","last_reported":1758831074,"current_range_meters":12000,"station_id":"ce4bhrh2rcd13ifvqhug","pricing_plan_id":"cebpf4jnsgd1na2vs0mg"},{"bike_id":"d31d856a-933d-49cf-948f-ce03657dfc74","system_id":"levelo_inurba_marseille","lat":43.284179,"lon":5.349874,"is_reserved":false,"is_disabled":false,"rental_uris":{"android":"levelo://app?vid=d31d856a-933d-49cf-948f-ce03657dfc74","ios":"levelo://app?vid=d31d856a-933d-49cf-948f-ce03657dfc74"},"vehicle_type_id":"4","last_reported":1758831074,"current_range_meters":12000,"station_id":"ce4bhbh2rcd13ifvqepg","pricing_plan_id":"cebpf4jnsgd1na2vs0mg"},{"bike_id":"fc71c58a-0998-4ad7-adf3-f0dcb9e5585b","system_id":"levelo_inurba_marseille","lat":43.23193,"lon":5.39988,"is_reserved":false,"is_disabled":false,"rental_uris":{"android":"levelo://app?vid=fc71c58a-0998-4ad7-adf3-f0dcb9e5585b","ios":"levelo://app?vid=fc71c58a-0998-4ad7-adf3-f0dcb9e5585b"},"vehicle_type_id":"4","last_reported":1758831074,"current_range_meters":12000,"station_id":"ce4bhn12rcd13ifvqgqg","pricing_plan_id":"cebpf4jnsgd1na2vs0mg"},{"bike_id":"62715686-f744-46bf-8dd9-e63deb32cdf4","system_id":"levelo_inurba_marseille","lat":43.28933,"lon":5.36398,"is_reserved":false,"is_disabled":false,"rental_uris":{"android":"levelo://app?vid=62715686-f744-46bf-8dd9-e63deb32cdf4","ios":"levelo://app?vid=62715686-f744-46bf-8dd9-e63deb32cdf4"},"vehicle_type_id":"4","last_reported":1758831074,"current_range_meters":12400,"station_id":"ce4bhc92rcd13ifvqetg","pricing_plan_id":"cebpf4jnsgd1na2vs0mg"},{"bike_id":"402b573d-229b-4b0e-977a-075c271e85c6","system_id":"levelo_inurba_marseille","lat":43.28863,"lon":5.42526,"is_reserved":false,"is_disabled":false,"rental_uris":{"android":"levelo://app?vid=402b573d-229b-4b0e-977a-075c271e85c6","ios":"levelo://app?vid=402b573d-229b-4b0e-977a-075c271e85c6"},"vehicle_type_id":"4","last_reported":1758831074,"current_range_meters":12400,"station_id":"","pricing_plan_id":"cebpf4jnsgd1na2vs0mg"},{"bike_id":"f897d300-643c-4c7a-951b-f56d70ef23ca","system_id":"levelo_inurba_marseille","lat":43.30311,"lon":5.39073,"is_reserved":false,"is_disabled":false,"rental_uris":{"android":"levelo://app?vid=f897d300-643c-4c7a-951b-f56d70ef23ca","ios":"levelo://app?vid=f897d300-643c-4c7a-951b-f56d70ef23ca"},"vehicle_type_id":"4","last_reported":1758831074,"current_range_meters":12400,"station_id":"","pricing_plan_id":"cebpf4jnsgd1na2vs0mg"},{"bike_id":"cee3c36d-9304-42e6-a4ef-d96f70adb757","system_id":"levelo_inurba_marseille","lat":43.24946,"lon":5.40494,"is_reserved":false,"is_disabled":false,"rental_uris":{"android":"levelo://app?vid=cee3c36d-9304-42e6-a4ef-d96f70adb757","ios":"levelo://app?vid=cee3c36d-9304-42e6-a4ef-d96f70adb757"},"vehicle_type_id":"4","last_reported":1758831074,"current_range_meters":12400,"station_id":"st_d2ngiaodas8pm72gd1h0","pricing_plan_id":"cebpf4jnsgd1na2vs0mg"},{"bike_id":"1c27f7d4-507d-43e2-b324-44f5e35dee72","system_id":"levelo_inurba_marseille","lat":43.32341,"lon":5.39301,"is_reserved":false,"is_disabled":false,"rental_uris":{"android":"levelo://app?vid=1c27f7d4-507d-43e2-b324-44f5e35dee72","ios":"levelo://app?vid=1c27f7d4-507d-43e2-b324-44f5e35dee72"},"vehicle_type_id":"4","last_reported":1758831074,"current_range_meters":12400,"station_id":"","pricing_plan_id":"cebpf4jnsgd1na2vs0mg"},{"bike_id":"c5ab64bf-78c4-42cd-8ad8-d5c54f85cca0","system_id":"levelo_inurba_marseille","lat":43.29247,"lon":5.38447,"is_reserved":false,"is_disabled":true,"rental_uris":{"android":"levelo://app?vid=c5ab64bf-78c4-42cd-8ad8-d5c54f85cca0","ios":"levelo://app?vid=c5ab64bf-78c4-42cd-8ad8-d5c54f85cca0"},"vehicle_type_id":"4","last_reported":1758831074,"current_range_meters":12400,"station_id":"ce4bh692rcd13ifvqea0","pricing_plan_id":"cebpf4jnsgd1na2vs0mg"},{"bike_id":"3731e4b4-e57b-4ad8-affe-801decac42ca","system_id":"levelo_inurba_marseille","lat":43.249534,"lon":5.404973,"is_reserved":false,"is_disabled":false,"rental_uris":{"android":"levelo://app?vid=3731e4b4-e57b-4ad8-affe-801decac42ca","ios":"levelo://app?vid=3731e4b4-e57b-4ad8-affe-801decac42ca"},"vehicle_type_id":"4","last_reported":1758831074,"current_range_meters":12400,"station_id":"st_d2ngiaodas8pm72gd1h0","pricing_plan_id":"cebpf4jnsgd1na2vs0mg"},{"bike_id":"2e22e098-1e6e-4376-9dcc-d2faf4d95e30","system_id":"levelo_inurba_marseille","lat":43.2953,"lon":5.37836,"is_reserved":false,"is_disabled":false,"rental_uris":{"android":"levelo://app?vid=2e22e098-1e6e-4376-9dcc-d2faf4d95e30","ios":"levelo://app?vid=2e22e098-1e6e-4376-9dcc-d2faf4d95e30"},"vehicle_type_id":"4","last_reported":1758831074,"current_range_meters":12400,"station_id":"","pricing_plan_id":"cebpf4jnsgd1na2vs0mg"},{"bike_id":"1c35bf83-ebdb-4c44-ba8d-eb30d817a599","system_id":"levelo_inurba_marseille","lat":43.304251,"lon":5.39741,"is_reserved":false,"is_disabled":true,"rental_uris":{"android":"levelo://app?vid=1c35bf83-ebdb-4c44-ba8d-eb30d817a599","ios":"levelo://app?vid=1c35bf83-ebdb-4c44-ba8d-eb30d817a599"},"vehicle_type_id":"4","last_reported":1758831074,"current_range_meters":12400,"station_id":"","pricing_plan_id":"cebpf4jnsgd1na2vs0mg"},{"bike_id":"81879b5f-b557-4693-a2d3-725d3457cac1","system_id":"levelo_inurba_marseille","lat":43.29537,"lon":5.38537,"is_reserved":false,"is_disabled":false,"rental_uris":{"android":"levelo://app?vid=81879b5f-b557-4693-a2d3-725d3457cac1","ios":"levelo://app?vid=81879b5f-b557-4693-a2d3-725d3457cac1"},"vehicle_type_id":"4","last_reported":1758831074,"current_range_meters":12400,"station_id":"ce4bgih2rcd13ifvqba0","pricing_plan_id":"cebpf4jnsgd1na2vs0mg"},{"bike_id":"e7ff35e4-c4d7-4171-87a5-355f3771a20a","system_id":"levelo_inurba_marseille","lat":43.29265,"lon":5.38443,"is_reserved":false,"is_disabled":false,"rental_uris":{"android":"levelo://app?vid=e7ff35e4-c4d7-4171-87a5-355f3771a20a","ios":"levelo://app?vid=e7ff35e4-c4d7-4171-87a5-355f3771a20a"},"vehicle_type_id":"4","last_reported":1758831074,"current_range_meters":12800,"station_id":"ce4bh692rcd13ifvqea0","pricing_plan_id":"cebpf4jnsgd1na2vs0mg"},{"bike_id":"d36a2efd-6168-43e5-8ffd-b8eee049adfc","system_id":"levelo_inurba_marseille","lat":43.27936,"lon":5.41039,"is_reserved":false,"is_disabled":false,"rental_uris":{"android":"levelo://app?vid=d36a2efd-6168-43e5-8ffd-b8eee049adfc","ios":"levelo://app?vid=d36a2efd-6168-43e5-8ffd-b8eee049adfc"},"vehicle_type_id":"4","last_reported":1758831074,"current_range_meters":12800,"station_id":"ce4bhnp2rcd13ifvqh0g","pricing_plan_id":"cebpf4jnsgd1na2vs0mg"},{"bike_id":"f6abbc0a-f53d-4eeb-b34c-4b31cd1199b9","system_id":"levelo_inurba_marseille","lat":43.30267,"lon":5.40053,"is_reserved":false,"is_disabled":false,"rental_uris":{"android":"levelo://app?vid=f6abbc0a-f53d-4eeb-b34c-4b31cd1199b9","ios":"levelo://app?vid=f6abbc0a-f53d-4eeb-b34c-4b31cd1199b9"},"vehicle_type_id":"4","last_reported":1758831074,"current_range_meters":12400,"station_id":"ce4bgvh2rcd13ifvqcs0","pricing_plan_id":"cebpf4jnsgd1na2vs0mg"},{"bike_id":"547d3044-bdfc-495e-96aa-c53d05d3797e","system_id":"levelo_inurba_marseille","lat":43.309739,"lon":5.390256,"is_reserved":false,"is_disabled":true,"rental_uris":{"android":"levelo://app?vid=547d3044-bdfc-495e-96aa-c53d05d3797e","ios":"levelo://app?vid=547d3044-bdfc-495e-96aa-c53d05d3797e"},"vehicle_type_id":"4","last_reported":1758831074,"current_range_meters":12400,"station_id":"ce4bgup2rcd13ifvqco0","pricing_plan_id":"cebpf4jnsgd1na2vs0mg"},{"bike_id":"e5303607-da03-4ac7-b81e-b332ede84cf7","system_id":"levelo_inurba_marseille","lat":43.31316,"lon":5.37822,"is_reserved":false,"is_disabled":false,"rental_uris":{"android":"levelo://app?vid=e5303607-da03-4ac7-b81e-b332ede84cf7","ios":"levelo://app?vid=e5303607-da03-4ac7-b81e-b332ede84cf7"},"vehicle_type_id":"4","last_reported":1758831074,"current_range_meters":12800,"station_id":"","pricing_plan_id":"cebpf4jnsgd1na2vs0mg"},{"bike_id":"358b5bd0-bd1a-4b9c-b0d1-08dbb5ab85b3","system_id":"levelo_inurba_marseille","lat":43.27059,"lon":5.40303,"is_reserved":false,"is_disabled":false,"rental_uris":{"android":"levelo://app?vid=358b5bd0-bd1a-4b9c-b0d1-08dbb5ab85b3","ios":"levelo://app?vid=358b5bd0-bd1a-4b9c-b0d1-08dbb5ab85b3"},"vehicle_type_id":"4","last_reported":1758831074,"current_range_meters":13600,"station_id":"ce4bhk92rcd13ifvqgc0","pricing_plan_id":"cebpf4jnsgd1na2vs0mg"},{"bike_id":"b01b5bc6-6834-41fb-be97-f5b6fb7e9ec8","system_id":"levelo_inurba_marseille","lat":43.26317,"lon":5.39844,"is_reserved":false,"is_disabled":false,"rental_uris":{"android":"levelo://app?vid=b01b5bc6-6834-41fb-be97-f5b6fb7e9ec8","ios":"levelo://app?vid=b01b5bc6-6834-41fb-be97-f5b6fb7e9ec8"},"vehicle_type_id":"4","last_reported":1758831074,"current_range_meters":13600,"station_id":"","pricing_plan_id":"cebpf4jnsgd1na2vs0mg"},{"bike_id":"bc371571-5426-43d1-aa2c-7b996e1e5075","system_id":"levelo_inurba_marseille","lat":43.27997,"lon":5.40023,"is_reserved":false,"is_disabled":false,"rental_uris":{"android":"levelo://app?vid=bc371571-5426-43d1-aa2c-7b996e1e5075","ios":"levelo://app?vid=bc371571-5426-43d1-aa2c-7b996e1e5075"},"vehicle_type_id":"4","last_reported":1758831074,"current_range_meters":12800,"station_id":"ce4bho92rcd13ifvqh4g","pricing_plan_id":"cebpf4jnsgd1na2vs0mg"},{"bike_id":"920cb0e4-9501-4a33-a364-e9370ba09979","system_id":"levelo_inurba_marseille","lat":43.27942,"lon":5.41047,"is_reserved":false,"is_disabled":false,"rental_uris":{"android":"levelo://app?vid=920cb0e4-9501-4a33-a364-e9370ba09979","ios":"levelo://app?vid=920cb0e4-9501-4a33-a364-e9370ba09979"},"vehicle_type_id":"4","last_reported":1758831074,"current_range_meters":13600,"station_id":"ce4bhnp2rcd13ifvqh0g","pricing_plan_id":"cebpf4jnsgd1na2vs0mg"},{"bike_id":"11a160ff-b883-4187-aac8-caac1341135a","system_id":"levelo_inurba_marseille","lat":43.24942,"lon":5.40508,"is_reserved":false,"is_disabled":false,"rental_uris":{"android":"levelo://app?vid=11a160ff-b883-4187-aac8-caac1341135a","ios":"levelo://app?vid=11a160ff-b883-4187-aac8-caac1341135a"},"vehicle_type_id":"4","last_reported":1758831074,"current_range_meters":14000,"station_id":"st_d2ngiaodas8pm72gd1h0","pricing_plan_id":"cebpf4jnsgd1na2vs0mg"},{"bike_id":"a8ce7b19-cf75-4418-abe6-f8b489742469","system_id":"levelo_inurba_marseille","lat":43.319945,"lon":5.381613,"is_reserved":false,"is_disabled":false,"rental_uris":{"android":"levelo://app?vid=a8ce7b19-cf75-4418-abe6-f8b489742469","ios":"levelo://app?vid=a8ce7b19-cf75-4418-abe6-f8b489742469"},"vehicle_type_id":"4","last_reported":1758831074,"current_range_meters":13600,"station_id":"ce4bhr12rcd13ifvqhpg","pricing_plan_id":"cebpf4jnsgd1na2vs0mg"},{"bike_id":"c7f6a08b-c655-4213-b2ba-7d02e7f382fe","system_id":"levelo_inurba_marseille","lat":43.27988,"lon":5.39483,"is_reserved":false,"is_disabled":false,"rental_uris":{"android":"levelo://app?vid=c7f6a08b-c655-4213-b2ba-7d02e7f382fe","ios":"levelo://app?vid=c7f6a08b-c655-4213-b2ba-7d02e7f382fe"},"vehicle_type_id":"4","last_reported":1758831074,"current_range_meters":13600,"station_id":"","pricing_plan_id":"cebpf4jnsgd1na2vs0mg"},{"bike_id":"515655cd-3abc-4426-bad8-8e986854c853","system_id":"levelo_inurba_marseille","lat":43.25495,"lon":5.37649,"is_reserved":false,"is_disabled":false,"rental_uris":{"android":"levelo://app?vid=515655cd-3abc-4426-bad8-8e986854c853","ios":"levelo://app?vid=515655cd-3abc-4426-bad8-8e986854c853"},"vehicle_type_id":"4","last_reported":1758831074,"current_range_meters":13600,"station_id":"ce4bhh12rcd13ifvqff0","pricing_plan_id":"cebpf4jnsgd1na2vs0mg"},{"bike_id":"4a275e96-8fbb-451f-8264-73bdbf9b7cfd","system_id":"levelo_inurba_marseille","lat":43.28475,"lon":5.35886,"is_reserved":false,"is_disabled":false,"rental_uris":{"android":"levelo://app?vid=4a275e96-8fbb-451f-8264-73bdbf9b7cfd","ios":"levelo://app?vid=4a275e96-8fbb-451f-8264-73bdbf9b7cfd"},"vehicle_type_id":"4","last_reported":1758831074,"current_range_meters":14000,"station_id":"ce4bhah2rcd13ifvqei0","pricing_plan_id":"cebpf4jnsgd1na2vs0mg"},{"bike_id":"0d54f249-b891-4504-a5ff-687b2a4870e6","system_id":"levelo_inurba_marseille","lat":43.28608,"lon":5.35104,"is_reserved":false,"is_disabled":false,"rental_uris":{"android":"levelo://app?vid=0d54f249-b891-4504-a5ff-687b2a4870e6","ios":"levelo://app?vid=0d54f249-b891-4504-a5ff-687b2a4870e6"},"vehicle_type_id":"4","last_reported":1758831074,"current_range_meters":14000,"station_id":"ce4bhch2rcd13ifvqeug","pricing_plan_id":"cebpf4jnsgd1na2vs0mg"},{"bike_id":"8c4ab826-cb2f-429d-8756-e71c08799e2a","system_id":"levelo_inurba_marseille","lat":43.31125,"lon":5.37758,"is_reserved":false,"is_disabled":false,"rental_uris":{"android":"levelo://app?vid=8c4ab826-cb2f-429d-8756-e71c08799e2a","ios":"levelo://app?vid=8c4ab826-cb2f-429d-8756-e71c08799e2a"},"vehicle_type_id":"4","last_reported":1758831074,"current_range_meters":14000,"station_id":"ce4bgt92rcd13ifvqcg0","pricing_plan_id":"cebpf4jnsgd1na2vs0mg"},{"bike_id":"d734f0f7-bb82-4cbc-9571-824c32d91d22","system_id":"levelo_inurba_marseille","lat":43.241686,"lon":5.364022,"is_reserved":false,"is_disabled":false,"rental_uris":{"android":"levelo://app?vid=d734f0f7-bb82-4cbc-9571-824c32d91d22","ios":"levelo://app?vid=d734f0f7-bb82-4cbc-9571-824c32d91d22"},"vehicle_type_id":"4","last_reported":1758831074,"current_range_meters":14000,"station_id":"cpo36qri1sfpv3e86is0","pricing_plan_id":"cebpf4jnsgd1na2vs0mg"},{"bike_id":"d4ac8b16-e5fe-4025-a55c-c3e92ea13551","system_id":"levelo_inurba_marseille","lat":43.25086,"lon":5.39526,"is_reserved":false,"is_disabled":false,"rental_uris":{"android":"levelo://app?vid=d4ac8b16-e5fe-4025-a55c-c3e92ea13551","ios":"levelo://app?vid=d4ac8b16-e5fe-4025-a55c-c3e92ea13551"},"vehicle_type_id":"4","last_reported":1758831074,"current_range_meters":14000,"station_id":"ce4bhm12rcd13ifvqgkg","pricing_plan_id":"cebpf4jnsgd1na2vs0mg"},{"bike_id":"041cd397-24ab-4e04-af23-07b961e161f4","system_id":"levelo_inurba_marseille","lat":43.337444,"lon":5.374475,"is_reserved":false,"is_disabled":false,"rental_uris":{"android":"levelo://app?vid=041cd397-24ab-4e04-af23-07b961e161f4","ios":"levelo://app?vid=041cd397-24ab-4e04-af23-07b961e161f4"},"vehicle_type_id":"4","last_reported":1758831074,"current_range_meters":14000,"station_id":"","pricing_plan_id":"cebpf4jnsgd1na2vs0mg"},{"bike_id":"6730e1a2-3dd4-4c98-96f6-fb07e00826cf","system_id":"levelo_inurba_marseille","lat":43.24069,"lon":5.37749,"is_reserved":false,"is_disabled":false,"rental_uris":{"android":"levelo://app?vid=6730e1a2-3dd4-4c98-96f6-fb07e00826cf","ios":"levelo://app?vid=6730e1a2-3dd4-4c98-96f6-fb07e00826cf"},"vehicle_type_id":"4","last_reported":1758831074,"current_range_meters":14000,"station_id":"ce4bhnp2rcd13ifvqgvg","pricing_plan_id":"cebpf4jnsgd1na2vs0mg"},{"bike_id":"daa76238-a91b-449c-82ca-e9bb9db06cbb","system_id":"levelo_inurba_marseille","lat":43.279687,"lon":5.387393,"is_reserved":false,"is_disabled":false,"rental_uris":{"android":"levelo://app?vid=daa76238-a91b-449c-82ca-e9bb9db06cbb","ios":"levelo://app?vid=daa76238-a91b-449c-82ca-e9bb9db06cbb"},"vehicle_type_id":"4","last_reported":1758831074,"current_range_meters":14000,"station_id":"ce4bhg12rcd13ifvqf80","pricing_plan_id":"cebpf4jnsgd1na2vs0mg"},{"bike_id":"741224b7-9044-4943-bbfc-a55f27736b84","system_id":"levelo_inurba_marseille","lat":43.30335,"lon":5.40432,"is_reserved":false,"is_disabled":false,"rental_uris":{"android":"levelo://app?vid=741224b7-9044-4943-bbfc-a55f27736b84","ios":"levelo://app?vid=741224b7-9044-4943-bbfc-a55f27736b84"},"vehicle_type_id":"4","last_reported":1758831074,"current_range_meters":13600,"station_id":"ce4bh012rcd13ifvqd10","pricing_plan_id":"cebpf4jnsgd1na2vs0mg"},{"bike_id":"df649d25-1f44-4471-8cdd-9566da8ef9b9","system_id":"levelo_inurba_marseille","lat":43.32162,"lon":5.3878,"is_reserved":false,"is_disabled":false,"rental_uris":{"android":"levelo://app?vid=df649d25-1f44-4471-8cdd-9566da8ef9b9","ios":"levelo://app?vid=df649d25-1f44-4471-8cdd-9566da8ef9b9"},"vehicle_type_id":"4","last_reported":1758831074,"current_range_meters":14400,"station_id":"","pricing_plan_id":"cebpf4jnsgd1na2vs0mg"},{"bike_id":"1307013c-7101-4a2a-b3a9-2caa6454614e","system_id":"levelo_inurba_marseille","lat":43.29516,"lon":5.39032,"is_reserved":false,"is_disabled":false,"rental_uris":{"android":"levelo://app?vid=1307013c-7101-4a2a-b3a9-2caa6454614e","ios":"levelo://app?vid=1307013c-7101-4a2a-b3a9-2caa6454614e"},"vehicle_type_id":"4","last_reported":1758831074,"current_range_meters":14400,"station_id":"ce4bh3p2rcd13ifvqdp0","pricing_plan_id":"cebpf4jnsgd1na2vs0mg"},{"bike_id":"c6b3e536-9745-4760-93b7-a9b7697329d8","system_id":"levelo_inurba_marseille","lat":43.28431,"lon":5.35008,"is_reserved":false,"is_disabled":false,"rental_uris":{"android":"levelo://app?vid=c6b3e536-9745-4760-93b7-a9b7697329d8","ios":"levelo://app?vid=c6b3e536-9745-4760-93b7-a9b7697329d8"},"vehicle_type_id":"4","last_reported":1758831074,"current_range_meters":14400,"station_id":"ce4bhbh2rcd13ifvqepg","pricing_plan_id":"cebpf4jnsgd1na2vs0mg"},{"bike_id":"8fd54bca-71d1-44cf-9ae4-23cc4e28462c","system_id":"levelo_inurba_marseille","lat":43.29542,"lon":5.38156,"is_reserved":false,"is_disabled":false,"rental_uris":{"android":"levelo://app?vid=8fd54bca-71d1-44cf-9ae4-23cc4e28462c","ios":"levelo://app?vid=8fd54bca-71d1-44cf-9ae4-23cc4e28462c"},"vehicle_type_id":"4","last_reported":1758831074,"current_range_meters":14400,"station_id":"","pricing_plan_id":"cebpf4jnsgd1na2vs0mg"},{"bike_id":"bceb04d7-0abd-436e-8e81-893a3fdb5fa8","system_id":"levelo_inurba_marseille","lat":43.30796,"lon":5.37638,"is_reserved":false,"is_disabled":false,"rental_uris":{"android":"levelo://app?vid=bceb04d7-0abd-436e-8e81-893a3fdb5fa8","ios":"levelo://app?vid=bceb04d7-0abd-436e-8e81-893a3fdb5fa8"},"vehicle_type_id":"4","last_reported":1758831074,"current_range_meters":14400,"station_id":"ce4bgv92rcd13ifvqcq0","pricing_plan_id":"cebpf4jnsgd1na2vs0mg"},{"bike_id":"97a5ee76-2e0a-479d-a727-d5a9ad8fecb2","system_id":"levelo_inurba_marseille","lat":43.22936,"lon":5.35378,"is_reserved":false,"is_disabled":false,"rental_uris":{"android":"levelo://app?vid=97a5ee76-2e0a-479d-a727-d5a9ad8fecb2","ios":"levelo://app?vid=97a5ee76-2e0a-479d-a727-d5a9ad8fecb2"},"vehicle_type_id":"4","last_reported":1758831074,"current_range_meters":14800,"station_id":"cpo3532slgdg3j2ikp40","pricing_plan_id":"cebpf4jnsgd1na2vs0mg"},{"bike_id":"97bfabe2-678f-4469-8156-b2c689b4137d","system_id":"levelo_inurba_marseille","lat":43.32,"lon":5.38118,"is_reserved":false,"is_disabled":false,"rental_uris":{"android":"levelo://app?vid=97bfabe2-678f-4469-8156-b2c689b4137d","ios":"levelo://app?vid=97bfabe2-678f-4469-8156-b2c689b4137d"},"vehicle_type_id":"4","last_reported":1758831074,"current_range_meters":14800,"station_id":"ce4bhr12rcd13ifvqhpg","pricing_plan_id":"cebpf4jnsgd1na2vs0mg"},{"bike_id":"46d92f98-aa3a-4a1f-97ff-1bad4e7ecc95","system_id":"levelo_inurba_marseille","lat":43.26807,"lon":5.40266,"is_reserved":false,"is_disabled":false,"rental_uris":{"android":"levelo://app?vid=46d92f98-aa3a-4a1f-97ff-1bad4e7ecc95","ios":"levelo://app?vid=46d92f98-aa3a-4a1f-97ff-1bad4e7ecc95"},"vehicle_type_id":"4","last_reported":1758831074,"current_range_meters":14800,"station_id":"ce501612rcd8frsf0b60","pricing_plan_id":"cebpf4jnsgd1na2vs0mg"},{"bike_id":"39e6b2d7-e7bc-4366-8a01-87bc46855564","system_id":"levelo_inurba_marseille","lat":43.32124,"lon":5.36806,"is_reserved":false,"is_disabled":false,"rental_uris":{"android":"levelo://app?vid=39e6b2d7-e7bc-4366-8a01-87bc46855564","ios":"levelo://app?vid=39e6b2d7-e7bc-4366-8a01-87bc46855564"},"vehicle_type_id":"4","last_reported":1758831074,"current_range_meters":14800,"station_id":"ce4bhrh2rcd13ifvqhug","pricing_plan_id":"cebpf4jnsgd1na2vs0mg"},{"bike_id":"b6ff3672-4e7c-404c-ab2a-bd902cf95e14","system_id":"levelo_inurba_marseille","lat":43.26853,"lon":5.40673,"is_reserved":false,"is_disabled":false,"rental_uris":{"android":"levelo://app?vid=b6ff3672-4e7c-404c-ab2a-bd902cf95e14","ios":"levelo://app?vid=b6ff3672-4e7c-404c-ab2a-bd902cf95e14"},"vehicle_type_id":"4","last_reported":1758831074,"current_range_meters":14800,"station_id":"","pricing_plan_id":"cebpf4jnsgd1na2vs0mg"},{"bike_id":"22d0a681-3a7c-44f3-96ed-3bb44961739a","system_id":"levelo_inurba_marseille","lat":43.28935,"lon":5.36402,"is_reserved":false,"is_disabled":false,"rental_uris":{"android":"levelo://app?vid=22d0a681-3a7c-44f3-96ed-3bb44961739a","ios":"levelo://app?vid=22d0a681-3a7c-44f3-96ed-3bb44961739a"},"vehicle_type_id":"4","last_reported":1758831074,"current_range_meters":15200,"station_id":"ce4bhc92rcd13ifvqetg","pricing_plan_id":"cebpf4jnsgd1na2vs0mg"},{"bike_id":"232f7f05-11b0-4e83-87a0-d64195604901","system_id":"levelo_inurba_marseille","lat":43.27966,"lon":5.41661,"is_reserved":false,"is_disabled":false,"rental_uris":{"android":"levelo://app?vid=232f7f05-11b0-4e83-87a0-d64195604901","ios":"levelo://app?vid=232f7f05-11b0-4e83-87a0-d64195604901"},"vehicle_type_id":"4","last_reported":1758831074,"current_range_meters":15200,"station_id":"ce4bho12rcd13ifvqh1g","pricing_plan_id":"cebpf4jnsgd1na2vs0mg"},{"bike_id":"7393bdd2-03c4-43b4-8d6e-4179c8fbb951","system_id":"levelo_inurba_marseille","lat":43.29782,"lon":5.39353,"is_reserved":false,"is_disabled":false,"rental_uris":{"android":"levelo://app?vid=7393bdd2-03c4-43b4-8d6e-4179c8fbb951","ios":"levelo://app?vid=7393bdd2-03c4-43b4-8d6e-4179c8fbb951"},"vehicle_type_id":"4","last_reported":1758831074,"current_range_meters":14800,"station_id":"chh1huq6cuj3fo74tm60","pricing_plan_id":"cebpf4jnsgd1na2vs0mg"},{"bike_id":"9811e1f7-6003-4f66-9587-6fdbbe85e0ed","system_id":"levelo_inurba_marseille","lat":43.29537,"lon":5.42279,"is_reserved":false,"is_disabled":false,"rental_uris":{"android":"levelo://app?vid=9811e1f7-6003-4f66-9587-6fdbbe85e0ed","ios":"levelo://app?vid=9811e1f7-6003-4f66-9587-6fdbbe85e0ed"},"vehicle_type_id":"4","last_reported":1758831074,"current_range_meters":15200,"station_id":"ce4bhph2rcd13ifvqhdg","pricing_plan_id":"cebpf4jnsgd1na2vs0mg"},{"bike_id":"c31c58ee-4e29-4ce3-bf0a-25ae5cf57cfc","system_id":"levelo_inurba_marseille","lat":43.249427,"lon":5.404907,"is_reserved":false,"is_disabled":false,"rental_uris":{"android":"levelo://app?vid=c31c58ee-4e29-4ce3-bf0a-25ae5cf57cfc","ios":"levelo://app?vid=c31c58ee-4e29-4ce3-bf0a-25ae5cf57cfc"},"vehicle_type_id":"4","last_reported":1758831074,"current_range_meters":15200,"station_id":"st_d2ngiaodas8pm72gd1h0","pricing_plan_id":"cebpf4jnsgd1na2vs0mg"},{"bike_id":"f5790c8e-d5bd-4a08-aa85-ed56ad9fb78f","system_id":"levelo_inurba_marseille","lat":43.29519,"lon":5.39411,"is_reserved":false,"is_disabled":false,"rental_uris":{"android":"levelo://app?vid=f5790c8e-d5bd-4a08-aa85-ed56ad9fb78f","ios":"levelo://app?vid=f5790c8e-d5bd-4a08-aa85-ed56ad9fb78f"},"vehicle_type_id":"4","last_reported":1758831074,"current_range_meters":15200,"station_id":"ce4bh292rcd13ifvqdf0","pricing_plan_id":"cebpf4jnsgd1na2vs0mg"},{"bike_id":"e6c19437-02b3-4db8-ae05-5982733a0a54","system_id":"levelo_inurba_marseille","lat":43.28456,"lon":5.35889,"is_reserved":false,"is_disabled":false,"rental_uris":{"android":"levelo://app?vid=e6c19437-02b3-4db8-ae05-5982733a0a54","ios":"levelo://app?vid=e6c19437-02b3-4db8-ae05-5982733a0a54"},"vehicle_type_id":"4","last_reported":1758831074,"current_range_meters":14800,"station_id":"ce4bhah2rcd13ifvqei0","pricing_plan_id":"cebpf4jnsgd1na2vs0mg"},{"bike_id":"a57b3feb-2354-42fe-87fd-e8fcee3a0260","system_id":"levelo_inurba_marseille","lat":43.26953,"lon":5.40241,"is_reserved":false,"is_disabled":false,"rental_uris":{"android":"levelo://app?vid=a57b3feb-2354-42fe-87fd-e8fcee3a0260","ios":"levelo://app?vid=a57b3feb-2354-42fe-87fd-e8fcee3a0260"},"vehicle_type_id":"4","last_reported":1758831074,"current_range_meters":15200,"station_id":"","pricing_plan_id":"cebpf4jnsgd1na2vs0mg"},{"bike_id":"81513c38-4122-42c9-a5eb-4cb5b1dc4508","system_id":"levelo_inurba_marseille","lat":43.29557,"lon":5.38541,"is_reserved":false,"is_disabled":false,"rental_uris":{"android":"levelo://app?vid=81513c38-4122-42c9-a5eb-4cb5b1dc4508","ios":"levelo://app?vid=81513c38-4122-42c9-a5eb-4cb5b1dc4508"},"vehicle_type_id":"4","last_reported":1758831074,"current_range_meters":16000,"station_id":"ce4bgih2rcd13ifvqba0","pricing_plan_id":"cebpf4jnsgd1na2vs0mg"},{"bike_id":"97be8e1b-8e50-4131-b4ce-8a578ed1e157","system_id":"levelo_inurba_marseille","lat":43.292637,"lon":5.368509,"is_reserved":false,"is_disabled":false,"rental_uris":{"android":"levelo://app?vid=97be8e1b-8e50-4131-b4ce-8a578ed1e157","ios":"levelo://app?vid=97be8e1b-8e50-4131-b4ce-8a578ed1e157"},"vehicle_type_id":"4","last_reported":1758831074,"current_range_meters":16000,"station_id":"ce4bhbp2rcd13ifvqesg","pricing_plan_id":"cebpf4jnsgd1na2vs0mg"},{"bike_id":"67f58060-376b-4aa6-b6af-75cf3296d6d8","system_id":"levelo_inurba_marseille","lat":43.24186,"lon":5.39736,"is_reserved":false,"is_disabled":false,"rental_uris":{"android":"levelo://app?vid=67f58060-376b-4aa6-b6af-75cf3296d6d8","ios":"levelo://app?vid=67f58060-376b-4aa6-b6af-75cf3296d6d8"},"vehicle_type_id":"4","last_reported":1758831074,"current_range_meters":16000,"station_id":"ce4bhn12rcd13ifvqgpg","pricing_plan_id":"cebpf4jnsgd1na2vs0mg"},{"bike_id":"7e848ad8-3b46-4990-8791-073379270774","system_id":"levelo_inurba_marseille","lat":43.27329,"lon":5.39069,"is_reserved":false,"is_disabled":true,"rental_uris":{"android":"levelo://app?vid=7e848ad8-3b46-4990-8791-073379270774","ios":"levelo://app?vid=7e848ad8-3b46-4990-8791-073379270774"},"vehicle_type_id":"4","last_reported":1758831074,"current_range_meters":16000,"station_id":"ce4bhgp2rcd13ifvqfe0","pricing_plan_id":"cebpf4jnsgd1na2vs0mg"},{"bike_id":"18fb8777-0aa5-420e-accb-d6759ef6aeaf","system_id":"levelo_inurba_marseille","lat":43.2903,"lon":5.38654,"is_reserved":false,"is_disabled":false,"rental_uris":{"android":"levelo://app?vid=18fb8777-0aa5-420e-accb-d6759ef6aeaf","ios":"levelo://app?vid=18fb8777-0aa5-420e-accb-d6759ef6aeaf"},"vehicle_type_id":"4","last_reported":1758831074,"current_range_meters":15200,"station_id":"ce4bh4p2rcd13ifvqe0g","pricing_plan_id":"cebpf4jnsgd1na2vs0mg"},{"bike_id":"f6b0a5bc-a996-49ab-af08-c2e7311ac0a3","system_id":"levelo_inurba_marseille","lat":43.31217,"lon":5.36851,"is_reserved":false,"is_disabled":false,"rental_uris":{"android":"levelo://app?vid=f6b0a5bc-a996-49ab-af08-c2e7311ac0a3","ios":"levelo://app?vid=f6b0a5bc-a996-49ab-af08-c2e7311ac0a3"},"vehicle_type_id":"4","last_reported":1758831074,"current_range_meters":16000,"station_id":"ce4bgl92rcd13ifvqbq0","pricing_plan_id":"cebpf4jnsgd1na2vs0mg"},{"bike_id":"b4f47bc1-4d12-4541-a757-a859819c9d1c","system_id":"levelo_inurba_marseille","lat":43.276802,"lon":5.388803,"is_reserved":false,"is_disabled":true,"rental_uris":{"android":"levelo://app?vid=b4f47bc1-4d12-4541-a757-a859819c9d1c","ios":"levelo://app?vid=b4f47bc1-4d12-4541-a757-a859819c9d1c"},"vehicle_type_id":"4","last_reported":1758831074,"current_range_meters":16000,"station_id":"","pricing_plan_id":"cebpf4jnsgd1na2vs0mg"},{"bike_id":"f5a888db-229a-4246-81ee-0ff2a1bcfdfa","system_id":"levelo_inurba_marseille","lat":43.22938,"lon":5.35377,"is_reserved":false,"is_disabled":false,"rental_uris":{"android":"levelo://app?vid=f5a888db-229a-4246-81ee-0ff2a1bcfdfa","ios":"levelo://app?vid=f5a888db-229a-4246-81ee-0ff2a1bcfdfa"},"vehicle_type_id":"4","last_reported":1758831074,"current_range_meters":16000,"station_id":"cpo3532slgdg3j2ikp40","pricing_plan_id":"cebpf4jnsgd1na2vs0mg"},{"bike_id":"2cd51364-502a-41a4-bc3b-55c477f7c7cb","system_id":"levelo_inurba_marseille","lat":43.30536,"lon":5.38444,"is_reserved":false,"is_disabled":false,"rental_uris":{"android":"levelo://app?vid=2cd51364-502a-41a4-bc3b-55c477f7c7cb","ios":"levelo://app?vid=2cd51364-502a-41a4-bc3b-55c477f7c7cb"},"vehicle_type_id":"4","last_reported":1758831074,"current_range_meters":16000,"station_id":"ce4bgg92rcd13ifvqb30","pricing_plan_id":"cebpf4jnsgd1na2vs0mg"},{"bike_id":"c37a4fa9-8929-4812-9e52-967878d66fa4","system_id":"levelo_inurba_marseille","lat":43.27824,"lon":5.40734,"is_reserved":false,"is_disabled":false,"rental_uris":{"android":"levelo://app?vid=c37a4fa9-8929-4812-9e52-967878d66fa4","ios":"levelo://app?vid=c37a4fa9-8929-4812-9e52-967878d66fa4"},"vehicle_type_id":"4","last_reported":1758831074,"current_range_meters":16000,"station_id":"ce4bhnh2rcd13ifvqgtg","pricing_plan_id":"cebpf4jnsgd1na2vs0mg"},{"bike_id":"d5469987-88be-4c6d-93f5-ef1b63e3b3f1","system_id":"levelo_inurba_marseille","lat":43.278127,"lon":5.407111,"is_reserved":false,"is_disabled":false,"rental_uris":{"android":"levelo://app?vid=d5469987-88be-4c6d-93f5-ef1b63e3b3f1","ios":"levelo://app?vid=d5469987-88be-4c6d-93f5-ef1b63e3b3f1"},"vehicle_type_id":"4","last_reported":1758831074,"current_range_meters":16000,"station_id":"ce4bhnh2rcd13ifvqgtg","pricing_plan_id":"cebpf4jnsgd1na2vs0mg"},{"bike_id":"20c4ecb6-3273-46c5-80a9-f98e9e835d76","system_id":"levelo_inurba_marseille","lat":43.27211,"lon":5.39186,"is_reserved":false,"is_disabled":false,"rental_uris":{"android":"levelo://app?vid=20c4ecb6-3273-46c5-80a9-f98e9e835d76","ios":"levelo://app?vid=20c4ecb6-3273-46c5-80a9-f98e9e835d76"},"vehicle_type_id":"4","last_reported":1758831074,"current_range_meters":16000,"station_id":"ce4bhhp2rcd13ifvqfm0","pricing_plan_id":"cebpf4jnsgd1na2vs0mg"},{"bike_id":"6f97756d-103a-472e-9ee0-e1b6357d8727","system_id":"levelo_inurba_marseille","lat":43.30858,"lon":5.39678,"is_reserved":false,"is_disabled":false,"rental_uris":{"android":"levelo://app?vid=6f97756d-103a-472e-9ee0-e1b6357d8727","ios":"levelo://app?vid=6f97756d-103a-472e-9ee0-e1b6357d8727"},"vehicle_type_id":"4","last_reported":1758831074,"current_range_meters":16400,"station_id":"","pricing_plan_id":"cebpf4jnsgd1na2vs0mg"},{"bike_id":"4926f420-7ab7-4be8-a7f7-727934811a0b","system_id":"levelo_inurba_marseille","lat":43.29262,"lon":5.38446,"is_reserved":false,"is_disabled":false,"rental_uris":{"android":"levelo://app?vid=4926f420-7ab7-4be8-a7f7-727934811a0b","ios":"levelo://app?vid=4926f420-7ab7-4be8-a7f7-727934811a0b"},"vehicle_type_id":"4","last_reported":1758831074,"current_range_meters":16400,"station_id":"ce4bh692rcd13ifvqea0","pricing_plan_id":"cebpf4jnsgd1na2vs0mg"},{"bike_id":"b0e9c894-5414-4237-b0c8-32f0e91cae29","system_id":"levelo_inurba_marseille","lat":43.31529,"lon":5.3804,"is_reserved":false,"is_disabled":false,"rental_uris":{"android":"levelo://app?vid=b0e9c894-5414-4237-b0c8-32f0e91cae29","ios":"levelo://app?vid=b0e9c894-5414-4237-b0c8-32f0e91cae29"},"vehicle_type_id":"4","last_reported":1758831074,"current_range_meters":16400,"station_id":"ce4bhsp2rcd13ifvqi50","pricing_plan_id":"cebpf4jnsgd1na2vs0mg"},{"bike_id":"327c041e-5c9e-4b0d-a97c-a2dbaab036ae","system_id":"levelo_inurba_marseille","lat":43.32775,"lon":5.41102,"is_reserved":false,"is_disabled":false,"rental_uris":{"android":"levelo://app?vid=327c041e-5c9e-4b0d-a97c-a2dbaab036ae","ios":"levelo://app?vid=327c041e-5c9e-4b0d-a97c-a2dbaab036ae"},"vehicle_type_id":"4","last_reported":1758831074,"current_range_meters":16800,"station_id":"","pricing_plan_id":"cebpf4jnsgd1na2vs0mg"},{"bike_id":"4c746658-6661-42c2-adeb-6b1f007c9f3a","system_id":"levelo_inurba_marseille","lat":43.30278,"lon":5.37424,"is_reserved":false,"is_disabled":false,"rental_uris":{"android":"levelo://app?vid=4c746658-6661-42c2-adeb-6b1f007c9f3a","ios":"levelo://app?vid=4c746658-6661-42c2-adeb-6b1f007c9f3a"},"vehicle_type_id":"4","last_reported":1758831074,"current_range_meters":16800,"station_id":"","pricing_plan_id":"cebpf4jnsgd1na2vs0mg"},{"bike_id":"75611fb7-df45-4d9f-9db0-a181136cc424","system_id":"levelo_inurba_marseille","lat":43.21743,"lon":5.34617,"is_reserved":false,"is_disabled":true,"rental_uris":{"android":"levelo://app?vid=75611fb7-df45-4d9f-9db0-a181136cc424","ios":"levelo://app?vid=75611fb7-df45-4d9f-9db0-a181136cc424"},"vehicle_type_id":"4","last_reported":1758831074,"current_range_meters":16800,"station_id":"st_cvj6r9ubvosntc0bgbag","pricing_plan_id":"cebpf4jnsgd1na2vs0mg"},{"bike_id":"280349c2-7d75-4732-844a-272770d12d07","system_id":"levelo_inurba_marseille","lat":43.24952,"lon":5.40489,"is_reserved":false,"is_disabled":false,"rental_uris":{"android":"levelo://app?vid=280349c2-7d75-4732-844a-272770d12d07","ios":"levelo://app?vid=280349c2-7d75-4732-844a-272770d12d07"},"vehicle_type_id":"4","last_reported":1758831074,"current_range_meters":16800,"station_id":"st_d2ngiaodas8pm72gd1h0","pricing_plan_id":"cebpf4jnsgd1na2vs0mg"},{"bike_id":"415e580e-bbd1-4418-8631-7b36d77e2191","system_id":"levelo_inurba_marseille","lat":43.29053,"lon":5.35915,"is_reserved":false,"is_disabled":false,"rental_uris":{"android":"levelo://app?vid=415e580e-bbd1-4418-8631-7b36d77e2191","ios":"levelo://app?vid=415e580e-bbd1-4418-8631-7b36d77e2191"},"vehicle_type_id":"4","last_reported":1758831074,"current_range_meters":16400,"station_id":"ce4bha92rcd13ifvqeg0","pricing_plan_id":"cebpf4jnsgd1na2vs0mg"},{"bike_id":"ccabd35a-a691-4eed-acd2-dce907f56433","system_id":"levelo_inurba_marseille","lat":43.32338,"lon":5.40632,"is_reserved":false,"is_disabled":false,"rental_uris":{"android":"levelo://app?vid=ccabd35a-a691-4eed-acd2-dce907f56433","ios":"levelo://app?vid=ccabd35a-a691-4eed-acd2-dce907f56433"},"vehicle_type_id":"4","last_reported":1758831074,"current_range_meters":16800,"station_id":"ce4bhq92rcd13ifvqhjg","pricing_plan_id":"cebpf4jnsgd1na2vs0mg"},{"bike_id":"a1a2e9f2-179a-4b62-a7f7-52ad914dd881","system_id":"levelo_inurba_marseille","lat":43.279382,"lon":5.410407,"is_reserved":false,"is_disabled":false,"rental_uris":{"android":"levelo://app?vid=a1a2e9f2-179a-4b62-a7f7-52ad914dd881","ios":"levelo://app?vid=a1a2e9f2-179a-4b62-a7f7-52ad914dd881"},"vehicle_type_id":"4","last_reported":1758831074,"current_range_meters":16800,"station_id":"ce4bhnp2rcd13ifvqh0g","pricing_plan_id":"cebpf4jnsgd1na2vs0mg"},{"bike_id":"13be0879-670b-43f4-8fc1-8fbc1c4ccf9c","system_id":"levelo_inurba_marseille","lat":43.28425,"lon":5.34998,"is_reserved":false,"is_disabled":false,"rental_uris":{"android":"levelo://app?vid=13be0879-670b-43f4-8fc1-8fbc1c4ccf9c","ios":"levelo://app?vid=13be0879-670b-43f4-8fc1-8fbc1c4ccf9c"},"vehicle_type_id":"4","last_reported":1758831074,"current_range_meters":16800,"station_id":"ce4bhbh2rcd13ifvqepg","pricing_plan_id":"cebpf4jnsgd1na2vs0mg"},{"bike_id":"377142cb-267c-494b-99d9-6fe238c4e676","system_id":"levelo_inurba_marseille","lat":43.309743,"lon":5.408016,"is_reserved":false,"is_disabled":false,"rental_uris":{"android":"levelo://app?vid=377142cb-267c-494b-99d9-6fe238c4e676","ios":"levelo://app?vid=377142cb-267c-494b-99d9-6fe238c4e676"},"vehicle_type_id":"4","last_reported":1758831074,"current_range_meters":16800,"station_id":"","pricing_plan_id":"cebpf4jnsgd1na2vs0mg"},{"bike_id":"4ca03bb8-02f5-45cd-952c-53c4b1c26372","system_id":"levelo_inurba_marseille","lat":43.29261,"lon":5.38428,"is_reserved":false,"is_disabled":false,"rental_uris":{"android":"levelo://app?vid=4ca03bb8-02f5-45cd-952c-53c4b1c26372","ios":"levelo://app?vid=4ca03bb8-02f5-45cd-952c-53c4b1c26372"},"vehicle_type_id":"4","last_reported":1758831074,"current_range_meters":16000,"station_id":"ce4bh692rcd13ifvqea0","pricing_plan_id":"cebpf4jnsgd1na2vs0mg"},{"bike_id":"6d82eb49-6834-44b3-8fad-36f63b0f82a8","system_id":"levelo_inurba_marseille","lat":43.29266,"lon":5.40912,"is_reserved":false,"is_disabled":false,"rental_uris":{"android":"levelo://app?vid=6d82eb49-6834-44b3-8fad-36f63b0f82a8","ios":"levelo://app?vid=6d82eb49-6834-44b3-8fad-36f63b0f82a8"},"vehicle_type_id":"4","last_reported":1758831074,"current_range_meters":16800,"station_id":"ce4bh192rcd13ifvqdc0","pricing_plan_id":"cebpf4jnsgd1na2vs0mg"},{"bike_id":"467b4306-5fd8-484e-9a4b-cf8eb50151ba","system_id":"levelo_inurba_marseille","lat":43.3229,"lon":5.38269,"is_reserved":false,"is_disabled":false,"rental_uris":{"android":"levelo://app?vid=467b4306-5fd8-484e-9a4b-cf8eb50151ba","ios":"levelo://app?vid=467b4306-5fd8-484e-9a4b-cf8eb50151ba"},"vehicle_type_id":"4","last_reported":1758831074,"current_range_meters":17200,"station_id":"ce4bhr12rcd13ifvqhqg","pricing_plan_id":"cebpf4jnsgd1na2vs0mg"},{"bike_id":"450105b9-c22a-49ab-be5d-edb16f342a35","system_id":"levelo_inurba_marseille","lat":43.29888,"lon":5.38904,"is_reserved":false,"is_disabled":false,"rental_uris":{"android":"levelo://app?vid=450105b9-c22a-49ab-be5d-edb16f342a35","ios":"levelo://app?vid=450105b9-c22a-49ab-be5d-edb16f342a35"},"vehicle_type_id":"4","last_reported":1758831074,"current_range_meters":17200,"station_id":"ce4bh392rcd13ifvqdl0","pricing_plan_id":"cebpf4jnsgd1na2vs0mg"},{"bike_id":"ff9aa614-b43c-42cd-928b-13b178786e44","system_id":"levelo_inurba_marseille","lat":43.26212,"lon":5.37441,"is_reserved":false,"is_disabled":false,"rental_uris":{"android":"levelo://app?vid=ff9aa614-b43c-42cd-928b-13b178786e44","ios":"levelo://app?vid=ff9aa614-b43c-42cd-928b-13b178786e44"},"vehicle_type_id":"4","last_reported":1758831074,"current_range_meters":17200,"station_id":"ce4bhgp2rcd13ifvqfc0","pricing_plan_id":"cebpf4jnsgd1na2vs0mg"},{"bike_id":"daff55f2-6526-47d5-aba9-cd3e2fa83856","system_id":"levelo_inurba_marseille","lat":43.30334,"lon":5.40435,"is_reserved":false,"is_disabled":false,"rental_uris":{"android":"levelo://app?vid=daff55f2-6526-47d5-aba9-cd3e2fa83856","ios":"levelo://app?vid=daff55f2-6526-47d5-aba9-cd3e2fa83856"},"vehicle_type_id":"4","last_reported":1758831074,"current_range_meters":17200,"station_id":"ce4bh012rcd13ifvqd10","pricing_plan_id":"cebpf4jnsgd1na2vs0mg"},{"bike_id":"b2219950-bb22-4648-9ba4-18cd9cf365ce","system_id":"levelo_inurba_marseille","lat":43.2508,"lon":5.39514,"is_reserved":false,"is_disabled":false,"rental_uris":{"android":"levelo://app?vid=b2219950-bb22-4648-9ba4-18cd9cf365ce","ios":"levelo://app?vid=b2219950-bb22-4648-9ba4-18cd9cf365ce"},"vehicle_type_id":"4","last_reported":1758831074,"current_range_meters":17200,"station_id":"ce4bhm12rcd13ifvqgkg","pricing_plan_id":"cebpf4jnsgd1na2vs0mg"},{"bike_id":"330b2c47-f746-44c7-9f13-5ee538bbcad2","system_id":"levelo_inurba_marseille","lat":43.28359,"lon":5.38099,"is_reserved":false,"is_disabled":false,"rental_uris":{"android":"levelo://app?vid=330b2c47-f746-44c7-9f13-5ee538bbcad2","ios":"levelo://app?vid=330b2c47-f746-44c7-9f13-5ee538bbcad2"},"vehicle_type_id":"4","last_reported":1758831074,"current_range_meters":17200,"station_id":"ce4bh412rcd13ifvqdr0","pricing_plan_id":"cebpf4jnsgd1na2vs0mg"},{"bike_id":"6924e35a-6e1a-4cc2-994f-51d06ed75695","system_id":"levelo_inurba_marseille","lat":43.24992,"lon":5.38935,"is_reserved":false,"is_disabled":false,"rental_uris":{"android":"levelo://app?vid=6924e35a-6e1a-4cc2-994f-51d06ed75695","ios":"levelo://app?vid=6924e35a-6e1a-4cc2-994f-51d06ed75695"},"vehicle_type_id":"4","last_reported":1758831074,"current_range_meters":17200,"station_id":"ce4bhgp2rcd13ifvqfd0","pricing_plan_id":"cebpf4jnsgd1na2vs0mg"},{"bike_id":"6ff62d79-81a4-487f-8694-4fb22f54a494","system_id":"levelo_inurba_marseille","lat":43.32475,"lon":5.39188,"is_reserved":false,"is_disabled":false,"rental_uris":{"android":"levelo://app?vid=6ff62d79-81a4-487f-8694-4fb22f54a494","ios":"levelo://app?vid=6ff62d79-81a4-487f-8694-4fb22f54a494"},"vehicle_type_id":"4","last_reported":1758831074,"current_range_meters":17200,"station_id":"","pricing_plan_id":"cebpf4jnsgd1na2vs0mg"},{"bike_id":"4d5ec42a-b050-4df7-9592-d965b5624545","system_id":"levelo_inurba_marseille","lat":43.2953,"lon":5.38556,"is_reserved":false,"is_disabled":false,"rental_uris":{"android":"levelo://app?vid=4d5ec42a-b050-4df7-9592-d965b5624545","ios":"levelo://app?vid=4d5ec42a-b050-4df7-9592-d965b5624545"},"vehicle_type_id":"4","last_reported":1758831074,"current_range_meters":17200,"station_id":"ce4bgih2rcd13ifvqba0","pricing_plan_id":"cebpf4jnsgd1na2vs0mg"},{"bike_id":"08fe2b08-b3fa-43f8-ae73-04061f76318d","system_id":"levelo_inurba_marseille","lat":43.305552,"lon":5.365395,"is_reserved":false,"is_disabled":false,"rental_uris":{"android":"levelo://app?vid=08fe2b08-b3fa-43f8-ae73-04061f76318d","ios":"levelo://app?vid=08fe2b08-b3fa-43f8-ae73-04061f76318d"},"vehicle_type_id":"4","last_reported":1758831074,"current_range_meters":17200,"station_id":"","pricing_plan_id":"cebpf4jnsgd1na2vs0mg"},{"bike_id":"c110996d-22e7-4035-9eef-b37954d27511","system_id":"levelo_inurba_marseille","lat":43.23191,"lon":5.35559,"is_reserved":false,"is_disabled":false,"rental_uris":{"android":"levelo://app?vid=c110996d-22e7-4035-9eef-b37954d27511","ios":"levelo://app?vid=c110996d-22e7-4035-9eef-b37954d27511"},"vehicle_type_id":"4","last_reported":1758831074,"current_range_meters":17200,"station_id":"ce4bhu92rcd13ifvqi70","pricing_plan_id":"cebpf4jnsgd1na2vs0mg"},{"bike_id":"1d5d14cf-15e7-4470-bff9-613bb9abe120","system_id":"levelo_inurba_marseille","lat":43.3347,"lon":5.42071,"is_reserved":false,"is_disabled":false,"rental_uris":{"android":"levelo://app?vid=1d5d14cf-15e7-4470-bff9-613bb9abe120","ios":"levelo://app?vid=1d5d14cf-15e7-4470-bff9-613bb9abe120"},"vehicle_type_id":"4","last_reported":1758831074,"current_range_meters":17200,"station_id":"","pricing_plan_id":"cebpf4jnsgd1na2vs0mg"},{"bike_id":"c428f80b-bd6a-4e94-a7c9-eacff36a382d","system_id":"levelo_inurba_marseille","lat":43.288507,"lon":5.358588,"is_reserved":false,"is_disabled":false,"rental_uris":{"android":"levelo://app?vid=c428f80b-bd6a-4e94-a7c9-eacff36a382d","ios":"levelo://app?vid=c428f80b-bd6a-4e94-a7c9-eacff36a382d"},"vehicle_type_id":"4","last_reported":1758831074,"current_range_meters":17200,"station_id":"ce4bhb12rcd13ifvqem0","pricing_plan_id":"cebpf4jnsgd1na2vs0mg"},{"bike_id":"208d8654-3228-40c7-b9c8-8618c2e5fa52","system_id":"levelo_inurba_marseille","lat":43.286413,"lon":5.382672,"is_reserved":false,"is_disabled":false,"rental_uris":{"android":"levelo://app?vid=208d8654-3228-40c7-b9c8-8618c2e5fa52","ios":"levelo://app?vid=208d8654-3228-40c7-b9c8-8618c2e5fa52"},"vehicle_type_id":"4","last_reported":1758831074,"current_range_meters":17200,"station_id":"","pricing_plan_id":"cebpf4jnsgd1na2vs0mg"},{"bike_id":"11691f1d-e624-4821-af5b-86cd6f6d081a","system_id":"levelo_inurba_marseille","lat":43.27919,"lon":5.41069,"is_reserved":false,"is_disabled":false,"rental_uris":{"android":"levelo://app?vid=11691f1d-e624-4821-af5b-86cd6f6d081a","ios":"levelo://app?vid=11691f1d-e624-4821-af5b-86cd6f6d081a"},"vehicle_type_id":"4","last_reported":1758831074,"current_range_meters":17200,"station_id":"ce4bhnp2rcd13ifvqh0g","pricing_plan_id":"cebpf4jnsgd1na2vs0mg"},{"bike_id":"09716c1c-6500-49f5-9718-2ee71c83c71e","system_id":"levelo_inurba_marseille","lat":43.298428,"lon":5.362754,"is_reserved":false,"is_disabled":true,"rental_uris":{"android":"levelo://app?vid=09716c1c-6500-49f5-9718-2ee71c83c71e","ios":"levelo://app?vid=09716c1c-6500-49f5-9718-2ee71c83c71e"},"vehicle_type_id":"4","last_reported":1758831074,"current_range_meters":17200,"station_id":"ce4bgpp2rcd13ifvqc3g","pricing_plan_id":"cebpf4jnsgd1na2vs0mg"},{"bike_id":"f999ab2a-e392-4217-8a90-a579323d8624","system_id":"levelo_inurba_marseille","lat":43.290935,"lon":5.381498,"is_reserved":false,"is_disabled":true,"rental_uris":{"android":"levelo://app?vid=f999ab2a-e392-4217-8a90-a579323d8624","ios":"levelo://app?vid=f999ab2a-e392-4217-8a90-a579323d8624"},"vehicle_type_id":"4","last_reported":1758831074,"current_range_meters":17200,"station_id":"ce4bh512rcd13ifvqe2g","pricing_plan_id":"cebpf4jnsgd1na2vs0mg"},{"bike_id":"10b8d871-07e9-4114-9eb9-6bcce40e7beb","system_id":"levelo_inurba_marseille","lat":43.27045,"lon":5.392226,"is_reserved":false,"is_disabled":false,"rental_uris":{"android":"levelo://app?vid=10b8d871-07e9-4114-9eb9-6bcce40e7beb","ios":"levelo://app?vid=10b8d871-07e9-4114-9eb9-6bcce40e7beb"},"vehicle_type_id":"4","last_reported":1758831074,"current_range_meters":17200,"station_id":"ce4bhe12rcd13ifvqf30","pricing_plan_id":"cebpf4jnsgd1na2vs0mg"},{"bike_id":"a3d93974-bacc-4c9e-ab78-e1e8d21d61de","system_id":"levelo_inurba_marseille","lat":43.28708,"lon":5.39986,"is_reserved":false,"is_disabled":false,"rental_uris":{"android":"levelo://app?vid=a3d93974-bacc-4c9e-ab78-e1e8d21d61de","ios":"levelo://app?vid=a3d93974-bacc-4c9e-ab78-e1e8d21d61de"},"vehicle_type_id":"4","last_reported":1758831074,"current_range_meters":17200,"station_id":"ce4bho92rcd13ifvqh3g","pricing_plan_id":"cebpf4jnsgd1na2vs0mg"},{"bike_id":"08292ac0-f4a0-4778-9703-5ac015ee1e3a","system_id":"levelo_inurba_marseille","lat":43.2461,"lon":5.43159,"is_reserved":false,"is_disabled":false,"rental_uris":{"android":"levelo://app?vid=08292ac0-f4a0-4778-9703-5ac015ee1e3a","ios":"levelo://app?vid=08292ac0-f4a0-4778-9703-5ac015ee1e3a"},"vehicle_type_id":"4","last_reported":1758831074,"current_range_meters":17600,"station_id":"st_d2m6c4gdas8pm72e190g","pricing_plan_id":"cebpf4jnsgd1na2vs0mg"},{"bike_id":"7d386e92-0637-4894-be92-264d6a72c11e","system_id":"levelo_inurba_marseille","lat":43.28426,"lon":5.34995,"is_reserved":false,"is_disabled":false,"rental_uris":{"android":"levelo://app?vid=7d386e92-0637-4894-be92-264d6a72c11e","ios":"levelo://app?vid=7d386e92-0637-4894-be92-264d6a72c11e"},"vehicle_type_id":"4","last_reported":1758831074,"current_range_meters":17600,"station_id":"ce4bhbh2rcd13ifvqepg","pricing_plan_id":"cebpf4jnsgd1na2vs0mg"},{"bike_id":"9f98ab80-1f81-4d5e-ae5c-dd47a9f821e3","system_id":"levelo_inurba_marseille","lat":43.28365,"lon":5.38095,"is_reserved":false,"is_disabled":false,"rental_uris":{"android":"levelo://app?vid=9f98ab80-1f81-4d5e-ae5c-dd47a9f821e3","ios":"levelo://app?vid=9f98ab80-1f81-4d5e-ae5c-dd47a9f821e3"},"vehicle_type_id":"4","last_reported":1758831074,"current_range_meters":17600,"station_id":"ce4bh412rcd13ifvqdr0","pricing_plan_id":"cebpf4jnsgd1na2vs0mg"},{"bike_id":"37ecf219-142b-424d-a540-aaddf3ba94ba","system_id":"levelo_inurba_marseille","lat":43.28408,"lon":5.37529,"is_reserved":false,"is_disabled":false,"rental_uris":{"android":"levelo://app?vid=37ecf219-142b-424d-a540-aaddf3ba94ba","ios":"levelo://app?vid=37ecf219-142b-424d-a540-aaddf3ba94ba"},"vehicle_type_id":"4","last_reported":1758831074,"current_range_meters":17600,"station_id":"ce4bh412rcd13ifvqds0","pricing_plan_id":"cebpf4jnsgd1na2vs0mg"},{"bike_id":"7f09bc43-02a6-468a-9182-731c83281b4a","system_id":"levelo_inurba_marseille","lat":43.26364,"lon":5.37506,"is_reserved":false,"is_disabled":false,"rental_uris":{"android":"levelo://app?vid=7f09bc43-02a6-468a-9182-731c83281b4a","ios":"levelo://app?vid=7f09bc43-02a6-468a-9182-731c83281b4a"},"vehicle_type_id":"4","last_reported":1758831074,"current_range_meters":17600,"station_id":"","pricing_plan_id":"cebpf4jnsgd1na2vs0mg"},{"bike_id":"3611f2ba-eeb4-45ee-ac8e-be195e39a1a4","system_id":"levelo_inurba_marseille","lat":43.2841,"lon":5.34985,"is_reserved":false,"is_disabled":false,"rental_uris":{"android":"levelo://app?vid=3611f2ba-eeb4-45ee-ac8e-be195e39a1a4","ios":"levelo://app?vid=3611f2ba-eeb4-45ee-ac8e-be195e39a1a4"},"vehicle_type_id":"4","last_reported":1758831074,"current_range_meters":17600,"station_id":"ce4bhbh2rcd13ifvqepg","pricing_plan_id":"cebpf4jnsgd1na2vs0mg"},{"bike_id":"d1377089-d173-4694-ad89-f84731e4cfb2","system_id":"levelo_inurba_marseille","lat":43.25504,"lon":5.37654,"is_reserved":false,"is_disabled":false,"rental_uris":{"android":"levelo://app?vid=d1377089-d173-4694-ad89-f84731e4cfb2","ios":"levelo://app?vid=d1377089-d173-4694-ad89-f84731e4cfb2"},"vehicle_type_id":"4","last_reported":1758831074,"current_range_meters":17600,"station_id":"ce4bhh12rcd13ifvqff0","pricing_plan_id":"cebpf4jnsgd1na2vs0mg"},{"bike_id":"2ffd1dc4-d06c-4843-aa5c-02d64229892d","system_id":"levelo_inurba_marseille","lat":43.25503,"lon":5.37647,"is_reserved":false,"is_disabled":false,"rental_uris":{"android":"levelo://app?vid=2ffd1dc4-d06c-4843-aa5c-02d64229892d","ios":"levelo://app?vid=2ffd1dc4-d06c-4843-aa5c-02d64229892d"},"vehicle_type_id":"4","last_reported":1758831074,"current_range_meters":17600,"station_id":"ce4bhh12rcd13ifvqff0","pricing_plan_id":"cebpf4jnsgd1na2vs0mg"},{"bike_id":"f7ef8091-7bd4-4b82-a9d6-cec8e8a3c8d5","system_id":"levelo_inurba_marseille","lat":43.287295,"lon":5.361003,"is_reserved":false,"is_disabled":false,"rental_uris":{"android":"levelo://app?vid=f7ef8091-7bd4-4b82-a9d6-cec8e8a3c8d5","ios":"levelo://app?vid=f7ef8091-7bd4-4b82-a9d6-cec8e8a3c8d5"},"vehicle_type_id":"4","last_reported":1758831074,"current_range_meters":17600,"station_id":"cki0cbj6b192h4jlfktg","pricing_plan_id":"cebpf4jnsgd1na2vs0mg"},{"bike_id":"fb625d23-5a9b-482e-ab1e-b82505718aa0","system_id":"levelo_inurba_marseille","lat":43.295486,"lon":5.422872,"is_reserved":false,"is_disabled":false,"rental_uris":{"android":"levelo://app?vid=fb625d23-5a9b-482e-ab1e-b82505718aa0","ios":"levelo://app?vid=fb625d23-5a9b-482e-ab1e-b82505718aa0"},"vehicle_type_id":"4","last_reported":1758831074,"current_range_meters":18000,"station_id":"ce4bhph2rcd13ifvqhdg","pricing_plan_id":"cebpf4jnsgd1na2vs0mg"},{"bike_id":"2f21c966-7d37-442a-8e27-8939d88c2d2b","system_id":"levelo_inurba_marseille","lat":43.3111,"lon":5.37767,"is_reserved":false,"is_disabled":false,"rental_uris":{"android":"levelo://app?vid=2f21c966-7d37-442a-8e27-8939d88c2d2b","ios":"levelo://app?vid=2f21c966-7d37-442a-8e27-8939d88c2d2b"},"vehicle_type_id":"4","last_reported":1758831074,"current_range_meters":18000,"station_id":"ce4bgt92rcd13ifvqcg0","pricing_plan_id":"cebpf4jnsgd1na2vs0mg"},{"bike_id":"28c124b5-9a4a-45e1-9333-b6791e3ece38","system_id":"levelo_inurba_marseille","lat":43.29529,"lon":5.39039,"is_reserved":false,"is_disabled":false,"rental_uris":{"android":"levelo://app?vid=28c124b5-9a4a-45e1-9333-b6791e3ece38","ios":"levelo://app?vid=28c124b5-9a4a-45e1-9333-b6791e3ece38"},"vehicle_type_id":"4","last_reported":1758831074,"current_range_meters":18000,"station_id":"ce4bh3p2rcd13ifvqdp0","pricing_plan_id":"cebpf4jnsgd1na2vs0mg"},{"bike_id":"9a4f92ed-e086-4038-a651-bbe0613f80bd","system_id":"levelo_inurba_marseille","lat":43.22553,"lon":5.41649,"is_reserved":false,"is_disabled":false,"rental_uris":{"android":"levelo://app?vid=9a4f92ed-e086-4038-a651-bbe0613f80bd","ios":"levelo://app?vid=9a4f92ed-e086-4038-a651-bbe0613f80bd"},"vehicle_type_id":"4","last_reported":1758831074,"current_range_meters":18000,"station_id":"st_d2o4gvlbi1j2169b742g","pricing_plan_id":"cebpf4jnsgd1na2vs0mg"},{"bike_id":"ece36685-817e-47c1-b130-8af29913096b","system_id":"levelo_inurba_marseille","lat":43.292835,"lon":5.401144,"is_reserved":false,"is_disabled":false,"rental_uris":{"android":"levelo://app?vid=ece36685-817e-47c1-b130-8af29913096b","ios":"levelo://app?vid=ece36685-817e-47c1-b130-8af29913096b"},"vehicle_type_id":"4","last_reported":1758831074,"current_range_meters":18000,"station_id":"","pricing_plan_id":"cebpf4jnsgd1na2vs0mg"},{"bike_id":"ffeaaa0e-8865-4ac6-adf7-7d17bcd95f89","system_id":"levelo_inurba_marseille","lat":43.28999,"lon":5.35614,"is_reserved":false,"is_disabled":false,"rental_uris":{"android":"levelo://app?vid=ffeaaa0e-8865-4ac6-adf7-7d17bcd95f89","ios":"levelo://app?vid=ffeaaa0e-8865-4ac6-adf7-7d17bcd95f89"},"vehicle_type_id":"4","last_reported":1758831074,"current_range_meters":18000,"station_id":"ce4bhb92rcd13ifvqen0","pricing_plan_id":"cebpf4jnsgd1na2vs0mg"},{"bike_id":"d66c084c-aad4-4f12-b688-6b921663071c","system_id":"levelo_inurba_marseille","lat":43.31321,"lon":5.39717,"is_reserved":false,"is_disabled":false,"rental_uris":{"android":"levelo://app?vid=d66c084c-aad4-4f12-b688-6b921663071c","ios":"levelo://app?vid=d66c084c-aad4-4f12-b688-6b921663071c"},"vehicle_type_id":"4","last_reported":1758831074,"current_range_meters":18000,"station_id":"ce4bgvp2rcd13ifvqcu0","pricing_plan_id":"cebpf4jnsgd1na2vs0mg"},{"bike_id":"aac272c1-51a8-4c23-96d6-01ca597dbafa","system_id":"levelo_inurba_marseille","lat":43.29269,"lon":5.38415,"is_reserved":false,"is_disabled":false,"rental_uris":{"android":"levelo://app?vid=aac272c1-51a8-4c23-96d6-01ca597dbafa","ios":"levelo://app?vid=aac272c1-51a8-4c23-96d6-01ca597dbafa"},"vehicle_type_id":"4","last_reported":1758831074,"current_range_meters":18000,"station_id":"ce4bh692rcd13ifvqea0","pricing_plan_id":"cebpf4jnsgd1na2vs0mg"},{"bike_id":"c42002d1-cbd7-45d3-8c8d-84ee03d010f1","system_id":"levelo_inurba_marseille","lat":43.28836,"lon":5.42538,"is_reserved":false,"is_disabled":false,"rental_uris":{"android":"levelo://app?vid=c42002d1-cbd7-45d3-8c8d-84ee03d010f1","ios":"levelo://app?vid=c42002d1-cbd7-45d3-8c8d-84ee03d010f1"},"vehicle_type_id":"4","last_reported":1758831074,"current_range_meters":18000,"station_id":"","pricing_plan_id":"cebpf4jnsgd1na2vs0mg"},{"bike_id":"b2fc922b-ff47-4f68-9531-9abaa818a9ad","system_id":"levelo_inurba_marseille","lat":43.24947,"lon":5.40494,"is_reserved":false,"is_disabled":false,"rental_uris":{"android":"levelo://app?vid=b2fc922b-ff47-4f68-9531-9abaa818a9ad","ios":"levelo://app?vid=b2fc922b-ff47-4f68-9531-9abaa818a9ad"},"vehicle_type_id":"4","last_reported":1758831074,"current_range_meters":18000,"station_id":"st_d2ngiaodas8pm72gd1h0","pricing_plan_id":"cebpf4jnsgd1na2vs0mg"},{"bike_id":"517868a9-5065-4a75-bb66-168829baf622","system_id":"levelo_inurba_marseille","lat":43.29514,"lon":5.39052,"is_reserved":false,"is_disabled":false,"rental_uris":{"android":"levelo://app?vid=517868a9-5065-4a75-bb66-168829baf622","ios":"levelo://app?vid=517868a9-5065-4a75-bb66-168829baf622"},"vehicle_type_id":"4","last_reported":1758831074,"current_range_meters":18000,"station_id":"ce4bh3p2rcd13ifvqdp0","pricing_plan_id":"cebpf4jnsgd1na2vs0mg"},{"bike_id":"647d31be-c59f-4e15-9e30-6448c2e2351e","system_id":"levelo_inurba_marseille","lat":43.28845,"lon":5.35851,"is_reserved":false,"is_disabled":false,"rental_uris":{"android":"levelo://app?vid=647d31be-c59f-4e15-9e30-6448c2e2351e","ios":"levelo://app?vid=647d31be-c59f-4e15-9e30-6448c2e2351e"},"vehicle_type_id":"4","last_reported":1758831074,"current_range_meters":18000,"station_id":"ce4bhb12rcd13ifvqem0","pricing_plan_id":"cebpf4jnsgd1na2vs0mg"},{"bike_id":"9dfa9c0c-ee5c-4453-9d64-814a8f02f0e3","system_id":"levelo_inurba_marseille","lat":43.29523,"lon":5.390444,"is_reserved":false,"is_disabled":false,"rental_uris":{"android":"levelo://app?vid=9dfa9c0c-ee5c-4453-9d64-814a8f02f0e3","ios":"levelo://app?vid=9dfa9c0c-ee5c-4453-9d64-814a8f02f0e3"},"vehicle_type_id":"4","last_reported":1758831074,"current_range_meters":18000,"station_id":"ce4bh3p2rcd13ifvqdp0","pricing_plan_id":"cebpf4jnsgd1na2vs0mg"},{"bike_id":"62fd55fb-a82d-422c-8485-bb3414241afb","system_id":"levelo_inurba_marseille","lat":43.30252,"lon":5.40082,"is_reserved":false,"is_disabled":false,"rental_uris":{"android":"levelo://app?vid=62fd55fb-a82d-422c-8485-bb3414241afb","ios":"levelo://app?vid=62fd55fb-a82d-422c-8485-bb3414241afb"},"vehicle_type_id":"4","last_reported":1758831074,"current_range_meters":18800,"station_id":"ce4bgvh2rcd13ifvqcs0","pricing_plan_id":"cebpf4jnsgd1na2vs0mg"},{"bike_id":"353d16a4-65e9-4896-ad53-df82bb14ace3","system_id":"levelo_inurba_marseille","lat":43.28462,"lon":5.34962,"is_reserved":false,"is_disabled":false,"rental_uris":{"android":"levelo://app?vid=353d16a4-65e9-4896-ad53-df82bb14ace3","ios":"levelo://app?vid=353d16a4-65e9-4896-ad53-df82bb14ace3"},"vehicle_type_id":"4","last_reported":1758831074,"current_range_meters":18800,"station_id":"ce4bhbh2rcd13ifvqepg","pricing_plan_id":"cebpf4jnsgd1na2vs0mg"},{"bike_id":"c0471e0c-0aec-4814-bfd8-20b9814d1ac7","system_id":"levelo_inurba_marseille","lat":43.29168,"lon":5.37158,"is_reserved":false,"is_disabled":false,"rental_uris":{"android":"levelo://app?vid=c0471e0c-0aec-4814-bfd8-20b9814d1ac7","ios":"levelo://app?vid=c0471e0c-0aec-4814-bfd8-20b9814d1ac7"},"vehicle_type_id":"4","last_reported":1758831074,"current_range_meters":18800,"station_id":"ce4bha92rcd13ifvqeh0","pricing_plan_id":"cebpf4jnsgd1na2vs0mg"},{"bike_id":"b25c5a88-4318-47a3-b92e-ab26aa17aef9","system_id":"levelo_inurba_marseille","lat":43.27955,"lon":5.38742,"is_reserved":false,"is_disabled":false,"rental_uris":{"android":"levelo://app?vid=b25c5a88-4318-47a3-b92e-ab26aa17aef9","ios":"levelo://app?vid=b25c5a88-4318-47a3-b92e-ab26aa17aef9"},"vehicle_type_id":"4","last_reported":1758831074,"current_range_meters":18000,"station_id":"ce4bhg12rcd13ifvqf80","pricing_plan_id":"cebpf4jnsgd1na2vs0mg"},{"bike_id":"3f788679-5ed2-4d65-b228-944ec647b681","system_id":"levelo_inurba_marseille","lat":43.262248,"lon":5.404598,"is_reserved":false,"is_disabled":false,"rental_uris":{"android":"levelo://app?vid=3f788679-5ed2-4d65-b228-944ec647b681","ios":"levelo://app?vid=3f788679-5ed2-4d65-b228-944ec647b681"},"vehicle_type_id":"4","last_reported":1758831074,"current_range_meters":18800,"station_id":"ce4bhmh2rcd13ifvqgmg","pricing_plan_id":"cebpf4jnsgd1na2vs0mg"},{"bike_id":"85782661-163d-4a8b-b5a4-1f0a766faaa2","system_id":"levelo_inurba_marseille","lat":43.24633,"lon":5.43146,"is_reserved":false,"is_disabled":false,"rental_uris":{"android":"levelo://app?vid=85782661-163d-4a8b-b5a4-1f0a766faaa2","ios":"levelo://app?vid=85782661-163d-4a8b-b5a4-1f0a766faaa2"},"vehicle_type_id":"4","last_reported":1758831074,"current_range_meters":18800,"station_id":"st_d2m6c4gdas8pm72e190g","pricing_plan_id":"cebpf4jnsgd1na2vs0mg"},{"bike_id":"47197d17-a903-48d9-a5ca-da961df1da03","system_id":"levelo_inurba_marseille","lat":43.28111,"lon":5.37826,"is_reserved":false,"is_disabled":false,"rental_uris":{"android":"levelo://app?vid=47197d17-a903-48d9-a5ca-da961df1da03","ios":"levelo://app?vid=47197d17-a903-48d9-a5ca-da961df1da03"},"vehicle_type_id":"4","last_reported":1758831074,"current_range_meters":18800,"station_id":"ce4bha12rcd13ifvqee0","pricing_plan_id":"cebpf4jnsgd1na2vs0mg"},{"bike_id":"ca5b8071-3505-4e43-9710-fe6ca0bbf864","system_id":"levelo_inurba_marseille","lat":43.2654,"lon":5.40333,"is_reserved":false,"is_disabled":false,"rental_uris":{"android":"levelo://app?vid=ca5b8071-3505-4e43-9710-fe6ca0bbf864","ios":"levelo://app?vid=ca5b8071-3505-4e43-9710-fe6ca0bbf864"},"vehicle_type_id":"4","last_reported":1758831074,"current_range_meters":18800,"station_id":"ce4bhmp2rcd13ifvqgng","pricing_plan_id":"cebpf4jnsgd1na2vs0mg"},{"bike_id":"fee74e98-eb52-4f66-a612-109c75f34aa6","system_id":"levelo_inurba_marseille","lat":43.29621,"lon":5.37952,"is_reserved":false,"is_disabled":false,"rental_uris":{"android":"levelo://app?vid=fee74e98-eb52-4f66-a612-109c75f34aa6","ios":"levelo://app?vid=fee74e98-eb52-4f66-a612-109c75f34aa6"},"vehicle_type_id":"4","last_reported":1758831074,"current_range_meters":18800,"station_id":"","pricing_plan_id":"cebpf4jnsgd1na2vs0mg"},{"bike_id":"3b7b8d48-f9a0-425e-a473-add97676fac8","system_id":"levelo_inurba_marseille","lat":43.28661,"lon":5.363543,"is_reserved":false,"is_disabled":false,"rental_uris":{"android":"levelo://app?vid=3b7b8d48-f9a0-425e-a473-add97676fac8","ios":"levelo://app?vid=3b7b8d48-f9a0-425e-a473-add97676fac8"},"vehicle_type_id":"4","last_reported":1758831074,"current_range_meters":18800,"station_id":"ce4bhah2rcd13ifvqej0","pricing_plan_id":"cebpf4jnsgd1na2vs0mg"},{"bike_id":"2a416e7a-1803-402e-9523-74bfe690bd54","system_id":"levelo_inurba_marseille","lat":43.32365,"lon":5.36767,"is_reserved":false,"is_disabled":false,"rental_uris":{"android":"levelo://app?vid=2a416e7a-1803-402e-9523-74bfe690bd54","ios":"levelo://app?vid=2a416e7a-1803-402e-9523-74bfe690bd54"},"vehicle_type_id":"4","last_reported":1758831074,"current_range_meters":18800,"station_id":"ce4bhsh2rcd13ifvqi2g","pricing_plan_id":"cebpf4jnsgd1na2vs0mg"},{"bike_id":"1c7621b9-961a-4db4-89c5-7e40e49b6861","system_id":"levelo_inurba_marseille","lat":43.26194,"lon":5.374469,"is_reserved":false,"is_disabled":false,"rental_uris":{"android":"levelo://app?vid=1c7621b9-961a-4db4-89c5-7e40e49b6861","ios":"levelo://app?vid=1c7621b9-961a-4db4-89c5-7e40e49b6861"},"vehicle_type_id":"4","last_reported":1758831074,"current_range_meters":19200,"station_id":"ce4bhgp2rcd13ifvqfc0","pricing_plan_id":"cebpf4jnsgd1na2vs0mg"},{"bike_id":"27a9138c-be62-462c-baa5-df2a83019b5e","system_id":"levelo_inurba_marseille","lat":43.30136,"lon":5.37419,"is_reserved":false,"is_disabled":false,"rental_uris":{"android":"levelo://app?vid=27a9138c-be62-462c-baa5-df2a83019b5e","ios":"levelo://app?vid=27a9138c-be62-462c-baa5-df2a83019b5e"},"vehicle_type_id":"4","last_reported":1758831074,"current_range_meters":19200,"station_id":"ce4bgs92rcd13ifvqcc0","pricing_plan_id":"cebpf4jnsgd1na2vs0mg"},{"bike_id":"e3549ef6-0a19-4698-b816-cd559dd3d7d0","system_id":"levelo_inurba_marseille","lat":43.29262,"lon":5.38451,"is_reserved":false,"is_disabled":false,"rental_uris":{"android":"levelo://app?vid=e3549ef6-0a19-4698-b816-cd559dd3d7d0","ios":"levelo://app?vid=e3549ef6-0a19-4698-b816-cd559dd3d7d0"},"vehicle_type_id":"4","last_reported":1758831074,"current_range_meters":19200,"station_id":"ce4bh692rcd13ifvqea0","pricing_plan_id":"cebpf4jnsgd1na2vs0mg"},{"bike_id":"2c0894d7-5347-4f89-a0ac-551bc1a618a5","system_id":"levelo_inurba_marseille","lat":43.29454,"lon":5.39753,"is_reserved":false,"is_disabled":false,"rental_uris":{"android":"levelo://app?vid=2c0894d7-5347-4f89-a0ac-551bc1a618a5","ios":"levelo://app?vid=2c0894d7-5347-4f89-a0ac-551bc1a618a5"},"vehicle_type_id":"4","last_reported":1758831074,"current_range_meters":19200,"station_id":"ce4bh3h2rcd13ifvqdo0","pricing_plan_id":"cebpf4jnsgd1na2vs0mg"},{"bike_id":"63d52c35-c9c9-44eb-9780-1b2f9145123b","system_id":"levelo_inurba_marseille","lat":43.29627,"lon":5.377037,"is_reserved":false,"is_disabled":false,"rental_uris":{"android":"levelo://app?vid=63d52c35-c9c9-44eb-9780-1b2f9145123b","ios":"levelo://app?vid=63d52c35-c9c9-44eb-9780-1b2f9145123b"},"vehicle_type_id":"4","last_reported":1758831074,"current_range_meters":19200,"station_id":"","pricing_plan_id":"cebpf4jnsgd1na2vs0mg"},