{"last_updated":1747577291,"ttl":60,"version":"2.2","data":{"bikes":[{"bike_id":"6756cb8f-f55c-40c7-bfc2-cb6b7a840d6c","system_id":"levelo_inurba_marseille","lat":43.30801,"lon":5.38163,"is_reserved":false,"is_disabled":false,"rental_uris":{"android":"levelo://app?vid=6756cb8f-f55c-40c7-bfc2-cb6b7a840d6c","ios":"levelo://app?vid=6756cb8f-f55c-40c7-bfc2-cb6b7a840d6c"},"vehicle_type_id":"4","last_reported":1747577291,"current_range_meters":2800,"station_id":"ce4bgt12rcd13ifvqce0","pricing_plan_id":"cebpf4jnsgd1na2vs0mg"},{"bike_id":"61de270a-c0c0-48ae-a4cb-8567a9ffa769","system_id":"levelo_inurba_marseille","lat":43.260197,"lon":5.375519,"is_reserved":false,"is_disabled":false,"rental_uris":{"android":"levelo://app?vid=61de270a-c0c0-48ae-a4cb-8567a9ffa769","ios":"levelo://app?vid=61de270a-c0c0-48ae-a4cb-8567a9ffa769"},"vehicle_type_id":"4","last_reported":1747577291,"current_range_meters":2800,"station_id":"","pricing_plan_id":"cebpf4jnsgd1na2vs0mg"},{"bike_id":"a4063de7-3465-4b39-9bf8-ef1a75de7c2d","system_id":"levelo_inurba_marseille","lat":43.28603,"lon":5.46074,"is_reserved":false,"is_disabled":false,"rental_uris":{"android":"levelo://app?vid=a4063de7-3465-4b39-9bf8-ef1a75de7c2d","ios":"levelo://app?vid=a4063de7-3465-4b39-9bf8-ef1a75de7c2d"},"vehicle_type_id":"4","last_reported":1747577291,"current_range_meters":2800,"station_id":"","pricing_plan_id":"cebpf4jnsgd1na2vs0mg"},{"bike_id":"25ffd819-c395-45b2-88f4-ca539af8a5dc","system_id":"levelo_inurba_marseille","lat":43.30154,"lon":5.37425,"is_reserved":false,"is_disabled":false,"rental_uris":{"android":"levelo://app?vid=25ffd819-c395-45b2-88f4-ca539af8a5dc","ios":"levelo://app?vid=25ffd819-c395-45b2-88f4-ca539af8a5dc"},"vehicle_type_id":"4","last_reported":1747577291,"current_range_meters":2800,"station_id":"ce4bgs92rcd13ifvqcc0","pricing_plan_id":"cebpf4jnsgd1na2vs0mg"},{"bike_id":"3ab98fdc-ba39-484d-8c8b-7993d827c870","system_id":"levelo_inurba_marseille","lat":43.23053,"lon":5.35481,"is_reserved":false,"is_disabled":false,"rental_uris":{"android":"levelo://app?vid=3ab98fdc-ba39-484d-8c8b-7993d827c870","ios":"levelo://app?vid=3ab98fdc-ba39-484d-8c8b-7993d827c870"},"vehicle_type_id":"4","last_reported":1747577291,"current_range_meters":2800,"station_id":"cpo3342slgdg3j2ifvpg","pricing_plan_id":"cebpf4jnsgd1na2vs0mg"},{"bike_id":"881b81e6-92b3-4318-a9c5-1f53966fefd5","system_id":"levelo_inurba_marseille","lat":43.26211,"lon":5.37447,"is_reserved":false,"is_disabled":false,"rental_uris":{"android":"levelo://app?vid=881b81e6-92b3-4318-a9c5-1f53966fefd5","ios":"levelo://app?vid=881b81e6-92b3-4318-a9c5-1f53966fefd5"},"vehicle_type_id":"4","last_reported":1747577291,"current_range_meters":3200,"station_id":"ce4bhgp2rcd13ifvqfc0","pricing_plan_id":"cebpf4jnsgd1na2vs0mg"},{"bike_id":"f54e9cf5-ab90-4b93-b23a-13585c42e7dc","system_id":"levelo_inurba_marseille","lat":43.25493,"lon":5.37653,"is_reserved":false,"is_disabled":false,"rental_uris":{"android":"levelo://app?vid=f54e9cf5-ab90-4b93-b23a-13585c42e7dc","ios":"levelo://app?vid=f54e9cf5-ab90-4b93-b23a-13585c42e7dc"},"vehicle_type_id":"4","last_reported":1747577291,"current_range_meters":3200,"station_id":"ce4bhh12rcd13ifvqff0","pricing_plan_id":"cebpf4jnsgd1na2vs0mg"},{"bike_id":"ad2ea47b-8680-46a7-9284-46078b4f12f6","system_id":"levelo_inurba_marseille","lat":43.24398,"lon":5.3707,"is_reserved":false,"is_disabled":false,"rental_uris":{"android":"levelo://app?vid=ad2ea47b-8680-46a7-9284-46078b4f12f6","ios":"levelo://app?vid=ad2ea47b-8680-46a7-9284-46078b4f12f6"},"vehicle_type_id":"4","last_reported":1747577291,"current_range_meters":3200,"station_id":"ce4bhhh2rcd13ifvqfk0","pricing_plan_id":"cebpf4jnsgd1na2vs0mg"},{"bike_id":"9bd806ab-49e0-4d25-91ed-fb16c4987967","system_id":"levelo_inurba_marseille","lat":43.273714,"lon":5.362525,"is_reserved":false,"is_disabled":false,"rental_uris":{"android":"levelo://app?vid=9bd806ab-49e0-4d25-91ed-fb16c4987967","ios":"levelo://app?vid=9bd806ab-49e0-4d25-91ed-fb16c4987967"},"vehicle_type_id":"4","last_reported":1747577291,"current_range_meters":3200,"station_id":"ce4bhbh2rcd13ifvqeo0","pricing_plan_id":"cebpf4jnsgd1na2vs0mg"},{"bike_id":"f427fe10-15f1-44ab-baba-a9460635a919","system_id":"levelo_inurba_marseille","lat":43.26559,"lon":5.37286,"is_reserved":false,"is_disabled":false,"rental_uris":{"android":"levelo://app?vid=f427fe10-15f1-44ab-baba-a9460635a919","ios":"levelo://app?vid=f427fe10-15f1-44ab-baba-a9460635a919"},"vehicle_type_id":"4","last_reported":1747577291,"current_range_meters":3200,"station_id":"ce4bhg12rcd13ifvqf70","pricing_plan_id":"cebpf4jnsgd1na2vs0mg"},{"bike_id":"d013454a-c377-4b46-82d1-5e7c59155b8f","system_id":"levelo_inurba_marseille","lat":43.28619,"lon":5.35101,"is_reserved":false,"is_disabled":false,"rental_uris":{"android":"levelo://app?vid=d013454a-c377-4b46-82d1-5e7c59155b8f","ios":"levelo://app?vid=d013454a-c377-4b46-82d1-5e7c59155b8f"},"vehicle_type_id":"4","last_reported":1747577291,"current_range_meters":3200,"station_id":"ce4bhch2rcd13ifvqeug","pricing_plan_id":"cebpf4jnsgd1na2vs0mg"},{"bike_id":"954f9a2f-3d92-4afe-8ccd-55ebda55dfe0","system_id":"levelo_inurba_marseille","lat":43.27068,"lon":5.42285,"is_reserved":false,"is_disabled":false,"rental_uris":{"android":"levelo://app?vid=954f9a2f-3d92-4afe-8ccd-55ebda55dfe0","ios":"levelo://app?vid=954f9a2f-3d92-4afe-8ccd-55ebda55dfe0"},"vehicle_type_id":"4","last_reported":1747577291,"current_range_meters":3200,"station_id":"ce4bhk92rcd13ifvqgb0","pricing_plan_id":"cebpf4jnsgd1na2vs0mg"},{"bike_id":"1c89a8d4-bf40-4451-87de-fe5b8f36a03a","system_id":"levelo_inurba_marseille","lat":43.31631,"lon":5.37755,"is_reserved":false,"is_disabled":false,"rental_uris":{"android":"levelo://app?vid=1c89a8d4-bf40-4451-87de-fe5b8f36a03a","ios":"levelo://app?vid=1c89a8d4-bf40-4451-87de-fe5b8f36a03a"},"vehicle_type_id":"4","last_reported":1747577291,"current_range_meters":3200,"station_id":"ce4bgth2rcd13ifvqch0","pricing_plan_id":"cebpf4jnsgd1na2vs0mg"},{"bike_id":"4b6b0b62-66ab-406b-a1ad-632a61b5e0e2","system_id":"levelo_inurba_marseille","lat":43.21188,"lon":5.35102,"is_reserved":false,"is_disabled":false,"rental_uris":{"android":"levelo://app?vid=4b6b0b62-66ab-406b-a1ad-632a61b5e0e2","ios":"levelo://app?vid=4b6b0b62-66ab-406b-a1ad-632a61b5e0e2"},"vehicle_type_id":"4","last_reported":1747577291,"current_range_meters":3200,"station_id":"st_cvj6sg6p6f1abm77japg","pricing_plan_id":"cebpf4jnsgd1na2vs0mg"},{"bike_id":"3fa58c22-00c6-48db-914d-ec2861a3d890","system_id":"levelo_inurba_marseille","lat":43.31083,"lon":5.40211,"is_reserved":false,"is_disabled":false,"rental_uris":{"android":"levelo://app?vid=3fa58c22-00c6-48db-914d-ec2861a3d890","ios":"levelo://app?vid=3fa58c22-00c6-48db-914d-ec2861a3d890"},"vehicle_type_id":"4","last_reported":1747577291,"current_range_meters":3200,"station_id":"","pricing_plan_id":"cebpf4jnsgd1na2vs0mg"},{"bike_id":"43ad80e1-07fc-4b8d-b615-6a0e44cac0c7","system_id":"levelo_inurba_marseille","lat":43.28621,"lon":5.35093,"is_reserved":false,"is_disabled":false,"rental_uris":{"android":"levelo://app?vid=43ad80e1-07fc-4b8d-b615-6a0e44cac0c7","ios":"levelo://app?vid=43ad80e1-07fc-4b8d-b615-6a0e44cac0c7"},"vehicle_type_id":"4","last_reported":1747577291,"current_range_meters":3200,"station_id":"ce4bhch2rcd13ifvqeug","pricing_plan_id":"cebpf4jnsgd1na2vs0mg"},{"bike_id":"83df6560-d839-4cc1-b9c4-6c477190f614","system_id":"levelo_inurba_marseille","lat":43.24397,"lon":5.37071,"is_reserved":false,"is_disabled":true,"rental_uris":{"android":"levelo://app?vid=83df6560-d839-4cc1-b9c4-6c477190f614","ios":"levelo://app?vid=83df6560-d839-4cc1-b9c4-6c477190f614"},"vehicle_type_id":"4","last_reported":1747577291,"current_range_meters":3600,"station_id":"ce4bhhh2rcd13ifvqfk0","pricing_plan_id":"cebpf4jnsgd1na2vs0mg"},{"bike_id":"f1033d46-befc-4cac-80d9-e4fa25f6de03","system_id":"levelo_inurba_marseille","lat":43.27818,"lon":5.40709,"is_reserved":false,"is_disabled":false,"rental_uris":{"android":"levelo://app?vid=f1033d46-befc-4cac-80d9-e4fa25f6de03","ios":"levelo://app?vid=f1033d46-befc-4cac-80d9-e4fa25f6de03"},"vehicle_type_id":"4","last_reported":1747577291,"current_range_meters":3600,"station_id":"ce4bhnh2rcd13ifvqgtg","pricing_plan_id":"cebpf4jnsgd1na2vs0mg"},{"bike_id":"61b37577-05c2-4a12-9944-35f3806a2252","system_id":"levelo_inurba_marseille","lat":43.30147,"lon":5.37413,"is_reserved":false,"is_disabled":false,"rental_uris":{"android":"levelo://app?vid=61b37577-05c2-4a12-9944-35f3806a2252","ios":"levelo://app?vid=61b37577-05c2-4a12-9944-35f3806a2252"},"vehicle_type_id":"4","last_reported":1747577291,"current_range_meters":3600,"station_id":"ce4bgs92rcd13ifvqcc0","pricing_plan_id":"cebpf4jnsgd1na2vs0mg"},{"bike_id":"394cadcc-3a78-4403-9bfc-1006acf0fb23","system_id":"levelo_inurba_marseille","lat":43.262074,"lon":5.379294,"is_reserved":false,"is_disabled":true,"rental_uris":{"android":"levelo://app?vid=394cadcc-3a78-4403-9bfc-1006acf0fb23","ios":"levelo://app?vid=394cadcc-3a78-4403-9bfc-1006acf0fb23"},"vehicle_type_id":"4","last_reported":1747577291,"current_range_meters":3600,"station_id":"ce4bhjp2rcd13ifvqg90","pricing_plan_id":"cebpf4jnsgd1na2vs0mg"},{"bike_id":"686c0f5e-31a1-43db-a358-b4fc9422bdee","system_id":"levelo_inurba_marseille","lat":43.29375,"lon":5.37846,"is_reserved":false,"is_disabled":false,"rental_uris":{"android":"levelo://app?vid=686c0f5e-31a1-43db-a358-b4fc9422bdee","ios":"levelo://app?vid=686c0f5e-31a1-43db-a358-b4fc9422bdee"},"vehicle_type_id":"4","last_reported":1747577291,"current_range_meters":3200,"station_id":"ce4bgjh2rcd13ifvqbf0","pricing_plan_id":"cebpf4jnsgd1na2vs0mg"},{"bike_id":"6c5e0b55-c294-4f75-b612-8851b88df97c","system_id":"levelo_inurba_marseille","lat":43.28345,"lon":5.38102,"is_reserved":false,"is_disabled":false,"rental_uris":{"android":"levelo://app?vid=6c5e0b55-c294-4f75-b612-8851b88df97c","ios":"levelo://app?vid=6c5e0b55-c294-4f75-b612-8851b88df97c"},"vehicle_type_id":"4","last_reported":1747577291,"current_range_meters":3600,"station_id":"ce4bh412rcd13ifvqdr0","pricing_plan_id":"cebpf4jnsgd1na2vs0mg"},{"bike_id":"52a824b5-b8cd-4be6-9520-0f0d3afa8774","system_id":"levelo_inurba_marseille","lat":43.2603,"lon":5.37552,"is_reserved":false,"is_disabled":false,"rental_uris":{"android":"levelo://app?vid=52a824b5-b8cd-4be6-9520-0f0d3afa8774","ios":"levelo://app?vid=52a824b5-b8cd-4be6-9520-0f0d3afa8774"},"vehicle_type_id":"4","last_reported":1747577291,"current_range_meters":3600,"station_id":"ce4bhgh2rcd13ifvqfa0","pricing_plan_id":"cebpf4jnsgd1na2vs0mg"},{"bike_id":"9f874483-f01a-452a-823f-e9f2d2d5b5ad","system_id":"levelo_inurba_marseille","lat":43.27373,"lon":5.3625,"is_reserved":false,"is_disabled":false,"rental_uris":{"android":"levelo://app?vid=9f874483-f01a-452a-823f-e9f2d2d5b5ad","ios":"levelo://app?vid=9f874483-f01a-452a-823f-e9f2d2d5b5ad"},"vehicle_type_id":"4","last_reported":1747577291,"current_range_meters":3600,"station_id":"ce4bhbh2rcd13ifvqeo0","pricing_plan_id":"cebpf4jnsgd1na2vs0mg"},{"bike_id":"48a296bf-5e70-4d7c-a839-4c9a4b0f2c19","system_id":"levelo_inurba_marseille","lat":43.23188,"lon":5.39982,"is_reserved":false,"is_disabled":false,"rental_uris":{"android":"levelo://app?vid=48a296bf-5e70-4d7c-a839-4c9a4b0f2c19","ios":"levelo://app?vid=48a296bf-5e70-4d7c-a839-4c9a4b0f2c19"},"vehicle_type_id":"4","last_reported":1747577291,"current_range_meters":3200,"station_id":"ce4bhn12rcd13ifvqgqg","pricing_plan_id":"cebpf4jnsgd1na2vs0mg"},{"bike_id":"d9b45202-b9c0-4a9b-b98d-b454f694a8b7","system_id":"levelo_inurba_marseille","lat":43.29586,"lon":5.37518,"is_reserved":false,"is_disabled":false,"rental_uris":{"android":"levelo://app?vid=d9b45202-b9c0-4a9b-b98d-b454f694a8b7","ios":"levelo://app?vid=d9b45202-b9c0-4a9b-b98d-b454f694a8b7"},"vehicle_type_id":"4","last_reported":1747577291,"current_range_meters":3600,"station_id":"ce4bgh92rcd13ifvqb50","pricing_plan_id":"cebpf4jnsgd1na2vs0mg"},{"bike_id":"5e6dca69-a85d-420e-8cb0-d5fe5bbc06a9","system_id":"levelo_inurba_marseille","lat":43.24183,"lon":5.39729,"is_reserved":false,"is_disabled":false,"rental_uris":{"android":"levelo://app?vid=5e6dca69-a85d-420e-8cb0-d5fe5bbc06a9","ios":"levelo://app?vid=5e6dca69-a85d-420e-8cb0-d5fe5bbc06a9"},"vehicle_type_id":"4","last_reported":1747577291,"current_range_meters":4000,"station_id":"ce4bhn12rcd13ifvqgpg","pricing_plan_id":"cebpf4jnsgd1na2vs0mg"},{"bike_id":"3b843dca-d67a-4b0e-916b-710ebb36ec6d","system_id":"levelo_inurba_marseille","lat":43.32513,"lon":5.40134,"is_reserved":false,"is_disabled":false,"rental_uris":{"android":"levelo://app?vid=3b843dca-d67a-4b0e-916b-710ebb36ec6d","ios":"levelo://app?vid=3b843dca-d67a-4b0e-916b-710ebb36ec6d"},"vehicle_type_id":"4","last_reported":1747577291,"current_range_meters":4000,"station_id":"","pricing_plan_id":"cebpf4jnsgd1na2vs0mg"},{"bike_id":"1e5a7839-d218-47a9-988d-f5fdcdfa5acb","system_id":"levelo_inurba_marseille","lat":43.258246,"lon":5.394366,"is_reserved":false,"is_disabled":false,"rental_uris":{"android":"levelo://app?vid=1e5a7839-d218-47a9-988d-f5fdcdfa5acb","ios":"levelo://app?vid=1e5a7839-d218-47a9-988d-f5fdcdfa5acb"},"vehicle_type_id":"4","last_reported":1747577291,"current_range_meters":4000,"station_id":"ce4bhip2rcd13ifvqft0","pricing_plan_id":"cebpf4jnsgd1na2vs0mg"},{"bike_id":"c73f739a-86cb-4a2b-9e3c-afaf87fa23a6","system_id":"levelo_inurba_marseille","lat":43.25494,"lon":5.37646,"is_reserved":false,"is_disabled":false,"rental_uris":{"android":"levelo://app?vid=c73f739a-86cb-4a2b-9e3c-afaf87fa23a6","ios":"levelo://app?vid=c73f739a-86cb-4a2b-9e3c-afaf87fa23a6"},"vehicle_type_id":"4","last_reported":1747577291,"current_range_meters":4000,"station_id":"ce4bhh12rcd13ifvqff0","pricing_plan_id":"cebpf4jnsgd1na2vs0mg"},{"bike_id":"edf48009-4591-46ff-a9c5-1d45ef3b5136","system_id":"levelo_inurba_marseille","lat":43.29271,"lon":5.3843,"is_reserved":false,"is_disabled":false,"rental_uris":{"android":"levelo://app?vid=edf48009-4591-46ff-a9c5-1d45ef3b5136","ios":"levelo://app?vid=edf48009-4591-46ff-a9c5-1d45ef3b5136"},"vehicle_type_id":"4","last_reported":1747577291,"current_range_meters":4000,"station_id":"ce4bh692rcd13ifvqea0","pricing_plan_id":"cebpf4jnsgd1na2vs0mg"},{"bike_id":"e0f6abfe-da12-4f0f-b915-42794f83d293","system_id":"levelo_inurba_marseille","lat":43.25507,"lon":5.37643,"is_reserved":false,"is_disabled":false,"rental_uris":{"android":"levelo://app?vid=e0f6abfe-da12-4f0f-b915-42794f83d293","ios":"levelo://app?vid=e0f6abfe-da12-4f0f-b915-42794f83d293"},"vehicle_type_id":"4","last_reported":1747577291,"current_range_meters":4000,"station_id":"ce4bhh12rcd13ifvqff0","pricing_plan_id":"cebpf4jnsgd1na2vs0mg"},{"bike_id":"3ccbfe66-d846-448d-b373-d43c1aac454b","system_id":"levelo_inurba_marseille","lat":43.28413,"lon":5.34992,"is_reserved":false,"is_disabled":false,"rental_uris":{"android":"levelo://app?vid=3ccbfe66-d846-448d-b373-d43c1aac454b","ios":"levelo://app?vid=3ccbfe66-d846-448d-b373-d43c1aac454b"},"vehicle_type_id":"4","last_reported":1747577291,"current_range_meters":4000,"station_id":"ce4bhbh2rcd13ifvqepg","pricing_plan_id":"cebpf4jnsgd1na2vs0mg"},{"bike_id":"bbda5443-72b0-478a-aaad-922de1a84bda","system_id":"levelo_inurba_marseille","lat":43.231478,"lon":5.437024,"is_reserved":false,"is_disabled":false,"rental_uris":{"android":"levelo://app?vid=bbda5443-72b0-478a-aaad-922de1a84bda","ios":"levelo://app?vid=bbda5443-72b0-478a-aaad-922de1a84bda"},"vehicle_type_id":"4","last_reported":1747577291,"current_range_meters":4000,"station_id":"ce4bhmp2rcd13ifvqgog","pricing_plan_id":"cebpf4jnsgd1na2vs0mg"},{"bike_id":"d8aaa4e8-bab4-4435-9b4b-bdd39e5d1bea","system_id":"levelo_inurba_marseille","lat":43.2417,"lon":5.36393,"is_reserved":false,"is_disabled":false,"rental_uris":{"android":"levelo://app?vid=d8aaa4e8-bab4-4435-9b4b-bdd39e5d1bea","ios":"levelo://app?vid=d8aaa4e8-bab4-4435-9b4b-bdd39e5d1bea"},"vehicle_type_id":"4","last_reported":1747577291,"current_range_meters":4400,"station_id":"cpo36qri1sfpv3e86is0","pricing_plan_id":"cebpf4jnsgd1na2vs0mg"},{"bike_id":"23b586d2-457c-4783-8838-e431e899dc73","system_id":"levelo_inurba_marseille","lat":43.30871,"lon":5.36833,"is_reserved":false,"is_disabled":false,"rental_uris":{"android":"levelo://app?vid=23b586d2-457c-4783-8838-e431e899dc73","ios":"levelo://app?vid=23b586d2-457c-4783-8838-e431e899dc73"},"vehicle_type_id":"4","last_reported":1747577291,"current_range_meters":4400,"station_id":"ce4bgn92rcd13ifvqbvg","pricing_plan_id":"cebpf4jnsgd1na2vs0mg"},{"bike_id":"be98142e-ab99-4f68-b04a-ff2165061bb2","system_id":"levelo_inurba_marseille","lat":43.269547,"lon":5.386288,"is_reserved":false,"is_disabled":true,"rental_uris":{"android":"levelo://app?vid=be98142e-ab99-4f68-b04a-ff2165061bb2","ios":"levelo://app?vid=be98142e-ab99-4f68-b04a-ff2165061bb2"},"vehicle_type_id":"4","last_reported":1747577291,"current_range_meters":4400,"station_id":"ce4bhh92rcd13ifvqfh0","pricing_plan_id":"cebpf4jnsgd1na2vs0mg"},{"bike_id":"89e214a0-97b6-4795-8d6c-274f2fb7f103","system_id":"levelo_inurba_marseille","lat":43.282651,"lon":5.350643,"is_reserved":false,"is_disabled":false,"rental_uris":{"android":"levelo://app?vid=89e214a0-97b6-4795-8d6c-274f2fb7f103","ios":"levelo://app?vid=89e214a0-97b6-4795-8d6c-274f2fb7f103"},"vehicle_type_id":"4","last_reported":1747577291,"current_range_meters":4800,"station_id":"ce4bhb12rcd13ifvqel0","pricing_plan_id":"cebpf4jnsgd1na2vs0mg"},{"bike_id":"e14f7575-b29c-4546-8e86-70adba1d14c6","system_id":"levelo_inurba_marseille","lat":43.337444,"lon":5.374475,"is_reserved":false,"is_disabled":true,"rental_uris":{"android":"levelo://app?vid=e14f7575-b29c-4546-8e86-70adba1d14c6","ios":"levelo://app?vid=e14f7575-b29c-4546-8e86-70adba1d14c6"},"vehicle_type_id":"4","last_reported":1747577291,"current_range_meters":4800,"station_id":"","pricing_plan_id":"cebpf4jnsgd1na2vs0mg"},{"bike_id":"aa1d8c1e-7594-4615-aa13-56fdebb973d7","system_id":"levelo_inurba_marseille","lat":43.268812,"lon":5.391762,"is_reserved":false,"is_disabled":false,"rental_uris":{"android":"levelo://app?vid=aa1d8c1e-7594-4615-aa13-56fdebb973d7","ios":"levelo://app?vid=aa1d8c1e-7594-4615-aa13-56fdebb973d7"},"vehicle_type_id":"4","last_reported":1747577291,"current_range_meters":4800,"station_id":"","pricing_plan_id":"cebpf4jnsgd1na2vs0mg"},{"bike_id":"4dfe14a9-26a5-45ce-9581-33aaaa4fb68a","system_id":"levelo_inurba_marseille","lat":43.27377,"lon":5.3626,"is_reserved":false,"is_disabled":false,"rental_uris":{"android":"levelo://app?vid=4dfe14a9-26a5-45ce-9581-33aaaa4fb68a","ios":"levelo://app?vid=4dfe14a9-26a5-45ce-9581-33aaaa4fb68a"},"vehicle_type_id":"4","last_reported":1747577291,"current_range_meters":4800,"station_id":"ce4bhbh2rcd13ifvqeo0","pricing_plan_id":"cebpf4jnsgd1na2vs0mg"},{"bike_id":"9336db23-c324-4a42-ae25-502bafafbd7a","system_id":"levelo_inurba_marseille","lat":43.29878,"lon":5.43728,"is_reserved":false,"is_disabled":false,"rental_uris":{"android":"levelo://app?vid=9336db23-c324-4a42-ae25-502bafafbd7a","ios":"levelo://app?vid=9336db23-c324-4a42-ae25-502bafafbd7a"},"vehicle_type_id":"4","last_reported":1747577291,"current_range_meters":5600,"station_id":"","pricing_plan_id":"cebpf4jnsgd1na2vs0mg"},{"bike_id":"e5013baf-c7d0-4bd2-b1c5-b16df7134711","system_id":"levelo_inurba_marseille","lat":43.27066,"lon":5.42279,"is_reserved":false,"is_disabled":false,"rental_uris":{"android":"levelo://app?vid=e5013baf-c7d0-4bd2-b1c5-b16df7134711","ios":"levelo://app?vid=e5013baf-c7d0-4bd2-b1c5-b16df7134711"},"vehicle_type_id":"4","last_reported":1747577291,"current_range_meters":5600,"station_id":"ce4bhk92rcd13ifvqgb0","pricing_plan_id":"cebpf4jnsgd1na2vs0mg"},{"bike_id":"75d324fc-fceb-4d39-a390-d827316a5ca8","system_id":"levelo_inurba_marseille","lat":43.2862,"lon":5.35099,"is_reserved":false,"is_disabled":false,"rental_uris":{"android":"levelo://app?vid=75d324fc-fceb-4d39-a390-d827316a5ca8","ios":"levelo://app?vid=75d324fc-fceb-4d39-a390-d827316a5ca8"},"vehicle_type_id":"4","last_reported":1747577291,"current_range_meters":5600,"station_id":"ce4bhch2rcd13ifvqeug","pricing_plan_id":"cebpf4jnsgd1na2vs0mg"},{"bike_id":"9d65cea5-cab0-49b5-9ab1-9e92b9f921b2","system_id":"levelo_inurba_marseille","lat":43.26556,"lon":5.37281,"is_reserved":false,"is_disabled":false,"rental_uris":{"android":"levelo://app?vid=9d65cea5-cab0-49b5-9ab1-9e92b9f921b2","ios":"levelo://app?vid=9d65cea5-cab0-49b5-9ab1-9e92b9f921b2"},"vehicle_type_id":"4","last_reported":1747577291,"current_range_meters":6000,"station_id":"ce4bhg12rcd13ifvqf70","pricing_plan_id":"cebpf4jnsgd1na2vs0mg"},{"bike_id":"55fb771a-6e76-45c4-a9b7-cda97a0011d0","system_id":"levelo_inurba_marseille","lat":43.28753,"lon":5.38283,"is_reserved":false,"is_disabled":false,"rental_uris":{"android":"levelo://app?vid=55fb771a-6e76-45c4-a9b7-cda97a0011d0","ios":"levelo://app?vid=55fb771a-6e76-45c4-a9b7-cda97a0011d0"},"vehicle_type_id":"4","last_reported":1747577291,"current_range_meters":6000,"station_id":"","pricing_plan_id":"cebpf4jnsgd1na2vs0mg"},{"bike_id":"ec4c3943-48e5-4a96-9aa5-1d0816726782","system_id":"levelo_inurba_marseille","lat":43.280861,"lon":5.396564,"is_reserved":false,"is_disabled":false,"rental_uris":{"android":"levelo://app?vid=ec4c3943-48e5-4a96-9aa5-1d0816726782","ios":"levelo://app?vid=ec4c3943-48e5-4a96-9aa5-1d0816726782"},"vehicle_type_id":"4","last_reported":1747577291,"current_range_meters":5600,"station_id":"ce4bho12rcd13ifvqh2g","pricing_plan_id":"cebpf4jnsgd1na2vs0mg"},{"bike_id":"ae0fea53-ab0f-4e92-acf4-8a443729fb5e","system_id":"levelo_inurba_marseille","lat":43.23191,"lon":5.35556,"is_reserved":false,"is_disabled":false,"rental_uris":{"android":"levelo://app?vid=ae0fea53-ab0f-4e92-acf4-8a443729fb5e","ios":"levelo://app?vid=ae0fea53-ab0f-4e92-acf4-8a443729fb5e"},"vehicle_type_id":"4","last_reported":1747577291,"current_range_meters":6000,"station_id":"ce4bhu92rcd13ifvqi70","pricing_plan_id":"cebpf4jnsgd1na2vs0mg"},{"bike_id":"2738a579-996c-4eec-8da2-c50695c073cb","system_id":"levelo_inurba_marseille","lat":43.2315,"lon":5.43719,"is_reserved":false,"is_disabled":false,"rental_uris":{"android":"levelo://app?vid=2738a579-996c-4eec-8da2-c50695c073cb","ios":"levelo://app?vid=2738a579-996c-4eec-8da2-c50695c073cb"},"vehicle_type_id":"4","last_reported":1747577291,"current_range_meters":6400,"station_id":"ce4bhmp2rcd13ifvqgog","pricing_plan_id":"cebpf4jnsgd1na2vs0mg"},{"bike_id":"e0fe735b-2325-4a0c-9f0a-2132c368830d","system_id":"levelo_inurba_marseille","lat":43.29041,"lon":5.39953,"is_reserved":false,"is_disabled":true,"rental_uris":{"android":"levelo://app?vid=e0fe735b-2325-4a0c-9f0a-2132c368830d","ios":"levelo://app?vid=e0fe735b-2325-4a0c-9f0a-2132c368830d"},"vehicle_type_id":"4","last_reported":1747577291,"current_range_meters":6400,"station_id":"ce4bh392rcd13ifvqdm0","pricing_plan_id":"cebpf4jnsgd1na2vs0mg"},{"bike_id":"b93c1a98-648b-4586-9d51-14d3bc483664","system_id":"levelo_inurba_marseille","lat":43.26033,"lon":5.37545,"is_reserved":false,"is_disabled":false,"rental_uris":{"android":"levelo://app?vid=b93c1a98-648b-4586-9d51-14d3bc483664","ios":"levelo://app?vid=b93c1a98-648b-4586-9d51-14d3bc483664"},"vehicle_type_id":"4","last_reported":1747577291,"current_range_meters":6000,"station_id":"ce4bhgh2rcd13ifvqfa0","pricing_plan_id":"cebpf4jnsgd1na2vs0mg"},{"bike_id":"6d9c5370-0d59-4ff4-b411-5ebc3316651a","system_id":"levelo_inurba_marseille","lat":43.2551,"lon":5.3764,"is_reserved":false,"is_disabled":false,"rental_uris":{"android":"levelo://app?vid=6d9c5370-0d59-4ff4-b411-5ebc3316651a","ios":"levelo://app?vid=6d9c5370-0d59-4ff4-b411-5ebc3316651a"},"vehicle_type_id":"4","last_reported":1747577291,"current_range_meters":6400,"station_id":"ce4bhh12rcd13ifvqff0","pricing_plan_id":"cebpf4jnsgd1na2vs0mg"},{"bike_id":"9c7dea60-91cb-4f9b-a74a-b12caba05a4c","system_id":"levelo_inurba_marseille","lat":43.24387,"lon":5.37047,"is_reserved":false,"is_disabled":false,"rental_uris":{"android":"levelo://app?vid=9c7dea60-91cb-4f9b-a74a-b12caba05a4c","ios":"levelo://app?vid=9c7dea60-91cb-4f9b-a74a-b12caba05a4c"},"vehicle_type_id":"4","last_reported":1747577291,"current_range_meters":6400,"station_id":"ce4bhhh2rcd13ifvqfk0","pricing_plan_id":"cebpf4jnsgd1na2vs0mg"},{"bike_id":"8cfc1be5-63bd-471f-a417-7e37abdb3f9d","system_id":"levelo_inurba_marseille","lat":43.232,"lon":5.35545,"is_reserved":false,"is_disabled":false,"rental_uris":{"android":"levelo://app?vid=8cfc1be5-63bd-471f-a417-7e37abdb3f9d","ios":"levelo://app?vid=8cfc1be5-63bd-471f-a417-7e37abdb3f9d"},"vehicle_type_id":"4","last_reported":1747577291,"current_range_meters":6400,"station_id":"ce4bhu92rcd13ifvqi70","pricing_plan_id":"cebpf4jnsgd1na2vs0mg"},{"bike_id":"698c00d0-9d04-474a-9aca-cd5b8e8cadcb","system_id":"levelo_inurba_marseille","lat":43.26554,"lon":5.37278,"is_reserved":false,"is_disabled":false,"rental_uris":{"android":"levelo://app?vid=698c00d0-9d04-474a-9aca-cd5b8e8cadcb","ios":"levelo://app?vid=698c00d0-9d04-474a-9aca-cd5b8e8cadcb"},"vehicle_type_id":"4","last_reported":1747577291,"current_range_meters":6400,"station_id":"ce4bhg12rcd13ifvqf70","pricing_plan_id":"cebpf4jnsgd1na2vs0mg"},{"bike_id":"bb46572d-f9f3-40b8-8b52-3fc46cc1934b","system_id":"levelo_inurba_marseille","lat":43.27174,"lon":5.40991,"is_reserved":false,"is_disabled":false,"rental_uris":{"android":"levelo://app?vid=bb46572d-f9f3-40b8-8b52-3fc46cc1934b","ios":"levelo://app?vid=bb46572d-f9f3-40b8-8b52-3fc46cc1934b"},"vehicle_type_id":"4","last_reported":1747577291,"current_range_meters":6000,"station_id":"ce4bhl12rcd13ifvqgf0","pricing_plan_id":"cebpf4jnsgd1na2vs0mg"},{"bike_id":"44cde2a2-ca4a-4d32-a7af-7e56aa09810a","system_id":"levelo_inurba_marseille","lat":43.27375,"lon":5.36255,"is_reserved":false,"is_disabled":false,"rental_uris":{"android":"levelo://app?vid=44cde2a2-ca4a-4d32-a7af-7e56aa09810a","ios":"levelo://app?vid=44cde2a2-ca4a-4d32-a7af-7e56aa09810a"},"vehicle_type_id":"4","last_reported":1747577291,"current_range_meters":6800,"station_id":"ce4bhbh2rcd13ifvqeo0","pricing_plan_id":"cebpf4jnsgd1na2vs0mg"},{"bike_id":"b8e6468b-87db-4ff6-8122-ef13bf5b7c8c","system_id":"levelo_inurba_marseille","lat":43.31379,"lon":5.37916,"is_reserved":false,"is_disabled":false,"rental_uris":{"android":"levelo://app?vid=b8e6468b-87db-4ff6-8122-ef13bf5b7c8c","ios":"levelo://app?vid=b8e6468b-87db-4ff6-8122-ef13bf5b7c8c"},"vehicle_type_id":"4","last_reported":1747577291,"current_range_meters":6800,"station_id":"","pricing_plan_id":"cebpf4jnsgd1na2vs0mg"},{"bike_id":"e9628834-5e18-46be-8aa9-407979706faf","system_id":"levelo_inurba_marseille","lat":43.28274,"lon":5.35025,"is_reserved":false,"is_disabled":false,"rental_uris":{"android":"levelo://app?vid=e9628834-5e18-46be-8aa9-407979706faf","ios":"levelo://app?vid=e9628834-5e18-46be-8aa9-407979706faf"},"vehicle_type_id":"4","last_reported":1747577291,"current_range_meters":6800,"station_id":"ce4bhbp2rcd13ifvqerg","pricing_plan_id":"cebpf4jnsgd1na2vs0mg"},{"bike_id":"78726267-d475-4e2a-a282-696206202766","system_id":"levelo_inurba_marseille","lat":43.28159,"lon":5.42639,"is_reserved":false,"is_disabled":false,"rental_uris":{"android":"levelo://app?vid=78726267-d475-4e2a-a282-696206202766","ios":"levelo://app?vid=78726267-d475-4e2a-a282-696206202766"},"vehicle_type_id":"4","last_reported":1747577291,"current_range_meters":6800,"station_id":"ce4bhnh2rcd13ifvqgug","pricing_plan_id":"cebpf4jnsgd1na2vs0mg"},{"bike_id":"21aa43e2-5e10-4885-8a8b-05e251b475da","system_id":"levelo_inurba_marseille","lat":43.25826,"lon":5.39421,"is_reserved":false,"is_disabled":false,"rental_uris":{"android":"levelo://app?vid=21aa43e2-5e10-4885-8a8b-05e251b475da","ios":"levelo://app?vid=21aa43e2-5e10-4885-8a8b-05e251b475da"},"vehicle_type_id":"4","last_reported":1747577291,"current_range_meters":6800,"station_id":"ce4bhip2rcd13ifvqft0","pricing_plan_id":"cebpf4jnsgd1na2vs0mg"},{"bike_id":"af2f3908-848e-4879-9c80-b3ddea1b7f0a","system_id":"levelo_inurba_marseille","lat":43.312007,"lon":5.38797,"is_reserved":false,"is_disabled":true,"rental_uris":{"android":"levelo://app?vid=af2f3908-848e-4879-9c80-b3ddea1b7f0a","ios":"levelo://app?vid=af2f3908-848e-4879-9c80-b3ddea1b7f0a"},"vehicle_type_id":"4","last_reported":1747577291,"current_range_meters":6800,"station_id":"","pricing_plan_id":"cebpf4jnsgd1na2vs0mg"},{"bike_id":"75319cac-aa00-4ecc-b35b-dbe08e84b902","system_id":"levelo_inurba_marseille","lat":43.29008,"lon":5.35616,"is_reserved":false,"is_disabled":false,"rental_uris":{"android":"levelo://app?vid=75319cac-aa00-4ecc-b35b-dbe08e84b902","ios":"levelo://app?vid=75319cac-aa00-4ecc-b35b-dbe08e84b902"},"vehicle_type_id":"4","last_reported":1747577291,"current_range_meters":6800,"station_id":"ce4bhb92rcd13ifvqen0","pricing_plan_id":"cebpf4jnsgd1na2vs0mg"},{"bike_id":"3e073325-7c74-4b6c-b0bd-9716d89c3c37","system_id":"levelo_inurba_marseille","lat":43.265567,"lon":5.37288,"is_reserved":false,"is_disabled":false,"rental_uris":{"android":"levelo://app?vid=3e073325-7c74-4b6c-b0bd-9716d89c3c37","ios":"levelo://app?vid=3e073325-7c74-4b6c-b0bd-9716d89c3c37"},"vehicle_type_id":"4","last_reported":1747577291,"current_range_meters":6800,"station_id":"ce4bhg12rcd13ifvqf70","pricing_plan_id":"cebpf4jnsgd1na2vs0mg"},{"bike_id":"7894838d-c095-45c9-9b62-7fc118fe6453","system_id":"levelo_inurba_marseille","lat":43.27366,"lon":5.36255,"is_reserved":false,"is_disabled":false,"rental_uris":{"android":"levelo://app?vid=7894838d-c095-45c9-9b62-7fc118fe6453","ios":"levelo://app?vid=7894838d-c095-45c9-9b62-7fc118fe6453"},"vehicle_type_id":"4","last_reported":1747577291,"current_range_meters":6800,"station_id":"ce4bhbh2rcd13ifvqeo0","pricing_plan_id":"cebpf4jnsgd1na2vs0mg"},{"bike_id":"90b91ec4-9295-4740-af77-f3512896ed17","system_id":"levelo_inurba_marseille","lat":43.27376,"lon":5.3625,"is_reserved":false,"is_disabled":false,"rental_uris":{"android":"levelo://app?vid=90b91ec4-9295-4740-af77-f3512896ed17","ios":"levelo://app?vid=90b91ec4-9295-4740-af77-f3512896ed17"},"vehicle_type_id":"4","last_reported":1747577291,"current_range_meters":7200,"station_id":"ce4bhbh2rcd13ifvqeo0","pricing_plan_id":"cebpf4jnsgd1na2vs0mg"},{"bike_id":"1eb1573f-4cbd-4b2b-a5aa-d52eb894936b","system_id":"levelo_inurba_marseille","lat":43.25503,"lon":5.376483,"is_reserved":false,"is_disabled":false,"rental_uris":{"android":"levelo://app?vid=1eb1573f-4cbd-4b2b-a5aa-d52eb894936b","ios":"levelo://app?vid=1eb1573f-4cbd-4b2b-a5aa-d52eb894936b"},"vehicle_type_id":"4","last_reported":1747577291,"current_range_meters":7200,"station_id":"ce4bhh12rcd13ifvqff0","pricing_plan_id":"cebpf4jnsgd1na2vs0mg"},{"bike_id":"cdfb4351-aaad-47d6-bdff-ee83c6c51072","system_id":"levelo_inurba_marseille","lat":43.2783,"lon":5.40705,"is_reserved":false,"is_disabled":false,"rental_uris":{"android":"levelo://app?vid=cdfb4351-aaad-47d6-bdff-ee83c6c51072","ios":"levelo://app?vid=cdfb4351-aaad-47d6-bdff-ee83c6c51072"},"vehicle_type_id":"4","last_reported":1747577291,"current_range_meters":6400,"station_id":"ce4bhnh2rcd13ifvqgtg","pricing_plan_id":"cebpf4jnsgd1na2vs0mg"},{"bike_id":"e90417b2-876f-4f76-9ecd-6e93f554b360","system_id":"levelo_inurba_marseille","lat":43.24807,"lon":5.37454,"is_reserved":false,"is_disabled":false,"rental_uris":{"android":"levelo://app?vid=e90417b2-876f-4f76-9ecd-6e93f554b360","ios":"levelo://app?vid=e90417b2-876f-4f76-9ecd-6e93f554b360"},"vehicle_type_id":"4","last_reported":1747577291,"current_range_meters":6800,"station_id":"ce4bhgh2rcd13ifvqfb0","pricing_plan_id":"cebpf4jnsgd1na2vs0mg"},{"bike_id":"bfd42ff6-1eff-4297-b782-460fc37fe698","system_id":"levelo_inurba_marseille","lat":43.28274,"lon":5.35076,"is_reserved":false,"is_disabled":false,"rental_uris":{"android":"levelo://app?vid=bfd42ff6-1eff-4297-b782-460fc37fe698","ios":"levelo://app?vid=bfd42ff6-1eff-4297-b782-460fc37fe698"},"vehicle_type_id":"4","last_reported":1747577291,"current_range_meters":7200,"station_id":"ce4bhbp2rcd13ifvqerg","pricing_plan_id":"cebpf4jnsgd1na2vs0mg"},{"bike_id":"79bb078b-7209-4bd4-978e-f68ace0406d0","system_id":"levelo_inurba_marseille","lat":43.29032,"lon":5.3865,"is_reserved":false,"is_disabled":true,"rental_uris":{"android":"levelo://app?vid=79bb078b-7209-4bd4-978e-f68ace0406d0","ios":"levelo://app?vid=79bb078b-7209-4bd4-978e-f68ace0406d0"},"vehicle_type_id":"4","last_reported":1747577291,"current_range_meters":7200,"station_id":"ce4bh4p2rcd13ifvqe0g","pricing_plan_id":"cebpf4jnsgd1na2vs0mg"},{"bike_id":"81c659b6-3a02-46e7-a46f-d340746ad32e","system_id":"levelo_inurba_marseille","lat":43.27386,"lon":5.36257,"is_reserved":false,"is_disabled":true,"rental_uris":{"android":"levelo://app?vid=81c659b6-3a02-46e7-a46f-d340746ad32e","ios":"levelo://app?vid=81c659b6-3a02-46e7-a46f-d340746ad32e"},"vehicle_type_id":"4","last_reported":1747577291,"current_range_meters":7200,"station_id":"ce4bhbh2rcd13ifvqeo0","pricing_plan_id":"cebpf4jnsgd1na2vs0mg"},{"bike_id":"6324812e-8688-49c5-8e61-ad983c518511","system_id":"levelo_inurba_marseille","lat":43.24393,"lon":5.37054,"is_reserved":false,"is_disabled":false,"rental_uris":{"android":"levelo://app?vid=6324812e-8688-49c5-8e61-ad983c518511","ios":"levelo://app?vid=6324812e-8688-49c5-8e61-ad983c518511"},"vehicle_type_id":"4","last_reported":1747577291,"current_range_meters":7200,"station_id":"ce4bhhh2rcd13ifvqfk0","pricing_plan_id":"cebpf4jnsgd1na2vs0mg"},{"bike_id":"5cdd30ae-b6bf-4bfb-b908-b12c51c210fe","system_id":"levelo_inurba_marseille","lat":43.23967,"lon":5.36631,"is_reserved":false,"is_disabled":false,"rental_uris":{"android":"levelo://app?vid=5cdd30ae-b6bf-4bfb-b908-b12c51c210fe","ios":"levelo://app?vid=5cdd30ae-b6bf-4bfb-b908-b12c51c210fe"},"vehicle_type_id":"4","last_reported":1747577291,"current_range_meters":8000,"station_id":"ce4bhi12rcd13ifvqfp0","pricing_plan_id":"cebpf4jnsgd1na2vs0mg"},{"bike_id":"e8674f41-aef5-4de8-8e66-fc11a41ad1a2","system_id":"levelo_inurba_marseille","lat":43.22506,"lon":5.34773,"is_reserved":false,"is_disabled":false,"rental_uris":{"android":"levelo://app?vid=e8674f41-aef5-4de8-8e66-fc11a41ad1a2","ios":"levelo://app?vid=e8674f41-aef5-4de8-8e66-fc11a41ad1a2"},"vehicle_type_id":"4","last_reported":1747577291,"current_range_meters":8000,"station_id":"st_cvj5dfep6f1abm77gieg","pricing_plan_id":"cebpf4jnsgd1na2vs0mg"},{"bike_id":"316f9168-9490-408b-a310-494034b1a3a8","system_id":"levelo_inurba_marseille","lat":43.23191,"lon":5.35549,"is_reserved":false,"is_disabled":false,"rental_uris":{"android":"levelo://app?vid=316f9168-9490-408b-a310-494034b1a3a8","ios":"levelo://app?vid=316f9168-9490-408b-a310-494034b1a3a8"},"vehicle_type_id":"4","last_reported":1747577291,"current_range_meters":8000,"station_id":"ce4bhu92rcd13ifvqi70","pricing_plan_id":"cebpf4jnsgd1na2vs0mg"},{"bike_id":"e923dbd6-7fbe-4adf-ae6a-7bbfc0254dbd","system_id":"levelo_inurba_marseille","lat":43.29971,"lon":5.38491,"is_reserved":false,"is_disabled":false,"rental_uris":{"android":"levelo://app?vid=e923dbd6-7fbe-4adf-ae6a-7bbfc0254dbd","ios":"levelo://app?vid=e923dbd6-7fbe-4adf-ae6a-7bbfc0254dbd"},"vehicle_type_id":"4","last_reported":1747577291,"current_range_meters":7200,"station_id":"ce4bgj92rcd13ifvqbd0","pricing_plan_id":"cebpf4jnsgd1na2vs0mg"},{"bike_id":"cff74bc7-26a0-4e70-9e3b-f52395cdab58","system_id":"levelo_inurba_marseille","lat":43.25825,"lon":5.39435,"is_reserved":false,"is_disabled":false,"rental_uris":{"android":"levelo://app?vid=cff74bc7-26a0-4e70-9e3b-f52395cdab58","ios":"levelo://app?vid=cff74bc7-26a0-4e70-9e3b-f52395cdab58"},"vehicle_type_id":"4","last_reported":1747577291,"current_range_meters":8000,"station_id":"ce4bhip2rcd13ifvqft0","pricing_plan_id":"cebpf4jnsgd1na2vs0mg"},{"bike_id":"8302367a-8971-4d24-92b7-80573c4c2dd6","system_id":"levelo_inurba_marseille","lat":43.23956,"lon":5.36651,"is_reserved":false,"is_disabled":false,"rental_uris":{"android":"levelo://app?vid=8302367a-8971-4d24-92b7-80573c4c2dd6","ios":"levelo://app?vid=8302367a-8971-4d24-92b7-80573c4c2dd6"},"vehicle_type_id":"4","last_reported":1747577291,"current_range_meters":8000,"station_id":"ce4bhi12rcd13ifvqfp0","pricing_plan_id":"cebpf4jnsgd1na2vs0mg"},{"bike_id":"cc987898-b7f6-485f-b5c3-80ab5ff99a0f","system_id":"levelo_inurba_marseille","lat":43.31086,"lon":5.42424,"is_reserved":false,"is_disabled":false,"rental_uris":{"android":"levelo://app?vid=cc987898-b7f6-485f-b5c3-80ab5ff99a0f","ios":"levelo://app?vid=cc987898-b7f6-485f-b5c3-80ab5ff99a0f"},"vehicle_type_id":"4","last_reported":1747577291,"current_range_meters":8000,"station_id":"ce4bhp92rcd13ifvqhag","pricing_plan_id":"cebpf4jnsgd1na2vs0mg"},{"bike_id":"076f3ca4-1818-4895-aab6-bce6e732fe32","system_id":"levelo_inurba_marseille","lat":43.30593,"lon":5.3935,"is_reserved":false,"is_disabled":false,"rental_uris":{"android":"levelo://app?vid=076f3ca4-1818-4895-aab6-bce6e732fe32","ios":"levelo://app?vid=076f3ca4-1818-4895-aab6-bce6e732fe32"},"vehicle_type_id":"4","last_reported":1747577291,"current_range_meters":8000,"station_id":"ce4bh0p2rcd13ifvqd80","pricing_plan_id":"cebpf4jnsgd1na2vs0mg"},{"bike_id":"f6c84f6b-a270-491f-aa6d-45c4175a32aa","system_id":"levelo_inurba_marseille","lat":43.24383,"lon":5.37056,"is_reserved":false,"is_disabled":false,"rental_uris":{"android":"levelo://app?vid=f6c84f6b-a270-491f-aa6d-45c4175a32aa","ios":"levelo://app?vid=f6c84f6b-a270-491f-aa6d-45c4175a32aa"},"vehicle_type_id":"4","last_reported":1747577291,"current_range_meters":8000,"station_id":"ce4bhhh2rcd13ifvqfk0","pricing_plan_id":"cebpf4jnsgd1na2vs0mg"},{"bike_id":"eb6ad0b5-8b6e-459c-a670-56152878be7b","system_id":"levelo_inurba_marseille","lat":43.240692,"lon":5.377634,"is_reserved":false,"is_disabled":false,"rental_uris":{"android":"levelo://app?vid=eb6ad0b5-8b6e-459c-a670-56152878be7b","ios":"levelo://app?vid=eb6ad0b5-8b6e-459c-a670-56152878be7b"},"vehicle_type_id":"4","last_reported":1747577291,"current_range_meters":8000,"station_id":"ce4bhnp2rcd13ifvqgvg","pricing_plan_id":"cebpf4jnsgd1na2vs0mg"},{"bike_id":"5cf16f92-b693-47c2-9e9c-211b074a5ed2","system_id":"levelo_inurba_marseille","lat":43.26554,"lon":5.37324,"is_reserved":false,"is_disabled":false,"rental_uris":{"android":"levelo://app?vid=5cf16f92-b693-47c2-9e9c-211b074a5ed2","ios":"levelo://app?vid=5cf16f92-b693-47c2-9e9c-211b074a5ed2"},"vehicle_type_id":"4","last_reported":1747577291,"current_range_meters":8000,"station_id":"ce4bhg12rcd13ifvqf70","pricing_plan_id":"cebpf4jnsgd1na2vs0mg"},{"bike_id":"98d7e015-5e62-4cfd-8699-316a172e4b18","system_id":"levelo_inurba_marseille","lat":43.261877,"lon":5.374613,"is_reserved":false,"is_disabled":true,"rental_uris":{"android":"levelo://app?vid=98d7e015-5e62-4cfd-8699-316a172e4b18","ios":"levelo://app?vid=98d7e015-5e62-4cfd-8699-316a172e4b18"},"vehicle_type_id":"4","last_reported":1747577291,"current_range_meters":8000,"station_id":"ce4bhgp2rcd13ifvqfc0","pricing_plan_id":"cebpf4jnsgd1na2vs0mg"},{"bike_id":"83165b7a-ad01-46a5-8e2a-a25ab6322963","system_id":"levelo_inurba_marseille","lat":43.27379,"lon":5.36253,"is_reserved":false,"is_disabled":false,"rental_uris":{"android":"levelo://app?vid=83165b7a-ad01-46a5-8e2a-a25ab6322963","ios":"levelo://app?vid=83165b7a-ad01-46a5-8e2a-a25ab6322963"},"vehicle_type_id":"4","last_reported":1747577291,"current_range_meters":8400,"station_id":"ce4bhbh2rcd13ifvqeo0","pricing_plan_id":"cebpf4jnsgd1na2vs0mg"},{"bike_id":"aa9446b4-e4c2-4e75-9648-971ccb772673","system_id":"levelo_inurba_marseille","lat":43.27492,"lon":5.42465,"is_reserved":false,"is_disabled":false,"rental_uris":{"android":"levelo://app?vid=aa9446b4-e4c2-4e75-9648-971ccb772673","ios":"levelo://app?vid=aa9446b4-e4c2-4e75-9648-971ccb772673"},"vehicle_type_id":"4","last_reported":1747577291,"current_range_meters":8400,"station_id":"ce4bhn92rcd13ifvqgrg","pricing_plan_id":"cebpf4jnsgd1na2vs0mg"},{"bike_id":"b934e6da-efb5-4ac5-a51a-eb50220f6e1b","system_id":"levelo_inurba_marseille","lat":43.26979,"lon":5.405863,"is_reserved":false,"is_disabled":true,"rental_uris":{"android":"levelo://app?vid=b934e6da-efb5-4ac5-a51a-eb50220f6e1b","ios":"levelo://app?vid=b934e6da-efb5-4ac5-a51a-eb50220f6e1b"},"vehicle_type_id":"4","last_reported":1747577291,"current_range_meters":8400,"station_id":"","pricing_plan_id":"cebpf4jnsgd1na2vs0mg"},{"bike_id":"c0db4030-ef30-480b-a735-af5435a471ed","system_id":"levelo_inurba_marseille","lat":43.27726,"lon":5.42683,"is_reserved":false,"is_disabled":false,"rental_uris":{"android":"levelo://app?vid=c0db4030-ef30-480b-a735-af5435a471ed","ios":"levelo://app?vid=c0db4030-ef30-480b-a735-af5435a471ed"},"vehicle_type_id":"4","last_reported":1747577291,"current_range_meters":8400,"station_id":"","pricing_plan_id":"cebpf4jnsgd1na2vs0mg"},{"bike_id":"9d8b2c79-3ca5-4f14-8ae6-6f43aeaa1f73","system_id":"levelo_inurba_marseille","lat":43.23194,"lon":5.35551,"is_reserved":false,"is_disabled":false,"rental_uris":{"android":"levelo://app?vid=9d8b2c79-3ca5-4f14-8ae6-6f43aeaa1f73","ios":"levelo://app?vid=9d8b2c79-3ca5-4f14-8ae6-6f43aeaa1f73"},"vehicle_type_id":"4","last_reported":1747577291,"current_range_meters":8400,"station_id":"ce4bhu92rcd13ifvqi70","pricing_plan_id":"cebpf4jnsgd1na2vs0mg"},{"bike_id":"dea534e6-7dfa-4a5c-88fc-55a949ba192d","system_id":"levelo_inurba_marseille","lat":43.25833,"lon":5.39434,"is_reserved":false,"is_disabled":false,"rental_uris":{"android":"levelo://app?vid=dea534e6-7dfa-4a5c-88fc-55a949ba192d","ios":"levelo://app?vid=dea534e6-7dfa-4a5c-88fc-55a949ba192d"},"vehicle_type_id":"4","last_reported":1747577291,"current_range_meters":8400,"station_id":"ce4bhip2rcd13ifvqft0","pricing_plan_id":"cebpf4jnsgd1na2vs0mg"},{"bike_id":"3e562258-9698-495a-8db5-0c0e2aafd080","system_id":"levelo_inurba_marseille","lat":43.27611,"lon":5.36124,"is_reserved":false,"is_disabled":false,"rental_uris":{"android":"levelo://app?vid=3e562258-9698-495a-8db5-0c0e2aafd080","ios":"levelo://app?vid=3e562258-9698-495a-8db5-0c0e2aafd080"},"vehicle_type_id":"4","last_reported":1747577291,"current_range_meters":8400,"station_id":"ce4bgj92rcd13ifvqbe0","pricing_plan_id":"cebpf4jnsgd1na2vs0mg"},{"bike_id":"4c33e9a2-0e5c-427f-a7cc-632c63a61d9d","system_id":"levelo_inurba_marseille","lat":43.283432,"lon":5.381048,"is_reserved":false,"is_disabled":true,"rental_uris":{"android":"levelo://app?vid=4c33e9a2-0e5c-427f-a7cc-632c63a61d9d","ios":"levelo://app?vid=4c33e9a2-0e5c-427f-a7cc-632c63a61d9d"},"vehicle_type_id":"4","last_reported":1747577291,"current_range_meters":8400,"station_id":"ce4bh412rcd13ifvqdr0","pricing_plan_id":"cebpf4jnsgd1na2vs0mg"},{"bike_id":"0b6ead29-5258-42dd-9e31-fc0bb2c81f0a","system_id":"levelo_inurba_marseille","lat":43.29371,"lon":5.37846,"is_reserved":false,"is_disabled":false,"rental_uris":{"android":"levelo://app?vid=0b6ead29-5258-42dd-9e31-fc0bb2c81f0a","ios":"levelo://app?vid=0b6ead29-5258-42dd-9e31-fc0bb2c81f0a"},"vehicle_type_id":"4","last_reported":1747577291,"current_range_meters":8000,"station_id":"ce4bgjh2rcd13ifvqbf0","pricing_plan_id":"cebpf4jnsgd1na2vs0mg"},{"bike_id":"6b849ac5-c25f-4393-bc5a-47493e693ba8","system_id":"levelo_inurba_marseille","lat":43.24173,"lon":5.36398,"is_reserved":false,"is_disabled":true,"rental_uris":{"android":"levelo://app?vid=6b849ac5-c25f-4393-bc5a-47493e693ba8","ios":"levelo://app?vid=6b849ac5-c25f-4393-bc5a-47493e693ba8"},"vehicle_type_id":"4","last_reported":1747577291,"current_range_meters":8400,"station_id":"cpo36qri1sfpv3e86is0","pricing_plan_id":"cebpf4jnsgd1na2vs0mg"},{"bike_id":"b903fb70-8b79-4641-9100-fb1b62cdd85d","system_id":"levelo_inurba_marseille","lat":43.255058,"lon":5.376477,"is_reserved":false,"is_disabled":false,"rental_uris":{"android":"levelo://app?vid=b903fb70-8b79-4641-9100-fb1b62cdd85d","ios":"levelo://app?vid=b903fb70-8b79-4641-9100-fb1b62cdd85d"},"vehicle_type_id":"4","last_reported":1747577291,"current_range_meters":8400,"station_id":"ce4bhh12rcd13ifvqff0","pricing_plan_id":"cebpf4jnsgd1na2vs0mg"},{"bike_id":"db980ced-3def-4fe2-b1ed-112341dbcba7","system_id":"levelo_inurba_marseille","lat":43.28988,"lon":5.37831,"is_reserved":false,"is_disabled":false,"rental_uris":{"android":"levelo://app?vid=db980ced-3def-4fe2-b1ed-112341dbcba7","ios":"levelo://app?vid=db980ced-3def-4fe2-b1ed-112341dbcba7"},"vehicle_type_id":"4","last_reported":1747577291,"current_range_meters":8000,"station_id":"","pricing_plan_id":"cebpf4jnsgd1na2vs0mg"},{"bike_id":"dafc67b8-7882-4d39-ad07-5970d7f9e569","system_id":"levelo_inurba_marseille","lat":43.24652,"lon":5.38898,"is_reserved":false,"is_disabled":false,"rental_uris":{"android":"levelo://app?vid=dafc67b8-7882-4d39-ad07-5970d7f9e569","ios":"levelo://app?vid=dafc67b8-7882-4d39-ad07-5970d7f9e569"},"vehicle_type_id":"4","last_reported":1747577291,"current_range_meters":8400,"station_id":"ce4bhg12rcd13ifvqf60","pricing_plan_id":"cebpf4jnsgd1na2vs0mg"},{"bike_id":"0fb02880-5c6e-4026-9e4a-07529c572b44","system_id":"levelo_inurba_marseille","lat":43.25489,"lon":5.37376,"is_reserved":false,"is_disabled":false,"rental_uris":{"android":"levelo://app?vid=0fb02880-5c6e-4026-9e4a-07529c572b44","ios":"levelo://app?vid=0fb02880-5c6e-4026-9e4a-07529c572b44"},"vehicle_type_id":"4","last_reported":1747577291,"current_range_meters":8800,"station_id":"","pricing_plan_id":"cebpf4jnsgd1na2vs0mg"},{"bike_id":"9be12a09-efe5-495b-8ec3-e7e0d7473370","system_id":"levelo_inurba_marseille","lat":43.29594,"lon":5.38097,"is_reserved":false,"is_disabled":true,"rental_uris":{"android":"levelo://app?vid=9be12a09-efe5-495b-8ec3-e7e0d7473370","ios":"levelo://app?vid=9be12a09-efe5-495b-8ec3-e7e0d7473370"},"vehicle_type_id":"4","last_reported":1747577291,"current_range_meters":8800,"station_id":"ce4bgl12rcd13ifvqbo0","pricing_plan_id":"cebpf4jnsgd1na2vs0mg"},{"bike_id":"16a5ba99-b8b8-470d-9bfb-0358e7b6fbc9","system_id":"levelo_inurba_marseille","lat":43.23204,"lon":5.35548,"is_reserved":false,"is_disabled":false,"rental_uris":{"android":"levelo://app?vid=16a5ba99-b8b8-470d-9bfb-0358e7b6fbc9","ios":"levelo://app?vid=16a5ba99-b8b8-470d-9bfb-0358e7b6fbc9"},"vehicle_type_id":"4","last_reported":1747577291,"current_range_meters":8800,"station_id":"ce4bhu92rcd13ifvqi70","pricing_plan_id":"cebpf4jnsgd1na2vs0mg"},{"bike_id":"b3441476-9e6c-4f72-9947-dd5d64a1b8bd","system_id":"levelo_inurba_marseille","lat":43.23049,"lon":5.35492,"is_reserved":false,"is_disabled":false,"rental_uris":{"android":"levelo://app?vid=b3441476-9e6c-4f72-9947-dd5d64a1b8bd","ios":"levelo://app?vid=b3441476-9e6c-4f72-9947-dd5d64a1b8bd"},"vehicle_type_id":"4","last_reported":1747577291,"current_range_meters":8800,"station_id":"cpo3342slgdg3j2ifvpg","pricing_plan_id":"cebpf4jnsgd1na2vs0mg"},{"bike_id":"a307851c-ec96-4ea3-bc9c-e5b8fc9f75a2","system_id":"levelo_inurba_marseille","lat":43.23187,"lon":5.35568,"is_reserved":false,"is_disabled":false,"rental_uris":{"android":"levelo://app?vid=a307851c-ec96-4ea3-bc9c-e5b8fc9f75a2","ios":"levelo://app?vid=a307851c-ec96-4ea3-bc9c-e5b8fc9f75a2"},"vehicle_type_id":"4","last_reported":1747577291,"current_range_meters":8800,"station_id":"ce4bhu92rcd13ifvqi70","pricing_plan_id":"cebpf4jnsgd1na2vs0mg"},{"bike_id":"9113b802-9904-40d3-94fa-94fb1c4954e4","system_id":"levelo_inurba_marseille","lat":43.29575,"lon":5.36739,"is_reserved":false,"is_disabled":false,"rental_uris":{"android":"levelo://app?vid=9113b802-9904-40d3-94fa-94fb1c4954e4","ios":"levelo://app?vid=9113b802-9904-40d3-94fa-94fb1c4954e4"},"vehicle_type_id":"4","last_reported":1747577291,"current_range_meters":8800,"station_id":"ce4bgph2rcd13ifvqc2g","pricing_plan_id":"cebpf4jnsgd1na2vs0mg"},{"bike_id":"8e6e4749-5dae-4c8f-98db-5bf2ebcbacd3","system_id":"levelo_inurba_marseille","lat":43.241645,"lon":5.363942,"is_reserved":false,"is_disabled":false,"rental_uris":{"android":"levelo://app?vid=8e6e4749-5dae-4c8f-98db-5bf2ebcbacd3","ios":"levelo://app?vid=8e6e4749-5dae-4c8f-98db-5bf2ebcbacd3"},"vehicle_type_id":"4","last_reported":1747577291,"current_range_meters":8800,"station_id":"cpo36qri1sfpv3e86is0","pricing_plan_id":"cebpf4jnsgd1na2vs0mg"},{"bike_id":"a9708a62-39bd-41ba-9f56-5d528effa682","system_id":"levelo_inurba_marseille","lat":43.28418,"lon":5.3497,"is_reserved":false,"is_disabled":true,"rental_uris":{"android":"levelo://app?vid=a9708a62-39bd-41ba-9f56-5d528effa682","ios":"levelo://app?vid=a9708a62-39bd-41ba-9f56-5d528effa682"},"vehicle_type_id":"4","last_reported":1747577291,"current_range_meters":8800,"station_id":"ce4bhbh2rcd13ifvqepg","pricing_plan_id":"cebpf4jnsgd1na2vs0mg"},{"bike_id":"143027c1-9198-4505-af04-a5d69289be79","system_id":"levelo_inurba_marseille","lat":43.24064,"lon":5.3774,"is_reserved":false,"is_disabled":false,"rental_uris":{"android":"levelo://app?vid=143027c1-9198-4505-af04-a5d69289be79","ios":"levelo://app?vid=143027c1-9198-4505-af04-a5d69289be79"},"vehicle_type_id":"4","last_reported":1747577291,"current_range_meters":9200,"station_id":"ce4bhnp2rcd13ifvqgvg","pricing_plan_id":"cebpf4jnsgd1na2vs0mg"},{"bike_id":"0582c4b1-2490-4623-9d85-7d5ae0173028","system_id":"levelo_inurba_marseille","lat":43.27076,"lon":5.42277,"is_reserved":false,"is_disabled":false,"rental_uris":{"android":"levelo://app?vid=0582c4b1-2490-4623-9d85-7d5ae0173028","ios":"levelo://app?vid=0582c4b1-2490-4623-9d85-7d5ae0173028"},"vehicle_type_id":"4","last_reported":1747577291,"current_range_meters":9200,"station_id":"ce4bhk92rcd13ifvqgb0","pricing_plan_id":"cebpf4jnsgd1na2vs0mg"},{"bike_id":"2eab994d-a378-4391-894b-b62d11a34041","system_id":"levelo_inurba_marseille","lat":43.23139,"lon":5.43736,"is_reserved":false,"is_disabled":true,"rental_uris":{"android":"levelo://app?vid=2eab994d-a378-4391-894b-b62d11a34041","ios":"levelo://app?vid=2eab994d-a378-4391-894b-b62d11a34041"},"vehicle_type_id":"4","last_reported":1747577291,"current_range_meters":9200,"station_id":"ce4bhmp2rcd13ifvqgog","pricing_plan_id":"cebpf4jnsgd1na2vs0mg"},{"bike_id":"5d0c204a-30d7-45a4-a38f-6cc374d60c0a","system_id":"levelo_inurba_marseille","lat":43.24165,"lon":5.36402,"is_reserved":false,"is_disabled":false,"rental_uris":{"android":"levelo://app?vid=5d0c204a-30d7-45a4-a38f-6cc374d60c0a","ios":"levelo://app?vid=5d0c204a-30d7-45a4-a38f-6cc374d60c0a"},"vehicle_type_id":"4","last_reported":1747577291,"current_range_meters":9200,"station_id":"cpo36qri1sfpv3e86is0","pricing_plan_id":"cebpf4jnsgd1na2vs0mg"},{"bike_id":"eb74f34c-ff6c-4d53-9f7a-5349e0df2814","system_id":"levelo_inurba_marseille","lat":43.235305,"lon":5.360634,"is_reserved":false,"is_disabled":false,"rental_uris":{"android":"levelo://app?vid=eb74f34c-ff6c-4d53-9f7a-5349e0df2814","ios":"levelo://app?vid=eb74f34c-ff6c-4d53-9f7a-5349e0df2814"},"vehicle_type_id":"4","last_reported":1747577291,"current_range_meters":9200,"station_id":"ce4bhu92rcd13ifvqi70","pricing_plan_id":"cebpf4jnsgd1na2vs0mg"},{"bike_id":"c95452d5-21f4-4326-98be-432445075670","system_id":"levelo_inurba_marseille","lat":43.2481,"lon":5.37456,"is_reserved":false,"is_disabled":false,"rental_uris":{"android":"levelo://app?vid=c95452d5-21f4-4326-98be-432445075670","ios":"levelo://app?vid=c95452d5-21f4-4326-98be-432445075670"},"vehicle_type_id":"4","last_reported":1747577291,"current_range_meters":9200,"station_id":"ce4bhgh2rcd13ifvqfb0","pricing_plan_id":"cebpf4jnsgd1na2vs0mg"},{"bike_id":"ba9bf3b9-e20e-4507-8286-827f71f56677","system_id":"levelo_inurba_marseille","lat":43.28269,"lon":5.35066,"is_reserved":false,"is_disabled":true,"rental_uris":{"android":"levelo://app?vid=ba9bf3b9-e20e-4507-8286-827f71f56677","ios":"levelo://app?vid=ba9bf3b9-e20e-4507-8286-827f71f56677"},"vehicle_type_id":"4","last_reported":1747577291,"current_range_meters":9200,"station_id":"ce4bhbp2rcd13ifvqerg","pricing_plan_id":"cebpf4jnsgd1na2vs0mg"},{"bike_id":"f25f9d91-bae1-4e25-a02f-667e99d3adbe","system_id":"levelo_inurba_marseille","lat":43.26275,"lon":5.380378,"is_reserved":false,"is_disabled":false,"rental_uris":{"android":"levelo://app?vid=f25f9d91-bae1-4e25-a02f-667e99d3adbe","ios":"levelo://app?vid=f25f9d91-bae1-4e25-a02f-667e99d3adbe"},"vehicle_type_id":"4","last_reported":1747577291,"current_range_meters":9200,"station_id":"ce4bhjp2rcd13ifvqg90","pricing_plan_id":"cebpf4jnsgd1na2vs0mg"},{"bike_id":"14603e41-b2dd-4757-a53c-2e366aa4f983","system_id":"levelo_inurba_marseille","lat":43.269958,"lon":5.428249,"is_reserved":false,"is_disabled":false,"rental_uris":{"android":"levelo://app?vid=14603e41-b2dd-4757-a53c-2e366aa4f983","ios":"levelo://app?vid=14603e41-b2dd-4757-a53c-2e366aa4f983"},"vehicle_type_id":"4","last_reported":1747577291,"current_range_meters":9200,"station_id":"","pricing_plan_id":"cebpf4jnsgd1na2vs0mg"},{"bike_id":"68a035d7-4f0c-467c-b4a3-aa6ef17901b5","system_id":"levelo_inurba_marseille","lat":43.28424,"lon":5.34968,"is_reserved":false,"is_disabled":false,"rental_uris":{"android":"levelo://app?vid=68a035d7-4f0c-467c-b4a3-aa6ef17901b5","ios":"levelo://app?vid=68a035d7-4f0c-467c-b4a3-aa6ef17901b5"},"vehicle_type_id":"4","last_reported":1747577291,"current_range_meters":9600,"station_id":"ce4bhbh2rcd13ifvqepg","pricing_plan_id":"cebpf4jnsgd1na2vs0mg"},{"bike_id":"32b3632e-a0f6-4556-85d6-788dc8cab069","system_id":"levelo_inurba_marseille","lat":43.25497,"lon":5.37647,"is_reserved":false,"is_disabled":false,"rental_uris":{"android":"levelo://app?vid=32b3632e-a0f6-4556-85d6-788dc8cab069","ios":"levelo://app?vid=32b3632e-a0f6-4556-85d6-788dc8cab069"},"vehicle_type_id":"4","last_reported":1747577291,"current_range_meters":9600,"station_id":"ce4bhh12rcd13ifvqff0","pricing_plan_id":"cebpf4jnsgd1na2vs0mg"},{"bike_id":"709a628e-02b0-4b78-8cb3-8c93f2de9d57","system_id":"levelo_inurba_marseille","lat":43.24178,"lon":5.36401,"is_reserved":false,"is_disabled":false,"rental_uris":{"android":"levelo://app?vid=709a628e-02b0-4b78-8cb3-8c93f2de9d57","ios":"levelo://app?vid=709a628e-02b0-4b78-8cb3-8c93f2de9d57"},"vehicle_type_id":"4","last_reported":1747577291,"current_range_meters":9600,"station_id":"cpo36qri1sfpv3e86is0","pricing_plan_id":"cebpf4jnsgd1na2vs0mg"},{"bike_id":"aee83e3e-17b1-4e18-be14-7209050d166d","system_id":"levelo_inurba_marseille","lat":43.27376,"lon":5.36255,"is_reserved":false,"is_disabled":false,"rental_uris":{"android":"levelo://app?vid=aee83e3e-17b1-4e18-be14-7209050d166d","ios":"levelo://app?vid=aee83e3e-17b1-4e18-be14-7209050d166d"},"vehicle_type_id":"4","last_reported":1747577291,"current_range_meters":9600,"station_id":"ce4bhbh2rcd13ifvqeo0","pricing_plan_id":"cebpf4jnsgd1na2vs0mg"},{"bike_id":"6bc77b59-1181-4de3-9ef3-20ddc90f578e","system_id":"levelo_inurba_marseille","lat":43.24177,"lon":5.39719,"is_reserved":false,"is_disabled":false,"rental_uris":{"android":"levelo://app?vid=6bc77b59-1181-4de3-9ef3-20ddc90f578e","ios":"levelo://app?vid=6bc77b59-1181-4de3-9ef3-20ddc90f578e"},"vehicle_type_id":"4","last_reported":1747577291,"current_range_meters":9600,"station_id":"ce4bhn12rcd13ifvqgpg","pricing_plan_id":"cebpf4jnsgd1na2vs0mg"},{"bike_id":"ffc3ddf2-0082-4578-9e25-c91f5b4279bc","system_id":"levelo_inurba_marseille","lat":43.28319,"lon":5.41117,"is_reserved":false,"is_disabled":false,"rental_uris":{"android":"levelo://app?vid=ffc3ddf2-0082-4578-9e25-c91f5b4279bc","ios":"levelo://app?vid=ffc3ddf2-0082-4578-9e25-c91f5b4279bc"},"vehicle_type_id":"4","last_reported":1747577291,"current_range_meters":10000,"station_id":"","pricing_plan_id":"cebpf4jnsgd1na2vs0mg"},{"bike_id":"caf4c81d-8b81-4d8d-a4f9-9d00bac7ad70","system_id":"levelo_inurba_marseille","lat":43.30765,"lon":5.4282,"is_reserved":false,"is_disabled":false,"rental_uris":{"android":"levelo://app?vid=caf4c81d-8b81-4d8d-a4f9-9d00bac7ad70","ios":"levelo://app?vid=caf4c81d-8b81-4d8d-a4f9-9d00bac7ad70"},"vehicle_type_id":"4","last_reported":1747577291,"current_range_meters":9600,"station_id":"","pricing_plan_id":"cebpf4jnsgd1na2vs0mg"},{"bike_id":"388d3cc1-2c7c-47e8-8753-054135eab29c","system_id":"levelo_inurba_marseille","lat":43.28409,"lon":5.34988,"is_reserved":false,"is_disabled":false,"rental_uris":{"android":"levelo://app?vid=388d3cc1-2c7c-47e8-8753-054135eab29c","ios":"levelo://app?vid=388d3cc1-2c7c-47e8-8753-054135eab29c"},"vehicle_type_id":"4","last_reported":1747577291,"current_range_meters":9600,"station_id":"ce4bhbh2rcd13ifvqepg","pricing_plan_id":"cebpf4jnsgd1na2vs0mg"},{"bike_id":"d06b8510-75a1-4ec9-ad6d-5a326870b568","system_id":"levelo_inurba_marseille","lat":43.24164,"lon":5.36405,"is_reserved":false,"is_disabled":false,"rental_uris":{"android":"levelo://app?vid=d06b8510-75a1-4ec9-ad6d-5a326870b568","ios":"levelo://app?vid=d06b8510-75a1-4ec9-ad6d-5a326870b568"},"vehicle_type_id":"4","last_reported":1747577291,"current_range_meters":9600,"station_id":"cpo36qri1sfpv3e86is0","pricing_plan_id":"cebpf4jnsgd1na2vs0mg"},{"bike_id":"a566bc57-90e9-46d4-87db-8ae56f810767","system_id":"levelo_inurba_marseille","lat":43.24806,"lon":5.37448,"is_reserved":false,"is_disabled":false,"rental_uris":{"android":"levelo://app?vid=a566bc57-90e9-46d4-87db-8ae56f810767","ios":"levelo://app?vid=a566bc57-90e9-46d4-87db-8ae56f810767"},"vehicle_type_id":"4","last_reported":1747577291,"current_range_meters":9600,"station_id":"ce4bhgh2rcd13ifvqfb0","pricing_plan_id":"cebpf4jnsgd1na2vs0mg"},{"bike_id":"ecc71fdc-17ad-48ee-b6e0-6fe21fa6a108","system_id":"levelo_inurba_marseille","lat":43.23059,"lon":5.35495,"is_reserved":false,"is_disabled":false,"rental_uris":{"android":"levelo://app?vid=ecc71fdc-17ad-48ee-b6e0-6fe21fa6a108","ios":"levelo://app?vid=ecc71fdc-17ad-48ee-b6e0-6fe21fa6a108"},"vehicle_type_id":"4","last_reported":1747577291,"current_range_meters":9600,"station_id":"cpo3342slgdg3j2ifvpg","pricing_plan_id":"cebpf4jnsgd1na2vs0mg"},{"bike_id":"8d301145-1b3f-414a-a62f-929588279e23","system_id":"levelo_inurba_marseille","lat":43.284177,"lon":5.349847,"is_reserved":false,"is_disabled":false,"rental_uris":{"android":"levelo://app?vid=8d301145-1b3f-414a-a62f-929588279e23","ios":"levelo://app?vid=8d301145-1b3f-414a-a62f-929588279e23"},"vehicle_type_id":"4","last_reported":1747577291,"current_range_meters":10000,"station_id":"ce4bhbh2rcd13ifvqepg","pricing_plan_id":"cebpf4jnsgd1na2vs0mg"},{"bike_id":"7d080336-5a2d-419d-8d50-e49d93450255","system_id":"levelo_inurba_marseille","lat":43.291736,"lon":5.371351,"is_reserved":false,"is_disabled":true,"rental_uris":{"android":"levelo://app?vid=7d080336-5a2d-419d-8d50-e49d93450255","ios":"levelo://app?vid=7d080336-5a2d-419d-8d50-e49d93450255"},"vehicle_type_id":"4","last_reported":1747577291,"current_range_meters":10000,"station_id":"ce4bha92rcd13ifvqeh0","pricing_plan_id":"cebpf4jnsgd1na2vs0mg"},{"bike_id":"88c266e6-7038-494f-b358-90ca603fb435","system_id":"levelo_inurba_marseille","lat":43.295739,"lon":5.375003,"is_reserved":false,"is_disabled":true,"rental_uris":{"android":"levelo://app?vid=88c266e6-7038-494f-b358-90ca603fb435","ios":"levelo://app?vid=88c266e6-7038-494f-b358-90ca603fb435"},"vehicle_type_id":"4","last_reported":1747577291,"current_range_meters":10000,"station_id":"ce4bgh92rcd13ifvqb50","pricing_plan_id":"cebpf4jnsgd1na2vs0mg"},{"bike_id":"93fd78b2-af16-43d9-8d07-f6f6718f1578","system_id":"levelo_inurba_marseille","lat":43.25492,"lon":5.37667,"is_reserved":false,"is_disabled":false,"rental_uris":{"android":"levelo://app?vid=93fd78b2-af16-43d9-8d07-f6f6718f1578","ios":"levelo://app?vid=93fd78b2-af16-43d9-8d07-f6f6718f1578"},"vehicle_type_id":"4","last_reported":1747577291,"current_range_meters":10000,"station_id":"ce4bhh12rcd13ifvqff0","pricing_plan_id":"cebpf4jnsgd1na2vs0mg"},{"bike_id":"3c15824a-20de-4fac-be6f-ffbfa518a11b","system_id":"levelo_inurba_marseille","lat":43.29419,"lon":5.38623,"is_reserved":false,"is_disabled":false,"rental_uris":{"android":"levelo://app?vid=3c15824a-20de-4fac-be6f-ffbfa518a11b","ios":"levelo://app?vid=3c15824a-20de-4fac-be6f-ffbfa518a11b"},"vehicle_type_id":"4","last_reported":1747577291,"current_range_meters":9600,"station_id":"ce4bh2h2rcd13ifvqdh0","pricing_plan_id":"cebpf4jnsgd1na2vs0mg"},{"bike_id":"ec260807-29d3-437c-b21b-e3525a6e2eeb","system_id":"levelo_inurba_marseille","lat":43.28407,"lon":5.34977,"is_reserved":false,"is_disabled":false,"rental_uris":{"android":"levelo://app?vid=ec260807-29d3-437c-b21b-e3525a6e2eeb","ios":"levelo://app?vid=ec260807-29d3-437c-b21b-e3525a6e2eeb"},"vehicle_type_id":"4","last_reported":1747577291,"current_range_meters":10000,"station_id":"ce4bhbh2rcd13ifvqepg","pricing_plan_id":"cebpf4jnsgd1na2vs0mg"},{"bike_id":"ca936542-796e-4aba-a5ee-55a45b7240d5","system_id":"levelo_inurba_marseille","lat":43.28271,"lon":5.35059,"is_reserved":false,"is_disabled":false,"rental_uris":{"android":"levelo://app?vid=ca936542-796e-4aba-a5ee-55a45b7240d5","ios":"levelo://app?vid=ca936542-796e-4aba-a5ee-55a45b7240d5"},"vehicle_type_id":"4","last_reported":1747577291,"current_range_meters":10000,"station_id":"ce4bhbp2rcd13ifvqerg","pricing_plan_id":"cebpf4jnsgd1na2vs0mg"},{"bike_id":"28c23089-6a2d-4b68-aaef-8ba91c4a77ee","system_id":"levelo_inurba_marseille","lat":43.31361,"lon":5.38491,"is_reserved":false,"is_disabled":false,"rental_uris":{"android":"levelo://app?vid=28c23089-6a2d-4b68-aaef-8ba91c4a77ee","ios":"levelo://app?vid=28c23089-6a2d-4b68-aaef-8ba91c4a77ee"},"vehicle_type_id":"4","last_reported":1747577291,"current_range_meters":10000,"station_id":"ce4bgt92rcd13ifvqcf0","pricing_plan_id":"cebpf4jnsgd1na2vs0mg"},{"bike_id":"2fec9bab-bd43-4f16-835f-76d39d28e914","system_id":"levelo_inurba_marseille","lat":43.24173,"lon":5.36393,"is_reserved":false,"is_disabled":false,"rental_uris":{"android":"levelo://app?vid=2fec9bab-bd43-4f16-835f-76d39d28e914","ios":"levelo://app?vid=2fec9bab-bd43-4f16-835f-76d39d28e914"},"vehicle_type_id":"4","last_reported":1747577291,"current_range_meters":10000,"station_id":"cpo36qri1sfpv3e86is0","pricing_plan_id":"cebpf4jnsgd1na2vs0mg"},{"bike_id":"d2dffc6b-001e-4424-891d-03a740afb17c","system_id":"levelo_inurba_marseille","lat":43.28704,"lon":5.37379,"is_reserved":false,"is_disabled":false,"rental_uris":{"android":"levelo://app?vid=d2dffc6b-001e-4424-891d-03a740afb17c","ios":"levelo://app?vid=d2dffc6b-001e-4424-891d-03a740afb17c"},"vehicle_type_id":"4","last_reported":1747577291,"current_range_meters":10000,"station_id":"ce4bh3p2rcd13ifvqdq0","pricing_plan_id":"cebpf4jnsgd1na2vs0mg"},{"bike_id":"c608898e-58b6-42f7-903a-6008119c7a64","system_id":"levelo_inurba_marseille","lat":43.24077,"lon":5.37811,"is_reserved":false,"is_disabled":false,"rental_uris":{"android":"levelo://app?vid=c608898e-58b6-42f7-903a-6008119c7a64","ios":"levelo://app?vid=c608898e-58b6-42f7-903a-6008119c7a64"},"vehicle_type_id":"4","last_reported":1747577291,"current_range_meters":10000,"station_id":"ce4bhnp2rcd13ifvqgvg","pricing_plan_id":"cebpf4jnsgd1na2vs0mg"},{"bike_id":"a8416388-f7dc-469d-af9e-e34960387018","system_id":"levelo_inurba_marseille","lat":43.28421,"lon":5.34985,"is_reserved":false,"is_disabled":false,"rental_uris":{"android":"levelo://app?vid=a8416388-f7dc-469d-af9e-e34960387018","ios":"levelo://app?vid=a8416388-f7dc-469d-af9e-e34960387018"},"vehicle_type_id":"4","last_reported":1747577291,"current_range_meters":10000,"station_id":"ce4bhbh2rcd13ifvqepg","pricing_plan_id":"cebpf4jnsgd1na2vs0mg"},{"bike_id":"1580b165-ecf9-4c1a-8809-c7db1bc15693","system_id":"levelo_inurba_marseille","lat":43.28409,"lon":5.34995,"is_reserved":false,"is_disabled":false,"rental_uris":{"android":"levelo://app?vid=1580b165-ecf9-4c1a-8809-c7db1bc15693","ios":"levelo://app?vid=1580b165-ecf9-4c1a-8809-c7db1bc15693"},"vehicle_type_id":"4","last_reported":1747577291,"current_range_meters":10000,"station_id":"ce4bhbh2rcd13ifvqepg","pricing_plan_id":"cebpf4jnsgd1na2vs0mg"},{"bike_id":"2b6d875a-3cf4-435f-bf35-777b1aa25565","system_id":"levelo_inurba_marseille","lat":43.29973,"lon":5.38503,"is_reserved":false,"is_disabled":true,"rental_uris":{"android":"levelo://app?vid=2b6d875a-3cf4-435f-bf35-777b1aa25565","ios":"levelo://app?vid=2b6d875a-3cf4-435f-bf35-777b1aa25565"},"vehicle_type_id":"4","last_reported":1747577291,"current_range_meters":10800,"station_id":"ce4bgj92rcd13ifvqbd0","pricing_plan_id":"cebpf4jnsgd1na2vs0mg"},{"bike_id":"1b2f0e19-c9dc-4000-8367-67c619535c14","system_id":"levelo_inurba_marseille","lat":43.299429,"lon":5.365267,"is_reserved":false,"is_disabled":true,"rental_uris":{"android":"levelo://app?vid=1b2f0e19-c9dc-4000-8367-67c619535c14","ios":"levelo://app?vid=1b2f0e19-c9dc-4000-8367-67c619535c14"},"vehicle_type_id":"4","last_reported":1747577291,"current_range_meters":10800,"station_id":"ce4bgm92rcd13ifvqbr0","pricing_plan_id":"cebpf4jnsgd1na2vs0mg"},{"bike_id":"b049079c-ed34-4a47-8f1c-ceb7655c2ee3","system_id":"levelo_inurba_marseille","lat":43.275489,"lon":5.359957,"is_reserved":false,"is_disabled":false,"rental_uris":{"android":"levelo://app?vid=b049079c-ed34-4a47-8f1c-ceb7655c2ee3","ios":"levelo://app?vid=b049079c-ed34-4a47-8f1c-ceb7655c2ee3"},"vehicle_type_id":"4","last_reported":1747577291,"current_range_meters":10800,"station_id":"ce4bhgh2rcd13ifvqfa0","pricing_plan_id":"cebpf4jnsgd1na2vs0mg"},{"bike_id":"2f99a518-94b1-4cbd-920b-4f0c1ecef7db","system_id":"levelo_inurba_marseille","lat":43.27376,"lon":5.36257,"is_reserved":false,"is_disabled":false,"rental_uris":{"android":"levelo://app?vid=2f99a518-94b1-4cbd-920b-4f0c1ecef7db","ios":"levelo://app?vid=2f99a518-94b1-4cbd-920b-4f0c1ecef7db"},"vehicle_type_id":"4","last_reported":1747577291,"current_range_meters":10800,"station_id":"ce4bhbh2rcd13ifvqeo0","pricing_plan_id":"cebpf4jnsgd1na2vs0mg"},{"bike_id":"6e1bd625-3ec1-43df-9657-36d71ae09f8d","system_id":"levelo_inurba_marseille","lat":43.33738,"lon":5.37489,"is_reserved":false,"is_disabled":false,"rental_uris":{"android":"levelo://app?vid=6e1bd625-3ec1-43df-9657-36d71ae09f8d","ios":"levelo://app?vid=6e1bd625-3ec1-43df-9657-36d71ae09f8d"},"vehicle_type_id":"4","last_reported":1747577291,"current_range_meters":10800,"station_id":"","pricing_plan_id":"cebpf4jnsgd1na2vs0mg"},{"bike_id":"0dcd04e2-1d6d-4c3e-af17-aac8759ac618","system_id":"levelo_inurba_marseille","lat":43.29896,"lon":5.43668,"is_reserved":false,"is_disabled":false,"rental_uris":{"android":"levelo://app?vid=0dcd04e2-1d6d-4c3e-af17-aac8759ac618","ios":"levelo://app?vid=0dcd04e2-1d6d-4c3e-af17-aac8759ac618"},"vehicle_type_id":"4","last_reported":1747577291,"current_range_meters":10800,"station_id":"ce4bhpp2rcd13ifvqhfg","pricing_plan_id":"cebpf4jnsgd1na2vs0mg"},{"bike_id":"4745dd8b-a0b2-49db-b417-8a28eecc51d4","system_id":"levelo_inurba_marseille","lat":43.24331,"lon":5.37998,"is_reserved":false,"is_disabled":false,"rental_uris":{"android":"levelo://app?vid=4745dd8b-a0b2-49db-b417-8a28eecc51d4","ios":"levelo://app?vid=4745dd8b-a0b2-49db-b417-8a28eecc51d4"},"vehicle_type_id":"4","last_reported":1747577291,"current_range_meters":10800,"station_id":"","pricing_plan_id":"cebpf4jnsgd1na2vs0mg"},{"bike_id":"1b4a335f-32fe-4746-bbf7-08943503aa4d","system_id":"levelo_inurba_marseille","lat":43.25114,"lon":5.4036,"is_reserved":false,"is_disabled":false,"rental_uris":{"android":"levelo://app?vid=1b4a335f-32fe-4746-bbf7-08943503aa4d","ios":"levelo://app?vid=1b4a335f-32fe-4746-bbf7-08943503aa4d"},"vehicle_type_id":"4","last_reported":1747577291,"current_range_meters":11200,"station_id":"ce4bhlh2rcd13ifvqgig","pricing_plan_id":"cebpf4jnsgd1na2vs0mg"},{"bike_id":"84681128-9b85-4b9f-8e87-dacf51b69edb","system_id":"levelo_inurba_marseille","lat":43.212,"lon":5.35078,"is_reserved":false,"is_disabled":false,"rental_uris":{"android":"levelo://app?vid=84681128-9b85-4b9f-8e87-dacf51b69edb","ios":"levelo://app?vid=84681128-9b85-4b9f-8e87-dacf51b69edb"},"vehicle_type_id":"4","last_reported":1747577291,"current_range_meters":11200,"station_id":"st_cvj6sg6p6f1abm77japg","pricing_plan_id":"cebpf4jnsgd1na2vs0mg"},{"bike_id":"02ddba3a-ba03-4ec6-a11f-790f846341a9","system_id":"levelo_inurba_marseille","lat":43.21754,"lon":5.34605,"is_reserved":false,"is_disabled":false,"rental_uris":{"android":"levelo://app?vid=02ddba3a-ba03-4ec6-a11f-790f846341a9","ios":"levelo://app?vid=02ddba3a-ba03-4ec6-a11f-790f846341a9"},"vehicle_type_id":"4","last_reported":1747577291,"current_range_meters":11200,"station_id":"st_cvj6r9ubvosntc0bgbag","pricing_plan_id":"cebpf4jnsgd1na2vs0mg"},{"bike_id":"217dbed3-43af-4cc5-bf57-db93629689e7","system_id":"levelo_inurba_marseille","lat":43.24175,"lon":5.36399,"is_reserved":false,"is_disabled":false,"rental_uris":{"android":"levelo://app?vid=217dbed3-43af-4cc5-bf57-db93629689e7","ios":"levelo://app?vid=217dbed3-43af-4cc5-bf57-db93629689e7"},"vehicle_type_id":"4","last_reported":1747577291,"current_range_meters":11600,"station_id":"cpo36qri1sfpv3e86is0","pricing_plan_id":"cebpf4jnsgd1na2vs0mg"},{"bike_id":"3a4bb201-7fa2-4f90-9ba8-20bf58eba273","system_id":"levelo_inurba_marseille","lat":43.24168,"lon":5.36388,"is_reserved":false,"is_disabled":false,"rental_uris":{"android":"levelo://app?vid=3a4bb201-7fa2-4f90-9ba8-20bf58eba273","ios":"levelo://app?vid=3a4bb201-7fa2-4f90-9ba8-20bf58eba273"},"vehicle_type_id":"4","last_reported":1747577291,"current_range_meters":11600,"station_id":"cpo36qri1sfpv3e86is0","pricing_plan_id":"cebpf4jnsgd1na2vs0mg"},{"bike_id":"3ff22c68-179d-4c88-9b68-fdcca31580ea","system_id":"levelo_inurba_marseille","lat":43.27374,"lon":5.36246,"is_reserved":false,"is_disabled":false,"rental_uris":{"android":"levelo://app?vid=3ff22c68-179d-4c88-9b68-fdcca31580ea","ios":"levelo://app?vid=3ff22c68-179d-4c88-9b68-fdcca31580ea"},"vehicle_type_id":"4","last_reported":1747577291,"current_range_meters":11600,"station_id":"ce4bhbh2rcd13ifvqeo0","pricing_plan_id":"cebpf4jnsgd1na2vs0mg"},{"bike_id":"b438695d-9c9f-4ed6-ad79-75697224f732","system_id":"levelo_inurba_marseille","lat":43.23202,"lon":5.35581,"is_reserved":false,"is_disabled":false,"rental_uris":{"android":"levelo://app?vid=b438695d-9c9f-4ed6-ad79-75697224f732","ios":"levelo://app?vid=b438695d-9c9f-4ed6-ad79-75697224f732"},"vehicle_type_id":"4","last_reported":1747577291,"current_range_meters":11600,"station_id":"ce4bhu92rcd13ifvqi70","pricing_plan_id":"cebpf4jnsgd1na2vs0mg"},{"bike_id":"06fb6274-c887-4ce8-9273-400ecb3aef67","system_id":"levelo_inurba_marseille","lat":43.28406,"lon":5.46018,"is_reserved":false,"is_disabled":false,"rental_uris":{"android":"levelo://app?vid=06fb6274-c887-4ce8-9273-400ecb3aef67","ios":"levelo://app?vid=06fb6274-c887-4ce8-9273-400ecb3aef67"},"vehicle_type_id":"4","last_reported":1747577291,"current_range_meters":11600,"station_id":"","pricing_plan_id":"cebpf4jnsgd1na2vs0mg"},{"bike_id":"d48cea3d-b9aa-4cda-9021-f04c0e6e759e","system_id":"levelo_inurba_marseille","lat":43.28081,"lon":5.39651,"is_reserved":false,"is_disabled":false,"rental_uris":{"android":"levelo://app?vid=d48cea3d-b9aa-4cda-9021-f04c0e6e759e","ios":"levelo://app?vid=d48cea3d-b9aa-4cda-9021-f04c0e6e759e"},"vehicle_type_id":"4","last_reported":1747577291,"current_range_meters":11600,"station_id":"ce4bho12rcd13ifvqh2g","pricing_plan_id":"cebpf4jnsgd1na2vs0mg"},{"bike_id":"08510fae-faaa-4c7e-8b63-8318909db753","system_id":"levelo_inurba_marseille","lat":43.217463,"lon":5.346047,"is_reserved":false,"is_disabled":false,"rental_uris":{"android":"levelo://app?vid=08510fae-faaa-4c7e-8b63-8318909db753","ios":"levelo://app?vid=08510fae-faaa-4c7e-8b63-8318909db753"},"vehicle_type_id":"4","last_reported":1747577291,"current_range_meters":12000,"station_id":"st_cvj6r9ubvosntc0bgbag","pricing_plan_id":"cebpf4jnsgd1na2vs0mg"},{"bike_id":"6ee7001e-07ad-49d2-9902-4e2095457f59","system_id":"levelo_inurba_marseille","lat":43.270645,"lon":5.422823,"is_reserved":false,"is_disabled":true,"rental_uris":{"android":"levelo://app?vid=6ee7001e-07ad-49d2-9902-4e2095457f59","ios":"levelo://app?vid=6ee7001e-07ad-49d2-9902-4e2095457f59"},"vehicle_type_id":"4","last_reported":1747577291,"current_range_meters":12000,"station_id":"ce4bhk92rcd13ifvqgb0","pricing_plan_id":"cebpf4jnsgd1na2vs0mg"},{"bike_id":"55982159-14b0-423d-a8c0-c157cf2770cd","system_id":"levelo_inurba_marseille","lat":43.277633,"lon":5.362353,"is_reserved":false,"is_disabled":false,"rental_uris":{"android":"levelo://app?vid=55982159-14b0-423d-a8c0-c157cf2770cd","ios":"levelo://app?vid=55982159-14b0-423d-a8c0-c157cf2770cd"},"vehicle_type_id":"4","last_reported":1747577291,"current_range_meters":12000,"station_id":"","pricing_plan_id":"cebpf4jnsgd1na2vs0mg"},{"bike_id":"c10b2085-8572-4f19-b4e0-a4bdb80c482a","system_id":"levelo_inurba_marseille","lat":43.286193,"lon":5.350983,"is_reserved":false,"is_disabled":false,"rental_uris":{"android":"levelo://app?vid=c10b2085-8572-4f19-b4e0-a4bdb80c482a","ios":"levelo://app?vid=c10b2085-8572-4f19-b4e0-a4bdb80c482a"},"vehicle_type_id":"4","last_reported":1747577291,"current_range_meters":12000,"station_id":"ce4bhch2rcd13ifvqeug","pricing_plan_id":"cebpf4jnsgd1na2vs0mg"},{"bike_id":"c3e44f74-ae47-4d1d-991d-3fb6d2385856","system_id":"levelo_inurba_marseille","lat":43.23951,"lon":5.36646,"is_reserved":false,"is_disabled":false,"rental_uris":{"android":"levelo://app?vid=c3e44f74-ae47-4d1d-991d-3fb6d2385856","ios":"levelo://app?vid=c3e44f74-ae47-4d1d-991d-3fb6d2385856"},"vehicle_type_id":"4","last_reported":1747577291,"current_range_meters":12000,"station_id":"ce4bhi12rcd13ifvqfp0","pricing_plan_id":"cebpf4jnsgd1na2vs0mg"},{"bike_id":"e117ff23-3212-42f6-89fe-d78f2f313251","system_id":"levelo_inurba_marseille","lat":43.23203,"lon":5.35551,"is_reserved":false,"is_disabled":false,"rental_uris":{"android":"levelo://app?vid=e117ff23-3212-42f6-89fe-d78f2f313251","ios":"levelo://app?vid=e117ff23-3212-42f6-89fe-d78f2f313251"},"vehicle_type_id":"4","last_reported":1747577291,"current_range_meters":12000,"station_id":"ce4bhu92rcd13ifvqi70","pricing_plan_id":"cebpf4jnsgd1na2vs0mg"},{"bike_id":"fb40c50b-2f0e-496b-a7ee-01d0f0492c0d","system_id":"levelo_inurba_marseille","lat":43.248097,"lon":5.374517,"is_reserved":false,"is_disabled":false,"rental_uris":{"android":"levelo://app?vid=fb40c50b-2f0e-496b-a7ee-01d0f0492c0d","ios":"levelo://app?vid=fb40c50b-2f0e-496b-a7ee-01d0f0492c0d"},"vehicle_type_id":"4","last_reported":1747577291,"current_range_meters":12000,"station_id":"ce4bhgh2rcd13ifvqfb0","pricing_plan_id":"cebpf4jnsgd1na2vs0mg"},{"bike_id":"1b0a1e8a-ffde-4e7f-89df-30cb05302c74","system_id":"levelo_inurba_marseille","lat":43.21192,"lon":5.35067,"is_reserved":false,"is_disabled":false,"rental_uris":{"android":"levelo://app?vid=1b0a1e8a-ffde-4e7f-89df-30cb05302c74","ios":"levelo://app?vid=1b0a1e8a-ffde-4e7f-89df-30cb05302c74"},"vehicle_type_id":"4","last_reported":1747577291,"current_range_meters":12000,"station_id":"st_cvj6sg6p6f1abm77japg","pricing_plan_id":"cebpf4jnsgd1na2vs0mg"},{"bike_id":"ae09ee8a-6013-4413-8f85-08be7428afe3","system_id":"levelo_inurba_marseille","lat":43.28423,"lon":5.35004,"is_reserved":false,"is_disabled":false,"rental_uris":{"android":"levelo://app?vid=ae09ee8a-6013-4413-8f85-08be7428afe3","ios":"levelo://app?vid=ae09ee8a-6013-4413-8f85-08be7428afe3"},"vehicle_type_id":"4","last_reported":1747577291,"current_range_meters":12000,"station_id":"ce4bhbh2rcd13ifvqepg","pricing_plan_id":"cebpf4jnsgd1na2vs0mg"},{"bike_id":"b26a0dd7-cbdc-4ab7-8def-31c4b88b224a","system_id":"levelo_inurba_marseille","lat":43.31223,"lon":5.39252,"is_reserved":false,"is_disabled":false,"rental_uris":{"android":"levelo://app?vid=b26a0dd7-cbdc-4ab7-8def-31c4b88b224a","ios":"levelo://app?vid=b26a0dd7-cbdc-4ab7-8def-31c4b88b224a"},"vehicle_type_id":"4","last_reported":1747577291,"current_range_meters":12400,"station_id":"","pricing_plan_id":"cebpf4jnsgd1na2vs0mg"},{"bike_id":"37a61ebb-67bc-42a9-a0a1-9dff507334f2","system_id":"levelo_inurba_marseille","lat":43.279978,"lon":5.416663,"is_reserved":false,"is_disabled":false,"rental_uris":{"android":"levelo://app?vid=37a61ebb-67bc-42a9-a0a1-9dff507334f2","ios":"levelo://app?vid=37a61ebb-67bc-42a9-a0a1-9dff507334f2"},"vehicle_type_id":"4","last_reported":1747577291,"current_range_meters":12400,"station_id":"ce4bho12rcd13ifvqh1g","pricing_plan_id":"cebpf4jnsgd1na2vs0mg"},{"bike_id":"f382231e-ff6f-4281-8b87-17f66e993321","system_id":"levelo_inurba_marseille","lat":43.231967,"lon":5.355566,"is_reserved":false,"is_disabled":false,"rental_uris":{"android":"levelo://app?vid=f382231e-ff6f-4281-8b87-17f66e993321","ios":"levelo://app?vid=f382231e-ff6f-4281-8b87-17f66e993321"},"vehicle_type_id":"4","last_reported":1747577291,"current_range_meters":12400,"station_id":"","pricing_plan_id":"cebpf4jnsgd1na2vs0mg"},{"bike_id":"b3de2460-3258-4508-ba9c-4aa13e3a4377","system_id":"levelo_inurba_marseille","lat":43.24391,"lon":5.37064,"is_reserved":false,"is_disabled":false,"rental_uris":{"android":"levelo://app?vid=b3de2460-3258-4508-ba9c-4aa13e3a4377","ios":"levelo://app?vid=b3de2460-3258-4508-ba9c-4aa13e3a4377"},"vehicle_type_id":"4","last_reported":1747577291,"current_range_meters":12400,"station_id":"ce4bhhh2rcd13ifvqfk0","pricing_plan_id":"cebpf4jnsgd1na2vs0mg"},{"bike_id":"51a33848-f0f0-40ec-b6c6-8948c992d932","system_id":"levelo_inurba_marseille","lat":43.25063,"lon":5.39536,"is_reserved":false,"is_disabled":false,"rental_uris":{"android":"levelo://app?vid=51a33848-f0f0-40ec-b6c6-8948c992d932","ios":"levelo://app?vid=51a33848-f0f0-40ec-b6c6-8948c992d932"},"vehicle_type_id":"4","last_reported":1747577291,"current_range_meters":12400,"station_id":"ce4bhm12rcd13ifvqgkg","pricing_plan_id":"cebpf4jnsgd1na2vs0mg"},{"bike_id":"9f495259-929a-415b-acfb-24d1a8ab8c9e","system_id":"levelo_inurba_marseille","lat":43.23195,"lon":5.35564,"is_reserved":false,"is_disabled":false,"rental_uris":{"android":"levelo://app?vid=9f495259-929a-415b-acfb-24d1a8ab8c9e","ios":"levelo://app?vid=9f495259-929a-415b-acfb-24d1a8ab8c9e"},"vehicle_type_id":"4","last_reported":1747577291,"current_range_meters":12400,"station_id":"ce4bhu92rcd13ifvqi70","pricing_plan_id":"cebpf4jnsgd1na2vs0mg"},{"bike_id":"e8c092b6-ea1e-49b4-86f2-ae6140f06f6f","system_id":"levelo_inurba_marseille","lat":43.289192,"lon":5.383954,"is_reserved":false,"is_disabled":true,"rental_uris":{"android":"levelo://app?vid=e8c092b6-ea1e-49b4-86f2-ae6140f06f6f","ios":"levelo://app?vid=e8c092b6-ea1e-49b4-86f2-ae6140f06f6f"},"vehicle_type_id":"4","last_reported":1747577291,"current_range_meters":12400,"station_id":"","pricing_plan_id":"cebpf4jnsgd1na2vs0mg"},{"bike_id":"255c630d-c3bf-4d11-9da2-b6e663ec4f3c","system_id":"levelo_inurba_marseille","lat":43.29937,"lon":5.36548,"is_reserved":false,"is_disabled":false,"rental_uris":{"android":"levelo://app?vid=255c630d-c3bf-4d11-9da2-b6e663ec4f3c","ios":"levelo://app?vid=255c630d-c3bf-4d11-9da2-b6e663ec4f3c"},"vehicle_type_id":"4","last_reported":1747577291,"current_range_meters":12400,"station_id":"ce4bgm92rcd13ifvqbr0","pricing_plan_id":"cebpf4jnsgd1na2vs0mg"},{"bike_id":"7698f913-46d0-4283-89ce-e3d803d4cdb3","system_id":"levelo_inurba_marseille","lat":43.28267,"lon":5.35071,"is_reserved":false,"is_disabled":false,"rental_uris":{"android":"levelo://app?vid=7698f913-46d0-4283-89ce-e3d803d4cdb3","ios":"levelo://app?vid=7698f913-46d0-4283-89ce-e3d803d4cdb3"},"vehicle_type_id":"4","last_reported":1747577291,"current_range_meters":12800,"station_id":"ce4bhbp2rcd13ifvqerg","pricing_plan_id":"cebpf4jnsgd1na2vs0mg"},{"bike_id":"ced441dc-6911-44a5-8234-8cb0fa777064","system_id":"levelo_inurba_marseille","lat":43.27077,"lon":5.42277,"is_reserved":false,"is_disabled":false,"rental_uris":{"android":"levelo://app?vid=ced441dc-6911-44a5-8234-8cb0fa777064","ios":"levelo://app?vid=ced441dc-6911-44a5-8234-8cb0fa777064"},"vehicle_type_id":"4","last_reported":1747577291,"current_range_meters":12800,"station_id":"ce4bhk92rcd13ifvqgb0","pricing_plan_id":"cebpf4jnsgd1na2vs0mg"},{"bike_id":"ffeeb5e5-d3f4-4db6-826c-22268e113854","system_id":"levelo_inurba_marseille","lat":43.30905,"lon":5.36847,"is_reserved":false,"is_disabled":false,"rental_uris":{"android":"levelo://app?vid=ffeeb5e5-d3f4-4db6-826c-22268e113854","ios":"levelo://app?vid=ffeeb5e5-d3f4-4db6-826c-22268e113854"},"vehicle_type_id":"4","last_reported":1747577291,"current_range_meters":12800,"station_id":"ce4bgn92rcd13ifvqbvg","pricing_plan_id":"cebpf4jnsgd1na2vs0mg"},{"bike_id":"068c2813-7fd2-4239-afcd-4c47c8962183","system_id":"levelo_inurba_marseille","lat":43.28617,"lon":5.35104,"is_reserved":false,"is_disabled":false,"rental_uris":{"android":"levelo://app?vid=068c2813-7fd2-4239-afcd-4c47c8962183","ios":"levelo://app?vid=068c2813-7fd2-4239-afcd-4c47c8962183"},"vehicle_type_id":"4","last_reported":1747577291,"current_range_meters":12800,"station_id":"ce4bhch2rcd13ifvqeug","pricing_plan_id":"cebpf4jnsgd1na2vs0mg"},{"bike_id":"438875f9-207b-406f-879a-72b6ca1f62d6","system_id":"levelo_inurba_marseille","lat":43.25497,"lon":5.37629,"is_reserved":false,"is_disabled":false,"rental_uris":{"android":"levelo://app?vid=438875f9-207b-406f-879a-72b6ca1f62d6","ios":"levelo://app?vid=438875f9-207b-406f-879a-72b6ca1f62d6"},"vehicle_type_id":"4","last_reported":1747577291,"current_range_meters":12800,"station_id":"ce4bhh12rcd13ifvqff0","pricing_plan_id":"cebpf4jnsgd1na2vs0mg"},{"bike_id":"a3c97775-f886-4b68-a9e2-329897cc67e9","system_id":"levelo_inurba_marseille","lat":43.29623,"lon":5.37161,"is_reserved":false,"is_disabled":false,"rental_uris":{"android":"levelo://app?vid=a3c97775-f886-4b68-a9e2-329897cc67e9","ios":"levelo://app?vid=a3c97775-f886-4b68-a9e2-329897cc67e9"},"vehicle_type_id":"4","last_reported":1747577291,"current_range_meters":13600,"station_id":"ce4bgnh2rcd13ifvqc0g","pricing_plan_id":"cebpf4jnsgd1na2vs0mg"},{"bike_id":"1226a745-d765-46c5-8a83-a8a29b839961","system_id":"levelo_inurba_marseille","lat":43.28616,"lon":5.35109,"is_reserved":false,"is_disabled":false,"rental_uris":{"android":"levelo://app?vid=1226a745-d765-46c5-8a83-a8a29b839961","ios":"levelo://app?vid=1226a745-d765-46c5-8a83-a8a29b839961"},"vehicle_type_id":"4","last_reported":1747577291,"current_range_meters":13600,"station_id":"ce4bhch2rcd13ifvqeug","pricing_plan_id":"cebpf4jnsgd1na2vs0mg"},{"bike_id":"278ccf48-bc40-40a2-9e40-44c6a4e1f787","system_id":"levelo_inurba_marseille","lat":43.30805,"lon":5.36968,"is_reserved":false,"is_disabled":false,"rental_uris":{"android":"levelo://app?vid=278ccf48-bc40-40a2-9e40-44c6a4e1f787","ios":"levelo://app?vid=278ccf48-bc40-40a2-9e40-44c6a4e1f787"},"vehicle_type_id":"4","last_reported":1747577291,"current_range_meters":13600,"station_id":"","pricing_plan_id":"cebpf4jnsgd1na2vs0mg"},{"bike_id":"51736835-8128-4840-b526-bf33d386a6e7","system_id":"levelo_inurba_marseille","lat":43.29914,"lon":5.43642,"is_reserved":false,"is_disabled":true,"rental_uris":{"android":"levelo://app?vid=51736835-8128-4840-b526-bf33d386a6e7","ios":"levelo://app?vid=51736835-8128-4840-b526-bf33d386a6e7"},"vehicle_type_id":"4","last_reported":1747577291,"current_range_meters":13600,"station_id":"ce4bhpp2rcd13ifvqhfg","pricing_plan_id":"cebpf4jnsgd1na2vs0mg"},{"bike_id":"814e2930-a412-47af-849d-26da2abc07f6","system_id":"levelo_inurba_marseille","lat":43.27806,"lon":5.40732,"is_reserved":false,"is_disabled":true,"rental_uris":{"android":"levelo://app?vid=814e2930-a412-47af-849d-26da2abc07f6","ios":"levelo://app?vid=814e2930-a412-47af-849d-26da2abc07f6"},"vehicle_type_id":"4","last_reported":1747577291,"current_range_meters":13600,"station_id":"ce4bhnh2rcd13ifvqgtg","pricing_plan_id":"cebpf4jnsgd1na2vs0mg"},{"bike_id":"67f72f62-eb9d-4994-bbcf-c10b28dd838c","system_id":"levelo_inurba_marseille","lat":43.26608,"lon":5.39352,"is_reserved":false,"is_disabled":false,"rental_uris":{"android":"levelo://app?vid=67f72f62-eb9d-4994-bbcf-c10b28dd838c","ios":"levelo://app?vid=67f72f62-eb9d-4994-bbcf-c10b28dd838c"},"vehicle_type_id":"4","last_reported":1747577291,"current_range_meters":14000,"station_id":"","pricing_plan_id":"cebpf4jnsgd1na2vs0mg"},{"bike_id":"957785c7-8de1-4598-9a7f-3f3676eec9d3","system_id":"levelo_inurba_marseille","lat":43.28274,"lon":5.35073,"is_reserved":false,"is_disabled":false,"rental_uris":{"android":"levelo://app?vid=957785c7-8de1-4598-9a7f-3f3676eec9d3","ios":"levelo://app?vid=957785c7-8de1-4598-9a7f-3f3676eec9d3"},"vehicle_type_id":"4","last_reported":1747577291,"current_range_meters":14000,"station_id":"ce4bhbp2rcd13ifvqerg","pricing_plan_id":"cebpf4jnsgd1na2vs0mg"},{"bike_id":"d8da70fb-a079-460a-9e23-65ed45fe0088","system_id":"levelo_inurba_marseille","lat":43.25486,"lon":5.3769,"is_reserved":false,"is_disabled":true,"rental_uris":{"android":"levelo://app?vid=d8da70fb-a079-460a-9e23-65ed45fe0088","ios":"levelo://app?vid=d8da70fb-a079-460a-9e23-65ed45fe0088"},"vehicle_type_id":"4","last_reported":1747577291,"current_range_meters":14000,"station_id":"ce4bhh12rcd13ifvqff0","pricing_plan_id":"cebpf4jnsgd1na2vs0mg"},{"bike_id":"168ff632-117e-4c12-8961-89fb008f2faf","system_id":"levelo_inurba_marseille","lat":43.27216,"lon":5.39183,"is_reserved":false,"is_disabled":true,"rental_uris":{"android":"levelo://app?vid=168ff632-117e-4c12-8961-89fb008f2faf","ios":"levelo://app?vid=168ff632-117e-4c12-8961-89fb008f2faf"},"vehicle_type_id":"4","last_reported":1747577291,"current_range_meters":14400,"station_id":"ce4bhhp2rcd13ifvqfm0","pricing_plan_id":"cebpf4jnsgd1na2vs0mg"},{"bike_id":"2b44f2e2-2056-48c0-8c1b-5ac821ad4ab7","system_id":"levelo_inurba_marseille","lat":43.27621,"lon":5.36099,"is_reserved":false,"is_disabled":false,"rental_uris":{"android":"levelo://app?vid=2b44f2e2-2056-48c0-8c1b-5ac821ad4ab7","ios":"levelo://app?vid=2b44f2e2-2056-48c0-8c1b-5ac821ad4ab7"},"vehicle_type_id":"4","last_reported":1747577291,"current_range_meters":14000,"station_id":"ce4bgj92rcd13ifvqbe0","pricing_plan_id":"cebpf4jnsgd1na2vs0mg"},{"bike_id":"be2c3896-fa0c-4a27-a492-db322855c4b2","system_id":"levelo_inurba_marseille","lat":43.25122,"lon":5.40324,"is_reserved":false,"is_disabled":false,"rental_uris":{"android":"levelo://app?vid=be2c3896-fa0c-4a27-a492-db322855c4b2","ios":"levelo://app?vid=be2c3896-fa0c-4a27-a492-db322855c4b2"},"vehicle_type_id":"4","last_reported":1747577291,"current_range_meters":14000,"station_id":"ce4bhlh2rcd13ifvqgig","pricing_plan_id":"cebpf4jnsgd1na2vs0mg"},{"bike_id":"35e0d89b-791d-4d28-b619-7101a7355c09","system_id":"levelo_inurba_marseille","lat":43.30904,"lon":5.36841,"is_reserved":false,"is_disabled":false,"rental_uris":{"android":"levelo://app?vid=35e0d89b-791d-4d28-b619-7101a7355c09","ios":"levelo://app?vid=35e0d89b-791d-4d28-b619-7101a7355c09"},"vehicle_type_id":"4","last_reported":1747577291,"current_range_meters":14000,"station_id":"ce4bgn92rcd13ifvqbvg","pricing_plan_id":"cebpf4jnsgd1na2vs0mg"},{"bike_id":"12c4d802-2c6a-4c71-888e-000ffe312a3f","system_id":"levelo_inurba_marseille","lat":43.32356,"lon":5.36748,"is_reserved":false,"is_disabled":false,"rental_uris":{"android":"levelo://app?vid=12c4d802-2c6a-4c71-888e-000ffe312a3f","ios":"levelo://app?vid=12c4d802-2c6a-4c71-888e-000ffe312a3f"},"vehicle_type_id":"4","last_reported":1747577291,"current_range_meters":14400,"station_id":"ce4bhsh2rcd13ifvqi2g","pricing_plan_id":"cebpf4jnsgd1na2vs0mg"},{"bike_id":"360351a4-eeb4-4767-bc8e-2fbef196134c","system_id":"levelo_inurba_marseille","lat":43.32283,"lon":5.38283,"is_reserved":false,"is_disabled":false,"rental_uris":{"android":"levelo://app?vid=360351a4-eeb4-4767-bc8e-2fbef196134c","ios":"levelo://app?vid=360351a4-eeb4-4767-bc8e-2fbef196134c"},"vehicle_type_id":"4","last_reported":1747577291,"current_range_meters":14000,"station_id":"ce4bhr12rcd13ifvqhqg","pricing_plan_id":"cebpf4jnsgd1na2vs0mg"},{"bike_id":"33fcd34d-24bc-4dcf-91c5-6b01f589ab2e","system_id":"levelo_inurba_marseille","lat":43.2407,"lon":5.37773,"is_reserved":false,"is_disabled":false,"rental_uris":{"android":"levelo://app?vid=33fcd34d-24bc-4dcf-91c5-6b01f589ab2e","ios":"levelo://app?vid=33fcd34d-24bc-4dcf-91c5-6b01f589ab2e"},"vehicle_type_id":"4","last_reported":1747577291,"current_range_meters":14400,"station_id":"ce4bhnp2rcd13ifvqgvg","pricing_plan_id":"cebpf4jnsgd1na2vs0mg"},{"bike_id":"2d43dba1-6ff7-4289-91c8-c617d5aac932","system_id":"levelo_inurba_marseille","lat":43.295718,"lon":5.374923,"is_reserved":false,"is_disabled":true,"rental_uris":{"android":"levelo://app?vid=2d43dba1-6ff7-4289-91c8-c617d5aac932","ios":"levelo://app?vid=2d43dba1-6ff7-4289-91c8-c617d5aac932"},"vehicle_type_id":"4","last_reported":1747577291,"current_range_meters":14800,"station_id":"ce4bgh92rcd13ifvqb50","pricing_plan_id":"cebpf4jnsgd1na2vs0mg"},{"bike_id":"4e226aff-cee9-43f3-800d-074a07184a90","system_id":"levelo_inurba_marseille","lat":43.32285,"lon":5.38283,"is_reserved":false,"is_disabled":false,"rental_uris":{"android":"levelo://app?vid=4e226aff-cee9-43f3-800d-074a07184a90","ios":"levelo://app?vid=4e226aff-cee9-43f3-800d-074a07184a90"},"vehicle_type_id":"4","last_reported":1747577291,"current_range_meters":14800,"station_id":"ce4bhr12rcd13ifvqhqg","pricing_plan_id":"cebpf4jnsgd1na2vs0mg"},{"bike_id":"bf2b2bfb-9733-4bda-908d-03391ae976cc","system_id":"levelo_inurba_marseille","lat":43.31194,"lon":5.41594,"is_reserved":false,"is_disabled":false,"rental_uris":{"android":"levelo://app?vid=bf2b2bfb-9733-4bda-908d-03391ae976cc","ios":"levelo://app?vid=bf2b2bfb-9733-4bda-908d-03391ae976cc"},"vehicle_type_id":"4","last_reported":1747577291,"current_range_meters":14800,"station_id":"","pricing_plan_id":"cebpf4jnsgd1na2vs0mg"},{"bike_id":"ed34fad4-c48e-4c1a-b9b1-8eb1cd77d573","system_id":"levelo_inurba_marseille","lat":43.30922,"lon":5.38651,"is_reserved":false,"is_disabled":false,"rental_uris":{"android":"levelo://app?vid=ed34fad4-c48e-4c1a-b9b1-8eb1cd77d573","ios":"levelo://app?vid=ed34fad4-c48e-4c1a-b9b1-8eb1cd77d573"},"vehicle_type_id":"4","last_reported":1747577291,"current_range_meters":14800,"station_id":"ce4bgv12rcd13ifvqcp0","pricing_plan_id":"cebpf4jnsgd1na2vs0mg"},{"bike_id":"cbafa72f-3ea1-48f2-965a-223001a17895","system_id":"levelo_inurba_marseille","lat":43.24664,"lon":5.38165,"is_reserved":false,"is_disabled":false,"rental_uris":{"android":"levelo://app?vid=cbafa72f-3ea1-48f2-965a-223001a17895","ios":"levelo://app?vid=cbafa72f-3ea1-48f2-965a-223001a17895"},"vehicle_type_id":"4","last_reported":1747577291,"current_range_meters":15200,"station_id":"ce4bhih2rcd13ifvqfr0","pricing_plan_id":"cebpf4jnsgd1na2vs0mg"},{"bike_id":"1bbca78a-c83f-4de6-934f-aa529128ce36","system_id":"levelo_inurba_marseille","lat":43.2418,"lon":5.36384,"is_reserved":false,"is_disabled":false,"rental_uris":{"android":"levelo://app?vid=1bbca78a-c83f-4de6-934f-aa529128ce36","ios":"levelo://app?vid=1bbca78a-c83f-4de6-934f-aa529128ce36"},"vehicle_type_id":"4","last_reported":1747577291,"current_range_meters":15200,"station_id":"cpo36qri1sfpv3e86is0","pricing_plan_id":"cebpf4jnsgd1na2vs0mg"},{"bike_id":"b917d5e8-5ba3-4281-a45b-0a1908463d58","system_id":"levelo_inurba_marseille","lat":43.24178,"lon":5.3972,"is_reserved":false,"is_disabled":false,"rental_uris":{"android":"levelo://app?vid=b917d5e8-5ba3-4281-a45b-0a1908463d58","ios":"levelo://app?vid=b917d5e8-5ba3-4281-a45b-0a1908463d58"},"vehicle_type_id":"4","last_reported":1747577291,"current_range_meters":15200,"station_id":"ce4bhn12rcd13ifvqgpg","pricing_plan_id":"cebpf4jnsgd1na2vs0mg"},{"bike_id":"f0e132cf-91c0-4bbd-95f6-c58ec1763709","system_id":"levelo_inurba_marseille","lat":43.21188,"lon":5.35076,"is_reserved":false,"is_disabled":false,"rental_uris":{"android":"levelo://app?vid=f0e132cf-91c0-4bbd-95f6-c58ec1763709","ios":"levelo://app?vid=f0e132cf-91c0-4bbd-95f6-c58ec1763709"},"vehicle_type_id":"4","last_reported":1747577291,"current_range_meters":15200,"station_id":"st_cvj6sg6p6f1abm77japg","pricing_plan_id":"cebpf4jnsgd1na2vs0mg"},{"bike_id":"cfee810e-8503-4cf6-a017-ace9f3c89097","system_id":"levelo_inurba_marseille","lat":43.27373,"lon":5.36259,"is_reserved":false,"is_disabled":false,"rental_uris":{"android":"levelo://app?vid=cfee810e-8503-4cf6-a017-ace9f3c89097","ios":"levelo://app?vid=cfee810e-8503-4cf6-a017-ace9f3c89097"},"vehicle_type_id":"4","last_reported":1747577291,"current_range_meters":15200,"station_id":"ce4bhbh2rcd13ifvqeo0","pricing_plan_id":"cebpf4jnsgd1na2vs0mg"},{"bike_id":"86603db7-b462-4e72-8622-a2dee8bb2920","system_id":"levelo_inurba_marseille","lat":43.337444,"lon":5.374475,"is_reserved":false,"is_disabled":false,"rental_uris":{"android":"levelo://app?vid=86603db7-b462-4e72-8622-a2dee8bb2920","ios":"levelo://app?vid=86603db7-b462-4e72-8622-a2dee8bb2920"},"vehicle_type_id":"4","last_reported":1747577291,"current_range_meters":15200,"station_id":"","pricing_plan_id":"cebpf4jnsgd1na2vs0mg"},{"bike_id":"19456222-7d38-48cf-a950-06daadd07927","system_id":"levelo_inurba_marseille","lat":43.2502,"lon":5.37521,"is_reserved":false,"is_disabled":false,"rental_uris":{"android":"levelo://app?vid=19456222-7d38-48cf-a950-06daadd07927","ios":"levelo://app?vid=19456222-7d38-48cf-a950-06daadd07927"},"vehicle_type_id":"4","last_reported":1747577291,"current_range_meters":16000,"station_id":"","pricing_plan_id":"cebpf4jnsgd1na2vs0mg"},{"bike_id":"bcbdbd69-7be8-42f8-a855-a4358565de8f","system_id":"levelo_inurba_marseille","lat":43.27747,"lon":5.41431,"is_reserved":false,"is_disabled":false,"rental_uris":{"android":"levelo://app?vid=bcbdbd69-7be8-42f8-a855-a4358565de8f","ios":"levelo://app?vid=bcbdbd69-7be8-42f8-a855-a4358565de8f"},"vehicle_type_id":"4","last_reported":1747577291,"current_range_meters":16000,"station_id":"","pricing_plan_id":"cebpf4jnsgd1na2vs0mg"},{"bike_id":"b96a4e7c-0de7-41da-b086-8b5a8e70a687","system_id":"levelo_inurba_marseille","lat":43.27229,"lon":5.39214,"is_reserved":false,"is_disabled":true,"rental_uris":{"android":"levelo://app?vid=b96a4e7c-0de7-41da-b086-8b5a8e70a687","ios":"levelo://app?vid=b96a4e7c-0de7-41da-b086-8b5a8e70a687"},"vehicle_type_id":"4","last_reported":1747577291,"current_range_meters":16000,"station_id":"ce4bhhp2rcd13ifvqfm0","pricing_plan_id":"cebpf4jnsgd1na2vs0mg"},{"bike_id":"a675f4e5-fc13-43cf-92f6-6acfa57913c0","system_id":"levelo_inurba_marseille","lat":43.290262,"lon":5.381332,"is_reserved":false,"is_disabled":true,"rental_uris":{"android":"levelo://app?vid=a675f4e5-fc13-43cf-92f6-6acfa57913c0","ios":"levelo://app?vid=a675f4e5-fc13-43cf-92f6-6acfa57913c0"},"vehicle_type_id":"4","last_reported":1747577291,"current_range_meters":16000,"station_id":"ce4bh4p2rcd13ifvqe1g","pricing_plan_id":"cebpf4jnsgd1na2vs0mg"},{"bike_id":"7e85683c-0527-4a85-9ab8-35d06ff2f9ad","system_id":"levelo_inurba_marseille","lat":43.29421,"lon":5.38634,"is_reserved":false,"is_disabled":true,"rental_uris":{"android":"levelo://app?vid=7e85683c-0527-4a85-9ab8-35d06ff2f9ad","ios":"levelo://app?vid=7e85683c-0527-4a85-9ab8-35d06ff2f9ad"},"vehicle_type_id":"4","last_reported":1747577291,"current_range_meters":16000,"station_id":"ce4bh2h2rcd13ifvqdh0","pricing_plan_id":"cebpf4jnsgd1na2vs0mg"},{"bike_id":"831c9db4-0ff2-47fd-9906-a15bea8601e6","system_id":"levelo_inurba_marseille","lat":43.24804,"lon":5.37451,"is_reserved":false,"is_disabled":false,"rental_uris":{"android":"levelo://app?vid=831c9db4-0ff2-47fd-9906-a15bea8601e6","ios":"levelo://app?vid=831c9db4-0ff2-47fd-9906-a15bea8601e6"},"vehicle_type_id":"4","last_reported":1747577291,"current_range_meters":16000,"station_id":"ce4bhgh2rcd13ifvqfb0","pricing_plan_id":"cebpf4jnsgd1na2vs0mg"},{"bike_id":"ddd4b635-a9b7-4bb8-a716-ca3e148a2b25","system_id":"levelo_inurba_marseille","lat":43.28414,"lon":5.34993,"is_reserved":false,"is_disabled":false,"rental_uris":{"android":"levelo://app?vid=ddd4b635-a9b7-4bb8-a716-ca3e148a2b25","ios":"levelo://app?vid=ddd4b635-a9b7-4bb8-a716-ca3e148a2b25"},"vehicle_type_id":"4","last_reported":1747577291,"current_range_meters":16000,"station_id":"ce4bhbh2rcd13ifvqepg","pricing_plan_id":"cebpf4jnsgd1na2vs0mg"},{"bike_id":"e347a7e0-259e-4073-b09f-d9e3873701b0","system_id":"levelo_inurba_marseille","lat":43.24168,"lon":5.36394,"is_reserved":false,"is_disabled":false,"rental_uris":{"android":"levelo://app?vid=e347a7e0-259e-4073-b09f-d9e3873701b0","ios":"levelo://app?vid=e347a7e0-259e-4073-b09f-d9e3873701b0"},"vehicle_type_id":"4","last_reported":1747577291,"current_range_meters":16000,"station_id":"cpo36qri1sfpv3e86is0","pricing_plan_id":"cebpf4jnsgd1na2vs0mg"},{"bike_id":"842b63b4-ed0b-46f3-b42a-d9f22c2aa509","system_id":"levelo_inurba_marseille","lat":43.21719,"lon":5.34647,"is_reserved":false,"is_disabled":false,"rental_uris":{"android":"levelo://app?vid=842b63b4-ed0b-46f3-b42a-d9f22c2aa509","ios":"levelo://app?vid=842b63b4-ed0b-46f3-b42a-d9f22c2aa509"},"vehicle_type_id":"4","last_reported":1747577291,"current_range_meters":16000,"station_id":"st_cvj6r9ubvosntc0bgbag","pricing_plan_id":"cebpf4jnsgd1na2vs0mg"},{"bike_id":"0500a0c4-b0b2-4a71-a2b6-d21828da73fb","system_id":"levelo_inurba_marseille","lat":43.25504,"lon":5.37649,"is_reserved":false,"is_disabled":false,"rental_uris":{"android":"levelo://app?vid=0500a0c4-b0b2-4a71-a2b6-d21828da73fb","ios":"levelo://app?vid=0500a0c4-b0b2-4a71-a2b6-d21828da73fb"},"vehicle_type_id":"4","last_reported":1747577291,"current_range_meters":16000,"station_id":"ce4bhh12rcd13ifvqff0","pricing_plan_id":"cebpf4jnsgd1na2vs0mg"},{"bike_id":"c2a7543e-cdd4-4fe7-a97b-7d6a3ea6cf7e","system_id":"levelo_inurba_marseille","lat":43.24389,"lon":5.37062,"is_reserved":false,"is_disabled":false,"rental_uris":{"android":"levelo://app?vid=c2a7543e-cdd4-4fe7-a97b-7d6a3ea6cf7e","ios":"levelo://app?vid=c2a7543e-cdd4-4fe7-a97b-7d6a3ea6cf7e"},"vehicle_type_id":"4","last_reported":1747577291,"current_range_meters":16400,"station_id":"ce4bhhh2rcd13ifvqfk0","pricing_plan_id":"cebpf4jnsgd1na2vs0mg"},{"bike_id":"bac7e533-f494-43e3-93ee-13bed4413231","system_id":"levelo_inurba_marseille","lat":43.282608,"lon":5.35073,"is_reserved":false,"is_disabled":false,"rental_uris":{"android":"levelo://app?vid=bac7e533-f494-43e3-93ee-13bed4413231","ios":"levelo://app?vid=bac7e533-f494-43e3-93ee-13bed4413231"},"vehicle_type_id":"4","last_reported":1747577291,"current_range_meters":16400,"station_id":"ce4bhbp2rcd13ifvqerg","pricing_plan_id":"cebpf4jnsgd1na2vs0mg"},{"bike_id":"c8fb29a4-c48c-4e5e-9b7e-7d8e78101c35","system_id":"levelo_inurba_marseille","lat":43.25495,"lon":5.37644,"is_reserved":false,"is_disabled":false,"rental_uris":{"android":"levelo://app?vid=c8fb29a4-c48c-4e5e-9b7e-7d8e78101c35","ios":"levelo://app?vid=c8fb29a4-c48c-4e5e-9b7e-7d8e78101c35"},"vehicle_type_id":"4","last_reported":1747577291,"current_range_meters":16400,"station_id":"ce4bhh12rcd13ifvqff0","pricing_plan_id":"cebpf4jnsgd1na2vs0mg"},{"bike_id":"26ae3f71-446b-4d48-9715-d0cb78472fbf","system_id":"levelo_inurba_marseille","lat":43.31157,"lon":5.36989,"is_reserved":false,"is_disabled":false,"rental_uris":{"android":"levelo://app?vid=26ae3f71-446b-4d48-9715-d0cb78472fbf","ios":"levelo://app?vid=26ae3f71-446b-4d48-9715-d0cb78472fbf"},"vehicle_type_id":"4","last_reported":1747577291,"current_range_meters":16400,"station_id":"","pricing_plan_id":"cebpf4jnsgd1na2vs0mg"},{"bike_id":"3a022379-4c59-4d24-a1d2-b19883255fbc","system_id":"levelo_inurba_marseille","lat":43.23197,"lon":5.35547,"is_reserved":false,"is_disabled":false,"rental_uris":{"android":"levelo://app?vid=3a022379-4c59-4d24-a1d2-b19883255fbc","ios":"levelo://app?vid=3a022379-4c59-4d24-a1d2-b19883255fbc"},"vehicle_type_id":"4","last_reported":1747577291,"current_range_meters":16400,"station_id":"ce4bhu92rcd13ifvqi70","pricing_plan_id":"cebpf4jnsgd1na2vs0mg"},{"bike_id":"4ecc4c02-fdf9-4c60-9fba-157707127bef","system_id":"levelo_inurba_marseille","lat":43.28445,"lon":5.39206,"is_reserved":false,"is_disabled":false,"rental_uris":{"android":"levelo://app?vid=4ecc4c02-fdf9-4c60-9fba-157707127bef","ios":"levelo://app?vid=4ecc4c02-fdf9-4c60-9fba-157707127bef"},"vehicle_type_id":"4","last_reported":1747577291,"current_range_meters":17200,"station_id":"ce4bhoh2rcd13ifvqh5g","pricing_plan_id":"cebpf4jnsgd1na2vs0mg"},{"bike_id":"c4e890eb-f578-4976-93dc-80dde712c486","system_id":"levelo_inurba_marseille","lat":43.24167,"lon":5.36389,"is_reserved":false,"is_disabled":false,"rental_uris":{"android":"levelo://app?vid=c4e890eb-f578-4976-93dc-80dde712c486","ios":"levelo://app?vid=c4e890eb-f578-4976-93dc-80dde712c486"},"vehicle_type_id":"4","last_reported":1747577291,"current_range_meters":17200,"station_id":"cpo36qri1sfpv3e86is0","pricing_plan_id":"cebpf4jnsgd1na2vs0mg"},{"bike_id":"8c33a95f-90c5-4528-8850-73684fb06dad","system_id":"levelo_inurba_marseille","lat":43.23964,"lon":5.36676,"is_reserved":false,"is_disabled":false,"rental_uris":{"android":"levelo://app?vid=8c33a95f-90c5-4528-8850-73684fb06dad","ios":"levelo://app?vid=8c33a95f-90c5-4528-8850-73684fb06dad"},"vehicle_type_id":"4","last_reported":1747577291,"current_range_meters":16800,"station_id":"ce4bhi12rcd13ifvqfp0","pricing_plan_id":"cebpf4jnsgd1na2vs0mg"},