{"last_updated":1686942283,"ttl":30,"version":"2.2","data":{"bikes":[{"bike_id":"d9738b0b-fc24-4447-811c-011c5dfc66cb","system_id":"levelo_inurba_marseille","lat":43.314811,"lon":5.373103,"is_reserved":false,"is_disabled":false,"rental_uris":{"android":"levelo://app?vid=d9738b0b-fc24-4447-811c-011c5dfc66cb","ios":"levelo://app?vid=d9738b0b-fc24-4447-811c-011c5dfc66cb"},"vehicle_type_id":"4","last_reported":1686942283,"current_range_meters":10000,"station_id":"ce4bgt12rcd13ifvqcd0","pricing_plan_id":"free"},{"bike_id":"6152fcf4-25e3-44d3-b338-c3484a119f3c","system_id":"levelo_inurba_marseille","lat":43.314811,"lon":5.373104,"is_reserved":false,"is_disabled":false,"rental_uris":{"android":"levelo://app?vid=6152fcf4-25e3-44d3-b338-c3484a119f3c","ios":"levelo://app?vid=6152fcf4-25e3-44d3-b338-c3484a119f3c"},"vehicle_type_id":"4","last_reported":1686942283,"current_range_meters":2800,"station_id":"ce4bgt12rcd13ifvqcd0","pricing_plan_id":"free"},{"bike_id":"8f63034f-29b0-4cf1-9697-a955fc2b4494","system_id":"levelo_inurba_marseille","lat":43.308606,"lon":5.372099,"is_reserved":false,"is_disabled":false,"rental_uris":{"android":"levelo://app?vid=8f63034f-29b0-4cf1-9697-a955fc2b4494","ios":"levelo://app?vid=8f63034f-29b0-4cf1-9697-a955fc2b4494"},"vehicle_type_id":"4","last_reported":1686942283,"current_range_meters":2400,"station_id":"ce4bguh2rcd13ifvqckg","pricing_plan_id":"free"},{"bike_id":"da86bf5f-320c-40d1-bf20-4965b4734599","system_id":"levelo_inurba_marseille","lat":43.305368,"lon":5.367343,"is_reserved":false,"is_disabled":false,"rental_uris":{"android":"levelo://app?vid=da86bf5f-320c-40d1-bf20-4965b4734599","ios":"levelo://app?vid=da86bf5f-320c-40d1-bf20-4965b4734599"},"vehicle_type_id":"4","last_reported":1686942283,"current_range_meters":31200,"station_id":"ce4bgrp2rcd13ifvqc9g","pricing_plan_id":"free"},{"bike_id":"f75c03a2-2a00-4589-9143-b3e358ec85ad","system_id":"levelo_inurba_marseille","lat":43.305368,"lon":5.367343,"is_reserved":false,"is_disabled":false,"rental_uris":{"android":"levelo://app?vid=f75c03a2-2a00-4589-9143-b3e358ec85ad","ios":"levelo://app?vid=f75c03a2-2a00-4589-9143-b3e358ec85ad"},"vehicle_type_id":"4","last_reported":1686942283,"current_range_meters":31200,"station_id":"ce4bgrp2rcd13ifvqc9g","pricing_plan_id":"free"},{"bike_id":"cc4b06a7-07b6-4db8-84ce-694b74915532","system_id":"levelo_inurba_marseille","lat":43.305368,"lon":5.367343,"is_reserved":false,"is_disabled":false,"rental_uris":{"android":"levelo://app?vid=cc4b06a7-07b6-4db8-84ce-694b74915532","ios":"levelo://app?vid=cc4b06a7-07b6-4db8-84ce-694b74915532"},"vehicle_type_id":"4","last_reported":1686942283,"current_range_meters":30800,"station_id":"ce4bgrp2rcd13ifvqc9g","pricing_plan_id":"free"},{"bike_id":"d64807c8-94b2-440e-8a2d-1039d29c6f6e","system_id":"levelo_inurba_marseille","lat":43.305368,"lon":5.367343,"is_reserved":false,"is_disabled":false,"rental_uris":{"android":"levelo://app?vid=d64807c8-94b2-440e-8a2d-1039d29c6f6e","ios":"levelo://app?vid=d64807c8-94b2-440e-8a2d-1039d29c6f6e"},"vehicle_type_id":"4","last_reported":1686942283,"current_range_meters":31200,"station_id":"ce4bgrp2rcd13ifvqc9g","pricing_plan_id":"free"},{"bike_id":"cf924ad5-caa1-4cec-8e3b-8752b7351795","system_id":"levelo_inurba_marseille","lat":43.311125,"lon":5.377624,"is_reserved":false,"is_disabled":false,"rental_uris":{"android":"levelo://app?vid=cf924ad5-caa1-4cec-8e3b-8752b7351795","ios":"levelo://app?vid=cf924ad5-caa1-4cec-8e3b-8752b7351795"},"vehicle_type_id":"4","last_reported":1686942283,"current_range_meters":3200,"station_id":"ce4bgt92rcd13ifvqcg0","pricing_plan_id":"free"},{"bike_id":"06361a91-d891-4335-9e58-ff1e089d7827","system_id":"levelo_inurba_marseille","lat":43.317075,"lon":5.377367,"is_reserved":false,"is_disabled":false,"rental_uris":{"android":"levelo://app?vid=06361a91-d891-4335-9e58-ff1e089d7827","ios":"levelo://app?vid=06361a91-d891-4335-9e58-ff1e089d7827"},"vehicle_type_id":"4","last_reported":1686942283,"current_range_meters":3600,"station_id":"ce4bgth2rcd13ifvqch0","pricing_plan_id":"free"},{"bike_id":"2424216c-0462-4ad0-b127-d0366c91b61c","system_id":"levelo_inurba_marseille","lat":43.317075,"lon":5.377367,"is_reserved":false,"is_disabled":false,"rental_uris":{"android":"levelo://app?vid=2424216c-0462-4ad0-b127-d0366c91b61c","ios":"levelo://app?vid=2424216c-0462-4ad0-b127-d0366c91b61c"},"vehicle_type_id":"4","last_reported":1686942283,"current_range_meters":29600,"station_id":"ce4bgth2rcd13ifvqch0","pricing_plan_id":"free"},{"bike_id":"ce73f4af-8f74-45b6-a910-a10cb8e5efa6","system_id":"levelo_inurba_marseille","lat":43.303046,"lon":5.368981,"is_reserved":false,"is_disabled":false,"rental_uris":{"android":"levelo://app?vid=ce73f4af-8f74-45b6-a910-a10cb8e5efa6","ios":"levelo://app?vid=ce73f4af-8f74-45b6-a910-a10cb8e5efa6"},"vehicle_type_id":"4","last_reported":1686942283,"current_range_meters":27200,"station_id":"ce4bgqh2rcd13ifvqc5g","pricing_plan_id":"free"},{"bike_id":"ae33307b-fcd5-479b-9ae1-9002ed226c6e","system_id":"levelo_inurba_marseille","lat":43.308012,"lon":5.381511,"is_reserved":false,"is_disabled":false,"rental_uris":{"android":"levelo://app?vid=ae33307b-fcd5-479b-9ae1-9002ed226c6e","ios":"levelo://app?vid=ae33307b-fcd5-479b-9ae1-9002ed226c6e"},"vehicle_type_id":"4","last_reported":1686942283,"current_range_meters":14000,"station_id":"ce4bgt12rcd13ifvqce0","pricing_plan_id":"free"},{"bike_id":"43fc693e-f2a9-4aec-8fd9-d094bb02cb70","system_id":"levelo_inurba_marseille","lat":43.304606,"lon":5.379026,"is_reserved":false,"is_disabled":false,"rental_uris":{"android":"levelo://app?vid=43fc693e-f2a9-4aec-8fd9-d094bb02cb70","ios":"levelo://app?vid=43fc693e-f2a9-4aec-8fd9-d094bb02cb70"},"vehicle_type_id":"4","last_reported":1686942283,"current_range_meters":24000,"station_id":"ce4bgup2rcd13ifvqcn0","pricing_plan_id":"free"},{"bike_id":"fc4a69da-5dee-4c68-8631-20ee11bc487b","system_id":"levelo_inurba_marseille","lat":43.304606,"lon":5.379026,"is_reserved":false,"is_disabled":false,"rental_uris":{"android":"levelo://app?vid=fc4a69da-5dee-4c68-8631-20ee11bc487b","ios":"levelo://app?vid=fc4a69da-5dee-4c68-8631-20ee11bc487b"},"vehicle_type_id":"4","last_reported":1686942283,"current_range_meters":30800,"station_id":"ce4bgup2rcd13ifvqcn0","pricing_plan_id":"free"},{"bike_id":"32827146-2d6b-4fb1-b00e-6b2f535ca544","system_id":"levelo_inurba_marseille","lat":43.30497,"lon":5.37964,"is_reserved":false,"is_disabled":false,"rental_uris":{"android":"levelo://app?vid=32827146-2d6b-4fb1-b00e-6b2f535ca544","ios":"levelo://app?vid=32827146-2d6b-4fb1-b00e-6b2f535ca544"},"vehicle_type_id":"4","last_reported":1686942283,"current_range_meters":31200,"station_id":"","pricing_plan_id":"free"},{"bike_id":"35c2b480-e69a-4543-9412-895f27c2a34e","system_id":"levelo_inurba_marseille","lat":43.319935,"lon":5.381699,"is_reserved":false,"is_disabled":false,"rental_uris":{"android":"levelo://app?vid=35c2b480-e69a-4543-9412-895f27c2a34e","ios":"levelo://app?vid=35c2b480-e69a-4543-9412-895f27c2a34e"},"vehicle_type_id":"4","last_reported":1686942283,"current_range_meters":7200,"station_id":"ce4bhr12rcd13ifvqhpg","pricing_plan_id":"free"},{"bike_id":"83ca08fc-4818-4623-9cc3-45246f2bb0cb","system_id":"levelo_inurba_marseille","lat":43.319935,"lon":5.381699,"is_reserved":false,"is_disabled":false,"rental_uris":{"android":"levelo://app?vid=83ca08fc-4818-4623-9cc3-45246f2bb0cb","ios":"levelo://app?vid=83ca08fc-4818-4623-9cc3-45246f2bb0cb"},"vehicle_type_id":"4","last_reported":1686942283,"current_range_meters":15200,"station_id":"ce4bhr12rcd13ifvqhpg","pricing_plan_id":"free"},{"bike_id":"4be3dee9-0a87-4edc-9ee6-a8fa4f420efa","system_id":"levelo_inurba_marseille","lat":43.299389,"lon":5.365534,"is_reserved":false,"is_disabled":false,"rental_uris":{"android":"levelo://app?vid=4be3dee9-0a87-4edc-9ee6-a8fa4f420efa","ios":"levelo://app?vid=4be3dee9-0a87-4edc-9ee6-a8fa4f420efa"},"vehicle_type_id":"4","last_reported":1686942283,"current_range_meters":24800,"station_id":"","pricing_plan_id":"free"},{"bike_id":"1cb4d8f3-e4a4-413b-8120-3de72d5a6243","system_id":"levelo_inurba_marseille","lat":43.29936,"lon":5.36559,"is_reserved":false,"is_disabled":false,"rental_uris":{"android":"levelo://app?vid=1cb4d8f3-e4a4-413b-8120-3de72d5a6243","ios":"levelo://app?vid=1cb4d8f3-e4a4-413b-8120-3de72d5a6243"},"vehicle_type_id":"4","last_reported":1686942283,"current_range_meters":30000,"station_id":"ce4bgm92rcd13ifvqbr0","pricing_plan_id":"free"},{"bike_id":"330412da-b9eb-49fa-9ba0-9288ee9ddd31","system_id":"levelo_inurba_marseille","lat":43.30047,"lon":5.37528,"is_reserved":false,"is_disabled":false,"rental_uris":{"android":"levelo://app?vid=330412da-b9eb-49fa-9ba0-9288ee9ddd31","ios":"levelo://app?vid=330412da-b9eb-49fa-9ba0-9288ee9ddd31"},"vehicle_type_id":"4","last_reported":1686942283,"current_range_meters":22400,"station_id":"","pricing_plan_id":"free"},{"bike_id":"bffdc40f-8b8d-49f9-aa9e-274a4a9d37ba","system_id":"levelo_inurba_marseille","lat":43.305364,"lon":5.384119,"is_reserved":false,"is_disabled":false,"rental_uris":{"android":"levelo://app?vid=bffdc40f-8b8d-49f9-aa9e-274a4a9d37ba","ios":"levelo://app?vid=bffdc40f-8b8d-49f9-aa9e-274a4a9d37ba"},"vehicle_type_id":"4","last_reported":1686942283,"current_range_meters":11600,"station_id":"ce4bgg92rcd13ifvqb30","pricing_plan_id":"free"},{"bike_id":"2eda2b14-1a54-4143-a60f-e834899ce276","system_id":"levelo_inurba_marseille","lat":43.298433,"lon":5.362774,"is_reserved":false,"is_disabled":false,"rental_uris":{"android":"levelo://app?vid=2eda2b14-1a54-4143-a60f-e834899ce276","ios":"levelo://app?vid=2eda2b14-1a54-4143-a60f-e834899ce276"},"vehicle_type_id":"4","last_reported":1686942283,"current_range_meters":800,"station_id":"ce4bgpp2rcd13ifvqc3g","pricing_plan_id":"free"},{"bike_id":"70464ebc-9ba1-4a7f-a867-dacc1d596662","system_id":"levelo_inurba_marseille","lat":43.305364,"lon":5.384119,"is_reserved":false,"is_disabled":false,"rental_uris":{"android":"levelo://app?vid=70464ebc-9ba1-4a7f-a867-dacc1d596662","ios":"levelo://app?vid=70464ebc-9ba1-4a7f-a867-dacc1d596662"},"vehicle_type_id":"4","last_reported":1686942283,"current_range_meters":12800,"station_id":"ce4bgg92rcd13ifvqb30","pricing_plan_id":"free"},{"bike_id":"092453a3-737b-49a2-85fd-f23c5be6da9d","system_id":"levelo_inurba_marseille","lat":43.29842,"lon":5.36268,"is_reserved":false,"is_disabled":false,"rental_uris":{"android":"levelo://app?vid=092453a3-737b-49a2-85fd-f23c5be6da9d","ios":"levelo://app?vid=092453a3-737b-49a2-85fd-f23c5be6da9d"},"vehicle_type_id":"4","last_reported":1686942283,"current_range_meters":400,"station_id":"ce4bgpp2rcd13ifvqc3g","pricing_plan_id":"free"},{"bike_id":"7365acb7-cd91-4b8e-a67a-bd6690b4a396","system_id":"levelo_inurba_marseille","lat":43.297163,"lon":5.365866,"is_reserved":false,"is_disabled":false,"rental_uris":{"android":"levelo://app?vid=7365acb7-cd91-4b8e-a67a-bd6690b4a396","ios":"levelo://app?vid=7365acb7-cd91-4b8e-a67a-bd6690b4a396"},"vehicle_type_id":"4","last_reported":1686942283,"current_range_meters":16000,"station_id":"ce4bgn12rcd13ifvqbt0","pricing_plan_id":"free"},{"bike_id":"e47e483a-199b-465a-ad0b-7e07db46e85b","system_id":"levelo_inurba_marseille","lat":43.297163,"lon":5.365866,"is_reserved":false,"is_disabled":false,"rental_uris":{"android":"levelo://app?vid=e47e483a-199b-465a-ad0b-7e07db46e85b","ios":"levelo://app?vid=e47e483a-199b-465a-ad0b-7e07db46e85b"},"vehicle_type_id":"4","last_reported":1686942283,"current_range_meters":0,"station_id":"ce4bgn12rcd13ifvqbt0","pricing_plan_id":"free"},{"bike_id":"176f4894-d7fc-460e-aa5d-7c8c1e206dc3","system_id":"levelo_inurba_marseille","lat":43.297163,"lon":5.365866,"is_reserved":false,"is_disabled":false,"rental_uris":{"android":"levelo://app?vid=176f4894-d7fc-460e-aa5d-7c8c1e206dc3","ios":"levelo://app?vid=176f4894-d7fc-460e-aa5d-7c8c1e206dc3"},"vehicle_type_id":"4","last_reported":1686942283,"current_range_meters":19600,"station_id":"ce4bgn12rcd13ifvqbt0","pricing_plan_id":"free"},{"bike_id":"1745fb01-7597-4565-acf6-dfcdddcec512","system_id":"levelo_inurba_marseille","lat":43.297163,"lon":5.365866,"is_reserved":false,"is_disabled":false,"rental_uris":{"android":"levelo://app?vid=1745fb01-7597-4565-acf6-dfcdddcec512","ios":"levelo://app?vid=1745fb01-7597-4565-acf6-dfcdddcec512"},"vehicle_type_id":"4","last_reported":1686942283,"current_range_meters":0,"station_id":"ce4bgn12rcd13ifvqbt0","pricing_plan_id":"free"},{"bike_id":"88d0330c-5bb0-4a19-9b65-d4683b42e015","system_id":"levelo_inurba_marseille","lat":43.29683,"lon":5.36046,"is_reserved":false,"is_disabled":false,"rental_uris":{"android":"levelo://app?vid=88d0330c-5bb0-4a19-9b65-d4683b42e015","ios":"levelo://app?vid=88d0330c-5bb0-4a19-9b65-d4683b42e015"},"vehicle_type_id":"4","last_reported":1686942283,"current_range_meters":9200,"station_id":"ce4bgpp2rcd13ifvqc3g","pricing_plan_id":"free"},{"bike_id":"4c7ec6cf-37b9-4084-821f-528cc3b4d7bf","system_id":"levelo_inurba_marseille","lat":43.29581,"lon":5.3674,"is_reserved":false,"is_disabled":false,"rental_uris":{"android":"levelo://app?vid=4c7ec6cf-37b9-4084-821f-528cc3b4d7bf","ios":"levelo://app?vid=4c7ec6cf-37b9-4084-821f-528cc3b4d7bf"},"vehicle_type_id":"4","last_reported":1686942283,"current_range_meters":0,"station_id":"ce4bgph2rcd13ifvqc2g","pricing_plan_id":"free"},{"bike_id":"801d090d-e336-4208-b3b1-935482df6b89","system_id":"levelo_inurba_marseille","lat":43.2958,"lon":5.3675,"is_reserved":false,"is_disabled":false,"rental_uris":{"android":"levelo://app?vid=801d090d-e336-4208-b3b1-935482df6b89","ios":"levelo://app?vid=801d090d-e336-4208-b3b1-935482df6b89"},"vehicle_type_id":"4","last_reported":1686942283,"current_range_meters":800,"station_id":"ce4bgph2rcd13ifvqc2g","pricing_plan_id":"free"},{"bike_id":"c514e467-cef7-4f2a-a4f8-2c9557cf4116","system_id":"levelo_inurba_marseille","lat":43.29579,"lon":5.36739,"is_reserved":false,"is_disabled":false,"rental_uris":{"android":"levelo://app?vid=c514e467-cef7-4f2a-a4f8-2c9557cf4116","ios":"levelo://app?vid=c514e467-cef7-4f2a-a4f8-2c9557cf4116"},"vehicle_type_id":"4","last_reported":1686942283,"current_range_meters":0,"station_id":"","pricing_plan_id":"free"},{"bike_id":"24f41ca5-b432-4feb-a0c8-a15026b97306","system_id":"levelo_inurba_marseille","lat":43.296131,"lon":5.370773,"is_reserved":false,"is_disabled":false,"rental_uris":{"android":"levelo://app?vid=24f41ca5-b432-4feb-a0c8-a15026b97306","ios":"levelo://app?vid=24f41ca5-b432-4feb-a0c8-a15026b97306"},"vehicle_type_id":"4","last_reported":1686942283,"current_range_meters":18800,"station_id":"ce4bgnh2rcd13ifvqc0g","pricing_plan_id":"free"},{"bike_id":"d6733261-f49d-437f-a628-8154d55002ee","system_id":"levelo_inurba_marseille","lat":43.296935,"lon":5.376544,"is_reserved":false,"is_disabled":false,"rental_uris":{"android":"levelo://app?vid=d6733261-f49d-437f-a628-8154d55002ee","ios":"levelo://app?vid=d6733261-f49d-437f-a628-8154d55002ee"},"vehicle_type_id":"4","last_reported":1686942283,"current_range_meters":18000,"station_id":"ce4bgkh2rcd13ifvqbl0","pricing_plan_id":"free"},{"bike_id":"66ed6a2c-44cd-4db7-835f-bcc517a0ce1f","system_id":"levelo_inurba_marseille","lat":43.299028,"lon":5.381509,"is_reserved":false,"is_disabled":false,"rental_uris":{"android":"levelo://app?vid=66ed6a2c-44cd-4db7-835f-bcc517a0ce1f","ios":"levelo://app?vid=66ed6a2c-44cd-4db7-835f-bcc517a0ce1f"},"vehicle_type_id":"4","last_reported":1686942283,"current_range_meters":3600,"station_id":"ce4bgj12rcd13ifvqbc0","pricing_plan_id":"free"},{"bike_id":"d6bd618b-f3d0-4373-8822-de0a85e96c6b","system_id":"levelo_inurba_marseille","lat":43.309589,"lon":5.390258,"is_reserved":false,"is_disabled":false,"rental_uris":{"android":"levelo://app?vid=d6bd618b-f3d0-4373-8822-de0a85e96c6b","ios":"levelo://app?vid=d6bd618b-f3d0-4373-8822-de0a85e96c6b"},"vehicle_type_id":"4","last_reported":1686942283,"current_range_meters":29600,"station_id":"ce4bgup2rcd13ifvqco0","pricing_plan_id":"free"},{"bike_id":"76385cab-6d9f-4fba-b9e5-2bb9ea64705b","system_id":"levelo_inurba_marseille","lat":43.309589,"lon":5.390258,"is_reserved":false,"is_disabled":false,"rental_uris":{"android":"levelo://app?vid=76385cab-6d9f-4fba-b9e5-2bb9ea64705b","ios":"levelo://app?vid=76385cab-6d9f-4fba-b9e5-2bb9ea64705b"},"vehicle_type_id":"4","last_reported":1686942283,"current_range_meters":20400,"station_id":"ce4bgup2rcd13ifvqco0","pricing_plan_id":"free"},{"bike_id":"e180abdb-4232-4770-a2c2-4dc7b3d67b22","system_id":"levelo_inurba_marseille","lat":43.309589,"lon":5.390258,"is_reserved":false,"is_disabled":false,"rental_uris":{"android":"levelo://app?vid=e180abdb-4232-4770-a2c2-4dc7b3d67b22","ios":"levelo://app?vid=e180abdb-4232-4770-a2c2-4dc7b3d67b22"},"vehicle_type_id":"4","last_reported":1686942283,"current_range_meters":15200,"station_id":"ce4bgup2rcd13ifvqco0","pricing_plan_id":"free"},{"bike_id":"f6ce482a-1c95-4e37-a07c-1ed654782fb2","system_id":"levelo_inurba_marseille","lat":43.309589,"lon":5.390258,"is_reserved":false,"is_disabled":false,"rental_uris":{"android":"levelo://app?vid=f6ce482a-1c95-4e37-a07c-1ed654782fb2","ios":"levelo://app?vid=f6ce482a-1c95-4e37-a07c-1ed654782fb2"},"vehicle_type_id":"4","last_reported":1686942283,"current_range_meters":1200,"station_id":"ce4bgup2rcd13ifvqco0","pricing_plan_id":"free"},{"bike_id":"a2f9068e-588b-4db3-b002-9b7b8ac794af","system_id":"levelo_inurba_marseille","lat":43.309589,"lon":5.390258,"is_reserved":false,"is_disabled":false,"rental_uris":{"android":"levelo://app?vid=a2f9068e-588b-4db3-b002-9b7b8ac794af","ios":"levelo://app?vid=a2f9068e-588b-4db3-b002-9b7b8ac794af"},"vehicle_type_id":"4","last_reported":1686942283,"current_range_meters":24000,"station_id":"ce4bgup2rcd13ifvqco0","pricing_plan_id":"free"},{"bike_id":"3a4a4500-6b0d-46ab-9fd9-993e9d0e666e","system_id":"levelo_inurba_marseille","lat":43.309589,"lon":5.390258,"is_reserved":false,"is_disabled":false,"rental_uris":{"android":"levelo://app?vid=3a4a4500-6b0d-46ab-9fd9-993e9d0e666e","ios":"levelo://app?vid=3a4a4500-6b0d-46ab-9fd9-993e9d0e666e"},"vehicle_type_id":"4","last_reported":1686942283,"current_range_meters":8800,"station_id":"ce4bgup2rcd13ifvqco0","pricing_plan_id":"free"},{"bike_id":"82373e08-1430-41f2-b47f-e263cf989a81","system_id":"levelo_inurba_marseille","lat":43.309589,"lon":5.390258,"is_reserved":false,"is_disabled":false,"rental_uris":{"android":"levelo://app?vid=82373e08-1430-41f2-b47f-e263cf989a81","ios":"levelo://app?vid=82373e08-1430-41f2-b47f-e263cf989a81"},"vehicle_type_id":"4","last_reported":1686942283,"current_range_meters":20800,"station_id":"ce4bgup2rcd13ifvqco0","pricing_plan_id":"free"},{"bike_id":"f98b542c-4bfe-4ee4-9073-6d53829c1058","system_id":"levelo_inurba_marseille","lat":43.309589,"lon":5.390258,"is_reserved":false,"is_disabled":false,"rental_uris":{"android":"levelo://app?vid=f98b542c-4bfe-4ee4-9073-6d53829c1058","ios":"levelo://app?vid=f98b542c-4bfe-4ee4-9073-6d53829c1058"},"vehicle_type_id":"4","last_reported":1686942283,"current_range_meters":20000,"station_id":"ce4bgup2rcd13ifvqco0","pricing_plan_id":"free"},{"bike_id":"37243f0a-d986-43f5-9f1d-919c901c46c5","system_id":"levelo_inurba_marseille","lat":43.309589,"lon":5.390258,"is_reserved":false,"is_disabled":false,"rental_uris":{"android":"levelo://app?vid=37243f0a-d986-43f5-9f1d-919c901c46c5","ios":"levelo://app?vid=37243f0a-d986-43f5-9f1d-919c901c46c5"},"vehicle_type_id":"4","last_reported":1686942283,"current_range_meters":0,"station_id":"ce4bgup2rcd13ifvqco0","pricing_plan_id":"free"},{"bike_id":"f298148b-982a-4b93-867a-8e98f9a6be37","system_id":"levelo_inurba_marseille","lat":43.309589,"lon":5.390258,"is_reserved":false,"is_disabled":false,"rental_uris":{"android":"levelo://app?vid=f298148b-982a-4b93-867a-8e98f9a6be37","ios":"levelo://app?vid=f298148b-982a-4b93-867a-8e98f9a6be37"},"vehicle_type_id":"4","last_reported":1686942283,"current_range_meters":13600,"station_id":"ce4bgup2rcd13ifvqco0","pricing_plan_id":"free"},{"bike_id":"e33a8a75-4f8c-4598-afbe-9b1761cc031f","system_id":"levelo_inurba_marseille","lat":43.309589,"lon":5.390258,"is_reserved":false,"is_disabled":false,"rental_uris":{"android":"levelo://app?vid=e33a8a75-4f8c-4598-afbe-9b1761cc031f","ios":"levelo://app?vid=e33a8a75-4f8c-4598-afbe-9b1761cc031f"},"vehicle_type_id":"4","last_reported":1686942283,"current_range_meters":8800,"station_id":"ce4bgup2rcd13ifvqco0","pricing_plan_id":"free"},{"bike_id":"250c8a96-8498-4211-b8f3-1b00a8d1fbaf","system_id":"levelo_inurba_marseille","lat":43.296477,"lon":5.37768,"is_reserved":false,"is_disabled":false,"rental_uris":{"android":"levelo://app?vid=250c8a96-8498-4211-b8f3-1b00a8d1fbaf","ios":"levelo://app?vid=250c8a96-8498-4211-b8f3-1b00a8d1fbaf"},"vehicle_type_id":"4","last_reported":1686942283,"current_range_meters":19600,"station_id":"","pricing_plan_id":"free"},{"bike_id":"509ecbb0-502f-40ce-b367-0cba5ac78a27","system_id":"levelo_inurba_marseille","lat":43.304278,"lon":5.388868,"is_reserved":false,"is_disabled":false,"rental_uris":{"android":"levelo://app?vid=509ecbb0-502f-40ce-b367-0cba5ac78a27","ios":"levelo://app?vid=509ecbb0-502f-40ce-b367-0cba5ac78a27"},"vehicle_type_id":"4","last_reported":1686942283,"current_range_meters":31200,"station_id":"ce4bgk12rcd13ifvqbi0","pricing_plan_id":"free"},{"bike_id":"7ed707e3-c9d9-4cb0-a991-702c29f16b02","system_id":"levelo_inurba_marseille","lat":43.299707,"lon":5.384859,"is_reserved":false,"is_disabled":false,"rental_uris":{"android":"levelo://app?vid=7ed707e3-c9d9-4cb0-a991-702c29f16b02","ios":"levelo://app?vid=7ed707e3-c9d9-4cb0-a991-702c29f16b02"},"vehicle_type_id":"4","last_reported":1686942283,"current_range_meters":17200,"station_id":"ce4bgj92rcd13ifvqbd0","pricing_plan_id":"free"},{"bike_id":"9a9d3323-7be3-4942-aefc-ee93d3d54201","system_id":"levelo_inurba_marseille","lat":43.295279,"lon":5.375048,"is_reserved":false,"is_disabled":false,"rental_uris":{"android":"levelo://app?vid=9a9d3323-7be3-4942-aefc-ee93d3d54201","ios":"levelo://app?vid=9a9d3323-7be3-4942-aefc-ee93d3d54201"},"vehicle_type_id":"4","last_reported":1686942283,"current_range_meters":6000,"station_id":"ce4bgkp2rcd13ifvqbmg","pricing_plan_id":"free"},{"bike_id":"2c9ad911-25e0-4222-8751-d809dfadd582","system_id":"levelo_inurba_marseille","lat":43.32367,"lon":5.38856,"is_reserved":false,"is_disabled":false,"rental_uris":{"android":"levelo://app?vid=2c9ad911-25e0-4222-8751-d809dfadd582","ios":"levelo://app?vid=2c9ad911-25e0-4222-8751-d809dfadd582"},"vehicle_type_id":"4","last_reported":1686942283,"current_range_meters":29600,"station_id":"ce4bhqp2rcd13ifvqhog","pricing_plan_id":"free"},{"bike_id":"6a262f0e-f14a-4b8c-a27e-1f19206efa3b","system_id":"levelo_inurba_marseille","lat":43.31422,"lon":5.3938,"is_reserved":false,"is_disabled":false,"rental_uris":{"android":"levelo://app?vid=6a262f0e-f14a-4b8c-a27e-1f19206efa3b","ios":"levelo://app?vid=6a262f0e-f14a-4b8c-a27e-1f19206efa3b"},"vehicle_type_id":"4","last_reported":1686942283,"current_range_meters":28000,"station_id":"","pricing_plan_id":"free"},{"bike_id":"eaac3a64-d563-41a5-8d60-920dfaea6bb7","system_id":"levelo_inurba_marseille","lat":43.29601,"lon":5.381084,"is_reserved":false,"is_disabled":false,"rental_uris":{"android":"levelo://app?vid=eaac3a64-d563-41a5-8d60-920dfaea6bb7","ios":"levelo://app?vid=eaac3a64-d563-41a5-8d60-920dfaea6bb7"},"vehicle_type_id":"4","last_reported":1686942283,"current_range_meters":18800,"station_id":"ce4bgl12rcd13ifvqbo0","pricing_plan_id":"free"},{"bike_id":"9a2572b4-c37b-4cfc-8edc-5e8ad4e09d89","system_id":"levelo_inurba_marseille","lat":43.293249,"lon":5.371578,"is_reserved":false,"is_disabled":false,"rental_uris":{"android":"levelo://app?vid=9a2572b4-c37b-4cfc-8edc-5e8ad4e09d89","ios":"levelo://app?vid=9a2572b4-c37b-4cfc-8edc-5e8ad4e09d89"},"vehicle_type_id":"4","last_reported":1686942283,"current_range_meters":0,"station_id":"ce4bgh92rcd13ifvqb40","pricing_plan_id":"free"},{"bike_id":"8bc99d5f-701b-4190-b837-4bb80f7f1050","system_id":"levelo_inurba_marseille","lat":43.292749,"lon":5.368398,"is_reserved":false,"is_disabled":false,"rental_uris":{"android":"levelo://app?vid=8bc99d5f-701b-4190-b837-4bb80f7f1050","ios":"levelo://app?vid=8bc99d5f-701b-4190-b837-4bb80f7f1050"},"vehicle_type_id":"4","last_reported":1686942283,"current_range_meters":30400,"station_id":"ce4bhbp2rcd13ifvqesg","pricing_plan_id":"free"},{"bike_id":"d2abcad6-f112-44a5-b04a-93e4242203fc","system_id":"levelo_inurba_marseille","lat":43.292749,"lon":5.368402,"is_reserved":false,"is_disabled":false,"rental_uris":{"android":"levelo://app?vid=d2abcad6-f112-44a5-b04a-93e4242203fc","ios":"levelo://app?vid=d2abcad6-f112-44a5-b04a-93e4242203fc"},"vehicle_type_id":"4","last_reported":1686942283,"current_range_meters":14800,"station_id":"ce4bhbp2rcd13ifvqesg","pricing_plan_id":"free"},{"bike_id":"92f67fc6-adc6-4dc1-8217-fa20d96484c2","system_id":"levelo_inurba_marseille","lat":43.293009,"lon":5.374584,"is_reserved":false,"is_disabled":false,"rental_uris":{"android":"levelo://app?vid=92f67fc6-adc6-4dc1-8217-fa20d96484c2","ios":"levelo://app?vid=92f67fc6-adc6-4dc1-8217-fa20d96484c2"},"vehicle_type_id":"4","last_reported":1686942283,"current_range_meters":0,"station_id":"ce4bgi12rcd13ifvqb70","pricing_plan_id":"free"},{"bike_id":"8b008e9c-20e6-4e43-bfbb-aa5c0f7bfc4b","system_id":"levelo_inurba_marseille","lat":43.29252,"lon":5.35967,"is_reserved":false,"is_disabled":false,"rental_uris":{"android":"levelo://app?vid=8b008e9c-20e6-4e43-bfbb-aa5c0f7bfc4b","ios":"levelo://app?vid=8b008e9c-20e6-4e43-bfbb-aa5c0f7bfc4b"},"vehicle_type_id":"4","last_reported":1686942283,"current_range_meters":12400,"station_id":"","pricing_plan_id":"free"},{"bike_id":"0a8b2251-afef-4821-9c6e-61ed041fc9ed","system_id":"levelo_inurba_marseille","lat":43.30085,"lon":5.390856,"is_reserved":false,"is_disabled":false,"rental_uris":{"android":"levelo://app?vid=0a8b2251-afef-4821-9c6e-61ed041fc9ed","ios":"levelo://app?vid=0a8b2251-afef-4821-9c6e-61ed041fc9ed"},"vehicle_type_id":"4","last_reported":1686942283,"current_range_meters":19200,"station_id":"ce4bh192rcd13ifvqdb0","pricing_plan_id":"free"},{"bike_id":"add877a3-248c-4b15-b716-19ed665fda4d","system_id":"levelo_inurba_marseille","lat":43.300852,"lon":5.390859,"is_reserved":false,"is_disabled":false,"rental_uris":{"android":"levelo://app?vid=add877a3-248c-4b15-b716-19ed665fda4d","ios":"levelo://app?vid=add877a3-248c-4b15-b716-19ed665fda4d"},"vehicle_type_id":"4","last_reported":1686942283,"current_range_meters":0,"station_id":"ce4bh192rcd13ifvqdb0","pricing_plan_id":"free"},{"bike_id":"edd27ecf-5e8a-44a0-82e6-021137b2b9de","system_id":"levelo_inurba_marseille","lat":43.29291,"lon":5.35677,"is_reserved":false,"is_disabled":false,"rental_uris":{"android":"levelo://app?vid=edd27ecf-5e8a-44a0-82e6-021137b2b9de","ios":"levelo://app?vid=edd27ecf-5e8a-44a0-82e6-021137b2b9de"},"vehicle_type_id":"4","last_reported":1686942283,"current_range_meters":5200,"station_id":"","pricing_plan_id":"free"},{"bike_id":"72492d94-3a6e-454a-8d8f-4191fb940b86","system_id":"levelo_inurba_marseille","lat":43.309038,"lon":5.396546,"is_reserved":false,"is_disabled":false,"rental_uris":{"android":"levelo://app?vid=72492d94-3a6e-454a-8d8f-4191fb940b86","ios":"levelo://app?vid=72492d94-3a6e-454a-8d8f-4191fb940b86"},"vehicle_type_id":"4","last_reported":1686942283,"current_range_meters":6400,"station_id":"ce4bh012rcd13ifvqcv0","pricing_plan_id":"free"},{"bike_id":"38eb09af-7166-42b9-865e-84246929498f","system_id":"levelo_inurba_marseille","lat":43.294153,"lon":5.386305,"is_reserved":false,"is_disabled":false,"rental_uris":{"android":"levelo://app?vid=38eb09af-7166-42b9-865e-84246929498f","ios":"levelo://app?vid=38eb09af-7166-42b9-865e-84246929498f"},"vehicle_type_id":"4","last_reported":1686942283,"current_range_meters":31600,"station_id":"ce4bh2h2rcd13ifvqdh0","pricing_plan_id":"free"},{"bike_id":"2381d2fb-2848-4c71-b0e6-41f972173e08","system_id":"levelo_inurba_marseille","lat":43.289184,"lon":5.366408,"is_reserved":false,"is_disabled":false,"rental_uris":{"android":"levelo://app?vid=2381d2fb-2848-4c71-b0e6-41f972173e08","ios":"levelo://app?vid=2381d2fb-2848-4c71-b0e6-41f972173e08"},"vehicle_type_id":"4","last_reported":1686942283,"current_range_meters":0,"station_id":"ce4bhap2rcd13ifvqek0","pricing_plan_id":"free"},{"bike_id":"ed742d16-d003-4f40-aff3-b059e8335a98","system_id":"levelo_inurba_marseille","lat":43.33039,"lon":5.38918,"is_reserved":false,"is_disabled":false,"rental_uris":{"android":"levelo://app?vid=ed742d16-d003-4f40-aff3-b059e8335a98","ios":"levelo://app?vid=ed742d16-d003-4f40-aff3-b059e8335a98"},"vehicle_type_id":"4","last_reported":1686942283,"current_range_meters":0,"station_id":"ce4bhr92rcd13ifvqhrg","pricing_plan_id":"free"},{"bike_id":"efd9ad73-20e4-48a8-9273-d79e81729f94","system_id":"levelo_inurba_marseille","lat":43.33044,"lon":5.3892,"is_reserved":false,"is_disabled":false,"rental_uris":{"android":"levelo://app?vid=efd9ad73-20e4-48a8-9273-d79e81729f94","ios":"levelo://app?vid=efd9ad73-20e4-48a8-9273-d79e81729f94"},"vehicle_type_id":"4","last_reported":1686942283,"current_range_meters":4000,"station_id":"ce4bhr92rcd13ifvqhrg","pricing_plan_id":"free"},{"bike_id":"16ac7687-9f84-41b7-b17f-42064f8e8141","system_id":"levelo_inurba_marseille","lat":43.290104,"lon":5.356111,"is_reserved":false,"is_disabled":false,"rental_uris":{"android":"levelo://app?vid=16ac7687-9f84-41b7-b17f-42064f8e8141","ios":"levelo://app?vid=16ac7687-9f84-41b7-b17f-42064f8e8141"},"vehicle_type_id":"4","last_reported":1686942283,"current_range_meters":400,"station_id":"ce4bhb92rcd13ifvqen0","pricing_plan_id":"free"},{"bike_id":"d63c2d7f-1ab9-489c-a4ef-67e674be59e7","system_id":"levelo_inurba_marseille","lat":43.297897,"lon":5.393404,"is_reserved":false,"is_disabled":false,"rental_uris":{"android":"levelo://app?vid=d63c2d7f-1ab9-489c-a4ef-67e674be59e7","ios":"levelo://app?vid=d63c2d7f-1ab9-489c-a4ef-67e674be59e7"},"vehicle_type_id":"4","last_reported":1686942283,"current_range_meters":8800,"station_id":"chh1huq6cuj3fo74tm60","pricing_plan_id":"free"},{"bike_id":"c0fb8083-e02d-4dec-b1b9-fa095e6c5b75","system_id":"levelo_inurba_marseille","lat":43.337396,"lon":5.374526,"is_reserved":false,"is_disabled":false,"rental_uris":{"android":"levelo://app?vid=c0fb8083-e02d-4dec-b1b9-fa095e6c5b75","ios":"levelo://app?vid=c0fb8083-e02d-4dec-b1b9-fa095e6c5b75"},"vehicle_type_id":"4","last_reported":1686942283,"current_range_meters":400,"station_id":"ce4bhp92rcd13ifvqhag","pricing_plan_id":"free"},{"bike_id":"62749a95-ae91-4859-b3d2-e5c29e19f079","system_id":"levelo_inurba_marseille","lat":43.286039,"lon":5.370681,"is_reserved":false,"is_disabled":false,"rental_uris":{"android":"levelo://app?vid=62749a95-ae91-4859-b3d2-e5c29e19f079","ios":"levelo://app?vid=62749a95-ae91-4859-b3d2-e5c29e19f079"},"vehicle_type_id":"4","last_reported":1686942283,"current_range_meters":0,"station_id":"ce4bht12rcd13ifvqi60","pricing_plan_id":"free"},{"bike_id":"2e282789-1981-4761-8a2a-bb14c12770da","system_id":"levelo_inurba_marseille","lat":43.286961,"lon":5.373785,"is_reserved":false,"is_disabled":false,"rental_uris":{"android":"levelo://app?vid=2e282789-1981-4761-8a2a-bb14c12770da","ios":"levelo://app?vid=2e282789-1981-4761-8a2a-bb14c12770da"},"vehicle_type_id":"4","last_reported":1686942283,"current_range_meters":0,"station_id":"ce4bh3p2rcd13ifvqdq0","pricing_plan_id":"free"},{"bike_id":"def0056f-4482-4b81-af2c-ada1896b9f9a","system_id":"levelo_inurba_marseille","lat":43.302759,"lon":5.400793,"is_reserved":false,"is_disabled":false,"rental_uris":{"android":"levelo://app?vid=def0056f-4482-4b81-af2c-ada1896b9f9a","ios":"levelo://app?vid=def0056f-4482-4b81-af2c-ada1896b9f9a"},"vehicle_type_id":"4","last_reported":1686942283,"current_range_meters":20400,"station_id":"ce4bgvh2rcd13ifvqcs0","pricing_plan_id":"free"},{"bike_id":"0ba338c1-11ef-4447-907a-3c63b6079a21","system_id":"levelo_inurba_marseille","lat":43.290345,"lon":5.38646,"is_reserved":false,"is_disabled":false,"rental_uris":{"android":"levelo://app?vid=0ba338c1-11ef-4447-907a-3c63b6079a21","ios":"levelo://app?vid=0ba338c1-11ef-4447-907a-3c63b6079a21"},"vehicle_type_id":"4","last_reported":1686942283,"current_range_meters":2000,"station_id":"ce4bh4p2rcd13ifvqe0g","pricing_plan_id":"free"},{"bike_id":"7ffde152-4ca9-4cbe-b292-5061c3b0e461","system_id":"levelo_inurba_marseille","lat":43.316517,"lon":5.404375,"is_reserved":false,"is_disabled":false,"rental_uris":{"android":"levelo://app?vid=7ffde152-4ca9-4cbe-b292-5061c3b0e461","ios":"levelo://app?vid=7ffde152-4ca9-4cbe-b292-5061c3b0e461"},"vehicle_type_id":"4","last_reported":1686942283,"current_range_meters":6800,"station_id":"ce4bh012rcd13ifvqd00","pricing_plan_id":"free"},{"bike_id":"fb7c266c-f5e0-42b0-b76b-192f7f46d944","system_id":"levelo_inurba_marseille","lat":43.316517,"lon":5.404375,"is_reserved":false,"is_disabled":false,"rental_uris":{"android":"levelo://app?vid=fb7c266c-f5e0-42b0-b76b-192f7f46d944","ios":"levelo://app?vid=fb7c266c-f5e0-42b0-b76b-192f7f46d944"},"vehicle_type_id":"4","last_reported":1686942283,"current_range_meters":14800,"station_id":"ce4bh012rcd13ifvqd00","pricing_plan_id":"free"},{"bike_id":"e66242cd-2c26-4e67-a9b9-8710b0de83fb","system_id":"levelo_inurba_marseille","lat":43.283998,"lon":5.375062,"is_reserved":false,"is_disabled":false,"rental_uris":{"android":"levelo://app?vid=e66242cd-2c26-4e67-a9b9-8710b0de83fb","ios":"levelo://app?vid=e66242cd-2c26-4e67-a9b9-8710b0de83fb"},"vehicle_type_id":"4","last_reported":1686942283,"current_range_meters":2000,"station_id":"ce4bh412rcd13ifvqds0","pricing_plan_id":"free"},{"bike_id":"81c297fe-a72f-41e0-9124-e8a7b9056edd","system_id":"levelo_inurba_marseille","lat":43.285856,"lon":5.350771,"is_reserved":false,"is_disabled":false,"rental_uris":{"android":"levelo://app?vid=81c297fe-a72f-41e0-9124-e8a7b9056edd","ios":"levelo://app?vid=81c297fe-a72f-41e0-9124-e8a7b9056edd"},"vehicle_type_id":"4","last_reported":1686942283,"current_range_meters":0,"station_id":"ce4bhch2rcd13ifvqeug","pricing_plan_id":"free"},{"bike_id":"881cce5a-f957-433d-b040-4e6f7ef207b0","system_id":"levelo_inurba_marseille","lat":43.28402,"lon":5.37528,"is_reserved":false,"is_disabled":false,"rental_uris":{"android":"levelo://app?vid=881cce5a-f957-433d-b040-4e6f7ef207b0","ios":"levelo://app?vid=881cce5a-f957-433d-b040-4e6f7ef207b0"},"vehicle_type_id":"4","last_reported":1686942283,"current_range_meters":0,"station_id":"","pricing_plan_id":"free"},{"bike_id":"16e5fedd-6e86-436a-a0a2-72c7cd60a6ea","system_id":"levelo_inurba_marseille","lat":43.32333,"lon":5.40622,"is_reserved":false,"is_disabled":false,"rental_uris":{"android":"levelo://app?vid=16e5fedd-6e86-436a-a0a2-72c7cd60a6ea","ios":"levelo://app?vid=16e5fedd-6e86-436a-a0a2-72c7cd60a6ea"},"vehicle_type_id":"4","last_reported":1686942283,"current_range_meters":31600,"station_id":"ce4bhq92rcd13ifvqhjg","pricing_plan_id":"free"},{"bike_id":"8587af11-a27f-4ff5-b6d4-0fecc9b128c2","system_id":"levelo_inurba_marseille","lat":43.28799,"lon":5.39179,"is_reserved":false,"is_disabled":false,"rental_uris":{"android":"levelo://app?vid=8587af11-a27f-4ff5-b6d4-0fecc9b128c2","ios":"levelo://app?vid=8587af11-a27f-4ff5-b6d4-0fecc9b128c2"},"vehicle_type_id":"4","last_reported":1686942283,"current_range_meters":4000,"station_id":"","pricing_plan_id":"free"},{"bike_id":"00b4d942-d645-4a17-a320-9c02b5ecca68","system_id":"levelo_inurba_marseille","lat":43.288497,"lon":5.393089,"is_reserved":false,"is_disabled":false,"rental_uris":{"android":"levelo://app?vid=00b4d942-d645-4a17-a320-9c02b5ecca68","ios":"levelo://app?vid=00b4d942-d645-4a17-a320-9c02b5ecca68"},"vehicle_type_id":"4","last_reported":1686942283,"current_range_meters":28800,"station_id":"ce4bh2p2rcd13ifvqdi0","pricing_plan_id":"free"},{"bike_id":"958c01e4-fe2c-4d30-9b97-f447a30243a2","system_id":"levelo_inurba_marseille","lat":43.28353,"lon":5.38113,"is_reserved":false,"is_disabled":false,"rental_uris":{"android":"levelo://app?vid=958c01e4-fe2c-4d30-9b97-f447a30243a2","ios":"levelo://app?vid=958c01e4-fe2c-4d30-9b97-f447a30243a2"},"vehicle_type_id":"4","last_reported":1686942283,"current_range_meters":23200,"station_id":"ce4bh412rcd13ifvqdr0","pricing_plan_id":"free"},{"bike_id":"9fb213cf-00d2-4717-8875-c0980a4d5917","system_id":"levelo_inurba_marseille","lat":43.284219,"lon":5.3497,"is_reserved":false,"is_disabled":false,"rental_uris":{"android":"levelo://app?vid=9fb213cf-00d2-4717-8875-c0980a4d5917","ios":"levelo://app?vid=9fb213cf-00d2-4717-8875-c0980a4d5917"},"vehicle_type_id":"4","last_reported":1686942283,"current_range_meters":0,"station_id":"ce4bhbh2rcd13ifvqepg","pricing_plan_id":"free"},{"bike_id":"e2c3a0aa-7f22-492a-a04d-15e355466059","system_id":"levelo_inurba_marseille","lat":43.32879,"lon":5.40534,"is_reserved":false,"is_disabled":false,"rental_uris":{"android":"levelo://app?vid=e2c3a0aa-7f22-492a-a04d-15e355466059","ios":"levelo://app?vid=e2c3a0aa-7f22-492a-a04d-15e355466059"},"vehicle_type_id":"4","last_reported":1686942283,"current_range_meters":12000,"station_id":"","pricing_plan_id":"free"},{"bike_id":"f744612e-b7c8-4f01-ab56-0f237453011c","system_id":"levelo_inurba_marseille","lat":43.28273,"lon":5.35071,"is_reserved":false,"is_disabled":false,"rental_uris":{"android":"levelo://app?vid=f744612e-b7c8-4f01-ab56-0f237453011c","ios":"levelo://app?vid=f744612e-b7c8-4f01-ab56-0f237453011c"},"vehicle_type_id":"4","last_reported":1686942283,"current_range_meters":0,"station_id":"ce4bhbp2rcd13ifvqerg","pricing_plan_id":"free"},{"bike_id":"a96a7992-eee1-4f22-83f3-11a3911efb43","system_id":"levelo_inurba_marseille","lat":43.282744,"lon":5.350533,"is_reserved":false,"is_disabled":false,"rental_uris":{"android":"levelo://app?vid=a96a7992-eee1-4f22-83f3-11a3911efb43","ios":"levelo://app?vid=a96a7992-eee1-4f22-83f3-11a3911efb43"},"vehicle_type_id":"4","last_reported":1686942283,"current_range_meters":0,"station_id":"ce4bhbp2rcd13ifvqerg","pricing_plan_id":"free"},{"bike_id":"46e2b629-ebbc-4857-a1c1-4060b80123b4","system_id":"levelo_inurba_marseille","lat":43.28105,"lon":5.37835,"is_reserved":false,"is_disabled":false,"rental_uris":{"android":"levelo://app?vid=46e2b629-ebbc-4857-a1c1-4060b80123b4","ios":"levelo://app?vid=46e2b629-ebbc-4857-a1c1-4060b80123b4"},"vehicle_type_id":"4","last_reported":1686942283,"current_range_meters":8000,"station_id":"ce4bha12rcd13ifvqee0","pricing_plan_id":"free"},{"bike_id":"f2cc7047-b9a7-46b8-a7ab-7405466122ec","system_id":"levelo_inurba_marseille","lat":43.28104,"lon":5.37836,"is_reserved":false,"is_disabled":false,"rental_uris":{"android":"levelo://app?vid=f2cc7047-b9a7-46b8-a7ab-7405466122ec","ios":"levelo://app?vid=f2cc7047-b9a7-46b8-a7ab-7405466122ec"},"vehicle_type_id":"4","last_reported":1686942283,"current_range_meters":6800,"station_id":"ce4bha12rcd13ifvqee0","pricing_plan_id":"free"},{"bike_id":"e0ce9a81-3711-454c-a02d-0fc2518365be","system_id":"levelo_inurba_marseille","lat":43.281044,"lon":5.378308,"is_reserved":false,"is_disabled":false,"rental_uris":{"android":"levelo://app?vid=e0ce9a81-3711-454c-a02d-0fc2518365be","ios":"levelo://app?vid=e0ce9a81-3711-454c-a02d-0fc2518365be"},"vehicle_type_id":"4","last_reported":1686942283,"current_range_meters":21600,"station_id":"ce4bha12rcd13ifvqee0","pricing_plan_id":"free"},{"bike_id":"6af216a6-0be9-4294-9809-14b2b0e2e52b","system_id":"levelo_inurba_marseille","lat":43.28102,"lon":5.37836,"is_reserved":false,"is_disabled":false,"rental_uris":{"android":"levelo://app?vid=6af216a6-0be9-4294-9809-14b2b0e2e52b","ios":"levelo://app?vid=6af216a6-0be9-4294-9809-14b2b0e2e52b"},"vehicle_type_id":"4","last_reported":1686942283,"current_range_meters":16800,"station_id":"ce4bha12rcd13ifvqee0","pricing_plan_id":"free"},{"bike_id":"9dbae541-f064-488b-a98b-fd7ceb77cc79","system_id":"levelo_inurba_marseille","lat":43.281044,"lon":5.378308,"is_reserved":false,"is_disabled":false,"rental_uris":{"android":"levelo://app?vid=9dbae541-f064-488b-a98b-fd7ceb77cc79","ios":"levelo://app?vid=9dbae541-f064-488b-a98b-fd7ceb77cc79"},"vehicle_type_id":"4","last_reported":1686942283,"current_range_meters":18000,"station_id":"ce4bha12rcd13ifvqee0","pricing_plan_id":"free"},{"bike_id":"631bfb42-0058-4f67-bd38-8d28135a3ba0","system_id":"levelo_inurba_marseille","lat":43.280959,"lon":5.378349,"is_reserved":false,"is_disabled":false,"rental_uris":{"android":"levelo://app?vid=631bfb42-0058-4f67-bd38-8d28135a3ba0","ios":"levelo://app?vid=631bfb42-0058-4f67-bd38-8d28135a3ba0"},"vehicle_type_id":"4","last_reported":1686942283,"current_range_meters":18800,"station_id":"ce4bha12rcd13ifvqee0","pricing_plan_id":"free"},{"bike_id":"09235fce-2cb2-4f5f-8bca-26f557bd52d0","system_id":"levelo_inurba_marseille","lat":43.28118,"lon":5.38201,"is_reserved":false,"is_disabled":false,"rental_uris":{"android":"levelo://app?vid=09235fce-2cb2-4f5f-8bca-26f557bd52d0","ios":"levelo://app?vid=09235fce-2cb2-4f5f-8bca-26f557bd52d0"},"vehicle_type_id":"4","last_reported":1686942283,"current_range_meters":0,"station_id":"ce4bh412rcd13ifvqdr0","pricing_plan_id":"free"},{"bike_id":"74a59d6c-d6c7-460f-bba7-ce13812ac794","system_id":"levelo_inurba_marseille","lat":43.32665,"lon":5.40977,"is_reserved":false,"is_disabled":false,"rental_uris":{"android":"levelo://app?vid=74a59d6c-d6c7-460f-bba7-ce13812ac794","ios":"levelo://app?vid=74a59d6c-d6c7-460f-bba7-ce13812ac794"},"vehicle_type_id":"4","last_reported":1686942283,"current_range_meters":20000,"station_id":"ce4bhpp2rcd13ifvqhgg","pricing_plan_id":"free"},{"bike_id":"f48ee2ec-b0db-4e23-9a7f-86874bc56640","system_id":"levelo_inurba_marseille","lat":43.32655,"lon":5.40989,"is_reserved":false,"is_disabled":false,"rental_uris":{"android":"levelo://app?vid=f48ee2ec-b0db-4e23-9a7f-86874bc56640","ios":"levelo://app?vid=f48ee2ec-b0db-4e23-9a7f-86874bc56640"},"vehicle_type_id":"4","last_reported":1686942283,"current_range_meters":10400,"station_id":"ce4bhpp2rcd13ifvqhgg","pricing_plan_id":"free"},{"bike_id":"63ac74cc-0937-4f8d-b034-559349763d95","system_id":"levelo_inurba_marseille","lat":43.3266,"lon":5.40989,"is_reserved":false,"is_disabled":false,"rental_uris":{"android":"levelo://app?vid=63ac74cc-0937-4f8d-b034-559349763d95","ios":"levelo://app?vid=63ac74cc-0937-4f8d-b034-559349763d95"},"vehicle_type_id":"4","last_reported":1686942283,"current_range_meters":6800,"station_id":"ce4bhpp2rcd13ifvqhgg","pricing_plan_id":"free"},{"bike_id":"7edb2131-ddae-4ae7-9e9c-463549dd0947","system_id":"levelo_inurba_marseille","lat":43.32656,"lon":5.40993,"is_reserved":false,"is_disabled":false,"rental_uris":{"android":"levelo://app?vid=7edb2131-ddae-4ae7-9e9c-463549dd0947","ios":"levelo://app?vid=7edb2131-ddae-4ae7-9e9c-463549dd0947"},"vehicle_type_id":"4","last_reported":1686942283,"current_range_meters":16800,"station_id":"ce4bhpp2rcd13ifvqhgg","pricing_plan_id":"free"},{"bike_id":"0033b346-9bd5-4d71-9e91-aa0556d3fd81","system_id":"levelo_inurba_marseille","lat":43.32655,"lon":5.40994,"is_reserved":false,"is_disabled":false,"rental_uris":{"android":"levelo://app?vid=0033b346-9bd5-4d71-9e91-aa0556d3fd81","ios":"levelo://app?vid=0033b346-9bd5-4d71-9e91-aa0556d3fd81"},"vehicle_type_id":"4","last_reported":1686942283,"current_range_meters":9600,"station_id":"ce4bhpp2rcd13ifvqhgg","pricing_plan_id":"free"},{"bike_id":"90fd3729-7854-4014-8adc-4acef6400033","system_id":"levelo_inurba_marseille","lat":43.32661,"lon":5.41,"is_reserved":false,"is_disabled":false,"rental_uris":{"android":"levelo://app?vid=90fd3729-7854-4014-8adc-4acef6400033","ios":"levelo://app?vid=90fd3729-7854-4014-8adc-4acef6400033"},"vehicle_type_id":"4","last_reported":1686942283,"current_range_meters":6400,"station_id":"ce4bhpp2rcd13ifvqhgg","pricing_plan_id":"free"},{"bike_id":"0833bc9e-ec6b-4c28-83d4-9184902f2c42","system_id":"levelo_inurba_marseille","lat":43.29961,"lon":5.41323,"is_reserved":false,"is_disabled":false,"rental_uris":{"android":"levelo://app?vid=0833bc9e-ec6b-4c28-83d4-9184902f2c42","ios":"levelo://app?vid=0833bc9e-ec6b-4c28-83d4-9184902f2c42"},"vehicle_type_id":"4","last_reported":1686942283,"current_range_meters":30800,"station_id":"ce4bhp12rcd13ifvqh9g","pricing_plan_id":"free"},{"bike_id":"704f9080-5b32-483f-a5de-423cd357917a","system_id":"levelo_inurba_marseille","lat":43.27964,"lon":5.38732,"is_reserved":false,"is_disabled":false,"rental_uris":{"android":"levelo://app?vid=704f9080-5b32-483f-a5de-423cd357917a","ios":"levelo://app?vid=704f9080-5b32-483f-a5de-423cd357917a"},"vehicle_type_id":"4","last_reported":1686942283,"current_range_meters":5200,"station_id":"ce4bhg12rcd13ifvqf80","pricing_plan_id":"free"},{"bike_id":"11c25776-8c9b-40b7-a566-b29f82dcc328","system_id":"levelo_inurba_marseille","lat":43.325233,"lon":5.414318,"is_reserved":false,"is_disabled":false,"rental_uris":{"android":"levelo://app?vid=11c25776-8c9b-40b7-a566-b29f82dcc328","ios":"levelo://app?vid=11c25776-8c9b-40b7-a566-b29f82dcc328"},"vehicle_type_id":"4","last_reported":1686942283,"current_range_meters":12000,"station_id":"ce4bhq12rcd13ifvqhhg","pricing_plan_id":"free"},{"bike_id":"c363b0d2-a311-4858-838c-1a8518571fc1","system_id":"levelo_inurba_marseille","lat":43.27618,"lon":5.3611,"is_reserved":false,"is_disabled":false,"rental_uris":{"android":"levelo://app?vid=c363b0d2-a311-4858-838c-1a8518571fc1","ios":"levelo://app?vid=c363b0d2-a311-4858-838c-1a8518571fc1"},"vehicle_type_id":"4","last_reported":1686942283,"current_range_meters":1200,"station_id":"ce4bgj92rcd13ifvqbe0","pricing_plan_id":"free"},{"bike_id":"0cd017dd-65f9-4fcd-b333-8aaa83f4ff71","system_id":"levelo_inurba_marseille","lat":43.27613,"lon":5.36112,"is_reserved":false,"is_disabled":false,"rental_uris":{"android":"levelo://app?vid=0cd017dd-65f9-4fcd-b333-8aaa83f4ff71","ios":"levelo://app?vid=0cd017dd-65f9-4fcd-b333-8aaa83f4ff71"},"vehicle_type_id":"4","last_reported":1686942283,"current_range_meters":13200,"station_id":"ce4bgj92rcd13ifvqbe0","pricing_plan_id":"free"},{"bike_id":"cf4ddaee-63d6-4151-aa07-d883038fc445","system_id":"levelo_inurba_marseille","lat":43.273613,"lon":5.362705,"is_reserved":false,"is_disabled":false,"rental_uris":{"android":"levelo://app?vid=cf4ddaee-63d6-4151-aa07-d883038fc445","ios":"levelo://app?vid=cf4ddaee-63d6-4151-aa07-d883038fc445"},"vehicle_type_id":"4","last_reported":1686942283,"current_range_meters":800,"station_id":"ce4bhbh2rcd13ifvqeo0","pricing_plan_id":"free"},{"bike_id":"7c6fc548-8e76-47ee-b17c-38aad08c70a2","system_id":"levelo_inurba_marseille","lat":43.273613,"lon":5.362705,"is_reserved":false,"is_disabled":false,"rental_uris":{"android":"levelo://app?vid=7c6fc548-8e76-47ee-b17c-38aad08c70a2","ios":"levelo://app?vid=7c6fc548-8e76-47ee-b17c-38aad08c70a2"},"vehicle_type_id":"4","last_reported":1686942283,"current_range_meters":0,"station_id":"ce4bhbh2rcd13ifvqeo0","pricing_plan_id":"free"},{"bike_id":"79848ee8-6fa8-4958-9064-2bac4ab1ebe8","system_id":"levelo_inurba_marseille","lat":43.275625,"lon":5.384392,"is_reserved":false,"is_disabled":false,"rental_uris":{"android":"levelo://app?vid=79848ee8-6fa8-4958-9064-2bac4ab1ebe8","ios":"levelo://app?vid=79848ee8-6fa8-4958-9064-2bac4ab1ebe8"},"vehicle_type_id":"4","last_reported":1686942283,"current_range_meters":4000,"station_id":"ce4bhh92rcd13ifvqfi0","pricing_plan_id":"free"},{"bike_id":"ff8e391a-741f-4536-9a9d-a0db1ddca632","system_id":"levelo_inurba_marseille","lat":43.276771,"lon":5.388799,"is_reserved":false,"is_disabled":false,"rental_uris":{"android":"levelo://app?vid=ff8e391a-741f-4536-9a9d-a0db1ddca632","ios":"levelo://app?vid=ff8e391a-741f-4536-9a9d-a0db1ddca632"},"vehicle_type_id":"4","last_reported":1686942283,"current_range_meters":1600,"station_id":"ce4bhi12rcd13ifvqfo0","pricing_plan_id":"free"},{"bike_id":"20079715-981a-4a0e-8069-04f904ce0f73","system_id":"levelo_inurba_marseille","lat":43.317121,"lon":5.423936,"is_reserved":false,"is_disabled":false,"rental_uris":{"android":"levelo://app?vid=20079715-981a-4a0e-8069-04f904ce0f73","ios":"levelo://app?vid=20079715-981a-4a0e-8069-04f904ce0f73"},"vehicle_type_id":"4","last_reported":1686942283,"current_range_meters":6800,"station_id":"ce4bhp92rcd13ifvqhbg","pricing_plan_id":"free"},{"bike_id":"2bf68ed4-d662-490c-901e-9818bd9d939e","system_id":"levelo_inurba_marseille","lat":43.317121,"lon":5.423936,"is_reserved":false,"is_disabled":false,"rental_uris":{"android":"levelo://app?vid=2bf68ed4-d662-490c-901e-9818bd9d939e","ios":"levelo://app?vid=2bf68ed4-d662-490c-901e-9818bd9d939e"},"vehicle_type_id":"4","last_reported":1686942283,"current_range_meters":2800,"station_id":"ce4bhp92rcd13ifvqhbg","pricing_plan_id":"free"},{"bike_id":"f82c4e0b-ce86-4de4-962b-f266d6ba506e","system_id":"levelo_inurba_marseille","lat":43.273125,"lon":5.390731,"is_reserved":false,"is_disabled":false,"rental_uris":{"android":"levelo://app?vid=f82c4e0b-ce86-4de4-962b-f266d6ba506e","ios":"levelo://app?vid=f82c4e0b-ce86-4de4-962b-f266d6ba506e"},"vehicle_type_id":"4","last_reported":1686942283,"current_range_meters":26800,"station_id":"ce4bhgp2rcd13ifvqfe0","pricing_plan_id":"free"},{"bike_id":"0d1e37bc-88d2-4626-a07d-565b80030a96","system_id":"levelo_inurba_marseille","lat":43.304096,"lon":5.425385,"is_reserved":false,"is_disabled":false,"rental_uris":{"android":"levelo://app?vid=0d1e37bc-88d2-4626-a07d-565b80030a96","ios":"levelo://app?vid=0d1e37bc-88d2-4626-a07d-565b80030a96"},"vehicle_type_id":"4","last_reported":1686942283,"current_range_meters":10400,"station_id":"ce4bhoh2rcd13ifvqh6g","pricing_plan_id":"free"},{"bike_id":"a3f2e6c3-b112-409d-81f8-4d06a2bbc261","system_id":"levelo_inurba_marseille","lat":43.29554,"lon":5.4229,"is_reserved":false,"is_disabled":false,"rental_uris":{"android":"levelo://app?vid=a3f2e6c3-b112-409d-81f8-4d06a2bbc261","ios":"levelo://app?vid=a3f2e6c3-b112-409d-81f8-4d06a2bbc261"},"vehicle_type_id":"4","last_reported":1686942283,"current_range_meters":14000,"station_id":"ce4bhph2rcd13ifvqhdg","pricing_plan_id":"free"},{"bike_id":"5b946331-f54d-4cd7-a7d9-7318b4f9e5fb","system_id":"levelo_inurba_marseille","lat":43.269467,"lon":5.386439,"is_reserved":false,"is_disabled":false,"rental_uris":{"android":"levelo://app?vid=5b946331-f54d-4cd7-a7d9-7318b4f9e5fb","ios":"levelo://app?vid=5b946331-f54d-4cd7-a7d9-7318b4f9e5fb"},"vehicle_type_id":"4","last_reported":1686942283,"current_range_meters":25200,"station_id":"ce4bhh92rcd13ifvqfh0","pricing_plan_id":"free"},{"bike_id":"2cc31ee1-3e8c-4366-aa36-fa383158ec7f","system_id":"levelo_inurba_marseille","lat":43.269319,"lon":5.389397,"is_reserved":false,"is_disabled":false,"rental_uris":{"android":"levelo://app?vid=2cc31ee1-3e8c-4366-aa36-fa383158ec7f","ios":"levelo://app?vid=2cc31ee1-3e8c-4366-aa36-fa383158ec7f"},"vehicle_type_id":"4","last_reported":1686942283,"current_range_meters":30800,"station_id":"ce4bhhh2rcd13ifvqfl0","pricing_plan_id":"free"},{"bike_id":"7afe465f-03ee-453e-a356-d314ffbc1ff0","system_id":"levelo_inurba_marseille","lat":43.26926,"lon":5.38915,"is_reserved":false,"is_disabled":false,"rental_uris":{"android":"levelo://app?vid=7afe465f-03ee-453e-a356-d314ffbc1ff0","ios":"levelo://app?vid=7afe465f-03ee-453e-a356-d314ffbc1ff0"},"vehicle_type_id":"4","last_reported":1686942283,"current_range_meters":25600,"station_id":"","pricing_plan_id":"free"},{"bike_id":"3fe46e7f-bf30-4f01-a8b0-c61b472012de","system_id":"levelo_inurba_marseille","lat":43.26689,"lon":5.38272,"is_reserved":false,"is_disabled":false,"rental_uris":{"android":"levelo://app?vid=3fe46e7f-bf30-4f01-a8b0-c61b472012de","ios":"levelo://app?vid=3fe46e7f-bf30-4f01-a8b0-c61b472012de"},"vehicle_type_id":"4","last_reported":1686942283,"current_range_meters":0,"station_id":"ce4bhg92rcd13ifvqf90","pricing_plan_id":"free"},{"bike_id":"bac8311f-df6e-4238-a48d-8802458ec24b","system_id":"levelo_inurba_marseille","lat":43.26687,"lon":5.38272,"is_reserved":false,"is_disabled":false,"rental_uris":{"android":"levelo://app?vid=bac8311f-df6e-4238-a48d-8802458ec24b","ios":"levelo://app?vid=bac8311f-df6e-4238-a48d-8802458ec24b"},"vehicle_type_id":"4","last_reported":1686942283,"current_range_meters":4000,"station_id":"ce4bhg92rcd13ifvqf90","pricing_plan_id":"free"},{"bike_id":"f99fd54c-4e12-4eee-8394-00b6c5a087ff","system_id":"levelo_inurba_marseille","lat":43.26681,"lon":5.382694,"is_reserved":false,"is_disabled":false,"rental_uris":{"android":"levelo://app?vid=f99fd54c-4e12-4eee-8394-00b6c5a087ff","ios":"levelo://app?vid=f99fd54c-4e12-4eee-8394-00b6c5a087ff"},"vehicle_type_id":"4","last_reported":1686942283,"current_range_meters":0,"station_id":"ce4bhg92rcd13ifvqf90","pricing_plan_id":"free"},{"bike_id":"08ef1fb7-7b5e-4fd7-84db-b6da78b62b54","system_id":"levelo_inurba_marseille","lat":43.26681,"lon":5.382694,"is_reserved":false,"is_disabled":false,"rental_uris":{"android":"levelo://app?vid=08ef1fb7-7b5e-4fd7-84db-b6da78b62b54","ios":"levelo://app?vid=08ef1fb7-7b5e-4fd7-84db-b6da78b62b54"},"vehicle_type_id":"4","last_reported":1686942283,"current_range_meters":0,"station_id":"ce4bhg92rcd13ifvqf90","pricing_plan_id":"free"},{"bike_id":"8ef8f6f9-f14b-472a-b552-5a1f1b1c4bc6","system_id":"levelo_inurba_marseille","lat":43.26681,"lon":5.382694,"is_reserved":false,"is_disabled":false,"rental_uris":{"android":"levelo://app?vid=8ef8f6f9-f14b-472a-b552-5a1f1b1c4bc6","ios":"levelo://app?vid=8ef8f6f9-f14b-472a-b552-5a1f1b1c4bc6"},"vehicle_type_id":"4","last_reported":1686942283,"current_range_meters":13200,"station_id":"ce4bhg92rcd13ifvqf90","pricing_plan_id":"free"},{"bike_id":"cfba2fbe-9ed5-423f-b411-8d6c38451715","system_id":"levelo_inurba_marseille","lat":43.26681,"lon":5.382694,"is_reserved":false,"is_disabled":false,"rental_uris":{"android":"levelo://app?vid=cfba2fbe-9ed5-423f-b411-8d6c38451715","ios":"levelo://app?vid=cfba2fbe-9ed5-423f-b411-8d6c38451715"},"vehicle_type_id":"4","last_reported":1686942283,"current_range_meters":31600,"station_id":"ce4bhg92rcd13ifvqf90","pricing_plan_id":"free"},{"bike_id":"3c36f439-1a24-48f8-ab55-e1c693333192","system_id":"levelo_inurba_marseille","lat":43.26681,"lon":5.38268,"is_reserved":false,"is_disabled":false,"rental_uris":{"android":"levelo://app?vid=3c36f439-1a24-48f8-ab55-e1c693333192","ios":"levelo://app?vid=3c36f439-1a24-48f8-ab55-e1c693333192"},"vehicle_type_id":"4","last_reported":1686942283,"current_range_meters":1600,"station_id":"ce4bhg92rcd13ifvqf90","pricing_plan_id":"free"},{"bike_id":"74b870d7-dd65-49b2-af31-ed98dfb18a73","system_id":"levelo_inurba_marseille","lat":43.26681,"lon":5.382694,"is_reserved":false,"is_disabled":false,"rental_uris":{"android":"levelo://app?vid=74b870d7-dd65-49b2-af31-ed98dfb18a73","ios":"levelo://app?vid=74b870d7-dd65-49b2-af31-ed98dfb18a73"},"vehicle_type_id":"4","last_reported":1686942283,"current_range_meters":12000,"station_id":"ce4bhg92rcd13ifvqf90","pricing_plan_id":"free"},{"bike_id":"4a168805-7483-42c5-897a-cf9790560101","system_id":"levelo_inurba_marseille","lat":43.26681,"lon":5.382694,"is_reserved":false,"is_disabled":false,"rental_uris":{"android":"levelo://app?vid=4a168805-7483-42c5-897a-cf9790560101","ios":"levelo://app?vid=4a168805-7483-42c5-897a-cf9790560101"},"vehicle_type_id":"4","last_reported":1686942283,"current_range_meters":1200,"station_id":"ce4bhg92rcd13ifvqf90","pricing_plan_id":"free"},{"bike_id":"5f2b60e1-8e88-4a55-9684-630740a8d90e","system_id":"levelo_inurba_marseille","lat":43.26681,"lon":5.382694,"is_reserved":false,"is_disabled":false,"rental_uris":{"android":"levelo://app?vid=5f2b60e1-8e88-4a55-9684-630740a8d90e","ios":"levelo://app?vid=5f2b60e1-8e88-4a55-9684-630740a8d90e"},"vehicle_type_id":"4","last_reported":1686942283,"current_range_meters":30800,"station_id":"ce4bhg92rcd13ifvqf90","pricing_plan_id":"free"},{"bike_id":"0ffac27f-ccb5-4966-a6f4-845b0efa243e","system_id":"levelo_inurba_marseille","lat":43.2668,"lon":5.38274,"is_reserved":false,"is_disabled":false,"rental_uris":{"android":"levelo://app?vid=0ffac27f-ccb5-4966-a6f4-845b0efa243e","ios":"levelo://app?vid=0ffac27f-ccb5-4966-a6f4-845b0efa243e"},"vehicle_type_id":"4","last_reported":1686942283,"current_range_meters":11600,"station_id":"ce4bhg92rcd13ifvqf90","pricing_plan_id":"free"},{"bike_id":"7a68e153-9dde-4036-89e2-a88db74712b1","system_id":"levelo_inurba_marseille","lat":43.26679,"lon":5.3827,"is_reserved":false,"is_disabled":false,"rental_uris":{"android":"levelo://app?vid=7a68e153-9dde-4036-89e2-a88db74712b1","ios":"levelo://app?vid=7a68e153-9dde-4036-89e2-a88db74712b1"},"vehicle_type_id":"4","last_reported":1686942283,"current_range_meters":9200,"station_id":"ce4bhg92rcd13ifvqf90","pricing_plan_id":"free"},{"bike_id":"45fd3b3e-60cc-485d-9e79-70c5523b4573","system_id":"levelo_inurba_marseille","lat":43.26681,"lon":5.382694,"is_reserved":false,"is_disabled":false,"rental_uris":{"android":"levelo://app?vid=45fd3b3e-60cc-485d-9e79-70c5523b4573","ios":"levelo://app?vid=45fd3b3e-60cc-485d-9e79-70c5523b4573"},"vehicle_type_id":"4","last_reported":1686942283,"current_range_meters":15600,"station_id":"ce4bhg92rcd13ifvqf90","pricing_plan_id":"free"},{"bike_id":"6275aaca-a354-407f-be44-df40f2969d44","system_id":"levelo_inurba_marseille","lat":43.26681,"lon":5.382694,"is_reserved":false,"is_disabled":false,"rental_uris":{"android":"levelo://app?vid=6275aaca-a354-407f-be44-df40f2969d44","ios":"levelo://app?vid=6275aaca-a354-407f-be44-df40f2969d44"},"vehicle_type_id":"4","last_reported":1686942283,"current_range_meters":32000,"station_id":"ce4bhg92rcd13ifvqf90","pricing_plan_id":"free"},{"bike_id":"131412c0-90cc-45ab-bdac-a4f2b3a3bc1e","system_id":"levelo_inurba_marseille","lat":43.26681,"lon":5.382694,"is_reserved":false,"is_disabled":false,"rental_uris":{"android":"levelo://app?vid=131412c0-90cc-45ab-bdac-a4f2b3a3bc1e","ios":"levelo://app?vid=131412c0-90cc-45ab-bdac-a4f2b3a3bc1e"},"vehicle_type_id":"4","last_reported":1686942283,"current_range_meters":28000,"station_id":"ce4bhg92rcd13ifvqf90","pricing_plan_id":"free"},{"bike_id":"9446e479-e5d9-464d-8d21-baad008609e7","system_id":"levelo_inurba_marseille","lat":43.26681,"lon":5.382694,"is_reserved":false,"is_disabled":false,"rental_uris":{"android":"levelo://app?vid=9446e479-e5d9-464d-8d21-baad008609e7","ios":"levelo://app?vid=9446e479-e5d9-464d-8d21-baad008609e7"},"vehicle_type_id":"4","last_reported":1686942283,"current_range_meters":0,"station_id":"ce4bhg92rcd13ifvqf90","pricing_plan_id":"free"},{"bike_id":"3987290e-fd4b-4f2b-81c0-57fca98f9cde","system_id":"levelo_inurba_marseille","lat":43.267966,"lon":5.393976,"is_reserved":false,"is_disabled":false,"rental_uris":{"android":"levelo://app?vid=3987290e-fd4b-4f2b-81c0-57fca98f9cde","ios":"levelo://app?vid=3987290e-fd4b-4f2b-81c0-57fca98f9cde"},"vehicle_type_id":"4","last_reported":1686942283,"current_range_meters":30400,"station_id":"ce4bhh12rcd13ifvqfg0","pricing_plan_id":"free"},{"bike_id":"e578e231-26d9-4e63-86c9-5a9b45da81f1","system_id":"levelo_inurba_marseille","lat":43.265569,"lon":5.390047,"is_reserved":false,"is_disabled":false,"rental_uris":{"android":"levelo://app?vid=e578e231-26d9-4e63-86c9-5a9b45da81f1","ios":"levelo://app?vid=e578e231-26d9-4e63-86c9-5a9b45da81f1"},"vehicle_type_id":"4","last_reported":1686942283,"current_range_meters":27600,"station_id":"ce4bhe12rcd13ifvqf30","pricing_plan_id":"free"},{"bike_id":"a2929769-8c18-41fc-b26d-90cb0eef6ac8","system_id":"levelo_inurba_marseille","lat":43.265764,"lon":5.390385,"is_reserved":false,"is_disabled":false,"rental_uris":{"android":"levelo://app?vid=a2929769-8c18-41fc-b26d-90cb0eef6ac8","ios":"levelo://app?vid=a2929769-8c18-41fc-b26d-90cb0eef6ac8"},"vehicle_type_id":"4","last_reported":1686942283,"current_range_meters":31200,"station_id":"","pricing_plan_id":"free"},{"bike_id":"0e1aef63-997b-4eac-aab9-f85d093a1e22","system_id":"levelo_inurba_marseille","lat":43.265742,"lon":5.390341,"is_reserved":false,"is_disabled":false,"rental_uris":{"android":"levelo://app?vid=0e1aef63-997b-4eac-aab9-f85d093a1e22","ios":"levelo://app?vid=0e1aef63-997b-4eac-aab9-f85d093a1e22"},"vehicle_type_id":"4","last_reported":1686942283,"current_range_meters":31600,"station_id":"ce4bhe12rcd13ifvqf30","pricing_plan_id":"free"},{"bike_id":"f0ed98c7-b249-47a2-9f31-8b95fbd58fbb","system_id":"levelo_inurba_marseille","lat":43.26567,"lon":5.39007,"is_reserved":false,"is_disabled":false,"rental_uris":{"android":"levelo://app?vid=f0ed98c7-b249-47a2-9f31-8b95fbd58fbb","ios":"levelo://app?vid=f0ed98c7-b249-47a2-9f31-8b95fbd58fbb"},"vehicle_type_id":"4","last_reported":1686942283,"current_range_meters":31200,"station_id":"ce4bhe12rcd13ifvqf30","pricing_plan_id":"free"},{"bike_id":"da435ee8-620d-461d-a1c6-31933af99e41","system_id":"levelo_inurba_marseille","lat":43.26194,"lon":5.37439,"is_reserved":false,"is_disabled":false,"rental_uris":{"android":"levelo://app?vid=da435ee8-620d-461d-a1c6-31933af99e41","ios":"levelo://app?vid=da435ee8-620d-461d-a1c6-31933af99e41"},"vehicle_type_id":"4","last_reported":1686942283,"current_range_meters":31200,"station_id":"ce4bhgp2rcd13ifvqfc0","pricing_plan_id":"free"},{"bike_id":"19afb9c8-8014-4b21-8651-e767594ca917","system_id":"levelo_inurba_marseille","lat":43.26191,"lon":5.37438,"is_reserved":false,"is_disabled":false,"rental_uris":{"android":"levelo://app?vid=19afb9c8-8014-4b21-8651-e767594ca917","ios":"levelo://app?vid=19afb9c8-8014-4b21-8651-e767594ca917"},"vehicle_type_id":"4","last_reported":1686942283,"current_range_meters":7600,"station_id":"ce4bhgp2rcd13ifvqfc0","pricing_plan_id":"free"},{"bike_id":"cbf1d7c0-bbf1-434b-ba64-be6c1f00b75b","system_id":"levelo_inurba_marseille","lat":43.26191,"lon":5.37439,"is_reserved":false,"is_disabled":false,"rental_uris":{"android":"levelo://app?vid=cbf1d7c0-bbf1-434b-ba64-be6c1f00b75b","ios":"levelo://app?vid=cbf1d7c0-bbf1-434b-ba64-be6c1f00b75b"},"vehicle_type_id":"4","last_reported":1686942283,"current_range_meters":17600,"station_id":"ce4bhgp2rcd13ifvqfc0","pricing_plan_id":"free"},{"bike_id":"ab2676ce-d711-43c0-97fd-c681e837a8c9","system_id":"levelo_inurba_marseille","lat":43.26191,"lon":5.3744,"is_reserved":false,"is_disabled":false,"rental_uris":{"android":"levelo://app?vid=ab2676ce-d711-43c0-97fd-c681e837a8c9","ios":"levelo://app?vid=ab2676ce-d711-43c0-97fd-c681e837a8c9"},"vehicle_type_id":"4","last_reported":1686942283,"current_range_meters":31200,"station_id":"ce4bhgp2rcd13ifvqfc0","pricing_plan_id":"free"},{"bike_id":"0ea6b517-e8d3-4483-a307-afdba83005c3","system_id":"levelo_inurba_marseille","lat":43.2619,"lon":5.37442,"is_reserved":false,"is_disabled":false,"rental_uris":{"android":"levelo://app?vid=0ea6b517-e8d3-4483-a307-afdba83005c3","ios":"levelo://app?vid=0ea6b517-e8d3-4483-a307-afdba83005c3"},"vehicle_type_id":"4","last_reported":1686942283,"current_range_meters":31200,"station_id":"ce4bhgp2rcd13ifvqfc0","pricing_plan_id":"free"},{"bike_id":"32ae8ee1-44a5-4693-a912-f9e1881222c7","system_id":"levelo_inurba_marseille","lat":43.26189,"lon":5.37437,"is_reserved":false,"is_disabled":false,"rental_uris":{"android":"levelo://app?vid=32ae8ee1-44a5-4693-a912-f9e1881222c7","ios":"levelo://app?vid=32ae8ee1-44a5-4693-a912-f9e1881222c7"},"vehicle_type_id":"4","last_reported":1686942283,"current_range_meters":31200,"station_id":"ce4bhgp2rcd13ifvqfc0","pricing_plan_id":"free"},{"bike_id":"5261a6d9-be5b-435a-a1e3-465f082f3151","system_id":"levelo_inurba_marseille","lat":43.26189,"lon":5.37441,"is_reserved":false,"is_disabled":false,"rental_uris":{"android":"levelo://app?vid=5261a6d9-be5b-435a-a1e3-465f082f3151","ios":"levelo://app?vid=5261a6d9-be5b-435a-a1e3-465f082f3151"},"vehicle_type_id":"4","last_reported":1686942283,"current_range_meters":20800,"station_id":"ce4bhgp2rcd13ifvqfc0","pricing_plan_id":"free"},{"bike_id":"eaf09b27-7de5-45ab-bf59-4a50cb9603d9","system_id":"levelo_inurba_marseille","lat":43.26189,"lon":5.37443,"is_reserved":false,"is_disabled":false,"rental_uris":{"android":"levelo://app?vid=eaf09b27-7de5-45ab-bf59-4a50cb9603d9","ios":"levelo://app?vid=eaf09b27-7de5-45ab-bf59-4a50cb9603d9"},"vehicle_type_id":"4","last_reported":1686942283,"current_range_meters":31200,"station_id":"ce4bhgp2rcd13ifvqfc0","pricing_plan_id":"free"},{"bike_id":"fb1cadf6-e78a-4918-9615-6fe5f91c7c9b","system_id":"levelo_inurba_marseille","lat":43.261782,"lon":5.374515,"is_reserved":false,"is_disabled":false,"rental_uris":{"android":"levelo://app?vid=fb1cadf6-e78a-4918-9615-6fe5f91c7c9b","ios":"levelo://app?vid=fb1cadf6-e78a-4918-9615-6fe5f91c7c9b"},"vehicle_type_id":"4","last_reported":1686942283,"current_range_meters":6000,"station_id":"ce4bhgp2rcd13ifvqfc0","pricing_plan_id":"free"},{"bike_id":"d4dd31c7-0ed8-48db-9484-218012c5c450","system_id":"levelo_inurba_marseille","lat":43.26187,"lon":5.37441,"is_reserved":false,"is_disabled":false,"rental_uris":{"android":"levelo://app?vid=d4dd31c7-0ed8-48db-9484-218012c5c450","ios":"levelo://app?vid=d4dd31c7-0ed8-48db-9484-218012c5c450"},"vehicle_type_id":"4","last_reported":1686942283,"current_range_meters":31200,"station_id":"ce4bhgp2rcd13ifvqfc0","pricing_plan_id":"free"},{"bike_id":"cb2a0740-cc82-47d5-869b-902ad3c5b135","system_id":"levelo_inurba_marseille","lat":43.261782,"lon":5.374515,"is_reserved":false,"is_disabled":false,"rental_uris":{"android":"levelo://app?vid=cb2a0740-cc82-47d5-869b-902ad3c5b135","ios":"levelo://app?vid=cb2a0740-cc82-47d5-869b-902ad3c5b135"},"vehicle_type_id":"4","last_reported":1686942283,"current_range_meters":0,"station_id":"ce4bhgp2rcd13ifvqfc0","pricing_plan_id":"free"},{"bike_id":"6f1b7a8e-a953-4b5d-8157-4a99f6086432","system_id":"levelo_inurba_marseille","lat":43.261782,"lon":5.374515,"is_reserved":false,"is_disabled":false,"rental_uris":{"android":"levelo://app?vid=6f1b7a8e-a953-4b5d-8157-4a99f6086432","ios":"levelo://app?vid=6f1b7a8e-a953-4b5d-8157-4a99f6086432"},"vehicle_type_id":"4","last_reported":1686942283,"current_range_meters":10800,"station_id":"ce4bhgp2rcd13ifvqfc0","pricing_plan_id":"free"},{"bike_id":"0011c012-5f08-4eff-8733-a240351feb84","system_id":"levelo_inurba_marseille","lat":43.26186,"lon":5.3744,"is_reserved":false,"is_disabled":false,"rental_uris":{"android":"levelo://app?vid=0011c012-5f08-4eff-8733-a240351feb84","ios":"levelo://app?vid=0011c012-5f08-4eff-8733-a240351feb84"},"vehicle_type_id":"4","last_reported":1686942283,"current_range_meters":20400,"station_id":"ce4bhgp2rcd13ifvqfc0","pricing_plan_id":"free"},{"bike_id":"efa31768-8978-4b83-a43c-a2064bef4549","system_id":"levelo_inurba_marseille","lat":43.26186,"lon":5.37445,"is_reserved":false,"is_disabled":false,"rental_uris":{"android":"levelo://app?vid=efa31768-8978-4b83-a43c-a2064bef4549","ios":"levelo://app?vid=efa31768-8978-4b83-a43c-a2064bef4549"},"vehicle_type_id":"4","last_reported":1686942283,"current_range_meters":31200,"station_id":"ce4bhgp2rcd13ifvqfc0","pricing_plan_id":"free"},{"bike_id":"010e5509-af87-4434-8d70-109f255c2cf7","system_id":"levelo_inurba_marseille","lat":43.26185,"lon":5.37442,"is_reserved":false,"is_disabled":false,"rental_uris":{"android":"levelo://app?vid=010e5509-af87-4434-8d70-109f255c2cf7","ios":"levelo://app?vid=010e5509-af87-4434-8d70-109f255c2cf7"},"vehicle_type_id":"4","last_reported":1686942283,"current_range_meters":800,"station_id":"ce4bhgp2rcd13ifvqfc0","pricing_plan_id":"free"},{"bike_id":"b21ec7e1-6d92-4379-91af-6972286152f7","system_id":"levelo_inurba_marseille","lat":43.261782,"lon":5.374515,"is_reserved":false,"is_disabled":false,"rental_uris":{"android":"levelo://app?vid=b21ec7e1-6d92-4379-91af-6972286152f7","ios":"levelo://app?vid=b21ec7e1-6d92-4379-91af-6972286152f7"},"vehicle_type_id":"4","last_reported":1686942283,"current_range_meters":5200,"station_id":"ce4bhgp2rcd13ifvqfc0","pricing_plan_id":"free"},{"bike_id":"1c8733a1-ad21-4284-a65b-6f6b8dda187d","system_id":"levelo_inurba_marseille","lat":43.26185,"lon":5.37444,"is_reserved":false,"is_disabled":false,"rental_uris":{"android":"levelo://app?vid=1c8733a1-ad21-4284-a65b-6f6b8dda187d","ios":"levelo://app?vid=1c8733a1-ad21-4284-a65b-6f6b8dda187d"},"vehicle_type_id":"4","last_reported":1686942283,"current_range_meters":16000,"station_id":"ce4bhgp2rcd13ifvqfc0","pricing_plan_id":"free"},{"bike_id":"4a955f4b-a30e-4a3c-a05b-1f4d96370364","system_id":"levelo_inurba_marseille","lat":43.26184,"lon":5.37434,"is_reserved":false,"is_disabled":false,"rental_uris":{"android":"levelo://app?vid=4a955f4b-a30e-4a3c-a05b-1f4d96370364","ios":"levelo://app?vid=4a955f4b-a30e-4a3c-a05b-1f4d96370364"},"vehicle_type_id":"4","last_reported":1686942283,"current_range_meters":29200,"station_id":"ce4bhgp2rcd13ifvqfc0","pricing_plan_id":"free"},{"bike_id":"2b57445f-58fd-4b38-a842-6a5af8b134c7","system_id":"levelo_inurba_marseille","lat":43.26184,"lon":5.37441,"is_reserved":false,"is_disabled":false,"rental_uris":{"android":"levelo://app?vid=2b57445f-58fd-4b38-a842-6a5af8b134c7","ios":"levelo://app?vid=2b57445f-58fd-4b38-a842-6a5af8b134c7"},"vehicle_type_id":"4","last_reported":1686942283,"current_range_meters":31200,"station_id":"ce4bhgp2rcd13ifvqfc0","pricing_plan_id":"free"},{"bike_id":"46b5cd46-4134-4e98-ab68-506440339d37","system_id":"levelo_inurba_marseille","lat":43.26184,"lon":5.37446,"is_reserved":false,"is_disabled":false,"rental_uris":{"android":"levelo://app?vid=46b5cd46-4134-4e98-ab68-506440339d37","ios":"levelo://app?vid=46b5cd46-4134-4e98-ab68-506440339d37"},"vehicle_type_id":"4","last_reported":1686942283,"current_range_meters":29200,"station_id":"ce4bhgp2rcd13ifvqfc0","pricing_plan_id":"free"},{"bike_id":"f174c36b-b46d-4b4d-8e53-ea50f482a700","system_id":"levelo_inurba_marseille","lat":43.26183,"lon":5.37444,"is_reserved":false,"is_disabled":false,"rental_uris":{"android":"levelo://app?vid=f174c36b-b46d-4b4d-8e53-ea50f482a700","ios":"levelo://app?vid=f174c36b-b46d-4b4d-8e53-ea50f482a700"},"vehicle_type_id":"4","last_reported":1686942283,"current_range_meters":22400,"station_id":"ce4bhgp2rcd13ifvqfc0","pricing_plan_id":"free"},{"bike_id":"1c838eb4-ea45-4598-8ae0-9717a2f0bb32","system_id":"levelo_inurba_marseille","lat":43.317104,"lon":5.436818,"is_reserved":false,"is_disabled":false,"rental_uris":{"android":"levelo://app?vid=1c838eb4-ea45-4598-8ae0-9717a2f0bb32","ios":"levelo://app?vid=1c838eb4-ea45-4598-8ae0-9717a2f0bb32"},"vehicle_type_id":"4","last_reported":1686942283,"current_range_meters":28000,"station_id":"ce4bhp92rcd13ifvqhcg","pricing_plan_id":"free"},{"bike_id":"de736fe5-a26a-49f8-9b10-7db3ba026eab","system_id":"levelo_inurba_marseille","lat":43.26212,"lon":5.37929,"is_reserved":false,"is_disabled":false,"rental_uris":{"android":"levelo://app?vid=de736fe5-a26a-49f8-9b10-7db3ba026eab","ios":"levelo://app?vid=de736fe5-a26a-49f8-9b10-7db3ba026eab"},"vehicle_type_id":"4","last_reported":1686942283,"current_range_meters":16800,"station_id":"ce4bhjp2rcd13ifvqg90","pricing_plan_id":"free"},{"bike_id":"7cb31352-5dd2-4392-86bc-b23964a6b79a","system_id":"levelo_inurba_marseille","lat":43.26202,"lon":5.379299,"is_reserved":false,"is_disabled":false,"rental_uris":{"android":"levelo://app?vid=7cb31352-5dd2-4392-86bc-b23964a6b79a","ios":"levelo://app?vid=7cb31352-5dd2-4392-86bc-b23964a6b79a"},"vehicle_type_id":"4","last_reported":1686942283,"current_range_meters":31200,"station_id":"ce4bhjp2rcd13ifvqg90","pricing_plan_id":"free"},{"bike_id":"a96c582b-35b2-4d08-9a57-27767101d206","system_id":"levelo_inurba_marseille","lat":43.2621,"lon":5.37923,"is_reserved":false,"is_disabled":false,"rental_uris":{"android":"levelo://app?vid=a96c582b-35b2-4d08-9a57-27767101d206","ios":"levelo://app?vid=a96c582b-35b2-4d08-9a57-27767101d206"},"vehicle_type_id":"4","last_reported":1686942283,"current_range_meters":14000,"station_id":"ce4bhjp2rcd13ifvqg90","pricing_plan_id":"free"},{"bike_id":"cd6b46fc-36aa-450c-9866-15273c092f71","system_id":"levelo_inurba_marseille","lat":43.26202,"lon":5.379299,"is_reserved":false,"is_disabled":false,"rental_uris":{"android":"levelo://app?vid=cd6b46fc-36aa-450c-9866-15273c092f71","ios":"levelo://app?vid=cd6b46fc-36aa-450c-9866-15273c092f71"},"vehicle_type_id":"4","last_reported":1686942283,"current_range_meters":31200,"station_id":"ce4bhjp2rcd13ifvqg90","pricing_plan_id":"free"},{"bike_id":"ffb9e2cd-e096-4cde-b0ee-feb81ef79d74","system_id":"levelo_inurba_marseille","lat":43.26209,"lon":5.37934,"is_reserved":false,"is_disabled":false,"rental_uris":{"android":"levelo://app?vid=ffb9e2cd-e096-4cde-b0ee-feb81ef79d74","ios":"levelo://app?vid=ffb9e2cd-e096-4cde-b0ee-feb81ef79d74"},"vehicle_type_id":"4","last_reported":1686942283,"current_range_meters":10000,"station_id":"ce4bhjp2rcd13ifvqg90","pricing_plan_id":"free"},{"bike_id":"6d1534cd-8426-4f59-8814-affd2b327db3","system_id":"levelo_inurba_marseille","lat":43.26207,"lon":5.37928,"is_reserved":false,"is_disabled":false,"rental_uris":{"android":"levelo://app?vid=6d1534cd-8426-4f59-8814-affd2b327db3","ios":"levelo://app?vid=6d1534cd-8426-4f59-8814-affd2b327db3"},"vehicle_type_id":"4","last_reported":1686942283,"current_range_meters":19600,"station_id":"ce4bhjp2rcd13ifvqg90","pricing_plan_id":"free"},{"bike_id":"9c45573d-7e2a-4e16-a7ba-cfe7257710aa","system_id":"levelo_inurba_marseille","lat":43.26206,"lon":5.37924,"is_reserved":false,"is_disabled":false,"rental_uris":{"android":"levelo://app?vid=9c45573d-7e2a-4e16-a7ba-cfe7257710aa","ios":"levelo://app?vid=9c45573d-7e2a-4e16-a7ba-cfe7257710aa"},"vehicle_type_id":"4","last_reported":1686942283,"current_range_meters":16800,"station_id":"ce4bhjp2rcd13ifvqg90","pricing_plan_id":"free"},{"bike_id":"996200f4-0a4a-48d9-a4d2-3ebe89756dc9","system_id":"levelo_inurba_marseille","lat":43.26207,"lon":5.37932,"is_reserved":false,"is_disabled":false,"rental_uris":{"android":"levelo://app?vid=996200f4-0a4a-48d9-a4d2-3ebe89756dc9","ios":"levelo://app?vid=996200f4-0a4a-48d9-a4d2-3ebe89756dc9"},"vehicle_type_id":"4","last_reported":1686942283,"current_range_meters":10000,"station_id":"ce4bhjp2rcd13ifvqg90","pricing_plan_id":"free"},{"bike_id":"bc611118-a5ff-447c-b17d-7f25d1124891","system_id":"levelo_inurba_marseille","lat":43.26202,"lon":5.379299,"is_reserved":false,"is_disabled":false,"rental_uris":{"android":"levelo://app?vid=bc611118-a5ff-447c-b17d-7f25d1124891","ios":"levelo://app?vid=bc611118-a5ff-447c-b17d-7f25d1124891"},"vehicle_type_id":"4","last_reported":1686942283,"current_range_meters":31200,"station_id":"ce4bhjp2rcd13ifvqg90","pricing_plan_id":"free"},{"bike_id":"c622a3d2-c0d0-4fed-a4ef-52de91303c57","system_id":"levelo_inurba_marseille","lat":43.26207,"lon":5.37933,"is_reserved":false,"is_disabled":false,"rental_uris":{"android":"levelo://app?vid=c622a3d2-c0d0-4fed-a4ef-52de91303c57","ios":"levelo://app?vid=c622a3d2-c0d0-4fed-a4ef-52de91303c57"},"vehicle_type_id":"4","last_reported":1686942283,"current_range_meters":6800,"station_id":"ce4bhjp2rcd13ifvqg90","pricing_plan_id":"free"},{"bike_id":"2ed7b7c2-8a07-4615-90fa-91057de4c68c","system_id":"levelo_inurba_marseille","lat":43.26202,"lon":5.379299,"is_reserved":false,"is_disabled":false,"rental_uris":{"android":"levelo://app?vid=2ed7b7c2-8a07-4615-90fa-91057de4c68c","ios":"levelo://app?vid=2ed7b7c2-8a07-4615-90fa-91057de4c68c"},"vehicle_type_id":"4","last_reported":1686942283,"current_range_meters":31200,"station_id":"ce4bhjp2rcd13ifvqg90","pricing_plan_id":"free"},{"bike_id":"52aff03d-fd8d-409e-a466-e02f52a3179d","system_id":"levelo_inurba_marseille","lat":43.26206,"lon":5.37932,"is_reserved":false,"is_disabled":false,"rental_uris":{"android":"levelo://app?vid=52aff03d-fd8d-409e-a466-e02f52a3179d","ios":"levelo://app?vid=52aff03d-fd8d-409e-a466-e02f52a3179d"},"vehicle_type_id":"4","last_reported":1686942283,"current_range_meters":29600,"station_id":"ce4bhjp2rcd13ifvqg90","pricing_plan_id":"free"},{"bike_id":"c8eb0559-fc74-4432-89ca-60edd849ba8a","system_id":"levelo_inurba_marseille","lat":43.26206,"lon":5.37933,"is_reserved":false,"is_disabled":false,"rental_uris":{"android":"levelo://app?vid=c8eb0559-fc74-4432-89ca-60edd849ba8a","ios":"levelo://app?vid=c8eb0559-fc74-4432-89ca-60edd849ba8a"},"vehicle_type_id":"4","last_reported":1686942283,"current_range_meters":16400,"station_id":"ce4bhjp2rcd13ifvqg90","pricing_plan_id":"free"},{"bike_id":"e49348f7-246e-4940-b3cf-2e0103a058dd","system_id":"levelo_inurba_marseille","lat":43.26205,"lon":5.37926,"is_reserved":false,"is_disabled":false,"rental_uris":{"android":"levelo://app?vid=e49348f7-246e-4940-b3cf-2e0103a058dd","ios":"levelo://app?vid=e49348f7-246e-4940-b3cf-2e0103a058dd"},"vehicle_type_id":"4","last_reported":1686942283,"current_range_meters":27200,"station_id":"ce4bhjp2rcd13ifvqg90","pricing_plan_id":"free"},{"bike_id":"6c9b2446-e41d-4f27-86ef-6b3d46ce64d4","system_id":"levelo_inurba_marseille","lat":43.26205,"lon":5.37926,"is_reserved":false,"is_disabled":false,"rental_uris":{"android":"levelo://app?vid=6c9b2446-e41d-4f27-86ef-6b3d46ce64d4","ios":"levelo://app?vid=6c9b2446-e41d-4f27-86ef-6b3d46ce64d4"},"vehicle_type_id":"4","last_reported":1686942283,"current_range_meters":31200,"station_id":"ce4bhjp2rcd13ifvqg90","pricing_plan_id":"free"},{"bike_id":"022b8a81-e07e-4f94-bdf1-f40e4a6d68a6","system_id":"levelo_inurba_marseille","lat":43.26205,"lon":5.37929,"is_reserved":false,"is_disabled":false,"rental_uris":{"android":"levelo://app?vid=022b8a81-e07e-4f94-bdf1-f40e4a6d68a6","ios":"levelo://app?vid=022b8a81-e07e-4f94-bdf1-f40e4a6d68a6"},"vehicle_type_id":"4","last_reported":1686942283,"current_range_meters":4000,"station_id":"ce4bhjp2rcd13ifvqg90","pricing_plan_id":"free"},{"bike_id":"af87371b-abc9-4142-abfc-17410517b812","system_id":"levelo_inurba_marseille","lat":43.26204,"lon":5.37923,"is_reserved":false,"is_disabled":false,"rental_uris":{"android":"levelo://app?vid=af87371b-abc9-4142-abfc-17410517b812","ios":"levelo://app?vid=af87371b-abc9-4142-abfc-17410517b812"},"vehicle_type_id":"4","last_reported":1686942283,"current_range_meters":30400,"station_id":"ce4bhjp2rcd13ifvqg90","pricing_plan_id":"free"},{"bike_id":"9675edd2-e071-4555-8d25-6570bf35413c","system_id":"levelo_inurba_marseille","lat":43.26204,"lon":5.37923,"is_reserved":false,"is_disabled":false,"rental_uris":{"android":"levelo://app?vid=9675edd2-e071-4555-8d25-6570bf35413c","ios":"levelo://app?vid=9675edd2-e071-4555-8d25-6570bf35413c"},"vehicle_type_id":"4","last_reported":1686942283,"current_range_meters":11600,"station_id":"ce4bhjp2rcd13ifvqg90","pricing_plan_id":"free"},{"bike_id":"78e411fd-aa0d-4f13-9a32-490d6825736e","system_id":"levelo_inurba_marseille","lat":43.26204,"lon":5.37924,"is_reserved":false,"is_disabled":false,"rental_uris":{"android":"levelo://app?vid=78e411fd-aa0d-4f13-9a32-490d6825736e","ios":"levelo://app?vid=78e411fd-aa0d-4f13-9a32-490d6825736e"},"vehicle_type_id":"4","last_reported":1686942283,"current_range_meters":27200,"station_id":"ce4bhjp2rcd13ifvqg90","pricing_plan_id":"free"},{"bike_id":"aa3aab35-f6ac-46a2-bc60-44ce96550812","system_id":"levelo_inurba_marseille","lat":43.26202,"lon":5.379299,"is_reserved":false,"is_disabled":false,"rental_uris":{"android":"levelo://app?vid=aa3aab35-f6ac-46a2-bc60-44ce96550812","ios":"levelo://app?vid=aa3aab35-f6ac-46a2-bc60-44ce96550812"},"vehicle_type_id":"4","last_reported":1686942283,"current_range_meters":6400,"station_id":"ce4bhjp2rcd13ifvqg90","pricing_plan_id":"free"},{"bike_id":"b52e203b-a3cd-44f4-97b3-a664966960fe","system_id":"levelo_inurba_marseille","lat":43.26202,"lon":5.379299,"is_reserved":false,"is_disabled":false,"rental_uris":{"android":"levelo://app?vid=b52e203b-a3cd-44f4-97b3-a664966960fe","ios":"levelo://app?vid=b52e203b-a3cd-44f4-97b3-a664966960fe"},"vehicle_type_id":"4","last_reported":1686942283,"current_range_meters":12000,"station_id":"ce4bhjp2rcd13ifvqg90","pricing_plan_id":"free"},{"bike_id":"b15816cc-e74c-4248-afc4-52d13181d055","system_id":"levelo_inurba_marseille","lat":43.26204,"lon":5.37927,"is_reserved":false,"is_disabled":false,"rental_uris":{"android":"levelo://app?vid=b15816cc-e74c-4248-afc4-52d13181d055","ios":"levelo://app?vid=b15816cc-e74c-4248-afc4-52d13181d055"},"vehicle_type_id":"4","last_reported":1686942283,"current_range_meters":1600,"station_id":"ce4bhjp2rcd13ifvqg90","pricing_plan_id":"free"},{"bike_id":"8769e94a-eea4-4902-8a5d-5c7daf170bd9","system_id":"levelo_inurba_marseille","lat":43.26204,"lon":5.37927,"is_reserved":false,"is_disabled":false,"rental_uris":{"android":"levelo://app?vid=8769e94a-eea4-4902-8a5d-5c7daf170bd9","ios":"levelo://app?vid=8769e94a-eea4-4902-8a5d-5c7daf170bd9"},"vehicle_type_id":"4","last_reported":1686942283,"current_range_meters":8400,"station_id":"ce4bhjp2rcd13ifvqg90","pricing_plan_id":"free"},{"bike_id":"daac0333-dbfc-48a5-8160-31833bb5fd7c","system_id":"levelo_inurba_marseille","lat":43.26204,"lon":5.37928,"is_reserved":false,"is_disabled":false,"rental_uris":{"android":"levelo://app?vid=daac0333-dbfc-48a5-8160-31833bb5fd7c","ios":"levelo://app?vid=daac0333-dbfc-48a5-8160-31833bb5fd7c"},"vehicle_type_id":"4","last_reported":1686942283,"current_range_meters":26800,"station_id":"ce4bhjp2rcd13ifvqg90","pricing_plan_id":"free"},{"bike_id":"ccec55c2-5e25-4a0d-ba89-4f1b42bdd650","system_id":"levelo_inurba_marseille","lat":43.26204,"lon":5.37929,"is_reserved":false,"is_disabled":false,"rental_uris":{"android":"levelo://app?vid=ccec55c2-5e25-4a0d-ba89-4f1b42bdd650","ios":"levelo://app?vid=ccec55c2-5e25-4a0d-ba89-4f1b42bdd650"},"vehicle_type_id":"4","last_reported":1686942283,"current_range_meters":2400,"station_id":"ce4bhjp2rcd13ifvqg90","pricing_plan_id":"free"},{"bike_id":"1c50530b-b2e4-4b41-ae0c-282e246b3ee9","system_id":"levelo_inurba_marseille","lat":43.26203,"lon":5.37925,"is_reserved":false,"is_disabled":false,"rental_uris":{"android":"levelo://app?vid=1c50530b-b2e4-4b41-ae0c-282e246b3ee9","ios":"levelo://app?vid=1c50530b-b2e4-4b41-ae0c-282e246b3ee9"},"vehicle_type_id":"4","last_reported":1686942283,"current_range_meters":26000,"station_id":"ce4bhjp2rcd13ifvqg90","pricing_plan_id":"free"},{"bike_id":"ddb4864b-acc6-4b52-bc46-c3bcf082343f","system_id":"levelo_inurba_marseille","lat":43.26204,"lon":5.37933,"is_reserved":false,"is_disabled":false,"rental_uris":{"android":"levelo://app?vid=ddb4864b-acc6-4b52-bc46-c3bcf082343f","ios":"levelo://app?vid=ddb4864b-acc6-4b52-bc46-c3bcf082343f"},"vehicle_type_id":"4","last_reported":1686942283,"current_range_meters":18000,"station_id":"ce4bhjp2rcd13ifvqg90","pricing_plan_id":"free"},{"bike_id":"0e60e233-b07f-48cd-a83e-99e3950ea7ae","system_id":"levelo_inurba_marseille","lat":43.26202,"lon":5.379299,"is_reserved":false,"is_disabled":false,"rental_uris":{"android":"levelo://app?vid=0e60e233-b07f-48cd-a83e-99e3950ea7ae","ios":"levelo://app?vid=0e60e233-b07f-48cd-a83e-99e3950ea7ae"},"vehicle_type_id":"4","last_reported":1686942283,"current_range_meters":21200,"station_id":"ce4bhjp2rcd13ifvqg90","pricing_plan_id":"free"},{"bike_id":"1314fd1f-e069-4617-a027-826e7dc8f158","system_id":"levelo_inurba_marseille","lat":43.26202,"lon":5.379299,"is_reserved":false,"is_disabled":false,"rental_uris":{"android":"levelo://app?vid=1314fd1f-e069-4617-a027-826e7dc8f158","ios":"levelo://app?vid=1314fd1f-e069-4617-a027-826e7dc8f158"},"vehicle_type_id":"4","last_reported":1686942283,"current_range_meters":17200,"station_id":"ce4bhjp2rcd13ifvqg90","pricing_plan_id":"free"},{"bike_id":"135bfdc9-da53-4544-b54c-560caf8e77d1","system_id":"levelo_inurba_marseille","lat":43.26201,"lon":5.37924,"is_reserved":false,"is_disabled":false,"rental_uris":{"android":"levelo://app?vid=135bfdc9-da53-4544-b54c-560caf8e77d1","ios":"levelo://app?vid=135bfdc9-da53-4544-b54c-560caf8e77d1"},"vehicle_type_id":"4","last_reported":1686942283,"current_range_meters":18400,"station_id":"ce4bhjp2rcd13ifvqg90","pricing_plan_id":"free"},{"bike_id":"2a1b23f2-dabb-4511-ba16-c075d2484d5d","system_id":"levelo_inurba_marseille","lat":43.26202,"lon":5.379299,"is_reserved":false,"is_disabled":false,"rental_uris":{"android":"levelo://app?vid=2a1b23f2-dabb-4511-ba16-c075d2484d5d","ios":"levelo://app?vid=2a1b23f2-dabb-4511-ba16-c075d2484d5d"},"vehicle_type_id":"4","last_reported":1686942283,"current_range_meters":31200,"station_id":"ce4bhjp2rcd13ifvqg90","pricing_plan_id":"free"},{"bike_id":"6e591917-6e56-49d9-85c4-b1007238fcc8","system_id":"levelo_inurba_marseille","lat":43.26202,"lon":5.37934,"is_reserved":false,"is_disabled":false,"rental_uris":{"android":"levelo://app?vid=6e591917-6e56-49d9-85c4-b1007238fcc8","ios":"levelo://app?vid=6e591917-6e56-49d9-85c4-b1007238fcc8"},"vehicle_type_id":"4","last_reported":1686942283,"current_range_meters":2800,"station_id":"ce4bhjp2rcd13ifvqg90","pricing_plan_id":"free"},{"bike_id":"02a89742-31a3-4ee4-a871-dc9c8ec9400b","system_id":"levelo_inurba_marseille","lat":43.26202,"lon":5.37935,"is_reserved":false,"is_disabled":false,"rental_uris":{"android":"levelo://app?vid=02a89742-31a3-4ee4-a871-dc9c8ec9400b","ios":"levelo://app?vid=02a89742-31a3-4ee4-a871-dc9c8ec9400b"},"vehicle_type_id":"4","last_reported":1686942283,"current_range_meters":9200,"station_id":"ce4bhjp2rcd13ifvqg90","pricing_plan_id":"free"},{"bike_id":"cffa8e8a-7fce-4f4b-b079-af059364d074","system_id":"levelo_inurba_marseille","lat":43.26201,"lon":5.3793,"is_reserved":false,"is_disabled":false,"rental_uris":{"android":"levelo://app?vid=cffa8e8a-7fce-4f4b-b079-af059364d074","ios":"levelo://app?vid=cffa8e8a-7fce-4f4b-b079-af059364d074"},"vehicle_type_id":"4","last_reported":1686942283,"current_range_meters":19200,"station_id":"ce4bhjp2rcd13ifvqg90","pricing_plan_id":"free"},{"bike_id":"b4438a96-040d-4da3-8190-6e8427d21e32","system_id":"levelo_inurba_marseille","lat":43.26202,"lon":5.37938,"is_reserved":false,"is_disabled":false,"rental_uris":{"android":"levelo://app?vid=b4438a96-040d-4da3-8190-6e8427d21e32","ios":"levelo://app?vid=b4438a96-040d-4da3-8190-6e8427d21e32"},"vehicle_type_id":"4","last_reported":1686942283,"current_range_meters":9200,"station_id":"ce4bhjp2rcd13ifvqg90","pricing_plan_id":"free"},{"bike_id":"ef5be7a3-ecb1-4133-940e-31397df5ec24","system_id":"levelo_inurba_marseille","lat":43.26201,"lon":5.37931,"is_reserved":false,"is_disabled":false,"rental_uris":{"android":"levelo://app?vid=ef5be7a3-ecb1-4133-940e-31397df5ec24","ios":"levelo://app?vid=ef5be7a3-ecb1-4133-940e-31397df5ec24"},"vehicle_type_id":"4","last_reported":1686942283,"current_range_meters":5200,"station_id":"ce4bhjp2rcd13ifvqg90","pricing_plan_id":"free"},{"bike_id":"6867bdb6-91aa-49c3-b63c-816c0b897b04","system_id":"levelo_inurba_marseille","lat":43.26201,"lon":5.37932,"is_reserved":false,"is_disabled":false,"rental_uris":{"android":"levelo://app?vid=6867bdb6-91aa-49c3-b63c-816c0b897b04","ios":"levelo://app?vid=6867bdb6-91aa-49c3-b63c-816c0b897b04"},"vehicle_type_id":"4","last_reported":1686942283,"current_range_meters":30800,"station_id":"ce4bhjp2rcd13ifvqg90","pricing_plan_id":"free"},{"bike_id":"e46ab0ec-88c0-43db-8bd4-4a4e071aa25d","system_id":"levelo_inurba_marseille","lat":43.262,"lon":5.37926,"is_reserved":false,"is_disabled":false,"rental_uris":{"android":"levelo://app?vid=e46ab0ec-88c0-43db-8bd4-4a4e071aa25d","ios":"levelo://app?vid=e46ab0ec-88c0-43db-8bd4-4a4e071aa25d"},"vehicle_type_id":"4","last_reported":1686942283,"current_range_meters":17200,"station_id":"ce4bhjp2rcd13ifvqg90","pricing_plan_id":"free"},{"bike_id":"d968640c-41ff-48e7-b790-82f7b592cd6f","system_id":"levelo_inurba_marseille","lat":43.26202,"lon":5.379299,"is_reserved":false,"is_disabled":false,"rental_uris":{"android":"levelo://app?vid=d968640c-41ff-48e7-b790-82f7b592cd6f","ios":"levelo://app?vid=d968640c-41ff-48e7-b790-82f7b592cd6f"},"vehicle_type_id":"4","last_reported":1686942283,"current_range_meters":15200,"station_id":"ce4bhjp2rcd13ifvqg90","pricing_plan_id":"free"},{"bike_id":"c1852bfd-6840-44ca-b507-a10564223d89","system_id":"levelo_inurba_marseille","lat":43.26201,"lon":5.37936,"is_reserved":false,"is_disabled":false,"rental_uris":{"android":"levelo://app?vid=c1852bfd-6840-44ca-b507-a10564223d89","ios":"levelo://app?vid=c1852bfd-6840-44ca-b507-a10564223d89"},"vehicle_type_id":"4","last_reported":1686942283,"current_range_meters":31200,"station_id":"ce4bhjp2rcd13ifvqg90","pricing_plan_id":"free"},{"bike_id":"d11b2b8a-fc3f-4a6e-a031-fca57f2a6dbe","system_id":"levelo_inurba_marseille","lat":43.26202,"lon":5.379299,"is_reserved":false,"is_disabled":false,"rental_uris":{"android":"levelo://app?vid=d11b2b8a-fc3f-4a6e-a031-fca57f2a6dbe","ios":"levelo://app?vid=d11b2b8a-fc3f-4a6e-a031-fca57f2a6dbe"},"vehicle_type_id":"4","last_reported":1686942283,"current_range_meters":26400,"station_id":"ce4bhjp2rcd13ifvqg90","pricing_plan_id":"free"},{"bike_id":"22bd9b3c-c84a-4ecb-9d3f-88b997ed2715","system_id":"levelo_inurba_marseille","lat":43.262,"lon":5.37932,"is_reserved":false,"is_disabled":false,"rental_uris":{"android":"levelo://app?vid=22bd9b3c-c84a-4ecb-9d3f-88b997ed2715","ios":"levelo://app?vid=22bd9b3c-c84a-4ecb-9d3f-88b997ed2715"},"vehicle_type_id":"4","last_reported":1686942283,"current_range_meters":22000,"station_id":"ce4bhjp2rcd13ifvqg90","pricing_plan_id":"free"},{"bike_id":"ab612d6f-c5bd-41f7-af93-6b463582f745","system_id":"levelo_inurba_marseille","lat":43.262,"lon":5.37932,"is_reserved":false,"is_disabled":false,"rental_uris":{"android":"levelo://app?vid=ab612d6f-c5bd-41f7-af93-6b463582f745","ios":"levelo://app?vid=ab612d6f-c5bd-41f7-af93-6b463582f745"},"vehicle_type_id":"4","last_reported":1686942283,"current_range_meters":13600,"station_id":"ce4bhjp2rcd13ifvqg90","pricing_plan_id":"free"},{"bike_id":"a43604cf-6338-465e-b30a-55c742f1264b","system_id":"levelo_inurba_marseille","lat":43.26202,"lon":5.379299,"is_reserved":false,"is_disabled":false,"rental_uris":{"android":"levelo://app?vid=a43604cf-6338-465e-b30a-55c742f1264b","ios":"levelo://app?vid=a43604cf-6338-465e-b30a-55c742f1264b"},"vehicle_type_id":"4","last_reported":1686942283,"current_range_meters":22400,"station_id":"ce4bhjp2rcd13ifvqg90","pricing_plan_id":"free"},{"bike_id":"e7c7d2ee-29f7-469c-bcea-af1164a0c4f4","system_id":"levelo_inurba_marseille","lat":43.26202,"lon":5.379299,"is_reserved":false,"is_disabled":false,"rental_uris":{"android":"levelo://app?vid=e7c7d2ee-29f7-469c-bcea-af1164a0c4f4","ios":"levelo://app?vid=e7c7d2ee-29f7-469c-bcea-af1164a0c4f4"},"vehicle_type_id":"4","last_reported":1686942283,"current_range_meters":29200,"station_id":"ce4bhjp2rcd13ifvqg90","pricing_plan_id":"free"},{"bike_id":"0dd31d74-bc15-450b-a75c-4e20bc6576f8","system_id":"levelo_inurba_marseille","lat":43.26199,"lon":5.37929,"is_reserved":false,"is_disabled":false,"rental_uris":{"android":"levelo://app?vid=0dd31d74-bc15-450b-a75c-4e20bc6576f8","ios":"levelo://app?vid=0dd31d74-bc15-450b-a75c-4e20bc6576f8"},"vehicle_type_id":"4","last_reported":1686942283,"current_range_meters":22800,"station_id":"ce4bhjp2rcd13ifvqg90","pricing_plan_id":"free"},{"bike_id":"a017d87b-ebf2-4782-b843-25d585c6a6e2","system_id":"levelo_inurba_marseille","lat":43.26202,"lon":5.379299,"is_reserved":false,"is_disabled":false,"rental_uris":{"android":"levelo://app?vid=a017d87b-ebf2-4782-b843-25d585c6a6e2","ios":"levelo://app?vid=a017d87b-ebf2-4782-b843-25d585c6a6e2"},"vehicle_type_id":"4","last_reported":1686942283,"current_range_meters":18800,"station_id":"ce4bhjp2rcd13ifvqg90","pricing_plan_id":"free"},{"bike_id":"e572aed1-71e6-49ea-a174-5691c7cd1da6","system_id":"levelo_inurba_marseille","lat":43.26202,"lon":5.379299,"is_reserved":false,"is_disabled":false,"rental_uris":{"android":"levelo://app?vid=e572aed1-71e6-49ea-a174-5691c7cd1da6","ios":"levelo://app?vid=e572aed1-71e6-49ea-a174-5691c7cd1da6"},"vehicle_type_id":"4","last_reported":1686942283,"current_range_meters":31200,"station_id":"ce4bhjp2rcd13ifvqg90","pricing_plan_id":"free"},{"bike_id":"b9765a6f-f3d2-4480-a13b-28e90420ca3e","system_id":"levelo_inurba_marseille","lat":43.26197,"lon":5.37923,"is_reserved":false,"is_disabled":false,"rental_uris":{"android":"levelo://app?vid=b9765a6f-f3d2-4480-a13b-28e90420ca3e","ios":"levelo://app?vid=b9765a6f-f3d2-4480-a13b-28e90420ca3e"},"vehicle_type_id":"4","last_reported":1686942283,"current_range_meters":31200,"station_id":"ce4bhjp2rcd13ifvqg90","pricing_plan_id":"free"},{"bike_id":"fea41673-a085-442a-92a0-90fd61618e6f","system_id":"levelo_inurba_marseille","lat":43.26197,"lon":5.37926,"is_reserved":false,"is_disabled":false,"rental_uris":{"android":"levelo://app?vid=fea41673-a085-442a-92a0-90fd61618e6f","ios":"levelo://app?vid=fea41673-a085-442a-92a0-90fd61618e6f"},"vehicle_type_id":"4","last_reported":1686942283,"current_range_meters":31200,"station_id":"ce4bhjp2rcd13ifvqg90","pricing_plan_id":"free"},{"bike_id":"6345dde2-8be5-4b14-b554-75b467131e9d","system_id":"levelo_inurba_marseille","lat":43.26202,"lon":5.379299,"is_reserved":false,"is_disabled":false,"rental_uris":{"android":"levelo://app?vid=6345dde2-8be5-4b14-b554-75b467131e9d","ios":"levelo://app?vid=6345dde2-8be5-4b14-b554-75b467131e9d"},"vehicle_type_id":"4","last_reported":1686942283,"current_range_meters":22400,"station_id":"ce4bhjp2rcd13ifvqg90","pricing_plan_id":"free"},{"bike_id":"31c5b254-f297-42e9-b3a2-5d9950d6898f","system_id":"levelo_inurba_marseille","lat":43.26197,"lon":5.37927,"is_reserved":false,"is_disabled":false,"rental_uris":{"android":"levelo://app?vid=31c5b254-f297-42e9-b3a2-5d9950d6898f","ios":"levelo://app?vid=31c5b254-f297-42e9-b3a2-5d9950d6898f"},"vehicle_type_id":"4","last_reported":1686942283,"current_range_meters":6000,"station_id":"ce4bhjp2rcd13ifvqg90","pricing_plan_id":"free"},{"bike_id":"1d6ad414-f440-435b-925f-80dabaa65f3a","system_id":"levelo_inurba_marseille","lat":43.271388,"lon":5.409269,"is_reserved":false,"is_disabled":false,"rental_uris":{"android":"levelo://app?vid=1d6ad414-f440-435b-925f-80dabaa65f3a","ios":"levelo://app?vid=1d6ad414-f440-435b-925f-80dabaa65f3a"},"vehicle_type_id":"4","last_reported":1686942283,"current_range_meters":2400,"station_id":"ce4bhl12rcd13ifvqgf0","pricing_plan_id":"free"},{"bike_id":"fcc791b7-d7d6-431e-9e36-c8438d7a6101","system_id":"levelo_inurba_marseille","lat":43.26202,"lon":5.379299,"is_reserved":false,"is_disabled":false,"rental_uris":{"android":"levelo://app?vid=fcc791b7-d7d6-431e-9e36-c8438d7a6101","ios":"levelo://app?vid=fcc791b7-d7d6-431e-9e36-c8438d7a6101"},"vehicle_type_id":"4","last_reported":1686942283,"current_range_meters":27200,"station_id":"ce4bhjp2rcd13ifvqg90","pricing_plan_id":"free"},{"bike_id":"5ac085d7-8649-4990-8085-b600b60eb0d3","system_id":"levelo_inurba_marseille","lat":43.26197,"lon":5.37929,"is_reserved":false,"is_disabled":false,"rental_uris":{"android":"levelo://app?vid=5ac085d7-8649-4990-8085-b600b60eb0d3","ios":"levelo://app?vid=5ac085d7-8649-4990-8085-b600b60eb0d3"},"vehicle_type_id":"4","last_reported":1686942283,"current_range_meters":20000,"station_id":"ce4bhjp2rcd13ifvqg90","pricing_plan_id":"free"},{"bike_id":"40a30b95-5688-45be-ac3d-11a6e4cadaac","system_id":"levelo_inurba_marseille","lat":43.26197,"lon":5.3793,"is_reserved":false,"is_disabled":false,"rental_uris":{"android":"levelo://app?vid=40a30b95-5688-45be-ac3d-11a6e4cadaac","ios":"levelo://app?vid=40a30b95-5688-45be-ac3d-11a6e4cadaac"},"vehicle_type_id":"4","last_reported":1686942283,"current_range_meters":31200,"station_id":"ce4bhjp2rcd13ifvqg90","pricing_plan_id":"free"},{"bike_id":"5ddb55f6-3e92-4f9a-8e95-4d5880813dc9","system_id":"levelo_inurba_marseille","lat":43.26198,"lon":5.37938,"is_reserved":false,"is_disabled":false,"rental_uris":{"android":"levelo://app?vid=5ddb55f6-3e92-4f9a-8e95-4d5880813dc9","ios":"levelo://app?vid=5ddb55f6-3e92-4f9a-8e95-4d5880813dc9"},"vehicle_type_id":"4","last_reported":1686942283,"current_range_meters":31200,"station_id":"ce4bhjp2rcd13ifvqg90","pricing_plan_id":"free"},{"bike_id":"68339086-9a1e-40e3-b666-8b288940409f","system_id":"levelo_inurba_marseille","lat":43.26197,"lon":5.37933,"is_reserved":false,"is_disabled":false,"rental_uris":{"android":"levelo://app?vid=68339086-9a1e-40e3-b666-8b288940409f","ios":"levelo://app?vid=68339086-9a1e-40e3-b666-8b288940409f"},"vehicle_type_id":"4","last_reported":1686942283,"current_range_meters":19200,"station_id":"ce4bhjp2rcd13ifvqg90","pricing_plan_id":"free"},{"bike_id":"02704997-86cc-46e2-8fe6-b9c9aa5373ce","system_id":"levelo_inurba_marseille","lat":43.26194,"lon":5.37931,"is_reserved":false,"is_disabled":false,"rental_uris":{"android":"levelo://app?vid=02704997-86cc-46e2-8fe6-b9c9aa5373ce","ios":"levelo://app?vid=02704997-86cc-46e2-8fe6-b9c9aa5373ce"},"vehicle_type_id":"4","last_reported":1686942283,"current_range_meters":16400,"station_id":"ce4bhjp2rcd13ifvqg90","pricing_plan_id":"free"},{"bike_id":"93959831-27e0-41d6-b07c-4d9485ab4d93","system_id":"levelo_inurba_marseille","lat":43.298768,"lon":5.43643,"is_reserved":false,"is_disabled":false,"rental_uris":{"android":"levelo://app?vid=93959831-27e0-41d6-b07c-4d9485ab4d93","ios":"levelo://app?vid=93959831-27e0-41d6-b07c-4d9485ab4d93"},"vehicle_type_id":"4","last_reported":1686942283,"current_range_meters":20400,"station_id":"ce4bhpp2rcd13ifvqhfg","pricing_plan_id":"free"},{"bike_id":"eff7ee77-40a3-49a2-a7bc-69cfb645b9b4","system_id":"levelo_inurba_marseille","lat":43.298768,"lon":5.43643,"is_reserved":false,"is_disabled":false,"rental_uris":{"android":"levelo://app?vid=eff7ee77-40a3-49a2-a7bc-69cfb645b9b4","ios":"levelo://app?vid=eff7ee77-40a3-49a2-a7bc-69cfb645b9b4"},"vehicle_type_id":"4","last_reported":1686942283,"current_range_meters":1200,"station_id":"ce4bhpp2rcd13ifvqhfg","pricing_plan_id":"free"},{"bike_id":"1d4cac6a-50f2-4e01-9eae-07e13666e085","system_id":"levelo_inurba_marseille","lat":43.26038,"lon":5.3755,"is_reserved":false,"is_disabled":false,"rental_uris":{"android":"levelo://app?vid=1d4cac6a-50f2-4e01-9eae-07e13666e085","ios":"levelo://app?vid=1d4cac6a-50f2-4e01-9eae-07e13666e085"},"vehicle_type_id":"4","last_reported":1686942283,"current_range_meters":31200,"station_id":"ce4bhgh2rcd13ifvqfa0","pricing_plan_id":"free"},{"bike_id":"432e6780-521e-4aef-821c-52a41e36791b","system_id":"levelo_inurba_marseille","lat":43.26035,"lon":5.37556,"is_reserved":false,"is_disabled":false,"rental_uris":{"android":"levelo://app?vid=432e6780-521e-4aef-821c-52a41e36791b","ios":"levelo://app?vid=432e6780-521e-4aef-821c-52a41e36791b"},"vehicle_type_id":"4","last_reported":1686942283,"current_range_meters":31200,"station_id":"ce4bhgh2rcd13ifvqfa0","pricing_plan_id":"free"},{"bike_id":"4df57491-8958-4e80-8bd4-9018284dee07","system_id":"levelo_inurba_marseille","lat":43.260325,"lon":5.375472,"is_reserved":false,"is_disabled":false,"rental_uris":{"android":"levelo://app?vid=4df57491-8958-4e80-8bd4-9018284dee07","ios":"levelo://app?vid=4df57491-8958-4e80-8bd4-9018284dee07"},"vehicle_type_id":"4","last_reported":1686942283,"current_range_meters":31600,"station_id":"ce4bhgh2rcd13ifvqfa0","pricing_plan_id":"free"},{"bike_id":"385ace37-2f3b-4276-bbcc-7987ed2b1edd","system_id":"levelo_inurba_marseille","lat":43.260323,"lon":5.375487,"is_reserved":false,"is_disabled":false,"rental_uris":{"android":"levelo://app?vid=385ace37-2f3b-4276-bbcc-7987ed2b1edd","ios":"levelo://app?vid=385ace37-2f3b-4276-bbcc-7987ed2b1edd"},"vehicle_type_id":"4","last_reported":1686942283,"current_range_meters":400,"station_id":"ce4bhgh2rcd13ifvqfa0","pricing_plan_id":"free"},{"bike_id":"61c90903-f473-40c2-9527-2f7fc5497beb","system_id":"levelo_inurba_marseille","lat":43.26031,"lon":5.37546,"is_reserved":false,"is_disabled":false,"rental_uris":{"android":"levelo://app?vid=61c90903-f473-40c2-9527-2f7fc5497beb","ios":"levelo://app?vid=61c90903-f473-40c2-9527-2f7fc5497beb"},"vehicle_type_id":"4","last_reported":1686942283,"current_range_meters":0,"station_id":"ce4bhgh2rcd13ifvqfa0","pricing_plan_id":"free"},{"bike_id":"5e548f9c-38cb-44b7-a781-7c0ec4c97953","system_id":"levelo_inurba_marseille","lat":43.260225,"lon":5.375455,"is_reserved":false,"is_disabled":false,"rental_uris":{"android":"levelo://app?vid=5e548f9c-38cb-44b7-a781-7c0ec4c97953","ios":"levelo://app?vid=5e548f9c-38cb-44b7-a781-7c0ec4c97953"},"vehicle_type_id":"4","last_reported":1686942283,"current_range_meters":16800,"station_id":"ce4bhgh2rcd13ifvqfa0","pricing_plan_id":"free"},{"bike_id":"189b2466-8c1b-4c67-b840-24c1115e693d","system_id":"levelo_inurba_marseille","lat":43.260225,"lon":5.375455,"is_reserved":false,"is_disabled":false,"rental_uris":{"android":"levelo://app?vid=189b2466-8c1b-4c67-b840-24c1115e693d","ios":"levelo://app?vid=189b2466-8c1b-4c67-b840-24c1115e693d"},"vehicle_type_id":"4","last_reported":1686942283,"current_range_meters":31600,"station_id":"ce4bhgh2rcd13ifvqfa0","pricing_plan_id":"free"},