{"last_updated":1735492029,"ttl":60,"version":"2.2","data":{"bikes":[{"bike_id":"165cdd7b-2529-448e-9c75-c0b1cba85ad1","system_id":"levelo_inurba_marseille","lat":43.29529,"lon":5.38541,"is_reserved":false,"is_disabled":false,"rental_uris":{"android":"levelo://app?vid=165cdd7b-2529-448e-9c75-c0b1cba85ad1","ios":"levelo://app?vid=165cdd7b-2529-448e-9c75-c0b1cba85ad1"},"vehicle_type_id":"4","last_reported":1735492029,"current_range_meters":34800,"station_id":"ce4bgih2rcd13ifvqba0","pricing_plan_id":"cebpf4jnsgd1na2vs0mg"},{"bike_id":"1ed0b79b-94a5-43ce-a19b-ce6172504605","system_id":"levelo_inurba_marseille","lat":43.30542,"lon":5.36537,"is_reserved":false,"is_disabled":false,"rental_uris":{"android":"levelo://app?vid=1ed0b79b-94a5-43ce-a19b-ce6172504605","ios":"levelo://app?vid=1ed0b79b-94a5-43ce-a19b-ce6172504605"},"vehicle_type_id":"4","last_reported":1735492029,"current_range_meters":34000,"station_id":"ce4bgs12rcd13ifvqcag","pricing_plan_id":"cebpf4jnsgd1na2vs0mg"},{"bike_id":"a207cf3a-420a-4d1c-b443-3447fc73b7b9","system_id":"levelo_inurba_marseille","lat":43.28144,"lon":5.42637,"is_reserved":false,"is_disabled":false,"rental_uris":{"android":"levelo://app?vid=a207cf3a-420a-4d1c-b443-3447fc73b7b9","ios":"levelo://app?vid=a207cf3a-420a-4d1c-b443-3447fc73b7b9"},"vehicle_type_id":"4","last_reported":1735492029,"current_range_meters":14400,"station_id":"ce4bhnh2rcd13ifvqgug","pricing_plan_id":"cebpf4jnsgd1na2vs0mg"},{"bike_id":"a3793f4e-de76-4b88-b43c-210bdae1e205","system_id":"levelo_inurba_marseille","lat":43.29227,"lon":5.36201,"is_reserved":false,"is_disabled":false,"rental_uris":{"android":"levelo://app?vid=a3793f4e-de76-4b88-b43c-210bdae1e205","ios":"levelo://app?vid=a3793f4e-de76-4b88-b43c-210bdae1e205"},"vehicle_type_id":"4","last_reported":1735492029,"current_range_meters":26800,"station_id":"","pricing_plan_id":"cebpf4jnsgd1na2vs0mg"},{"bike_id":"5cf3454e-f81a-476a-8881-9dae9e4b84ae","system_id":"levelo_inurba_marseille","lat":43.2737,"lon":5.36238,"is_reserved":false,"is_disabled":false,"rental_uris":{"android":"levelo://app?vid=5cf3454e-f81a-476a-8881-9dae9e4b84ae","ios":"levelo://app?vid=5cf3454e-f81a-476a-8881-9dae9e4b84ae"},"vehicle_type_id":"4","last_reported":1735492029,"current_range_meters":14400,"station_id":"ce4bhbh2rcd13ifvqeo0","pricing_plan_id":"cebpf4jnsgd1na2vs0mg"},{"bike_id":"5b638167-1ef1-4432-b33a-08fdb21c9862","system_id":"levelo_inurba_marseille","lat":43.27958,"lon":5.41045,"is_reserved":false,"is_disabled":false,"rental_uris":{"android":"levelo://app?vid=5b638167-1ef1-4432-b33a-08fdb21c9862","ios":"levelo://app?vid=5b638167-1ef1-4432-b33a-08fdb21c9862"},"vehicle_type_id":"4","last_reported":1735492029,"current_range_meters":32000,"station_id":"ce4bhnp2rcd13ifvqh0g","pricing_plan_id":"cebpf4jnsgd1na2vs0mg"},{"bike_id":"c65dc0c5-cafd-46ef-b0a4-ccfaad853b02","system_id":"levelo_inurba_marseille","lat":43.28619,"lon":5.35099,"is_reserved":false,"is_disabled":false,"rental_uris":{"android":"levelo://app?vid=c65dc0c5-cafd-46ef-b0a4-ccfaad853b02","ios":"levelo://app?vid=c65dc0c5-cafd-46ef-b0a4-ccfaad853b02"},"vehicle_type_id":"4","last_reported":1735492029,"current_range_meters":33600,"station_id":"ce4bhch2rcd13ifvqeug","pricing_plan_id":"cebpf4jnsgd1na2vs0mg"},{"bike_id":"3991aac2-ec7f-43c8-801f-23e11845f2d6","system_id":"levelo_inurba_marseille","lat":43.2815,"lon":5.42637,"is_reserved":false,"is_disabled":false,"rental_uris":{"android":"levelo://app?vid=3991aac2-ec7f-43c8-801f-23e11845f2d6","ios":"levelo://app?vid=3991aac2-ec7f-43c8-801f-23e11845f2d6"},"vehicle_type_id":"4","last_reported":1735492029,"current_range_meters":38800,"station_id":"ce4bhnh2rcd13ifvqgug","pricing_plan_id":"cebpf4jnsgd1na2vs0mg"},{"bike_id":"6bee0aea-4273-4fbb-bcf0-ba6fa30b49a2","system_id":"levelo_inurba_marseille","lat":43.29961,"lon":5.38497,"is_reserved":false,"is_disabled":false,"rental_uris":{"android":"levelo://app?vid=6bee0aea-4273-4fbb-bcf0-ba6fa30b49a2","ios":"levelo://app?vid=6bee0aea-4273-4fbb-bcf0-ba6fa30b49a2"},"vehicle_type_id":"4","last_reported":1735492029,"current_range_meters":32400,"station_id":"ce4bgj92rcd13ifvqbd0","pricing_plan_id":"cebpf4jnsgd1na2vs0mg"},{"bike_id":"03e6bafc-8218-4612-9dca-578185ae41b4","system_id":"levelo_inurba_marseille","lat":43.2922,"lon":5.36069,"is_reserved":false,"is_disabled":false,"rental_uris":{"android":"levelo://app?vid=03e6bafc-8218-4612-9dca-578185ae41b4","ios":"levelo://app?vid=03e6bafc-8218-4612-9dca-578185ae41b4"},"vehicle_type_id":"4","last_reported":1735492029,"current_range_meters":33600,"station_id":"ce4bhbh2rcd13ifvqeqg","pricing_plan_id":"cebpf4jnsgd1na2vs0mg"},{"bike_id":"4acd7125-f7e3-4a7d-bcb1-80f8a485ec5e","system_id":"levelo_inurba_marseille","lat":43.28842,"lon":5.39306,"is_reserved":false,"is_disabled":false,"rental_uris":{"android":"levelo://app?vid=4acd7125-f7e3-4a7d-bcb1-80f8a485ec5e","ios":"levelo://app?vid=4acd7125-f7e3-4a7d-bcb1-80f8a485ec5e"},"vehicle_type_id":"4","last_reported":1735492029,"current_range_meters":16800,"station_id":"ce4bh2p2rcd13ifvqdi0","pricing_plan_id":"cebpf4jnsgd1na2vs0mg"},{"bike_id":"3d01c743-5f4d-4673-83cf-a4f36d023dfd","system_id":"levelo_inurba_marseille","lat":43.28347,"lon":5.38107,"is_reserved":false,"is_disabled":false,"rental_uris":{"android":"levelo://app?vid=3d01c743-5f4d-4673-83cf-a4f36d023dfd","ios":"levelo://app?vid=3d01c743-5f4d-4673-83cf-a4f36d023dfd"},"vehicle_type_id":"4","last_reported":1735492029,"current_range_meters":10800,"station_id":"ce4bh412rcd13ifvqdr0","pricing_plan_id":"cebpf4jnsgd1na2vs0mg"},{"bike_id":"b74a63ef-de2c-467a-b13d-21a8ed4eabe8","system_id":"levelo_inurba_marseille","lat":43.28036,"lon":5.36945,"is_reserved":false,"is_disabled":false,"rental_uris":{"android":"levelo://app?vid=b74a63ef-de2c-467a-b13d-21a8ed4eabe8","ios":"levelo://app?vid=b74a63ef-de2c-467a-b13d-21a8ed4eabe8"},"vehicle_type_id":"4","last_reported":1735492029,"current_range_meters":6000,"station_id":"ce4bha12rcd13ifvqef0","pricing_plan_id":"cebpf4jnsgd1na2vs0mg"},{"bike_id":"3b3d2c75-4195-4f81-af35-afa13ebc8eea","system_id":"levelo_inurba_marseille","lat":43.27371,"lon":5.36224,"is_reserved":false,"is_disabled":true,"rental_uris":{"android":"levelo://app?vid=3b3d2c75-4195-4f81-af35-afa13ebc8eea","ios":"levelo://app?vid=3b3d2c75-4195-4f81-af35-afa13ebc8eea"},"vehicle_type_id":"4","last_reported":1735492029,"current_range_meters":26000,"station_id":"ce4bhbh2rcd13ifvqeo0","pricing_plan_id":"cebpf4jnsgd1na2vs0mg"},{"bike_id":"8ab4daaa-58c2-4fd2-80af-cd1e62c53d68","system_id":"levelo_inurba_marseille","lat":43.29911,"lon":5.37457,"is_reserved":false,"is_disabled":false,"rental_uris":{"android":"levelo://app?vid=8ab4daaa-58c2-4fd2-80af-cd1e62c53d68","ios":"levelo://app?vid=8ab4daaa-58c2-4fd2-80af-cd1e62c53d68"},"vehicle_type_id":"4","last_reported":1735492029,"current_range_meters":27200,"station_id":"ce4bgjh2rcd13ifvqbg0","pricing_plan_id":"cebpf4jnsgd1na2vs0mg"},{"bike_id":"ecf0e1df-bdc6-4c78-ae54-45aa3b911979","system_id":"levelo_inurba_marseille","lat":43.2909,"lon":5.37134,"is_reserved":false,"is_disabled":false,"rental_uris":{"android":"levelo://app?vid=ecf0e1df-bdc6-4c78-ae54-45aa3b911979","ios":"levelo://app?vid=ecf0e1df-bdc6-4c78-ae54-45aa3b911979"},"vehicle_type_id":"4","last_reported":1735492029,"current_range_meters":27600,"station_id":"ce4bh5p2rcd13ifvqe4g","pricing_plan_id":"cebpf4jnsgd1na2vs0mg"},{"bike_id":"455d8183-da88-424a-9c70-e4b523863df8","system_id":"levelo_inurba_marseille","lat":43.28941,"lon":5.36636,"is_reserved":false,"is_disabled":false,"rental_uris":{"android":"levelo://app?vid=455d8183-da88-424a-9c70-e4b523863df8","ios":"levelo://app?vid=455d8183-da88-424a-9c70-e4b523863df8"},"vehicle_type_id":"4","last_reported":1735492029,"current_range_meters":22800,"station_id":"ce4bhap2rcd13ifvqek0","pricing_plan_id":"cebpf4jnsgd1na2vs0mg"},{"bike_id":"bbf509d3-d0d2-4376-b43d-ddcdf50db3b4","system_id":"levelo_inurba_marseille","lat":43.29527,"lon":5.39031,"is_reserved":false,"is_disabled":false,"rental_uris":{"android":"levelo://app?vid=bbf509d3-d0d2-4376-b43d-ddcdf50db3b4","ios":"levelo://app?vid=bbf509d3-d0d2-4376-b43d-ddcdf50db3b4"},"vehicle_type_id":"4","last_reported":1735492029,"current_range_meters":33600,"station_id":"ce4bh3p2rcd13ifvqdp0","pricing_plan_id":"cebpf4jnsgd1na2vs0mg"},{"bike_id":"fd74ba94-8330-478b-bbf2-80914ce40b79","system_id":"levelo_inurba_marseille","lat":43.28041,"lon":5.3694,"is_reserved":false,"is_disabled":false,"rental_uris":{"android":"levelo://app?vid=fd74ba94-8330-478b-bbf2-80914ce40b79","ios":"levelo://app?vid=fd74ba94-8330-478b-bbf2-80914ce40b79"},"vehicle_type_id":"4","last_reported":1735492029,"current_range_meters":19200,"station_id":"ce4bha12rcd13ifvqef0","pricing_plan_id":"cebpf4jnsgd1na2vs0mg"},{"bike_id":"da2d3e5a-b7ee-4e57-b743-e3daccfd3b16","system_id":"levelo_inurba_marseille","lat":43.30425,"lon":5.39746,"is_reserved":false,"is_disabled":false,"rental_uris":{"android":"levelo://app?vid=da2d3e5a-b7ee-4e57-b743-e3daccfd3b16","ios":"levelo://app?vid=da2d3e5a-b7ee-4e57-b743-e3daccfd3b16"},"vehicle_type_id":"4","last_reported":1735492029,"current_range_meters":38800,"station_id":"ce4bh092rcd13ifvqd20","pricing_plan_id":"cebpf4jnsgd1na2vs0mg"},{"bike_id":"9a503b4a-6ab1-4b37-b592-79eca06f8ee8","system_id":"levelo_inurba_marseille","lat":43.29072,"lon":5.37159,"is_reserved":false,"is_disabled":false,"rental_uris":{"android":"levelo://app?vid=9a503b4a-6ab1-4b37-b592-79eca06f8ee8","ios":"levelo://app?vid=9a503b4a-6ab1-4b37-b592-79eca06f8ee8"},"vehicle_type_id":"4","last_reported":1735492029,"current_range_meters":38800,"station_id":"ce4bh5p2rcd13ifvqe4g","pricing_plan_id":"cebpf4jnsgd1na2vs0mg"},{"bike_id":"857344dd-6be1-4d34-90e7-6f62afbbef2e","system_id":"levelo_inurba_marseille","lat":43.32109,"lon":5.36769,"is_reserved":false,"is_disabled":false,"rental_uris":{"android":"levelo://app?vid=857344dd-6be1-4d34-90e7-6f62afbbef2e","ios":"levelo://app?vid=857344dd-6be1-4d34-90e7-6f62afbbef2e"},"vehicle_type_id":"4","last_reported":1735492029,"current_range_meters":27600,"station_id":"ce4bhrh2rcd13ifvqhug","pricing_plan_id":"cebpf4jnsgd1na2vs0mg"},{"bike_id":"945e4f92-3516-44bd-b0eb-4c9d367a2c82","system_id":"levelo_inurba_marseille","lat":43.24067,"lon":5.37762,"is_reserved":false,"is_disabled":false,"rental_uris":{"android":"levelo://app?vid=945e4f92-3516-44bd-b0eb-4c9d367a2c82","ios":"levelo://app?vid=945e4f92-3516-44bd-b0eb-4c9d367a2c82"},"vehicle_type_id":"4","last_reported":1735492029,"current_range_meters":26000,"station_id":"ce4bhnp2rcd13ifvqgvg","pricing_plan_id":"cebpf4jnsgd1na2vs0mg"},{"bike_id":"a2908599-b253-4069-b7e7-2a8f33214fc4","system_id":"levelo_inurba_marseille","lat":43.29719,"lon":5.36613,"is_reserved":false,"is_disabled":false,"rental_uris":{"android":"levelo://app?vid=a2908599-b253-4069-b7e7-2a8f33214fc4","ios":"levelo://app?vid=a2908599-b253-4069-b7e7-2a8f33214fc4"},"vehicle_type_id":"4","last_reported":1735492029,"current_range_meters":16800,"station_id":"ce4bgn12rcd13ifvqbt0","pricing_plan_id":"cebpf4jnsgd1na2vs0mg"},{"bike_id":"7b9bf2a8-b76d-4924-b0cf-29f18adcab67","system_id":"levelo_inurba_marseille","lat":43.29565,"lon":5.37518,"is_reserved":false,"is_disabled":false,"rental_uris":{"android":"levelo://app?vid=7b9bf2a8-b76d-4924-b0cf-29f18adcab67","ios":"levelo://app?vid=7b9bf2a8-b76d-4924-b0cf-29f18adcab67"},"vehicle_type_id":"4","last_reported":1735492029,"current_range_meters":14000,"station_id":"ce4bgh92rcd13ifvqb50","pricing_plan_id":"cebpf4jnsgd1na2vs0mg"},{"bike_id":"b4d130c6-4fa7-4fa3-83b8-3ae416781279","system_id":"levelo_inurba_marseille","lat":43.27443,"lon":5.39282,"is_reserved":false,"is_disabled":false,"rental_uris":{"android":"levelo://app?vid=b4d130c6-4fa7-4fa3-83b8-3ae416781279","ios":"levelo://app?vid=b4d130c6-4fa7-4fa3-83b8-3ae416781279"},"vehicle_type_id":"4","last_reported":1735492029,"current_range_meters":15200,"station_id":"","pricing_plan_id":"cebpf4jnsgd1na2vs0mg"},{"bike_id":"244c8760-46aa-49be-bdfd-c262d4d116cb","system_id":"levelo_inurba_marseille","lat":43.2481,"lon":5.37464,"is_reserved":false,"is_disabled":false,"rental_uris":{"android":"levelo://app?vid=244c8760-46aa-49be-bdfd-c262d4d116cb","ios":"levelo://app?vid=244c8760-46aa-49be-bdfd-c262d4d116cb"},"vehicle_type_id":"4","last_reported":1735492029,"current_range_meters":9200,"station_id":"ce4bhgh2rcd13ifvqfb0","pricing_plan_id":"cebpf4jnsgd1na2vs0mg"},{"bike_id":"ff49d49a-53c3-499a-b296-89a67f332a8a","system_id":"levelo_inurba_marseille","lat":43.24173,"lon":5.36392,"is_reserved":false,"is_disabled":false,"rental_uris":{"android":"levelo://app?vid=ff49d49a-53c3-499a-b296-89a67f332a8a","ios":"levelo://app?vid=ff49d49a-53c3-499a-b296-89a67f332a8a"},"vehicle_type_id":"4","last_reported":1735492029,"current_range_meters":14000,"station_id":"cpo36qri1sfpv3e86is0","pricing_plan_id":"cebpf4jnsgd1na2vs0mg"},{"bike_id":"b7270f7e-efcc-44fd-b740-29e900502759","system_id":"levelo_inurba_marseille","lat":43.29259,"lon":5.38429,"is_reserved":false,"is_disabled":false,"rental_uris":{"android":"levelo://app?vid=b7270f7e-efcc-44fd-b740-29e900502759","ios":"levelo://app?vid=b7270f7e-efcc-44fd-b740-29e900502759"},"vehicle_type_id":"4","last_reported":1735492029,"current_range_meters":18800,"station_id":"ce4bh692rcd13ifvqea0","pricing_plan_id":"cebpf4jnsgd1na2vs0mg"},{"bike_id":"cefa4e99-d23a-4f3e-a55c-511f406d8c11","system_id":"levelo_inurba_marseille","lat":43.2619,"lon":5.3745,"is_reserved":false,"is_disabled":false,"rental_uris":{"android":"levelo://app?vid=cefa4e99-d23a-4f3e-a55c-511f406d8c11","ios":"levelo://app?vid=cefa4e99-d23a-4f3e-a55c-511f406d8c11"},"vehicle_type_id":"4","last_reported":1735492029,"current_range_meters":37600,"station_id":"ce4bhgp2rcd13ifvqfc0","pricing_plan_id":"cebpf4jnsgd1na2vs0mg"},{"bike_id":"753fe1a2-6ec1-4d51-9513-13144401ea46","system_id":"levelo_inurba_marseille","lat":43.29167,"lon":5.37139,"is_reserved":false,"is_disabled":false,"rental_uris":{"android":"levelo://app?vid=753fe1a2-6ec1-4d51-9513-13144401ea46","ios":"levelo://app?vid=753fe1a2-6ec1-4d51-9513-13144401ea46"},"vehicle_type_id":"4","last_reported":1735492029,"current_range_meters":29600,"station_id":"ce4bha92rcd13ifvqeh0","pricing_plan_id":"cebpf4jnsgd1na2vs0mg"},{"bike_id":"1f4b2932-3998-4e2c-a4c7-9039ca3e2533","system_id":"levelo_inurba_marseille","lat":43.272,"lon":5.3919,"is_reserved":false,"is_disabled":false,"rental_uris":{"android":"levelo://app?vid=1f4b2932-3998-4e2c-a4c7-9039ca3e2533","ios":"levelo://app?vid=1f4b2932-3998-4e2c-a4c7-9039ca3e2533"},"vehicle_type_id":"4","last_reported":1735492029,"current_range_meters":38000,"station_id":"ce4bhhp2rcd13ifvqfm0","pricing_plan_id":"cebpf4jnsgd1na2vs0mg"},{"bike_id":"92ac6347-8dd4-4c7e-a4d0-6e7f04311c47","system_id":"levelo_inurba_marseille","lat":43.29591,"lon":5.38099,"is_reserved":false,"is_disabled":false,"rental_uris":{"android":"levelo://app?vid=92ac6347-8dd4-4c7e-a4d0-6e7f04311c47","ios":"levelo://app?vid=92ac6347-8dd4-4c7e-a4d0-6e7f04311c47"},"vehicle_type_id":"4","last_reported":1735492029,"current_range_meters":36800,"station_id":"ce4bgl12rcd13ifvqbo0","pricing_plan_id":"cebpf4jnsgd1na2vs0mg"},{"bike_id":"3c2536a4-fb4e-414e-8dbf-484f12beac90","system_id":"levelo_inurba_marseille","lat":43.25727,"lon":5.411,"is_reserved":false,"is_disabled":false,"rental_uris":{"android":"levelo://app?vid=3c2536a4-fb4e-414e-8dbf-484f12beac90","ios":"levelo://app?vid=3c2536a4-fb4e-414e-8dbf-484f12beac90"},"vehicle_type_id":"4","last_reported":1735492029,"current_range_meters":25200,"station_id":"ce4bhkp2rcd13ifvqgd0","pricing_plan_id":"cebpf4jnsgd1na2vs0mg"},{"bike_id":"7c78c533-ca3a-4ac5-ad8b-e1c0befcd7b8","system_id":"levelo_inurba_marseille","lat":43.25081,"lon":5.39507,"is_reserved":false,"is_disabled":false,"rental_uris":{"android":"levelo://app?vid=7c78c533-ca3a-4ac5-ad8b-e1c0befcd7b8","ios":"levelo://app?vid=7c78c533-ca3a-4ac5-ad8b-e1c0befcd7b8"},"vehicle_type_id":"4","last_reported":1735492029,"current_range_meters":36000,"station_id":"ce4bhm12rcd13ifvqgkg","pricing_plan_id":"cebpf4jnsgd1na2vs0mg"},{"bike_id":"13f84696-4405-43e0-b0f5-1a61d67abe32","system_id":"levelo_inurba_marseille","lat":43.27827,"lon":5.39207,"is_reserved":false,"is_disabled":false,"rental_uris":{"android":"levelo://app?vid=13f84696-4405-43e0-b0f5-1a61d67abe32","ios":"levelo://app?vid=13f84696-4405-43e0-b0f5-1a61d67abe32"},"vehicle_type_id":"4","last_reported":1735492029,"current_range_meters":23200,"station_id":"ce4bhjp2rcd13ifvqga0","pricing_plan_id":"cebpf4jnsgd1na2vs0mg"},{"bike_id":"1ae4b38a-ce14-4f6e-8671-bacb5d73589d","system_id":"levelo_inurba_marseille","lat":43.29256,"lon":5.38435,"is_reserved":false,"is_disabled":false,"rental_uris":{"android":"levelo://app?vid=1ae4b38a-ce14-4f6e-8671-bacb5d73589d","ios":"levelo://app?vid=1ae4b38a-ce14-4f6e-8671-bacb5d73589d"},"vehicle_type_id":"4","last_reported":1735492029,"current_range_meters":9600,"station_id":"ce4bh692rcd13ifvqea0","pricing_plan_id":"cebpf4jnsgd1na2vs0mg"},{"bike_id":"caab34a4-5264-4b72-a12f-e55159fe93b6","system_id":"levelo_inurba_marseille","lat":43.27059,"lon":5.42254,"is_reserved":false,"is_disabled":false,"rental_uris":{"android":"levelo://app?vid=caab34a4-5264-4b72-a12f-e55159fe93b6","ios":"levelo://app?vid=caab34a4-5264-4b72-a12f-e55159fe93b6"},"vehicle_type_id":"4","last_reported":1735492029,"current_range_meters":24400,"station_id":"ce4bhk92rcd13ifvqgb0","pricing_plan_id":"cebpf4jnsgd1na2vs0mg"},{"bike_id":"e28936d1-deab-45e5-b02d-5934b2fa2a26","system_id":"levelo_inurba_marseille","lat":43.245462,"lon":5.395216,"is_reserved":false,"is_disabled":true,"rental_uris":{"android":"levelo://app?vid=e28936d1-deab-45e5-b02d-5934b2fa2a26","ios":"levelo://app?vid=e28936d1-deab-45e5-b02d-5934b2fa2a26"},"vehicle_type_id":"4","last_reported":1735492029,"current_range_meters":8400,"station_id":"ce4bhlp2rcd13ifvqgjg","pricing_plan_id":"cebpf4jnsgd1na2vs0mg"},{"bike_id":"6786937f-bc07-4e65-92c1-f002f50ff97b","system_id":"levelo_inurba_marseille","lat":43.2986,"lon":5.39726,"is_reserved":false,"is_disabled":false,"rental_uris":{"android":"levelo://app?vid=6786937f-bc07-4e65-92c1-f002f50ff97b","ios":"levelo://app?vid=6786937f-bc07-4e65-92c1-f002f50ff97b"},"vehicle_type_id":"4","last_reported":1735492029,"current_range_meters":34800,"station_id":"ce4bh0h2rcd13ifvqd50","pricing_plan_id":"cebpf4jnsgd1na2vs0mg"},{"bike_id":"1992e41d-d4c2-4775-8006-69c81ffaaa1f","system_id":"levelo_inurba_marseille","lat":43.29527,"lon":5.37494,"is_reserved":false,"is_disabled":false,"rental_uris":{"android":"levelo://app?vid=1992e41d-d4c2-4775-8006-69c81ffaaa1f","ios":"levelo://app?vid=1992e41d-d4c2-4775-8006-69c81ffaaa1f"},"vehicle_type_id":"4","last_reported":1735492029,"current_range_meters":14800,"station_id":"ce4bgkp2rcd13ifvqbmg","pricing_plan_id":"cebpf4jnsgd1na2vs0mg"},{"bike_id":"68071365-6693-471a-8bf9-0f6efd75ecd6","system_id":"levelo_inurba_marseille","lat":43.29194,"lon":5.39316,"is_reserved":false,"is_disabled":false,"rental_uris":{"android":"levelo://app?vid=68071365-6693-471a-8bf9-0f6efd75ecd6","ios":"levelo://app?vid=68071365-6693-471a-8bf9-0f6efd75ecd6"},"vehicle_type_id":"4","last_reported":1735492029,"current_range_meters":19200,"station_id":"ce4bh192rcd13ifvqdd0","pricing_plan_id":"cebpf4jnsgd1na2vs0mg"},{"bike_id":"282e923e-ac5d-40e2-a3bb-abd81b562ee0","system_id":"levelo_inurba_marseille","lat":43.28152,"lon":5.42639,"is_reserved":false,"is_disabled":false,"rental_uris":{"android":"levelo://app?vid=282e923e-ac5d-40e2-a3bb-abd81b562ee0","ios":"levelo://app?vid=282e923e-ac5d-40e2-a3bb-abd81b562ee0"},"vehicle_type_id":"4","last_reported":1735492029,"current_range_meters":28400,"station_id":"ce4bhnh2rcd13ifvqgug","pricing_plan_id":"cebpf4jnsgd1na2vs0mg"},{"bike_id":"2eaf5aab-e12e-4e93-a20d-88a34894165c","system_id":"levelo_inurba_marseille","lat":43.28464,"lon":5.35887,"is_reserved":false,"is_disabled":true,"rental_uris":{"android":"levelo://app?vid=2eaf5aab-e12e-4e93-a20d-88a34894165c","ios":"levelo://app?vid=2eaf5aab-e12e-4e93-a20d-88a34894165c"},"vehicle_type_id":"4","last_reported":1735492029,"current_range_meters":0,"station_id":"ce4bhah2rcd13ifvqei0","pricing_plan_id":"cebpf4jnsgd1na2vs0mg"},{"bike_id":"d8e15cb7-f332-47a1-86c8-d28da7833ff4","system_id":"levelo_inurba_marseille","lat":43.30883,"lon":5.37196,"is_reserved":false,"is_disabled":true,"rental_uris":{"android":"levelo://app?vid=d8e15cb7-f332-47a1-86c8-d28da7833ff4","ios":"levelo://app?vid=d8e15cb7-f332-47a1-86c8-d28da7833ff4"},"vehicle_type_id":"4","last_reported":1735492029,"current_range_meters":14400,"station_id":"ce4bguh2rcd13ifvqckg","pricing_plan_id":"cebpf4jnsgd1na2vs0mg"},{"bike_id":"c549aa02-86c9-44ee-96b2-cb2501aef0df","system_id":"levelo_inurba_marseille","lat":43.29252,"lon":5.40912,"is_reserved":false,"is_disabled":false,"rental_uris":{"android":"levelo://app?vid=c549aa02-86c9-44ee-96b2-cb2501aef0df","ios":"levelo://app?vid=c549aa02-86c9-44ee-96b2-cb2501aef0df"},"vehicle_type_id":"4","last_reported":1735492029,"current_range_meters":26800,"station_id":"ce4bh192rcd13ifvqdc0","pricing_plan_id":"cebpf4jnsgd1na2vs0mg"},{"bike_id":"0f7cebe4-9ae1-4065-a90d-cc95c30b31cf","system_id":"levelo_inurba_marseille","lat":43.29039,"lon":5.39971,"is_reserved":false,"is_disabled":false,"rental_uris":{"android":"levelo://app?vid=0f7cebe4-9ae1-4065-a90d-cc95c30b31cf","ios":"levelo://app?vid=0f7cebe4-9ae1-4065-a90d-cc95c30b31cf"},"vehicle_type_id":"4","last_reported":1735492029,"current_range_meters":39200,"station_id":"ce4bh392rcd13ifvqdm0","pricing_plan_id":"cebpf4jnsgd1na2vs0mg"},{"bike_id":"71556ec0-11d6-4c14-95b0-ef09a637d528","system_id":"levelo_inurba_marseille","lat":43.33603,"lon":5.41017,"is_reserved":false,"is_disabled":false,"rental_uris":{"android":"levelo://app?vid=71556ec0-11d6-4c14-95b0-ef09a637d528","ios":"levelo://app?vid=71556ec0-11d6-4c14-95b0-ef09a637d528"},"vehicle_type_id":"4","last_reported":1735492029,"current_range_meters":31200,"station_id":"ce4bhqh2rcd13ifvqhmg","pricing_plan_id":"cebpf4jnsgd1na2vs0mg"},{"bike_id":"3e8e5b80-8e9d-4b59-bf4e-80386a1b0e52","system_id":"levelo_inurba_marseille","lat":43.28273,"lon":5.3505,"is_reserved":false,"is_disabled":false,"rental_uris":{"android":"levelo://app?vid=3e8e5b80-8e9d-4b59-bf4e-80386a1b0e52","ios":"levelo://app?vid=3e8e5b80-8e9d-4b59-bf4e-80386a1b0e52"},"vehicle_type_id":"4","last_reported":1735492029,"current_range_meters":36000,"station_id":"ce4bhbp2rcd13ifvqerg","pricing_plan_id":"cebpf4jnsgd1na2vs0mg"},{"bike_id":"a87e21c9-e118-4821-adf5-28cb9ee5da34","system_id":"levelo_inurba_marseille","lat":43.3014,"lon":5.37419,"is_reserved":false,"is_disabled":false,"rental_uris":{"android":"levelo://app?vid=a87e21c9-e118-4821-adf5-28cb9ee5da34","ios":"levelo://app?vid=a87e21c9-e118-4821-adf5-28cb9ee5da34"},"vehicle_type_id":"4","last_reported":1735492029,"current_range_meters":34800,"station_id":"ce4bgs92rcd13ifvqcc0","pricing_plan_id":"cebpf4jnsgd1na2vs0mg"},{"bike_id":"391a3fe8-a05a-4425-acdb-c17a71669170","system_id":"levelo_inurba_marseille","lat":43.28413,"lon":5.37562,"is_reserved":false,"is_disabled":false,"rental_uris":{"android":"levelo://app?vid=391a3fe8-a05a-4425-acdb-c17a71669170","ios":"levelo://app?vid=391a3fe8-a05a-4425-acdb-c17a71669170"},"vehicle_type_id":"4","last_reported":1735492029,"current_range_meters":8400,"station_id":"ce4bh412rcd13ifvqds0","pricing_plan_id":"cebpf4jnsgd1na2vs0mg"},{"bike_id":"d225e49f-de10-470b-90af-648b3c15cce7","system_id":"levelo_inurba_marseille","lat":43.25729,"lon":5.41112,"is_reserved":false,"is_disabled":false,"rental_uris":{"android":"levelo://app?vid=d225e49f-de10-470b-90af-648b3c15cce7","ios":"levelo://app?vid=d225e49f-de10-470b-90af-648b3c15cce7"},"vehicle_type_id":"4","last_reported":1735492029,"current_range_meters":38400,"station_id":"ce4bhkp2rcd13ifvqgd0","pricing_plan_id":"cebpf4jnsgd1na2vs0mg"},{"bike_id":"2ad96645-53b8-4b57-b8b9-898b5d0758ec","system_id":"levelo_inurba_marseille","lat":43.27346,"lon":5.36255,"is_reserved":false,"is_disabled":false,"rental_uris":{"android":"levelo://app?vid=2ad96645-53b8-4b57-b8b9-898b5d0758ec","ios":"levelo://app?vid=2ad96645-53b8-4b57-b8b9-898b5d0758ec"},"vehicle_type_id":"4","last_reported":1735492029,"current_range_meters":24000,"station_id":"ce4bhbh2rcd13ifvqeo0","pricing_plan_id":"cebpf4jnsgd1na2vs0mg"},{"bike_id":"8499c959-998d-4486-a511-9d65f0b01fae","system_id":"levelo_inurba_marseille","lat":43.25721,"lon":5.41101,"is_reserved":false,"is_disabled":false,"rental_uris":{"android":"levelo://app?vid=8499c959-998d-4486-a511-9d65f0b01fae","ios":"levelo://app?vid=8499c959-998d-4486-a511-9d65f0b01fae"},"vehicle_type_id":"4","last_reported":1735492029,"current_range_meters":35600,"station_id":"ce4bhkp2rcd13ifvqgd0","pricing_plan_id":"cebpf4jnsgd1na2vs0mg"},{"bike_id":"158e017f-4a76-4ad7-a5e3-1ca7daceabea","system_id":"levelo_inurba_marseille","lat":43.27491,"lon":5.42446,"is_reserved":false,"is_disabled":false,"rental_uris":{"android":"levelo://app?vid=158e017f-4a76-4ad7-a5e3-1ca7daceabea","ios":"levelo://app?vid=158e017f-4a76-4ad7-a5e3-1ca7daceabea"},"vehicle_type_id":"4","last_reported":1735492029,"current_range_meters":16400,"station_id":"ce4bhn92rcd13ifvqgrg","pricing_plan_id":"cebpf4jnsgd1na2vs0mg"},{"bike_id":"d6144803-d96b-4980-90a1-d59f6d11564c","system_id":"levelo_inurba_marseille","lat":43.28152,"lon":5.42641,"is_reserved":false,"is_disabled":false,"rental_uris":{"android":"levelo://app?vid=d6144803-d96b-4980-90a1-d59f6d11564c","ios":"levelo://app?vid=d6144803-d96b-4980-90a1-d59f6d11564c"},"vehicle_type_id":"4","last_reported":1735492029,"current_range_meters":38400,"station_id":"ce4bhnh2rcd13ifvqgug","pricing_plan_id":"cebpf4jnsgd1na2vs0mg"},{"bike_id":"8ec82eb6-9f95-45a2-ab5f-a9d76752bac5","system_id":"levelo_inurba_marseille","lat":43.28626,"lon":5.35103,"is_reserved":false,"is_disabled":false,"rental_uris":{"android":"levelo://app?vid=8ec82eb6-9f95-45a2-ab5f-a9d76752bac5","ios":"levelo://app?vid=8ec82eb6-9f95-45a2-ab5f-a9d76752bac5"},"vehicle_type_id":"4","last_reported":1735492029,"current_range_meters":36000,"station_id":"ce4bhch2rcd13ifvqeug","pricing_plan_id":"cebpf4jnsgd1na2vs0mg"},{"bike_id":"74acaa5f-ba0d-4364-9dc6-fe430ef5f4f0","system_id":"levelo_inurba_marseille","lat":43.24804,"lon":5.37456,"is_reserved":false,"is_disabled":false,"rental_uris":{"android":"levelo://app?vid=74acaa5f-ba0d-4364-9dc6-fe430ef5f4f0","ios":"levelo://app?vid=74acaa5f-ba0d-4364-9dc6-fe430ef5f4f0"},"vehicle_type_id":"4","last_reported":1735492029,"current_range_meters":33200,"station_id":"ce4bhgh2rcd13ifvqfb0","pricing_plan_id":"cebpf4jnsgd1na2vs0mg"},{"bike_id":"2974da9a-626b-4d89-928a-d61d62cd91bd","system_id":"levelo_inurba_marseille","lat":43.27377,"lon":5.36255,"is_reserved":false,"is_disabled":false,"rental_uris":{"android":"levelo://app?vid=2974da9a-626b-4d89-928a-d61d62cd91bd","ios":"levelo://app?vid=2974da9a-626b-4d89-928a-d61d62cd91bd"},"vehicle_type_id":"4","last_reported":1735492029,"current_range_meters":14400,"station_id":"ce4bhbh2rcd13ifvqeo0","pricing_plan_id":"cebpf4jnsgd1na2vs0mg"},{"bike_id":"a8e7d48d-7fa4-4853-895c-22e26fde92bf","system_id":"levelo_inurba_marseille","lat":43.30804,"lon":5.43507,"is_reserved":false,"is_disabled":false,"rental_uris":{"android":"levelo://app?vid=a8e7d48d-7fa4-4853-895c-22e26fde92bf","ios":"levelo://app?vid=a8e7d48d-7fa4-4853-895c-22e26fde92bf"},"vehicle_type_id":"4","last_reported":1735492029,"current_range_meters":11200,"station_id":"ce4bhph2rcd13ifvqheg","pricing_plan_id":"cebpf4jnsgd1na2vs0mg"},{"bike_id":"eda45388-92d0-4a58-91c9-693d11916522","system_id":"levelo_inurba_marseille","lat":43.28076,"lon":5.39658,"is_reserved":false,"is_disabled":false,"rental_uris":{"android":"levelo://app?vid=eda45388-92d0-4a58-91c9-693d11916522","ios":"levelo://app?vid=eda45388-92d0-4a58-91c9-693d11916522"},"vehicle_type_id":"4","last_reported":1735492029,"current_range_meters":30000,"station_id":"ce4bho12rcd13ifvqh2g","pricing_plan_id":"cebpf4jnsgd1na2vs0mg"},{"bike_id":"ea5f7699-af81-4ced-bb43-4fdb79de8421","system_id":"levelo_inurba_marseille","lat":43.24808,"lon":5.37452,"is_reserved":false,"is_disabled":false,"rental_uris":{"android":"levelo://app?vid=ea5f7699-af81-4ced-bb43-4fdb79de8421","ios":"levelo://app?vid=ea5f7699-af81-4ced-bb43-4fdb79de8421"},"vehicle_type_id":"4","last_reported":1735492029,"current_range_meters":6400,"station_id":"ce4bhgh2rcd13ifvqfb0","pricing_plan_id":"cebpf4jnsgd1na2vs0mg"},{"bike_id":"78f5aeee-0b39-4b05-b8cb-14d45a0577ea","system_id":"levelo_inurba_marseille","lat":43.3056,"lon":5.36536,"is_reserved":false,"is_disabled":false,"rental_uris":{"android":"levelo://app?vid=78f5aeee-0b39-4b05-b8cb-14d45a0577ea","ios":"levelo://app?vid=78f5aeee-0b39-4b05-b8cb-14d45a0577ea"},"vehicle_type_id":"4","last_reported":1735492029,"current_range_meters":35600,"station_id":"ce4bgs12rcd13ifvqcag","pricing_plan_id":"cebpf4jnsgd1na2vs0mg"},{"bike_id":"6f051088-969d-4699-a740-7e48d062a583","system_id":"levelo_inurba_marseille","lat":43.29619,"lon":5.37728,"is_reserved":false,"is_disabled":false,"rental_uris":{"android":"levelo://app?vid=6f051088-969d-4699-a740-7e48d062a583","ios":"levelo://app?vid=6f051088-969d-4699-a740-7e48d062a583"},"vehicle_type_id":"4","last_reported":1735492029,"current_range_meters":19200,"station_id":"ce4bgi92rcd13ifvqb90","pricing_plan_id":"cebpf4jnsgd1na2vs0mg"},{"bike_id":"e72c6d65-0b04-411e-bf0f-f72d15cad0d7","system_id":"levelo_inurba_marseille","lat":43.3373,"lon":5.39191,"is_reserved":false,"is_disabled":false,"rental_uris":{"android":"levelo://app?vid=e72c6d65-0b04-411e-bf0f-f72d15cad0d7","ios":"levelo://app?vid=e72c6d65-0b04-411e-bf0f-f72d15cad0d7"},"vehicle_type_id":"4","last_reported":1735492029,"current_range_meters":38800,"station_id":"ce4bhr92rcd13ifvqhsg","pricing_plan_id":"cebpf4jnsgd1na2vs0mg"},{"bike_id":"41fafab7-3694-4833-9822-7ae8a7cce3b0","system_id":"levelo_inurba_marseille","lat":43.277,"lon":5.38927,"is_reserved":false,"is_disabled":false,"rental_uris":{"android":"levelo://app?vid=41fafab7-3694-4833-9822-7ae8a7cce3b0","ios":"levelo://app?vid=41fafab7-3694-4833-9822-7ae8a7cce3b0"},"vehicle_type_id":"4","last_reported":1735492029,"current_range_meters":31200,"station_id":"ce4bhi12rcd13ifvqfo0","pricing_plan_id":"cebpf4jnsgd1na2vs0mg"},{"bike_id":"a5704d90-60ec-470f-81af-3d2e29ba0a42","system_id":"levelo_inurba_marseille","lat":43.29527,"lon":5.38546,"is_reserved":false,"is_disabled":false,"rental_uris":{"android":"levelo://app?vid=a5704d90-60ec-470f-81af-3d2e29ba0a42","ios":"levelo://app?vid=a5704d90-60ec-470f-81af-3d2e29ba0a42"},"vehicle_type_id":"4","last_reported":1735492029,"current_range_meters":39200,"station_id":"ce4bgih2rcd13ifvqba0","pricing_plan_id":"cebpf4jnsgd1na2vs0mg"},{"bike_id":"cb4c58fb-15b0-4686-966f-8c99a60eda43","system_id":"levelo_inurba_marseille","lat":43.29624,"lon":5.37718,"is_reserved":false,"is_disabled":false,"rental_uris":{"android":"levelo://app?vid=cb4c58fb-15b0-4686-966f-8c99a60eda43","ios":"levelo://app?vid=cb4c58fb-15b0-4686-966f-8c99a60eda43"},"vehicle_type_id":"4","last_reported":1735492029,"current_range_meters":38800,"station_id":"ce4bgi92rcd13ifvqb90","pricing_plan_id":"cebpf4jnsgd1na2vs0mg"},{"bike_id":"eac618cd-6ec0-4ecf-b838-2d31e84e64f9","system_id":"levelo_inurba_marseille","lat":43.28621,"lon":5.35098,"is_reserved":false,"is_disabled":false,"rental_uris":{"android":"levelo://app?vid=eac618cd-6ec0-4ecf-b838-2d31e84e64f9","ios":"levelo://app?vid=eac618cd-6ec0-4ecf-b838-2d31e84e64f9"},"vehicle_type_id":"4","last_reported":1735492029,"current_range_meters":30000,"station_id":"ce4bhch2rcd13ifvqeug","pricing_plan_id":"cebpf4jnsgd1na2vs0mg"},{"bike_id":"2fdeab75-c3c7-44e1-8744-5eb7e97729bb","system_id":"levelo_inurba_marseille","lat":43.32111,"lon":5.36776,"is_reserved":false,"is_disabled":false,"rental_uris":{"android":"levelo://app?vid=2fdeab75-c3c7-44e1-8744-5eb7e97729bb","ios":"levelo://app?vid=2fdeab75-c3c7-44e1-8744-5eb7e97729bb"},"vehicle_type_id":"4","last_reported":1735492029,"current_range_meters":38800,"station_id":"ce4bhrh2rcd13ifvqhug","pricing_plan_id":"cebpf4jnsgd1na2vs0mg"},{"bike_id":"5416a2c8-e6bc-42cf-83d8-c71e60fc0453","system_id":"levelo_inurba_marseille","lat":43.2862,"lon":5.35104,"is_reserved":false,"is_disabled":false,"rental_uris":{"android":"levelo://app?vid=5416a2c8-e6bc-42cf-83d8-c71e60fc0453","ios":"levelo://app?vid=5416a2c8-e6bc-42cf-83d8-c71e60fc0453"},"vehicle_type_id":"4","last_reported":1735492029,"current_range_meters":16800,"station_id":"ce4bhch2rcd13ifvqeug","pricing_plan_id":"cebpf4jnsgd1na2vs0mg"},{"bike_id":"ec1358c9-3da7-4ac5-b6a4-026b7243e09b","system_id":"levelo_inurba_marseille","lat":43.29588,"lon":5.36741,"is_reserved":false,"is_disabled":false,"rental_uris":{"android":"levelo://app?vid=ec1358c9-3da7-4ac5-b6a4-026b7243e09b","ios":"levelo://app?vid=ec1358c9-3da7-4ac5-b6a4-026b7243e09b"},"vehicle_type_id":"4","last_reported":1735492029,"current_range_meters":38800,"station_id":"ce4bgph2rcd13ifvqc2g","pricing_plan_id":"cebpf4jnsgd1na2vs0mg"},{"bike_id":"9e6d9495-e6fc-46af-bf3a-7dc282e2ba92","system_id":"levelo_inurba_marseille","lat":43.2707,"lon":5.42278,"is_reserved":false,"is_disabled":false,"rental_uris":{"android":"levelo://app?vid=9e6d9495-e6fc-46af-bf3a-7dc282e2ba92","ios":"levelo://app?vid=9e6d9495-e6fc-46af-bf3a-7dc282e2ba92"},"vehicle_type_id":"4","last_reported":1735492029,"current_range_meters":32000,"station_id":"ce4bhk92rcd13ifvqgb0","pricing_plan_id":"cebpf4jnsgd1na2vs0mg"},{"bike_id":"57103b12-06fc-494b-9a1a-1903f8f245d5","system_id":"levelo_inurba_marseille","lat":43.28001,"lon":5.41653,"is_reserved":false,"is_disabled":false,"rental_uris":{"android":"levelo://app?vid=57103b12-06fc-494b-9a1a-1903f8f245d5","ios":"levelo://app?vid=57103b12-06fc-494b-9a1a-1903f8f245d5"},"vehicle_type_id":"4","last_reported":1735492029,"current_range_meters":16800,"station_id":"ce4bho12rcd13ifvqh1g","pricing_plan_id":"cebpf4jnsgd1na2vs0mg"},{"bike_id":"1da4ffe8-41e0-47a3-9058-b574a027b1a6","system_id":"levelo_inurba_marseille","lat":43.28853,"lon":5.35857,"is_reserved":false,"is_disabled":false,"rental_uris":{"android":"levelo://app?vid=1da4ffe8-41e0-47a3-9058-b574a027b1a6","ios":"levelo://app?vid=1da4ffe8-41e0-47a3-9058-b574a027b1a6"},"vehicle_type_id":"4","last_reported":1735492029,"current_range_meters":23200,"station_id":"ce4bhb12rcd13ifvqem0","pricing_plan_id":"cebpf4jnsgd1na2vs0mg"},{"bike_id":"d9d97985-8792-47a3-ab8c-09980f6a9900","system_id":"levelo_inurba_marseille","lat":43.29518,"lon":5.375,"is_reserved":false,"is_disabled":true,"rental_uris":{"android":"levelo://app?vid=d9d97985-8792-47a3-ab8c-09980f6a9900","ios":"levelo://app?vid=d9d97985-8792-47a3-ab8c-09980f6a9900"},"vehicle_type_id":"4","last_reported":1735492029,"current_range_meters":6400,"station_id":"ce4bgkp2rcd13ifvqbmg","pricing_plan_id":"cebpf4jnsgd1na2vs0mg"},{"bike_id":"92e5f43d-1f22-41d7-8c50-7e5ff551781c","system_id":"levelo_inurba_marseille","lat":43.2997,"lon":5.3849,"is_reserved":false,"is_disabled":false,"rental_uris":{"android":"levelo://app?vid=92e5f43d-1f22-41d7-8c50-7e5ff551781c","ios":"levelo://app?vid=92e5f43d-1f22-41d7-8c50-7e5ff551781c"},"vehicle_type_id":"4","last_reported":1735492029,"current_range_meters":10000,"station_id":"ce4bgj92rcd13ifvqbd0","pricing_plan_id":"cebpf4jnsgd1na2vs0mg"},{"bike_id":"81b7dbd4-2034-4c75-9f95-f800613fb5e7","system_id":"levelo_inurba_marseille","lat":43.28152,"lon":5.42634,"is_reserved":false,"is_disabled":false,"rental_uris":{"android":"levelo://app?vid=81b7dbd4-2034-4c75-9f95-f800613fb5e7","ios":"levelo://app?vid=81b7dbd4-2034-4c75-9f95-f800613fb5e7"},"vehicle_type_id":"4","last_reported":1735492029,"current_range_meters":10800,"station_id":"ce4bhnh2rcd13ifvqgug","pricing_plan_id":"cebpf4jnsgd1na2vs0mg"},{"bike_id":"7f7fb4cd-2a55-49f5-a886-63d44f44e08d","system_id":"levelo_inurba_marseille","lat":43.28102,"lon":5.37834,"is_reserved":false,"is_disabled":false,"rental_uris":{"android":"levelo://app?vid=7f7fb4cd-2a55-49f5-a886-63d44f44e08d","ios":"levelo://app?vid=7f7fb4cd-2a55-49f5-a886-63d44f44e08d"},"vehicle_type_id":"4","last_reported":1735492029,"current_range_meters":25200,"station_id":"ce4bha12rcd13ifvqee0","pricing_plan_id":"cebpf4jnsgd1na2vs0mg"},{"bike_id":"e3996919-d2cb-4431-8ea7-fb9a0daea44d","system_id":"levelo_inurba_marseille","lat":43.27561,"lon":5.38422,"is_reserved":false,"is_disabled":false,"rental_uris":{"android":"levelo://app?vid=e3996919-d2cb-4431-8ea7-fb9a0daea44d","ios":"levelo://app?vid=e3996919-d2cb-4431-8ea7-fb9a0daea44d"},"vehicle_type_id":"4","last_reported":1735492029,"current_range_meters":19200,"station_id":"ce4bhh92rcd13ifvqfi0","pricing_plan_id":"cebpf4jnsgd1na2vs0mg"},{"bike_id":"482b0b80-c53d-4d05-aa82-218b22575b6c","system_id":"levelo_inurba_marseille","lat":43.23152,"lon":5.437,"is_reserved":false,"is_disabled":true,"rental_uris":{"android":"levelo://app?vid=482b0b80-c53d-4d05-aa82-218b22575b6c","ios":"levelo://app?vid=482b0b80-c53d-4d05-aa82-218b22575b6c"},"vehicle_type_id":"4","last_reported":1735492029,"current_range_meters":38000,"station_id":"ce4bhmp2rcd13ifvqgog","pricing_plan_id":"cebpf4jnsgd1na2vs0mg"},{"bike_id":"ce08b098-7e25-441d-b456-ce12ad05f8ac","system_id":"levelo_inurba_marseille","lat":43.28474,"lon":5.38419,"is_reserved":false,"is_disabled":false,"rental_uris":{"android":"levelo://app?vid=ce08b098-7e25-441d-b456-ce12ad05f8ac","ios":"levelo://app?vid=ce08b098-7e25-441d-b456-ce12ad05f8ac"},"vehicle_type_id":"4","last_reported":1735492029,"current_range_meters":20800,"station_id":"ce4bh512rcd13ifvqe3g","pricing_plan_id":"cebpf4jnsgd1na2vs0mg"},{"bike_id":"ddea5cf6-35e9-4a55-b314-437412c7d2fc","system_id":"levelo_inurba_marseille","lat":43.29409,"lon":5.38623,"is_reserved":false,"is_disabled":false,"rental_uris":{"android":"levelo://app?vid=ddea5cf6-35e9-4a55-b314-437412c7d2fc","ios":"levelo://app?vid=ddea5cf6-35e9-4a55-b314-437412c7d2fc"},"vehicle_type_id":"4","last_reported":1735492029,"current_range_meters":13600,"station_id":"ce4bh2h2rcd13ifvqdh0","pricing_plan_id":"cebpf4jnsgd1na2vs0mg"},{"bike_id":"4d598eae-1cfb-44eb-8092-aca2df872482","system_id":"levelo_inurba_marseille","lat":43.23042,"lon":5.35518,"is_reserved":false,"is_disabled":false,"rental_uris":{"android":"levelo://app?vid=4d598eae-1cfb-44eb-8092-aca2df872482","ios":"levelo://app?vid=4d598eae-1cfb-44eb-8092-aca2df872482"},"vehicle_type_id":"4","last_reported":1735492029,"current_range_meters":14400,"station_id":"cpo3342slgdg3j2ifvpg","pricing_plan_id":"cebpf4jnsgd1na2vs0mg"},{"bike_id":"59fc5870-b971-4cb3-9795-c1174dfeb490","system_id":"levelo_inurba_marseille","lat":43.24075,"lon":5.37748,"is_reserved":false,"is_disabled":false,"rental_uris":{"android":"levelo://app?vid=59fc5870-b971-4cb3-9795-c1174dfeb490","ios":"levelo://app?vid=59fc5870-b971-4cb3-9795-c1174dfeb490"},"vehicle_type_id":"4","last_reported":1735492029,"current_range_meters":35600,"station_id":"ce4bhnp2rcd13ifvqgvg","pricing_plan_id":"cebpf4jnsgd1na2vs0mg"},{"bike_id":"c4e33464-90ab-45ef-82c6-733a360bdee4","system_id":"levelo_inurba_marseille","lat":43.23195,"lon":5.3999,"is_reserved":false,"is_disabled":true,"rental_uris":{"android":"levelo://app?vid=c4e33464-90ab-45ef-82c6-733a360bdee4","ios":"levelo://app?vid=c4e33464-90ab-45ef-82c6-733a360bdee4"},"vehicle_type_id":"4","last_reported":1735492029,"current_range_meters":400,"station_id":"ce4bhn12rcd13ifvqgqg","pricing_plan_id":"cebpf4jnsgd1na2vs0mg"},{"bike_id":"4c8620d1-6de4-4287-83d5-1887e4de83a5","system_id":"levelo_inurba_marseille","lat":43.30605,"lon":5.37207,"is_reserved":false,"is_disabled":false,"rental_uris":{"android":"levelo://app?vid=4c8620d1-6de4-4287-83d5-1887e4de83a5","ios":"levelo://app?vid=4c8620d1-6de4-4287-83d5-1887e4de83a5"},"vehicle_type_id":"4","last_reported":1735492029,"current_range_meters":33200,"station_id":"ce4bgqh2rcd13ifvqc4g","pricing_plan_id":"cebpf4jnsgd1na2vs0mg"},{"bike_id":"f6a398ba-af8e-4fe3-a6c0-f28cb0077f88","system_id":"levelo_inurba_marseille","lat":43.28157,"lon":5.4262,"is_reserved":false,"is_disabled":false,"rental_uris":{"android":"levelo://app?vid=f6a398ba-af8e-4fe3-a6c0-f28cb0077f88","ios":"levelo://app?vid=f6a398ba-af8e-4fe3-a6c0-f28cb0077f88"},"vehicle_type_id":"4","last_reported":1735492029,"current_range_meters":20000,"station_id":"ce4bhnh2rcd13ifvqgug","pricing_plan_id":"cebpf4jnsgd1na2vs0mg"},{"bike_id":"0bcec2f5-0203-436b-a80c-c30c50ac99f3","system_id":"levelo_inurba_marseille","lat":43.28727,"lon":5.37926,"is_reserved":false,"is_disabled":false,"rental_uris":{"android":"levelo://app?vid=0bcec2f5-0203-436b-a80c-c30c50ac99f3","ios":"levelo://app?vid=0bcec2f5-0203-436b-a80c-c30c50ac99f3"},"vehicle_type_id":"4","last_reported":1735492029,"current_range_meters":27600,"station_id":"ce4bh9p2rcd13ifvqec0","pricing_plan_id":"cebpf4jnsgd1na2vs0mg"},{"bike_id":"7bd44d09-e872-4291-b548-1cbe40f16cac","system_id":"levelo_inurba_marseille","lat":43.28153,"lon":5.42635,"is_reserved":false,"is_disabled":false,"rental_uris":{"android":"levelo://app?vid=7bd44d09-e872-4291-b548-1cbe40f16cac","ios":"levelo://app?vid=7bd44d09-e872-4291-b548-1cbe40f16cac"},"vehicle_type_id":"4","last_reported":1735492029,"current_range_meters":24000,"station_id":"ce4bhnh2rcd13ifvqgug","pricing_plan_id":"cebpf4jnsgd1na2vs0mg"},{"bike_id":"d648ed32-95e8-4506-9861-c5c50b60ec2c","system_id":"levelo_inurba_marseille","lat":43.31089,"lon":5.42432,"is_reserved":false,"is_disabled":false,"rental_uris":{"android":"levelo://app?vid=d648ed32-95e8-4506-9861-c5c50b60ec2c","ios":"levelo://app?vid=d648ed32-95e8-4506-9861-c5c50b60ec2c"},"vehicle_type_id":"4","last_reported":1735492029,"current_range_meters":38800,"station_id":"ce4bhp92rcd13ifvqhag","pricing_plan_id":"cebpf4jnsgd1na2vs0mg"},{"bike_id":"d124b3fa-f3a5-4c6d-bebc-2f7ad1a1004e","system_id":"levelo_inurba_marseille","lat":43.26956,"lon":5.38634,"is_reserved":false,"is_disabled":false,"rental_uris":{"android":"levelo://app?vid=d124b3fa-f3a5-4c6d-bebc-2f7ad1a1004e","ios":"levelo://app?vid=d124b3fa-f3a5-4c6d-bebc-2f7ad1a1004e"},"vehicle_type_id":"4","last_reported":1735492029,"current_range_meters":38800,"station_id":"ce4bhh92rcd13ifvqfh0","pricing_plan_id":"cebpf4jnsgd1na2vs0mg"},{"bike_id":"7d2b3041-8127-45ad-8301-fa0d38ea46bb","system_id":"levelo_inurba_marseille","lat":43.30465,"lon":5.40172,"is_reserved":false,"is_disabled":false,"rental_uris":{"android":"levelo://app?vid=7d2b3041-8127-45ad-8301-fa0d38ea46bb","ios":"levelo://app?vid=7d2b3041-8127-45ad-8301-fa0d38ea46bb"},"vehicle_type_id":"4","last_reported":1735492029,"current_range_meters":36000,"station_id":"","pricing_plan_id":"cebpf4jnsgd1na2vs0mg"},{"bike_id":"38b25491-c8dd-49c2-b2f5-9017c0450946","system_id":"levelo_inurba_marseille","lat":43.26574,"lon":5.39013,"is_reserved":false,"is_disabled":false,"rental_uris":{"android":"levelo://app?vid=38b25491-c8dd-49c2-b2f5-9017c0450946","ios":"levelo://app?vid=38b25491-c8dd-49c2-b2f5-9017c0450946"},"vehicle_type_id":"4","last_reported":1735492029,"current_range_meters":33600,"station_id":"ce4bhe12rcd13ifvqf30","pricing_plan_id":"cebpf4jnsgd1na2vs0mg"},{"bike_id":"1107b56a-98a5-4a01-8449-9eba086fee5a","system_id":"levelo_inurba_marseille","lat":43.29073,"lon":5.39883,"is_reserved":false,"is_disabled":true,"rental_uris":{"android":"levelo://app?vid=1107b56a-98a5-4a01-8449-9eba086fee5a","ios":"levelo://app?vid=1107b56a-98a5-4a01-8449-9eba086fee5a"},"vehicle_type_id":"4","last_reported":1735492029,"current_range_meters":15200,"station_id":"","pricing_plan_id":"cebpf4jnsgd1na2vs0mg"},{"bike_id":"b45568d0-1db0-4941-aaa0-668e3367a47d","system_id":"levelo_inurba_marseille","lat":43.29212,"lon":5.36054,"is_reserved":false,"is_disabled":false,"rental_uris":{"android":"levelo://app?vid=b45568d0-1db0-4941-aaa0-668e3367a47d","ios":"levelo://app?vid=b45568d0-1db0-4941-aaa0-668e3367a47d"},"vehicle_type_id":"4","last_reported":1735492029,"current_range_meters":38800,"station_id":"ce4bhbh2rcd13ifvqeqg","pricing_plan_id":"cebpf4jnsgd1na2vs0mg"},{"bike_id":"20b351ce-aa3b-4fc8-af62-864415db2c56","system_id":"levelo_inurba_marseille","lat":43.23061,"lon":5.35478,"is_reserved":false,"is_disabled":false,"rental_uris":{"android":"levelo://app?vid=20b351ce-aa3b-4fc8-af62-864415db2c56","ios":"levelo://app?vid=20b351ce-aa3b-4fc8-af62-864415db2c56"},"vehicle_type_id":"4","last_reported":1735492029,"current_range_meters":25600,"station_id":"cpo3342slgdg3j2ifvpg","pricing_plan_id":"cebpf4jnsgd1na2vs0mg"},{"bike_id":"2967c6fe-a090-41bc-aa72-92f710c67e02","system_id":"levelo_inurba_marseille","lat":43.27976,"lon":5.3874,"is_reserved":false,"is_disabled":false,"rental_uris":{"android":"levelo://app?vid=2967c6fe-a090-41bc-aa72-92f710c67e02","ios":"levelo://app?vid=2967c6fe-a090-41bc-aa72-92f710c67e02"},"vehicle_type_id":"4","last_reported":1735492029,"current_range_meters":37600,"station_id":"ce4bhg12rcd13ifvqf80","pricing_plan_id":"cebpf4jnsgd1na2vs0mg"},{"bike_id":"22189924-eb04-42d8-bbb9-5f94bffcc5d7","system_id":"levelo_inurba_marseille","lat":43.30144,"lon":5.38074,"is_reserved":false,"is_disabled":false,"rental_uris":{"android":"levelo://app?vid=22189924-eb04-42d8-bbb9-5f94bffcc5d7","ios":"levelo://app?vid=22189924-eb04-42d8-bbb9-5f94bffcc5d7"},"vehicle_type_id":"4","last_reported":1735492029,"current_range_meters":24400,"station_id":"ce4bgjp2rcd13ifvqbh0","pricing_plan_id":"cebpf4jnsgd1na2vs0mg"},{"bike_id":"8c265605-84f9-4d39-92bd-998a7850a564","system_id":"levelo_inurba_marseille","lat":43.23063,"lon":5.35485,"is_reserved":false,"is_disabled":false,"rental_uris":{"android":"levelo://app?vid=8c265605-84f9-4d39-92bd-998a7850a564","ios":"levelo://app?vid=8c265605-84f9-4d39-92bd-998a7850a564"},"vehicle_type_id":"4","last_reported":1735492029,"current_range_meters":17200,"station_id":"cpo3342slgdg3j2ifvpg","pricing_plan_id":"cebpf4jnsgd1na2vs0mg"},{"bike_id":"7c93c37c-acd7-493c-b576-3bc3fdf3caaa","system_id":"levelo_inurba_marseille","lat":43.30597,"lon":5.3722,"is_reserved":false,"is_disabled":false,"rental_uris":{"android":"levelo://app?vid=7c93c37c-acd7-493c-b576-3bc3fdf3caaa","ios":"levelo://app?vid=7c93c37c-acd7-493c-b576-3bc3fdf3caaa"},"vehicle_type_id":"4","last_reported":1735492029,"current_range_meters":38800,"station_id":"ce4bgqh2rcd13ifvqc4g","pricing_plan_id":"cebpf4jnsgd1na2vs0mg"},{"bike_id":"57869636-6c57-433c-84df-16414c4c43f3","system_id":"levelo_inurba_marseille","lat":43.29869,"lon":5.39736,"is_reserved":false,"is_disabled":false,"rental_uris":{"android":"levelo://app?vid=57869636-6c57-433c-84df-16414c4c43f3","ios":"levelo://app?vid=57869636-6c57-433c-84df-16414c4c43f3"},"vehicle_type_id":"4","last_reported":1735492029,"current_range_meters":16400,"station_id":"ce4bh0h2rcd13ifvqd50","pricing_plan_id":"cebpf4jnsgd1na2vs0mg"},{"bike_id":"efcceb82-d68b-4fb8-b350-c3a07a6e191c","system_id":"levelo_inurba_marseille","lat":43.3043,"lon":5.3975,"is_reserved":false,"is_disabled":false,"rental_uris":{"android":"levelo://app?vid=efcceb82-d68b-4fb8-b350-c3a07a6e191c","ios":"levelo://app?vid=efcceb82-d68b-4fb8-b350-c3a07a6e191c"},"vehicle_type_id":"4","last_reported":1735492029,"current_range_meters":24400,"station_id":"ce4bh092rcd13ifvqd20","pricing_plan_id":"cebpf4jnsgd1na2vs0mg"},{"bike_id":"731bb0c1-af09-4dd7-8187-8a856a9319fb","system_id":"levelo_inurba_marseille","lat":43.29262,"lon":5.3844,"is_reserved":false,"is_disabled":false,"rental_uris":{"android":"levelo://app?vid=731bb0c1-af09-4dd7-8187-8a856a9319fb","ios":"levelo://app?vid=731bb0c1-af09-4dd7-8187-8a856a9319fb"},"vehicle_type_id":"4","last_reported":1735492029,"current_range_meters":28000,"station_id":"ce4bh692rcd13ifvqea0","pricing_plan_id":"cebpf4jnsgd1na2vs0mg"},{"bike_id":"9141827a-cd60-47bf-acf1-a8efbc1eb007","system_id":"levelo_inurba_marseille","lat":43.27993,"lon":5.40011,"is_reserved":false,"is_disabled":false,"rental_uris":{"android":"levelo://app?vid=9141827a-cd60-47bf-acf1-a8efbc1eb007","ios":"levelo://app?vid=9141827a-cd60-47bf-acf1-a8efbc1eb007"},"vehicle_type_id":"4","last_reported":1735492029,"current_range_meters":38800,"station_id":"ce4bho92rcd13ifvqh4g","pricing_plan_id":"cebpf4jnsgd1na2vs0mg"},{"bike_id":"473c609a-dd15-4e08-b476-451d99a07a4c","system_id":"levelo_inurba_marseille","lat":43.2962,"lon":5.37177,"is_reserved":false,"is_disabled":false,"rental_uris":{"android":"levelo://app?vid=473c609a-dd15-4e08-b476-451d99a07a4c","ios":"levelo://app?vid=473c609a-dd15-4e08-b476-451d99a07a4c"},"vehicle_type_id":"4","last_reported":1735492029,"current_range_meters":13600,"station_id":"ce4bgnh2rcd13ifvqc0g","pricing_plan_id":"cebpf4jnsgd1na2vs0mg"},{"bike_id":"41e441a8-4ad2-4bf0-81ba-96c35feaf6d8","system_id":"levelo_inurba_marseille","lat":43.28154,"lon":5.42639,"is_reserved":false,"is_disabled":false,"rental_uris":{"android":"levelo://app?vid=41e441a8-4ad2-4bf0-81ba-96c35feaf6d8","ios":"levelo://app?vid=41e441a8-4ad2-4bf0-81ba-96c35feaf6d8"},"vehicle_type_id":"4","last_reported":1735492029,"current_range_meters":28000,"station_id":"ce4bhnh2rcd13ifvqgug","pricing_plan_id":"cebpf4jnsgd1na2vs0mg"},{"bike_id":"c3ae5f50-5bff-48b0-b810-9b5abdba4372","system_id":"levelo_inurba_marseille","lat":43.2933,"lon":5.37101,"is_reserved":false,"is_disabled":false,"rental_uris":{"android":"levelo://app?vid=c3ae5f50-5bff-48b0-b810-9b5abdba4372","ios":"levelo://app?vid=c3ae5f50-5bff-48b0-b810-9b5abdba4372"},"vehicle_type_id":"4","last_reported":1735492029,"current_range_meters":38800,"station_id":"ce4bgnh2rcd13ifvqc0g","pricing_plan_id":"cebpf4jnsgd1na2vs0mg"},{"bike_id":"f436a154-6ceb-4a02-8898-e54661b8da57","system_id":"levelo_inurba_marseille","lat":43.30591,"lon":5.39362,"is_reserved":false,"is_disabled":false,"rental_uris":{"android":"levelo://app?vid=f436a154-6ceb-4a02-8898-e54661b8da57","ios":"levelo://app?vid=f436a154-6ceb-4a02-8898-e54661b8da57"},"vehicle_type_id":"4","last_reported":1735492029,"current_range_meters":35200,"station_id":"ce4bh0p2rcd13ifvqd80","pricing_plan_id":"cebpf4jnsgd1na2vs0mg"},{"bike_id":"b0d45b52-6895-4f7d-b544-51d0d9d0ee35","system_id":"levelo_inurba_marseille","lat":43.30555,"lon":5.36711,"is_reserved":false,"is_disabled":true,"rental_uris":{"android":"levelo://app?vid=b0d45b52-6895-4f7d-b544-51d0d9d0ee35","ios":"levelo://app?vid=b0d45b52-6895-4f7d-b544-51d0d9d0ee35"},"vehicle_type_id":"4","last_reported":1735492029,"current_range_meters":8000,"station_id":"ce4bgrp2rcd13ifvqc9g","pricing_plan_id":"cebpf4jnsgd1na2vs0mg"},{"bike_id":"9cbeea91-6305-4ee1-ad7f-82772e35ad52","system_id":"levelo_inurba_marseille","lat":43.28145,"lon":5.42641,"is_reserved":false,"is_disabled":false,"rental_uris":{"android":"levelo://app?vid=9cbeea91-6305-4ee1-ad7f-82772e35ad52","ios":"levelo://app?vid=9cbeea91-6305-4ee1-ad7f-82772e35ad52"},"vehicle_type_id":"4","last_reported":1735492029,"current_range_meters":27200,"station_id":"ce4bhnh2rcd13ifvqgug","pricing_plan_id":"cebpf4jnsgd1na2vs0mg"},{"bike_id":"5639f52b-1196-4558-b062-4f7891cec443","system_id":"levelo_inurba_marseille","lat":43.284095,"lon":5.375238,"is_reserved":false,"is_disabled":true,"rental_uris":{"android":"levelo://app?vid=5639f52b-1196-4558-b062-4f7891cec443","ios":"levelo://app?vid=5639f52b-1196-4558-b062-4f7891cec443"},"vehicle_type_id":"4","last_reported":1735492029,"current_range_meters":24800,"station_id":"ce4bh412rcd13ifvqds0","pricing_plan_id":"cebpf4jnsgd1na2vs0mg"},{"bike_id":"1727a0bf-5c41-4aa7-be74-58dfcc6e8f12","system_id":"levelo_inurba_marseille","lat":43.31505,"lon":5.37313,"is_reserved":false,"is_disabled":false,"rental_uris":{"android":"levelo://app?vid=1727a0bf-5c41-4aa7-be74-58dfcc6e8f12","ios":"levelo://app?vid=1727a0bf-5c41-4aa7-be74-58dfcc6e8f12"},"vehicle_type_id":"4","last_reported":1735492029,"current_range_meters":38800,"station_id":"ce4bgt12rcd13ifvqcd0","pricing_plan_id":"cebpf4jnsgd1na2vs0mg"},{"bike_id":"43f6acee-0569-479b-b44d-6ba1dec2476a","system_id":"levelo_inurba_marseille","lat":43.29999,"lon":5.3845,"is_reserved":false,"is_disabled":false,"rental_uris":{"android":"levelo://app?vid=43f6acee-0569-479b-b44d-6ba1dec2476a","ios":"levelo://app?vid=43f6acee-0569-479b-b44d-6ba1dec2476a"},"vehicle_type_id":"4","last_reported":1735492029,"current_range_meters":33200,"station_id":"ce4bgj92rcd13ifvqbd0","pricing_plan_id":"cebpf4jnsgd1na2vs0mg"},{"bike_id":"e0bc7d62-cb01-41bd-ae7c-f1008a168512","system_id":"levelo_inurba_marseille","lat":43.26192,"lon":5.37918,"is_reserved":false,"is_disabled":false,"rental_uris":{"android":"levelo://app?vid=e0bc7d62-cb01-41bd-ae7c-f1008a168512","ios":"levelo://app?vid=e0bc7d62-cb01-41bd-ae7c-f1008a168512"},"vehicle_type_id":"4","last_reported":1735492029,"current_range_meters":37600,"station_id":"ce4bhjp2rcd13ifvqg90","pricing_plan_id":"cebpf4jnsgd1na2vs0mg"},{"bike_id":"c4464463-92cc-48b8-b950-7ed437f91335","system_id":"levelo_inurba_marseille","lat":43.29219,"lon":5.3605,"is_reserved":false,"is_disabled":false,"rental_uris":{"android":"levelo://app?vid=c4464463-92cc-48b8-b950-7ed437f91335","ios":"levelo://app?vid=c4464463-92cc-48b8-b950-7ed437f91335"},"vehicle_type_id":"4","last_reported":1735492029,"current_range_meters":33600,"station_id":"ce4bhbh2rcd13ifvqeqg","pricing_plan_id":"cebpf4jnsgd1na2vs0mg"},{"bike_id":"62d18c26-bb55-49ed-a517-14b00b216195","system_id":"levelo_inurba_marseille","lat":43.28411,"lon":5.37516,"is_reserved":false,"is_disabled":false,"rental_uris":{"android":"levelo://app?vid=62d18c26-bb55-49ed-a517-14b00b216195","ios":"levelo://app?vid=62d18c26-bb55-49ed-a517-14b00b216195"},"vehicle_type_id":"4","last_reported":1735492029,"current_range_meters":30000,"station_id":"ce4bh412rcd13ifvqds0","pricing_plan_id":"cebpf4jnsgd1na2vs0mg"},{"bike_id":"356fd92d-e963-40e6-b40e-58fc72ac9553","system_id":"levelo_inurba_marseille","lat":43.32103,"lon":5.36777,"is_reserved":false,"is_disabled":false,"rental_uris":{"android":"levelo://app?vid=356fd92d-e963-40e6-b40e-58fc72ac9553","ios":"levelo://app?vid=356fd92d-e963-40e6-b40e-58fc72ac9553"},"vehicle_type_id":"4","last_reported":1735492029,"current_range_meters":36800,"station_id":"ce4bhrh2rcd13ifvqhug","pricing_plan_id":"cebpf4jnsgd1na2vs0mg"},{"bike_id":"67ace3d6-f856-461e-bae1-ce541a83d8dd","system_id":"levelo_inurba_marseille","lat":43.232,"lon":5.35539,"is_reserved":false,"is_disabled":false,"rental_uris":{"android":"levelo://app?vid=67ace3d6-f856-461e-bae1-ce541a83d8dd","ios":"levelo://app?vid=67ace3d6-f856-461e-bae1-ce541a83d8dd"},"vehicle_type_id":"4","last_reported":1735492029,"current_range_meters":38400,"station_id":"ce4bhu92rcd13ifvqi70","pricing_plan_id":"cebpf4jnsgd1na2vs0mg"},{"bike_id":"12b64bf2-4ce1-4146-af5b-eb3b72f8d5ae","system_id":"levelo_inurba_marseille","lat":43.25722,"lon":5.41098,"is_reserved":false,"is_disabled":false,"rental_uris":{"android":"levelo://app?vid=12b64bf2-4ce1-4146-af5b-eb3b72f8d5ae","ios":"levelo://app?vid=12b64bf2-4ce1-4146-af5b-eb3b72f8d5ae"},"vehicle_type_id":"4","last_reported":1735492029,"current_range_meters":38800,"station_id":"ce4bhkp2rcd13ifvqgd0","pricing_plan_id":"cebpf4jnsgd1na2vs0mg"},{"bike_id":"0c4f19ff-e42e-4b26-87ae-a23ba943b3ee","system_id":"levelo_inurba_marseille","lat":43.27969,"lon":5.38744,"is_reserved":false,"is_disabled":false,"rental_uris":{"android":"levelo://app?vid=0c4f19ff-e42e-4b26-87ae-a23ba943b3ee","ios":"levelo://app?vid=0c4f19ff-e42e-4b26-87ae-a23ba943b3ee"},"vehicle_type_id":"4","last_reported":1735492029,"current_range_meters":3200,"station_id":"ce4bhg12rcd13ifvqf80","pricing_plan_id":"cebpf4jnsgd1na2vs0mg"},{"bike_id":"9cf47541-6d81-40c9-9a0a-10f52490d028","system_id":"levelo_inurba_marseille","lat":43.23156,"lon":5.43707,"is_reserved":false,"is_disabled":false,"rental_uris":{"android":"levelo://app?vid=9cf47541-6d81-40c9-9a0a-10f52490d028","ios":"levelo://app?vid=9cf47541-6d81-40c9-9a0a-10f52490d028"},"vehicle_type_id":"4","last_reported":1735492029,"current_range_meters":12000,"station_id":"ce4bhmp2rcd13ifvqgog","pricing_plan_id":"cebpf4jnsgd1na2vs0mg"},{"bike_id":"4ff07c24-5f71-48e2-ae35-b8ed4c8088e4","system_id":"levelo_inurba_marseille","lat":43.29201,"lon":5.3609,"is_reserved":false,"is_disabled":false,"rental_uris":{"android":"levelo://app?vid=4ff07c24-5f71-48e2-ae35-b8ed4c8088e4","ios":"levelo://app?vid=4ff07c24-5f71-48e2-ae35-b8ed4c8088e4"},"vehicle_type_id":"4","last_reported":1735492029,"current_range_meters":30800,"station_id":"ce4bhbh2rcd13ifvqeqg","pricing_plan_id":"cebpf4jnsgd1na2vs0mg"},{"bike_id":"7ed07c7f-4321-4941-acd7-ab9ff5375bb0","system_id":"levelo_inurba_marseille","lat":43.30255,"lon":5.40066,"is_reserved":false,"is_disabled":false,"rental_uris":{"android":"levelo://app?vid=7ed07c7f-4321-4941-acd7-ab9ff5375bb0","ios":"levelo://app?vid=7ed07c7f-4321-4941-acd7-ab9ff5375bb0"},"vehicle_type_id":"4","last_reported":1735492029,"current_range_meters":8400,"station_id":"ce4bgvh2rcd13ifvqcs0","pricing_plan_id":"cebpf4jnsgd1na2vs0mg"},{"bike_id":"5055049c-e7a1-4b11-8693-0ad632a3d8d7","system_id":"levelo_inurba_marseille","lat":43.26952,"lon":5.38631,"is_reserved":false,"is_disabled":false,"rental_uris":{"android":"levelo://app?vid=5055049c-e7a1-4b11-8693-0ad632a3d8d7","ios":"levelo://app?vid=5055049c-e7a1-4b11-8693-0ad632a3d8d7"},"vehicle_type_id":"4","last_reported":1735492029,"current_range_meters":16800,"station_id":"ce4bhh92rcd13ifvqfh0","pricing_plan_id":"cebpf4jnsgd1na2vs0mg"},{"bike_id":"82db095f-4637-44e3-b4ea-011be0c95c9d","system_id":"levelo_inurba_marseille","lat":43.29695,"lon":5.37298,"is_reserved":false,"is_disabled":false,"rental_uris":{"android":"levelo://app?vid=82db095f-4637-44e3-b4ea-011be0c95c9d","ios":"levelo://app?vid=82db095f-4637-44e3-b4ea-011be0c95c9d"},"vehicle_type_id":"4","last_reported":1735492029,"current_range_meters":38800,"station_id":"ce4bgk12rcd13ifvqbj0","pricing_plan_id":"cebpf4jnsgd1na2vs0mg"},{"bike_id":"673ed0fe-3027-4e1f-9efc-2804b0e32190","system_id":"levelo_inurba_marseille","lat":43.26681,"lon":5.3827,"is_reserved":false,"is_disabled":false,"rental_uris":{"android":"levelo://app?vid=673ed0fe-3027-4e1f-9efc-2804b0e32190","ios":"levelo://app?vid=673ed0fe-3027-4e1f-9efc-2804b0e32190"},"vehicle_type_id":"4","last_reported":1735492029,"current_range_meters":38800,"station_id":"ce4bhg92rcd13ifvqf90","pricing_plan_id":"cebpf4jnsgd1na2vs0mg"},{"bike_id":"a077f749-b88f-462a-b8ef-557e58db968d","system_id":"levelo_inurba_marseille","lat":43.30147,"lon":5.38077,"is_reserved":false,"is_disabled":false,"rental_uris":{"android":"levelo://app?vid=a077f749-b88f-462a-b8ef-557e58db968d","ios":"levelo://app?vid=a077f749-b88f-462a-b8ef-557e58db968d"},"vehicle_type_id":"4","last_reported":1735492029,"current_range_meters":26800,"station_id":"ce4bgjp2rcd13ifvqbh0","pricing_plan_id":"cebpf4jnsgd1na2vs0mg"},{"bike_id":"1a3a986d-0c40-4efb-9cfe-e2b8c3b4d776","system_id":"levelo_inurba_marseille","lat":43.30962,"lon":5.36798,"is_reserved":false,"is_disabled":false,"rental_uris":{"android":"levelo://app?vid=1a3a986d-0c40-4efb-9cfe-e2b8c3b4d776","ios":"levelo://app?vid=1a3a986d-0c40-4efb-9cfe-e2b8c3b4d776"},"vehicle_type_id":"4","last_reported":1735492029,"current_range_meters":37600,"station_id":"","pricing_plan_id":"cebpf4jnsgd1na2vs0mg"},{"bike_id":"9eb7b9f3-106c-4e64-badd-640107d9d620","system_id":"levelo_inurba_marseille","lat":43.24995,"lon":5.3893,"is_reserved":false,"is_disabled":false,"rental_uris":{"android":"levelo://app?vid=9eb7b9f3-106c-4e64-badd-640107d9d620","ios":"levelo://app?vid=9eb7b9f3-106c-4e64-badd-640107d9d620"},"vehicle_type_id":"4","last_reported":1735492029,"current_range_meters":19600,"station_id":"ce4bhgp2rcd13ifvqfd0","pricing_plan_id":"cebpf4jnsgd1na2vs0mg"},{"bike_id":"e70ce8bb-674e-436b-ab6d-79ca756c291a","system_id":"levelo_inurba_marseille","lat":43.25731,"lon":5.41108,"is_reserved":false,"is_disabled":false,"rental_uris":{"android":"levelo://app?vid=e70ce8bb-674e-436b-ab6d-79ca756c291a","ios":"levelo://app?vid=e70ce8bb-674e-436b-ab6d-79ca756c291a"},"vehicle_type_id":"4","last_reported":1735492029,"current_range_meters":30800,"station_id":"ce4bhkp2rcd13ifvqgd0","pricing_plan_id":"cebpf4jnsgd1na2vs0mg"},{"bike_id":"c8d1c33c-78e9-42be-a881-5b72ffd6d815","system_id":"levelo_inurba_marseille","lat":43.29916,"lon":5.37477,"is_reserved":false,"is_disabled":false,"rental_uris":{"android":"levelo://app?vid=c8d1c33c-78e9-42be-a881-5b72ffd6d815","ios":"levelo://app?vid=c8d1c33c-78e9-42be-a881-5b72ffd6d815"},"vehicle_type_id":"4","last_reported":1735492029,"current_range_meters":39200,"station_id":"ce4bgjh2rcd13ifvqbg0","pricing_plan_id":"cebpf4jnsgd1na2vs0mg"},{"bike_id":"0344f336-00ff-4388-b353-9f72a30c331a","system_id":"levelo_inurba_marseille","lat":43.309057,"lon":5.374699,"is_reserved":false,"is_disabled":false,"rental_uris":{"android":"levelo://app?vid=0344f336-00ff-4388-b353-9f72a30c331a","ios":"levelo://app?vid=0344f336-00ff-4388-b353-9f72a30c331a"},"vehicle_type_id":"4","last_reported":1735492029,"current_range_meters":23200,"station_id":"","pricing_plan_id":"cebpf4jnsgd1na2vs0mg"},{"bike_id":"57dc3f69-22e6-4e86-bacb-c4a64e2fa8b8","system_id":"levelo_inurba_marseille","lat":43.32472,"lon":5.36567,"is_reserved":false,"is_disabled":false,"rental_uris":{"android":"levelo://app?vid=57dc3f69-22e6-4e86-bacb-c4a64e2fa8b8","ios":"levelo://app?vid=57dc3f69-22e6-4e86-bacb-c4a64e2fa8b8"},"vehicle_type_id":"4","last_reported":1735492029,"current_range_meters":31200,"station_id":"ce4bhs12rcd13ifvqhvg","pricing_plan_id":"cebpf4jnsgd1na2vs0mg"},{"bike_id":"e1bcf252-18b4-4805-9368-7dd66d02d24f","system_id":"levelo_inurba_marseille","lat":43.2906,"lon":5.37165,"is_reserved":false,"is_disabled":false,"rental_uris":{"android":"levelo://app?vid=e1bcf252-18b4-4805-9368-7dd66d02d24f","ios":"levelo://app?vid=e1bcf252-18b4-4805-9368-7dd66d02d24f"},"vehicle_type_id":"4","last_reported":1735492029,"current_range_meters":38800,"station_id":"ce4bh5p2rcd13ifvqe4g","pricing_plan_id":"cebpf4jnsgd1na2vs0mg"},{"bike_id":"35142cb1-da84-4465-a902-1b70f5829b31","system_id":"levelo_inurba_marseille","lat":43.25718,"lon":5.41101,"is_reserved":false,"is_disabled":false,"rental_uris":{"android":"levelo://app?vid=35142cb1-da84-4465-a902-1b70f5829b31","ios":"levelo://app?vid=35142cb1-da84-4465-a902-1b70f5829b31"},"vehicle_type_id":"4","last_reported":1735492029,"current_range_meters":38400,"station_id":"ce4bhkp2rcd13ifvqgd0","pricing_plan_id":"cebpf4jnsgd1na2vs0mg"},{"bike_id":"5b7c7869-2d00-4414-b00b-e625d286e84e","system_id":"levelo_inurba_marseille","lat":43.29581,"lon":5.37511,"is_reserved":false,"is_disabled":false,"rental_uris":{"android":"levelo://app?vid=5b7c7869-2d00-4414-b00b-e625d286e84e","ios":"levelo://app?vid=5b7c7869-2d00-4414-b00b-e625d286e84e"},"vehicle_type_id":"4","last_reported":1735492029,"current_range_meters":24400,"station_id":"ce4bgh92rcd13ifvqb50","pricing_plan_id":"cebpf4jnsgd1na2vs0mg"},{"bike_id":"df0eb88d-fd2c-4e51-b29b-0b4e96cdb399","system_id":"levelo_inurba_marseille","lat":43.2816,"lon":5.42638,"is_reserved":false,"is_disabled":false,"rental_uris":{"android":"levelo://app?vid=df0eb88d-fd2c-4e51-b29b-0b4e96cdb399","ios":"levelo://app?vid=df0eb88d-fd2c-4e51-b29b-0b4e96cdb399"},"vehicle_type_id":"4","last_reported":1735492029,"current_range_meters":30000,"station_id":"ce4bhnh2rcd13ifvqgug","pricing_plan_id":"cebpf4jnsgd1na2vs0mg"},{"bike_id":"bf1c2993-473c-46f2-953f-caf0e83ecbaa","system_id":"levelo_inurba_marseille","lat":43.2987,"lon":5.39733,"is_reserved":false,"is_disabled":false,"rental_uris":{"android":"levelo://app?vid=bf1c2993-473c-46f2-953f-caf0e83ecbaa","ios":"levelo://app?vid=bf1c2993-473c-46f2-953f-caf0e83ecbaa"},"vehicle_type_id":"4","last_reported":1735492029,"current_range_meters":39200,"station_id":"ce4bh0h2rcd13ifvqd50","pricing_plan_id":"cebpf4jnsgd1na2vs0mg"},{"bike_id":"b05b2056-1756-4acc-b9bc-e5f9e37c6e15","system_id":"levelo_inurba_marseille","lat":43.27067,"lon":5.42278,"is_reserved":false,"is_disabled":false,"rental_uris":{"android":"levelo://app?vid=b05b2056-1756-4acc-b9bc-e5f9e37c6e15","ios":"levelo://app?vid=b05b2056-1756-4acc-b9bc-e5f9e37c6e15"},"vehicle_type_id":"4","last_reported":1735492029,"current_range_meters":32800,"station_id":"ce4bhk92rcd13ifvqgb0","pricing_plan_id":"cebpf4jnsgd1na2vs0mg"},{"bike_id":"585de49c-4b3d-4a09-97c5-0ee13dcc1b7c","system_id":"levelo_inurba_marseille","lat":43.29555,"lon":5.42283,"is_reserved":false,"is_disabled":false,"rental_uris":{"android":"levelo://app?vid=585de49c-4b3d-4a09-97c5-0ee13dcc1b7c","ios":"levelo://app?vid=585de49c-4b3d-4a09-97c5-0ee13dcc1b7c"},"vehicle_type_id":"4","last_reported":1735492029,"current_range_meters":38800,"station_id":"ce4bhph2rcd13ifvqhdg","pricing_plan_id":"cebpf4jnsgd1na2vs0mg"},{"bike_id":"97fc9c01-30fa-4894-9fb1-636bdfc835c5","system_id":"levelo_inurba_marseille","lat":43.25722,"lon":5.41103,"is_reserved":false,"is_disabled":false,"rental_uris":{"android":"levelo://app?vid=97fc9c01-30fa-4894-9fb1-636bdfc835c5","ios":"levelo://app?vid=97fc9c01-30fa-4894-9fb1-636bdfc835c5"},"vehicle_type_id":"4","last_reported":1735492029,"current_range_meters":8800,"station_id":"ce4bhkp2rcd13ifvqgd0","pricing_plan_id":"cebpf4jnsgd1na2vs0mg"},{"bike_id":"309a9554-13e3-4a27-8da4-4d931614d914","system_id":"levelo_inurba_marseille","lat":43.29016,"lon":5.38145,"is_reserved":false,"is_disabled":true,"rental_uris":{"android":"levelo://app?vid=309a9554-13e3-4a27-8da4-4d931614d914","ios":"levelo://app?vid=309a9554-13e3-4a27-8da4-4d931614d914"},"vehicle_type_id":"4","last_reported":1735492029,"current_range_meters":1600,"station_id":"ce4bh4p2rcd13ifvqe1g","pricing_plan_id":"cebpf4jnsgd1na2vs0mg"},{"bike_id":"3ea0cc3c-cc20-4b14-a31b-5bdd225ba6d8","system_id":"levelo_inurba_marseille","lat":43.2837,"lon":5.38633,"is_reserved":false,"is_disabled":false,"rental_uris":{"android":"levelo://app?vid=3ea0cc3c-cc20-4b14-a31b-5bdd225ba6d8","ios":"levelo://app?vid=3ea0cc3c-cc20-4b14-a31b-5bdd225ba6d8"},"vehicle_type_id":"4","last_reported":1735492029,"current_range_meters":24800,"station_id":"ce4bh492rcd13ifvqdvg","pricing_plan_id":"cebpf4jnsgd1na2vs0mg"},{"bike_id":"0ca8bd24-8041-4da3-80dd-d8dddaba9365","system_id":"levelo_inurba_marseille","lat":43.30885,"lon":5.37192,"is_reserved":false,"is_disabled":false,"rental_uris":{"android":"levelo://app?vid=0ca8bd24-8041-4da3-80dd-d8dddaba9365","ios":"levelo://app?vid=0ca8bd24-8041-4da3-80dd-d8dddaba9365"},"vehicle_type_id":"4","last_reported":1735492029,"current_range_meters":28400,"station_id":"ce4bguh2rcd13ifvqckg","pricing_plan_id":"cebpf4jnsgd1na2vs0mg"},{"bike_id":"2598d78b-c5cd-4ad1-8306-8c58913fa9c2","system_id":"levelo_inurba_marseille","lat":43.26565,"lon":5.4223,"is_reserved":false,"is_disabled":false,"rental_uris":{"android":"levelo://app?vid=2598d78b-c5cd-4ad1-8306-8c58913fa9c2","ios":"levelo://app?vid=2598d78b-c5cd-4ad1-8306-8c58913fa9c2"},"vehicle_type_id":"4","last_reported":1735492029,"current_range_meters":28800,"station_id":"","pricing_plan_id":"cebpf4jnsgd1na2vs0mg"},{"bike_id":"2d76d9f4-5ac3-420c-b7d3-8710df44025b","system_id":"levelo_inurba_marseille","lat":43.29551,"lon":5.42281,"is_reserved":false,"is_disabled":true,"rental_uris":{"android":"levelo://app?vid=2d76d9f4-5ac3-420c-b7d3-8710df44025b","ios":"levelo://app?vid=2d76d9f4-5ac3-420c-b7d3-8710df44025b"},"vehicle_type_id":"4","last_reported":1735492029,"current_range_meters":9200,"station_id":"ce4bhph2rcd13ifvqhdg","pricing_plan_id":"cebpf4jnsgd1na2vs0mg"},{"bike_id":"5477d212-35e2-4622-b27a-bfe5ff434d03","system_id":"levelo_inurba_marseille","lat":43.337603,"lon":5.374424,"is_reserved":false,"is_disabled":false,"rental_uris":{"android":"levelo://app?vid=5477d212-35e2-4622-b27a-bfe5ff434d03","ios":"levelo://app?vid=5477d212-35e2-4622-b27a-bfe5ff434d03"},"vehicle_type_id":"4","last_reported":1735492029,"current_range_meters":20000,"station_id":"","pricing_plan_id":"cebpf4jnsgd1na2vs0mg"},{"bike_id":"f4d44caa-08d6-4cff-a45a-c1d8fe15ab8c","system_id":"levelo_inurba_marseille","lat":43.26957,"lon":5.38633,"is_reserved":false,"is_disabled":false,"rental_uris":{"android":"levelo://app?vid=f4d44caa-08d6-4cff-a45a-c1d8fe15ab8c","ios":"levelo://app?vid=f4d44caa-08d6-4cff-a45a-c1d8fe15ab8c"},"vehicle_type_id":"4","last_reported":1735492029,"current_range_meters":24000,"station_id":"ce4bhh92rcd13ifvqfh0","pricing_plan_id":"cebpf4jnsgd1na2vs0mg"},{"bike_id":"3831f46a-5b63-4500-9516-73de533226bb","system_id":"levelo_inurba_marseille","lat":43.32475,"lon":5.36566,"is_reserved":false,"is_disabled":false,"rental_uris":{"android":"levelo://app?vid=3831f46a-5b63-4500-9516-73de533226bb","ios":"levelo://app?vid=3831f46a-5b63-4500-9516-73de533226bb"},"vehicle_type_id":"4","last_reported":1735492029,"current_range_meters":12000,"station_id":"ce4bhs12rcd13ifvqhvg","pricing_plan_id":"cebpf4jnsgd1na2vs0mg"},{"bike_id":"9c699461-17d5-4077-8f28-482b484da4fe","system_id":"levelo_inurba_marseille","lat":43.29192,"lon":5.35813,"is_reserved":false,"is_disabled":false,"rental_uris":{"android":"levelo://app?vid=9c699461-17d5-4077-8f28-482b484da4fe","ios":"levelo://app?vid=9c699461-17d5-4077-8f28-482b484da4fe"},"vehicle_type_id":"4","last_reported":1735492029,"current_range_meters":38800,"station_id":"ce4bhb12rcd13ifvqel0","pricing_plan_id":"cebpf4jnsgd1na2vs0mg"},{"bike_id":"7aab2ffc-cec0-4dd6-981d-6bd7c8cbfd0b","system_id":"levelo_inurba_marseille","lat":43.26055,"lon":5.3939,"is_reserved":false,"is_disabled":true,"rental_uris":{"android":"levelo://app?vid=7aab2ffc-cec0-4dd6-981d-6bd7c8cbfd0b","ios":"levelo://app?vid=7aab2ffc-cec0-4dd6-981d-6bd7c8cbfd0b"},"vehicle_type_id":"4","last_reported":1735492029,"current_range_meters":38400,"station_id":"ce4bhh92rcd13ifvqfj0","pricing_plan_id":"cebpf4jnsgd1na2vs0mg"},{"bike_id":"9e5d4b40-7285-4f93-9efa-c01ba475f3b8","system_id":"levelo_inurba_marseille","lat":43.30593,"lon":5.37205,"is_reserved":false,"is_disabled":false,"rental_uris":{"android":"levelo://app?vid=9e5d4b40-7285-4f93-9efa-c01ba475f3b8","ios":"levelo://app?vid=9e5d4b40-7285-4f93-9efa-c01ba475f3b8"},"vehicle_type_id":"4","last_reported":1735492029,"current_range_meters":17600,"station_id":"ce4bgqh2rcd13ifvqc4g","pricing_plan_id":"cebpf4jnsgd1na2vs0mg"},{"bike_id":"fc5a7c50-b088-4366-8ec0-23ac2c6135e5","system_id":"levelo_inurba_marseille","lat":43.29002,"lon":5.35609,"is_reserved":false,"is_disabled":false,"rental_uris":{"android":"levelo://app?vid=fc5a7c50-b088-4366-8ec0-23ac2c6135e5","ios":"levelo://app?vid=fc5a7c50-b088-4366-8ec0-23ac2c6135e5"},"vehicle_type_id":"4","last_reported":1735492029,"current_range_meters":11600,"station_id":"ce4bhb92rcd13ifvqen0","pricing_plan_id":"cebpf4jnsgd1na2vs0mg"},{"bike_id":"59247496-0f6b-4a3a-875b-8261892635cf","system_id":"levelo_inurba_marseille","lat":43.28367,"lon":5.38636,"is_reserved":false,"is_disabled":false,"rental_uris":{"android":"levelo://app?vid=59247496-0f6b-4a3a-875b-8261892635cf","ios":"levelo://app?vid=59247496-0f6b-4a3a-875b-8261892635cf"},"vehicle_type_id":"4","last_reported":1735492029,"current_range_meters":20400,"station_id":"ce4bh492rcd13ifvqdvg","pricing_plan_id":"cebpf4jnsgd1na2vs0mg"},{"bike_id":"b3a22d3f-7399-4a51-a5ee-8e43c846f17c","system_id":"levelo_inurba_marseille","lat":43.30594,"lon":5.37223,"is_reserved":false,"is_disabled":true,"rental_uris":{"android":"levelo://app?vid=b3a22d3f-7399-4a51-a5ee-8e43c846f17c","ios":"levelo://app?vid=b3a22d3f-7399-4a51-a5ee-8e43c846f17c"},"vehicle_type_id":"4","last_reported":1735492029,"current_range_meters":9600,"station_id":"ce4bgqh2rcd13ifvqc4g","pricing_plan_id":"cebpf4jnsgd1na2vs0mg"},{"bike_id":"a9fa3d0c-8669-4d62-8eb2-a587f4a9779c","system_id":"levelo_inurba_marseille","lat":43.27925,"lon":5.39573,"is_reserved":false,"is_disabled":true,"rental_uris":{"android":"levelo://app?vid=a9fa3d0c-8669-4d62-8eb2-a587f4a9779c","ios":"levelo://app?vid=a9fa3d0c-8669-4d62-8eb2-a587f4a9779c"},"vehicle_type_id":"4","last_reported":1735492029,"current_range_meters":34800,"station_id":"ce4bhf92rcd13ifvqf40","pricing_plan_id":"cebpf4jnsgd1na2vs0mg"},{"bike_id":"b1c0ee8d-93e8-4cc8-82d6-c539d877336e","system_id":"levelo_inurba_marseille","lat":43.2439,"lon":5.37055,"is_reserved":false,"is_disabled":false,"rental_uris":{"android":"levelo://app?vid=b1c0ee8d-93e8-4cc8-82d6-c539d877336e","ios":"levelo://app?vid=b1c0ee8d-93e8-4cc8-82d6-c539d877336e"},"vehicle_type_id":"4","last_reported":1735492029,"current_range_meters":39200,"station_id":"ce4bhhh2rcd13ifvqfk0","pricing_plan_id":"cebpf4jnsgd1na2vs0mg"},{"bike_id":"b1e5579e-3648-4585-8402-2a9c4624ad25","system_id":"levelo_inurba_marseille","lat":43.26201,"lon":5.37928,"is_reserved":false,"is_disabled":false,"rental_uris":{"android":"levelo://app?vid=b1e5579e-3648-4585-8402-2a9c4624ad25","ios":"levelo://app?vid=b1e5579e-3648-4585-8402-2a9c4624ad25"},"vehicle_type_id":"4","last_reported":1735492029,"current_range_meters":29600,"station_id":"ce4bhjp2rcd13ifvqg90","pricing_plan_id":"cebpf4jnsgd1na2vs0mg"},{"bike_id":"7a3b2a52-2875-471f-a059-730e5443442b","system_id":"levelo_inurba_marseille","lat":43.30469,"lon":5.37914,"is_reserved":false,"is_disabled":false,"rental_uris":{"android":"levelo://app?vid=7a3b2a52-2875-471f-a059-730e5443442b","ios":"levelo://app?vid=7a3b2a52-2875-471f-a059-730e5443442b"},"vehicle_type_id":"4","last_reported":1735492029,"current_range_meters":18000,"station_id":"ce4bgup2rcd13ifvqcn0","pricing_plan_id":"cebpf4jnsgd1na2vs0mg"},{"bike_id":"a5f518bb-4119-4201-87a3-1707c496c472","system_id":"levelo_inurba_marseille","lat":43.29218,"lon":5.36059,"is_reserved":false,"is_disabled":false,"rental_uris":{"android":"levelo://app?vid=a5f518bb-4119-4201-87a3-1707c496c472","ios":"levelo://app?vid=a5f518bb-4119-4201-87a3-1707c496c472"},"vehicle_type_id":"4","last_reported":1735492029,"current_range_meters":32800,"station_id":"ce4bhbh2rcd13ifvqeqg","pricing_plan_id":"cebpf4jnsgd1na2vs0mg"},{"bike_id":"dd708212-6c95-4591-b555-43b33b8da7f5","system_id":"levelo_inurba_marseille","lat":43.25647,"lon":5.40998,"is_reserved":false,"is_disabled":false,"rental_uris":{"android":"levelo://app?vid=dd708212-6c95-4591-b555-43b33b8da7f5","ios":"levelo://app?vid=dd708212-6c95-4591-b555-43b33b8da7f5"},"vehicle_type_id":"4","last_reported":1735492029,"current_range_meters":37600,"station_id":"","pricing_plan_id":"cebpf4jnsgd1na2vs0mg"},{"bike_id":"cef9e8ab-e7ce-4d80-b9dd-842bf7f8b977","system_id":"levelo_inurba_marseille","lat":43.24079,"lon":5.37754,"is_reserved":false,"is_disabled":false,"rental_uris":{"android":"levelo://app?vid=cef9e8ab-e7ce-4d80-b9dd-842bf7f8b977","ios":"levelo://app?vid=cef9e8ab-e7ce-4d80-b9dd-842bf7f8b977"},"vehicle_type_id":"4","last_reported":1735492029,"current_range_meters":38400,"station_id":"ce4bhnp2rcd13ifvqgvg","pricing_plan_id":"cebpf4jnsgd1na2vs0mg"},{"bike_id":"e0884488-9ade-4024-8882-bdba3e9f42ad","system_id":"levelo_inurba_marseille","lat":43.23968,"lon":5.36631,"is_reserved":false,"is_disabled":false,"rental_uris":{"android":"levelo://app?vid=e0884488-9ade-4024-8882-bdba3e9f42ad","ios":"levelo://app?vid=e0884488-9ade-4024-8882-bdba3e9f42ad"},"vehicle_type_id":"4","last_reported":1735492029,"current_range_meters":29600,"station_id":"ce4bhi12rcd13ifvqfp0","pricing_plan_id":"cebpf4jnsgd1na2vs0mg"},{"bike_id":"6c26c8f3-53ae-47d9-b39d-577074fba746","system_id":"levelo_inurba_marseille","lat":43.31756,"lon":5.39012,"is_reserved":false,"is_disabled":false,"rental_uris":{"android":"levelo://app?vid=6c26c8f3-53ae-47d9-b39d-577074fba746","ios":"levelo://app?vid=6c26c8f3-53ae-47d9-b39d-577074fba746"},"vehicle_type_id":"4","last_reported":1735492029,"current_range_meters":38800,"station_id":"ce4bhqp2rcd13ifvqhng","pricing_plan_id":"cebpf4jnsgd1na2vs0mg"},{"bike_id":"af28d292-226b-4b0c-b39e-417b89319493","system_id":"levelo_inurba_marseille","lat":43.231929,"lon":5.35543,"is_reserved":false,"is_disabled":false,"rental_uris":{"android":"levelo://app?vid=af28d292-226b-4b0c-b39e-417b89319493","ios":"levelo://app?vid=af28d292-226b-4b0c-b39e-417b89319493"},"vehicle_type_id":"4","last_reported":1735492029,"current_range_meters":21600,"station_id":"ce4bhu92rcd13ifvqi70","pricing_plan_id":"cebpf4jnsgd1na2vs0mg"},{"bike_id":"a2dfaa5b-c1ad-4316-ae45-cf62c09c30b3","system_id":"levelo_inurba_marseille","lat":43.32112,"lon":5.36772,"is_reserved":false,"is_disabled":false,"rental_uris":{"android":"levelo://app?vid=a2dfaa5b-c1ad-4316-ae45-cf62c09c30b3","ios":"levelo://app?vid=a2dfaa5b-c1ad-4316-ae45-cf62c09c30b3"},"vehicle_type_id":"4","last_reported":1735492029,"current_range_meters":17600,"station_id":"ce4bhrh2rcd13ifvqhug","pricing_plan_id":"cebpf4jnsgd1na2vs0mg"},{"bike_id":"5f8ee9c5-4e33-43ee-b8aa-ac908ba0aac5","system_id":"levelo_inurba_marseille","lat":43.27497,"lon":5.4245,"is_reserved":false,"is_disabled":false,"rental_uris":{"android":"levelo://app?vid=5f8ee9c5-4e33-43ee-b8aa-ac908ba0aac5","ios":"levelo://app?vid=5f8ee9c5-4e33-43ee-b8aa-ac908ba0aac5"},"vehicle_type_id":"4","last_reported":1735492029,"current_range_meters":24800,"station_id":"ce4bhn92rcd13ifvqgrg","pricing_plan_id":"cebpf4jnsgd1na2vs0mg"},{"bike_id":"f6eaced9-ca89-417f-a01d-b87955fe3119","system_id":"levelo_inurba_marseille","lat":43.28427,"lon":5.34988,"is_reserved":false,"is_disabled":true,"rental_uris":{"android":"levelo://app?vid=f6eaced9-ca89-417f-a01d-b87955fe3119","ios":"levelo://app?vid=f6eaced9-ca89-417f-a01d-b87955fe3119"},"vehicle_type_id":"4","last_reported":1735492029,"current_range_meters":3200,"station_id":"ce4bhbh2rcd13ifvqepg","pricing_plan_id":"cebpf4jnsgd1na2vs0mg"},{"bike_id":"2cf15125-97cf-403e-b26f-eeac7da3709c","system_id":"levelo_inurba_marseille","lat":43.29264,"lon":5.38438,"is_reserved":false,"is_disabled":false,"rental_uris":{"android":"levelo://app?vid=2cf15125-97cf-403e-b26f-eeac7da3709c","ios":"levelo://app?vid=2cf15125-97cf-403e-b26f-eeac7da3709c"},"vehicle_type_id":"4","last_reported":1735492029,"current_range_meters":22000,"station_id":"ce4bh692rcd13ifvqea0","pricing_plan_id":"cebpf4jnsgd1na2vs0mg"},{"bike_id":"a8ef2015-e939-47ea-a3b0-bb6f9d168d4b","system_id":"levelo_inurba_marseille","lat":43.29041,"lon":5.39961,"is_reserved":false,"is_disabled":false,"rental_uris":{"android":"levelo://app?vid=a8ef2015-e939-47ea-a3b0-bb6f9d168d4b","ios":"levelo://app?vid=a8ef2015-e939-47ea-a3b0-bb6f9d168d4b"},"vehicle_type_id":"4","last_reported":1735492029,"current_range_meters":17600,"station_id":"ce4bh392rcd13ifvqdm0","pricing_plan_id":"cebpf4jnsgd1na2vs0mg"},{"bike_id":"d78e51c4-ab7f-4b73-9857-4d7754e3215c","system_id":"levelo_inurba_marseille","lat":43.2925,"lon":5.40899,"is_reserved":false,"is_disabled":false,"rental_uris":{"android":"levelo://app?vid=d78e51c4-ab7f-4b73-9857-4d7754e3215c","ios":"levelo://app?vid=d78e51c4-ab7f-4b73-9857-4d7754e3215c"},"vehicle_type_id":"4","last_reported":1735492029,"current_range_meters":22800,"station_id":"ce4bh192rcd13ifvqdc0","pricing_plan_id":"cebpf4jnsgd1na2vs0mg"},{"bike_id":"0f964104-751a-4834-9d4b-8ccb42f2b0d1","system_id":"levelo_inurba_marseille","lat":43.279186,"lon":5.395872,"is_reserved":false,"is_disabled":false,"rental_uris":{"android":"levelo://app?vid=0f964104-751a-4834-9d4b-8ccb42f2b0d1","ios":"levelo://app?vid=0f964104-751a-4834-9d4b-8ccb42f2b0d1"},"vehicle_type_id":"4","last_reported":1735492029,"current_range_meters":35600,"station_id":"ce4bhf92rcd13ifvqf40","pricing_plan_id":"cebpf4jnsgd1na2vs0mg"},{"bike_id":"5d22d4f6-c5a9-4ef2-8663-0ea09a357db3","system_id":"levelo_inurba_marseille","lat":43.27209,"lon":5.39177,"is_reserved":false,"is_disabled":false,"rental_uris":{"android":"levelo://app?vid=5d22d4f6-c5a9-4ef2-8663-0ea09a357db3","ios":"levelo://app?vid=5d22d4f6-c5a9-4ef2-8663-0ea09a357db3"},"vehicle_type_id":"4","last_reported":1735492029,"current_range_meters":38800,"station_id":"ce4bhhp2rcd13ifvqfm0","pricing_plan_id":"cebpf4jnsgd1na2vs0mg"},{"bike_id":"e23a7d55-7ce1-4f20-a71a-26c06c907d82","system_id":"levelo_inurba_marseille","lat":43.279493,"lon":5.410477,"is_reserved":false,"is_disabled":false,"rental_uris":{"android":"levelo://app?vid=e23a7d55-7ce1-4f20-a71a-26c06c907d82","ios":"levelo://app?vid=e23a7d55-7ce1-4f20-a71a-26c06c907d82"},"vehicle_type_id":"4","last_reported":1735492029,"current_range_meters":38000,"station_id":"ce4bhnp2rcd13ifvqh0g","pricing_plan_id":"cebpf4jnsgd1na2vs0mg"},{"bike_id":"b0c4d0d6-5451-4daa-af56-54957229db80","system_id":"levelo_inurba_marseille","lat":43.3234,"lon":5.3669,"is_reserved":false,"is_disabled":false,"rental_uris":{"android":"levelo://app?vid=b0c4d0d6-5451-4daa-af56-54957229db80","ios":"levelo://app?vid=b0c4d0d6-5451-4daa-af56-54957229db80"},"vehicle_type_id":"4","last_reported":1735492029,"current_range_meters":35600,"station_id":"","pricing_plan_id":"cebpf4jnsgd1na2vs0mg"},{"bike_id":"5367a292-5564-4681-91cd-97babb89fc00","system_id":"levelo_inurba_marseille","lat":43.22924,"lon":5.3537,"is_reserved":false,"is_disabled":false,"rental_uris":{"android":"levelo://app?vid=5367a292-5564-4681-91cd-97babb89fc00","ios":"levelo://app?vid=5367a292-5564-4681-91cd-97babb89fc00"},"vehicle_type_id":"4","last_reported":1735492029,"current_range_meters":35600,"station_id":"cpo3532slgdg3j2ikp40","pricing_plan_id":"cebpf4jnsgd1na2vs0mg"},{"bike_id":"778ae1d6-18b2-4f07-a710-06efb20d161f","system_id":"levelo_inurba_marseille","lat":43.3233,"lon":5.40621,"is_reserved":false,"is_disabled":false,"rental_uris":{"android":"levelo://app?vid=778ae1d6-18b2-4f07-a710-06efb20d161f","ios":"levelo://app?vid=778ae1d6-18b2-4f07-a710-06efb20d161f"},"vehicle_type_id":"4","last_reported":1735492029,"current_range_meters":22800,"station_id":"ce4bhq92rcd13ifvqhjg","pricing_plan_id":"cebpf4jnsgd1na2vs0mg"},{"bike_id":"0483d5a5-12c2-4b90-8e6c-47d6d5a4b82c","system_id":"levelo_inurba_marseille","lat":43.25824,"lon":5.39416,"is_reserved":false,"is_disabled":false,"rental_uris":{"android":"levelo://app?vid=0483d5a5-12c2-4b90-8e6c-47d6d5a4b82c","ios":"levelo://app?vid=0483d5a5-12c2-4b90-8e6c-47d6d5a4b82c"},"vehicle_type_id":"4","last_reported":1735492029,"current_range_meters":16400,"station_id":"ce4bhip2rcd13ifvqft0","pricing_plan_id":"cebpf4jnsgd1na2vs0mg"},{"bike_id":"07308ae1-bea8-48ff-879f-15b3edeb7a1a","system_id":"levelo_inurba_marseille","lat":43.28109,"lon":5.37826,"is_reserved":false,"is_disabled":false,"rental_uris":{"android":"levelo://app?vid=07308ae1-bea8-48ff-879f-15b3edeb7a1a","ios":"levelo://app?vid=07308ae1-bea8-48ff-879f-15b3edeb7a1a"},"vehicle_type_id":"4","last_reported":1735492029,"current_range_meters":35200,"station_id":"ce4bha12rcd13ifvqee0","pricing_plan_id":"cebpf4jnsgd1na2vs0mg"},{"bike_id":"6d3fdf6f-8293-4082-a9df-c68e04f690df","system_id":"levelo_inurba_marseille","lat":43.26199,"lon":5.37927,"is_reserved":false,"is_disabled":false,"rental_uris":{"android":"levelo://app?vid=6d3fdf6f-8293-4082-a9df-c68e04f690df","ios":"levelo://app?vid=6d3fdf6f-8293-4082-a9df-c68e04f690df"},"vehicle_type_id":"4","last_reported":1735492029,"current_range_meters":18800,"station_id":"ce4bhjp2rcd13ifvqg90","pricing_plan_id":"cebpf4jnsgd1na2vs0mg"},{"bike_id":"7c0ace64-49ff-46c5-99ef-7fa4db85a49e","system_id":"levelo_inurba_marseille","lat":43.32356,"lon":5.36748,"is_reserved":false,"is_disabled":false,"rental_uris":{"android":"levelo://app?vid=7c0ace64-49ff-46c5-99ef-7fa4db85a49e","ios":"levelo://app?vid=7c0ace64-49ff-46c5-99ef-7fa4db85a49e"},"vehicle_type_id":"4","last_reported":1735492029,"current_range_meters":19200,"station_id":"ce4bhsh2rcd13ifvqi2g","pricing_plan_id":"cebpf4jnsgd1na2vs0mg"},{"bike_id":"78200f69-6a9c-465c-b1dc-5d4539609389","system_id":"levelo_inurba_marseille","lat":43.28709,"lon":5.37382,"is_reserved":false,"is_disabled":false,"rental_uris":{"android":"levelo://app?vid=78200f69-6a9c-465c-b1dc-5d4539609389","ios":"levelo://app?vid=78200f69-6a9c-465c-b1dc-5d4539609389"},"vehicle_type_id":"4","last_reported":1735492029,"current_range_meters":14000,"station_id":"ce4bh3p2rcd13ifvqdq0","pricing_plan_id":"cebpf4jnsgd1na2vs0mg"},{"bike_id":"cd0f8fde-5dbd-4dfd-9841-71397d7c30f7","system_id":"levelo_inurba_marseille","lat":43.26091,"lon":5.37324,"is_reserved":false,"is_disabled":false,"rental_uris":{"android":"levelo://app?vid=cd0f8fde-5dbd-4dfd-9841-71397d7c30f7","ios":"levelo://app?vid=cd0f8fde-5dbd-4dfd-9841-71397d7c30f7"},"vehicle_type_id":"4","last_reported":1735492029,"current_range_meters":27600,"station_id":"","pricing_plan_id":"cebpf4jnsgd1na2vs0mg"},{"bike_id":"a8ed4535-9ac1-40e1-8792-f8893013f535","system_id":"levelo_inurba_marseille","lat":43.26549,"lon":5.37277,"is_reserved":false,"is_disabled":false,"rental_uris":{"android":"levelo://app?vid=a8ed4535-9ac1-40e1-8792-f8893013f535","ios":"levelo://app?vid=a8ed4535-9ac1-40e1-8792-f8893013f535"},"vehicle_type_id":"4","last_reported":1735492029,"current_range_meters":25200,"station_id":"ce4bhg12rcd13ifvqf70","pricing_plan_id":"cebpf4jnsgd1na2vs0mg"},{"bike_id":"6c30f754-d8e9-49eb-a61d-8345b813e83f","system_id":"levelo_inurba_marseille","lat":43.29975,"lon":5.38478,"is_reserved":false,"is_disabled":false,"rental_uris":{"android":"levelo://app?vid=6c30f754-d8e9-49eb-a61d-8345b813e83f","ios":"levelo://app?vid=6c30f754-d8e9-49eb-a61d-8345b813e83f"},"vehicle_type_id":"4","last_reported":1735492029,"current_range_meters":38800,"station_id":"ce4bgj92rcd13ifvqbd0","pricing_plan_id":"cebpf4jnsgd1na2vs0mg"},{"bike_id":"79c4e503-18a8-4eeb-88be-9bc7971aa5bb","system_id":"levelo_inurba_marseille","lat":43.26502,"lon":5.39525,"is_reserved":false,"is_disabled":false,"rental_uris":{"android":"levelo://app?vid=79c4e503-18a8-4eeb-88be-9bc7971aa5bb","ios":"levelo://app?vid=79c4e503-18a8-4eeb-88be-9bc7971aa5bb"},"vehicle_type_id":"4","last_reported":1735492029,"current_range_meters":0,"station_id":"ce4bhi12rcd13ifvqfq0","pricing_plan_id":"cebpf4jnsgd1na2vs0mg"},{"bike_id":"798eb5ba-861f-4564-8d21-3e47b7607c50","system_id":"levelo_inurba_marseille","lat":43.29071,"lon":5.37162,"is_reserved":false,"is_disabled":false,"rental_uris":{"android":"levelo://app?vid=798eb5ba-861f-4564-8d21-3e47b7607c50","ios":"levelo://app?vid=798eb5ba-861f-4564-8d21-3e47b7607c50"},"vehicle_type_id":"4","last_reported":1735492029,"current_range_meters":16000,"station_id":"ce4bh5p2rcd13ifvqe4g","pricing_plan_id":"cebpf4jnsgd1na2vs0mg"},{"bike_id":"ef82cf8d-c57f-4c30-a115-5fdfff825b64","system_id":"levelo_inurba_marseille","lat":43.29221,"lon":5.36065,"is_reserved":false,"is_disabled":false,"rental_uris":{"android":"levelo://app?vid=ef82cf8d-c57f-4c30-a115-5fdfff825b64","ios":"levelo://app?vid=ef82cf8d-c57f-4c30-a115-5fdfff825b64"},"vehicle_type_id":"4","last_reported":1735492029,"current_range_meters":21600,"station_id":"ce4bhbh2rcd13ifvqeqg","pricing_plan_id":"cebpf4jnsgd1na2vs0mg"},{"bike_id":"2e19126c-44cf-40bf-a549-dc01e1a05272","system_id":"levelo_inurba_marseille","lat":43.28416,"lon":5.37511,"is_reserved":false,"is_disabled":false,"rental_uris":{"android":"levelo://app?vid=2e19126c-44cf-40bf-a549-dc01e1a05272","ios":"levelo://app?vid=2e19126c-44cf-40bf-a549-dc01e1a05272"},"vehicle_type_id":"4","last_reported":1735492029,"current_range_meters":17200,"station_id":"ce4bh412rcd13ifvqds0","pricing_plan_id":"cebpf4jnsgd1na2vs0mg"},{"bike_id":"0e2a10e8-1d09-40cb-b6a8-755a537fb5b5","system_id":"levelo_inurba_marseille","lat":43.27987,"lon":5.41657,"is_reserved":false,"is_disabled":false,"rental_uris":{"android":"levelo://app?vid=0e2a10e8-1d09-40cb-b6a8-755a537fb5b5","ios":"levelo://app?vid=0e2a10e8-1d09-40cb-b6a8-755a537fb5b5"},"vehicle_type_id":"4","last_reported":1735492029,"current_range_meters":24400,"station_id":"ce4bho12rcd13ifvqh1g","pricing_plan_id":"cebpf4jnsgd1na2vs0mg"},{"bike_id":"942f8ae0-f6f5-42e2-980f-8bfebed0d611","system_id":"levelo_inurba_marseille","lat":43.3206,"lon":5.41542,"is_reserved":false,"is_disabled":false,"rental_uris":{"android":"levelo://app?vid=942f8ae0-f6f5-42e2-980f-8bfebed0d611","ios":"levelo://app?vid=942f8ae0-f6f5-42e2-980f-8bfebed0d611"},"vehicle_type_id":"4","last_reported":1735492029,"current_range_meters":37600,"station_id":"ce4bhq92rcd13ifvqhkg","pricing_plan_id":"cebpf4jnsgd1na2vs0mg"},{"bike_id":"dac94ecf-3203-4c89-acc0-21c14e979588","system_id":"levelo_inurba_marseille","lat":43.26681,"lon":5.38268,"is_reserved":false,"is_disabled":false,"rental_uris":{"android":"levelo://app?vid=dac94ecf-3203-4c89-acc0-21c14e979588","ios":"levelo://app?vid=dac94ecf-3203-4c89-acc0-21c14e979588"},"vehicle_type_id":"4","last_reported":1735492029,"current_range_meters":25600,"station_id":"ce4bhg92rcd13ifvqf90","pricing_plan_id":"cebpf4jnsgd1na2vs0mg"},{"bike_id":"91bb292a-df5c-4dce-bd7e-6647a12df4cd","system_id":"levelo_inurba_marseille","lat":43.269566,"lon":5.386339,"is_reserved":false,"is_disabled":false,"rental_uris":{"android":"levelo://app?vid=91bb292a-df5c-4dce-bd7e-6647a12df4cd","ios":"levelo://app?vid=91bb292a-df5c-4dce-bd7e-6647a12df4cd"},"vehicle_type_id":"4","last_reported":1735492029,"current_range_meters":38800,"station_id":"ce4bhh92rcd13ifvqfh0","pricing_plan_id":"cebpf4jnsgd1na2vs0mg"},{"bike_id":"dae442df-0334-4a2a-8901-28b38cfe10c7","system_id":"levelo_inurba_marseille","lat":43.23135,"lon":5.43704,"is_reserved":false,"is_disabled":false,"rental_uris":{"android":"levelo://app?vid=dae442df-0334-4a2a-8901-28b38cfe10c7","ios":"levelo://app?vid=dae442df-0334-4a2a-8901-28b38cfe10c7"},"vehicle_type_id":"4","last_reported":1735492029,"current_range_meters":24000,"station_id":"ce4bhmp2rcd13ifvqgog","pricing_plan_id":"cebpf4jnsgd1na2vs0mg"},{"bike_id":"d787e330-e288-4e1c-926a-5bcb7a236ca2","system_id":"levelo_inurba_marseille","lat":43.28151,"lon":5.42644,"is_reserved":false,"is_disabled":false,"rental_uris":{"android":"levelo://app?vid=d787e330-e288-4e1c-926a-5bcb7a236ca2","ios":"levelo://app?vid=d787e330-e288-4e1c-926a-5bcb7a236ca2"},"vehicle_type_id":"4","last_reported":1735492029,"current_range_meters":24000,"station_id":"ce4bhnh2rcd13ifvqgug","pricing_plan_id":"cebpf4jnsgd1na2vs0mg"},{"bike_id":"ca42594c-4c0a-4080-98d3-9312d00d8df7","system_id":"levelo_inurba_marseille","lat":43.23073,"lon":5.35478,"is_reserved":false,"is_disabled":false,"rental_uris":{"android":"levelo://app?vid=ca42594c-4c0a-4080-98d3-9312d00d8df7","ios":"levelo://app?vid=ca42594c-4c0a-4080-98d3-9312d00d8df7"},"vehicle_type_id":"4","last_reported":1735492029,"current_range_meters":38000,"station_id":"cpo3342slgdg3j2ifvpg","pricing_plan_id":"cebpf4jnsgd1na2vs0mg"},{"bike_id":"5af48ed4-70be-4d97-acf2-82d6f3c0b2fb","system_id":"levelo_inurba_marseille","lat":43.31728,"lon":5.37763,"is_reserved":false,"is_disabled":true,"rental_uris":{"android":"levelo://app?vid=5af48ed4-70be-4d97-acf2-82d6f3c0b2fb","ios":"levelo://app?vid=5af48ed4-70be-4d97-acf2-82d6f3c0b2fb"},"vehicle_type_id":"4","last_reported":1735492029,"current_range_meters":36800,"station_id":"ce4bgth2rcd13ifvqch0","pricing_plan_id":"cebpf4jnsgd1na2vs0mg"},{"bike_id":"494d9e5b-e33f-4bbf-988e-4ba7f5a0bf5d","system_id":"levelo_inurba_marseille","lat":43.23146,"lon":5.43709,"is_reserved":false,"is_disabled":false,"rental_uris":{"android":"levelo://app?vid=494d9e5b-e33f-4bbf-988e-4ba7f5a0bf5d","ios":"levelo://app?vid=494d9e5b-e33f-4bbf-988e-4ba7f5a0bf5d"},"vehicle_type_id":"4","last_reported":1735492029,"current_range_meters":28400,"station_id":"ce4bhmp2rcd13ifvqgog","pricing_plan_id":"cebpf4jnsgd1na2vs0mg"},{"bike_id":"6b1fdb50-c2ab-41e8-a54e-ffd965336f32","system_id":"levelo_inurba_marseille","lat":43.30565,"lon":5.3655,"is_reserved":false,"is_disabled":false,"rental_uris":{"android":"levelo://app?vid=6b1fdb50-c2ab-41e8-a54e-ffd965336f32","ios":"levelo://app?vid=6b1fdb50-c2ab-41e8-a54e-ffd965336f32"},"vehicle_type_id":"4","last_reported":1735492029,"current_range_meters":18800,"station_id":"ce4bgs12rcd13ifvqcag","pricing_plan_id":"cebpf4jnsgd1na2vs0mg"},{"bike_id":"9c5bca43-a233-42d3-afe6-7aaa0033f973","system_id":"levelo_inurba_marseille","lat":43.31717,"lon":5.37749,"is_reserved":false,"is_disabled":true,"rental_uris":{"android":"levelo://app?vid=9c5bca43-a233-42d3-afe6-7aaa0033f973","ios":"levelo://app?vid=9c5bca43-a233-42d3-afe6-7aaa0033f973"},"vehicle_type_id":"4","last_reported":1735492029,"current_range_meters":12400,"station_id":"ce4bgth2rcd13ifvqch0","pricing_plan_id":"cebpf4jnsgd1na2vs0mg"},{"bike_id":"5e57eef6-8100-463f-8b9f-a736bec4d03f","system_id":"levelo_inurba_marseille","lat":43.26959,"lon":5.38628,"is_reserved":false,"is_disabled":false,"rental_uris":{"android":"levelo://app?vid=5e57eef6-8100-463f-8b9f-a736bec4d03f","ios":"levelo://app?vid=5e57eef6-8100-463f-8b9f-a736bec4d03f"},"vehicle_type_id":"4","last_reported":1735492029,"current_range_meters":26000,"station_id":"ce4bhh92rcd13ifvqfh0","pricing_plan_id":"cebpf4jnsgd1na2vs0mg"},{"bike_id":"54d6e866-278e-420d-98d6-ccb9d5a2b8b8","system_id":"levelo_inurba_marseille","lat":43.27967,"lon":5.38742,"is_reserved":false,"is_disabled":false,"rental_uris":{"android":"levelo://app?vid=54d6e866-278e-420d-98d6-ccb9d5a2b8b8","ios":"levelo://app?vid=54d6e866-278e-420d-98d6-ccb9d5a2b8b8"},"vehicle_type_id":"4","last_reported":1735492029,"current_range_meters":39200,"station_id":"ce4bhg12rcd13ifvqf80","pricing_plan_id":"cebpf4jnsgd1na2vs0mg"},{"bike_id":"096696da-a61e-4d8e-8e44-bc4ce3af0a5e","system_id":"levelo_inurba_marseille","lat":43.29615,"lon":5.37717,"is_reserved":false,"is_disabled":false,"rental_uris":{"android":"levelo://app?vid=096696da-a61e-4d8e-8e44-bc4ce3af0a5e","ios":"levelo://app?vid=096696da-a61e-4d8e-8e44-bc4ce3af0a5e"},"vehicle_type_id":"4","last_reported":1735492029,"current_range_meters":4000,"station_id":"ce4bgi92rcd13ifvqb90","pricing_plan_id":"cebpf4jnsgd1na2vs0mg"},{"bike_id":"61e76abb-4f45-432f-b11c-8efbc3b7479f","system_id":"levelo_inurba_marseille","lat":43.31493,"lon":5.37309,"is_reserved":false,"is_disabled":false,"rental_uris":{"android":"levelo://app?vid=61e76abb-4f45-432f-b11c-8efbc3b7479f","ios":"levelo://app?vid=61e76abb-4f45-432f-b11c-8efbc3b7479f"},"vehicle_type_id":"4","last_reported":1735492029,"current_range_meters":36800,"station_id":"ce4bgt12rcd13ifvqcd0","pricing_plan_id":"cebpf4jnsgd1na2vs0mg"},{"bike_id":"debe4ffd-6b29-4ad9-a18b-9270aa40f009","system_id":"levelo_inurba_marseille","lat":43.31224,"lon":5.36847,"is_reserved":false,"is_disabled":false,"rental_uris":{"android":"levelo://app?vid=debe4ffd-6b29-4ad9-a18b-9270aa40f009","ios":"levelo://app?vid=debe4ffd-6b29-4ad9-a18b-9270aa40f009"},"vehicle_type_id":"4","last_reported":1735492029,"current_range_meters":8400,"station_id":"ce4bgl92rcd13ifvqbq0","pricing_plan_id":"cebpf4jnsgd1na2vs0mg"},{"bike_id":"95558d69-b7ab-4481-8bab-7de4df498d07","system_id":"levelo_inurba_marseille","lat":43.30433,"lon":5.389,"is_reserved":false,"is_disabled":false,"rental_uris":{"android":"levelo://app?vid=95558d69-b7ab-4481-8bab-7de4df498d07","ios":"levelo://app?vid=95558d69-b7ab-4481-8bab-7de4df498d07"},"vehicle_type_id":"4","last_reported":1735492029,"current_range_meters":20000,"station_id":"ce4bgk12rcd13ifvqbi0","pricing_plan_id":"cebpf4jnsgd1na2vs0mg"},{"bike_id":"65a7e464-753f-4ff0-9194-44f276092182","system_id":"levelo_inurba_marseille","lat":43.29906,"lon":5.38129,"is_reserved":false,"is_disabled":false,"rental_uris":{"android":"levelo://app?vid=65a7e464-753f-4ff0-9194-44f276092182","ios":"levelo://app?vid=65a7e464-753f-4ff0-9194-44f276092182"},"vehicle_type_id":"4","last_reported":1735492029,"current_range_meters":33200,"station_id":"ce4bgj12rcd13ifvqbc0","pricing_plan_id":"cebpf4jnsgd1na2vs0mg"},{"bike_id":"02b9add3-b2ad-4da3-a2b5-ca50c17787bd","system_id":"levelo_inurba_marseille","lat":43.30434,"lon":5.38888,"is_reserved":false,"is_disabled":false,"rental_uris":{"android":"levelo://app?vid=02b9add3-b2ad-4da3-a2b5-ca50c17787bd","ios":"levelo://app?vid=02b9add3-b2ad-4da3-a2b5-ca50c17787bd"},"vehicle_type_id":"4","last_reported":1735492029,"current_range_meters":6800,"station_id":"ce4bgk12rcd13ifvqbi0","pricing_plan_id":"cebpf4jnsgd1na2vs0mg"},{"bike_id":"da24cdde-8fde-46aa-9ecd-3a8a0cc73c3e","system_id":"levelo_inurba_marseille","lat":43.2928,"lon":5.36851,"is_reserved":false,"is_disabled":false,"rental_uris":{"android":"levelo://app?vid=da24cdde-8fde-46aa-9ecd-3a8a0cc73c3e","ios":"levelo://app?vid=da24cdde-8fde-46aa-9ecd-3a8a0cc73c3e"},"vehicle_type_id":"4","last_reported":1735492029,"current_range_meters":26000,"station_id":"ce4bhbp2rcd13ifvqesg","pricing_plan_id":"cebpf4jnsgd1na2vs0mg"},{"bike_id":"ae4b4a65-d563-4d47-8653-d5cbc8105ac3","system_id":"levelo_inurba_marseille","lat":43.28932,"lon":5.36637,"is_reserved":false,"is_disabled":false,"rental_uris":{"android":"levelo://app?vid=ae4b4a65-d563-4d47-8653-d5cbc8105ac3","ios":"levelo://app?vid=ae4b4a65-d563-4d47-8653-d5cbc8105ac3"},"vehicle_type_id":"4","last_reported":1735492029,"current_range_meters":20400,"station_id":"ce4bhap2rcd13ifvqek0","pricing_plan_id":"cebpf4jnsgd1na2vs0mg"},{"bike_id":"b8feb562-9ac0-4974-8ba7-4af547dd85da","system_id":"levelo_inurba_marseille","lat":43.26061,"lon":5.39396,"is_reserved":false,"is_disabled":false,"rental_uris":{"android":"levelo://app?vid=b8feb562-9ac0-4974-8ba7-4af547dd85da","ios":"levelo://app?vid=b8feb562-9ac0-4974-8ba7-4af547dd85da"},"vehicle_type_id":"4","last_reported":1735492029,"current_range_meters":38800,"station_id":"ce4bhh92rcd13ifvqfj0","pricing_plan_id":"cebpf4jnsgd1na2vs0mg"},{"bike_id":"09dd674f-0824-45db-a549-43da6d957116","system_id":"levelo_inurba_marseille","lat":43.25714,"lon":5.41114,"is_reserved":false,"is_disabled":false,"rental_uris":{"android":"levelo://app?vid=09dd674f-0824-45db-a549-43da6d957116","ios":"levelo://app?vid=09dd674f-0824-45db-a549-43da6d957116"},"vehicle_type_id":"4","last_reported":1735492029,"current_range_meters":38800,"station_id":"ce4bhkp2rcd13ifvqgd0","pricing_plan_id":"cebpf4jnsgd1na2vs0mg"},{"bike_id":"9c23e948-b0b6-4445-98a0-8bd27d2df0e4","system_id":"levelo_inurba_marseille","lat":43.28941,"lon":5.36635,"is_reserved":false,"is_disabled":false,"rental_uris":{"android":"levelo://app?vid=9c23e948-b0b6-4445-98a0-8bd27d2df0e4","ios":"levelo://app?vid=9c23e948-b0b6-4445-98a0-8bd27d2df0e4"},"vehicle_type_id":"4","last_reported":1735492029,"current_range_meters":38000,"station_id":"ce4bhap2rcd13ifvqek0","pricing_plan_id":"cebpf4jnsgd1na2vs0mg"},{"bike_id":"83830a46-f3a4-4506-b996-32d3c1a80099","system_id":"levelo_inurba_marseille","lat":43.27989,"lon":5.40027,"is_reserved":false,"is_disabled":false,"rental_uris":{"android":"levelo://app?vid=83830a46-f3a4-4506-b996-32d3c1a80099","ios":"levelo://app?vid=83830a46-f3a4-4506-b996-32d3c1a80099"},"vehicle_type_id":"4","last_reported":1735492029,"current_range_meters":15200,"station_id":"ce4bho92rcd13ifvqh4g","pricing_plan_id":"cebpf4jnsgd1na2vs0mg"},{"bike_id":"0d77dad9-40e6-46fd-927c-7aa38142ccca","system_id":"levelo_inurba_marseille","lat":43.30546,"lon":5.36558,"is_reserved":false,"is_disabled":false,"rental_uris":{"android":"levelo://app?vid=0d77dad9-40e6-46fd-927c-7aa38142ccca","ios":"levelo://app?vid=0d77dad9-40e6-46fd-927c-7aa38142ccca"},"vehicle_type_id":"4","last_reported":1735492029,"current_range_meters":30000,"station_id":"ce4bgs12rcd13ifvqcag","pricing_plan_id":"cebpf4jnsgd1na2vs0mg"},{"bike_id":"c7a16261-fcab-4d31-9a7c-3b5289d9e38c","system_id":"levelo_inurba_marseille","lat":43.2731,"lon":5.39085,"is_reserved":false,"is_disabled":false,"rental_uris":{"android":"levelo://app?vid=c7a16261-fcab-4d31-9a7c-3b5289d9e38c","ios":"levelo://app?vid=c7a16261-fcab-4d31-9a7c-3b5289d9e38c"},"vehicle_type_id":"4","last_reported":1735492029,"current_range_meters":39200,"station_id":"ce4bhgp2rcd13ifvqfe0","pricing_plan_id":"cebpf4jnsgd1na2vs0mg"},{"bike_id":"a70020e2-66d2-4d73-a940-5666f17f602a","system_id":"levelo_inurba_marseille","lat":43.30432,"lon":5.38884,"is_reserved":false,"is_disabled":false,"rental_uris":{"android":"levelo://app?vid=a70020e2-66d2-4d73-a940-5666f17f602a","ios":"levelo://app?vid=a70020e2-66d2-4d73-a940-5666f17f602a"},"vehicle_type_id":"4","last_reported":1735492029,"current_range_meters":22800,"station_id":"ce4bgk12rcd13ifvqbi0","pricing_plan_id":"cebpf4jnsgd1na2vs0mg"},{"bike_id":"5fa2bc43-7c81-45c6-a7af-9e700d12d05b","system_id":"levelo_inurba_marseille","lat":43.30908,"lon":5.36855,"is_reserved":false,"is_disabled":false,"rental_uris":{"android":"levelo://app?vid=5fa2bc43-7c81-45c6-a7af-9e700d12d05b","ios":"levelo://app?vid=5fa2bc43-7c81-45c6-a7af-9e700d12d05b"},"vehicle_type_id":"4","last_reported":1735492029,"current_range_meters":34000,"station_id":"ce4bgn92rcd13ifvqbvg","pricing_plan_id":"cebpf4jnsgd1na2vs0mg"},