{"last_updated":1726484854,"ttl":30,"version":"2.2","data":{"bikes":[{"bike_id":"6b6f298a-5b0d-4a82-a490-9e05814ad9ae","system_id":"levelo_inurba_marseille","lat":43.289362,"lon":5.366539,"is_reserved":false,"is_disabled":false,"rental_uris":{"android":"levelo://app?vid=6b6f298a-5b0d-4a82-a490-9e05814ad9ae","ios":"levelo://app?vid=6b6f298a-5b0d-4a82-a490-9e05814ad9ae"},"vehicle_type_id":"4","last_reported":1726484854,"current_range_meters":32000,"station_id":"ce4bhap2rcd13ifvqek0","pricing_plan_id":"cebpf4jnsgd1na2vs0mg"},{"bike_id":"2251ec2c-c99e-4854-ae0e-c7ddfba2f82e","system_id":"levelo_inurba_marseille","lat":43.31084,"lon":5.42436,"is_reserved":false,"is_disabled":false,"rental_uris":{"android":"levelo://app?vid=2251ec2c-c99e-4854-ae0e-c7ddfba2f82e","ios":"levelo://app?vid=2251ec2c-c99e-4854-ae0e-c7ddfba2f82e"},"vehicle_type_id":"4","last_reported":1726484854,"current_range_meters":27600,"station_id":"ce4bhp92rcd13ifvqhag","pricing_plan_id":"cebpf4jnsgd1na2vs0mg"},{"bike_id":"13fbdcc2-5d8c-4af4-8cd3-27b778bab98c","system_id":"levelo_inurba_marseille","lat":43.28266,"lon":5.35064,"is_reserved":false,"is_disabled":false,"rental_uris":{"android":"levelo://app?vid=13fbdcc2-5d8c-4af4-8cd3-27b778bab98c","ios":"levelo://app?vid=13fbdcc2-5d8c-4af4-8cd3-27b778bab98c"},"vehicle_type_id":"4","last_reported":1726484854,"current_range_meters":38800,"station_id":"ce4bhbp2rcd13ifvqerg","pricing_plan_id":"cebpf4jnsgd1na2vs0mg"},{"bike_id":"ccb4e967-1076-49fe-b7cc-dc31f4db84c3","system_id":"levelo_inurba_marseille","lat":43.28614,"lon":5.37066,"is_reserved":false,"is_disabled":false,"rental_uris":{"android":"levelo://app?vid=ccb4e967-1076-49fe-b7cc-dc31f4db84c3","ios":"levelo://app?vid=ccb4e967-1076-49fe-b7cc-dc31f4db84c3"},"vehicle_type_id":"4","last_reported":1726484854,"current_range_meters":34000,"station_id":"ce4bht12rcd13ifvqi60","pricing_plan_id":"cebpf4jnsgd1na2vs0mg"},{"bike_id":"8fbbab3a-6f2a-4cfe-b5d6-d805834de86b","system_id":"levelo_inurba_marseille","lat":43.28149,"lon":5.42662,"is_reserved":false,"is_disabled":false,"rental_uris":{"android":"levelo://app?vid=8fbbab3a-6f2a-4cfe-b5d6-d805834de86b","ios":"levelo://app?vid=8fbbab3a-6f2a-4cfe-b5d6-d805834de86b"},"vehicle_type_id":"4","last_reported":1726484854,"current_range_meters":36400,"station_id":"ce4bhnh2rcd13ifvqgug","pricing_plan_id":"cebpf4jnsgd1na2vs0mg"},{"bike_id":"2595b909-de2e-47ed-84ff-5d929ae3436b","system_id":"levelo_inurba_marseille","lat":43.29964,"lon":5.41319,"is_reserved":false,"is_disabled":false,"rental_uris":{"android":"levelo://app?vid=2595b909-de2e-47ed-84ff-5d929ae3436b","ios":"levelo://app?vid=2595b909-de2e-47ed-84ff-5d929ae3436b"},"vehicle_type_id":"4","last_reported":1726484854,"current_range_meters":22000,"station_id":"ce4bhp12rcd13ifvqh9g","pricing_plan_id":"cebpf4jnsgd1na2vs0mg"},{"bike_id":"51114a7b-6ee8-4c76-b599-70b8d3626464","system_id":"levelo_inurba_marseille","lat":43.29792,"lon":5.39347,"is_reserved":false,"is_disabled":false,"rental_uris":{"android":"levelo://app?vid=51114a7b-6ee8-4c76-b599-70b8d3626464","ios":"levelo://app?vid=51114a7b-6ee8-4c76-b599-70b8d3626464"},"vehicle_type_id":"4","last_reported":1726484854,"current_range_meters":32800,"station_id":"chh1huq6cuj3fo74tm60","pricing_plan_id":"cebpf4jnsgd1na2vs0mg"},{"bike_id":"ee11019e-142f-4949-a4b4-7b22808fe2f6","system_id":"levelo_inurba_marseille","lat":43.292233,"lon":5.392684,"is_reserved":false,"is_disabled":false,"rental_uris":{"android":"levelo://app?vid=ee11019e-142f-4949-a4b4-7b22808fe2f6","ios":"levelo://app?vid=ee11019e-142f-4949-a4b4-7b22808fe2f6"},"vehicle_type_id":"4","last_reported":1726484854,"current_range_meters":3200,"station_id":"ce4bh192rcd13ifvqdd0","pricing_plan_id":"cebpf4jnsgd1na2vs0mg"},{"bike_id":"8661cdbd-539b-4736-96ae-3b29c9f34a0b","system_id":"levelo_inurba_marseille","lat":43.24075,"lon":5.37753,"is_reserved":false,"is_disabled":false,"rental_uris":{"android":"levelo://app?vid=8661cdbd-539b-4736-96ae-3b29c9f34a0b","ios":"levelo://app?vid=8661cdbd-539b-4736-96ae-3b29c9f34a0b"},"vehicle_type_id":"4","last_reported":1726484854,"current_range_meters":3200,"station_id":"ce4bhnp2rcd13ifvqgvg","pricing_plan_id":"cebpf4jnsgd1na2vs0mg"},{"bike_id":"71f56d44-d481-482a-96e4-034b1835e410","system_id":"levelo_inurba_marseille","lat":43.29271,"lon":5.36846,"is_reserved":false,"is_disabled":false,"rental_uris":{"android":"levelo://app?vid=71f56d44-d481-482a-96e4-034b1835e410","ios":"levelo://app?vid=71f56d44-d481-482a-96e4-034b1835e410"},"vehicle_type_id":"4","last_reported":1726484854,"current_range_meters":30000,"station_id":"ce4bhbp2rcd13ifvqesg","pricing_plan_id":"cebpf4jnsgd1na2vs0mg"},{"bike_id":"c6d471b4-dc3f-4486-bc8e-9d99790006c6","system_id":"levelo_inurba_marseille","lat":43.25116,"lon":5.4032,"is_reserved":false,"is_disabled":false,"rental_uris":{"android":"levelo://app?vid=c6d471b4-dc3f-4486-bc8e-9d99790006c6","ios":"levelo://app?vid=c6d471b4-dc3f-4486-bc8e-9d99790006c6"},"vehicle_type_id":"4","last_reported":1726484854,"current_range_meters":24000,"station_id":"ce4bhlh2rcd13ifvqgig","pricing_plan_id":"cebpf4jnsgd1na2vs0mg"},{"bike_id":"745372a4-a054-4792-af58-9a704a4dfeba","system_id":"levelo_inurba_marseille","lat":43.22934,"lon":5.35378,"is_reserved":false,"is_disabled":false,"rental_uris":{"android":"levelo://app?vid=745372a4-a054-4792-af58-9a704a4dfeba","ios":"levelo://app?vid=745372a4-a054-4792-af58-9a704a4dfeba"},"vehicle_type_id":"4","last_reported":1726484854,"current_range_meters":20000,"station_id":"ce4bha12rcd13ifvqee0","pricing_plan_id":"cebpf4jnsgd1na2vs0mg"},{"bike_id":"399d5ca3-f4a1-4813-bcb2-424bd1414aa0","system_id":"levelo_inurba_marseille","lat":43.24078,"lon":5.37757,"is_reserved":false,"is_disabled":false,"rental_uris":{"android":"levelo://app?vid=399d5ca3-f4a1-4813-bcb2-424bd1414aa0","ios":"levelo://app?vid=399d5ca3-f4a1-4813-bcb2-424bd1414aa0"},"vehicle_type_id":"4","last_reported":1726484854,"current_range_meters":16400,"station_id":"ce4bhnp2rcd13ifvqgvg","pricing_plan_id":"cebpf4jnsgd1na2vs0mg"},{"bike_id":"13ec4916-f0ea-4897-8afc-596425b42c42","system_id":"levelo_inurba_marseille","lat":43.23194,"lon":5.35559,"is_reserved":false,"is_disabled":false,"rental_uris":{"android":"levelo://app?vid=13ec4916-f0ea-4897-8afc-596425b42c42","ios":"levelo://app?vid=13ec4916-f0ea-4897-8afc-596425b42c42"},"vehicle_type_id":"4","last_reported":1726484854,"current_range_meters":16400,"station_id":"ce4bhu92rcd13ifvqi70","pricing_plan_id":"cebpf4jnsgd1na2vs0mg"},{"bike_id":"e8549387-9deb-4f66-b733-a7cdaa0db866","system_id":"levelo_inurba_marseille","lat":43.33024,"lon":5.39025,"is_reserved":false,"is_disabled":false,"rental_uris":{"android":"levelo://app?vid=e8549387-9deb-4f66-b733-a7cdaa0db866","ios":"levelo://app?vid=e8549387-9deb-4f66-b733-a7cdaa0db866"},"vehicle_type_id":"4","last_reported":1726484854,"current_range_meters":10800,"station_id":"ce4bhr92rcd13ifvqhrg","pricing_plan_id":"cebpf4jnsgd1na2vs0mg"},{"bike_id":"8603e187-f5e8-4e43-9383-dd9a61b59109","system_id":"levelo_inurba_marseille","lat":43.33024,"lon":5.39036,"is_reserved":false,"is_disabled":false,"rental_uris":{"android":"levelo://app?vid=8603e187-f5e8-4e43-9383-dd9a61b59109","ios":"levelo://app?vid=8603e187-f5e8-4e43-9383-dd9a61b59109"},"vehicle_type_id":"4","last_reported":1726484854,"current_range_meters":6400,"station_id":"ce4bhr92rcd13ifvqhrg","pricing_plan_id":"cebpf4jnsgd1na2vs0mg"},{"bike_id":"bf881f84-1ceb-4933-928f-0e749e329d22","system_id":"levelo_inurba_marseille","lat":43.24084,"lon":5.37744,"is_reserved":false,"is_disabled":false,"rental_uris":{"android":"levelo://app?vid=bf881f84-1ceb-4933-928f-0e749e329d22","ios":"levelo://app?vid=bf881f84-1ceb-4933-928f-0e749e329d22"},"vehicle_type_id":"4","last_reported":1726484854,"current_range_meters":27600,"station_id":"ce4bhnp2rcd13ifvqgvg","pricing_plan_id":"cebpf4jnsgd1na2vs0mg"},{"bike_id":"974bfb17-6e55-4af3-b144-8511448dfdc0","system_id":"levelo_inurba_marseille","lat":43.29917,"lon":5.3747,"is_reserved":false,"is_disabled":false,"rental_uris":{"android":"levelo://app?vid=974bfb17-6e55-4af3-b144-8511448dfdc0","ios":"levelo://app?vid=974bfb17-6e55-4af3-b144-8511448dfdc0"},"vehicle_type_id":"4","last_reported":1726484854,"current_range_meters":22800,"station_id":"ce4bgjh2rcd13ifvqbg0","pricing_plan_id":"cebpf4jnsgd1na2vs0mg"},{"bike_id":"57b87d5c-c819-4ef6-97b0-dab8fd8c8e55","system_id":"levelo_inurba_marseille","lat":43.24083,"lon":5.37746,"is_reserved":false,"is_disabled":false,"rental_uris":{"android":"levelo://app?vid=57b87d5c-c819-4ef6-97b0-dab8fd8c8e55","ios":"levelo://app?vid=57b87d5c-c819-4ef6-97b0-dab8fd8c8e55"},"vehicle_type_id":"4","last_reported":1726484854,"current_range_meters":36800,"station_id":"ce4bhnp2rcd13ifvqgvg","pricing_plan_id":"cebpf4jnsgd1na2vs0mg"},{"bike_id":"4b50da8d-ea89-48f2-875b-75d59dcafa4f","system_id":"levelo_inurba_marseille","lat":43.32488,"lon":5.36565,"is_reserved":false,"is_disabled":false,"rental_uris":{"android":"levelo://app?vid=4b50da8d-ea89-48f2-875b-75d59dcafa4f","ios":"levelo://app?vid=4b50da8d-ea89-48f2-875b-75d59dcafa4f"},"vehicle_type_id":"4","last_reported":1726484854,"current_range_meters":37600,"station_id":"ce4bhs12rcd13ifvqhvg","pricing_plan_id":"cebpf4jnsgd1na2vs0mg"},{"bike_id":"5b811a2a-b96a-4df6-a464-81697083e4d1","system_id":"levelo_inurba_marseille","lat":43.23189,"lon":5.3998,"is_reserved":false,"is_disabled":false,"rental_uris":{"android":"levelo://app?vid=5b811a2a-b96a-4df6-a464-81697083e4d1","ios":"levelo://app?vid=5b811a2a-b96a-4df6-a464-81697083e4d1"},"vehicle_type_id":"4","last_reported":1726484854,"current_range_meters":29600,"station_id":"ce4bhn12rcd13ifvqgqg","pricing_plan_id":"cebpf4jnsgd1na2vs0mg"},{"bike_id":"df4dacfb-a452-4437-88ab-31631f7f5e56","system_id":"levelo_inurba_marseille","lat":43.2799,"lon":5.41666,"is_reserved":false,"is_disabled":false,"rental_uris":{"android":"levelo://app?vid=df4dacfb-a452-4437-88ab-31631f7f5e56","ios":"levelo://app?vid=df4dacfb-a452-4437-88ab-31631f7f5e56"},"vehicle_type_id":"4","last_reported":1726484854,"current_range_meters":36000,"station_id":"ce4bho12rcd13ifvqh1g","pricing_plan_id":"cebpf4jnsgd1na2vs0mg"},{"bike_id":"74c67d55-8a5f-40c9-8066-d68354718f8c","system_id":"levelo_inurba_marseille","lat":43.23192,"lon":5.35558,"is_reserved":false,"is_disabled":false,"rental_uris":{"android":"levelo://app?vid=74c67d55-8a5f-40c9-8066-d68354718f8c","ios":"levelo://app?vid=74c67d55-8a5f-40c9-8066-d68354718f8c"},"vehicle_type_id":"4","last_reported":1726484854,"current_range_meters":14000,"station_id":"ce4bhu92rcd13ifvqi70","pricing_plan_id":"cebpf4jnsgd1na2vs0mg"},{"bike_id":"347c4d00-be62-486d-946b-513151545bf3","system_id":"levelo_inurba_marseille","lat":43.24082,"lon":5.37754,"is_reserved":false,"is_disabled":false,"rental_uris":{"android":"levelo://app?vid=347c4d00-be62-486d-946b-513151545bf3","ios":"levelo://app?vid=347c4d00-be62-486d-946b-513151545bf3"},"vehicle_type_id":"4","last_reported":1726484854,"current_range_meters":23200,"station_id":"ce4bhnp2rcd13ifvqgvg","pricing_plan_id":"cebpf4jnsgd1na2vs0mg"},{"bike_id":"6f6286a0-3f23-4827-ac0c-19bc9c45b4f3","system_id":"levelo_inurba_marseille","lat":43.33752,"lon":5.37433,"is_reserved":false,"is_disabled":false,"rental_uris":{"android":"levelo://app?vid=6f6286a0-3f23-4827-ac0c-19bc9c45b4f3","ios":"levelo://app?vid=6f6286a0-3f23-4827-ac0c-19bc9c45b4f3"},"vehicle_type_id":"4","last_reported":1726484854,"current_range_meters":14400,"station_id":"","pricing_plan_id":"cebpf4jnsgd1na2vs0mg"},{"bike_id":"92579b64-c1b7-475d-a212-658fe2b5eb98","system_id":"levelo_inurba_marseille","lat":43.30321,"lon":5.40442,"is_reserved":false,"is_disabled":false,"rental_uris":{"android":"levelo://app?vid=92579b64-c1b7-475d-a212-658fe2b5eb98","ios":"levelo://app?vid=92579b64-c1b7-475d-a212-658fe2b5eb98"},"vehicle_type_id":"4","last_reported":1726484854,"current_range_meters":38800,"station_id":"ce4bh012rcd13ifvqd10","pricing_plan_id":"cebpf4jnsgd1na2vs0mg"},{"bike_id":"cd3f1613-d300-4f20-962e-30da3aec52c3","system_id":"levelo_inurba_marseille","lat":43.32659,"lon":5.40991,"is_reserved":false,"is_disabled":false,"rental_uris":{"android":"levelo://app?vid=cd3f1613-d300-4f20-962e-30da3aec52c3","ios":"levelo://app?vid=cd3f1613-d300-4f20-962e-30da3aec52c3"},"vehicle_type_id":"4","last_reported":1726484854,"current_range_meters":14800,"station_id":"ce4bhpp2rcd13ifvqhgg","pricing_plan_id":"cebpf4jnsgd1na2vs0mg"},{"bike_id":"997cf817-130c-4d08-9a2e-aea2dac63382","system_id":"levelo_inurba_marseille","lat":43.29562,"lon":5.42285,"is_reserved":false,"is_disabled":false,"rental_uris":{"android":"levelo://app?vid=997cf817-130c-4d08-9a2e-aea2dac63382","ios":"levelo://app?vid=997cf817-130c-4d08-9a2e-aea2dac63382"},"vehicle_type_id":"4","last_reported":1726484854,"current_range_meters":38000,"station_id":"ce4bhph2rcd13ifvqhdg","pricing_plan_id":"cebpf4jnsgd1na2vs0mg"},{"bike_id":"49188faa-6613-4270-96cb-eac0825cbc22","system_id":"levelo_inurba_marseille","lat":43.25087,"lon":5.39523,"is_reserved":false,"is_disabled":false,"rental_uris":{"android":"levelo://app?vid=49188faa-6613-4270-96cb-eac0825cbc22","ios":"levelo://app?vid=49188faa-6613-4270-96cb-eac0825cbc22"},"vehicle_type_id":"4","last_reported":1726484854,"current_range_meters":36800,"station_id":"ce4bhm12rcd13ifvqgkg","pricing_plan_id":"cebpf4jnsgd1na2vs0mg"},{"bike_id":"276a48c8-c772-446c-9c18-f6d0e28a6d55","system_id":"levelo_inurba_marseille","lat":43.29724,"lon":5.37696,"is_reserved":false,"is_disabled":false,"rental_uris":{"android":"levelo://app?vid=276a48c8-c772-446c-9c18-f6d0e28a6d55","ios":"levelo://app?vid=276a48c8-c772-446c-9c18-f6d0e28a6d55"},"vehicle_type_id":"4","last_reported":1726484854,"current_range_meters":28400,"station_id":"ce4bgr92rcd13ifvqc7g","pricing_plan_id":"cebpf4jnsgd1na2vs0mg"},{"bike_id":"e38fa710-afcd-4830-a086-774866016fc0","system_id":"levelo_inurba_marseille","lat":43.29042,"lon":5.3996,"is_reserved":false,"is_disabled":false,"rental_uris":{"android":"levelo://app?vid=e38fa710-afcd-4830-a086-774866016fc0","ios":"levelo://app?vid=e38fa710-afcd-4830-a086-774866016fc0"},"vehicle_type_id":"4","last_reported":1726484854,"current_range_meters":8400,"station_id":"ce4bh392rcd13ifvqdm0","pricing_plan_id":"cebpf4jnsgd1na2vs0mg"},{"bike_id":"de926bf7-1295-43c0-8367-941524b67039","system_id":"levelo_inurba_marseille","lat":43.24077,"lon":5.37755,"is_reserved":false,"is_disabled":false,"rental_uris":{"android":"levelo://app?vid=de926bf7-1295-43c0-8367-941524b67039","ios":"levelo://app?vid=de926bf7-1295-43c0-8367-941524b67039"},"vehicle_type_id":"4","last_reported":1726484854,"current_range_meters":4400,"station_id":"ce4bhnp2rcd13ifvqgvg","pricing_plan_id":"cebpf4jnsgd1na2vs0mg"},{"bike_id":"dec9d68b-1c62-4922-a175-615d1cc04bdc","system_id":"levelo_inurba_marseille","lat":43.27967,"lon":5.3872,"is_reserved":false,"is_disabled":false,"rental_uris":{"android":"levelo://app?vid=dec9d68b-1c62-4922-a175-615d1cc04bdc","ios":"levelo://app?vid=dec9d68b-1c62-4922-a175-615d1cc04bdc"},"vehicle_type_id":"4","last_reported":1726484854,"current_range_meters":24400,"station_id":"ce4bhg12rcd13ifvqf80","pricing_plan_id":"cebpf4jnsgd1na2vs0mg"},{"bike_id":"1ed8a0b3-92f7-4363-9b00-2fe39ac7defb","system_id":"levelo_inurba_marseille","lat":43.2985,"lon":5.36284,"is_reserved":false,"is_disabled":false,"rental_uris":{"android":"levelo://app?vid=1ed8a0b3-92f7-4363-9b00-2fe39ac7defb","ios":"levelo://app?vid=1ed8a0b3-92f7-4363-9b00-2fe39ac7defb"},"vehicle_type_id":"4","last_reported":1726484854,"current_range_meters":36400,"station_id":"ce4bgpp2rcd13ifvqc3g","pricing_plan_id":"cebpf4jnsgd1na2vs0mg"},{"bike_id":"7e2e09a9-457b-489e-9620-345581350fd3","system_id":"levelo_inurba_marseille","lat":43.28574,"lon":5.39497,"is_reserved":false,"is_disabled":false,"rental_uris":{"android":"levelo://app?vid=7e2e09a9-457b-489e-9620-345581350fd3","ios":"levelo://app?vid=7e2e09a9-457b-489e-9620-345581350fd3"},"vehicle_type_id":"4","last_reported":1726484854,"current_range_meters":35200,"station_id":"ce4bh292rcd13ifvqdg0","pricing_plan_id":"cebpf4jnsgd1na2vs0mg"},{"bike_id":"cd225d70-6caa-40f5-b0a6-233eb91ea039","system_id":"levelo_inurba_marseille","lat":43.34094,"lon":5.39106,"is_reserved":false,"is_disabled":false,"rental_uris":{"android":"levelo://app?vid=cd225d70-6caa-40f5-b0a6-233eb91ea039","ios":"levelo://app?vid=cd225d70-6caa-40f5-b0a6-233eb91ea039"},"vehicle_type_id":"4","last_reported":1726484854,"current_range_meters":34000,"station_id":"","pricing_plan_id":"cebpf4jnsgd1na2vs0mg"},{"bike_id":"0aa75f12-c942-44d1-92b7-0b3badf3bf13","system_id":"levelo_inurba_marseille","lat":43.27501,"lon":5.42449,"is_reserved":false,"is_disabled":false,"rental_uris":{"android":"levelo://app?vid=0aa75f12-c942-44d1-92b7-0b3badf3bf13","ios":"levelo://app?vid=0aa75f12-c942-44d1-92b7-0b3badf3bf13"},"vehicle_type_id":"4","last_reported":1726484854,"current_range_meters":30000,"station_id":"ce4bhn92rcd13ifvqgrg","pricing_plan_id":"cebpf4jnsgd1na2vs0mg"},{"bike_id":"e75bdf37-6017-4dd9-8183-f2edc970ca06","system_id":"levelo_inurba_marseille","lat":43.23198,"lon":5.35548,"is_reserved":false,"is_disabled":false,"rental_uris":{"android":"levelo://app?vid=e75bdf37-6017-4dd9-8183-f2edc970ca06","ios":"levelo://app?vid=e75bdf37-6017-4dd9-8183-f2edc970ca06"},"vehicle_type_id":"4","last_reported":1726484854,"current_range_meters":36400,"station_id":"ce4bhu92rcd13ifvqi70","pricing_plan_id":"cebpf4jnsgd1na2vs0mg"},{"bike_id":"501750a7-1c7d-4ef5-a6d1-d3cf3ec0516e","system_id":"levelo_inurba_marseille","lat":43.298423,"lon":5.362671,"is_reserved":false,"is_disabled":false,"rental_uris":{"android":"levelo://app?vid=501750a7-1c7d-4ef5-a6d1-d3cf3ec0516e","ios":"levelo://app?vid=501750a7-1c7d-4ef5-a6d1-d3cf3ec0516e"},"vehicle_type_id":"4","last_reported":1726484854,"current_range_meters":32400,"station_id":"ce4bgpp2rcd13ifvqc3g","pricing_plan_id":"cebpf4jnsgd1na2vs0mg"},{"bike_id":"08b9c359-ca67-4a9a-a98e-3cd14ef5ec17","system_id":"levelo_inurba_marseille","lat":43.25087,"lon":5.3951,"is_reserved":false,"is_disabled":false,"rental_uris":{"android":"levelo://app?vid=08b9c359-ca67-4a9a-a98e-3cd14ef5ec17","ios":"levelo://app?vid=08b9c359-ca67-4a9a-a98e-3cd14ef5ec17"},"vehicle_type_id":"4","last_reported":1726484854,"current_range_meters":17600,"station_id":"ce4bhm12rcd13ifvqgkg","pricing_plan_id":"cebpf4jnsgd1na2vs0mg"},{"bike_id":"9b898f24-5b36-4adb-8a70-e1d7e562f8af","system_id":"levelo_inurba_marseille","lat":43.28668,"lon":5.38518,"is_reserved":false,"is_disabled":false,"rental_uris":{"android":"levelo://app?vid=9b898f24-5b36-4adb-8a70-e1d7e562f8af","ios":"levelo://app?vid=9b898f24-5b36-4adb-8a70-e1d7e562f8af"},"vehicle_type_id":"4","last_reported":1726484854,"current_range_meters":22800,"station_id":"ce4bh412rcd13ifvqdr0","pricing_plan_id":"cebpf4jnsgd1na2vs0mg"},{"bike_id":"5b25940a-9964-4048-b948-700ffd999ba4","system_id":"levelo_inurba_marseille","lat":43.29911,"lon":5.38148,"is_reserved":false,"is_disabled":false,"rental_uris":{"android":"levelo://app?vid=5b25940a-9964-4048-b948-700ffd999ba4","ios":"levelo://app?vid=5b25940a-9964-4048-b948-700ffd999ba4"},"vehicle_type_id":"4","last_reported":1726484854,"current_range_meters":8400,"station_id":"ce4bgj12rcd13ifvqbc0","pricing_plan_id":"cebpf4jnsgd1na2vs0mg"},{"bike_id":"89fc692e-d80f-4316-8959-5ac50a6a4d07","system_id":"levelo_inurba_marseille","lat":43.26948,"lon":5.40248,"is_reserved":false,"is_disabled":false,"rental_uris":{"android":"levelo://app?vid=89fc692e-d80f-4316-8959-5ac50a6a4d07","ios":"levelo://app?vid=89fc692e-d80f-4316-8959-5ac50a6a4d07"},"vehicle_type_id":"4","last_reported":1726484854,"current_range_meters":32800,"station_id":"cjm6bp8fraef2m0cb0m0","pricing_plan_id":"cebpf4jnsgd1na2vs0mg"},{"bike_id":"3b7172c5-1ed3-4a2e-84bc-ff50641c119e","system_id":"levelo_inurba_marseille","lat":43.30142,"lon":5.37408,"is_reserved":false,"is_disabled":false,"rental_uris":{"android":"levelo://app?vid=3b7172c5-1ed3-4a2e-84bc-ff50641c119e","ios":"levelo://app?vid=3b7172c5-1ed3-4a2e-84bc-ff50641c119e"},"vehicle_type_id":"4","last_reported":1726484854,"current_range_meters":38800,"station_id":"ce4bgs92rcd13ifvqcc0","pricing_plan_id":"cebpf4jnsgd1na2vs0mg"},{"bike_id":"833d2529-c97a-4d7b-962d-a364f2c29687","system_id":"levelo_inurba_marseille","lat":43.23152,"lon":5.43719,"is_reserved":false,"is_disabled":false,"rental_uris":{"android":"levelo://app?vid=833d2529-c97a-4d7b-962d-a364f2c29687","ios":"levelo://app?vid=833d2529-c97a-4d7b-962d-a364f2c29687"},"vehicle_type_id":"4","last_reported":1726484854,"current_range_meters":6800,"station_id":"ce4bhmp2rcd13ifvqgog","pricing_plan_id":"cebpf4jnsgd1na2vs0mg"},{"bike_id":"45e684ad-b81b-48c3-b25a-d1d6fa50f78d","system_id":"levelo_inurba_marseille","lat":43.26684,"lon":5.38266,"is_reserved":false,"is_disabled":false,"rental_uris":{"android":"levelo://app?vid=45e684ad-b81b-48c3-b25a-d1d6fa50f78d","ios":"levelo://app?vid=45e684ad-b81b-48c3-b25a-d1d6fa50f78d"},"vehicle_type_id":"4","last_reported":1726484854,"current_range_meters":38800,"station_id":"ce4bhg92rcd13ifvqf90","pricing_plan_id":"cebpf4jnsgd1na2vs0mg"},{"bike_id":"352cc108-92f7-4ac2-98c9-c4f7714f9f3f","system_id":"levelo_inurba_marseille","lat":43.25931,"lon":5.40912,"is_reserved":false,"is_disabled":false,"rental_uris":{"android":"levelo://app?vid=352cc108-92f7-4ac2-98c9-c4f7714f9f3f","ios":"levelo://app?vid=352cc108-92f7-4ac2-98c9-c4f7714f9f3f"},"vehicle_type_id":"4","last_reported":1726484854,"current_range_meters":33600,"station_id":"ce4bhm92rcd13ifvqglg","pricing_plan_id":"cebpf4jnsgd1na2vs0mg"},{"bike_id":"f6de159d-4c6c-4425-84f5-9282f9227f7c","system_id":"levelo_inurba_marseille","lat":43.33761,"lon":5.37454,"is_reserved":false,"is_disabled":false,"rental_uris":{"android":"levelo://app?vid=f6de159d-4c6c-4425-84f5-9282f9227f7c","ios":"levelo://app?vid=f6de159d-4c6c-4425-84f5-9282f9227f7c"},"vehicle_type_id":"4","last_reported":1726484854,"current_range_meters":26000,"station_id":"","pricing_plan_id":"cebpf4jnsgd1na2vs0mg"},{"bike_id":"b9698a86-1ec3-4eed-ac6f-4fc5121a02f0","system_id":"levelo_inurba_marseille","lat":43.30541,"lon":5.36714,"is_reserved":false,"is_disabled":false,"rental_uris":{"android":"levelo://app?vid=b9698a86-1ec3-4eed-ac6f-4fc5121a02f0","ios":"levelo://app?vid=b9698a86-1ec3-4eed-ac6f-4fc5121a02f0"},"vehicle_type_id":"4","last_reported":1726484854,"current_range_meters":38800,"station_id":"ce4bgrp2rcd13ifvqc9g","pricing_plan_id":"cebpf4jnsgd1na2vs0mg"},{"bike_id":"f79ff168-7c1f-43a6-9a48-819ae1e3b151","system_id":"levelo_inurba_marseille","lat":43.24076,"lon":5.3775,"is_reserved":false,"is_disabled":false,"rental_uris":{"android":"levelo://app?vid=f79ff168-7c1f-43a6-9a48-819ae1e3b151","ios":"levelo://app?vid=f79ff168-7c1f-43a6-9a48-819ae1e3b151"},"vehicle_type_id":"4","last_reported":1726484854,"current_range_meters":8400,"station_id":"ce4bhnp2rcd13ifvqgvg","pricing_plan_id":"cebpf4jnsgd1na2vs0mg"},{"bike_id":"2e3fa3c1-55aa-4e86-bd3e-7bdc4a6b47ac","system_id":"levelo_inurba_marseille","lat":43.2749,"lon":5.4246,"is_reserved":false,"is_disabled":false,"rental_uris":{"android":"levelo://app?vid=2e3fa3c1-55aa-4e86-bd3e-7bdc4a6b47ac","ios":"levelo://app?vid=2e3fa3c1-55aa-4e86-bd3e-7bdc4a6b47ac"},"vehicle_type_id":"4","last_reported":1726484854,"current_range_meters":33600,"station_id":"ce4bhn92rcd13ifvqgrg","pricing_plan_id":"cebpf4jnsgd1na2vs0mg"},{"bike_id":"b1ab53f4-c252-4ede-a524-cbb2be02e060","system_id":"levelo_inurba_marseille","lat":43.29052,"lon":5.39953,"is_reserved":false,"is_disabled":false,"rental_uris":{"android":"levelo://app?vid=b1ab53f4-c252-4ede-a524-cbb2be02e060","ios":"levelo://app?vid=b1ab53f4-c252-4ede-a524-cbb2be02e060"},"vehicle_type_id":"4","last_reported":1726484854,"current_range_meters":26000,"station_id":"ce4bh392rcd13ifvqdm0","pricing_plan_id":"cebpf4jnsgd1na2vs0mg"},{"bike_id":"194c9c87-7c9a-4375-9b6b-90d1efde01d3","system_id":"levelo_inurba_marseille","lat":43.33762,"lon":5.3745,"is_reserved":false,"is_disabled":false,"rental_uris":{"android":"levelo://app?vid=194c9c87-7c9a-4375-9b6b-90d1efde01d3","ios":"levelo://app?vid=194c9c87-7c9a-4375-9b6b-90d1efde01d3"},"vehicle_type_id":"4","last_reported":1726484854,"current_range_meters":13600,"station_id":"","pricing_plan_id":"cebpf4jnsgd1na2vs0mg"},{"bike_id":"6c07d7df-5527-4082-92a5-54f724f152c4","system_id":"levelo_inurba_marseille","lat":43.29532,"lon":5.3854,"is_reserved":false,"is_disabled":false,"rental_uris":{"android":"levelo://app?vid=6c07d7df-5527-4082-92a5-54f724f152c4","ios":"levelo://app?vid=6c07d7df-5527-4082-92a5-54f724f152c4"},"vehicle_type_id":"4","last_reported":1726484854,"current_range_meters":37600,"station_id":"ce4bgih2rcd13ifvqba0","pricing_plan_id":"cebpf4jnsgd1na2vs0mg"},{"bike_id":"a7649358-7b1e-4e20-b463-599f4ff8067d","system_id":"levelo_inurba_marseille","lat":43.25011,"lon":5.38917,"is_reserved":false,"is_disabled":false,"rental_uris":{"android":"levelo://app?vid=a7649358-7b1e-4e20-b463-599f4ff8067d","ios":"levelo://app?vid=a7649358-7b1e-4e20-b463-599f4ff8067d"},"vehicle_type_id":"4","last_reported":1726484854,"current_range_meters":35600,"station_id":"ce4bhgp2rcd13ifvqfd0","pricing_plan_id":"cebpf4jnsgd1na2vs0mg"},{"bike_id":"e5f00a14-dff4-44a8-93db-b62a037fe306","system_id":"levelo_inurba_marseille","lat":43.30544,"lon":5.36701,"is_reserved":false,"is_disabled":false,"rental_uris":{"android":"levelo://app?vid=e5f00a14-dff4-44a8-93db-b62a037fe306","ios":"levelo://app?vid=e5f00a14-dff4-44a8-93db-b62a037fe306"},"vehicle_type_id":"4","last_reported":1726484854,"current_range_meters":25600,"station_id":"ce4bgrp2rcd13ifvqc9g","pricing_plan_id":"cebpf4jnsgd1na2vs0mg"},{"bike_id":"50a32c1f-8c44-4d67-a5b2-e9bccadfc9f7","system_id":"levelo_inurba_marseille","lat":43.290099,"lon":5.356198,"is_reserved":false,"is_disabled":false,"rental_uris":{"android":"levelo://app?vid=50a32c1f-8c44-4d67-a5b2-e9bccadfc9f7","ios":"levelo://app?vid=50a32c1f-8c44-4d67-a5b2-e9bccadfc9f7"},"vehicle_type_id":"4","last_reported":1726484854,"current_range_meters":29600,"station_id":"ce4bhb92rcd13ifvqen0","pricing_plan_id":"cebpf4jnsgd1na2vs0mg"},{"bike_id":"f8c32fca-eed7-4c18-bff6-8c260d3547d7","system_id":"levelo_inurba_marseille","lat":43.24085,"lon":5.37747,"is_reserved":false,"is_disabled":false,"rental_uris":{"android":"levelo://app?vid=f8c32fca-eed7-4c18-bff6-8c260d3547d7","ios":"levelo://app?vid=f8c32fca-eed7-4c18-bff6-8c260d3547d7"},"vehicle_type_id":"4","last_reported":1726484854,"current_range_meters":11600,"station_id":"ce4bhnp2rcd13ifvqgvg","pricing_plan_id":"cebpf4jnsgd1na2vs0mg"},{"bike_id":"2e597809-5cd4-470d-8bf5-934588cbd9a0","system_id":"levelo_inurba_marseille","lat":43.28694,"lon":5.37395,"is_reserved":false,"is_disabled":false,"rental_uris":{"android":"levelo://app?vid=2e597809-5cd4-470d-8bf5-934588cbd9a0","ios":"levelo://app?vid=2e597809-5cd4-470d-8bf5-934588cbd9a0"},"vehicle_type_id":"4","last_reported":1726484854,"current_range_meters":6400,"station_id":"ce4bh3p2rcd13ifvqdq0","pricing_plan_id":"cebpf4jnsgd1na2vs0mg"},{"bike_id":"62daa386-785d-42e7-bcc3-061424905e72","system_id":"levelo_inurba_marseille","lat":43.2937,"lon":5.378655,"is_reserved":false,"is_disabled":false,"rental_uris":{"android":"levelo://app?vid=62daa386-785d-42e7-bcc3-061424905e72","ios":"levelo://app?vid=62daa386-785d-42e7-bcc3-061424905e72"},"vehicle_type_id":"4","last_reported":1726484854,"current_range_meters":16400,"station_id":"ce4bhpp2rcd13ifvqhfg","pricing_plan_id":"cebpf4jnsgd1na2vs0mg"},{"bike_id":"9bc64dcb-de81-40e6-a29b-9269116d9d31","system_id":"levelo_inurba_marseille","lat":43.25827,"lon":5.39431,"is_reserved":false,"is_disabled":false,"rental_uris":{"android":"levelo://app?vid=9bc64dcb-de81-40e6-a29b-9269116d9d31","ios":"levelo://app?vid=9bc64dcb-de81-40e6-a29b-9269116d9d31"},"vehicle_type_id":"4","last_reported":1726484854,"current_range_meters":38800,"station_id":"ce4bhip2rcd13ifvqft0","pricing_plan_id":"cebpf4jnsgd1na2vs0mg"},{"bike_id":"4efca9dd-9aef-4d4f-aa47-4cacceb08077","system_id":"levelo_inurba_marseille","lat":43.30587,"lon":5.39349,"is_reserved":false,"is_disabled":false,"rental_uris":{"android":"levelo://app?vid=4efca9dd-9aef-4d4f-aa47-4cacceb08077","ios":"levelo://app?vid=4efca9dd-9aef-4d4f-aa47-4cacceb08077"},"vehicle_type_id":"4","last_reported":1726484854,"current_range_meters":25600,"station_id":"ce4bh0p2rcd13ifvqd80","pricing_plan_id":"cebpf4jnsgd1na2vs0mg"},{"bike_id":"26db0265-0a91-4c66-8aa8-67a94f7eef0d","system_id":"levelo_inurba_marseille","lat":43.26935,"lon":5.40053,"is_reserved":false,"is_disabled":false,"rental_uris":{"android":"levelo://app?vid=26db0265-0a91-4c66-8aa8-67a94f7eef0d","ios":"levelo://app?vid=26db0265-0a91-4c66-8aa8-67a94f7eef0d"},"vehicle_type_id":"4","last_reported":1726484854,"current_range_meters":4800,"station_id":"","pricing_plan_id":"cebpf4jnsgd1na2vs0mg"},{"bike_id":"b324357d-9096-42b0-b21a-0ca0360189a0","system_id":"levelo_inurba_marseille","lat":43.28412,"lon":5.37513,"is_reserved":false,"is_disabled":false,"rental_uris":{"android":"levelo://app?vid=b324357d-9096-42b0-b21a-0ca0360189a0","ios":"levelo://app?vid=b324357d-9096-42b0-b21a-0ca0360189a0"},"vehicle_type_id":"4","last_reported":1726484854,"current_range_meters":19600,"station_id":"ce4bh412rcd13ifvqds0","pricing_plan_id":"cebpf4jnsgd1na2vs0mg"},{"bike_id":"9252cb36-0c07-465a-8976-0de18184a11b","system_id":"levelo_inurba_marseille","lat":43.292949,"lon":5.374724,"is_reserved":false,"is_disabled":false,"rental_uris":{"android":"levelo://app?vid=9252cb36-0c07-465a-8976-0de18184a11b","ios":"levelo://app?vid=9252cb36-0c07-465a-8976-0de18184a11b"},"vehicle_type_id":"4","last_reported":1726484854,"current_range_meters":22800,"station_id":"ce4bhah2rcd13ifvqei0","pricing_plan_id":"cebpf4jnsgd1na2vs0mg"},{"bike_id":"d209532b-0d82-4c36-85a4-0ea0ad0bf647","system_id":"levelo_inurba_marseille","lat":43.29416,"lon":5.38622,"is_reserved":false,"is_disabled":false,"rental_uris":{"android":"levelo://app?vid=d209532b-0d82-4c36-85a4-0ea0ad0bf647","ios":"levelo://app?vid=d209532b-0d82-4c36-85a4-0ea0ad0bf647"},"vehicle_type_id":"4","last_reported":1726484854,"current_range_meters":20000,"station_id":"ce4bh2h2rcd13ifvqdh0","pricing_plan_id":"cebpf4jnsgd1na2vs0mg"},{"bike_id":"4153cc51-d4e8-4e56-a8fd-c1a04ecf3fa7","system_id":"levelo_inurba_marseille","lat":43.29963,"lon":5.41322,"is_reserved":false,"is_disabled":false,"rental_uris":{"android":"levelo://app?vid=4153cc51-d4e8-4e56-a8fd-c1a04ecf3fa7","ios":"levelo://app?vid=4153cc51-d4e8-4e56-a8fd-c1a04ecf3fa7"},"vehicle_type_id":"4","last_reported":1726484854,"current_range_meters":35200,"station_id":"ce4bhp12rcd13ifvqh9g","pricing_plan_id":"cebpf4jnsgd1na2vs0mg"},{"bike_id":"704bd4ff-c6ae-4fcf-a83a-81202466c629","system_id":"levelo_inurba_marseille","lat":43.29969,"lon":5.41325,"is_reserved":false,"is_disabled":false,"rental_uris":{"android":"levelo://app?vid=704bd4ff-c6ae-4fcf-a83a-81202466c629","ios":"levelo://app?vid=704bd4ff-c6ae-4fcf-a83a-81202466c629"},"vehicle_type_id":"4","last_reported":1726484854,"current_range_meters":19600,"station_id":"ce4bhp12rcd13ifvqh9g","pricing_plan_id":"cebpf4jnsgd1na2vs0mg"},{"bike_id":"c116d499-dca7-48b1-b271-1ceca6d0c0e3","system_id":"levelo_inurba_marseille","lat":43.29095,"lon":5.38157,"is_reserved":false,"is_disabled":false,"rental_uris":{"android":"levelo://app?vid=c116d499-dca7-48b1-b271-1ceca6d0c0e3","ios":"levelo://app?vid=c116d499-dca7-48b1-b271-1ceca6d0c0e3"},"vehicle_type_id":"4","last_reported":1726484854,"current_range_meters":8000,"station_id":"ce4bh512rcd13ifvqe2g","pricing_plan_id":"cebpf4jnsgd1na2vs0mg"},{"bike_id":"8cb592d9-f82f-4171-894f-8d7ffa6525e5","system_id":"levelo_inurba_marseille","lat":43.23204,"lon":5.35547,"is_reserved":false,"is_disabled":false,"rental_uris":{"android":"levelo://app?vid=8cb592d9-f82f-4171-894f-8d7ffa6525e5","ios":"levelo://app?vid=8cb592d9-f82f-4171-894f-8d7ffa6525e5"},"vehicle_type_id":"4","last_reported":1726484854,"current_range_meters":25200,"station_id":"ce4bhu92rcd13ifvqi70","pricing_plan_id":"cebpf4jnsgd1na2vs0mg"},{"bike_id":"79752fd1-c487-410d-a206-6bc206b43c4f","system_id":"levelo_inurba_marseille","lat":43.30138,"lon":5.37419,"is_reserved":false,"is_disabled":false,"rental_uris":{"android":"levelo://app?vid=79752fd1-c487-410d-a206-6bc206b43c4f","ios":"levelo://app?vid=79752fd1-c487-410d-a206-6bc206b43c4f"},"vehicle_type_id":"4","last_reported":1726484854,"current_range_meters":27600,"station_id":"ce4bgs92rcd13ifvqcc0","pricing_plan_id":"cebpf4jnsgd1na2vs0mg"},{"bike_id":"57fb3bd9-5972-4f72-85b9-28ac2f0e9869","system_id":"levelo_inurba_marseille","lat":43.33029,"lon":5.39051,"is_reserved":false,"is_disabled":false,"rental_uris":{"android":"levelo://app?vid=57fb3bd9-5972-4f72-85b9-28ac2f0e9869","ios":"levelo://app?vid=57fb3bd9-5972-4f72-85b9-28ac2f0e9869"},"vehicle_type_id":"4","last_reported":1726484854,"current_range_meters":20800,"station_id":"ce4bhr92rcd13ifvqhrg","pricing_plan_id":"cebpf4jnsgd1na2vs0mg"},{"bike_id":"ab6aec1c-a2d3-4f15-96bb-40241d7dae19","system_id":"levelo_inurba_marseille","lat":43.295925,"lon":5.375063,"is_reserved":false,"is_disabled":false,"rental_uris":{"android":"levelo://app?vid=ab6aec1c-a2d3-4f15-96bb-40241d7dae19","ios":"levelo://app?vid=ab6aec1c-a2d3-4f15-96bb-40241d7dae19"},"vehicle_type_id":"4","last_reported":1726484854,"current_range_meters":38800,"station_id":"ce4bgh92rcd13ifvqb50","pricing_plan_id":"cebpf4jnsgd1na2vs0mg"},{"bike_id":"5d5593a2-a7ed-4bd5-bffe-ab0a387b2e77","system_id":"levelo_inurba_marseille","lat":43.308327,"lon":5.396581,"is_reserved":false,"is_disabled":false,"rental_uris":{"android":"levelo://app?vid=5d5593a2-a7ed-4bd5-bffe-ab0a387b2e77","ios":"levelo://app?vid=5d5593a2-a7ed-4bd5-bffe-ab0a387b2e77"},"vehicle_type_id":"4","last_reported":1726484854,"current_range_meters":20400,"station_id":"ce4bh012rcd13ifvqcv0","pricing_plan_id":"cebpf4jnsgd1na2vs0mg"},{"bike_id":"c96cc530-ee48-45bc-8879-55768654b932","system_id":"levelo_inurba_marseille","lat":43.29276,"lon":5.40119,"is_reserved":false,"is_disabled":false,"rental_uris":{"android":"levelo://app?vid=c96cc530-ee48-45bc-8879-55768654b932","ios":"levelo://app?vid=c96cc530-ee48-45bc-8879-55768654b932"},"vehicle_type_id":"4","last_reported":1726484854,"current_range_meters":27600,"station_id":"ce4bh312rcd13ifvqdk0","pricing_plan_id":"cebpf4jnsgd1na2vs0mg"},{"bike_id":"35a1320d-9a70-47d2-a0b0-494340d7b236","system_id":"levelo_inurba_marseille","lat":43.2587,"lon":5.39908,"is_reserved":false,"is_disabled":false,"rental_uris":{"android":"levelo://app?vid=35a1320d-9a70-47d2-a0b0-494340d7b236","ios":"levelo://app?vid=35a1320d-9a70-47d2-a0b0-494340d7b236"},"vehicle_type_id":"4","last_reported":1726484854,"current_range_meters":30800,"station_id":"ce4bhl92rcd13ifvqghg","pricing_plan_id":"cebpf4jnsgd1na2vs0mg"},{"bike_id":"23af3e5f-c4dd-433e-9385-25485af76f31","system_id":"levelo_inurba_marseille","lat":43.32483,"lon":5.36566,"is_reserved":false,"is_disabled":false,"rental_uris":{"android":"levelo://app?vid=23af3e5f-c4dd-433e-9385-25485af76f31","ios":"levelo://app?vid=23af3e5f-c4dd-433e-9385-25485af76f31"},"vehicle_type_id":"4","last_reported":1726484854,"current_range_meters":19200,"station_id":"ce4bhs12rcd13ifvqhvg","pricing_plan_id":"cebpf4jnsgd1na2vs0mg"},{"bike_id":"9c25d7f9-3117-44f1-acec-713cdafffebf","system_id":"levelo_inurba_marseille","lat":43.34132,"lon":5.40918,"is_reserved":false,"is_disabled":false,"rental_uris":{"android":"levelo://app?vid=9c25d7f9-3117-44f1-acec-713cdafffebf","ios":"levelo://app?vid=9c25d7f9-3117-44f1-acec-713cdafffebf"},"vehicle_type_id":"4","last_reported":1726484854,"current_range_meters":33200,"station_id":"ce4bhqh2rcd13ifvqhlg","pricing_plan_id":"cebpf4jnsgd1na2vs0mg"},{"bike_id":"ee03414a-b8c4-44ac-abb8-99721675b523","system_id":"levelo_inurba_marseille","lat":43.28712,"lon":5.37955,"is_reserved":false,"is_disabled":false,"rental_uris":{"android":"levelo://app?vid=ee03414a-b8c4-44ac-abb8-99721675b523","ios":"levelo://app?vid=ee03414a-b8c4-44ac-abb8-99721675b523"},"vehicle_type_id":"4","last_reported":1726484854,"current_range_meters":36800,"station_id":"ce4bh9p2rcd13ifvqec0","pricing_plan_id":"cebpf4jnsgd1na2vs0mg"},{"bike_id":"b1db6496-7d7b-4acc-a88c-e5406d38e100","system_id":"levelo_inurba_marseille","lat":43.23191,"lon":5.35552,"is_reserved":false,"is_disabled":false,"rental_uris":{"android":"levelo://app?vid=b1db6496-7d7b-4acc-a88c-e5406d38e100","ios":"levelo://app?vid=b1db6496-7d7b-4acc-a88c-e5406d38e100"},"vehicle_type_id":"4","last_reported":1726484854,"current_range_meters":32400,"station_id":"ce4bhu92rcd13ifvqi70","pricing_plan_id":"cebpf4jnsgd1na2vs0mg"},{"bike_id":"8b4351e1-5f6f-4355-a505-279d7df5b776","system_id":"levelo_inurba_marseille","lat":43.23189,"lon":5.39978,"is_reserved":false,"is_disabled":false,"rental_uris":{"android":"levelo://app?vid=8b4351e1-5f6f-4355-a505-279d7df5b776","ios":"levelo://app?vid=8b4351e1-5f6f-4355-a505-279d7df5b776"},"vehicle_type_id":"4","last_reported":1726484854,"current_range_meters":28400,"station_id":"ce4bhn12rcd13ifvqgqg","pricing_plan_id":"cebpf4jnsgd1na2vs0mg"},{"bike_id":"ee721f16-71d0-49c8-9da4-858f78b55bcb","system_id":"levelo_inurba_marseille","lat":43.25944,"lon":5.40894,"is_reserved":false,"is_disabled":false,"rental_uris":{"android":"levelo://app?vid=ee721f16-71d0-49c8-9da4-858f78b55bcb","ios":"levelo://app?vid=ee721f16-71d0-49c8-9da4-858f78b55bcb"},"vehicle_type_id":"4","last_reported":1726484854,"current_range_meters":20800,"station_id":"ce4bhm92rcd13ifvqglg","pricing_plan_id":"cebpf4jnsgd1na2vs0mg"},{"bike_id":"673c1b5e-9443-4dc4-bb54-52e29ea0abc7","system_id":"levelo_inurba_marseille","lat":43.23149,"lon":5.43721,"is_reserved":false,"is_disabled":false,"rental_uris":{"android":"levelo://app?vid=673c1b5e-9443-4dc4-bb54-52e29ea0abc7","ios":"levelo://app?vid=673c1b5e-9443-4dc4-bb54-52e29ea0abc7"},"vehicle_type_id":"4","last_reported":1726484854,"current_range_meters":34800,"station_id":"ce4bhmp2rcd13ifvqgog","pricing_plan_id":"cebpf4jnsgd1na2vs0mg"},{"bike_id":"5cf4c2f1-f092-4550-b8cf-369099ebc3bc","system_id":"levelo_inurba_marseille","lat":43.24563,"lon":5.41552,"is_reserved":false,"is_disabled":false,"rental_uris":{"android":"levelo://app?vid=5cf4c2f1-f092-4550-b8cf-369099ebc3bc","ios":"levelo://app?vid=5cf4c2f1-f092-4550-b8cf-369099ebc3bc"},"vehicle_type_id":"4","last_reported":1726484854,"current_range_meters":8800,"station_id":"ce4bhlh2rcd13ifvqgig","pricing_plan_id":"cebpf4jnsgd1na2vs0mg"},{"bike_id":"57d609e7-faba-49ed-a7cc-1410dd83f204","system_id":"levelo_inurba_marseille","lat":43.29338,"lon":5.40207,"is_reserved":false,"is_disabled":false,"rental_uris":{"android":"levelo://app?vid=57d609e7-faba-49ed-a7cc-1410dd83f204","ios":"levelo://app?vid=57d609e7-faba-49ed-a7cc-1410dd83f204"},"vehicle_type_id":"4","last_reported":1726484854,"current_range_meters":24400,"station_id":"ce4bh312rcd13ifvqdk0","pricing_plan_id":"cebpf4jnsgd1na2vs0mg"},{"bike_id":"4721e0a5-8c0a-4c61-91fb-10c3ba183135","system_id":"levelo_inurba_marseille","lat":43.24079,"lon":5.3776,"is_reserved":false,"is_disabled":false,"rental_uris":{"android":"levelo://app?vid=4721e0a5-8c0a-4c61-91fb-10c3ba183135","ios":"levelo://app?vid=4721e0a5-8c0a-4c61-91fb-10c3ba183135"},"vehicle_type_id":"4","last_reported":1726484854,"current_range_meters":9200,"station_id":"ce4bhnp2rcd13ifvqgvg","pricing_plan_id":"cebpf4jnsgd1na2vs0mg"},{"bike_id":"bf08aebf-a189-4628-aa60-e8c5d12270e0","system_id":"levelo_inurba_marseille","lat":43.29019,"lon":5.38133,"is_reserved":false,"is_disabled":false,"rental_uris":{"android":"levelo://app?vid=bf08aebf-a189-4628-aa60-e8c5d12270e0","ios":"levelo://app?vid=bf08aebf-a189-4628-aa60-e8c5d12270e0"},"vehicle_type_id":"4","last_reported":1726484854,"current_range_meters":31200,"station_id":"","pricing_plan_id":"cebpf4jnsgd1na2vs0mg"},{"bike_id":"6fabb23b-c151-4316-b1e0-1bde8d668b8c","system_id":"levelo_inurba_marseille","lat":43.24388,"lon":5.37053,"is_reserved":false,"is_disabled":false,"rental_uris":{"android":"levelo://app?vid=6fabb23b-c151-4316-b1e0-1bde8d668b8c","ios":"levelo://app?vid=6fabb23b-c151-4316-b1e0-1bde8d668b8c"},"vehicle_type_id":"4","last_reported":1726484854,"current_range_meters":8400,"station_id":"ce4bhhh2rcd13ifvqfk0","pricing_plan_id":"cebpf4jnsgd1na2vs0mg"},{"bike_id":"223bcd1f-bde5-46f7-ab5f-e5751f9d998e","system_id":"levelo_inurba_marseille","lat":43.30549,"lon":5.36713,"is_reserved":false,"is_disabled":false,"rental_uris":{"android":"levelo://app?vid=223bcd1f-bde5-46f7-ab5f-e5751f9d998e","ios":"levelo://app?vid=223bcd1f-bde5-46f7-ab5f-e5751f9d998e"},"vehicle_type_id":"4","last_reported":1726484854,"current_range_meters":20800,"station_id":"ce4bgrp2rcd13ifvqc9g","pricing_plan_id":"cebpf4jnsgd1na2vs0mg"},{"bike_id":"b08950ba-02a0-46d4-8c68-863f0b3477e8","system_id":"levelo_inurba_marseille","lat":43.32486,"lon":5.36553,"is_reserved":false,"is_disabled":false,"rental_uris":{"android":"levelo://app?vid=b08950ba-02a0-46d4-8c68-863f0b3477e8","ios":"levelo://app?vid=b08950ba-02a0-46d4-8c68-863f0b3477e8"},"vehicle_type_id":"4","last_reported":1726484854,"current_range_meters":37600,"station_id":"ce4bhs12rcd13ifvqhvg","pricing_plan_id":"cebpf4jnsgd1na2vs0mg"},{"bike_id":"84e7aabe-f1a6-43a1-a3ed-8ace9a9d15a9","system_id":"levelo_inurba_marseille","lat":43.33755,"lon":5.37454,"is_reserved":false,"is_disabled":false,"rental_uris":{"android":"levelo://app?vid=84e7aabe-f1a6-43a1-a3ed-8ace9a9d15a9","ios":"levelo://app?vid=84e7aabe-f1a6-43a1-a3ed-8ace9a9d15a9"},"vehicle_type_id":"4","last_reported":1726484854,"current_range_meters":32800,"station_id":"","pricing_plan_id":"cebpf4jnsgd1na2vs0mg"},{"bike_id":"b645ac77-0d58-4fa9-8ad3-947af8bdb1d9","system_id":"levelo_inurba_marseille","lat":43.29899,"lon":5.43659,"is_reserved":false,"is_disabled":false,"rental_uris":{"android":"levelo://app?vid=b645ac77-0d58-4fa9-8ad3-947af8bdb1d9","ios":"levelo://app?vid=b645ac77-0d58-4fa9-8ad3-947af8bdb1d9"},"vehicle_type_id":"4","last_reported":1726484854,"current_range_meters":28800,"station_id":"ce4bhpp2rcd13ifvqhfg","pricing_plan_id":"cebpf4jnsgd1na2vs0mg"},{"bike_id":"03515e55-0de8-4f6d-953a-abbf71a9cce4","system_id":"levelo_inurba_marseille","lat":43.24075,"lon":5.37758,"is_reserved":false,"is_disabled":false,"rental_uris":{"android":"levelo://app?vid=03515e55-0de8-4f6d-953a-abbf71a9cce4","ios":"levelo://app?vid=03515e55-0de8-4f6d-953a-abbf71a9cce4"},"vehicle_type_id":"4","last_reported":1726484854,"current_range_meters":11600,"station_id":"ce4bhnp2rcd13ifvqgvg","pricing_plan_id":"cebpf4jnsgd1na2vs0mg"},{"bike_id":"e2c52835-2b67-4d84-885a-6c66b6a1bdf4","system_id":"levelo_inurba_marseille","lat":43.28939,"lon":5.36639,"is_reserved":false,"is_disabled":false,"rental_uris":{"android":"levelo://app?vid=e2c52835-2b67-4d84-885a-6c66b6a1bdf4","ios":"levelo://app?vid=e2c52835-2b67-4d84-885a-6c66b6a1bdf4"},"vehicle_type_id":"4","last_reported":1726484854,"current_range_meters":14000,"station_id":"ce4bhap2rcd13ifvqek0","pricing_plan_id":"cebpf4jnsgd1na2vs0mg"},{"bike_id":"8e04ad42-4fb7-46a5-8bdd-901fc987436f","system_id":"levelo_inurba_marseille","lat":43.31043,"lon":5.38052,"is_reserved":false,"is_disabled":false,"rental_uris":{"android":"levelo://app?vid=8e04ad42-4fb7-46a5-8bdd-901fc987436f","ios":"levelo://app?vid=8e04ad42-4fb7-46a5-8bdd-901fc987436f"},"vehicle_type_id":"4","last_reported":1726484854,"current_range_meters":33600,"station_id":"","pricing_plan_id":"cebpf4jnsgd1na2vs0mg"},{"bike_id":"7abc2a25-404a-4f70-a7c0-c89315b5c4bc","system_id":"levelo_inurba_marseille","lat":43.29069,"lon":5.40553,"is_reserved":false,"is_disabled":false,"rental_uris":{"android":"levelo://app?vid=7abc2a25-404a-4f70-a7c0-c89315b5c4bc","ios":"levelo://app?vid=7abc2a25-404a-4f70-a7c0-c89315b5c4bc"},"vehicle_type_id":"4","last_reported":1726484854,"current_range_meters":27200,"station_id":"","pricing_plan_id":"cebpf4jnsgd1na2vs0mg"},{"bike_id":"a5306699-aa7b-4204-b727-7976ba1e747b","system_id":"levelo_inurba_marseille","lat":43.25936,"lon":5.40902,"is_reserved":false,"is_disabled":false,"rental_uris":{"android":"levelo://app?vid=a5306699-aa7b-4204-b727-7976ba1e747b","ios":"levelo://app?vid=a5306699-aa7b-4204-b727-7976ba1e747b"},"vehicle_type_id":"4","last_reported":1726484854,"current_range_meters":35600,"station_id":"ce4bhm92rcd13ifvqglg","pricing_plan_id":"cebpf4jnsgd1na2vs0mg"},{"bike_id":"dd1f353b-fdaa-465e-8498-318ef9dce0bd","system_id":"levelo_inurba_marseille","lat":43.28009,"lon":5.41656,"is_reserved":false,"is_disabled":false,"rental_uris":{"android":"levelo://app?vid=dd1f353b-fdaa-465e-8498-318ef9dce0bd","ios":"levelo://app?vid=dd1f353b-fdaa-465e-8498-318ef9dce0bd"},"vehicle_type_id":"4","last_reported":1726484854,"current_range_meters":27600,"station_id":"ce4bho12rcd13ifvqh1g","pricing_plan_id":"cebpf4jnsgd1na2vs0mg"},{"bike_id":"677498c9-746b-4650-9a8e-2c7479635944","system_id":"levelo_inurba_marseille","lat":43.33022,"lon":5.3905,"is_reserved":false,"is_disabled":false,"rental_uris":{"android":"levelo://app?vid=677498c9-746b-4650-9a8e-2c7479635944","ios":"levelo://app?vid=677498c9-746b-4650-9a8e-2c7479635944"},"vehicle_type_id":"4","last_reported":1726484854,"current_range_meters":27600,"station_id":"ce4bhr92rcd13ifvqhrg","pricing_plan_id":"cebpf4jnsgd1na2vs0mg"},{"bike_id":"ed489b6d-b444-40e7-b4d2-050915d83080","system_id":"levelo_inurba_marseille","lat":43.297058,"lon":5.390657,"is_reserved":false,"is_disabled":false,"rental_uris":{"android":"levelo://app?vid=ed489b6d-b444-40e7-b4d2-050915d83080","ios":"levelo://app?vid=ed489b6d-b444-40e7-b4d2-050915d83080"},"vehicle_type_id":"4","last_reported":1726484854,"current_range_meters":28800,"station_id":"ce4bgk12rcd13ifvqbj0","pricing_plan_id":"cebpf4jnsgd1na2vs0mg"},{"bike_id":"9645ba52-8ce6-4680-bcbb-6fa9ef8e0d1d","system_id":"levelo_inurba_marseille","lat":43.296661,"lon":5.37898,"is_reserved":false,"is_disabled":false,"rental_uris":{"android":"levelo://app?vid=9645ba52-8ce6-4680-bcbb-6fa9ef8e0d1d","ios":"levelo://app?vid=9645ba52-8ce6-4680-bcbb-6fa9ef8e0d1d"},"vehicle_type_id":"4","last_reported":1726484854,"current_range_meters":35200,"station_id":"ce4bh5p2rcd13ifvqe4g","pricing_plan_id":"cebpf4jnsgd1na2vs0mg"},{"bike_id":"3f5b63b5-9f49-4a52-a4be-0b706a026622","system_id":"levelo_inurba_marseille","lat":43.33024,"lon":5.39028,"is_reserved":false,"is_disabled":false,"rental_uris":{"android":"levelo://app?vid=3f5b63b5-9f49-4a52-a4be-0b706a026622","ios":"levelo://app?vid=3f5b63b5-9f49-4a52-a4be-0b706a026622"},"vehicle_type_id":"4","last_reported":1726484854,"current_range_meters":38800,"station_id":"ce4bhr92rcd13ifvqhrg","pricing_plan_id":"cebpf4jnsgd1na2vs0mg"},{"bike_id":"7e84a3ad-b6e2-47cb-a879-414e01b71399","system_id":"levelo_inurba_marseille","lat":43.27497,"lon":5.42452,"is_reserved":false,"is_disabled":false,"rental_uris":{"android":"levelo://app?vid=7e84a3ad-b6e2-47cb-a879-414e01b71399","ios":"levelo://app?vid=7e84a3ad-b6e2-47cb-a879-414e01b71399"},"vehicle_type_id":"4","last_reported":1726484854,"current_range_meters":36800,"station_id":"ce4bhn92rcd13ifvqgrg","pricing_plan_id":"cebpf4jnsgd1na2vs0mg"},{"bike_id":"60dfdd06-844a-4520-bab0-d8466ae1fe2a","system_id":"levelo_inurba_marseille","lat":43.337444,"lon":5.374475,"is_reserved":false,"is_disabled":false,"rental_uris":{"android":"levelo://app?vid=60dfdd06-844a-4520-bab0-d8466ae1fe2a","ios":"levelo://app?vid=60dfdd06-844a-4520-bab0-d8466ae1fe2a"},"vehicle_type_id":"4","last_reported":1726484854,"current_range_meters":30800,"station_id":"","pricing_plan_id":"cebpf4jnsgd1na2vs0mg"},{"bike_id":"25ea4127-a0a7-4f6b-8fd2-daa85a416481","system_id":"levelo_inurba_marseille","lat":43.23183,"lon":5.39983,"is_reserved":false,"is_disabled":false,"rental_uris":{"android":"levelo://app?vid=25ea4127-a0a7-4f6b-8fd2-daa85a416481","ios":"levelo://app?vid=25ea4127-a0a7-4f6b-8fd2-daa85a416481"},"vehicle_type_id":"4","last_reported":1726484854,"current_range_meters":8000,"station_id":"ce4bhn12rcd13ifvqgqg","pricing_plan_id":"cebpf4jnsgd1na2vs0mg"},{"bike_id":"fa2eba72-4491-4cf0-85f8-1e18fe6450da","system_id":"levelo_inurba_marseille","lat":43.283671,"lon":5.386254,"is_reserved":false,"is_disabled":false,"rental_uris":{"android":"levelo://app?vid=fa2eba72-4491-4cf0-85f8-1e18fe6450da","ios":"levelo://app?vid=fa2eba72-4491-4cf0-85f8-1e18fe6450da"},"vehicle_type_id":"4","last_reported":1726484854,"current_range_meters":25200,"station_id":"ce4bh492rcd13ifvqdvg","pricing_plan_id":"cebpf4jnsgd1na2vs0mg"},{"bike_id":"b32ca690-4462-43b4-be42-807c82c31dac","system_id":"levelo_inurba_marseille","lat":43.24076,"lon":5.37756,"is_reserved":false,"is_disabled":false,"rental_uris":{"android":"levelo://app?vid=b32ca690-4462-43b4-be42-807c82c31dac","ios":"levelo://app?vid=b32ca690-4462-43b4-be42-807c82c31dac"},"vehicle_type_id":"4","last_reported":1726484854,"current_range_meters":17600,"station_id":"ce4bhnp2rcd13ifvqgvg","pricing_plan_id":"cebpf4jnsgd1na2vs0mg"},{"bike_id":"d6563275-bced-405d-afca-a6c17d96a2be","system_id":"levelo_inurba_marseille","lat":43.25943,"lon":5.40901,"is_reserved":false,"is_disabled":false,"rental_uris":{"android":"levelo://app?vid=d6563275-bced-405d-afca-a6c17d96a2be","ios":"levelo://app?vid=d6563275-bced-405d-afca-a6c17d96a2be"},"vehicle_type_id":"4","last_reported":1726484854,"current_range_meters":28000,"station_id":"ce4bhm92rcd13ifvqglg","pricing_plan_id":"cebpf4jnsgd1na2vs0mg"},{"bike_id":"a3d0c5f5-3775-49be-aba5-48b65b48b5d2","system_id":"levelo_inurba_marseille","lat":43.24992,"lon":5.38937,"is_reserved":false,"is_disabled":false,"rental_uris":{"android":"levelo://app?vid=a3d0c5f5-3775-49be-aba5-48b65b48b5d2","ios":"levelo://app?vid=a3d0c5f5-3775-49be-aba5-48b65b48b5d2"},"vehicle_type_id":"4","last_reported":1726484854,"current_range_meters":28400,"station_id":"ce4bhgp2rcd13ifvqfd0","pricing_plan_id":"cebpf4jnsgd1na2vs0mg"},{"bike_id":"0f55e4bc-a78d-428c-853d-4f7ba3e6b381","system_id":"levelo_inurba_marseille","lat":43.30311,"lon":5.39212,"is_reserved":false,"is_disabled":false,"rental_uris":{"android":"levelo://app?vid=0f55e4bc-a78d-428c-853d-4f7ba3e6b381","ios":"levelo://app?vid=0f55e4bc-a78d-428c-853d-4f7ba3e6b381"},"vehicle_type_id":"4","last_reported":1726484854,"current_range_meters":37600,"station_id":"ce4bgkh2rcd13ifvqbk0","pricing_plan_id":"cebpf4jnsgd1na2vs0mg"},{"bike_id":"dd2d821c-8b24-431f-a2ec-388c48a5aca8","system_id":"levelo_inurba_marseille","lat":43.24668,"lon":5.38168,"is_reserved":false,"is_disabled":false,"rental_uris":{"android":"levelo://app?vid=dd2d821c-8b24-431f-a2ec-388c48a5aca8","ios":"levelo://app?vid=dd2d821c-8b24-431f-a2ec-388c48a5aca8"},"vehicle_type_id":"4","last_reported":1726484854,"current_range_meters":38800,"station_id":"ce4bhih2rcd13ifvqfr0","pricing_plan_id":"cebpf4jnsgd1na2vs0mg"},{"bike_id":"dbf7f698-b4b6-4011-a45a-9f6a1290a55d","system_id":"levelo_inurba_marseille","lat":43.31069,"lon":5.38344,"is_reserved":false,"is_disabled":false,"rental_uris":{"android":"levelo://app?vid=dbf7f698-b4b6-4011-a45a-9f6a1290a55d","ios":"levelo://app?vid=dbf7f698-b4b6-4011-a45a-9f6a1290a55d"},"vehicle_type_id":"4","last_reported":1726484854,"current_range_meters":30000,"station_id":"ce4bgv92rcd13ifvqcr0","pricing_plan_id":"cebpf4jnsgd1na2vs0mg"},{"bike_id":"1ed525c6-2ef5-474d-9944-d47747d4256c","system_id":"levelo_inurba_marseille","lat":43.29531,"lon":5.38552,"is_reserved":false,"is_disabled":false,"rental_uris":{"android":"levelo://app?vid=1ed525c6-2ef5-474d-9944-d47747d4256c","ios":"levelo://app?vid=1ed525c6-2ef5-474d-9944-d47747d4256c"},"vehicle_type_id":"4","last_reported":1726484854,"current_range_meters":38800,"station_id":"ce4bgih2rcd13ifvqba0","pricing_plan_id":"cebpf4jnsgd1na2vs0mg"},{"bike_id":"8f733da8-974b-48c5-991b-191ad38cc2ec","system_id":"levelo_inurba_marseille","lat":43.25115,"lon":5.40322,"is_reserved":false,"is_disabled":false,"rental_uris":{"android":"levelo://app?vid=8f733da8-974b-48c5-991b-191ad38cc2ec","ios":"levelo://app?vid=8f733da8-974b-48c5-991b-191ad38cc2ec"},"vehicle_type_id":"4","last_reported":1726484854,"current_range_meters":39200,"station_id":"ce4bhlh2rcd13ifvqgig","pricing_plan_id":"cebpf4jnsgd1na2vs0mg"},{"bike_id":"d026a83b-f22d-4a8c-b2f2-7730a6b16272","system_id":"levelo_inurba_marseille","lat":43.23146,"lon":5.4372,"is_reserved":false,"is_disabled":false,"rental_uris":{"android":"levelo://app?vid=d026a83b-f22d-4a8c-b2f2-7730a6b16272","ios":"levelo://app?vid=d026a83b-f22d-4a8c-b2f2-7730a6b16272"},"vehicle_type_id":"4","last_reported":1726484854,"current_range_meters":38800,"station_id":"ce4bhmp2rcd13ifvqgog","pricing_plan_id":"cebpf4jnsgd1na2vs0mg"},{"bike_id":"b6acd41b-8cb2-46b0-bd17-251e59b19bb1","system_id":"levelo_inurba_marseille","lat":43.28075,"lon":5.39658,"is_reserved":false,"is_disabled":false,"rental_uris":{"android":"levelo://app?vid=b6acd41b-8cb2-46b0-bd17-251e59b19bb1","ios":"levelo://app?vid=b6acd41b-8cb2-46b0-bd17-251e59b19bb1"},"vehicle_type_id":"4","last_reported":1726484854,"current_range_meters":28400,"station_id":"ce4bho12rcd13ifvqh2g","pricing_plan_id":"cebpf4jnsgd1na2vs0mg"},{"bike_id":"34d94a26-ec93-4e8d-a6c6-3d558ea2d4e4","system_id":"levelo_inurba_marseille","lat":43.25941,"lon":5.40902,"is_reserved":false,"is_disabled":false,"rental_uris":{"android":"levelo://app?vid=34d94a26-ec93-4e8d-a6c6-3d558ea2d4e4","ios":"levelo://app?vid=34d94a26-ec93-4e8d-a6c6-3d558ea2d4e4"},"vehicle_type_id":"4","last_reported":1726484854,"current_range_meters":17600,"station_id":"ce4bhm92rcd13ifvqglg","pricing_plan_id":"cebpf4jnsgd1na2vs0mg"},{"bike_id":"4b2ba85a-29ad-44c1-a157-f219369e26f8","system_id":"levelo_inurba_marseille","lat":43.27491,"lon":5.42459,"is_reserved":false,"is_disabled":false,"rental_uris":{"android":"levelo://app?vid=4b2ba85a-29ad-44c1-a157-f219369e26f8","ios":"levelo://app?vid=4b2ba85a-29ad-44c1-a157-f219369e26f8"},"vehicle_type_id":"4","last_reported":1726484854,"current_range_meters":35600,"station_id":"ce4bhn92rcd13ifvqgrg","pricing_plan_id":"cebpf4jnsgd1na2vs0mg"},{"bike_id":"99684f50-b398-427b-a4e9-7ca0a0382c79","system_id":"levelo_inurba_marseille","lat":43.23202,"lon":5.35543,"is_reserved":false,"is_disabled":false,"rental_uris":{"android":"levelo://app?vid=99684f50-b398-427b-a4e9-7ca0a0382c79","ios":"levelo://app?vid=99684f50-b398-427b-a4e9-7ca0a0382c79"},"vehicle_type_id":"4","last_reported":1726484854,"current_range_meters":38800,"station_id":"ce4bhu92rcd13ifvqi70","pricing_plan_id":"cebpf4jnsgd1na2vs0mg"},{"bike_id":"8e5fdc84-e570-4ed4-8896-72b925306d6d","system_id":"levelo_inurba_marseille","lat":43.29611,"lon":5.37723,"is_reserved":false,"is_disabled":false,"rental_uris":{"android":"levelo://app?vid=8e5fdc84-e570-4ed4-8896-72b925306d6d","ios":"levelo://app?vid=8e5fdc84-e570-4ed4-8896-72b925306d6d"},"vehicle_type_id":"4","last_reported":1726484854,"current_range_meters":8000,"station_id":"ce4bgi92rcd13ifvqb90","pricing_plan_id":"cebpf4jnsgd1na2vs0mg"},{"bike_id":"1738eccd-8164-4142-8cf9-df9efb1287ea","system_id":"levelo_inurba_marseille","lat":43.30329,"lon":5.40439,"is_reserved":false,"is_disabled":false,"rental_uris":{"android":"levelo://app?vid=1738eccd-8164-4142-8cf9-df9efb1287ea","ios":"levelo://app?vid=1738eccd-8164-4142-8cf9-df9efb1287ea"},"vehicle_type_id":"4","last_reported":1726484854,"current_range_meters":38800,"station_id":"ce4bh012rcd13ifvqd10","pricing_plan_id":"cebpf4jnsgd1na2vs0mg"},{"bike_id":"74dee269-88b9-4fbf-a8a1-61cdc00de209","system_id":"levelo_inurba_marseille","lat":43.26505,"lon":5.39538,"is_reserved":false,"is_disabled":false,"rental_uris":{"android":"levelo://app?vid=74dee269-88b9-4fbf-a8a1-61cdc00de209","ios":"levelo://app?vid=74dee269-88b9-4fbf-a8a1-61cdc00de209"},"vehicle_type_id":"4","last_reported":1726484854,"current_range_meters":6400,"station_id":"ce4bhi12rcd13ifvqfq0","pricing_plan_id":"cebpf4jnsgd1na2vs0mg"},{"bike_id":"0f808d02-6df2-4fb7-b534-a56f3c6d6147","system_id":"levelo_inurba_marseille","lat":43.32492,"lon":5.36563,"is_reserved":false,"is_disabled":false,"rental_uris":{"android":"levelo://app?vid=0f808d02-6df2-4fb7-b534-a56f3c6d6147","ios":"levelo://app?vid=0f808d02-6df2-4fb7-b534-a56f3c6d6147"},"vehicle_type_id":"4","last_reported":1726484854,"current_range_meters":31200,"station_id":"ce4bhs12rcd13ifvqhvg","pricing_plan_id":"cebpf4jnsgd1na2vs0mg"},{"bike_id":"5c06497f-1680-497d-bb52-b03bd82e70e8","system_id":"levelo_inurba_marseille","lat":43.3172,"lon":5.42405,"is_reserved":false,"is_disabled":false,"rental_uris":{"android":"levelo://app?vid=5c06497f-1680-497d-bb52-b03bd82e70e8","ios":"levelo://app?vid=5c06497f-1680-497d-bb52-b03bd82e70e8"},"vehicle_type_id":"4","last_reported":1726484854,"current_range_meters":38000,"station_id":"ce4bhp92rcd13ifvqhbg","pricing_plan_id":"cebpf4jnsgd1na2vs0mg"},{"bike_id":"815475bc-dba1-49b4-9d6c-f51b44755d4e","system_id":"levelo_inurba_marseille","lat":43.31495,"lon":5.37299,"is_reserved":false,"is_disabled":false,"rental_uris":{"android":"levelo://app?vid=815475bc-dba1-49b4-9d6c-f51b44755d4e","ios":"levelo://app?vid=815475bc-dba1-49b4-9d6c-f51b44755d4e"},"vehicle_type_id":"4","last_reported":1726484854,"current_range_meters":38800,"station_id":"ce4bgt12rcd13ifvqcd0","pricing_plan_id":"cebpf4jnsgd1na2vs0mg"},{"bike_id":"c1fcd153-5567-4765-9736-73a42ed0d935","system_id":"levelo_inurba_marseille","lat":43.33608,"lon":5.41027,"is_reserved":false,"is_disabled":false,"rental_uris":{"android":"levelo://app?vid=c1fcd153-5567-4765-9736-73a42ed0d935","ios":"levelo://app?vid=c1fcd153-5567-4765-9736-73a42ed0d935"},"vehicle_type_id":"4","last_reported":1726484854,"current_range_meters":17600,"station_id":"ce4bhqh2rcd13ifvqhmg","pricing_plan_id":"cebpf4jnsgd1na2vs0mg"},{"bike_id":"56d4f681-c2e1-4d19-bcc5-07b2fcb77f1c","system_id":"levelo_inurba_marseille","lat":43.30358,"lon":5.41881,"is_reserved":false,"is_disabled":false,"rental_uris":{"android":"levelo://app?vid=56d4f681-c2e1-4d19-bcc5-07b2fcb77f1c","ios":"levelo://app?vid=56d4f681-c2e1-4d19-bcc5-07b2fcb77f1c"},"vehicle_type_id":"4","last_reported":1726484854,"current_range_meters":8400,"station_id":"ce4bhop2rcd13ifvqh7g","pricing_plan_id":"cebpf4jnsgd1na2vs0mg"},{"bike_id":"35459671-3197-4f37-a61b-22283b289c8e","system_id":"levelo_inurba_marseille","lat":43.28488,"lon":5.38404,"is_reserved":false,"is_disabled":false,"rental_uris":{"android":"levelo://app?vid=35459671-3197-4f37-a61b-22283b289c8e","ios":"levelo://app?vid=35459671-3197-4f37-a61b-22283b289c8e"},"vehicle_type_id":"4","last_reported":1726484854,"current_range_meters":18000,"station_id":"ce4bh512rcd13ifvqe3g","pricing_plan_id":"cebpf4jnsgd1na2vs0mg"},{"bike_id":"785783be-7bfb-4269-b660-c5c3fd28c889","system_id":"levelo_inurba_marseille","lat":43.27988,"lon":5.41665,"is_reserved":false,"is_disabled":false,"rental_uris":{"android":"levelo://app?vid=785783be-7bfb-4269-b660-c5c3fd28c889","ios":"levelo://app?vid=785783be-7bfb-4269-b660-c5c3fd28c889"},"vehicle_type_id":"4","last_reported":1726484854,"current_range_meters":29600,"station_id":"ce4bho12rcd13ifvqh1g","pricing_plan_id":"cebpf4jnsgd1na2vs0mg"},{"bike_id":"0a2e1c3b-f8e0-4541-91a6-a4751989ba76","system_id":"levelo_inurba_marseille","lat":43.31347,"lon":5.36715,"is_reserved":false,"is_disabled":false,"rental_uris":{"android":"levelo://app?vid=0a2e1c3b-f8e0-4541-91a6-a4751989ba76","ios":"levelo://app?vid=0a2e1c3b-f8e0-4541-91a6-a4751989ba76"},"vehicle_type_id":"4","last_reported":1726484854,"current_range_meters":33200,"station_id":"ce4bgr92rcd13ifvqc6g","pricing_plan_id":"cebpf4jnsgd1na2vs0mg"},{"bike_id":"97c82282-527d-4920-a011-c817068d8706","system_id":"levelo_inurba_marseille","lat":43.28939,"lon":5.36624,"is_reserved":false,"is_disabled":false,"rental_uris":{"android":"levelo://app?vid=97c82282-527d-4920-a011-c817068d8706","ios":"levelo://app?vid=97c82282-527d-4920-a011-c817068d8706"},"vehicle_type_id":"4","last_reported":1726484854,"current_range_meters":24400,"station_id":"ce4bhap2rcd13ifvqek0","pricing_plan_id":"cebpf4jnsgd1na2vs0mg"},{"bike_id":"9b63ba48-49dc-41b6-8742-1ca59afdc1a0","system_id":"levelo_inurba_marseille","lat":43.31497,"lon":5.37303,"is_reserved":false,"is_disabled":false,"rental_uris":{"android":"levelo://app?vid=9b63ba48-49dc-41b6-8742-1ca59afdc1a0","ios":"levelo://app?vid=9b63ba48-49dc-41b6-8742-1ca59afdc1a0"},"vehicle_type_id":"4","last_reported":1726484854,"current_range_meters":9200,"station_id":"ce4bgt12rcd13ifvqcd0","pricing_plan_id":"cebpf4jnsgd1na2vs0mg"},{"bike_id":"20efec23-8fd5-48fe-a242-0060c12f8870","system_id":"levelo_inurba_marseille","lat":43.27485,"lon":5.42457,"is_reserved":false,"is_disabled":false,"rental_uris":{"android":"levelo://app?vid=20efec23-8fd5-48fe-a242-0060c12f8870","ios":"levelo://app?vid=20efec23-8fd5-48fe-a242-0060c12f8870"},"vehicle_type_id":"4","last_reported":1726484854,"current_range_meters":3600,"station_id":"ce4bhn92rcd13ifvqgrg","pricing_plan_id":"cebpf4jnsgd1na2vs0mg"},{"bike_id":"0264cadd-851d-4352-aca0-d6c76fdc4e6d","system_id":"levelo_inurba_marseille","lat":43.28277,"lon":5.35073,"is_reserved":false,"is_disabled":false,"rental_uris":{"android":"levelo://app?vid=0264cadd-851d-4352-aca0-d6c76fdc4e6d","ios":"levelo://app?vid=0264cadd-851d-4352-aca0-d6c76fdc4e6d"},"vehicle_type_id":"4","last_reported":1726484854,"current_range_meters":32800,"station_id":"ce4bhbp2rcd13ifvqerg","pricing_plan_id":"cebpf4jnsgd1na2vs0mg"},{"bike_id":"178d26a0-641d-4bd2-b355-e6bbf632c7de","system_id":"levelo_inurba_marseille","lat":43.3054,"lon":5.36536,"is_reserved":false,"is_disabled":false,"rental_uris":{"android":"levelo://app?vid=178d26a0-641d-4bd2-b355-e6bbf632c7de","ios":"levelo://app?vid=178d26a0-641d-4bd2-b355-e6bbf632c7de"},"vehicle_type_id":"4","last_reported":1726484854,"current_range_meters":30800,"station_id":"ce4bgs12rcd13ifvqcag","pricing_plan_id":"cebpf4jnsgd1na2vs0mg"},{"bike_id":"d0cf88fd-6d28-4ddb-b931-e99535baae23","system_id":"levelo_inurba_marseille","lat":43.27323,"lon":5.3909,"is_reserved":false,"is_disabled":false,"rental_uris":{"android":"levelo://app?vid=d0cf88fd-6d28-4ddb-b931-e99535baae23","ios":"levelo://app?vid=d0cf88fd-6d28-4ddb-b931-e99535baae23"},"vehicle_type_id":"4","last_reported":1726484854,"current_range_meters":19200,"station_id":"ce4bhgp2rcd13ifvqfe0","pricing_plan_id":"cebpf4jnsgd1na2vs0mg"},{"bike_id":"963be3bf-c0b8-4a11-aaff-3bbb65bf021e","system_id":"levelo_inurba_marseille","lat":43.31714,"lon":5.37743,"is_reserved":false,"is_disabled":false,"rental_uris":{"android":"levelo://app?vid=963be3bf-c0b8-4a11-aaff-3bbb65bf021e","ios":"levelo://app?vid=963be3bf-c0b8-4a11-aaff-3bbb65bf021e"},"vehicle_type_id":"4","last_reported":1726484854,"current_range_meters":10800,"station_id":"ce4bgth2rcd13ifvqch0","pricing_plan_id":"cebpf4jnsgd1na2vs0mg"},{"bike_id":"ce703cb4-aa06-4ca3-9d0d-9d78109ec482","system_id":"levelo_inurba_marseille","lat":43.31261,"lon":5.36806,"is_reserved":false,"is_disabled":false,"rental_uris":{"android":"levelo://app?vid=ce703cb4-aa06-4ca3-9d0d-9d78109ec482","ios":"levelo://app?vid=ce703cb4-aa06-4ca3-9d0d-9d78109ec482"},"vehicle_type_id":"4","last_reported":1726484854,"current_range_meters":28000,"station_id":"ce4bgl92rcd13ifvqbq0","pricing_plan_id":"cebpf4jnsgd1na2vs0mg"},{"bike_id":"6ad2fe94-195b-4d58-9ac6-d3a9675a4c80","system_id":"levelo_inurba_marseille","lat":43.23069,"lon":5.3549,"is_reserved":false,"is_disabled":false,"rental_uris":{"android":"levelo://app?vid=6ad2fe94-195b-4d58-9ac6-d3a9675a4c80","ios":"levelo://app?vid=6ad2fe94-195b-4d58-9ac6-d3a9675a4c80"},"vehicle_type_id":"4","last_reported":1726484854,"current_range_meters":16800,"station_id":"cpo3342slgdg3j2ifvpg","pricing_plan_id":"cebpf4jnsgd1na2vs0mg"},{"bike_id":"6dd17a2f-59bb-4453-859d-2c09ab795824","system_id":"levelo_inurba_marseille","lat":43.33021,"lon":5.39047,"is_reserved":false,"is_disabled":false,"rental_uris":{"android":"levelo://app?vid=6dd17a2f-59bb-4453-859d-2c09ab795824","ios":"levelo://app?vid=6dd17a2f-59bb-4453-859d-2c09ab795824"},"vehicle_type_id":"4","last_reported":1726484854,"current_range_meters":37600,"station_id":"ce4bhr92rcd13ifvqhrg","pricing_plan_id":"cebpf4jnsgd1na2vs0mg"},{"bike_id":"fdc6422e-fbce-4de2-86fd-97c17816432b","system_id":"levelo_inurba_marseille","lat":43.297791,"lon":5.372234,"is_reserved":false,"is_disabled":false,"rental_uris":{"android":"levelo://app?vid=fdc6422e-fbce-4de2-86fd-97c17816432b","ios":"levelo://app?vid=fdc6422e-fbce-4de2-86fd-97c17816432b"},"vehicle_type_id":"4","last_reported":1726484854,"current_range_meters":27600,"station_id":"ce4bh9p2rcd13ifvqed0","pricing_plan_id":"cebpf4jnsgd1na2vs0mg"},{"bike_id":"d2187118-431e-45c4-a710-0e79d26be9eb","system_id":"levelo_inurba_marseille","lat":43.24802,"lon":5.3745,"is_reserved":false,"is_disabled":false,"rental_uris":{"android":"levelo://app?vid=d2187118-431e-45c4-a710-0e79d26be9eb","ios":"levelo://app?vid=d2187118-431e-45c4-a710-0e79d26be9eb"},"vehicle_type_id":"4","last_reported":1726484854,"current_range_meters":17200,"station_id":"ce4bhgh2rcd13ifvqfb0","pricing_plan_id":"cebpf4jnsgd1na2vs0mg"},{"bike_id":"3232f0e6-4243-43ac-b8fb-b5c9b421f367","system_id":"levelo_inurba_marseille","lat":43.25938,"lon":5.40907,"is_reserved":false,"is_disabled":false,"rental_uris":{"android":"levelo://app?vid=3232f0e6-4243-43ac-b8fb-b5c9b421f367","ios":"levelo://app?vid=3232f0e6-4243-43ac-b8fb-b5c9b421f367"},"vehicle_type_id":"4","last_reported":1726484854,"current_range_meters":2800,"station_id":"ce4bhm92rcd13ifvqglg","pricing_plan_id":"cebpf4jnsgd1na2vs0mg"},{"bike_id":"726f70c5-02a6-439d-a5e1-a2121d64266e","system_id":"levelo_inurba_marseille","lat":43.27173,"lon":5.40996,"is_reserved":false,"is_disabled":false,"rental_uris":{"android":"levelo://app?vid=726f70c5-02a6-439d-a5e1-a2121d64266e","ios":"levelo://app?vid=726f70c5-02a6-439d-a5e1-a2121d64266e"},"vehicle_type_id":"4","last_reported":1726484854,"current_range_meters":37600,"station_id":"ce4bhl12rcd13ifvqgf0","pricing_plan_id":"cebpf4jnsgd1na2vs0mg"},{"bike_id":"91acaac0-f9a7-4695-a58b-57bacb0d2e70","system_id":"levelo_inurba_marseille","lat":43.28463,"lon":5.35883,"is_reserved":false,"is_disabled":false,"rental_uris":{"android":"levelo://app?vid=91acaac0-f9a7-4695-a58b-57bacb0d2e70","ios":"levelo://app?vid=91acaac0-f9a7-4695-a58b-57bacb0d2e70"},"vehicle_type_id":"4","last_reported":1726484854,"current_range_meters":35600,"station_id":"ce4bhah2rcd13ifvqei0","pricing_plan_id":"cebpf4jnsgd1na2vs0mg"},{"bike_id":"1c79db96-5e4d-4cfe-b310-bde8716f7bfd","system_id":"levelo_inurba_marseille","lat":43.3054,"lon":5.36708,"is_reserved":false,"is_disabled":false,"rental_uris":{"android":"levelo://app?vid=1c79db96-5e4d-4cfe-b310-bde8716f7bfd","ios":"levelo://app?vid=1c79db96-5e4d-4cfe-b310-bde8716f7bfd"},"vehicle_type_id":"4","last_reported":1726484854,"current_range_meters":16400,"station_id":"ce4bgrp2rcd13ifvqc9g","pricing_plan_id":"cebpf4jnsgd1na2vs0mg"},{"bike_id":"22bfdada-89cb-44f7-8af8-144359ef51e3","system_id":"levelo_inurba_marseille","lat":43.30212,"lon":5.39464,"is_reserved":false,"is_disabled":false,"rental_uris":{"android":"levelo://app?vid=22bfdada-89cb-44f7-8af8-144359ef51e3","ios":"levelo://app?vid=22bfdada-89cb-44f7-8af8-144359ef51e3"},"vehicle_type_id":"4","last_reported":1726484854,"current_range_meters":30400,"station_id":"ce4bh0p2rcd13ifvqd70","pricing_plan_id":"cebpf4jnsgd1na2vs0mg"},{"bike_id":"ee96fd0b-2e8e-46a7-9a56-213f944d9ccc","system_id":"levelo_inurba_marseille","lat":43.32486,"lon":5.36553,"is_reserved":false,"is_disabled":false,"rental_uris":{"android":"levelo://app?vid=ee96fd0b-2e8e-46a7-9a56-213f944d9ccc","ios":"levelo://app?vid=ee96fd0b-2e8e-46a7-9a56-213f944d9ccc"},"vehicle_type_id":"4","last_reported":1726484854,"current_range_meters":32400,"station_id":"ce4bhs12rcd13ifvqhvg","pricing_plan_id":"cebpf4jnsgd1na2vs0mg"},{"bike_id":"12e809bb-f34b-48e4-873e-b910da3d78c1","system_id":"levelo_inurba_marseille","lat":43.27497,"lon":5.4245,"is_reserved":false,"is_disabled":false,"rental_uris":{"android":"levelo://app?vid=12e809bb-f34b-48e4-873e-b910da3d78c1","ios":"levelo://app?vid=12e809bb-f34b-48e4-873e-b910da3d78c1"},"vehicle_type_id":"4","last_reported":1726484854,"current_range_meters":28400,"station_id":"ce4bhn92rcd13ifvqgrg","pricing_plan_id":"cebpf4jnsgd1na2vs0mg"},{"bike_id":"dbf08f6c-413a-493f-bcec-16fce332930c","system_id":"levelo_inurba_marseille","lat":43.29286,"lon":5.3747,"is_reserved":false,"is_disabled":false,"rental_uris":{"android":"levelo://app?vid=dbf08f6c-413a-493f-bcec-16fce332930c","ios":"levelo://app?vid=dbf08f6c-413a-493f-bcec-16fce332930c"},"vehicle_type_id":"4","last_reported":1726484854,"current_range_meters":36800,"station_id":"ce4bgi12rcd13ifvqb70","pricing_plan_id":"cebpf4jnsgd1na2vs0mg"},{"bike_id":"22f26e89-4ccd-47af-bb30-5f037502847c","system_id":"levelo_inurba_marseille","lat":43.23192,"lon":5.3999,"is_reserved":false,"is_disabled":false,"rental_uris":{"android":"levelo://app?vid=22f26e89-4ccd-47af-bb30-5f037502847c","ios":"levelo://app?vid=22f26e89-4ccd-47af-bb30-5f037502847c"},"vehicle_type_id":"4","last_reported":1726484854,"current_range_meters":33600,"station_id":"ce4bhn12rcd13ifvqgqg","pricing_plan_id":"cebpf4jnsgd1na2vs0mg"},{"bike_id":"07a83925-dfef-4b2a-93ed-dfa02e7819ee","system_id":"levelo_inurba_marseille","lat":43.34142,"lon":5.40898,"is_reserved":false,"is_disabled":false,"rental_uris":{"android":"levelo://app?vid=07a83925-dfef-4b2a-93ed-dfa02e7819ee","ios":"levelo://app?vid=07a83925-dfef-4b2a-93ed-dfa02e7819ee"},"vehicle_type_id":"4","last_reported":1726484854,"current_range_meters":28400,"station_id":"ce4bhqh2rcd13ifvqhlg","pricing_plan_id":"cebpf4jnsgd1na2vs0mg"},{"bike_id":"e15c09b7-21db-463f-a4ea-2ac081cf0d97","system_id":"levelo_inurba_marseille","lat":43.30603,"lon":5.37213,"is_reserved":false,"is_disabled":false,"rental_uris":{"android":"levelo://app?vid=e15c09b7-21db-463f-a4ea-2ac081cf0d97","ios":"levelo://app?vid=e15c09b7-21db-463f-a4ea-2ac081cf0d97"},"vehicle_type_id":"4","last_reported":1726484854,"current_range_meters":38800,"station_id":"ce4bgqh2rcd13ifvqc4g","pricing_plan_id":"cebpf4jnsgd1na2vs0mg"},{"bike_id":"b3628e93-2abd-4717-8c63-6e885b078e62","system_id":"levelo_inurba_marseille","lat":43.25831,"lon":5.39424,"is_reserved":false,"is_disabled":false,"rental_uris":{"android":"levelo://app?vid=b3628e93-2abd-4717-8c63-6e885b078e62","ios":"levelo://app?vid=b3628e93-2abd-4717-8c63-6e885b078e62"},"vehicle_type_id":"4","last_reported":1726484854,"current_range_meters":4400,"station_id":"ce4bhip2rcd13ifvqft0","pricing_plan_id":"cebpf4jnsgd1na2vs0mg"},{"bike_id":"b989c130-d26b-4398-8df5-85e5ed4d254a","system_id":"levelo_inurba_marseille","lat":43.305267,"lon":5.381441,"is_reserved":false,"is_disabled":false,"rental_uris":{"android":"levelo://app?vid=b989c130-d26b-4398-8df5-85e5ed4d254a","ios":"levelo://app?vid=b989c130-d26b-4398-8df5-85e5ed4d254a"},"vehicle_type_id":"4","last_reported":1726484854,"current_range_meters":36000,"station_id":"ce4bh2h2rcd13ifvqdh0","pricing_plan_id":"cebpf4jnsgd1na2vs0mg"},{"bike_id":"d058256b-c6a8-498a-bee5-fce4ff6caee2","system_id":"levelo_inurba_marseille","lat":43.26945,"lon":5.40247,"is_reserved":false,"is_disabled":false,"rental_uris":{"android":"levelo://app?vid=d058256b-c6a8-498a-bee5-fce4ff6caee2","ios":"levelo://app?vid=d058256b-c6a8-498a-bee5-fce4ff6caee2"},"vehicle_type_id":"4","last_reported":1726484854,"current_range_meters":38800,"station_id":"cjm6bp8fraef2m0cb0m0","pricing_plan_id":"cebpf4jnsgd1na2vs0mg"},{"bike_id":"65eecb51-7024-4f30-af20-d65f809bce2b","system_id":"levelo_inurba_marseille","lat":43.31562,"lon":5.39247,"is_reserved":false,"is_disabled":false,"rental_uris":{"android":"levelo://app?vid=65eecb51-7024-4f30-af20-d65f809bce2b","ios":"levelo://app?vid=65eecb51-7024-4f30-af20-d65f809bce2b"},"vehicle_type_id":"4","last_reported":1726484854,"current_range_meters":14000,"station_id":"ce4bgvp2rcd13ifvqcu0","pricing_plan_id":"cebpf4jnsgd1na2vs0mg"},{"bike_id":"b28254a1-b5b2-4759-9ce2-71dcbb460406","system_id":"levelo_inurba_marseille","lat":43.29313,"lon":5.37188,"is_reserved":false,"is_disabled":false,"rental_uris":{"android":"levelo://app?vid=b28254a1-b5b2-4759-9ce2-71dcbb460406","ios":"levelo://app?vid=b28254a1-b5b2-4759-9ce2-71dcbb460406"},"vehicle_type_id":"4","last_reported":1726484854,"current_range_meters":12800,"station_id":"ce4bgh92rcd13ifvqb40","pricing_plan_id":"cebpf4jnsgd1na2vs0mg"},{"bike_id":"d13330bb-66ab-42c4-9101-22a542a335d2","system_id":"levelo_inurba_marseille","lat":43.26689,"lon":5.38261,"is_reserved":false,"is_disabled":false,"rental_uris":{"android":"levelo://app?vid=d13330bb-66ab-42c4-9101-22a542a335d2","ios":"levelo://app?vid=d13330bb-66ab-42c4-9101-22a542a335d2"},"vehicle_type_id":"4","last_reported":1726484854,"current_range_meters":38800,"station_id":"ce4bhg92rcd13ifvqf90","pricing_plan_id":"cebpf4jnsgd1na2vs0mg"},{"bike_id":"c276139e-0047-49fb-a2f8-d20eb0b1246c","system_id":"levelo_inurba_marseille","lat":43.27943,"lon":5.4105,"is_reserved":false,"is_disabled":false,"rental_uris":{"android":"levelo://app?vid=c276139e-0047-49fb-a2f8-d20eb0b1246c","ios":"levelo://app?vid=c276139e-0047-49fb-a2f8-d20eb0b1246c"},"vehicle_type_id":"4","last_reported":1726484854,"current_range_meters":4800,"station_id":"ce4bhnp2rcd13ifvqh0g","pricing_plan_id":"cebpf4jnsgd1na2vs0mg"},{"bike_id":"74ee151f-9589-4cb4-b45c-6e244ba186c9","system_id":"levelo_inurba_marseille","lat":43.264832,"lon":5.395444,"is_reserved":false,"is_disabled":false,"rental_uris":{"android":"levelo://app?vid=74ee151f-9589-4cb4-b45c-6e244ba186c9","ios":"levelo://app?vid=74ee151f-9589-4cb4-b45c-6e244ba186c9"},"vehicle_type_id":"4","last_reported":1726484854,"current_range_meters":10000,"station_id":"ce4bhi12rcd13ifvqfq0","pricing_plan_id":"cebpf4jnsgd1na2vs0mg"},{"bike_id":"d1f38fcd-be46-4877-a9ac-34b365272c30","system_id":"levelo_inurba_marseille","lat":43.27091,"lon":5.43329,"is_reserved":false,"is_disabled":false,"rental_uris":{"android":"levelo://app?vid=d1f38fcd-be46-4877-a9ac-34b365272c30","ios":"levelo://app?vid=d1f38fcd-be46-4877-a9ac-34b365272c30"},"vehicle_type_id":"4","last_reported":1726484854,"current_range_meters":9600,"station_id":"","pricing_plan_id":"cebpf4jnsgd1na2vs0mg"},{"bike_id":"d85e24f9-62ed-4f5e-abf7-0247e2bc476b","system_id":"levelo_inurba_marseille","lat":43.29556,"lon":5.42291,"is_reserved":false,"is_disabled":false,"rental_uris":{"android":"levelo://app?vid=d85e24f9-62ed-4f5e-abf7-0247e2bc476b","ios":"levelo://app?vid=d85e24f9-62ed-4f5e-abf7-0247e2bc476b"},"vehicle_type_id":"4","last_reported":1726484854,"current_range_meters":39200,"station_id":"ce4bhph2rcd13ifvqhdg","pricing_plan_id":"cebpf4jnsgd1na2vs0mg"},{"bike_id":"a5a1bae8-760e-40f5-b936-66680ea670ab","system_id":"levelo_inurba_marseille","lat":43.288923,"lon":5.359552,"is_reserved":false,"is_disabled":false,"rental_uris":{"android":"levelo://app?vid=a5a1bae8-760e-40f5-b936-66680ea670ab","ios":"levelo://app?vid=a5a1bae8-760e-40f5-b936-66680ea670ab"},"vehicle_type_id":"4","last_reported":1726484854,"current_range_meters":26800,"station_id":"ce4bha92rcd13ifvqeg0","pricing_plan_id":"cebpf4jnsgd1na2vs0mg"},{"bike_id":"77be640b-ac4b-4617-be22-5763d79d29be","system_id":"levelo_inurba_marseille","lat":43.32487,"lon":5.36552,"is_reserved":false,"is_disabled":false,"rental_uris":{"android":"levelo://app?vid=77be640b-ac4b-4617-be22-5763d79d29be","ios":"levelo://app?vid=77be640b-ac4b-4617-be22-5763d79d29be"},"vehicle_type_id":"4","last_reported":1726484854,"current_range_meters":28000,"station_id":"ce4bhs12rcd13ifvqhvg","pricing_plan_id":"cebpf4jnsgd1na2vs0mg"},{"bike_id":"d351e7f9-832d-4431-a259-a4f86b602bcf","system_id":"levelo_inurba_marseille","lat":43.24808,"lon":5.37457,"is_reserved":false,"is_disabled":false,"rental_uris":{"android":"levelo://app?vid=d351e7f9-832d-4431-a259-a4f86b602bcf","ios":"levelo://app?vid=d351e7f9-832d-4431-a259-a4f86b602bcf"},"vehicle_type_id":"4","last_reported":1726484854,"current_range_meters":9200,"station_id":"ce4bhgh2rcd13ifvqfb0","pricing_plan_id":"cebpf4jnsgd1na2vs0mg"},{"bike_id":"bd1998e9-4049-4c61-8c23-a9018ce938cc","system_id":"levelo_inurba_marseille","lat":43.27498,"lon":5.42448,"is_reserved":false,"is_disabled":false,"rental_uris":{"android":"levelo://app?vid=bd1998e9-4049-4c61-8c23-a9018ce938cc","ios":"levelo://app?vid=bd1998e9-4049-4c61-8c23-a9018ce938cc"},"vehicle_type_id":"4","last_reported":1726484854,"current_range_meters":30400,"station_id":"ce4bhn92rcd13ifvqgrg","pricing_plan_id":"cebpf4jnsgd1na2vs0mg"},{"bike_id":"6e4e1796-c6c0-4623-b356-9fa86573f526","system_id":"levelo_inurba_marseille","lat":43.26214,"lon":5.37436,"is_reserved":false,"is_disabled":false,"rental_uris":{"android":"levelo://app?vid=6e4e1796-c6c0-4623-b356-9fa86573f526","ios":"levelo://app?vid=6e4e1796-c6c0-4623-b356-9fa86573f526"},"vehicle_type_id":"4","last_reported":1726484854,"current_range_meters":19200,"station_id":"ce4bhgp2rcd13ifvqfc0","pricing_plan_id":"cebpf4jnsgd1na2vs0mg"},{"bike_id":"27374e0c-ceef-4b28-ae67-ff8661e01535","system_id":"levelo_inurba_marseille","lat":43.30457,"lon":5.37912,"is_reserved":false,"is_disabled":false,"rental_uris":{"android":"levelo://app?vid=27374e0c-ceef-4b28-ae67-ff8661e01535","ios":"levelo://app?vid=27374e0c-ceef-4b28-ae67-ff8661e01535"},"vehicle_type_id":"4","last_reported":1726484854,"current_range_meters":38800,"station_id":"ce4bgup2rcd13ifvqcn0","pricing_plan_id":"cebpf4jnsgd1na2vs0mg"},{"bike_id":"6da566a6-1c56-4830-ad07-012b26ffeade","system_id":"levelo_inurba_marseille","lat":43.32489,"lon":5.36557,"is_reserved":false,"is_disabled":false,"rental_uris":{"android":"levelo://app?vid=6da566a6-1c56-4830-ad07-012b26ffeade","ios":"levelo://app?vid=6da566a6-1c56-4830-ad07-012b26ffeade"},"vehicle_type_id":"4","last_reported":1726484854,"current_range_meters":37600,"station_id":"ce4bhs12rcd13ifvqhvg","pricing_plan_id":"cebpf4jnsgd1na2vs0mg"},{"bike_id":"5ce3c22b-1a1d-4f74-98d5-ad1712c6cc8c","system_id":"levelo_inurba_marseille","lat":43.30547,"lon":5.36708,"is_reserved":false,"is_disabled":false,"rental_uris":{"android":"levelo://app?vid=5ce3c22b-1a1d-4f74-98d5-ad1712c6cc8c","ios":"levelo://app?vid=5ce3c22b-1a1d-4f74-98d5-ad1712c6cc8c"},"vehicle_type_id":"4","last_reported":1726484854,"current_range_meters":35600,"station_id":"ce4bgrp2rcd13ifvqc9g","pricing_plan_id":"cebpf4jnsgd1na2vs0mg"},{"bike_id":"641e5dd7-ad63-40e3-af25-3356f4893d16","system_id":"levelo_inurba_marseille","lat":43.30467,"lon":5.37911,"is_reserved":false,"is_disabled":false,"rental_uris":{"android":"levelo://app?vid=641e5dd7-ad63-40e3-af25-3356f4893d16","ios":"levelo://app?vid=641e5dd7-ad63-40e3-af25-3356f4893d16"},"vehicle_type_id":"4","last_reported":1726484854,"current_range_meters":38400,"station_id":"ce4bgup2rcd13ifvqcn0","pricing_plan_id":"cebpf4jnsgd1na2vs0mg"},{"bike_id":"2e95b63c-f6e4-4c4e-808c-eb3614b140b9","system_id":"levelo_inurba_marseille","lat":43.27581,"lon":5.3841,"is_reserved":false,"is_disabled":false,"rental_uris":{"android":"levelo://app?vid=2e95b63c-f6e4-4c4e-808c-eb3614b140b9","ios":"levelo://app?vid=2e95b63c-f6e4-4c4e-808c-eb3614b140b9"},"vehicle_type_id":"4","last_reported":1726484854,"current_range_meters":30000,"station_id":"ce4bhh92rcd13ifvqfi0","pricing_plan_id":"cebpf4jnsgd1na2vs0mg"},{"bike_id":"8a5a2ba2-d1e8-40a2-9e7b-8c23147d8cb3","system_id":"levelo_inurba_marseille","lat":43.32043,"lon":5.41563,"is_reserved":false,"is_disabled":false,"rental_uris":{"android":"levelo://app?vid=8a5a2ba2-d1e8-40a2-9e7b-8c23147d8cb3","ios":"levelo://app?vid=8a5a2ba2-d1e8-40a2-9e7b-8c23147d8cb3"},"vehicle_type_id":"4","last_reported":1726484854,"current_range_meters":16400,"station_id":"ce4bhq92rcd13ifvqhkg","pricing_plan_id":"cebpf4jnsgd1na2vs0mg"},{"bike_id":"92fe58d9-5f32-4753-a301-792276ec3d1b","system_id":"levelo_inurba_marseille","lat":43.27306,"lon":5.39096,"is_reserved":false,"is_disabled":false,"rental_uris":{"android":"levelo://app?vid=92fe58d9-5f32-4753-a301-792276ec3d1b","ios":"levelo://app?vid=92fe58d9-5f32-4753-a301-792276ec3d1b"},"vehicle_type_id":"4","last_reported":1726484854,"current_range_meters":19600,"station_id":"ce4bhgp2rcd13ifvqfe0","pricing_plan_id":"cebpf4jnsgd1na2vs0mg"},{"bike_id":"d919000c-5aae-4fe3-9444-cda057a56741","system_id":"levelo_inurba_marseille","lat":43.30127,"lon":5.37428,"is_reserved":false,"is_disabled":false,"rental_uris":{"android":"levelo://app?vid=d919000c-5aae-4fe3-9444-cda057a56741","ios":"levelo://app?vid=d919000c-5aae-4fe3-9444-cda057a56741"},"vehicle_type_id":"4","last_reported":1726484854,"current_range_meters":38800,"station_id":"ce4bgs92rcd13ifvqcc0","pricing_plan_id":"cebpf4jnsgd1na2vs0mg"},{"bike_id":"4d7677ab-d948-4854-92d7-3cbb0e5f0a7e","system_id":"levelo_inurba_marseille","lat":43.31491,"lon":5.37296,"is_reserved":false,"is_disabled":false,"rental_uris":{"android":"levelo://app?vid=4d7677ab-d948-4854-92d7-3cbb0e5f0a7e","ios":"levelo://app?vid=4d7677ab-d948-4854-92d7-3cbb0e5f0a7e"},"vehicle_type_id":"4","last_reported":1726484854,"current_range_meters":32800,"station_id":"ce4bgt12rcd13ifvqcd0","pricing_plan_id":"cebpf4jnsgd1na2vs0mg"},{"bike_id":"3c0e1088-df32-473a-9665-525fbc59554e","system_id":"levelo_inurba_marseille","lat":43.30894,"lon":5.39639,"is_reserved":false,"is_disabled":false,"rental_uris":{"android":"levelo://app?vid=3c0e1088-df32-473a-9665-525fbc59554e","ios":"levelo://app?vid=3c0e1088-df32-473a-9665-525fbc59554e"},"vehicle_type_id":"4","last_reported":1726484854,"current_range_meters":3200,"station_id":"ce4bh012rcd13ifvqcv0","pricing_plan_id":"cebpf4jnsgd1na2vs0mg"},{"bike_id":"84fb6fdc-a5a6-442f-8771-6079a3b1d051","system_id":"levelo_inurba_marseille","lat":43.31231,"lon":5.36865,"is_reserved":false,"is_disabled":false,"rental_uris":{"android":"levelo://app?vid=84fb6fdc-a5a6-442f-8771-6079a3b1d051","ios":"levelo://app?vid=84fb6fdc-a5a6-442f-8771-6079a3b1d051"},"vehicle_type_id":"4","last_reported":1726484854,"current_range_meters":37600,"station_id":"ce4bgl92rcd13ifvqbq0","pricing_plan_id":"cebpf4jnsgd1na2vs0mg"},{"bike_id":"e21f14a0-02e4-481d-b5ef-9b58a6f3b489","system_id":"levelo_inurba_marseille","lat":43.26946,"lon":5.40237,"is_reserved":false,"is_disabled":false,"rental_uris":{"android":"levelo://app?vid=e21f14a0-02e4-481d-b5ef-9b58a6f3b489","ios":"levelo://app?vid=e21f14a0-02e4-481d-b5ef-9b58a6f3b489"},"vehicle_type_id":"4","last_reported":1726484854,"current_range_meters":33600,"station_id":"cjm6bp8fraef2m0cb0m0","pricing_plan_id":"cebpf4jnsgd1na2vs0mg"},{"bike_id":"103368f7-6cf9-4f61-a9f7-0e638a4ed99a","system_id":"levelo_inurba_marseille","lat":43.24082,"lon":5.37749,"is_reserved":false,"is_disabled":false,"rental_uris":{"android":"levelo://app?vid=103368f7-6cf9-4f61-a9f7-0e638a4ed99a","ios":"levelo://app?vid=103368f7-6cf9-4f61-a9f7-0e638a4ed99a"},"vehicle_type_id":"4","last_reported":1726484854,"current_range_meters":8400,"station_id":"ce4bhnp2rcd13ifvqgvg","pricing_plan_id":"cebpf4jnsgd1na2vs0mg"},{"bike_id":"658217cf-e053-4e8e-99d2-518553366ec5","system_id":"levelo_inurba_marseille","lat":43.30547,"lon":5.38423,"is_reserved":false,"is_disabled":false,"rental_uris":{"android":"levelo://app?vid=658217cf-e053-4e8e-99d2-518553366ec5","ios":"levelo://app?vid=658217cf-e053-4e8e-99d2-518553366ec5"},"vehicle_type_id":"4","last_reported":1726484854,"current_range_meters":27200,"station_id":"ce4bgg92rcd13ifvqb30","pricing_plan_id":"cebpf4jnsgd1na2vs0mg"},{"bike_id":"af78b383-cb47-4a8e-8a00-34ed69efc3a0","system_id":"levelo_inurba_marseille","lat":43.24085,"lon":5.37738,"is_reserved":false,"is_disabled":false,"rental_uris":{"android":"levelo://app?vid=af78b383-cb47-4a8e-8a00-34ed69efc3a0","ios":"levelo://app?vid=af78b383-cb47-4a8e-8a00-34ed69efc3a0"},"vehicle_type_id":"4","last_reported":1726484854,"current_range_meters":5600,"station_id":"ce4bhnp2rcd13ifvqgvg","pricing_plan_id":"cebpf4jnsgd1na2vs0mg"},{"bike_id":"5897d7f3-bccb-4c20-b95a-a44cd028be89","system_id":"levelo_inurba_marseille","lat":43.29274,"lon":5.36837,"is_reserved":false,"is_disabled":false,"rental_uris":{"android":"levelo://app?vid=5897d7f3-bccb-4c20-b95a-a44cd028be89","ios":"levelo://app?vid=5897d7f3-bccb-4c20-b95a-a44cd028be89"},"vehicle_type_id":"4","last_reported":1726484854,"current_range_meters":20800,"station_id":"ce4bhbp2rcd13ifvqesg","pricing_plan_id":"cebpf4jnsgd1na2vs0mg"},{"bike_id":"dbf8ea2c-01ce-4252-9070-3739811ee1fa","system_id":"levelo_inurba_marseille","lat":43.312592,"lon":5.385004,"is_reserved":false,"is_disabled":false,"rental_uris":{"android":"levelo://app?vid=dbf8ea2c-01ce-4252-9070-3739811ee1fa","ios":"levelo://app?vid=dbf8ea2c-01ce-4252-9070-3739811ee1fa"},"vehicle_type_id":"4","last_reported":1726484854,"current_range_meters":19600,"station_id":"ce4bgt92rcd13ifvqcf0","pricing_plan_id":"cebpf4jnsgd1na2vs0mg"},{"bike_id":"b55dcf79-298a-47a9-851f-333317cea3ad","system_id":"levelo_inurba_marseille","lat":43.29272,"lon":5.36839,"is_reserved":false,"is_disabled":false,"rental_uris":{"android":"levelo://app?vid=b55dcf79-298a-47a9-851f-333317cea3ad","ios":"levelo://app?vid=b55dcf79-298a-47a9-851f-333317cea3ad"},"vehicle_type_id":"4","last_reported":1726484854,"current_range_meters":8400,"station_id":"ce4bhbp2rcd13ifvqesg","pricing_plan_id":"cebpf4jnsgd1na2vs0mg"},{"bike_id":"328d45f9-980e-4811-97c0-47d761861509","system_id":"levelo_inurba_marseille","lat":43.29847,"lon":5.37836,"is_reserved":false,"is_disabled":false,"rental_uris":{"android":"levelo://app?vid=328d45f9-980e-4811-97c0-47d761861509","ios":"levelo://app?vid=328d45f9-980e-4811-97c0-47d761861509"},"vehicle_type_id":"4","last_reported":1726484854,"current_range_meters":24000,"station_id":"ce4bgkh2rcd13ifvqbl0","pricing_plan_id":"cebpf4jnsgd1na2vs0mg"},{"bike_id":"303b6c36-033a-44f5-be5d-7c8502084743","system_id":"levelo_inurba_marseille","lat":43.26781,"lon":5.39418,"is_reserved":false,"is_disabled":false,"rental_uris":{"android":"levelo://app?vid=303b6c36-033a-44f5-be5d-7c8502084743","ios":"levelo://app?vid=303b6c36-033a-44f5-be5d-7c8502084743"},"vehicle_type_id":"4","last_reported":1726484854,"current_range_meters":38000,"station_id":"ce4bhh12rcd13ifvqfg0","pricing_plan_id":"cebpf4jnsgd1na2vs0mg"},{"bike_id":"857ca99f-8231-477f-bb82-4ec20d1b41e0","system_id":"levelo_inurba_marseille","lat":43.31489,"lon":5.37295,"is_reserved":false,"is_disabled":false,"rental_uris":{"android":"levelo://app?vid=857ca99f-8231-477f-bb82-4ec20d1b41e0","ios":"levelo://app?vid=857ca99f-8231-477f-bb82-4ec20d1b41e0"},"vehicle_type_id":"4","last_reported":1726484854,"current_range_meters":2000,"station_id":"ce4bgt12rcd13ifvqcd0","pricing_plan_id":"cebpf4jnsgd1na2vs0mg"},{"bike_id":"faf816e6-4e87-4e93-88d4-5861eae33b5c","system_id":"levelo_inurba_marseille","lat":43.24083,"lon":5.37749,"is_reserved":false,"is_disabled":false,"rental_uris":{"android":"levelo://app?vid=faf816e6-4e87-4e93-88d4-5861eae33b5c","ios":"levelo://app?vid=faf816e6-4e87-4e93-88d4-5861eae33b5c"},"vehicle_type_id":"4","last_reported":1726484854,"current_range_meters":20400,"station_id":"ce4bhnp2rcd13ifvqgvg","pricing_plan_id":"cebpf4jnsgd1na2vs0mg"},{"bike_id":"d1bc1a92-c34f-45bd-b470-2fca788491ee","system_id":"levelo_inurba_marseille","lat":43.32481,"lon":5.36576,"is_reserved":false,"is_disabled":false,"rental_uris":{"android":"levelo://app?vid=d1bc1a92-c34f-45bd-b470-2fca788491ee","ios":"levelo://app?vid=d1bc1a92-c34f-45bd-b470-2fca788491ee"},"vehicle_type_id":"4","last_reported":1726484854,"current_range_meters":38000,"station_id":"ce4bhs12rcd13ifvqhvg","pricing_plan_id":"cebpf4jnsgd1na2vs0mg"},{"bike_id":"d56080c6-f5e3-4ced-ad36-33b390113fc6","system_id":"levelo_inurba_marseille","lat":43.28989,"lon":5.37825,"is_reserved":false,"is_disabled":false,"rental_uris":{"android":"levelo://app?vid=d56080c6-f5e3-4ced-ad36-33b390113fc6","ios":"levelo://app?vid=d56080c6-f5e3-4ced-ad36-33b390113fc6"},"vehicle_type_id":"4","last_reported":1726484854,"current_range_meters":34800,"station_id":"ce4bh9p2rcd13ifvqed0","pricing_plan_id":"cebpf4jnsgd1na2vs0mg"},{"bike_id":"009c7e0a-a052-421a-8cf8-bac7ad9b461e","system_id":"levelo_inurba_marseille","lat":43.26683,"lon":5.38272,"is_reserved":false,"is_disabled":false,"rental_uris":{"android":"levelo://app?vid=009c7e0a-a052-421a-8cf8-bac7ad9b461e","ios":"levelo://app?vid=009c7e0a-a052-421a-8cf8-bac7ad9b461e"},"vehicle_type_id":"4","last_reported":1726484854,"current_range_meters":30800,"station_id":"ce4bhg92rcd13ifvqf90","pricing_plan_id":"cebpf4jnsgd1na2vs0mg"},{"bike_id":"fa690805-233a-4a70-a9f3-33f1b67cdb1f","system_id":"levelo_inurba_marseille","lat":43.32291,"lon":5.38254,"is_reserved":false,"is_disabled":false,"rental_uris":{"android":"levelo://app?vid=fa690805-233a-4a70-a9f3-33f1b67cdb1f","ios":"levelo://app?vid=fa690805-233a-4a70-a9f3-33f1b67cdb1f"},"vehicle_type_id":"4","last_reported":1726484854,"current_range_meters":37600,"station_id":"ce4bhr12rcd13ifvqhqg","pricing_plan_id":"cebpf4jnsgd1na2vs0mg"},{"bike_id":"8b608b96-fedf-4511-8d4b-09bad2606e1a","system_id":"levelo_inurba_marseille","lat":43.27737,"lon":5.41132,"is_reserved":false,"is_disabled":false,"rental_uris":{"android":"levelo://app?vid=8b608b96-fedf-4511-8d4b-09bad2606e1a","ios":"levelo://app?vid=8b608b96-fedf-4511-8d4b-09bad2606e1a"},"vehicle_type_id":"4","last_reported":1726484854,"current_range_meters":16400,"station_id":"","pricing_plan_id":"cebpf4jnsgd1na2vs0mg"},{"bike_id":"d687a8dc-c1c6-418b-a078-1f315f5fdb26","system_id":"levelo_inurba_marseille","lat":43.32486,"lon":5.36573,"is_reserved":false,"is_disabled":false,"rental_uris":{"android":"levelo://app?vid=d687a8dc-c1c6-418b-a078-1f315f5fdb26","ios":"levelo://app?vid=d687a8dc-c1c6-418b-a078-1f315f5fdb26"},"vehicle_type_id":"4","last_reported":1726484854,"current_range_meters":22800,"station_id":"ce4bhs12rcd13ifvqhvg","pricing_plan_id":"cebpf4jnsgd1na2vs0mg"},{"bike_id":"33a4f1be-5994-4b79-aff3-47598fe1bdb5","system_id":"levelo_inurba_marseille","lat":43.30882,"lon":5.39672,"is_reserved":false,"is_disabled":false,"rental_uris":{"android":"levelo://app?vid=33a4f1be-5994-4b79-aff3-47598fe1bdb5","ios":"levelo://app?vid=33a4f1be-5994-4b79-aff3-47598fe1bdb5"},"vehicle_type_id":"4","last_reported":1726484854,"current_range_meters":19200,"station_id":"ce4bh012rcd13ifvqcv0","pricing_plan_id":"cebpf4jnsgd1na2vs0mg"},{"bike_id":"1b9d0bd6-e50e-476b-95ec-87782ef2f14b","system_id":"levelo_inurba_marseille","lat":43.30597,"lon":5.39352,"is_reserved":false,"is_disabled":false,"rental_uris":{"android":"levelo://app?vid=1b9d0bd6-e50e-476b-95ec-87782ef2f14b","ios":"levelo://app?vid=1b9d0bd6-e50e-476b-95ec-87782ef2f14b"},"vehicle_type_id":"4","last_reported":1726484854,"current_range_meters":28400,"station_id":"ce4bh0p2rcd13ifvqd80","pricing_plan_id":"cebpf4jnsgd1na2vs0mg"},{"bike_id":"ab2d7128-9deb-4bb0-9706-8b564c1875c2","system_id":"levelo_inurba_marseille","lat":43.24085,"lon":5.37743,"is_reserved":false,"is_disabled":false,"rental_uris":{"android":"levelo://app?vid=ab2d7128-9deb-4bb0-9706-8b564c1875c2","ios":"levelo://app?vid=ab2d7128-9deb-4bb0-9706-8b564c1875c2"},"vehicle_type_id":"4","last_reported":1726484854,"current_range_meters":14000,"station_id":"ce4bhnp2rcd13ifvqgvg","pricing_plan_id":"cebpf4jnsgd1na2vs0mg"},{"bike_id":"fa2b0a9f-66ad-4cd1-b7bb-93b9cffdc904","system_id":"levelo_inurba_marseille","lat":43.25934,"lon":5.40916,"is_reserved":false,"is_disabled":false,"rental_uris":{"android":"levelo://app?vid=fa2b0a9f-66ad-4cd1-b7bb-93b9cffdc904","ios":"levelo://app?vid=fa2b0a9f-66ad-4cd1-b7bb-93b9cffdc904"},"vehicle_type_id":"4","last_reported":1726484854,"current_range_meters":28000,"station_id":"ce4bhm92rcd13ifvqglg","pricing_plan_id":"cebpf4jnsgd1na2vs0mg"},{"bike_id":"28c6d943-5531-4458-8f95-af9087750f51","system_id":"levelo_inurba_marseille","lat":43.3055,"lon":5.36713,"is_reserved":false,"is_disabled":false,"rental_uris":{"android":"levelo://app?vid=28c6d943-5531-4458-8f95-af9087750f51","ios":"levelo://app?vid=28c6d943-5531-4458-8f95-af9087750f51"},"vehicle_type_id":"4","last_reported":1726484854,"current_range_meters":38800,"station_id":"ce4bgrp2rcd13ifvqc9g","pricing_plan_id":"cebpf4jnsgd1na2vs0mg"},{"bike_id":"2acc57da-7f58-4cfa-81d0-655c9bef9072","system_id":"levelo_inurba_marseille","lat":43.31223,"lon":5.36845,"is_reserved":false,"is_disabled":false,"rental_uris":{"android":"levelo://app?vid=2acc57da-7f58-4cfa-81d0-655c9bef9072","ios":"levelo://app?vid=2acc57da-7f58-4cfa-81d0-655c9bef9072"},"vehicle_type_id":"4","last_reported":1726484854,"current_range_meters":17200,"station_id":"ce4bgl92rcd13ifvqbq0","pricing_plan_id":"cebpf4jnsgd1na2vs0mg"},{"bike_id":"2f8767f1-c082-4ea7-ba0a-4d639e5f6591","system_id":"levelo_inurba_marseille","lat":43.305634,"lon":5.393471,"is_reserved":false,"is_disabled":false,"rental_uris":{"android":"levelo://app?vid=2f8767f1-c082-4ea7-ba0a-4d639e5f6591","ios":"levelo://app?vid=2f8767f1-c082-4ea7-ba0a-4d639e5f6591"},"vehicle_type_id":"4","last_reported":1726484854,"current_range_meters":36000,"station_id":"ce4bh0p2rcd13ifvqd80","pricing_plan_id":"cebpf4jnsgd1na2vs0mg"},{"bike_id":"94ee58f8-b265-417f-8697-64ebd2f5055b","system_id":"levelo_inurba_marseille","lat":43.24389,"lon":5.37058,"is_reserved":false,"is_disabled":false,"rental_uris":{"android":"levelo://app?vid=94ee58f8-b265-417f-8697-64ebd2f5055b","ios":"levelo://app?vid=94ee58f8-b265-417f-8697-64ebd2f5055b"},"vehicle_type_id":"4","last_reported":1726484854,"current_range_meters":27200,"station_id":"ce4bhlh2rcd13ifvqgig","pricing_plan_id":"cebpf4jnsgd1na2vs0mg"},{"bike_id":"d2ca61ed-07b0-4f91-990e-b98a38e76d1b","system_id":"levelo_inurba_marseille","lat":43.24076,"lon":5.37752,"is_reserved":false,"is_disabled":false,"rental_uris":{"android":"levelo://app?vid=d2ca61ed-07b0-4f91-990e-b98a38e76d1b","ios":"levelo://app?vid=d2ca61ed-07b0-4f91-990e-b98a38e76d1b"},"vehicle_type_id":"4","last_reported":1726484854,"current_range_meters":8000,"station_id":"ce4bhnp2rcd13ifvqgvg","pricing_plan_id":"cebpf4jnsgd1na2vs0mg"},{"bike_id":"05676a45-5ad0-47a1-bce0-8e23f33b2fbd","system_id":"levelo_inurba_marseille","lat":43.25944,"lon":5.40901,"is_reserved":false,"is_disabled":false,"rental_uris":{"android":"levelo://app?vid=05676a45-5ad0-47a1-bce0-8e23f33b2fbd","ios":"levelo://app?vid=05676a45-5ad0-47a1-bce0-8e23f33b2fbd"},"vehicle_type_id":"4","last_reported":1726484854,"current_range_meters":21600,"station_id":"ce4bhm92rcd13ifvqglg","pricing_plan_id":"cebpf4jnsgd1na2vs0mg"},{"bike_id":"16e184b7-d508-4121-ac72-78d5cec086fe","system_id":"levelo_inurba_marseille","lat":43.30135,"lon":5.37416,"is_reserved":false,"is_disabled":false,"rental_uris":{"android":"levelo://app?vid=16e184b7-d508-4121-ac72-78d5cec086fe","ios":"levelo://app?vid=16e184b7-d508-4121-ac72-78d5cec086fe"},"vehicle_type_id":"4","last_reported":1726484854,"current_range_meters":24000,"station_id":"ce4bgs92rcd13ifvqcc0","pricing_plan_id":"cebpf4jnsgd1na2vs0mg"},{"bike_id":"8ce5a7f4-7567-41a9-933e-bdcf2ff2d630","system_id":"levelo_inurba_marseille","lat":43.2408,"lon":5.37757,"is_reserved":false,"is_disabled":false,"rental_uris":{"android":"levelo://app?vid=8ce5a7f4-7567-41a9-933e-bdcf2ff2d630","ios":"levelo://app?vid=8ce5a7f4-7567-41a9-933e-bdcf2ff2d630"},"vehicle_type_id":"4","last_reported":1726484854,"current_range_meters":16000,"station_id":"ce4bhnp2rcd13ifvqgvg","pricing_plan_id":"cebpf4jnsgd1na2vs0mg"},{"bike_id":"b4f663cc-ce45-4587-8e16-235b7f71a5ad","system_id":"levelo_inurba_marseille","lat":43.3377,"lon":5.37433,"is_reserved":false,"is_disabled":false,"rental_uris":{"android":"levelo://app?vid=b4f663cc-ce45-4587-8e16-235b7f71a5ad","ios":"levelo://app?vid=b4f663cc-ce45-4587-8e16-235b7f71a5ad"},"vehicle_type_id":"4","last_reported":1726484854,"current_range_meters":21600,"station_id":"","pricing_plan_id":"cebpf4jnsgd1na2vs0mg"},{"bike_id":"16f68352-a855-48ab-9ad3-5be94cc79a5d","system_id":"levelo_inurba_marseille","lat":43.27498,"lon":5.42461,"is_reserved":false,"is_disabled":false,"rental_uris":{"android":"levelo://app?vid=16f68352-a855-48ab-9ad3-5be94cc79a5d","ios":"levelo://app?vid=16f68352-a855-48ab-9ad3-5be94cc79a5d"},"vehicle_type_id":"4","last_reported":1726484854,"current_range_meters":36800,"station_id":"ce4bhn92rcd13ifvqgrg","pricing_plan_id":"cebpf4jnsgd1na2vs0mg"},{"bike_id":"f1e8ceee-9573-4b77-ab79-482d0d3b70cc","system_id":"levelo_inurba_marseille","lat":43.24176,"lon":5.36398,"is_reserved":false,"is_disabled":false,"rental_uris":{"android":"levelo://app?vid=f1e8ceee-9573-4b77-ab79-482d0d3b70cc","ios":"levelo://app?vid=f1e8ceee-9573-4b77-ab79-482d0d3b70cc"},"vehicle_type_id":"4","last_reported":1726484854,"current_range_meters":30000,"station_id":"cpo36qri1sfpv3e86is0","pricing_plan_id":"cebpf4jnsgd1na2vs0mg"},{"bike_id":"85d88a6a-6d0b-47a4-9988-67671ec72d1b","system_id":"levelo_inurba_marseille","lat":43.287203,"lon":5.37934,"is_reserved":false,"is_disabled":false,"rental_uris":{"android":"levelo://app?vid=85d88a6a-6d0b-47a4-9988-67671ec72d1b","ios":"levelo://app?vid=85d88a6a-6d0b-47a4-9988-67671ec72d1b"},"vehicle_type_id":"4","last_reported":1726484854,"current_range_meters":25600,"station_id":"ce4bh492rcd13ifvqdug","pricing_plan_id":"cebpf4jnsgd1na2vs0mg"},{"bike_id":"f52c86a1-d03e-4390-afc6-0facad696cb6","system_id":"levelo_inurba_marseille","lat":43.240697,"lon":5.377614,"is_reserved":false,"is_disabled":false,"rental_uris":{"android":"levelo://app?vid=f52c86a1-d03e-4390-afc6-0facad696cb6","ios":"levelo://app?vid=f52c86a1-d03e-4390-afc6-0facad696cb6"},"vehicle_type_id":"4","last_reported":1726484854,"current_range_meters":8800,"station_id":"ce4bhnp2rcd13ifvqgvg","pricing_plan_id":"cebpf4jnsgd1na2vs0mg"},{"bike_id":"eddeae32-af74-41a7-88d3-1b6bbde14298","system_id":"levelo_inurba_marseille","lat":43.30143,"lon":5.37422,"is_reserved":false,"is_disabled":false,"rental_uris":{"android":"levelo://app?vid=eddeae32-af74-41a7-88d3-1b6bbde14298","ios":"levelo://app?vid=eddeae32-af74-41a7-88d3-1b6bbde14298"},"vehicle_type_id":"4","last_reported":1726484854,"current_range_meters":22000,"station_id":"ce4bgs92rcd13ifvqcc0","pricing_plan_id":"cebpf4jnsgd1na2vs0mg"},{"bike_id":"efbad56c-213e-4271-92da-85ba015b61eb","system_id":"levelo_inurba_marseille","lat":43.29045,"lon":5.39955,"is_reserved":false,"is_disabled":false,"rental_uris":{"android":"levelo://app?vid=efbad56c-213e-4271-92da-85ba015b61eb","ios":"levelo://app?vid=efbad56c-213e-4271-92da-85ba015b61eb"},"vehicle_type_id":"4","last_reported":1726484854,"current_range_meters":25600,"station_id":"ce4bh392rcd13ifvqdm0","pricing_plan_id":"cebpf4jnsgd1na2vs0mg"},{"bike_id":"adf4f941-700f-425e-b99f-c6e9f081c463","system_id":"levelo_inurba_marseille","lat":43.3091,"lon":5.36853,"is_reserved":false,"is_disabled":false,"rental_uris":{"android":"levelo://app?vid=adf4f941-700f-425e-b99f-c6e9f081c463","ios":"levelo://app?vid=adf4f941-700f-425e-b99f-c6e9f081c463"},"vehicle_type_id":"4","last_reported":1726484854,"current_range_meters":36400,"station_id":"ce4bgn92rcd13ifvqbvg","pricing_plan_id":"cebpf4jnsgd1na2vs0mg"},{"bike_id":"8468c462-be2a-4699-9384-5577d217a349","system_id":"levelo_inurba_marseille","lat":43.30134,"lon":5.39855,"is_reserved":false,"is_disabled":false,"rental_uris":{"android":"levelo://app?vid=8468c462-be2a-4699-9384-5577d217a349","ios":"levelo://app?vid=8468c462-be2a-4699-9384-5577d217a349"},"vehicle_type_id":"4","last_reported":1726484854,"current_range_meters":30800,"station_id":"ce4bh0h2rcd13ifvqd40","pricing_plan_id":"cebpf4jnsgd1na2vs0mg"},{"bike_id":"ed840cee-a76e-4b62-95a8-f64c3f7740fb","system_id":"levelo_inurba_marseille","lat":43.304626,"lon":5.37894,"is_reserved":false,"is_disabled":false,"rental_uris":{"android":"levelo://app?vid=ed840cee-a76e-4b62-95a8-f64c3f7740fb","ios":"levelo://app?vid=ed840cee-a76e-4b62-95a8-f64c3f7740fb"},"vehicle_type_id":"4","last_reported":1726484854,"current_range_meters":27200,"station_id":"ce4bgv12rcd13ifvqcp0","pricing_plan_id":"cebpf4jnsgd1na2vs0mg"},{"bike_id":"488980a2-2581-4786-a55f-6746fccab000","system_id":"levelo_inurba_marseille","lat":43.24077,"lon":5.37756,"is_reserved":false,"is_disabled":false,"rental_uris":{"android":"levelo://app?vid=488980a2-2581-4786-a55f-6746fccab000","ios":"levelo://app?vid=488980a2-2581-4786-a55f-6746fccab000"},"vehicle_type_id":"4","last_reported":1726484854,"current_range_meters":36400,"station_id":"ce4bhnp2rcd13ifvqgvg","pricing_plan_id":"cebpf4jnsgd1na2vs0mg"},