{"last_updated":1717870160,"ttl":30,"version":"2.2","data":{"bikes":[{"bike_id":"b9086645-93fa-4458-87c7-c8f79a7b1209","system_id":"levelo_inurba_marseille","lat":43.31341,"lon":5.367098,"is_reserved":false,"is_disabled":false,"rental_uris":{"android":"levelo://app?vid=b9086645-93fa-4458-87c7-c8f79a7b1209","ios":"levelo://app?vid=b9086645-93fa-4458-87c7-c8f79a7b1209"},"vehicle_type_id":"4","last_reported":1717870160,"current_range_meters":17200,"station_id":"ce4bgr92rcd13ifvqc6g","pricing_plan_id":"cebpf4jnsgd1na2vs0mg"},{"bike_id":"78a83442-e011-4601-9c1a-25b6bcfb39eb","system_id":"levelo_inurba_marseille","lat":43.31341,"lon":5.367098,"is_reserved":false,"is_disabled":false,"rental_uris":{"android":"levelo://app?vid=78a83442-e011-4601-9c1a-25b6bcfb39eb","ios":"levelo://app?vid=78a83442-e011-4601-9c1a-25b6bcfb39eb"},"vehicle_type_id":"4","last_reported":1717870160,"current_range_meters":1200,"station_id":"ce4bgr92rcd13ifvqc6g","pricing_plan_id":"cebpf4jnsgd1na2vs0mg"},{"bike_id":"63e60a8e-54fa-44af-8fdf-26434f8f9065","system_id":"levelo_inurba_marseille","lat":43.309076,"lon":5.368465,"is_reserved":false,"is_disabled":false,"rental_uris":{"android":"levelo://app?vid=63e60a8e-54fa-44af-8fdf-26434f8f9065","ios":"levelo://app?vid=63e60a8e-54fa-44af-8fdf-26434f8f9065"},"vehicle_type_id":"4","last_reported":1717870160,"current_range_meters":3600,"station_id":"ce4bgn92rcd13ifvqbvg","pricing_plan_id":"cebpf4jnsgd1na2vs0mg"},{"bike_id":"1aff0afa-33aa-40e1-a07d-f32939bcbb70","system_id":"levelo_inurba_marseille","lat":43.314811,"lon":5.373103,"is_reserved":false,"is_disabled":false,"rental_uris":{"android":"levelo://app?vid=1aff0afa-33aa-40e1-a07d-f32939bcbb70","ios":"levelo://app?vid=1aff0afa-33aa-40e1-a07d-f32939bcbb70"},"vehicle_type_id":"4","last_reported":1717870160,"current_range_meters":6800,"station_id":"ce4bgt12rcd13ifvqcd0","pricing_plan_id":"cebpf4jnsgd1na2vs0mg"},{"bike_id":"45709d91-f1f9-434d-af40-83da594fd1d3","system_id":"levelo_inurba_marseille","lat":43.314811,"lon":5.373103,"is_reserved":false,"is_disabled":false,"rental_uris":{"android":"levelo://app?vid=45709d91-f1f9-434d-af40-83da594fd1d3","ios":"levelo://app?vid=45709d91-f1f9-434d-af40-83da594fd1d3"},"vehicle_type_id":"4","last_reported":1717870160,"current_range_meters":0,"station_id":"ce4bgt12rcd13ifvqcd0","pricing_plan_id":"cebpf4jnsgd1na2vs0mg"},{"bike_id":"768f3ead-74cc-4870-afd1-f9f11186d33d","system_id":"levelo_inurba_marseille","lat":43.314811,"lon":5.373103,"is_reserved":false,"is_disabled":false,"rental_uris":{"android":"levelo://app?vid=768f3ead-74cc-4870-afd1-f9f11186d33d","ios":"levelo://app?vid=768f3ead-74cc-4870-afd1-f9f11186d33d"},"vehicle_type_id":"4","last_reported":1717870160,"current_range_meters":0,"station_id":"ce4bgt12rcd13ifvqcd0","pricing_plan_id":"cebpf4jnsgd1na2vs0mg"},{"bike_id":"54920558-7e07-4d53-ba4c-2ed30526977c","system_id":"levelo_inurba_marseille","lat":43.30905,"lon":5.37192,"is_reserved":false,"is_disabled":false,"rental_uris":{"android":"levelo://app?vid=54920558-7e07-4d53-ba4c-2ed30526977c","ios":"levelo://app?vid=54920558-7e07-4d53-ba4c-2ed30526977c"},"vehicle_type_id":"4","last_reported":1717870160,"current_range_meters":0,"station_id":"ce4bguh2rcd13ifvqckg","pricing_plan_id":"cebpf4jnsgd1na2vs0mg"},{"bike_id":"53295028-3f58-42d0-84d8-686ed73f20d0","system_id":"levelo_inurba_marseille","lat":43.316395,"lon":5.37404,"is_reserved":false,"is_disabled":false,"rental_uris":{"android":"levelo://app?vid=53295028-3f58-42d0-84d8-686ed73f20d0","ios":"levelo://app?vid=53295028-3f58-42d0-84d8-686ed73f20d0"},"vehicle_type_id":"4","last_reported":1717870160,"current_range_meters":6800,"station_id":"","pricing_plan_id":"cebpf4jnsgd1na2vs0mg"},{"bike_id":"6711a720-4be1-4766-9812-54d9f67bc267","system_id":"levelo_inurba_marseille","lat":43.318306,"lon":5.373704,"is_reserved":false,"is_disabled":false,"rental_uris":{"android":"levelo://app?vid=6711a720-4be1-4766-9812-54d9f67bc267","ios":"levelo://app?vid=6711a720-4be1-4766-9812-54d9f67bc267"},"vehicle_type_id":"4","last_reported":1717870160,"current_range_meters":10400,"station_id":"","pricing_plan_id":"cebpf4jnsgd1na2vs0mg"},{"bike_id":"c365440a-51ec-49c0-9c02-5ff35992cb9e","system_id":"levelo_inurba_marseille","lat":43.305706,"lon":5.365654,"is_reserved":false,"is_disabled":false,"rental_uris":{"android":"levelo://app?vid=c365440a-51ec-49c0-9c02-5ff35992cb9e","ios":"levelo://app?vid=c365440a-51ec-49c0-9c02-5ff35992cb9e"},"vehicle_type_id":"4","last_reported":1717870160,"current_range_meters":6400,"station_id":"ce4bgs12rcd13ifvqcag","pricing_plan_id":"cebpf4jnsgd1na2vs0mg"},{"bike_id":"6346f381-fec9-4271-aa61-8d45a76bfe42","system_id":"levelo_inurba_marseille","lat":43.309916,"lon":5.376597,"is_reserved":false,"is_disabled":false,"rental_uris":{"android":"levelo://app?vid=6346f381-fec9-4271-aa61-8d45a76bfe42","ios":"levelo://app?vid=6346f381-fec9-4271-aa61-8d45a76bfe42"},"vehicle_type_id":"4","last_reported":1717870160,"current_range_meters":24000,"station_id":"","pricing_plan_id":"cebpf4jnsgd1na2vs0mg"},{"bike_id":"a4242829-860b-44d1-bee3-cf329ecb1833","system_id":"levelo_inurba_marseille","lat":43.305368,"lon":5.367343,"is_reserved":false,"is_disabled":false,"rental_uris":{"android":"levelo://app?vid=a4242829-860b-44d1-bee3-cf329ecb1833","ios":"levelo://app?vid=a4242829-860b-44d1-bee3-cf329ecb1833"},"vehicle_type_id":"4","last_reported":1717870160,"current_range_meters":4000,"station_id":"ce4bgrp2rcd13ifvqc9g","pricing_plan_id":"cebpf4jnsgd1na2vs0mg"},{"bike_id":"1d232f66-2b13-4cb6-bf9c-efe232ba1c98","system_id":"levelo_inurba_marseille","lat":43.305989,"lon":5.37225,"is_reserved":false,"is_disabled":false,"rental_uris":{"android":"levelo://app?vid=1d232f66-2b13-4cb6-bf9c-efe232ba1c98","ios":"levelo://app?vid=1d232f66-2b13-4cb6-bf9c-efe232ba1c98"},"vehicle_type_id":"4","last_reported":1717870160,"current_range_meters":8000,"station_id":"ce4bgqh2rcd13ifvqc4g","pricing_plan_id":"cebpf4jnsgd1na2vs0mg"},{"bike_id":"00eb0f9f-b184-4d07-9969-c9919b5a648f","system_id":"levelo_inurba_marseille","lat":43.318335,"lon":5.374224,"is_reserved":false,"is_disabled":false,"rental_uris":{"android":"levelo://app?vid=00eb0f9f-b184-4d07-9969-c9919b5a648f","ios":"levelo://app?vid=00eb0f9f-b184-4d07-9969-c9919b5a648f"},"vehicle_type_id":"4","last_reported":1717870160,"current_range_meters":18800,"station_id":"ce4bgth2rcd13ifvqch0","pricing_plan_id":"cebpf4jnsgd1na2vs0mg"},{"bike_id":"33fca13a-f19c-4e8a-940f-bee77b8cf315","system_id":"levelo_inurba_marseille","lat":43.311131,"lon":5.377651,"is_reserved":false,"is_disabled":false,"rental_uris":{"android":"levelo://app?vid=33fca13a-f19c-4e8a-940f-bee77b8cf315","ios":"levelo://app?vid=33fca13a-f19c-4e8a-940f-bee77b8cf315"},"vehicle_type_id":"4","last_reported":1717870160,"current_range_meters":19600,"station_id":"ce4bgt92rcd13ifvqcg0","pricing_plan_id":"cebpf4jnsgd1na2vs0mg"},{"bike_id":"c4f63e14-4f50-46a4-8da8-c105b1ccb8ca","system_id":"levelo_inurba_marseille","lat":43.311125,"lon":5.377624,"is_reserved":false,"is_disabled":false,"rental_uris":{"android":"levelo://app?vid=c4f63e14-4f50-46a4-8da8-c105b1ccb8ca","ios":"levelo://app?vid=c4f63e14-4f50-46a4-8da8-c105b1ccb8ca"},"vehicle_type_id":"4","last_reported":1717870160,"current_range_meters":22400,"station_id":"ce4bgt92rcd13ifvqcg0","pricing_plan_id":"cebpf4jnsgd1na2vs0mg"},{"bike_id":"dd225854-ea3f-4f7f-944e-6a8b14841c22","system_id":"levelo_inurba_marseille","lat":43.316921,"lon":5.376958,"is_reserved":false,"is_disabled":false,"rental_uris":{"android":"levelo://app?vid=dd225854-ea3f-4f7f-944e-6a8b14841c22","ios":"levelo://app?vid=dd225854-ea3f-4f7f-944e-6a8b14841c22"},"vehicle_type_id":"4","last_reported":1717870160,"current_range_meters":9600,"station_id":"ce4bgs92rcd13ifvqcc0","pricing_plan_id":"cebpf4jnsgd1na2vs0mg"},{"bike_id":"7c7a46d4-8894-4422-9edc-62ead863f822","system_id":"levelo_inurba_marseille","lat":43.317075,"lon":5.377367,"is_reserved":false,"is_disabled":false,"rental_uris":{"android":"levelo://app?vid=7c7a46d4-8894-4422-9edc-62ead863f822","ios":"levelo://app?vid=7c7a46d4-8894-4422-9edc-62ead863f822"},"vehicle_type_id":"4","last_reported":1717870160,"current_range_meters":3600,"station_id":"ce4bgth2rcd13ifvqch0","pricing_plan_id":"cebpf4jnsgd1na2vs0mg"},{"bike_id":"7a47f840-aac7-4e62-a63f-08d6726051c6","system_id":"levelo_inurba_marseille","lat":43.317075,"lon":5.377367,"is_reserved":false,"is_disabled":false,"rental_uris":{"android":"levelo://app?vid=7a47f840-aac7-4e62-a63f-08d6726051c6","ios":"levelo://app?vid=7a47f840-aac7-4e62-a63f-08d6726051c6"},"vehicle_type_id":"4","last_reported":1717870160,"current_range_meters":0,"station_id":"ce4bgth2rcd13ifvqch0","pricing_plan_id":"cebpf4jnsgd1na2vs0mg"},{"bike_id":"256dad3a-3e5b-4203-aeca-c6f7447c13b6","system_id":"levelo_inurba_marseille","lat":43.317075,"lon":5.377367,"is_reserved":false,"is_disabled":false,"rental_uris":{"android":"levelo://app?vid=256dad3a-3e5b-4203-aeca-c6f7447c13b6","ios":"levelo://app?vid=256dad3a-3e5b-4203-aeca-c6f7447c13b6"},"vehicle_type_id":"4","last_reported":1717870160,"current_range_meters":0,"station_id":"ce4bgth2rcd13ifvqch0","pricing_plan_id":"cebpf4jnsgd1na2vs0mg"},{"bike_id":"da60ff26-13ac-44e6-98d9-0ba5ae360306","system_id":"levelo_inurba_marseille","lat":43.317075,"lon":5.377367,"is_reserved":false,"is_disabled":false,"rental_uris":{"android":"levelo://app?vid=da60ff26-13ac-44e6-98d9-0ba5ae360306","ios":"levelo://app?vid=da60ff26-13ac-44e6-98d9-0ba5ae360306"},"vehicle_type_id":"4","last_reported":1717870160,"current_range_meters":14000,"station_id":"ce4bgth2rcd13ifvqch0","pricing_plan_id":"cebpf4jnsgd1na2vs0mg"},{"bike_id":"656dd5c2-cb8b-4212-b640-9969e2798b6e","system_id":"levelo_inurba_marseille","lat":43.317075,"lon":5.377367,"is_reserved":false,"is_disabled":false,"rental_uris":{"android":"levelo://app?vid=656dd5c2-cb8b-4212-b640-9969e2798b6e","ios":"levelo://app?vid=656dd5c2-cb8b-4212-b640-9969e2798b6e"},"vehicle_type_id":"4","last_reported":1717870160,"current_range_meters":29600,"station_id":"ce4bgth2rcd13ifvqch0","pricing_plan_id":"cebpf4jnsgd1na2vs0mg"},{"bike_id":"25b4bd04-80d2-4d70-a438-a4544adbf450","system_id":"levelo_inurba_marseille","lat":43.30201,"lon":5.36623,"is_reserved":false,"is_disabled":false,"rental_uris":{"android":"levelo://app?vid=25b4bd04-80d2-4d70-a438-a4544adbf450","ios":"levelo://app?vid=25b4bd04-80d2-4d70-a438-a4544adbf450"},"vehicle_type_id":"4","last_reported":1717870160,"current_range_meters":8400,"station_id":"ce4bgrh2rcd13ifvqc8g","pricing_plan_id":"cebpf4jnsgd1na2vs0mg"},{"bike_id":"8c22a2cd-5d4d-4d26-914f-42e837712858","system_id":"levelo_inurba_marseille","lat":43.308012,"lon":5.381511,"is_reserved":false,"is_disabled":false,"rental_uris":{"android":"levelo://app?vid=8c22a2cd-5d4d-4d26-914f-42e837712858","ios":"levelo://app?vid=8c22a2cd-5d4d-4d26-914f-42e837712858"},"vehicle_type_id":"4","last_reported":1717870160,"current_range_meters":10400,"station_id":"ce4bgt12rcd13ifvqce0","pricing_plan_id":"cebpf4jnsgd1na2vs0mg"},{"bike_id":"8405c934-8438-4f27-bf17-fcc98d079886","system_id":"levelo_inurba_marseille","lat":43.311426,"lon":5.383033,"is_reserved":false,"is_disabled":false,"rental_uris":{"android":"levelo://app?vid=8405c934-8438-4f27-bf17-fcc98d079886","ios":"levelo://app?vid=8405c934-8438-4f27-bf17-fcc98d079886"},"vehicle_type_id":"4","last_reported":1717870160,"current_range_meters":17600,"station_id":"ce4bgv92rcd13ifvqcr0","pricing_plan_id":"cebpf4jnsgd1na2vs0mg"},{"bike_id":"4a3e58ae-2f47-49e2-9f3e-12df9fbcbd9d","system_id":"levelo_inurba_marseille","lat":43.324771,"lon":5.36557,"is_reserved":false,"is_disabled":false,"rental_uris":{"android":"levelo://app?vid=4a3e58ae-2f47-49e2-9f3e-12df9fbcbd9d","ios":"levelo://app?vid=4a3e58ae-2f47-49e2-9f3e-12df9fbcbd9d"},"vehicle_type_id":"4","last_reported":1717870160,"current_range_meters":15200,"station_id":"ce4bhs12rcd13ifvqhvg","pricing_plan_id":"cebpf4jnsgd1na2vs0mg"},{"bike_id":"3c9fe599-11ef-4904-ac9f-222bc966a693","system_id":"levelo_inurba_marseille","lat":43.308972,"lon":5.382838,"is_reserved":false,"is_disabled":false,"rental_uris":{"android":"levelo://app?vid=3c9fe599-11ef-4904-ac9f-222bc966a693","ios":"levelo://app?vid=3c9fe599-11ef-4904-ac9f-222bc966a693"},"vehicle_type_id":"4","last_reported":1717870160,"current_range_meters":3600,"station_id":"","pricing_plan_id":"cebpf4jnsgd1na2vs0mg"},{"bike_id":"10b285a9-6b4e-4ab9-8471-de8b8b9f7794","system_id":"levelo_inurba_marseille","lat":43.324771,"lon":5.36557,"is_reserved":false,"is_disabled":false,"rental_uris":{"android":"levelo://app?vid=10b285a9-6b4e-4ab9-8471-de8b8b9f7794","ios":"levelo://app?vid=10b285a9-6b4e-4ab9-8471-de8b8b9f7794"},"vehicle_type_id":"4","last_reported":1717870160,"current_range_meters":5200,"station_id":"ce4bhs12rcd13ifvqhvg","pricing_plan_id":"cebpf4jnsgd1na2vs0mg"},{"bike_id":"f64dd03c-abf7-4f1c-b13c-beea30d81a95","system_id":"levelo_inurba_marseille","lat":43.324771,"lon":5.36557,"is_reserved":false,"is_disabled":false,"rental_uris":{"android":"levelo://app?vid=f64dd03c-abf7-4f1c-b13c-beea30d81a95","ios":"levelo://app?vid=f64dd03c-abf7-4f1c-b13c-beea30d81a95"},"vehicle_type_id":"4","last_reported":1717870160,"current_range_meters":3200,"station_id":"ce4bhs12rcd13ifvqhvg","pricing_plan_id":"cebpf4jnsgd1na2vs0mg"},{"bike_id":"ebba8da8-3327-46cc-b663-98f20c006bdc","system_id":"levelo_inurba_marseille","lat":43.324771,"lon":5.36557,"is_reserved":false,"is_disabled":false,"rental_uris":{"android":"levelo://app?vid=ebba8da8-3327-46cc-b663-98f20c006bdc","ios":"levelo://app?vid=ebba8da8-3327-46cc-b663-98f20c006bdc"},"vehicle_type_id":"4","last_reported":1717870160,"current_range_meters":0,"station_id":"ce4bhs12rcd13ifvqhvg","pricing_plan_id":"cebpf4jnsgd1na2vs0mg"},{"bike_id":"148c4574-6b24-4578-896a-ade2aaac741d","system_id":"levelo_inurba_marseille","lat":43.324771,"lon":5.36557,"is_reserved":false,"is_disabled":false,"rental_uris":{"android":"levelo://app?vid=148c4574-6b24-4578-896a-ade2aaac741d","ios":"levelo://app?vid=148c4574-6b24-4578-896a-ade2aaac741d"},"vehicle_type_id":"4","last_reported":1717870160,"current_range_meters":2400,"station_id":"ce4bhs12rcd13ifvqhvg","pricing_plan_id":"cebpf4jnsgd1na2vs0mg"},{"bike_id":"14bb4d96-1087-494d-9118-8d98d1bb7d89","system_id":"levelo_inurba_marseille","lat":43.310804,"lon":5.38359,"is_reserved":false,"is_disabled":false,"rental_uris":{"android":"levelo://app?vid=14bb4d96-1087-494d-9118-8d98d1bb7d89","ios":"levelo://app?vid=14bb4d96-1087-494d-9118-8d98d1bb7d89"},"vehicle_type_id":"4","last_reported":1717870160,"current_range_meters":1600,"station_id":"ce4bgv92rcd13ifvqcr0","pricing_plan_id":"cebpf4jnsgd1na2vs0mg"},{"bike_id":"e1cd25a2-74bc-48bc-b685-7214f345673d","system_id":"levelo_inurba_marseille","lat":43.302784,"lon":5.377158,"is_reserved":false,"is_disabled":false,"rental_uris":{"android":"levelo://app?vid=e1cd25a2-74bc-48bc-b685-7214f345673d","ios":"levelo://app?vid=e1cd25a2-74bc-48bc-b685-7214f345673d"},"vehicle_type_id":"4","last_reported":1717870160,"current_range_meters":0,"station_id":"ce4bguh2rcd13ifvqcj0","pricing_plan_id":"cebpf4jnsgd1na2vs0mg"},{"bike_id":"886c8414-1265-4d68-bd32-1c7fa47a135e","system_id":"levelo_inurba_marseille","lat":43.302784,"lon":5.377158,"is_reserved":false,"is_disabled":false,"rental_uris":{"android":"levelo://app?vid=886c8414-1265-4d68-bd32-1c7fa47a135e","ios":"levelo://app?vid=886c8414-1265-4d68-bd32-1c7fa47a135e"},"vehicle_type_id":"4","last_reported":1717870160,"current_range_meters":0,"station_id":"ce4bguh2rcd13ifvqcj0","pricing_plan_id":"cebpf4jnsgd1na2vs0mg"},{"bike_id":"1c01d43f-b4c0-4270-b67e-339217787209","system_id":"levelo_inurba_marseille","lat":43.319935,"lon":5.381699,"is_reserved":false,"is_disabled":false,"rental_uris":{"android":"levelo://app?vid=1c01d43f-b4c0-4270-b67e-339217787209","ios":"levelo://app?vid=1c01d43f-b4c0-4270-b67e-339217787209"},"vehicle_type_id":"4","last_reported":1717870160,"current_range_meters":25600,"station_id":"ce4bhr12rcd13ifvqhpg","pricing_plan_id":"cebpf4jnsgd1na2vs0mg"},{"bike_id":"8fd9107b-d77d-4b41-bade-8709f7ca622d","system_id":"levelo_inurba_marseille","lat":43.319935,"lon":5.381699,"is_reserved":false,"is_disabled":false,"rental_uris":{"android":"levelo://app?vid=8fd9107b-d77d-4b41-bade-8709f7ca622d","ios":"levelo://app?vid=8fd9107b-d77d-4b41-bade-8709f7ca622d"},"vehicle_type_id":"4","last_reported":1717870160,"current_range_meters":4000,"station_id":"ce4bhr12rcd13ifvqhpg","pricing_plan_id":"cebpf4jnsgd1na2vs0mg"},{"bike_id":"ac8b05f8-ee22-40b8-bdc5-c09ecd07bea9","system_id":"levelo_inurba_marseille","lat":43.319935,"lon":5.381699,"is_reserved":false,"is_disabled":false,"rental_uris":{"android":"levelo://app?vid=ac8b05f8-ee22-40b8-bdc5-c09ecd07bea9","ios":"levelo://app?vid=ac8b05f8-ee22-40b8-bdc5-c09ecd07bea9"},"vehicle_type_id":"4","last_reported":1717870160,"current_range_meters":6000,"station_id":"ce4bhr12rcd13ifvqhpg","pricing_plan_id":"cebpf4jnsgd1na2vs0mg"},{"bike_id":"699c1570-326e-425c-bcac-af01ccfc73c6","system_id":"levelo_inurba_marseille","lat":43.32001,"lon":5.38153,"is_reserved":false,"is_disabled":false,"rental_uris":{"android":"levelo://app?vid=699c1570-326e-425c-bcac-af01ccfc73c6","ios":"levelo://app?vid=699c1570-326e-425c-bcac-af01ccfc73c6"},"vehicle_type_id":"4","last_reported":1717870160,"current_range_meters":4000,"station_id":"ce4bhr12rcd13ifvqhpg","pricing_plan_id":"cebpf4jnsgd1na2vs0mg"},{"bike_id":"1baa33c7-bfe5-49db-a607-92324f632f6a","system_id":"levelo_inurba_marseille","lat":43.319935,"lon":5.381699,"is_reserved":false,"is_disabled":false,"rental_uris":{"android":"levelo://app?vid=1baa33c7-bfe5-49db-a607-92324f632f6a","ios":"levelo://app?vid=1baa33c7-bfe5-49db-a607-92324f632f6a"},"vehicle_type_id":"4","last_reported":1717870160,"current_range_meters":30800,"station_id":"ce4bhr12rcd13ifvqhpg","pricing_plan_id":"cebpf4jnsgd1na2vs0mg"},{"bike_id":"7dfdb917-d721-4ab0-b825-050c09694fce","system_id":"levelo_inurba_marseille","lat":43.30265,"lon":5.37796,"is_reserved":false,"is_disabled":false,"rental_uris":{"android":"levelo://app?vid=7dfdb917-d721-4ab0-b825-050c09694fce","ios":"levelo://app?vid=7dfdb917-d721-4ab0-b825-050c09694fce"},"vehicle_type_id":"4","last_reported":1717870160,"current_range_meters":12000,"station_id":"","pricing_plan_id":"cebpf4jnsgd1na2vs0mg"},{"bike_id":"2be3417f-f12d-4cde-be70-801eb309c158","system_id":"levelo_inurba_marseille","lat":43.32,"lon":5.38166,"is_reserved":false,"is_disabled":false,"rental_uris":{"android":"levelo://app?vid=2be3417f-f12d-4cde-be70-801eb309c158","ios":"levelo://app?vid=2be3417f-f12d-4cde-be70-801eb309c158"},"vehicle_type_id":"4","last_reported":1717870160,"current_range_meters":800,"station_id":"ce4bhr12rcd13ifvqhpg","pricing_plan_id":"cebpf4jnsgd1na2vs0mg"},{"bike_id":"b7af1050-58fc-4f4b-891a-483c7dabfdcd","system_id":"levelo_inurba_marseille","lat":43.313571,"lon":5.384829,"is_reserved":false,"is_disabled":false,"rental_uris":{"android":"levelo://app?vid=b7af1050-58fc-4f4b-891a-483c7dabfdcd","ios":"levelo://app?vid=b7af1050-58fc-4f4b-891a-483c7dabfdcd"},"vehicle_type_id":"4","last_reported":1717870160,"current_range_meters":14400,"station_id":"ce4bgt92rcd13ifvqcf0","pricing_plan_id":"cebpf4jnsgd1na2vs0mg"},{"bike_id":"f7b65f86-ccad-4f73-9d59-dc245ea67dab","system_id":"levelo_inurba_marseille","lat":43.313571,"lon":5.384829,"is_reserved":false,"is_disabled":false,"rental_uris":{"android":"levelo://app?vid=f7b65f86-ccad-4f73-9d59-dc245ea67dab","ios":"levelo://app?vid=f7b65f86-ccad-4f73-9d59-dc245ea67dab"},"vehicle_type_id":"4","last_reported":1717870160,"current_range_meters":0,"station_id":"ce4bgt92rcd13ifvqcf0","pricing_plan_id":"cebpf4jnsgd1na2vs0mg"},{"bike_id":"2c6fa124-c84c-40c6-ae49-db609eb776dc","system_id":"levelo_inurba_marseille","lat":43.313571,"lon":5.384829,"is_reserved":false,"is_disabled":false,"rental_uris":{"android":"levelo://app?vid=2c6fa124-c84c-40c6-ae49-db609eb776dc","ios":"levelo://app?vid=2c6fa124-c84c-40c6-ae49-db609eb776dc"},"vehicle_type_id":"4","last_reported":1717870160,"current_range_meters":0,"station_id":"ce4bgt92rcd13ifvqcf0","pricing_plan_id":"cebpf4jnsgd1na2vs0mg"},{"bike_id":"6e088eae-6fab-47e5-9aa3-207450f110e4","system_id":"levelo_inurba_marseille","lat":43.31369,"lon":5.385,"is_reserved":false,"is_disabled":false,"rental_uris":{"android":"levelo://app?vid=6e088eae-6fab-47e5-9aa3-207450f110e4","ios":"levelo://app?vid=6e088eae-6fab-47e5-9aa3-207450f110e4"},"vehicle_type_id":"4","last_reported":1717870160,"current_range_meters":6800,"station_id":"ce4bgt92rcd13ifvqcf0","pricing_plan_id":"cebpf4jnsgd1na2vs0mg"},{"bike_id":"0c26e0b1-282b-4d19-bea0-a4a7d8d71041","system_id":"levelo_inurba_marseille","lat":43.299222,"lon":5.365554,"is_reserved":false,"is_disabled":false,"rental_uris":{"android":"levelo://app?vid=0c26e0b1-282b-4d19-bea0-a4a7d8d71041","ios":"levelo://app?vid=0c26e0b1-282b-4d19-bea0-a4a7d8d71041"},"vehicle_type_id":"4","last_reported":1717870160,"current_range_meters":9600,"station_id":"ce4bgm92rcd13ifvqbr0","pricing_plan_id":"cebpf4jnsgd1na2vs0mg"},{"bike_id":"5fadfb97-f477-400a-8ebc-42cb5fcd55cd","system_id":"levelo_inurba_marseille","lat":43.299222,"lon":5.365554,"is_reserved":false,"is_disabled":false,"rental_uris":{"android":"levelo://app?vid=5fadfb97-f477-400a-8ebc-42cb5fcd55cd","ios":"levelo://app?vid=5fadfb97-f477-400a-8ebc-42cb5fcd55cd"},"vehicle_type_id":"4","last_reported":1717870160,"current_range_meters":7600,"station_id":"ce4bgm92rcd13ifvqbr0","pricing_plan_id":"cebpf4jnsgd1na2vs0mg"},{"bike_id":"27c83d4b-e5c3-47dd-9f9e-ac53a8e228d7","system_id":"levelo_inurba_marseille","lat":43.299724,"lon":5.371829,"is_reserved":false,"is_disabled":false,"rental_uris":{"android":"levelo://app?vid=27c83d4b-e5c3-47dd-9f9e-ac53a8e228d7","ios":"levelo://app?vid=27c83d4b-e5c3-47dd-9f9e-ac53a8e228d7"},"vehicle_type_id":"4","last_reported":1717870160,"current_range_meters":5200,"station_id":"ce4bgr92rcd13ifvqc7g","pricing_plan_id":"cebpf4jnsgd1na2vs0mg"},{"bike_id":"5c6f6751-247e-4441-9a58-669d1c4653b1","system_id":"levelo_inurba_marseille","lat":43.299222,"lon":5.365554,"is_reserved":false,"is_disabled":false,"rental_uris":{"android":"levelo://app?vid=5c6f6751-247e-4441-9a58-669d1c4653b1","ios":"levelo://app?vid=5c6f6751-247e-4441-9a58-669d1c4653b1"},"vehicle_type_id":"4","last_reported":1717870160,"current_range_meters":28400,"station_id":"ce4bgm92rcd13ifvqbr0","pricing_plan_id":"cebpf4jnsgd1na2vs0mg"},{"bike_id":"d84908b0-c59d-49f0-81a5-2a9a5cce73c0","system_id":"levelo_inurba_marseille","lat":43.30233,"lon":5.38079,"is_reserved":false,"is_disabled":false,"rental_uris":{"android":"levelo://app?vid=d84908b0-c59d-49f0-81a5-2a9a5cce73c0","ios":"levelo://app?vid=d84908b0-c59d-49f0-81a5-2a9a5cce73c0"},"vehicle_type_id":"4","last_reported":1717870160,"current_range_meters":16000,"station_id":"","pricing_plan_id":"cebpf4jnsgd1na2vs0mg"},{"bike_id":"a0a7f25d-1183-4381-b24c-4a16b19e4b21","system_id":"levelo_inurba_marseille","lat":43.298472,"lon":5.362729,"is_reserved":false,"is_disabled":false,"rental_uris":{"android":"levelo://app?vid=a0a7f25d-1183-4381-b24c-4a16b19e4b21","ios":"levelo://app?vid=a0a7f25d-1183-4381-b24c-4a16b19e4b21"},"vehicle_type_id":"4","last_reported":1717870160,"current_range_meters":11600,"station_id":"ce4bgpp2rcd13ifvqc3g","pricing_plan_id":"cebpf4jnsgd1na2vs0mg"},{"bike_id":"e2544e62-243e-44b3-ab95-473c58a18449","system_id":"levelo_inurba_marseille","lat":43.29842,"lon":5.36267,"is_reserved":false,"is_disabled":false,"rental_uris":{"android":"levelo://app?vid=e2544e62-243e-44b3-ab95-473c58a18449","ios":"levelo://app?vid=e2544e62-243e-44b3-ab95-473c58a18449"},"vehicle_type_id":"4","last_reported":1717870160,"current_range_meters":3200,"station_id":"ce4bgpp2rcd13ifvqc3g","pricing_plan_id":"cebpf4jnsgd1na2vs0mg"},{"bike_id":"7831736d-ae7f-4629-ad59-00c017af37fd","system_id":"levelo_inurba_marseille","lat":43.31174,"lon":5.38709,"is_reserved":false,"is_disabled":false,"rental_uris":{"android":"levelo://app?vid=7831736d-ae7f-4629-ad59-00c017af37fd","ios":"levelo://app?vid=7831736d-ae7f-4629-ad59-00c017af37fd"},"vehicle_type_id":"4","last_reported":1717870160,"current_range_meters":4800,"station_id":"ce4bgv12rcd13ifvqcp0","pricing_plan_id":"cebpf4jnsgd1na2vs0mg"},{"bike_id":"ee1d7e04-f996-4245-a90d-d3ec078b9ddf","system_id":"levelo_inurba_marseille","lat":43.311722,"lon":5.387247,"is_reserved":false,"is_disabled":false,"rental_uris":{"android":"levelo://app?vid=ee1d7e04-f996-4245-a90d-d3ec078b9ddf","ios":"levelo://app?vid=ee1d7e04-f996-4245-a90d-d3ec078b9ddf"},"vehicle_type_id":"4","last_reported":1717870160,"current_range_meters":0,"station_id":"ce4bgv12rcd13ifvqcp0","pricing_plan_id":"cebpf4jnsgd1na2vs0mg"},{"bike_id":"ec7923ce-82bd-4fc2-8547-2f16354de8c8","system_id":"levelo_inurba_marseille","lat":43.31163,"lon":5.38715,"is_reserved":false,"is_disabled":false,"rental_uris":{"android":"levelo://app?vid=ec7923ce-82bd-4fc2-8547-2f16354de8c8","ios":"levelo://app?vid=ec7923ce-82bd-4fc2-8547-2f16354de8c8"},"vehicle_type_id":"4","last_reported":1717870160,"current_range_meters":0,"station_id":"ce4bgv12rcd13ifvqcp0","pricing_plan_id":"cebpf4jnsgd1na2vs0mg"},{"bike_id":"a7386beb-2807-42cf-aa62-57e0092d842d","system_id":"levelo_inurba_marseille","lat":43.299243,"lon":5.374807,"is_reserved":false,"is_disabled":false,"rental_uris":{"android":"levelo://app?vid=a7386beb-2807-42cf-aa62-57e0092d842d","ios":"levelo://app?vid=a7386beb-2807-42cf-aa62-57e0092d842d"},"vehicle_type_id":"4","last_reported":1717870160,"current_range_meters":0,"station_id":"ce4bgjh2rcd13ifvqbg0","pricing_plan_id":"cebpf4jnsgd1na2vs0mg"},{"bike_id":"b956376e-5142-40ab-800c-821e6ba23dfe","system_id":"levelo_inurba_marseille","lat":43.311722,"lon":5.387247,"is_reserved":false,"is_disabled":false,"rental_uris":{"android":"levelo://app?vid=b956376e-5142-40ab-800c-821e6ba23dfe","ios":"levelo://app?vid=b956376e-5142-40ab-800c-821e6ba23dfe"},"vehicle_type_id":"4","last_reported":1717870160,"current_range_meters":400,"station_id":"ce4bgv12rcd13ifvqcp0","pricing_plan_id":"cebpf4jnsgd1na2vs0mg"},{"bike_id":"0f97ff0e-e0bb-4239-a245-529874daab54","system_id":"levelo_inurba_marseille","lat":43.295748,"lon":5.37522,"is_reserved":false,"is_disabled":false,"rental_uris":{"android":"levelo://app?vid=0f97ff0e-e0bb-4239-a245-529874daab54","ios":"levelo://app?vid=0f97ff0e-e0bb-4239-a245-529874daab54"},"vehicle_type_id":"4","last_reported":1717870160,"current_range_meters":24000,"station_id":"ce4bgh92rcd13ifvqb50","pricing_plan_id":"cebpf4jnsgd1na2vs0mg"},{"bike_id":"04253ef3-c5f3-445a-be79-5fd0d12f167c","system_id":"levelo_inurba_marseille","lat":43.311222,"lon":5.387437,"is_reserved":false,"is_disabled":false,"rental_uris":{"android":"levelo://app?vid=04253ef3-c5f3-445a-be79-5fd0d12f167c","ios":"levelo://app?vid=04253ef3-c5f3-445a-be79-5fd0d12f167c"},"vehicle_type_id":"4","last_reported":1717870160,"current_range_meters":0,"station_id":"","pricing_plan_id":"cebpf4jnsgd1na2vs0mg"},{"bike_id":"782e46d7-0eff-49b9-b35d-196748ccb33f","system_id":"levelo_inurba_marseille","lat":43.322872,"lon":5.382756,"is_reserved":false,"is_disabled":false,"rental_uris":{"android":"levelo://app?vid=782e46d7-0eff-49b9-b35d-196748ccb33f","ios":"levelo://app?vid=782e46d7-0eff-49b9-b35d-196748ccb33f"},"vehicle_type_id":"4","last_reported":1717870160,"current_range_meters":21600,"station_id":"ce4bhr12rcd13ifvqhqg","pricing_plan_id":"cebpf4jnsgd1na2vs0mg"},{"bike_id":"94ed9e57-21f8-45ec-8cd3-37e7c4a08b7b","system_id":"levelo_inurba_marseille","lat":43.322872,"lon":5.382756,"is_reserved":false,"is_disabled":false,"rental_uris":{"android":"levelo://app?vid=94ed9e57-21f8-45ec-8cd3-37e7c4a08b7b","ios":"levelo://app?vid=94ed9e57-21f8-45ec-8cd3-37e7c4a08b7b"},"vehicle_type_id":"4","last_reported":1717870160,"current_range_meters":0,"station_id":"ce4bhr12rcd13ifvqhqg","pricing_plan_id":"cebpf4jnsgd1na2vs0mg"},{"bike_id":"7fd7ceca-0430-44d0-b847-93874098c679","system_id":"levelo_inurba_marseille","lat":43.29776,"lon":5.37108,"is_reserved":false,"is_disabled":false,"rental_uris":{"android":"levelo://app?vid=7fd7ceca-0430-44d0-b847-93874098c679","ios":"levelo://app?vid=7fd7ceca-0430-44d0-b847-93874098c679"},"vehicle_type_id":"4","last_reported":1717870160,"current_range_meters":1600,"station_id":"ce4bgop2rcd13ifvqc1g","pricing_plan_id":"cebpf4jnsgd1na2vs0mg"},{"bike_id":"eccc047b-64c2-4656-a240-253ee3418093","system_id":"levelo_inurba_marseille","lat":43.322872,"lon":5.382756,"is_reserved":false,"is_disabled":false,"rental_uris":{"android":"levelo://app?vid=eccc047b-64c2-4656-a240-253ee3418093","ios":"levelo://app?vid=eccc047b-64c2-4656-a240-253ee3418093"},"vehicle_type_id":"4","last_reported":1717870160,"current_range_meters":16000,"station_id":"ce4bhr12rcd13ifvqhqg","pricing_plan_id":"cebpf4jnsgd1na2vs0mg"},{"bike_id":"b2b1acf2-97a4-4878-bd82-9ddc11e7ea72","system_id":"levelo_inurba_marseille","lat":43.322872,"lon":5.382756,"is_reserved":false,"is_disabled":false,"rental_uris":{"android":"levelo://app?vid=b2b1acf2-97a4-4878-bd82-9ddc11e7ea72","ios":"levelo://app?vid=b2b1acf2-97a4-4878-bd82-9ddc11e7ea72"},"vehicle_type_id":"4","last_reported":1717870160,"current_range_meters":14000,"station_id":"ce4bhr12rcd13ifvqhqg","pricing_plan_id":"cebpf4jnsgd1na2vs0mg"},{"bike_id":"0285070a-6169-45b7-ba08-25261c229581","system_id":"levelo_inurba_marseille","lat":43.297163,"lon":5.365866,"is_reserved":false,"is_disabled":false,"rental_uris":{"android":"levelo://app?vid=0285070a-6169-45b7-ba08-25261c229581","ios":"levelo://app?vid=0285070a-6169-45b7-ba08-25261c229581"},"vehicle_type_id":"4","last_reported":1717870160,"current_range_meters":8400,"station_id":"ce4bgn12rcd13ifvqbt0","pricing_plan_id":"cebpf4jnsgd1na2vs0mg"},{"bike_id":"c5557ced-c1e6-413b-a1ce-690beb172c5d","system_id":"levelo_inurba_marseille","lat":43.297163,"lon":5.365866,"is_reserved":false,"is_disabled":false,"rental_uris":{"android":"levelo://app?vid=c5557ced-c1e6-413b-a1ce-690beb172c5d","ios":"levelo://app?vid=c5557ced-c1e6-413b-a1ce-690beb172c5d"},"vehicle_type_id":"4","last_reported":1717870160,"current_range_meters":0,"station_id":"ce4bgn12rcd13ifvqbt0","pricing_plan_id":"cebpf4jnsgd1na2vs0mg"},{"bike_id":"5d22d6d2-799e-4e55-970d-08c2f524fea8","system_id":"levelo_inurba_marseille","lat":43.295903,"lon":5.367337,"is_reserved":false,"is_disabled":false,"rental_uris":{"android":"levelo://app?vid=5d22d6d2-799e-4e55-970d-08c2f524fea8","ios":"levelo://app?vid=5d22d6d2-799e-4e55-970d-08c2f524fea8"},"vehicle_type_id":"4","last_reported":1717870160,"current_range_meters":17600,"station_id":"ce4bgph2rcd13ifvqc2g","pricing_plan_id":"cebpf4jnsgd1na2vs0mg"},{"bike_id":"dc4c93b3-cc0f-4a96-a8f0-d3382ec8eeff","system_id":"levelo_inurba_marseille","lat":43.296211,"lon":5.371622,"is_reserved":false,"is_disabled":false,"rental_uris":{"android":"levelo://app?vid=dc4c93b3-cc0f-4a96-a8f0-d3382ec8eeff","ios":"levelo://app?vid=dc4c93b3-cc0f-4a96-a8f0-d3382ec8eeff"},"vehicle_type_id":"4","last_reported":1717870160,"current_range_meters":0,"station_id":"ce4bgnh2rcd13ifvqc0g","pricing_plan_id":"cebpf4jnsgd1na2vs0mg"},{"bike_id":"9b6569ca-8774-42b1-9204-bf93282097d9","system_id":"levelo_inurba_marseille","lat":43.295818,"lon":5.36739,"is_reserved":false,"is_disabled":false,"rental_uris":{"android":"levelo://app?vid=9b6569ca-8774-42b1-9204-bf93282097d9","ios":"levelo://app?vid=9b6569ca-8774-42b1-9204-bf93282097d9"},"vehicle_type_id":"4","last_reported":1717870160,"current_range_meters":21600,"station_id":"ce4bgph2rcd13ifvqc2g","pricing_plan_id":"cebpf4jnsgd1na2vs0mg"},{"bike_id":"1b82ee4b-ffc7-4a08-9c74-7dd2a825b758","system_id":"levelo_inurba_marseille","lat":43.296129,"lon":5.370777,"is_reserved":false,"is_disabled":false,"rental_uris":{"android":"levelo://app?vid=1b82ee4b-ffc7-4a08-9c74-7dd2a825b758","ios":"levelo://app?vid=1b82ee4b-ffc7-4a08-9c74-7dd2a825b758"},"vehicle_type_id":"4","last_reported":1717870160,"current_range_meters":25200,"station_id":"ce4bgnh2rcd13ifvqc0g","pricing_plan_id":"cebpf4jnsgd1na2vs0mg"},{"bike_id":"19ee5808-801d-4598-ae2f-1ab7d1b05de6","system_id":"levelo_inurba_marseille","lat":43.296129,"lon":5.370777,"is_reserved":false,"is_disabled":false,"rental_uris":{"android":"levelo://app?vid=19ee5808-801d-4598-ae2f-1ab7d1b05de6","ios":"levelo://app?vid=19ee5808-801d-4598-ae2f-1ab7d1b05de6"},"vehicle_type_id":"4","last_reported":1717870160,"current_range_meters":8000,"station_id":"ce4bgnh2rcd13ifvqc0g","pricing_plan_id":"cebpf4jnsgd1na2vs0mg"},{"bike_id":"49c0e944-0169-4fc5-99ad-2c5fb0074334","system_id":"levelo_inurba_marseille","lat":43.309589,"lon":5.390258,"is_reserved":false,"is_disabled":false,"rental_uris":{"android":"levelo://app?vid=49c0e944-0169-4fc5-99ad-2c5fb0074334","ios":"levelo://app?vid=49c0e944-0169-4fc5-99ad-2c5fb0074334"},"vehicle_type_id":"4","last_reported":1717870160,"current_range_meters":8400,"station_id":"ce4bgup2rcd13ifvqco0","pricing_plan_id":"cebpf4jnsgd1na2vs0mg"},{"bike_id":"03ef5909-e34e-4d84-9065-402c835e6997","system_id":"levelo_inurba_marseille","lat":43.29719,"lon":5.376882,"is_reserved":false,"is_disabled":false,"rental_uris":{"android":"levelo://app?vid=03ef5909-e34e-4d84-9065-402c835e6997","ios":"levelo://app?vid=03ef5909-e34e-4d84-9065-402c835e6997"},"vehicle_type_id":"4","last_reported":1717870160,"current_range_meters":25600,"station_id":"ce4bgkh2rcd13ifvqbl0","pricing_plan_id":"cebpf4jnsgd1na2vs0mg"},{"bike_id":"866a7c36-7871-47d8-8bdd-367efcb36dcd","system_id":"levelo_inurba_marseille","lat":43.299028,"lon":5.381509,"is_reserved":false,"is_disabled":false,"rental_uris":{"android":"levelo://app?vid=866a7c36-7871-47d8-8bdd-367efcb36dcd","ios":"levelo://app?vid=866a7c36-7871-47d8-8bdd-367efcb36dcd"},"vehicle_type_id":"4","last_reported":1717870160,"current_range_meters":29600,"station_id":"ce4bgj12rcd13ifvqbc0","pricing_plan_id":"cebpf4jnsgd1na2vs0mg"},{"bike_id":"82c2f309-10d3-40b4-8c68-44ab18c0b32a","system_id":"levelo_inurba_marseille","lat":43.309589,"lon":5.390258,"is_reserved":false,"is_disabled":false,"rental_uris":{"android":"levelo://app?vid=82c2f309-10d3-40b4-8c68-44ab18c0b32a","ios":"levelo://app?vid=82c2f309-10d3-40b4-8c68-44ab18c0b32a"},"vehicle_type_id":"4","last_reported":1717870160,"current_range_meters":3600,"station_id":"ce4bgup2rcd13ifvqco0","pricing_plan_id":"cebpf4jnsgd1na2vs0mg"},{"bike_id":"fdf3df08-27ba-4b10-8b5d-30b5e85b6daa","system_id":"levelo_inurba_marseille","lat":43.309589,"lon":5.390258,"is_reserved":false,"is_disabled":false,"rental_uris":{"android":"levelo://app?vid=fdf3df08-27ba-4b10-8b5d-30b5e85b6daa","ios":"levelo://app?vid=fdf3df08-27ba-4b10-8b5d-30b5e85b6daa"},"vehicle_type_id":"4","last_reported":1717870160,"current_range_meters":16400,"station_id":"ce4bgup2rcd13ifvqco0","pricing_plan_id":"cebpf4jnsgd1na2vs0mg"},{"bike_id":"b9d44e19-3872-4fdb-a87a-db2e6f62b96a","system_id":"levelo_inurba_marseille","lat":43.309589,"lon":5.390258,"is_reserved":false,"is_disabled":false,"rental_uris":{"android":"levelo://app?vid=b9d44e19-3872-4fdb-a87a-db2e6f62b96a","ios":"levelo://app?vid=b9d44e19-3872-4fdb-a87a-db2e6f62b96a"},"vehicle_type_id":"4","last_reported":1717870160,"current_range_meters":4000,"station_id":"ce4bgup2rcd13ifvqco0","pricing_plan_id":"cebpf4jnsgd1na2vs0mg"},{"bike_id":"70452f03-f37c-420b-877b-12fc0075f536","system_id":"levelo_inurba_marseille","lat":43.309589,"lon":5.390258,"is_reserved":false,"is_disabled":false,"rental_uris":{"android":"levelo://app?vid=70452f03-f37c-420b-877b-12fc0075f536","ios":"levelo://app?vid=70452f03-f37c-420b-877b-12fc0075f536"},"vehicle_type_id":"4","last_reported":1717870160,"current_range_meters":0,"station_id":"ce4bgup2rcd13ifvqco0","pricing_plan_id":"cebpf4jnsgd1na2vs0mg"},{"bike_id":"745b24c5-fa73-48e6-b7df-85b8afb0cf5d","system_id":"levelo_inurba_marseille","lat":43.30948,"lon":5.39028,"is_reserved":false,"is_disabled":false,"rental_uris":{"android":"levelo://app?vid=745b24c5-fa73-48e6-b7df-85b8afb0cf5d","ios":"levelo://app?vid=745b24c5-fa73-48e6-b7df-85b8afb0cf5d"},"vehicle_type_id":"4","last_reported":1717870160,"current_range_meters":0,"station_id":"ce4bgup2rcd13ifvqco0","pricing_plan_id":"cebpf4jnsgd1na2vs0mg"},{"bike_id":"0734b082-e050-4a5b-8f1b-7c38d1341d7e","system_id":"levelo_inurba_marseille","lat":43.309589,"lon":5.390258,"is_reserved":false,"is_disabled":false,"rental_uris":{"android":"levelo://app?vid=0734b082-e050-4a5b-8f1b-7c38d1341d7e","ios":"levelo://app?vid=0734b082-e050-4a5b-8f1b-7c38d1341d7e"},"vehicle_type_id":"4","last_reported":1717870160,"current_range_meters":18800,"station_id":"ce4bgup2rcd13ifvqco0","pricing_plan_id":"cebpf4jnsgd1na2vs0mg"},{"bike_id":"b0441c58-7ec1-4355-91fb-2ff3ede79da6","system_id":"levelo_inurba_marseille","lat":43.309589,"lon":5.390258,"is_reserved":false,"is_disabled":false,"rental_uris":{"android":"levelo://app?vid=b0441c58-7ec1-4355-91fb-2ff3ede79da6","ios":"levelo://app?vid=b0441c58-7ec1-4355-91fb-2ff3ede79da6"},"vehicle_type_id":"4","last_reported":1717870160,"current_range_meters":0,"station_id":"ce4bgup2rcd13ifvqco0","pricing_plan_id":"cebpf4jnsgd1na2vs0mg"},{"bike_id":"7914d3e5-c33c-4a68-9e41-5a2f27f0ec35","system_id":"levelo_inurba_marseille","lat":43.309589,"lon":5.390258,"is_reserved":false,"is_disabled":false,"rental_uris":{"android":"levelo://app?vid=7914d3e5-c33c-4a68-9e41-5a2f27f0ec35","ios":"levelo://app?vid=7914d3e5-c33c-4a68-9e41-5a2f27f0ec35"},"vehicle_type_id":"4","last_reported":1717870160,"current_range_meters":0,"station_id":"ce4bgup2rcd13ifvqco0","pricing_plan_id":"cebpf4jnsgd1na2vs0mg"},{"bike_id":"20fa1a62-c757-4bb0-98f0-3ad068eee3f2","system_id":"levelo_inurba_marseille","lat":43.309589,"lon":5.390258,"is_reserved":false,"is_disabled":false,"rental_uris":{"android":"levelo://app?vid=20fa1a62-c757-4bb0-98f0-3ad068eee3f2","ios":"levelo://app?vid=20fa1a62-c757-4bb0-98f0-3ad068eee3f2"},"vehicle_type_id":"4","last_reported":1717870160,"current_range_meters":2400,"station_id":"ce4bgup2rcd13ifvqco0","pricing_plan_id":"cebpf4jnsgd1na2vs0mg"},{"bike_id":"aba6ae7f-c762-4730-a73e-6907e6977a6b","system_id":"levelo_inurba_marseille","lat":43.309589,"lon":5.390258,"is_reserved":false,"is_disabled":false,"rental_uris":{"android":"levelo://app?vid=aba6ae7f-c762-4730-a73e-6907e6977a6b","ios":"levelo://app?vid=aba6ae7f-c762-4730-a73e-6907e6977a6b"},"vehicle_type_id":"4","last_reported":1717870160,"current_range_meters":3200,"station_id":"ce4bgup2rcd13ifvqco0","pricing_plan_id":"cebpf4jnsgd1na2vs0mg"},{"bike_id":"5282babb-ca74-46fa-a82e-62e731b59104","system_id":"levelo_inurba_marseille","lat":43.317557,"lon":5.390173,"is_reserved":false,"is_disabled":false,"rental_uris":{"android":"levelo://app?vid=5282babb-ca74-46fa-a82e-62e731b59104","ios":"levelo://app?vid=5282babb-ca74-46fa-a82e-62e731b59104"},"vehicle_type_id":"4","last_reported":1717870160,"current_range_meters":16800,"station_id":"ce4bhqp2rcd13ifvqhng","pricing_plan_id":"cebpf4jnsgd1na2vs0mg"},{"bike_id":"8c738c00-411d-4826-ba3b-2fd99798a504","system_id":"levelo_inurba_marseille","lat":43.31759,"lon":5.39015,"is_reserved":false,"is_disabled":false,"rental_uris":{"android":"levelo://app?vid=8c738c00-411d-4826-ba3b-2fd99798a504","ios":"levelo://app?vid=8c738c00-411d-4826-ba3b-2fd99798a504"},"vehicle_type_id":"4","last_reported":1717870160,"current_range_meters":3200,"station_id":"ce4bhqp2rcd13ifvqhng","pricing_plan_id":"cebpf4jnsgd1na2vs0mg"},{"bike_id":"3a7dcef6-c78d-4c22-9ce5-3355e5429f00","system_id":"levelo_inurba_marseille","lat":43.317557,"lon":5.390173,"is_reserved":false,"is_disabled":false,"rental_uris":{"android":"levelo://app?vid=3a7dcef6-c78d-4c22-9ce5-3355e5429f00","ios":"levelo://app?vid=3a7dcef6-c78d-4c22-9ce5-3355e5429f00"},"vehicle_type_id":"4","last_reported":1717870160,"current_range_meters":2800,"station_id":"ce4bhqp2rcd13ifvqhng","pricing_plan_id":"cebpf4jnsgd1na2vs0mg"},{"bike_id":"6b453342-8610-4603-9caf-2cb3345a6264","system_id":"levelo_inurba_marseille","lat":43.296921,"lon":5.376579,"is_reserved":false,"is_disabled":false,"rental_uris":{"android":"levelo://app?vid=6b453342-8610-4603-9caf-2cb3345a6264","ios":"levelo://app?vid=6b453342-8610-4603-9caf-2cb3345a6264"},"vehicle_type_id":"4","last_reported":1717870160,"current_range_meters":6800,"station_id":"ce4bgkh2rcd13ifvqbl0","pricing_plan_id":"cebpf4jnsgd1na2vs0mg"},{"bike_id":"eb7c3df0-91e0-4afd-a981-4a33e53f0e21","system_id":"levelo_inurba_marseille","lat":43.298037,"lon":5.381066,"is_reserved":false,"is_disabled":false,"rental_uris":{"android":"levelo://app?vid=eb7c3df0-91e0-4afd-a981-4a33e53f0e21","ios":"levelo://app?vid=eb7c3df0-91e0-4afd-a981-4a33e53f0e21"},"vehicle_type_id":"4","last_reported":1717870160,"current_range_meters":15200,"station_id":"ce4bgip2rcd13ifvqbb0","pricing_plan_id":"cebpf4jnsgd1na2vs0mg"},{"bike_id":"7a18e4e9-4ab9-42b5-b697-165b1e30b863","system_id":"levelo_inurba_marseille","lat":43.292311,"lon":5.360731,"is_reserved":false,"is_disabled":false,"rental_uris":{"android":"levelo://app?vid=7a18e4e9-4ab9-42b5-b697-165b1e30b863","ios":"levelo://app?vid=7a18e4e9-4ab9-42b5-b697-165b1e30b863"},"vehicle_type_id":"4","last_reported":1717870160,"current_range_meters":26800,"station_id":"ce4bhbh2rcd13ifvqeqg","pricing_plan_id":"cebpf4jnsgd1na2vs0mg"},{"bike_id":"f893b8e2-5d75-41d3-9b55-5e54b10f2a1c","system_id":"levelo_inurba_marseille","lat":43.298037,"lon":5.381066,"is_reserved":false,"is_disabled":false,"rental_uris":{"android":"levelo://app?vid=f893b8e2-5d75-41d3-9b55-5e54b10f2a1c","ios":"levelo://app?vid=f893b8e2-5d75-41d3-9b55-5e54b10f2a1c"},"vehicle_type_id":"4","last_reported":1717870160,"current_range_meters":25600,"station_id":"ce4bgip2rcd13ifvqbb0","pricing_plan_id":"cebpf4jnsgd1na2vs0mg"},{"bike_id":"3860abde-7b9f-4a87-a66b-4961f6bd1c54","system_id":"levelo_inurba_marseille","lat":43.29646,"lon":5.37794,"is_reserved":false,"is_disabled":false,"rental_uris":{"android":"levelo://app?vid=3860abde-7b9f-4a87-a66b-4961f6bd1c54","ios":"levelo://app?vid=3860abde-7b9f-4a87-a66b-4961f6bd1c54"},"vehicle_type_id":"4","last_reported":1717870160,"current_range_meters":0,"station_id":"","pricing_plan_id":"cebpf4jnsgd1na2vs0mg"},{"bike_id":"9bdac48b-ad6e-4227-8710-ce6205f2d3ca","system_id":"levelo_inurba_marseille","lat":43.295748,"lon":5.37522,"is_reserved":false,"is_disabled":false,"rental_uris":{"android":"levelo://app?vid=9bdac48b-ad6e-4227-8710-ce6205f2d3ca","ios":"levelo://app?vid=9bdac48b-ad6e-4227-8710-ce6205f2d3ca"},"vehicle_type_id":"4","last_reported":1717870160,"current_range_meters":400,"station_id":"ce4bgh92rcd13ifvqb50","pricing_plan_id":"cebpf4jnsgd1na2vs0mg"},{"bike_id":"fcedb0db-64c2-43a7-b216-5db7e026502d","system_id":"levelo_inurba_marseille","lat":43.299724,"lon":5.384848,"is_reserved":false,"is_disabled":false,"rental_uris":{"android":"levelo://app?vid=fcedb0db-64c2-43a7-b216-5db7e026502d","ios":"levelo://app?vid=fcedb0db-64c2-43a7-b216-5db7e026502d"},"vehicle_type_id":"4","last_reported":1717870160,"current_range_meters":400,"station_id":"ce4bgj92rcd13ifvqbd0","pricing_plan_id":"cebpf4jnsgd1na2vs0mg"},{"bike_id":"2e74f158-6b10-483d-840c-28de7bebefb6","system_id":"levelo_inurba_marseille","lat":43.295279,"lon":5.375048,"is_reserved":false,"is_disabled":false,"rental_uris":{"android":"levelo://app?vid=2e74f158-6b10-483d-840c-28de7bebefb6","ios":"levelo://app?vid=2e74f158-6b10-483d-840c-28de7bebefb6"},"vehicle_type_id":"4","last_reported":1717870160,"current_range_meters":3200,"station_id":"ce4bgkp2rcd13ifvqbmg","pricing_plan_id":"cebpf4jnsgd1na2vs0mg"},{"bike_id":"d31f4ae8-0cc4-48f1-99e4-959f321274cf","system_id":"levelo_inurba_marseille","lat":43.29512,"lon":5.37509,"is_reserved":false,"is_disabled":false,"rental_uris":{"android":"levelo://app?vid=d31f4ae8-0cc4-48f1-99e4-959f321274cf","ios":"levelo://app?vid=d31f4ae8-0cc4-48f1-99e4-959f321274cf"},"vehicle_type_id":"4","last_reported":1717870160,"current_range_meters":11200,"station_id":"ce4bgkp2rcd13ifvqbmg","pricing_plan_id":"cebpf4jnsgd1na2vs0mg"},{"bike_id":"0e484fbc-dd22-459c-8d1c-8ae62a57b1f8","system_id":"levelo_inurba_marseille","lat":43.309589,"lon":5.390258,"is_reserved":false,"is_disabled":false,"rental_uris":{"android":"levelo://app?vid=0e484fbc-dd22-459c-8d1c-8ae62a57b1f8","ios":"levelo://app?vid=0e484fbc-dd22-459c-8d1c-8ae62a57b1f8"},"vehicle_type_id":"4","last_reported":1717870160,"current_range_meters":2400,"station_id":"ce4bgup2rcd13ifvqco0","pricing_plan_id":"cebpf4jnsgd1na2vs0mg"},{"bike_id":"a202915a-0d11-4e27-bc45-99fd9fea2dff","system_id":"levelo_inurba_marseille","lat":43.323639,"lon":5.388816,"is_reserved":false,"is_disabled":false,"rental_uris":{"android":"levelo://app?vid=a202915a-0d11-4e27-bc45-99fd9fea2dff","ios":"levelo://app?vid=a202915a-0d11-4e27-bc45-99fd9fea2dff"},"vehicle_type_id":"4","last_reported":1717870160,"current_range_meters":9200,"station_id":"ce4bhqp2rcd13ifvqhog","pricing_plan_id":"cebpf4jnsgd1na2vs0mg"},{"bike_id":"ed4272b8-e3a6-4aaf-b936-65f85fde1090","system_id":"levelo_inurba_marseille","lat":43.32366,"lon":5.38882,"is_reserved":false,"is_disabled":false,"rental_uris":{"android":"levelo://app?vid=ed4272b8-e3a6-4aaf-b936-65f85fde1090","ios":"levelo://app?vid=ed4272b8-e3a6-4aaf-b936-65f85fde1090"},"vehicle_type_id":"4","last_reported":1717870160,"current_range_meters":21200,"station_id":"ce4bhqp2rcd13ifvqhog","pricing_plan_id":"cebpf4jnsgd1na2vs0mg"},{"bike_id":"9944fab0-5e32-476e-97e9-38567787c95b","system_id":"levelo_inurba_marseille","lat":43.32362,"lon":5.38887,"is_reserved":false,"is_disabled":false,"rental_uris":{"android":"levelo://app?vid=9944fab0-5e32-476e-97e9-38567787c95b","ios":"levelo://app?vid=9944fab0-5e32-476e-97e9-38567787c95b"},"vehicle_type_id":"4","last_reported":1717870160,"current_range_meters":16400,"station_id":"ce4bhqp2rcd13ifvqhog","pricing_plan_id":"cebpf4jnsgd1na2vs0mg"},{"bike_id":"a0b1150b-9f69-4cc5-9e4c-4e1305888439","system_id":"levelo_inurba_marseille","lat":43.293249,"lon":5.371578,"is_reserved":false,"is_disabled":false,"rental_uris":{"android":"levelo://app?vid=a0b1150b-9f69-4cc5-9e4c-4e1305888439","ios":"levelo://app?vid=a0b1150b-9f69-4cc5-9e4c-4e1305888439"},"vehicle_type_id":"4","last_reported":1717870160,"current_range_meters":28800,"station_id":"ce4bgh92rcd13ifvqb40","pricing_plan_id":"cebpf4jnsgd1na2vs0mg"},{"bike_id":"96fa246c-9e8b-470b-a2ef-d14edfa1b605","system_id":"levelo_inurba_marseille","lat":43.29275,"lon":5.3684,"is_reserved":false,"is_disabled":false,"rental_uris":{"android":"levelo://app?vid=96fa246c-9e8b-470b-a2ef-d14edfa1b605","ios":"levelo://app?vid=96fa246c-9e8b-470b-a2ef-d14edfa1b605"},"vehicle_type_id":"4","last_reported":1717870160,"current_range_meters":31200,"station_id":"ce4bhbp2rcd13ifvqesg","pricing_plan_id":"cebpf4jnsgd1na2vs0mg"},{"bike_id":"f05f90c7-e2c2-4366-8fd5-611c12de0cf1","system_id":"levelo_inurba_marseille","lat":43.29273,"lon":5.368389,"is_reserved":false,"is_disabled":false,"rental_uris":{"android":"levelo://app?vid=f05f90c7-e2c2-4366-8fd5-611c12de0cf1","ios":"levelo://app?vid=f05f90c7-e2c2-4366-8fd5-611c12de0cf1"},"vehicle_type_id":"4","last_reported":1717870160,"current_range_meters":24000,"station_id":"ce4bhbp2rcd13ifvqesg","pricing_plan_id":"cebpf4jnsgd1na2vs0mg"},{"bike_id":"068b2691-e31b-4966-832c-cdbfd59d90d5","system_id":"levelo_inurba_marseille","lat":43.292693,"lon":5.368068,"is_reserved":false,"is_disabled":false,"rental_uris":{"android":"levelo://app?vid=068b2691-e31b-4966-832c-cdbfd59d90d5","ios":"levelo://app?vid=068b2691-e31b-4966-832c-cdbfd59d90d5"},"vehicle_type_id":"4","last_reported":1717870160,"current_range_meters":0,"station_id":"ce4bhbp2rcd13ifvqesg","pricing_plan_id":"cebpf4jnsgd1na2vs0mg"},{"bike_id":"cf556285-0d16-4a37-bbee-7158c388bb7f","system_id":"levelo_inurba_marseille","lat":43.309589,"lon":5.390258,"is_reserved":false,"is_disabled":false,"rental_uris":{"android":"levelo://app?vid=cf556285-0d16-4a37-bbee-7158c388bb7f","ios":"levelo://app?vid=cf556285-0d16-4a37-bbee-7158c388bb7f"},"vehicle_type_id":"4","last_reported":1717870160,"current_range_meters":12000,"station_id":"ce4bgup2rcd13ifvqco0","pricing_plan_id":"cebpf4jnsgd1na2vs0mg"},{"bike_id":"5a7d2361-abdc-42da-83b5-353896a842d8","system_id":"levelo_inurba_marseille","lat":43.29306,"lon":5.3746,"is_reserved":false,"is_disabled":false,"rental_uris":{"android":"levelo://app?vid=5a7d2361-abdc-42da-83b5-353896a842d8","ios":"levelo://app?vid=5a7d2361-abdc-42da-83b5-353896a842d8"},"vehicle_type_id":"4","last_reported":1717870160,"current_range_meters":0,"station_id":"ce4bgi12rcd13ifvqb70","pricing_plan_id":"cebpf4jnsgd1na2vs0mg"},{"bike_id":"a2657782-5997-4d2b-b5f1-4096576b5cdd","system_id":"levelo_inurba_marseille","lat":43.305994,"lon":5.393687,"is_reserved":false,"is_disabled":false,"rental_uris":{"android":"levelo://app?vid=a2657782-5997-4d2b-b5f1-4096576b5cdd","ios":"levelo://app?vid=a2657782-5997-4d2b-b5f1-4096576b5cdd"},"vehicle_type_id":"4","last_reported":1717870160,"current_range_meters":20800,"station_id":"ce4bh0p2rcd13ifvqd80","pricing_plan_id":"cebpf4jnsgd1na2vs0mg"},{"bike_id":"f2f1c0fd-083b-4777-9e83-8051c1e046b2","system_id":"levelo_inurba_marseille","lat":43.302992,"lon":5.392136,"is_reserved":false,"is_disabled":false,"rental_uris":{"android":"levelo://app?vid=f2f1c0fd-083b-4777-9e83-8051c1e046b2","ios":"levelo://app?vid=f2f1c0fd-083b-4777-9e83-8051c1e046b2"},"vehicle_type_id":"4","last_reported":1717870160,"current_range_meters":30400,"station_id":"ce4bgkh2rcd13ifvqbk0","pricing_plan_id":"cebpf4jnsgd1na2vs0mg"},{"bike_id":"d0929bfd-342e-4b1e-bd11-9c67bf86f40f","system_id":"levelo_inurba_marseille","lat":43.302992,"lon":5.392136,"is_reserved":false,"is_disabled":false,"rental_uris":{"android":"levelo://app?vid=d0929bfd-342e-4b1e-bd11-9c67bf86f40f","ios":"levelo://app?vid=d0929bfd-342e-4b1e-bd11-9c67bf86f40f"},"vehicle_type_id":"4","last_reported":1717870160,"current_range_meters":29600,"station_id":"ce4bgkh2rcd13ifvqbk0","pricing_plan_id":"cebpf4jnsgd1na2vs0mg"},{"bike_id":"8bc860c0-65d8-45d8-8c61-085f78bc0efc","system_id":"levelo_inurba_marseille","lat":43.303002,"lon":5.392142,"is_reserved":false,"is_disabled":false,"rental_uris":{"android":"levelo://app?vid=8bc860c0-65d8-45d8-8c61-085f78bc0efc","ios":"levelo://app?vid=8bc860c0-65d8-45d8-8c61-085f78bc0efc"},"vehicle_type_id":"4","last_reported":1717870160,"current_range_meters":0,"station_id":"ce4bgkh2rcd13ifvqbk0","pricing_plan_id":"cebpf4jnsgd1na2vs0mg"},{"bike_id":"25ec5d4f-1e8e-43ff-973c-e3738165473d","system_id":"levelo_inurba_marseille","lat":43.302992,"lon":5.392136,"is_reserved":false,"is_disabled":false,"rental_uris":{"android":"levelo://app?vid=25ec5d4f-1e8e-43ff-973c-e3738165473d","ios":"levelo://app?vid=25ec5d4f-1e8e-43ff-973c-e3738165473d"},"vehicle_type_id":"4","last_reported":1717870160,"current_range_meters":2000,"station_id":"ce4bgkh2rcd13ifvqbk0","pricing_plan_id":"cebpf4jnsgd1na2vs0mg"},{"bike_id":"d4ec9480-b0c5-4f89-bf77-3397dc0dd225","system_id":"levelo_inurba_marseille","lat":43.2936,"lon":5.37835,"is_reserved":false,"is_disabled":false,"rental_uris":{"android":"levelo://app?vid=d4ec9480-b0c5-4f89-bf77-3397dc0dd225","ios":"levelo://app?vid=d4ec9480-b0c5-4f89-bf77-3397dc0dd225"},"vehicle_type_id":"4","last_reported":1717870160,"current_range_meters":2400,"station_id":"ce4bgjh2rcd13ifvqbf0","pricing_plan_id":"cebpf4jnsgd1na2vs0mg"},{"bike_id":"2a2b7f1e-35c5-4e3d-9745-1d03d7751e29","system_id":"levelo_inurba_marseille","lat":43.309589,"lon":5.390258,"is_reserved":false,"is_disabled":false,"rental_uris":{"android":"levelo://app?vid=2a2b7f1e-35c5-4e3d-9745-1d03d7751e29","ios":"levelo://app?vid=2a2b7f1e-35c5-4e3d-9745-1d03d7751e29"},"vehicle_type_id":"4","last_reported":1717870160,"current_range_meters":22000,"station_id":"ce4bgup2rcd13ifvqco0","pricing_plan_id":"cebpf4jnsgd1na2vs0mg"},{"bike_id":"83be3261-064a-4299-a6eb-03f88a3f8971","system_id":"levelo_inurba_marseille","lat":43.2936,"lon":5.37835,"is_reserved":false,"is_disabled":false,"rental_uris":{"android":"levelo://app?vid=83be3261-064a-4299-a6eb-03f88a3f8971","ios":"levelo://app?vid=83be3261-064a-4299-a6eb-03f88a3f8971"},"vehicle_type_id":"4","last_reported":1717870160,"current_range_meters":0,"station_id":"ce4bgjh2rcd13ifvqbf0","pricing_plan_id":"cebpf4jnsgd1na2vs0mg"},{"bike_id":"f9704634-5fab-4601-83d3-826d6391980c","system_id":"levelo_inurba_marseille","lat":43.292311,"lon":5.360731,"is_reserved":false,"is_disabled":false,"rental_uris":{"android":"levelo://app?vid=f9704634-5fab-4601-83d3-826d6391980c","ios":"levelo://app?vid=f9704634-5fab-4601-83d3-826d6391980c"},"vehicle_type_id":"4","last_reported":1717870160,"current_range_meters":25200,"station_id":"ce4bhbh2rcd13ifvqeqg","pricing_plan_id":"cebpf4jnsgd1na2vs0mg"},{"bike_id":"92b54573-0a2f-4659-bef3-16fe1f4c5270","system_id":"levelo_inurba_marseille","lat":43.292311,"lon":5.360731,"is_reserved":false,"is_disabled":false,"rental_uris":{"android":"levelo://app?vid=92b54573-0a2f-4659-bef3-16fe1f4c5270","ios":"levelo://app?vid=92b54573-0a2f-4659-bef3-16fe1f4c5270"},"vehicle_type_id":"4","last_reported":1717870160,"current_range_meters":31200,"station_id":"ce4bhbh2rcd13ifvqeqg","pricing_plan_id":"cebpf4jnsgd1na2vs0mg"},{"bike_id":"1e70e658-06c2-4d24-a09b-4ec1c8a783c5","system_id":"levelo_inurba_marseille","lat":43.292311,"lon":5.360731,"is_reserved":false,"is_disabled":false,"rental_uris":{"android":"levelo://app?vid=1e70e658-06c2-4d24-a09b-4ec1c8a783c5","ios":"levelo://app?vid=1e70e658-06c2-4d24-a09b-4ec1c8a783c5"},"vehicle_type_id":"4","last_reported":1717870160,"current_range_meters":5600,"station_id":"ce4bhbh2rcd13ifvqeqg","pricing_plan_id":"cebpf4jnsgd1na2vs0mg"},{"bike_id":"93cc43dc-4fd5-4c3b-b096-a269b124a813","system_id":"levelo_inurba_marseille","lat":43.29223,"lon":5.360395,"is_reserved":false,"is_disabled":false,"rental_uris":{"android":"levelo://app?vid=93cc43dc-4fd5-4c3b-b096-a269b124a813","ios":"levelo://app?vid=93cc43dc-4fd5-4c3b-b096-a269b124a813"},"vehicle_type_id":"4","last_reported":1717870160,"current_range_meters":30400,"station_id":"ce4bhbh2rcd13ifvqeqg","pricing_plan_id":"cebpf4jnsgd1na2vs0mg"},{"bike_id":"86c304bd-ab72-4a50-88b7-81571edfe49a","system_id":"levelo_inurba_marseille","lat":43.298764,"lon":5.388973,"is_reserved":false,"is_disabled":false,"rental_uris":{"android":"levelo://app?vid=86c304bd-ab72-4a50-88b7-81571edfe49a","ios":"levelo://app?vid=86c304bd-ab72-4a50-88b7-81571edfe49a"},"vehicle_type_id":"4","last_reported":1717870160,"current_range_meters":3600,"station_id":"ce4bh392rcd13ifvqdl0","pricing_plan_id":"cebpf4jnsgd1na2vs0mg"},{"bike_id":"9c343058-f871-4dfa-9351-ad941ab39dbb","system_id":"levelo_inurba_marseille","lat":43.292005,"lon":5.357875,"is_reserved":false,"is_disabled":false,"rental_uris":{"android":"levelo://app?vid=9c343058-f871-4dfa-9351-ad941ab39dbb","ios":"levelo://app?vid=9c343058-f871-4dfa-9351-ad941ab39dbb"},"vehicle_type_id":"4","last_reported":1717870160,"current_range_meters":7200,"station_id":"ce4bhb12rcd13ifvqel0","pricing_plan_id":"cebpf4jnsgd1na2vs0mg"},{"bike_id":"5ee5ddd7-9ff8-4cff-a146-599d52770ebc","system_id":"levelo_inurba_marseille","lat":43.291994,"lon":5.357886,"is_reserved":false,"is_disabled":false,"rental_uris":{"android":"levelo://app?vid=5ee5ddd7-9ff8-4cff-a146-599d52770ebc","ios":"levelo://app?vid=5ee5ddd7-9ff8-4cff-a146-599d52770ebc"},"vehicle_type_id":"4","last_reported":1717870160,"current_range_meters":4800,"station_id":"ce4bhb12rcd13ifvqel0","pricing_plan_id":"cebpf4jnsgd1na2vs0mg"},{"bike_id":"3930ba0a-e22f-41bd-925b-e32d9c4985f1","system_id":"levelo_inurba_marseille","lat":43.291994,"lon":5.357886,"is_reserved":false,"is_disabled":false,"rental_uris":{"android":"levelo://app?vid=3930ba0a-e22f-41bd-925b-e32d9c4985f1","ios":"levelo://app?vid=3930ba0a-e22f-41bd-925b-e32d9c4985f1"},"vehicle_type_id":"4","last_reported":1717870160,"current_range_meters":28000,"station_id":"ce4bhb12rcd13ifvqel0","pricing_plan_id":"cebpf4jnsgd1na2vs0mg"},{"bike_id":"6f312ff6-bee9-4d2c-a7c7-8bc57ed1b3fb","system_id":"levelo_inurba_marseille","lat":43.313291,"lon":5.396838,"is_reserved":false,"is_disabled":false,"rental_uris":{"android":"levelo://app?vid=6f312ff6-bee9-4d2c-a7c7-8bc57ed1b3fb","ios":"levelo://app?vid=6f312ff6-bee9-4d2c-a7c7-8bc57ed1b3fb"},"vehicle_type_id":"4","last_reported":1717870160,"current_range_meters":26800,"station_id":"ce4bgvp2rcd13ifvqcu0","pricing_plan_id":"cebpf4jnsgd1na2vs0mg"},{"bike_id":"7d1bac24-fc29-4713-9f1e-3f4c88f0d389","system_id":"levelo_inurba_marseille","lat":43.291994,"lon":5.357886,"is_reserved":false,"is_disabled":false,"rental_uris":{"android":"levelo://app?vid=7d1bac24-fc29-4713-9f1e-3f4c88f0d389","ios":"levelo://app?vid=7d1bac24-fc29-4713-9f1e-3f4c88f0d389"},"vehicle_type_id":"4","last_reported":1717870160,"current_range_meters":12400,"station_id":"ce4bhb12rcd13ifvqel0","pricing_plan_id":"cebpf4jnsgd1na2vs0mg"},{"bike_id":"059c3f20-9ccc-4146-920b-564a375f3918","system_id":"levelo_inurba_marseille","lat":43.309047,"lon":5.396551,"is_reserved":false,"is_disabled":false,"rental_uris":{"android":"levelo://app?vid=059c3f20-9ccc-4146-920b-564a375f3918","ios":"levelo://app?vid=059c3f20-9ccc-4146-920b-564a375f3918"},"vehicle_type_id":"4","last_reported":1717870160,"current_range_meters":2000,"station_id":"ce4bh012rcd13ifvqcv0","pricing_plan_id":"cebpf4jnsgd1na2vs0mg"},{"bike_id":"d1948496-a334-430f-b515-16fa5ca15922","system_id":"levelo_inurba_marseille","lat":43.292005,"lon":5.357875,"is_reserved":false,"is_disabled":false,"rental_uris":{"android":"levelo://app?vid=d1948496-a334-430f-b515-16fa5ca15922","ios":"levelo://app?vid=d1948496-a334-430f-b515-16fa5ca15922"},"vehicle_type_id":"4","last_reported":1717870160,"current_range_meters":31200,"station_id":"ce4bhb12rcd13ifvqel0","pricing_plan_id":"cebpf4jnsgd1na2vs0mg"},{"bike_id":"6f07fe92-99c2-4994-9e8a-90b356a1eec8","system_id":"levelo_inurba_marseille","lat":43.309038,"lon":5.396546,"is_reserved":false,"is_disabled":false,"rental_uris":{"android":"levelo://app?vid=6f07fe92-99c2-4994-9e8a-90b356a1eec8","ios":"levelo://app?vid=6f07fe92-99c2-4994-9e8a-90b356a1eec8"},"vehicle_type_id":"4","last_reported":1717870160,"current_range_meters":6000,"station_id":"ce4bh012rcd13ifvqcv0","pricing_plan_id":"cebpf4jnsgd1na2vs0mg"},{"bike_id":"20546264-c5bb-40fb-b326-ddf4bf91f53a","system_id":"levelo_inurba_marseille","lat":43.29174,"lon":5.35793,"is_reserved":false,"is_disabled":false,"rental_uris":{"android":"levelo://app?vid=20546264-c5bb-40fb-b326-ddf4bf91f53a","ios":"levelo://app?vid=20546264-c5bb-40fb-b326-ddf4bf91f53a"},"vehicle_type_id":"4","last_reported":1717870160,"current_range_meters":31200,"station_id":"ce4bhb12rcd13ifvqel0","pricing_plan_id":"cebpf4jnsgd1na2vs0mg"},{"bike_id":"951a7ecc-2e36-4398-8a43-bdc9d0ce5611","system_id":"levelo_inurba_marseille","lat":43.29529,"lon":5.385581,"is_reserved":false,"is_disabled":false,"rental_uris":{"android":"levelo://app?vid=951a7ecc-2e36-4398-8a43-bdc9d0ce5611","ios":"levelo://app?vid=951a7ecc-2e36-4398-8a43-bdc9d0ce5611"},"vehicle_type_id":"4","last_reported":1717870160,"current_range_meters":31200,"station_id":"ce4bgih2rcd13ifvqba0","pricing_plan_id":"cebpf4jnsgd1na2vs0mg"},{"bike_id":"0a1da466-c957-4259-a03e-fbbc9d6a89a6","system_id":"levelo_inurba_marseille","lat":43.302008,"lon":5.394694,"is_reserved":false,"is_disabled":false,"rental_uris":{"android":"levelo://app?vid=0a1da466-c957-4259-a03e-fbbc9d6a89a6","ios":"levelo://app?vid=0a1da466-c957-4259-a03e-fbbc9d6a89a6"},"vehicle_type_id":"4","last_reported":1717870160,"current_range_meters":21600,"station_id":"ce4bh0p2rcd13ifvqd70","pricing_plan_id":"cebpf4jnsgd1na2vs0mg"},{"bike_id":"8f95f47a-ee21-4f56-858b-57ff13ef7f4d","system_id":"levelo_inurba_marseille","lat":43.302008,"lon":5.394694,"is_reserved":false,"is_disabled":false,"rental_uris":{"android":"levelo://app?vid=8f95f47a-ee21-4f56-858b-57ff13ef7f4d","ios":"levelo://app?vid=8f95f47a-ee21-4f56-858b-57ff13ef7f4d"},"vehicle_type_id":"4","last_reported":1717870160,"current_range_meters":2400,"station_id":"ce4bh0p2rcd13ifvqd70","pricing_plan_id":"cebpf4jnsgd1na2vs0mg"},{"bike_id":"507bdb95-105a-40c1-9c62-96c4059ae2cd","system_id":"levelo_inurba_marseille","lat":43.302008,"lon":5.394694,"is_reserved":false,"is_disabled":false,"rental_uris":{"android":"levelo://app?vid=507bdb95-105a-40c1-9c62-96c4059ae2cd","ios":"levelo://app?vid=507bdb95-105a-40c1-9c62-96c4059ae2cd"},"vehicle_type_id":"4","last_reported":1717870160,"current_range_meters":4800,"station_id":"ce4bh0p2rcd13ifvqd70","pricing_plan_id":"cebpf4jnsgd1na2vs0mg"},{"bike_id":"1941eece-4281-4e1a-b5a9-0d345ce189b5","system_id":"levelo_inurba_marseille","lat":43.294429,"lon":5.385799,"is_reserved":false,"is_disabled":false,"rental_uris":{"android":"levelo://app?vid=1941eece-4281-4e1a-b5a9-0d345ce189b5","ios":"levelo://app?vid=1941eece-4281-4e1a-b5a9-0d345ce189b5"},"vehicle_type_id":"4","last_reported":1717870160,"current_range_meters":0,"station_id":"","pricing_plan_id":"cebpf4jnsgd1na2vs0mg"},{"bike_id":"0ce56988-73c7-4dec-869c-e693b27033b4","system_id":"levelo_inurba_marseille","lat":43.290631,"lon":5.359244,"is_reserved":false,"is_disabled":false,"rental_uris":{"android":"levelo://app?vid=0ce56988-73c7-4dec-869c-e693b27033b4","ios":"levelo://app?vid=0ce56988-73c7-4dec-869c-e693b27033b4"},"vehicle_type_id":"4","last_reported":1717870160,"current_range_meters":17600,"station_id":"ce4bha92rcd13ifvqeg0","pricing_plan_id":"cebpf4jnsgd1na2vs0mg"},{"bike_id":"55ae1b65-98a7-4fc7-8b8e-0d77c1a9e8e8","system_id":"levelo_inurba_marseille","lat":43.290327,"lon":5.375711,"is_reserved":false,"is_disabled":false,"rental_uris":{"android":"levelo://app?vid=55ae1b65-98a7-4fc7-8b8e-0d77c1a9e8e8","ios":"levelo://app?vid=55ae1b65-98a7-4fc7-8b8e-0d77c1a9e8e8"},"vehicle_type_id":"4","last_reported":1717870160,"current_range_meters":11600,"station_id":"ce4bh692rcd13ifvqe90","pricing_plan_id":"cebpf4jnsgd1na2vs0mg"},{"bike_id":"2539fdc1-c4e7-4d7e-84d9-1a479235a82e","system_id":"levelo_inurba_marseille","lat":43.294162,"lon":5.386292,"is_reserved":false,"is_disabled":false,"rental_uris":{"android":"levelo://app?vid=2539fdc1-c4e7-4d7e-84d9-1a479235a82e","ios":"levelo://app?vid=2539fdc1-c4e7-4d7e-84d9-1a479235a82e"},"vehicle_type_id":"4","last_reported":1717870160,"current_range_meters":30000,"station_id":"ce4bh2h2rcd13ifvqdh0","pricing_plan_id":"cebpf4jnsgd1na2vs0mg"},{"bike_id":"b9330195-0e9c-4956-b5b4-be2e2456c3fa","system_id":"levelo_inurba_marseille","lat":43.294162,"lon":5.386292,"is_reserved":false,"is_disabled":false,"rental_uris":{"android":"levelo://app?vid=b9330195-0e9c-4956-b5b4-be2e2456c3fa","ios":"levelo://app?vid=b9330195-0e9c-4956-b5b4-be2e2456c3fa"},"vehicle_type_id":"4","last_reported":1717870160,"current_range_meters":8400,"station_id":"ce4bh2h2rcd13ifvqdh0","pricing_plan_id":"cebpf4jnsgd1na2vs0mg"},{"bike_id":"dee89beb-5ae7-4548-80a6-82ff1886be50","system_id":"levelo_inurba_marseille","lat":43.29414,"lon":5.38626,"is_reserved":false,"is_disabled":false,"rental_uris":{"android":"levelo://app?vid=dee89beb-5ae7-4548-80a6-82ff1886be50","ios":"levelo://app?vid=dee89beb-5ae7-4548-80a6-82ff1886be50"},"vehicle_type_id":"4","last_reported":1717870160,"current_range_meters":0,"station_id":"ce4bh2h2rcd13ifvqdh0","pricing_plan_id":"cebpf4jnsgd1na2vs0mg"},{"bike_id":"c5100e06-d749-4ab6-997a-e9298b017474","system_id":"levelo_inurba_marseille","lat":43.290104,"lon":5.356111,"is_reserved":false,"is_disabled":false,"rental_uris":{"android":"levelo://app?vid=c5100e06-d749-4ab6-997a-e9298b017474","ios":"levelo://app?vid=c5100e06-d749-4ab6-997a-e9298b017474"},"vehicle_type_id":"4","last_reported":1717870160,"current_range_meters":10800,"station_id":"ce4bhb92rcd13ifvqen0","pricing_plan_id":"cebpf4jnsgd1na2vs0mg"},{"bike_id":"006f055f-b37a-4529-8c7b-cb10c9d5be05","system_id":"levelo_inurba_marseille","lat":43.290319,"lon":5.375732,"is_reserved":false,"is_disabled":false,"rental_uris":{"android":"levelo://app?vid=006f055f-b37a-4529-8c7b-cb10c9d5be05","ios":"levelo://app?vid=006f055f-b37a-4529-8c7b-cb10c9d5be05"},"vehicle_type_id":"4","last_reported":1717870160,"current_range_meters":0,"station_id":"ce4bh692rcd13ifvqe90","pricing_plan_id":"cebpf4jnsgd1na2vs0mg"},{"bike_id":"4f12e852-93c6-4cc3-98c8-967db9207759","system_id":"levelo_inurba_marseille","lat":43.289468,"lon":5.363719,"is_reserved":false,"is_disabled":false,"rental_uris":{"android":"levelo://app?vid=4f12e852-93c6-4cc3-98c8-967db9207759","ios":"levelo://app?vid=4f12e852-93c6-4cc3-98c8-967db9207759"},"vehicle_type_id":"4","last_reported":1717870160,"current_range_meters":0,"station_id":"ce4bhc92rcd13ifvqetg","pricing_plan_id":"cebpf4jnsgd1na2vs0mg"},{"bike_id":"03f3db4f-5726-4364-bf15-b299d6e653a2","system_id":"levelo_inurba_marseille","lat":43.289468,"lon":5.363719,"is_reserved":false,"is_disabled":false,"rental_uris":{"android":"levelo://app?vid=03f3db4f-5726-4364-bf15-b299d6e653a2","ios":"levelo://app?vid=03f3db4f-5726-4364-bf15-b299d6e653a2"},"vehicle_type_id":"4","last_reported":1717870160,"current_range_meters":0,"station_id":"ce4bhc92rcd13ifvqetg","pricing_plan_id":"cebpf4jnsgd1na2vs0mg"},{"bike_id":"e2147445-80d7-482e-bbe6-22001511e30f","system_id":"levelo_inurba_marseille","lat":43.29573,"lon":5.367355,"is_reserved":false,"is_disabled":false,"rental_uris":{"android":"levelo://app?vid=e2147445-80d7-482e-bbe6-22001511e30f","ios":"levelo://app?vid=e2147445-80d7-482e-bbe6-22001511e30f"},"vehicle_type_id":"4","last_reported":1717870160,"current_range_meters":0,"station_id":"ce4bgph2rcd13ifvqc2g","pricing_plan_id":"cebpf4jnsgd1na2vs0mg"},{"bike_id":"f66317af-a7d7-4b7f-9dfb-6b5d7453bd09","system_id":"levelo_inurba_marseille","lat":43.292642,"lon":5.384254,"is_reserved":false,"is_disabled":false,"rental_uris":{"android":"levelo://app?vid=f66317af-a7d7-4b7f-9dfb-6b5d7453bd09","ios":"levelo://app?vid=f66317af-a7d7-4b7f-9dfb-6b5d7453bd09"},"vehicle_type_id":"4","last_reported":1717870160,"current_range_meters":400,"station_id":"ce4bh692rcd13ifvqea0","pricing_plan_id":"cebpf4jnsgd1na2vs0mg"},{"bike_id":"de60a1c5-bec5-463d-8714-e628f5a51d8f","system_id":"levelo_inurba_marseille","lat":43.292352,"lon":5.383823,"is_reserved":false,"is_disabled":false,"rental_uris":{"android":"levelo://app?vid=de60a1c5-bec5-463d-8714-e628f5a51d8f","ios":"levelo://app?vid=de60a1c5-bec5-463d-8714-e628f5a51d8f"},"vehicle_type_id":"4","last_reported":1717870160,"current_range_meters":0,"station_id":"ce4bh692rcd13ifvqea0","pricing_plan_id":"cebpf4jnsgd1na2vs0mg"},{"bike_id":"45b346e9-c9ab-4dee-b254-0611d0e5ea9d","system_id":"levelo_inurba_marseille","lat":43.292642,"lon":5.384254,"is_reserved":false,"is_disabled":false,"rental_uris":{"android":"levelo://app?vid=45b346e9-c9ab-4dee-b254-0611d0e5ea9d","ios":"levelo://app?vid=45b346e9-c9ab-4dee-b254-0611d0e5ea9d"},"vehicle_type_id":"4","last_reported":1717870160,"current_range_meters":21600,"station_id":"ce4bh692rcd13ifvqea0","pricing_plan_id":"cebpf4jnsgd1na2vs0mg"},{"bike_id":"4caa6c07-91f2-4b6d-b893-be959d73a064","system_id":"levelo_inurba_marseille","lat":43.292644,"lon":5.384257,"is_reserved":false,"is_disabled":false,"rental_uris":{"android":"levelo://app?vid=4caa6c07-91f2-4b6d-b893-be959d73a064","ios":"levelo://app?vid=4caa6c07-91f2-4b6d-b893-be959d73a064"},"vehicle_type_id":"4","last_reported":1717870160,"current_range_meters":20400,"station_id":"ce4bh692rcd13ifvqea0","pricing_plan_id":"cebpf4jnsgd1na2vs0mg"},{"bike_id":"59a65af9-82a3-4da2-9eeb-4419375b9bf6","system_id":"levelo_inurba_marseille","lat":43.292642,"lon":5.384254,"is_reserved":false,"is_disabled":false,"rental_uris":{"android":"levelo://app?vid=59a65af9-82a3-4da2-9eeb-4419375b9bf6","ios":"levelo://app?vid=59a65af9-82a3-4da2-9eeb-4419375b9bf6"},"vehicle_type_id":"4","last_reported":1717870160,"current_range_meters":0,"station_id":"ce4bh692rcd13ifvqea0","pricing_plan_id":"cebpf4jnsgd1na2vs0mg"},{"bike_id":"3820a72f-917c-4008-ac1b-219da6425376","system_id":"levelo_inurba_marseille","lat":43.29006,"lon":5.35607,"is_reserved":false,"is_disabled":false,"rental_uris":{"android":"levelo://app?vid=3820a72f-917c-4008-ac1b-219da6425376","ios":"levelo://app?vid=3820a72f-917c-4008-ac1b-219da6425376"},"vehicle_type_id":"4","last_reported":1717870160,"current_range_meters":0,"station_id":"ce4bhb92rcd13ifvqen0","pricing_plan_id":"cebpf4jnsgd1na2vs0mg"},{"bike_id":"4e7260c9-b025-4163-acbf-be784b063ef7","system_id":"levelo_inurba_marseille","lat":43.29003,"lon":5.35606,"is_reserved":false,"is_disabled":false,"rental_uris":{"android":"levelo://app?vid=4e7260c9-b025-4163-acbf-be784b063ef7","ios":"levelo://app?vid=4e7260c9-b025-4163-acbf-be784b063ef7"},"vehicle_type_id":"4","last_reported":1717870160,"current_range_meters":31600,"station_id":"ce4bhb92rcd13ifvqen0","pricing_plan_id":"cebpf4jnsgd1na2vs0mg"},{"bike_id":"d6a4054c-9c02-41f4-81f9-101b83c99271","system_id":"levelo_inurba_marseille","lat":43.290104,"lon":5.356111,"is_reserved":false,"is_disabled":false,"rental_uris":{"android":"levelo://app?vid=d6a4054c-9c02-41f4-81f9-101b83c99271","ios":"levelo://app?vid=d6a4054c-9c02-41f4-81f9-101b83c99271"},"vehicle_type_id":"4","last_reported":1717870160,"current_range_meters":1200,"station_id":"ce4bhb92rcd13ifvqen0","pricing_plan_id":"cebpf4jnsgd1na2vs0mg"},{"bike_id":"f43d1b24-e7b5-431e-a61a-563fad584e73","system_id":"levelo_inurba_marseille","lat":43.290995,"lon":5.381361,"is_reserved":false,"is_disabled":false,"rental_uris":{"android":"levelo://app?vid=f43d1b24-e7b5-431e-a61a-563fad584e73","ios":"levelo://app?vid=f43d1b24-e7b5-431e-a61a-563fad584e73"},"vehicle_type_id":"4","last_reported":1717870160,"current_range_meters":0,"station_id":"ce4bh512rcd13ifvqe2g","pricing_plan_id":"cebpf4jnsgd1na2vs0mg"},{"bike_id":"c78edbed-b9c4-4587-885a-4eb66896ac57","system_id":"levelo_inurba_marseille","lat":43.290995,"lon":5.381361,"is_reserved":false,"is_disabled":false,"rental_uris":{"android":"levelo://app?vid=c78edbed-b9c4-4587-885a-4eb66896ac57","ios":"levelo://app?vid=c78edbed-b9c4-4587-885a-4eb66896ac57"},"vehicle_type_id":"4","last_reported":1717870160,"current_range_meters":0,"station_id":"ce4bh512rcd13ifvqe2g","pricing_plan_id":"cebpf4jnsgd1na2vs0mg"},{"bike_id":"e01c7bb6-5b5a-4148-908b-ac1a09430d54","system_id":"levelo_inurba_marseille","lat":43.290995,"lon":5.381361,"is_reserved":false,"is_disabled":false,"rental_uris":{"android":"levelo://app?vid=e01c7bb6-5b5a-4148-908b-ac1a09430d54","ios":"levelo://app?vid=e01c7bb6-5b5a-4148-908b-ac1a09430d54"},"vehicle_type_id":"4","last_reported":1717870160,"current_range_meters":0,"station_id":"ce4bh512rcd13ifvqe2g","pricing_plan_id":"cebpf4jnsgd1na2vs0mg"},{"bike_id":"98eea3a1-b0b3-47f4-a959-d3c2f81a8416","system_id":"levelo_inurba_marseille","lat":43.290995,"lon":5.381361,"is_reserved":false,"is_disabled":false,"rental_uris":{"android":"levelo://app?vid=98eea3a1-b0b3-47f4-a959-d3c2f81a8416","ios":"levelo://app?vid=98eea3a1-b0b3-47f4-a959-d3c2f81a8416"},"vehicle_type_id":"4","last_reported":1717870160,"current_range_meters":0,"station_id":"ce4bh512rcd13ifvqe2g","pricing_plan_id":"cebpf4jnsgd1na2vs0mg"},{"bike_id":"ddc133cb-b4e0-4f5e-8bf1-738cc980486c","system_id":"levelo_inurba_marseille","lat":43.292642,"lon":5.384254,"is_reserved":false,"is_disabled":false,"rental_uris":{"android":"levelo://app?vid=ddc133cb-b4e0-4f5e-8bf1-738cc980486c","ios":"levelo://app?vid=ddc133cb-b4e0-4f5e-8bf1-738cc980486c"},"vehicle_type_id":"4","last_reported":1717870160,"current_range_meters":1200,"station_id":"ce4bh692rcd13ifvqea0","pricing_plan_id":"cebpf4jnsgd1na2vs0mg"},{"bike_id":"f4f06ebd-2b51-4dff-8c5e-138e0dd535a6","system_id":"levelo_inurba_marseille","lat":43.330442,"lon":5.389148,"is_reserved":false,"is_disabled":false,"rental_uris":{"android":"levelo://app?vid=f4f06ebd-2b51-4dff-8c5e-138e0dd535a6","ios":"levelo://app?vid=f4f06ebd-2b51-4dff-8c5e-138e0dd535a6"},"vehicle_type_id":"4","last_reported":1717870160,"current_range_meters":11200,"station_id":"ce4bhr92rcd13ifvqhrg","pricing_plan_id":"cebpf4jnsgd1na2vs0mg"},{"bike_id":"b8fd97c1-36a5-4df7-b83d-80aaa8fe266b","system_id":"levelo_inurba_marseille","lat":43.330442,"lon":5.389148,"is_reserved":false,"is_disabled":false,"rental_uris":{"android":"levelo://app?vid=b8fd97c1-36a5-4df7-b83d-80aaa8fe266b","ios":"levelo://app?vid=b8fd97c1-36a5-4df7-b83d-80aaa8fe266b"},"vehicle_type_id":"4","last_reported":1717870160,"current_range_meters":12800,"station_id":"ce4bhr92rcd13ifvqhrg","pricing_plan_id":"cebpf4jnsgd1na2vs0mg"},{"bike_id":"45b296b2-933a-4d8d-a73b-ac7ae2273bf1","system_id":"levelo_inurba_marseille","lat":43.295169,"lon":5.390426,"is_reserved":false,"is_disabled":false,"rental_uris":{"android":"levelo://app?vid=45b296b2-933a-4d8d-a73b-ac7ae2273bf1","ios":"levelo://app?vid=45b296b2-933a-4d8d-a73b-ac7ae2273bf1"},"vehicle_type_id":"4","last_reported":1717870160,"current_range_meters":8000,"station_id":"ce4bh3p2rcd13ifvqdp0","pricing_plan_id":"cebpf4jnsgd1na2vs0mg"},{"bike_id":"3f410d18-c468-4a8c-9106-95e4db988286","system_id":"levelo_inurba_marseille","lat":43.330442,"lon":5.389148,"is_reserved":false,"is_disabled":false,"rental_uris":{"android":"levelo://app?vid=3f410d18-c468-4a8c-9106-95e4db988286","ios":"levelo://app?vid=3f410d18-c468-4a8c-9106-95e4db988286"},"vehicle_type_id":"4","last_reported":1717870160,"current_range_meters":0,"station_id":"ce4bhr92rcd13ifvqhrg","pricing_plan_id":"cebpf4jnsgd1na2vs0mg"},{"bike_id":"8edbcb0c-2383-4313-98fa-2376ab082fca","system_id":"levelo_inurba_marseille","lat":43.295169,"lon":5.390426,"is_reserved":false,"is_disabled":false,"rental_uris":{"android":"levelo://app?vid=8edbcb0c-2383-4313-98fa-2376ab082fca","ios":"levelo://app?vid=8edbcb0c-2383-4313-98fa-2376ab082fca"},"vehicle_type_id":"4","last_reported":1717870160,"current_range_meters":30800,"station_id":"ce4bh3p2rcd13ifvqdp0","pricing_plan_id":"cebpf4jnsgd1na2vs0mg"},{"bike_id":"1274709e-bb85-4c0f-86fa-de105bbe08c0","system_id":"levelo_inurba_marseille","lat":43.330442,"lon":5.389148,"is_reserved":false,"is_disabled":false,"rental_uris":{"android":"levelo://app?vid=1274709e-bb85-4c0f-86fa-de105bbe08c0","ios":"levelo://app?vid=1274709e-bb85-4c0f-86fa-de105bbe08c0"},"vehicle_type_id":"4","last_reported":1717870160,"current_range_meters":6800,"station_id":"ce4bhr92rcd13ifvqhrg","pricing_plan_id":"cebpf4jnsgd1na2vs0mg"},{"bike_id":"1e91aa4c-f6e8-4266-b338-448bb9110469","system_id":"levelo_inurba_marseille","lat":43.312609,"lon":5.401662,"is_reserved":false,"is_disabled":false,"rental_uris":{"android":"levelo://app?vid=1e91aa4c-f6e8-4266-b338-448bb9110469","ios":"levelo://app?vid=1e91aa4c-f6e8-4266-b338-448bb9110469"},"vehicle_type_id":"4","last_reported":1717870160,"current_range_meters":6400,"station_id":"ce4bh092rcd13ifvqd30","pricing_plan_id":"cebpf4jnsgd1na2vs0mg"},{"bike_id":"ca8c8726-c449-4f28-a71f-aa95d44bf3c9","system_id":"levelo_inurba_marseille","lat":43.330442,"lon":5.389148,"is_reserved":false,"is_disabled":false,"rental_uris":{"android":"levelo://app?vid=ca8c8726-c449-4f28-a71f-aa95d44bf3c9","ios":"levelo://app?vid=ca8c8726-c449-4f28-a71f-aa95d44bf3c9"},"vehicle_type_id":"4","last_reported":1717870160,"current_range_meters":18400,"station_id":"ce4bhr92rcd13ifvqhrg","pricing_plan_id":"cebpf4jnsgd1na2vs0mg"},{"bike_id":"3816a580-5962-4a0d-a461-d0e37867170d","system_id":"levelo_inurba_marseille","lat":43.290995,"lon":5.381361,"is_reserved":false,"is_disabled":false,"rental_uris":{"android":"levelo://app?vid=3816a580-5962-4a0d-a461-d0e37867170d","ios":"levelo://app?vid=3816a580-5962-4a0d-a461-d0e37867170d"},"vehicle_type_id":"4","last_reported":1717870160,"current_range_meters":0,"station_id":"ce4bh512rcd13ifvqe2g","pricing_plan_id":"cebpf4jnsgd1na2vs0mg"},{"bike_id":"20699b6d-ba3a-4745-9992-9358c4f41131","system_id":"levelo_inurba_marseille","lat":43.29018,"lon":5.38125,"is_reserved":false,"is_disabled":false,"rental_uris":{"android":"levelo://app?vid=20699b6d-ba3a-4745-9992-9358c4f41131","ios":"levelo://app?vid=20699b6d-ba3a-4745-9992-9358c4f41131"},"vehicle_type_id":"4","last_reported":1717870160,"current_range_meters":400,"station_id":"ce4bh4p2rcd13ifvqe1g","pricing_plan_id":"cebpf4jnsgd1na2vs0mg"},{"bike_id":"681a18e4-d8dd-46fc-8141-a9ae379131dd","system_id":"levelo_inurba_marseille","lat":43.2901,"lon":5.381269,"is_reserved":false,"is_disabled":false,"rental_uris":{"android":"levelo://app?vid=681a18e4-d8dd-46fc-8141-a9ae379131dd","ios":"levelo://app?vid=681a18e4-d8dd-46fc-8141-a9ae379131dd"},"vehicle_type_id":"4","last_reported":1717870160,"current_range_meters":0,"station_id":"ce4bh4p2rcd13ifvqe1g","pricing_plan_id":"cebpf4jnsgd1na2vs0mg"},{"bike_id":"3dfdb118-2aba-41fd-9bf3-f435d0a8c18c","system_id":"levelo_inurba_marseille","lat":43.28856,"lon":5.358371,"is_reserved":false,"is_disabled":false,"rental_uris":{"android":"levelo://app?vid=3dfdb118-2aba-41fd-9bf3-f435d0a8c18c","ios":"levelo://app?vid=3dfdb118-2aba-41fd-9bf3-f435d0a8c18c"},"vehicle_type_id":"4","last_reported":1717870160,"current_range_meters":2400,"station_id":"ce4bhb12rcd13ifvqem0","pricing_plan_id":"cebpf4jnsgd1na2vs0mg"},{"bike_id":"d5d17bb8-ce61-4968-a076-895b3649ee8d","system_id":"levelo_inurba_marseille","lat":43.28854,"lon":5.358364,"is_reserved":false,"is_disabled":false,"rental_uris":{"android":"levelo://app?vid=d5d17bb8-ce61-4968-a076-895b3649ee8d","ios":"levelo://app?vid=d5d17bb8-ce61-4968-a076-895b3649ee8d"},"vehicle_type_id":"4","last_reported":1717870160,"current_range_meters":0,"station_id":"ce4bhb12rcd13ifvqem0","pricing_plan_id":"cebpf4jnsgd1na2vs0mg"},{"bike_id":"9e58dd31-83a7-42ba-9c81-4548a1bab5a3","system_id":"levelo_inurba_marseille","lat":43.2885,"lon":5.35842,"is_reserved":false,"is_disabled":false,"rental_uris":{"android":"levelo://app?vid=9e58dd31-83a7-42ba-9c81-4548a1bab5a3","ios":"levelo://app?vid=9e58dd31-83a7-42ba-9c81-4548a1bab5a3"},"vehicle_type_id":"4","last_reported":1717870160,"current_range_meters":0,"station_id":"ce4bhb12rcd13ifvqem0","pricing_plan_id":"cebpf4jnsgd1na2vs0mg"},{"bike_id":"d256bed8-b9cb-4a34-b6bc-09336e7d5754","system_id":"levelo_inurba_marseille","lat":43.288523,"lon":5.358277,"is_reserved":false,"is_disabled":false,"rental_uris":{"android":"levelo://app?vid=d256bed8-b9cb-4a34-b6bc-09336e7d5754","ios":"levelo://app?vid=d256bed8-b9cb-4a34-b6bc-09336e7d5754"},"vehicle_type_id":"4","last_reported":1717870160,"current_range_meters":0,"station_id":"ce4bhb12rcd13ifvqem0","pricing_plan_id":"cebpf4jnsgd1na2vs0mg"},{"bike_id":"5f100e10-ebaf-4ab3-a161-fe360b23e65c","system_id":"levelo_inurba_marseille","lat":43.28856,"lon":5.358371,"is_reserved":false,"is_disabled":false,"rental_uris":{"android":"levelo://app?vid=5f100e10-ebaf-4ab3-a161-fe360b23e65c","ios":"levelo://app?vid=5f100e10-ebaf-4ab3-a161-fe360b23e65c"},"vehicle_type_id":"4","last_reported":1717870160,"current_range_meters":2400,"station_id":"ce4bhb12rcd13ifvqem0","pricing_plan_id":"cebpf4jnsgd1na2vs0mg"},{"bike_id":"182944e1-9420-4b3a-8e5d-6ac45d4def8c","system_id":"levelo_inurba_marseille","lat":43.312609,"lon":5.401662,"is_reserved":false,"is_disabled":false,"rental_uris":{"android":"levelo://app?vid=182944e1-9420-4b3a-8e5d-6ac45d4def8c","ios":"levelo://app?vid=182944e1-9420-4b3a-8e5d-6ac45d4def8c"},"vehicle_type_id":"4","last_reported":1717870160,"current_range_meters":23600,"station_id":"ce4bh092rcd13ifvqd30","pricing_plan_id":"cebpf4jnsgd1na2vs0mg"},{"bike_id":"f5d81ff7-7e0d-44d8-86e3-2548419d17b8","system_id":"levelo_inurba_marseille","lat":43.3373,"lon":5.37466,"is_reserved":false,"is_disabled":false,"rental_uris":{"android":"levelo://app?vid=f5d81ff7-7e0d-44d8-86e3-2548419d17b8","ios":"levelo://app?vid=f5d81ff7-7e0d-44d8-86e3-2548419d17b8"},"vehicle_type_id":"4","last_reported":1717870160,"current_range_meters":4000,"station_id":"","pricing_plan_id":"cebpf4jnsgd1na2vs0mg"},{"bike_id":"be749423-7649-4ebe-a7df-61a7322090d1","system_id":"levelo_inurba_marseille","lat":43.28856,"lon":5.358371,"is_reserved":false,"is_disabled":false,"rental_uris":{"android":"levelo://app?vid=be749423-7649-4ebe-a7df-61a7322090d1","ios":"levelo://app?vid=be749423-7649-4ebe-a7df-61a7322090d1"},"vehicle_type_id":"4","last_reported":1717870160,"current_range_meters":0,"station_id":"ce4bhb12rcd13ifvqem0","pricing_plan_id":"cebpf4jnsgd1na2vs0mg"},{"bike_id":"c330fece-0056-4922-b135-f22e9ce9a184","system_id":"levelo_inurba_marseille","lat":43.309371,"lon":5.401449,"is_reserved":false,"is_disabled":false,"rental_uris":{"android":"levelo://app?vid=c330fece-0056-4922-b135-f22e9ce9a184","ios":"levelo://app?vid=c330fece-0056-4922-b135-f22e9ce9a184"},"vehicle_type_id":"4","last_reported":1717870160,"current_range_meters":5600,"station_id":"ce4bgvp2rcd13ifvqct0","pricing_plan_id":"cebpf4jnsgd1na2vs0mg"},{"bike_id":"0430a999-2299-490d-a311-a192717132d0","system_id":"levelo_inurba_marseille","lat":43.309371,"lon":5.401449,"is_reserved":false,"is_disabled":false,"rental_uris":{"android":"levelo://app?vid=0430a999-2299-490d-a311-a192717132d0","ios":"levelo://app?vid=0430a999-2299-490d-a311-a192717132d0"},"vehicle_type_id":"4","last_reported":1717870160,"current_range_meters":2400,"station_id":"ce4bgvp2rcd13ifvqct0","pricing_plan_id":"cebpf4jnsgd1na2vs0mg"},{"bike_id":"10c53891-9146-44ae-9185-bf8cc571acaa","system_id":"levelo_inurba_marseille","lat":43.33762,"lon":5.3745,"is_reserved":false,"is_disabled":false,"rental_uris":{"android":"levelo://app?vid=10c53891-9146-44ae-9185-bf8cc571acaa","ios":"levelo://app?vid=10c53891-9146-44ae-9185-bf8cc571acaa"},"vehicle_type_id":"4","last_reported":1717870160,"current_range_meters":7600,"station_id":"","pricing_plan_id":"cebpf4jnsgd1na2vs0mg"},{"bike_id":"527c8278-6351-4925-bce7-002d3ad83d8e","system_id":"levelo_inurba_marseille","lat":43.33765,"lon":5.37443,"is_reserved":false,"is_disabled":false,"rental_uris":{"android":"levelo://app?vid=527c8278-6351-4925-bce7-002d3ad83d8e","ios":"levelo://app?vid=527c8278-6351-4925-bce7-002d3ad83d8e"},"vehicle_type_id":"4","last_reported":1717870160,"current_range_meters":29200,"station_id":"","pricing_plan_id":"cebpf4jnsgd1na2vs0mg"},{"bike_id":"3d6dad26-c5fe-4dac-a9ff-d1483a256ab7","system_id":"levelo_inurba_marseille","lat":43.30646,"lon":5.40094,"is_reserved":false,"is_disabled":false,"rental_uris":{"android":"levelo://app?vid=3d6dad26-c5fe-4dac-a9ff-d1483a256ab7","ios":"levelo://app?vid=3d6dad26-c5fe-4dac-a9ff-d1483a256ab7"},"vehicle_type_id":"4","last_reported":1717870160,"current_range_meters":0,"station_id":"ce4bh112rcd13ifvqda0","pricing_plan_id":"cebpf4jnsgd1na2vs0mg"},{"bike_id":"5b2b695f-e07e-483a-8284-07525015ecb8","system_id":"levelo_inurba_marseille","lat":43.298681,"lon":5.397225,"is_reserved":false,"is_disabled":false,"rental_uris":{"android":"levelo://app?vid=5b2b695f-e07e-483a-8284-07525015ecb8","ios":"levelo://app?vid=5b2b695f-e07e-483a-8284-07525015ecb8"},"vehicle_type_id":"4","last_reported":1717870160,"current_range_meters":31200,"station_id":"ce4bh0h2rcd13ifvqd50","pricing_plan_id":"cebpf4jnsgd1na2vs0mg"},{"bike_id":"9001eb92-a141-4762-8b39-55d9c9c2644c","system_id":"levelo_inurba_marseille","lat":43.29795,"lon":5.404086,"is_reserved":false,"is_disabled":false,"rental_uris":{"android":"levelo://app?vid=9001eb92-a141-4762-8b39-55d9c9c2644c","ios":"levelo://app?vid=9001eb92-a141-4762-8b39-55d9c9c2644c"},"vehicle_type_id":"4","last_reported":1717870160,"current_range_meters":0,"station_id":"ce4bh112rcd13ifvqd90","pricing_plan_id":"cebpf4jnsgd1na2vs0mg"},{"bike_id":"78fcfa13-e4ab-4fba-bf8f-f4939803c235","system_id":"levelo_inurba_marseille","lat":43.286593,"lon":5.363346,"is_reserved":false,"is_disabled":false,"rental_uris":{"android":"levelo://app?vid=78fcfa13-e4ab-4fba-bf8f-f4939803c235","ios":"levelo://app?vid=78fcfa13-e4ab-4fba-bf8f-f4939803c235"},"vehicle_type_id":"4","last_reported":1717870160,"current_range_meters":0,"station_id":"ce4bhah2rcd13ifvqej0","pricing_plan_id":"cebpf4jnsgd1na2vs0mg"},{"bike_id":"03cd277c-78cc-40b0-a491-e2842ff56b02","system_id":"levelo_inurba_marseille","lat":43.298681,"lon":5.397225,"is_reserved":false,"is_disabled":false,"rental_uris":{"android":"levelo://app?vid=03cd277c-78cc-40b0-a491-e2842ff56b02","ios":"levelo://app?vid=03cd277c-78cc-40b0-a491-e2842ff56b02"},"vehicle_type_id":"4","last_reported":1717870160,"current_range_meters":29200,"station_id":"ce4bh0h2rcd13ifvqd50","pricing_plan_id":"cebpf4jnsgd1na2vs0mg"},{"bike_id":"57ea71db-4620-4537-b167-a2692bc4bcd3","system_id":"levelo_inurba_marseille","lat":43.286961,"lon":5.373785,"is_reserved":false,"is_disabled":false,"rental_uris":{"android":"levelo://app?vid=57ea71db-4620-4537-b167-a2692bc4bcd3","ios":"levelo://app?vid=57ea71db-4620-4537-b167-a2692bc4bcd3"},"vehicle_type_id":"4","last_reported":1717870160,"current_range_meters":0,"station_id":"ce4bh3p2rcd13ifvqdq0","pricing_plan_id":"cebpf4jnsgd1na2vs0mg"},{"bike_id":"f6bcf415-20f6-4087-9a69-96cbcb12a024","system_id":"levelo_inurba_marseille","lat":43.286961,"lon":5.373785,"is_reserved":false,"is_disabled":false,"rental_uris":{"android":"levelo://app?vid=f6bcf415-20f6-4087-9a69-96cbcb12a024","ios":"levelo://app?vid=f6bcf415-20f6-4087-9a69-96cbcb12a024"},"vehicle_type_id":"4","last_reported":1717870160,"current_range_meters":6800,"station_id":"ce4bh3p2rcd13ifvqdq0","pricing_plan_id":"cebpf4jnsgd1na2vs0mg"},{"bike_id":"1bc273aa-8f9b-461f-85a2-d3501e1f2018","system_id":"levelo_inurba_marseille","lat":43.286593,"lon":5.363346,"is_reserved":false,"is_disabled":false,"rental_uris":{"android":"levelo://app?vid=1bc273aa-8f9b-461f-85a2-d3501e1f2018","ios":"levelo://app?vid=1bc273aa-8f9b-461f-85a2-d3501e1f2018"},"vehicle_type_id":"4","last_reported":1717870160,"current_range_meters":16000,"station_id":"ce4bhah2rcd13ifvqej0","pricing_plan_id":"cebpf4jnsgd1na2vs0mg"},{"bike_id":"b6f053c6-6acb-49de-a5ad-600818ae1f39","system_id":"levelo_inurba_marseille","lat":43.286961,"lon":5.373785,"is_reserved":false,"is_disabled":false,"rental_uris":{"android":"levelo://app?vid=b6f053c6-6acb-49de-a5ad-600818ae1f39","ios":"levelo://app?vid=b6f053c6-6acb-49de-a5ad-600818ae1f39"},"vehicle_type_id":"4","last_reported":1717870160,"current_range_meters":17600,"station_id":"ce4bh3p2rcd13ifvqdq0","pricing_plan_id":"cebpf4jnsgd1na2vs0mg"},{"bike_id":"13cb0f7a-2d5c-4ddb-9333-f62bb7be3be3","system_id":"levelo_inurba_marseille","lat":43.286593,"lon":5.363346,"is_reserved":false,"is_disabled":false,"rental_uris":{"android":"levelo://app?vid=13cb0f7a-2d5c-4ddb-9333-f62bb7be3be3","ios":"levelo://app?vid=13cb0f7a-2d5c-4ddb-9333-f62bb7be3be3"},"vehicle_type_id":"4","last_reported":1717870160,"current_range_meters":16800,"station_id":"ce4bhah2rcd13ifvqej0","pricing_plan_id":"cebpf4jnsgd1na2vs0mg"},{"bike_id":"a2b8d39f-65ff-4b33-8ef7-d9621cb49b77","system_id":"levelo_inurba_marseille","lat":43.286961,"lon":5.373785,"is_reserved":false,"is_disabled":false,"rental_uris":{"android":"levelo://app?vid=a2b8d39f-65ff-4b33-8ef7-d9621cb49b77","ios":"levelo://app?vid=a2b8d39f-65ff-4b33-8ef7-d9621cb49b77"},"vehicle_type_id":"4","last_reported":1717870160,"current_range_meters":0,"station_id":"ce4bh3p2rcd13ifvqdq0","pricing_plan_id":"cebpf4jnsgd1na2vs0mg"},{"bike_id":"40713414-cba5-43da-b21c-ad6f0441f7e2","system_id":"levelo_inurba_marseille","lat":43.289307,"lon":5.38406,"is_reserved":false,"is_disabled":false,"rental_uris":{"android":"levelo://app?vid=40713414-cba5-43da-b21c-ad6f0441f7e2","ios":"levelo://app?vid=40713414-cba5-43da-b21c-ad6f0441f7e2"},"vehicle_type_id":"4","last_reported":1717870160,"current_range_meters":2000,"station_id":"ce4bh612rcd13ifvqe6g","pricing_plan_id":"cebpf4jnsgd1na2vs0mg"},{"bike_id":"07257b7e-0a0c-43ac-ab12-661ee39d6e3b","system_id":"levelo_inurba_marseille","lat":43.295194,"lon":5.39397,"is_reserved":false,"is_disabled":false,"rental_uris":{"android":"levelo://app?vid=07257b7e-0a0c-43ac-ab12-661ee39d6e3b","ios":"levelo://app?vid=07257b7e-0a0c-43ac-ab12-661ee39d6e3b"},"vehicle_type_id":"4","last_reported":1717870160,"current_range_meters":0,"station_id":"ce4bh292rcd13ifvqdf0","pricing_plan_id":"cebpf4jnsgd1na2vs0mg"},{"bike_id":"0b0a443c-6c28-457a-b040-0daa90893e42","system_id":"levelo_inurba_marseille","lat":43.290345,"lon":5.38646,"is_reserved":false,"is_disabled":false,"rental_uris":{"android":"levelo://app?vid=0b0a443c-6c28-457a-b040-0daa90893e42","ios":"levelo://app?vid=0b0a443c-6c28-457a-b040-0daa90893e42"},"vehicle_type_id":"4","last_reported":1717870160,"current_range_meters":0,"station_id":"ce4bh4p2rcd13ifvqe0g","pricing_plan_id":"cebpf4jnsgd1na2vs0mg"},{"bike_id":"b77d83e2-a5ee-4d9f-a85a-bd95409cc16c","system_id":"levelo_inurba_marseille","lat":43.289307,"lon":5.38406,"is_reserved":false,"is_disabled":false,"rental_uris":{"android":"levelo://app?vid=b77d83e2-a5ee-4d9f-a85a-bd95409cc16c","ios":"levelo://app?vid=b77d83e2-a5ee-4d9f-a85a-bd95409cc16c"},"vehicle_type_id":"4","last_reported":1717870160,"current_range_meters":24800,"station_id":"ce4bh612rcd13ifvqe6g","pricing_plan_id":"cebpf4jnsgd1na2vs0mg"},{"bike_id":"49b36437-bd38-4133-9a85-d71848e04b20","system_id":"levelo_inurba_marseille","lat":43.302377,"lon":5.4006,"is_reserved":false,"is_disabled":false,"rental_uris":{"android":"levelo://app?vid=49b36437-bd38-4133-9a85-d71848e04b20","ios":"levelo://app?vid=49b36437-bd38-4133-9a85-d71848e04b20"},"vehicle_type_id":"4","last_reported":1717870160,"current_range_meters":0,"station_id":"ce4bgvh2rcd13ifvqcs0","pricing_plan_id":"cebpf4jnsgd1na2vs0mg"},{"bike_id":"d8f5995e-60e1-4912-bf01-20a0dc3347bd","system_id":"levelo_inurba_marseille","lat":43.289307,"lon":5.38406,"is_reserved":false,"is_disabled":false,"rental_uris":{"android":"levelo://app?vid=d8f5995e-60e1-4912-bf01-20a0dc3347bd","ios":"levelo://app?vid=d8f5995e-60e1-4912-bf01-20a0dc3347bd"},"vehicle_type_id":"4","last_reported":1717870160,"current_range_meters":0,"station_id":"ce4bh612rcd13ifvqe6g","pricing_plan_id":"cebpf4jnsgd1na2vs0mg"},{"bike_id":"19ed45ff-608e-4324-ac6a-2470df3d0980","system_id":"levelo_inurba_marseille","lat":43.294685,"lon":5.393879,"is_reserved":false,"is_disabled":false,"rental_uris":{"android":"levelo://app?vid=19ed45ff-608e-4324-ac6a-2470df3d0980","ios":"levelo://app?vid=19ed45ff-608e-4324-ac6a-2470df3d0980"},"vehicle_type_id":"4","last_reported":1717870160,"current_range_meters":0,"station_id":"ce4bh292rcd13ifvqdf0","pricing_plan_id":"cebpf4jnsgd1na2vs0mg"},{"bike_id":"efcf4530-5d6c-482d-9bdc-88d5c22b6e7a","system_id":"levelo_inurba_marseille","lat":43.28716,"lon":5.37948,"is_reserved":false,"is_disabled":false,"rental_uris":{"android":"levelo://app?vid=efcf4530-5d6c-482d-9bdc-88d5c22b6e7a","ios":"levelo://app?vid=efcf4530-5d6c-482d-9bdc-88d5c22b6e7a"},"vehicle_type_id":"4","last_reported":1717870160,"current_range_meters":0,"station_id":"ce4bh9p2rcd13ifvqec0","pricing_plan_id":"cebpf4jnsgd1na2vs0mg"},{"bike_id":"d87c2016-dd28-4f7a-bced-b265d9eef60f","system_id":"levelo_inurba_marseille","lat":43.300194,"lon":5.40023,"is_reserved":false,"is_disabled":false,"rental_uris":{"android":"levelo://app?vid=d87c2016-dd28-4f7a-bced-b265d9eef60f","ios":"levelo://app?vid=d87c2016-dd28-4f7a-bced-b265d9eef60f"},"vehicle_type_id":"4","last_reported":1717870160,"current_range_meters":10800,"station_id":"ce4bh0h2rcd13ifvqd40","pricing_plan_id":"cebpf4jnsgd1na2vs0mg"},{"bike_id":"b10d596f-9e35-4853-a6cb-c3a0d36c9ce3","system_id":"levelo_inurba_marseille","lat":43.284534,"lon":5.358662,"is_reserved":false,"is_disabled":false,"rental_uris":{"android":"levelo://app?vid=b10d596f-9e35-4853-a6cb-c3a0d36c9ce3","ios":"levelo://app?vid=b10d596f-9e35-4853-a6cb-c3a0d36c9ce3"},"vehicle_type_id":"4","last_reported":1717870160,"current_range_meters":5200,"station_id":"ce4bhah2rcd13ifvqei0","pricing_plan_id":"cebpf4jnsgd1na2vs0mg"},{"bike_id":"36ae9d22-a30a-4024-bf55-7a8faf4afb0b","system_id":"levelo_inurba_marseille","lat":43.316602,"lon":5.404438,"is_reserved":false,"is_disabled":false,"rental_uris":{"android":"levelo://app?vid=36ae9d22-a30a-4024-bf55-7a8faf4afb0b","ios":"levelo://app?vid=36ae9d22-a30a-4024-bf55-7a8faf4afb0b"},"vehicle_type_id":"4","last_reported":1717870160,"current_range_meters":0,"station_id":"ce4bh012rcd13ifvqd00","pricing_plan_id":"cebpf4jnsgd1na2vs0mg"},{"bike_id":"cfd737ec-5e1b-49a6-a88c-da66d0db1681","system_id":"levelo_inurba_marseille","lat":43.316821,"lon":5.404737,"is_reserved":false,"is_disabled":false,"rental_uris":{"android":"levelo://app?vid=cfd737ec-5e1b-49a6-a88c-da66d0db1681","ios":"levelo://app?vid=cfd737ec-5e1b-49a6-a88c-da66d0db1681"},"vehicle_type_id":"4","last_reported":1717870160,"current_range_meters":2000,"station_id":"ce4bh012rcd13ifvqd00","pricing_plan_id":"cebpf4jnsgd1na2vs0mg"},{"bike_id":"9ef41a1b-a2fe-4307-9d04-d69b476d0217","system_id":"levelo_inurba_marseille","lat":43.29202,"lon":5.39311,"is_reserved":false,"is_disabled":false,"rental_uris":{"android":"levelo://app?vid=9ef41a1b-a2fe-4307-9d04-d69b476d0217","ios":"levelo://app?vid=9ef41a1b-a2fe-4307-9d04-d69b476d0217"},"vehicle_type_id":"4","last_reported":1717870160,"current_range_meters":0,"station_id":"ce4bh192rcd13ifvqdd0","pricing_plan_id":"cebpf4jnsgd1na2vs0mg"},{"bike_id":"a9d9bae9-f298-4714-b946-b50bc29e56b0","system_id":"levelo_inurba_marseille","lat":43.291994,"lon":5.392907,"is_reserved":false,"is_disabled":false,"rental_uris":{"android":"levelo://app?vid=a9d9bae9-f298-4714-b946-b50bc29e56b0","ios":"levelo://app?vid=a9d9bae9-f298-4714-b946-b50bc29e56b0"},"vehicle_type_id":"4","last_reported":1717870160,"current_range_meters":0,"station_id":"ce4bh192rcd13ifvqdd0","pricing_plan_id":"cebpf4jnsgd1na2vs0mg"},{"bike_id":"a5c0df2f-d111-4bbc-b632-d5aaaca1a4cf","system_id":"levelo_inurba_marseille","lat":43.291994,"lon":5.392907,"is_reserved":false,"is_disabled":false,"rental_uris":{"android":"levelo://app?vid=a5c0df2f-d111-4bbc-b632-d5aaaca1a4cf","ios":"levelo://app?vid=a5c0df2f-d111-4bbc-b632-d5aaaca1a4cf"},"vehicle_type_id":"4","last_reported":1717870160,"current_range_meters":21200,"station_id":"ce4bh192rcd13ifvqdd0","pricing_plan_id":"cebpf4jnsgd1na2vs0mg"},{"bike_id":"d0d442a2-1c41-4ec6-9890-c9a55b0e2b9c","system_id":"levelo_inurba_marseille","lat":43.284978,"lon":5.359239,"is_reserved":false,"is_disabled":false,"rental_uris":{"android":"levelo://app?vid=d0d442a2-1c41-4ec6-9890-c9a55b0e2b9c","ios":"levelo://app?vid=d0d442a2-1c41-4ec6-9890-c9a55b0e2b9c"},"vehicle_type_id":"4","last_reported":1717870160,"current_range_meters":11200,"station_id":"ce4bhah2rcd13ifvqei0","pricing_plan_id":"cebpf4jnsgd1na2vs0mg"},{"bike_id":"aff0d303-e136-4ebd-bd98-de09dd87b504","system_id":"levelo_inurba_marseille","lat":43.28465,"lon":5.35896,"is_reserved":false,"is_disabled":false,"rental_uris":{"android":"levelo://app?vid=aff0d303-e136-4ebd-bd98-de09dd87b504","ios":"levelo://app?vid=aff0d303-e136-4ebd-bd98-de09dd87b504"},"vehicle_type_id":"4","last_reported":1717870160,"current_range_meters":0,"station_id":"ce4bhah2rcd13ifvqei0","pricing_plan_id":"cebpf4jnsgd1na2vs0mg"},{"bike_id":"86deccec-a0de-4062-a368-48867eff3615","system_id":"levelo_inurba_marseille","lat":43.284534,"lon":5.358662,"is_reserved":false,"is_disabled":false,"rental_uris":{"android":"levelo://app?vid=86deccec-a0de-4062-a368-48867eff3615","ios":"levelo://app?vid=86deccec-a0de-4062-a368-48867eff3615"},"vehicle_type_id":"4","last_reported":1717870160,"current_range_meters":800,"station_id":"ce4bhah2rcd13ifvqei0","pricing_plan_id":"cebpf4jnsgd1na2vs0mg"},{"bike_id":"4f2cbf57-b837-4941-9198-7912811dbcd4","system_id":"levelo_inurba_marseille","lat":43.284538,"lon":5.358657,"is_reserved":false,"is_disabled":false,"rental_uris":{"android":"levelo://app?vid=4f2cbf57-b837-4941-9198-7912811dbcd4","ios":"levelo://app?vid=4f2cbf57-b837-4941-9198-7912811dbcd4"},"vehicle_type_id":"4","last_reported":1717870160,"current_range_meters":0,"station_id":"ce4bhah2rcd13ifvqei0","pricing_plan_id":"cebpf4jnsgd1na2vs0mg"},{"bike_id":"cbf53dec-75af-4a2a-8e67-3d9a09c55d28","system_id":"levelo_inurba_marseille","lat":43.294314,"lon":5.397498,"is_reserved":false,"is_disabled":false,"rental_uris":{"android":"levelo://app?vid=cbf53dec-75af-4a2a-8e67-3d9a09c55d28","ios":"levelo://app?vid=cbf53dec-75af-4a2a-8e67-3d9a09c55d28"},"vehicle_type_id":"4","last_reported":1717870160,"current_range_meters":12800,"station_id":"ce4bh3h2rcd13ifvqdo0","pricing_plan_id":"cebpf4jnsgd1na2vs0mg"},{"bike_id":"5ce22a67-6b67-49d1-8df6-ec18a7307023","system_id":"levelo_inurba_marseille","lat":43.28462,"lon":5.35889,"is_reserved":false,"is_disabled":false,"rental_uris":{"android":"levelo://app?vid=5ce22a67-6b67-49d1-8df6-ec18a7307023","ios":"levelo://app?vid=5ce22a67-6b67-49d1-8df6-ec18a7307023"},"vehicle_type_id":"4","last_reported":1717870160,"current_range_meters":0,"station_id":"ce4bhah2rcd13ifvqei0","pricing_plan_id":"cebpf4jnsgd1na2vs0mg"},{"bike_id":"2ef770c7-15e9-49a0-a010-2e1ce3943362","system_id":"levelo_inurba_marseille","lat":43.284534,"lon":5.358662,"is_reserved":false,"is_disabled":false,"rental_uris":{"android":"levelo://app?vid=2ef770c7-15e9-49a0-a010-2e1ce3943362","ios":"levelo://app?vid=2ef770c7-15e9-49a0-a010-2e1ce3943362"},"vehicle_type_id":"4","last_reported":1717870160,"current_range_meters":13600,"station_id":"ce4bhah2rcd13ifvqei0","pricing_plan_id":"cebpf4jnsgd1na2vs0mg"},{"bike_id":"e5da3edb-f725-4619-8d35-40db6f338b58","system_id":"levelo_inurba_marseille","lat":43.284534,"lon":5.358662,"is_reserved":false,"is_disabled":false,"rental_uris":{"android":"levelo://app?vid=e5da3edb-f725-4619-8d35-40db6f338b58","ios":"levelo://app?vid=e5da3edb-f725-4619-8d35-40db6f338b58"},"vehicle_type_id":"4","last_reported":1717870160,"current_range_meters":6400,"station_id":"ce4bhah2rcd13ifvqei0","pricing_plan_id":"cebpf4jnsgd1na2vs0mg"},{"bike_id":"64a6c560-0e4b-4f39-b5f4-9d7b3e6c1f7e","system_id":"levelo_inurba_marseille","lat":43.28457,"lon":5.35882,"is_reserved":false,"is_disabled":false,"rental_uris":{"android":"levelo://app?vid=64a6c560-0e4b-4f39-b5f4-9d7b3e6c1f7e","ios":"levelo://app?vid=64a6c560-0e4b-4f39-b5f4-9d7b3e6c1f7e"},"vehicle_type_id":"4","last_reported":1717870160,"current_range_meters":7600,"station_id":"ce4bhah2rcd13ifvqei0","pricing_plan_id":"cebpf4jnsgd1na2vs0mg"},{"bike_id":"f016304f-1bf7-4844-8707-ce661047461b","system_id":"levelo_inurba_marseille","lat":43.294314,"lon":5.397498,"is_reserved":false,"is_disabled":false,"rental_uris":{"android":"levelo://app?vid=f016304f-1bf7-4844-8707-ce661047461b","ios":"levelo://app?vid=f016304f-1bf7-4844-8707-ce661047461b"},"vehicle_type_id":"4","last_reported":1717870160,"current_range_meters":28000,"station_id":"ce4bh3h2rcd13ifvqdo0","pricing_plan_id":"cebpf4jnsgd1na2vs0mg"},{"bike_id":"cce981ac-d18c-4a18-9a65-44a308134686","system_id":"levelo_inurba_marseille","lat":43.284534,"lon":5.358662,"is_reserved":false,"is_disabled":false,"rental_uris":{"android":"levelo://app?vid=cce981ac-d18c-4a18-9a65-44a308134686","ios":"levelo://app?vid=cce981ac-d18c-4a18-9a65-44a308134686"},"vehicle_type_id":"4","last_reported":1717870160,"current_range_meters":17200,"station_id":"ce4bhah2rcd13ifvqei0","pricing_plan_id":"cebpf4jnsgd1na2vs0mg"},{"bike_id":"38b41a12-4900-4f93-ae77-ec430736a72e","system_id":"levelo_inurba_marseille","lat":43.294314,"lon":5.397498,"is_reserved":false,"is_disabled":false,"rental_uris":{"android":"levelo://app?vid=38b41a12-4900-4f93-ae77-ec430736a72e","ios":"levelo://app?vid=38b41a12-4900-4f93-ae77-ec430736a72e"},"vehicle_type_id":"4","last_reported":1717870160,"current_range_meters":0,"station_id":"ce4bh3h2rcd13ifvqdo0","pricing_plan_id":"cebpf4jnsgd1na2vs0mg"},{"bike_id":"a4026174-49d9-40d8-8195-e580500b17b2","system_id":"levelo_inurba_marseille","lat":43.294314,"lon":5.397498,"is_reserved":false,"is_disabled":false,"rental_uris":{"android":"levelo://app?vid=a4026174-49d9-40d8-8195-e580500b17b2","ios":"levelo://app?vid=a4026174-49d9-40d8-8195-e580500b17b2"},"vehicle_type_id":"4","last_reported":1717870160,"current_range_meters":0,"station_id":"ce4bh3h2rcd13ifvqdo0","pricing_plan_id":"cebpf4jnsgd1na2vs0mg"},{"bike_id":"ae3f4d79-1fc4-4b86-a70e-2f8cf578e831","system_id":"levelo_inurba_marseille","lat":43.285856,"lon":5.350771,"is_reserved":false,"is_disabled":false,"rental_uris":{"android":"levelo://app?vid=ae3f4d79-1fc4-4b86-a70e-2f8cf578e831","ios":"levelo://app?vid=ae3f4d79-1fc4-4b86-a70e-2f8cf578e831"},"vehicle_type_id":"4","last_reported":1717870160,"current_range_meters":0,"station_id":"ce4bhch2rcd13ifvqeug","pricing_plan_id":"cebpf4jnsgd1na2vs0mg"},