{"last_updated":1679213339,"ttl":30,"version":"2.2","data":{"bikes":[{"bike_id":"62ce2bc9-860d-4749-8624-7a65560a329f","system_id":"levelo_inurba_marseille","lat":43.309076,"lon":5.368465,"is_reserved":false,"is_disabled":false,"rental_uris":{"android":"levelo://app?vid=62ce2bc9-860d-4749-8624-7a65560a329f","ios":"levelo://app?vid=62ce2bc9-860d-4749-8624-7a65560a329f"},"vehicle_type_id":"4","last_reported":1679213339,"current_range_meters":22800,"station_id":"ce4bgn92rcd13ifvqbvg","pricing_plan_id":"free"},{"bike_id":"0e40aa24-c817-4a68-8b58-bc06bed7af37","system_id":"levelo_inurba_marseille","lat":43.308853,"lon":5.371959,"is_reserved":false,"is_disabled":false,"rental_uris":{"android":"levelo://app?vid=0e40aa24-c817-4a68-8b58-bc06bed7af37","ios":"levelo://app?vid=0e40aa24-c817-4a68-8b58-bc06bed7af37"},"vehicle_type_id":"4","last_reported":1679213339,"current_range_meters":16400,"station_id":"ce4bguh2rcd13ifvqckg","pricing_plan_id":"free"},{"bike_id":"e8c6e592-c7b2-472b-94dd-b6c2dc58e09e","system_id":"levelo_inurba_marseille","lat":43.308789,"lon":5.371956,"is_reserved":false,"is_disabled":false,"rental_uris":{"android":"levelo://app?vid=e8c6e592-c7b2-472b-94dd-b6c2dc58e09e","ios":"levelo://app?vid=e8c6e592-c7b2-472b-94dd-b6c2dc58e09e"},"vehicle_type_id":"4","last_reported":1679213339,"current_range_meters":0,"station_id":"ce4bguh2rcd13ifvqckg","pricing_plan_id":"free"},{"bike_id":"ab150512-6293-48f5-b21f-2b3fc5ed1cfe","system_id":"levelo_inurba_marseille","lat":43.308814,"lon":5.372009,"is_reserved":false,"is_disabled":false,"rental_uris":{"android":"levelo://app?vid=ab150512-6293-48f5-b21f-2b3fc5ed1cfe","ios":"levelo://app?vid=ab150512-6293-48f5-b21f-2b3fc5ed1cfe"},"vehicle_type_id":"4","last_reported":1679213339,"current_range_meters":0,"station_id":"ce4bguh2rcd13ifvqckg","pricing_plan_id":"free"},{"bike_id":"f7df7c2f-f8c1-49ce-93ee-dcb1c1cba300","system_id":"levelo_inurba_marseille","lat":43.306129,"lon":5.368868,"is_reserved":false,"is_disabled":false,"rental_uris":{"android":"levelo://app?vid=f7df7c2f-f8c1-49ce-93ee-dcb1c1cba300","ios":"levelo://app?vid=f7df7c2f-f8c1-49ce-93ee-dcb1c1cba300"},"vehicle_type_id":"4","last_reported":1679213339,"current_range_meters":0,"station_id":"","pricing_plan_id":"free"},{"bike_id":"559d80ac-b5f3-497f-959c-4c03fc6ed85b","system_id":"levelo_inurba_marseille","lat":43.304606,"lon":5.379026,"is_reserved":false,"is_disabled":false,"rental_uris":{"android":"levelo://app?vid=559d80ac-b5f3-497f-959c-4c03fc6ed85b","ios":"levelo://app?vid=559d80ac-b5f3-497f-959c-4c03fc6ed85b"},"vehicle_type_id":"4","last_reported":1679213339,"current_range_meters":28800,"station_id":"ce4bgup2rcd13ifvqcn0","pricing_plan_id":"free"},{"bike_id":"92d4af30-5e56-44f7-934d-f17b84a5120b","system_id":"levelo_inurba_marseille","lat":43.304606,"lon":5.379026,"is_reserved":false,"is_disabled":false,"rental_uris":{"android":"levelo://app?vid=92d4af30-5e56-44f7-934d-f17b84a5120b","ios":"levelo://app?vid=92d4af30-5e56-44f7-934d-f17b84a5120b"},"vehicle_type_id":"4","last_reported":1679213339,"current_range_meters":25200,"station_id":"ce4bgup2rcd13ifvqcn0","pricing_plan_id":"free"},{"bike_id":"d7682495-7198-498f-b34e-8502c201f731","system_id":"levelo_inurba_marseille","lat":43.301389,"lon":5.374166,"is_reserved":false,"is_disabled":false,"rental_uris":{"android":"levelo://app?vid=d7682495-7198-498f-b34e-8502c201f731","ios":"levelo://app?vid=d7682495-7198-498f-b34e-8502c201f731"},"vehicle_type_id":"4","last_reported":1679213339,"current_range_meters":0,"station_id":"ce4bgs92rcd13ifvqcc0","pricing_plan_id":"free"},{"bike_id":"2e1ce7c4-d48a-4083-b64a-e4fac40d6a65","system_id":"levelo_inurba_marseille","lat":43.301383,"lon":5.374165,"is_reserved":false,"is_disabled":false,"rental_uris":{"android":"levelo://app?vid=2e1ce7c4-d48a-4083-b64a-e4fac40d6a65","ios":"levelo://app?vid=2e1ce7c4-d48a-4083-b64a-e4fac40d6a65"},"vehicle_type_id":"4","last_reported":1679213339,"current_range_meters":0,"station_id":"ce4bgs92rcd13ifvqcc0","pricing_plan_id":"free"},{"bike_id":"d5dec78d-d6b7-4e93-bac1-2209620fbce4","system_id":"levelo_inurba_marseille","lat":43.313571,"lon":5.384829,"is_reserved":false,"is_disabled":false,"rental_uris":{"android":"levelo://app?vid=d5dec78d-d6b7-4e93-bac1-2209620fbce4","ios":"levelo://app?vid=d5dec78d-d6b7-4e93-bac1-2209620fbce4"},"vehicle_type_id":"4","last_reported":1679213339,"current_range_meters":6400,"station_id":"ce4bgt92rcd13ifvqcf0","pricing_plan_id":"free"},{"bike_id":"28d24b4b-55cc-44cd-b1bc-be7b35e0cb30","system_id":"levelo_inurba_marseille","lat":43.313571,"lon":5.384829,"is_reserved":false,"is_disabled":false,"rental_uris":{"android":"levelo://app?vid=28d24b4b-55cc-44cd-b1bc-be7b35e0cb30","ios":"levelo://app?vid=28d24b4b-55cc-44cd-b1bc-be7b35e0cb30"},"vehicle_type_id":"4","last_reported":1679213339,"current_range_meters":0,"station_id":"ce4bgt92rcd13ifvqcf0","pricing_plan_id":"free"},{"bike_id":"0ebfb709-cdc2-41c6-b005-5dbfa83d1b7d","system_id":"levelo_inurba_marseille","lat":43.313571,"lon":5.384829,"is_reserved":false,"is_disabled":false,"rental_uris":{"android":"levelo://app?vid=0ebfb709-cdc2-41c6-b005-5dbfa83d1b7d","ios":"levelo://app?vid=0ebfb709-cdc2-41c6-b005-5dbfa83d1b7d"},"vehicle_type_id":"4","last_reported":1679213339,"current_range_meters":22800,"station_id":"ce4bgt92rcd13ifvqcf0","pricing_plan_id":"free"},{"bike_id":"38e1d3d0-8303-4d39-b587-bd90ae804685","system_id":"levelo_inurba_marseille","lat":43.313571,"lon":5.384829,"is_reserved":false,"is_disabled":false,"rental_uris":{"android":"levelo://app?vid=38e1d3d0-8303-4d39-b587-bd90ae804685","ios":"levelo://app?vid=38e1d3d0-8303-4d39-b587-bd90ae804685"},"vehicle_type_id":"4","last_reported":1679213339,"current_range_meters":5200,"station_id":"ce4bgt92rcd13ifvqcf0","pricing_plan_id":"free"},{"bike_id":"d1be4eec-c540-4f7c-b4ca-a1c8f441f516","system_id":"levelo_inurba_marseille","lat":43.306584,"lon":5.383319,"is_reserved":false,"is_disabled":false,"rental_uris":{"android":"levelo://app?vid=d1be4eec-c540-4f7c-b4ca-a1c8f441f516","ios":"levelo://app?vid=d1be4eec-c540-4f7c-b4ca-a1c8f441f516"},"vehicle_type_id":"4","last_reported":1679213339,"current_range_meters":0,"station_id":"","pricing_plan_id":"free"},{"bike_id":"da607404-61c4-4036-8264-f8eb4773f352","system_id":"levelo_inurba_marseille","lat":43.298519,"lon":5.362871,"is_reserved":false,"is_disabled":false,"rental_uris":{"android":"levelo://app?vid=da607404-61c4-4036-8264-f8eb4773f352","ios":"levelo://app?vid=da607404-61c4-4036-8264-f8eb4773f352"},"vehicle_type_id":"4","last_reported":1679213339,"current_range_meters":0,"station_id":"ce4bgpp2rcd13ifvqc3g","pricing_plan_id":"free"},{"bike_id":"fd53b46b-6502-491b-bbc3-01fa8fedbee8","system_id":"levelo_inurba_marseille","lat":43.298433,"lon":5.362774,"is_reserved":false,"is_disabled":false,"rental_uris":{"android":"levelo://app?vid=fd53b46b-6502-491b-bbc3-01fa8fedbee8","ios":"levelo://app?vid=fd53b46b-6502-491b-bbc3-01fa8fedbee8"},"vehicle_type_id":"4","last_reported":1679213339,"current_range_meters":18800,"station_id":"ce4bgpp2rcd13ifvqc3g","pricing_plan_id":"free"},{"bike_id":"08239fb6-1642-41e5-9d5d-4096adeded1c","system_id":"levelo_inurba_marseille","lat":43.29916,"lon":5.3747,"is_reserved":false,"is_disabled":false,"rental_uris":{"android":"levelo://app?vid=08239fb6-1642-41e5-9d5d-4096adeded1c","ios":"levelo://app?vid=08239fb6-1642-41e5-9d5d-4096adeded1c"},"vehicle_type_id":"4","last_reported":1679213339,"current_range_meters":29200,"station_id":"ce4bgjh2rcd13ifvqbg0","pricing_plan_id":"free"},{"bike_id":"c77f5a1f-2bab-40c9-99fd-0d635774132a","system_id":"levelo_inurba_marseille","lat":43.311722,"lon":5.387247,"is_reserved":false,"is_disabled":false,"rental_uris":{"android":"levelo://app?vid=c77f5a1f-2bab-40c9-99fd-0d635774132a","ios":"levelo://app?vid=c77f5a1f-2bab-40c9-99fd-0d635774132a"},"vehicle_type_id":"4","last_reported":1679213339,"current_range_meters":26400,"station_id":"ce4bgv12rcd13ifvqcp0","pricing_plan_id":"free"},{"bike_id":"a3773d6e-ec28-463e-8ece-501a1b16c2bd","system_id":"levelo_inurba_marseille","lat":43.299142,"lon":5.374732,"is_reserved":false,"is_disabled":false,"rental_uris":{"android":"levelo://app?vid=a3773d6e-ec28-463e-8ece-501a1b16c2bd","ios":"levelo://app?vid=a3773d6e-ec28-463e-8ece-501a1b16c2bd"},"vehicle_type_id":"4","last_reported":1679213339,"current_range_meters":10800,"station_id":"","pricing_plan_id":"free"},{"bike_id":"64c51bb0-af1a-4874-8945-3e97236943ae","system_id":"levelo_inurba_marseille","lat":43.297228,"lon":5.376908,"is_reserved":false,"is_disabled":false,"rental_uris":{"android":"levelo://app?vid=64c51bb0-af1a-4874-8945-3e97236943ae","ios":"levelo://app?vid=64c51bb0-af1a-4874-8945-3e97236943ae"},"vehicle_type_id":"4","last_reported":1679213339,"current_range_meters":0,"station_id":"","pricing_plan_id":"free"},{"bike_id":"7acf979e-3c86-4160-b8d9-bf7af2b894b1","system_id":"levelo_inurba_marseille","lat":43.317571,"lon":5.390167,"is_reserved":false,"is_disabled":false,"rental_uris":{"android":"levelo://app?vid=7acf979e-3c86-4160-b8d9-bf7af2b894b1","ios":"levelo://app?vid=7acf979e-3c86-4160-b8d9-bf7af2b894b1"},"vehicle_type_id":"4","last_reported":1679213339,"current_range_meters":0,"station_id":"","pricing_plan_id":"free"},{"bike_id":"290b4b5e-eb3f-49ec-aad1-07388eaf59f4","system_id":"levelo_inurba_marseille","lat":43.298037,"lon":5.381066,"is_reserved":false,"is_disabled":false,"rental_uris":{"android":"levelo://app?vid=290b4b5e-eb3f-49ec-aad1-07388eaf59f4","ios":"levelo://app?vid=290b4b5e-eb3f-49ec-aad1-07388eaf59f4"},"vehicle_type_id":"4","last_reported":1679213339,"current_range_meters":0,"station_id":"ce4bgip2rcd13ifvqbb0","pricing_plan_id":"free"},{"bike_id":"5d7b9ed6-ccba-4037-a625-c68d8bc9e0ea","system_id":"levelo_inurba_marseille","lat":43.297929,"lon":5.380873,"is_reserved":false,"is_disabled":false,"rental_uris":{"android":"levelo://app?vid=5d7b9ed6-ccba-4037-a625-c68d8bc9e0ea","ios":"levelo://app?vid=5d7b9ed6-ccba-4037-a625-c68d8bc9e0ea"},"vehicle_type_id":"4","last_reported":1679213339,"current_range_meters":0,"station_id":"ce4bgip2rcd13ifvqbb0","pricing_plan_id":"free"},{"bike_id":"f397f011-1728-4e13-93ab-dd6f4bd09596","system_id":"levelo_inurba_marseille","lat":43.297924,"lon":5.380876,"is_reserved":false,"is_disabled":false,"rental_uris":{"android":"levelo://app?vid=f397f011-1728-4e13-93ab-dd6f4bd09596","ios":"levelo://app?vid=f397f011-1728-4e13-93ab-dd6f4bd09596"},"vehicle_type_id":"4","last_reported":1679213339,"current_range_meters":0,"station_id":"","pricing_plan_id":"free"},{"bike_id":"f27a6d47-7010-46f4-a826-b1ce0f1d13b3","system_id":"levelo_inurba_marseille","lat":43.295748,"lon":5.37522,"is_reserved":false,"is_disabled":false,"rental_uris":{"android":"levelo://app?vid=f27a6d47-7010-46f4-a826-b1ce0f1d13b3","ios":"levelo://app?vid=f27a6d47-7010-46f4-a826-b1ce0f1d13b3"},"vehicle_type_id":"4","last_reported":1679213339,"current_range_meters":31600,"station_id":"ce4bgh92rcd13ifvqb50","pricing_plan_id":"free"},{"bike_id":"4a994e7d-a0c6-4888-a820-932d96fd43d3","system_id":"levelo_inurba_marseille","lat":43.30428,"lon":5.38893,"is_reserved":false,"is_disabled":false,"rental_uris":{"android":"levelo://app?vid=4a994e7d-a0c6-4888-a820-932d96fd43d3","ios":"levelo://app?vid=4a994e7d-a0c6-4888-a820-932d96fd43d3"},"vehicle_type_id":"4","last_reported":1679213339,"current_range_meters":20000,"station_id":"ce4bgk12rcd13ifvqbi0","pricing_plan_id":"free"},{"bike_id":"530ac6b8-7630-4f54-94a2-997abf97ae3e","system_id":"levelo_inurba_marseille","lat":43.299711,"lon":5.384952,"is_reserved":false,"is_disabled":false,"rental_uris":{"android":"levelo://app?vid=530ac6b8-7630-4f54-94a2-997abf97ae3e","ios":"levelo://app?vid=530ac6b8-7630-4f54-94a2-997abf97ae3e"},"vehicle_type_id":"4","last_reported":1679213339,"current_range_meters":0,"station_id":"ce4bgj92rcd13ifvqbd0","pricing_plan_id":"free"},{"bike_id":"5971bedb-4e55-4cca-a827-15c1c85bce63","system_id":"levelo_inurba_marseille","lat":43.29968,"lon":5.384947,"is_reserved":false,"is_disabled":false,"rental_uris":{"android":"levelo://app?vid=5971bedb-4e55-4cca-a827-15c1c85bce63","ios":"levelo://app?vid=5971bedb-4e55-4cca-a827-15c1c85bce63"},"vehicle_type_id":"4","last_reported":1679213339,"current_range_meters":0,"station_id":"","pricing_plan_id":"free"},{"bike_id":"90745e93-3e4e-4248-af91-77f98ca477a1","system_id":"levelo_inurba_marseille","lat":43.323623,"lon":5.388762,"is_reserved":false,"is_disabled":false,"rental_uris":{"android":"levelo://app?vid=90745e93-3e4e-4248-af91-77f98ca477a1","ios":"levelo://app?vid=90745e93-3e4e-4248-af91-77f98ca477a1"},"vehicle_type_id":"4","last_reported":1679213339,"current_range_meters":19600,"station_id":"ce4bhqp2rcd13ifvqhog","pricing_plan_id":"free"},{"bike_id":"8ee722c3-cfd3-40d6-953f-42f233fdf582","system_id":"levelo_inurba_marseille","lat":43.323598,"lon":5.388793,"is_reserved":false,"is_disabled":false,"rental_uris":{"android":"levelo://app?vid=8ee722c3-cfd3-40d6-953f-42f233fdf582","ios":"levelo://app?vid=8ee722c3-cfd3-40d6-953f-42f233fdf582"},"vehicle_type_id":"4","last_reported":1679213339,"current_range_meters":18400,"station_id":"ce4bhqp2rcd13ifvqhog","pricing_plan_id":"free"},{"bike_id":"0ee17032-ad2e-4291-899b-1b72f2f34597","system_id":"levelo_inurba_marseille","lat":43.32361,"lon":5.38879,"is_reserved":false,"is_disabled":false,"rental_uris":{"android":"levelo://app?vid=0ee17032-ad2e-4291-899b-1b72f2f34597","ios":"levelo://app?vid=0ee17032-ad2e-4291-899b-1b72f2f34597"},"vehicle_type_id":"4","last_reported":1679213339,"current_range_meters":0,"station_id":"","pricing_plan_id":"free"},{"bike_id":"40dcf835-58c7-406a-8fb1-1b5823f9644d","system_id":"levelo_inurba_marseille","lat":43.32367,"lon":5.388836,"is_reserved":false,"is_disabled":false,"rental_uris":{"android":"levelo://app?vid=40dcf835-58c7-406a-8fb1-1b5823f9644d","ios":"levelo://app?vid=40dcf835-58c7-406a-8fb1-1b5823f9644d"},"vehicle_type_id":"4","last_reported":1679213339,"current_range_meters":4000,"station_id":"ce4bhqp2rcd13ifvqhog","pricing_plan_id":"free"},{"bike_id":"deb37c96-3348-4d98-a426-72a96f26f7ee","system_id":"levelo_inurba_marseille","lat":43.3236,"lon":5.38886,"is_reserved":false,"is_disabled":false,"rental_uris":{"android":"levelo://app?vid=deb37c96-3348-4d98-a426-72a96f26f7ee","ios":"levelo://app?vid=deb37c96-3348-4d98-a426-72a96f26f7ee"},"vehicle_type_id":"4","last_reported":1679213339,"current_range_meters":0,"station_id":"ce4bhqp2rcd13ifvqhog","pricing_plan_id":"free"},{"bike_id":"4acf4a6e-610b-4acb-b648-9bcdf0839ce4","system_id":"levelo_inurba_marseille","lat":43.32367,"lon":5.388836,"is_reserved":false,"is_disabled":false,"rental_uris":{"android":"levelo://app?vid=4acf4a6e-610b-4acb-b648-9bcdf0839ce4","ios":"levelo://app?vid=4acf4a6e-610b-4acb-b648-9bcdf0839ce4"},"vehicle_type_id":"4","last_reported":1679213339,"current_range_meters":800,"station_id":"ce4bhqp2rcd13ifvqhog","pricing_plan_id":"free"},{"bike_id":"78bcee03-0f01-4ca8-b6d0-295f29eff71b","system_id":"levelo_inurba_marseille","lat":43.32367,"lon":5.388836,"is_reserved":false,"is_disabled":false,"rental_uris":{"android":"levelo://app?vid=78bcee03-0f01-4ca8-b6d0-295f29eff71b","ios":"levelo://app?vid=78bcee03-0f01-4ca8-b6d0-295f29eff71b"},"vehicle_type_id":"4","last_reported":1679213339,"current_range_meters":20000,"station_id":"ce4bhqp2rcd13ifvqhog","pricing_plan_id":"free"},{"bike_id":"4385a8c2-fe29-43d4-9bc6-b3c21db78f50","system_id":"levelo_inurba_marseille","lat":43.32367,"lon":5.388836,"is_reserved":false,"is_disabled":false,"rental_uris":{"android":"levelo://app?vid=4385a8c2-fe29-43d4-9bc6-b3c21db78f50","ios":"levelo://app?vid=4385a8c2-fe29-43d4-9bc6-b3c21db78f50"},"vehicle_type_id":"4","last_reported":1679213339,"current_range_meters":19600,"station_id":"ce4bhqp2rcd13ifvqhog","pricing_plan_id":"free"},{"bike_id":"c1a7eff9-da96-45e3-93d9-e911897531a8","system_id":"levelo_inurba_marseille","lat":43.32367,"lon":5.388836,"is_reserved":false,"is_disabled":false,"rental_uris":{"android":"levelo://app?vid=c1a7eff9-da96-45e3-93d9-e911897531a8","ios":"levelo://app?vid=c1a7eff9-da96-45e3-93d9-e911897531a8"},"vehicle_type_id":"4","last_reported":1679213339,"current_range_meters":24400,"station_id":"ce4bhqp2rcd13ifvqhog","pricing_plan_id":"free"},{"bike_id":"376100f8-2a40-4e0d-bff6-5e25893a9462","system_id":"levelo_inurba_marseille","lat":43.305994,"lon":5.393687,"is_reserved":false,"is_disabled":false,"rental_uris":{"android":"levelo://app?vid=376100f8-2a40-4e0d-bff6-5e25893a9462","ios":"levelo://app?vid=376100f8-2a40-4e0d-bff6-5e25893a9462"},"vehicle_type_id":"4","last_reported":1679213339,"current_range_meters":27600,"station_id":"ce4bh0p2rcd13ifvqd80","pricing_plan_id":"free"},{"bike_id":"27e8eda2-8028-4348-b7f7-fde70bda936f","system_id":"levelo_inurba_marseille","lat":43.291706,"lon":5.371581,"is_reserved":false,"is_disabled":false,"rental_uris":{"android":"levelo://app?vid=27e8eda2-8028-4348-b7f7-fde70bda936f","ios":"levelo://app?vid=27e8eda2-8028-4348-b7f7-fde70bda936f"},"vehicle_type_id":"4","last_reported":1679213339,"current_range_meters":0,"station_id":"ce4bha92rcd13ifvqeh0","pricing_plan_id":"free"},{"bike_id":"cf004b89-b04f-4b26-bd89-97665131d64b","system_id":"levelo_inurba_marseille","lat":43.29533,"lon":5.38533,"is_reserved":false,"is_disabled":false,"rental_uris":{"android":"levelo://app?vid=cf004b89-b04f-4b26-bd89-97665131d64b","ios":"levelo://app?vid=cf004b89-b04f-4b26-bd89-97665131d64b"},"vehicle_type_id":"4","last_reported":1679213339,"current_range_meters":15600,"station_id":"ce4bgih2rcd13ifvqba0","pricing_plan_id":"free"},{"bike_id":"38f52feb-5617-4a38-a15a-097f48d35d12","system_id":"levelo_inurba_marseille","lat":43.29529,"lon":5.385581,"is_reserved":false,"is_disabled":false,"rental_uris":{"android":"levelo://app?vid=38f52feb-5617-4a38-a15a-097f48d35d12","ios":"levelo://app?vid=38f52feb-5617-4a38-a15a-097f48d35d12"},"vehicle_type_id":"4","last_reported":1679213339,"current_range_meters":22800,"station_id":"ce4bgih2rcd13ifvqba0","pricing_plan_id":"free"},{"bike_id":"1edb2ed3-bfcc-4939-a15f-85a89b2232c7","system_id":"levelo_inurba_marseille","lat":43.292644,"lon":5.384257,"is_reserved":false,"is_disabled":false,"rental_uris":{"android":"levelo://app?vid=1edb2ed3-bfcc-4939-a15f-85a89b2232c7","ios":"levelo://app?vid=1edb2ed3-bfcc-4939-a15f-85a89b2232c7"},"vehicle_type_id":"4","last_reported":1679213339,"current_range_meters":10000,"station_id":"ce4bh692rcd13ifvqea0","pricing_plan_id":"free"},{"bike_id":"621c087d-85cc-4eaa-b933-04755e299abb","system_id":"levelo_inurba_marseille","lat":43.330442,"lon":5.389148,"is_reserved":false,"is_disabled":false,"rental_uris":{"android":"levelo://app?vid=621c087d-85cc-4eaa-b933-04755e299abb","ios":"levelo://app?vid=621c087d-85cc-4eaa-b933-04755e299abb"},"vehicle_type_id":"4","last_reported":1679213339,"current_range_meters":3600,"station_id":"ce4bhr92rcd13ifvqhrg","pricing_plan_id":"free"},{"bike_id":"28cb8c96-fbff-4e6f-b114-7355be64be23","system_id":"levelo_inurba_marseille","lat":43.330442,"lon":5.389148,"is_reserved":false,"is_disabled":false,"rental_uris":{"android":"levelo://app?vid=28cb8c96-fbff-4e6f-b114-7355be64be23","ios":"levelo://app?vid=28cb8c96-fbff-4e6f-b114-7355be64be23"},"vehicle_type_id":"4","last_reported":1679213339,"current_range_meters":400,"station_id":"ce4bhr92rcd13ifvqhrg","pricing_plan_id":"free"},{"bike_id":"1eb63338-3eec-45bc-8fa2-4b61dbe20612","system_id":"levelo_inurba_marseille","lat":43.290104,"lon":5.356111,"is_reserved":false,"is_disabled":false,"rental_uris":{"android":"levelo://app?vid=1eb63338-3eec-45bc-8fa2-4b61dbe20612","ios":"levelo://app?vid=1eb63338-3eec-45bc-8fa2-4b61dbe20612"},"vehicle_type_id":"4","last_reported":1679213339,"current_range_meters":22400,"station_id":"ce4bhb92rcd13ifvqen0","pricing_plan_id":"free"},{"bike_id":"a14135f1-d136-4880-ac70-294323213883","system_id":"levelo_inurba_marseille","lat":43.290104,"lon":5.356111,"is_reserved":false,"is_disabled":false,"rental_uris":{"android":"levelo://app?vid=a14135f1-d136-4880-ac70-294323213883","ios":"levelo://app?vid=a14135f1-d136-4880-ac70-294323213883"},"vehicle_type_id":"4","last_reported":1679213339,"current_range_meters":0,"station_id":"ce4bhb92rcd13ifvqen0","pricing_plan_id":"free"},{"bike_id":"8deab279-61c1-4184-8d8f-7bdd4a1092d8","system_id":"levelo_inurba_marseille","lat":43.29042,"lon":5.37955,"is_reserved":false,"is_disabled":false,"rental_uris":{"android":"levelo://app?vid=8deab279-61c1-4184-8d8f-7bdd4a1092d8","ios":"levelo://app?vid=8deab279-61c1-4184-8d8f-7bdd4a1092d8"},"vehicle_type_id":"4","last_reported":1679213339,"current_range_meters":6800,"station_id":"ce4bhq92rcd13ifvqhjg","pricing_plan_id":"free"},{"bike_id":"f89894f6-d4bc-48ac-ba0a-a9c1acadc1c5","system_id":"levelo_inurba_marseille","lat":43.291031,"lon":5.381471,"is_reserved":false,"is_disabled":false,"rental_uris":{"android":"levelo://app?vid=f89894f6-d4bc-48ac-ba0a-a9c1acadc1c5","ios":"levelo://app?vid=f89894f6-d4bc-48ac-ba0a-a9c1acadc1c5"},"vehicle_type_id":"4","last_reported":1679213339,"current_range_meters":0,"station_id":"ce4bh512rcd13ifvqe2g","pricing_plan_id":"free"},{"bike_id":"f0888a5d-8469-4a4a-aa32-e51183159fbe","system_id":"levelo_inurba_marseille","lat":43.337455,"lon":5.374605,"is_reserved":false,"is_disabled":false,"rental_uris":{"android":"levelo://app?vid=f0888a5d-8469-4a4a-aa32-e51183159fbe","ios":"levelo://app?vid=f0888a5d-8469-4a4a-aa32-e51183159fbe"},"vehicle_type_id":"4","last_reported":1679213339,"current_range_meters":7600,"station_id":"","pricing_plan_id":"free"},{"bike_id":"3691d997-1cad-46ed-b7e6-586680d35f2f","system_id":"levelo_inurba_marseille","lat":43.337458,"lon":5.374618,"is_reserved":false,"is_disabled":false,"rental_uris":{"android":"levelo://app?vid=3691d997-1cad-46ed-b7e6-586680d35f2f","ios":"levelo://app?vid=3691d997-1cad-46ed-b7e6-586680d35f2f"},"vehicle_type_id":"4","last_reported":1679213339,"current_range_meters":18000,"station_id":"ce4rr2p2rcd13i802rgg","pricing_plan_id":"free"},{"bike_id":"f3e60a9c-2b74-43cb-ac11-5dfafdbb73c0","system_id":"levelo_inurba_marseille","lat":43.337606,"lon":5.374661,"is_reserved":false,"is_disabled":false,"rental_uris":{"android":"levelo://app?vid=f3e60a9c-2b74-43cb-ac11-5dfafdbb73c0","ios":"levelo://app?vid=f3e60a9c-2b74-43cb-ac11-5dfafdbb73c0"},"vehicle_type_id":"4","last_reported":1679213339,"current_range_meters":22800,"station_id":"","pricing_plan_id":"free"},{"bike_id":"dd275d60-9bd4-47ab-a52b-4f7447305f46","system_id":"levelo_inurba_marseille","lat":43.286591,"lon":5.363346,"is_reserved":false,"is_disabled":false,"rental_uris":{"android":"levelo://app?vid=dd275d60-9bd4-47ab-a52b-4f7447305f46","ios":"levelo://app?vid=dd275d60-9bd4-47ab-a52b-4f7447305f46"},"vehicle_type_id":"4","last_reported":1679213339,"current_range_meters":26400,"station_id":"ce4bhah2rcd13ifvqej0","pricing_plan_id":"free"},{"bike_id":"7aade30f-6a06-4b4a-b5bb-f0ce4847b5bc","system_id":"levelo_inurba_marseille","lat":43.295221,"lon":5.393996,"is_reserved":false,"is_disabled":false,"rental_uris":{"android":"levelo://app?vid=7aade30f-6a06-4b4a-b5bb-f0ce4847b5bc","ios":"levelo://app?vid=7aade30f-6a06-4b4a-b5bb-f0ce4847b5bc"},"vehicle_type_id":"4","last_reported":1679213339,"current_range_meters":28800,"station_id":"ce4bh212rcd13ifvqde0","pricing_plan_id":"free"},{"bike_id":"c21a8f7b-edad-427f-a5a9-5f5412075a7e","system_id":"levelo_inurba_marseille","lat":43.316517,"lon":5.404375,"is_reserved":false,"is_disabled":false,"rental_uris":{"android":"levelo://app?vid=c21a8f7b-edad-427f-a5a9-5f5412075a7e","ios":"levelo://app?vid=c21a8f7b-edad-427f-a5a9-5f5412075a7e"},"vehicle_type_id":"4","last_reported":1679213339,"current_range_meters":21600,"station_id":"ce4bh012rcd13ifvqd00","pricing_plan_id":"free"},{"bike_id":"4a33ba6f-5260-41cd-80ca-e6c65b6e0ffe","system_id":"levelo_inurba_marseille","lat":43.284621,"lon":5.358874,"is_reserved":false,"is_disabled":false,"rental_uris":{"android":"levelo://app?vid=4a33ba6f-5260-41cd-80ca-e6c65b6e0ffe","ios":"levelo://app?vid=4a33ba6f-5260-41cd-80ca-e6c65b6e0ffe"},"vehicle_type_id":"4","last_reported":1679213339,"current_range_meters":16400,"station_id":"ce4bhah2rcd13ifvqei0","pricing_plan_id":"free"},{"bike_id":"8dea6371-7d34-4cd7-b537-0610574c1987","system_id":"levelo_inurba_marseille","lat":43.284534,"lon":5.358662,"is_reserved":false,"is_disabled":false,"rental_uris":{"android":"levelo://app?vid=8dea6371-7d34-4cd7-b537-0610574c1987","ios":"levelo://app?vid=8dea6371-7d34-4cd7-b537-0610574c1987"},"vehicle_type_id":"4","last_reported":1679213339,"current_range_meters":14400,"station_id":"ce4bhah2rcd13ifvqei0","pricing_plan_id":"free"},{"bike_id":"9a5b6c2b-edf4-4a86-9878-4f70f3050e75","system_id":"levelo_inurba_marseille","lat":43.33717,"lon":5.391857,"is_reserved":false,"is_disabled":false,"rental_uris":{"android":"levelo://app?vid=9a5b6c2b-edf4-4a86-9878-4f70f3050e75","ios":"levelo://app?vid=9a5b6c2b-edf4-4a86-9878-4f70f3050e75"},"vehicle_type_id":"4","last_reported":1679213339,"current_range_meters":16000,"station_id":"ce4bhr92rcd13ifvqhsg","pricing_plan_id":"free"},{"bike_id":"3aefbdbc-5f38-4591-979a-6173272a0a4f","system_id":"levelo_inurba_marseille","lat":43.323326,"lon":5.406205,"is_reserved":false,"is_disabled":false,"rental_uris":{"android":"levelo://app?vid=3aefbdbc-5f38-4591-979a-6173272a0a4f","ios":"levelo://app?vid=3aefbdbc-5f38-4591-979a-6173272a0a4f"},"vehicle_type_id":"4","last_reported":1679213339,"current_range_meters":4000,"station_id":"","pricing_plan_id":"free"},{"bike_id":"2256a0a0-f5f3-4f95-bc79-2ee019fd15f3","system_id":"levelo_inurba_marseille","lat":43.323389,"lon":5.406198,"is_reserved":false,"is_disabled":false,"rental_uris":{"android":"levelo://app?vid=2256a0a0-f5f3-4f95-bc79-2ee019fd15f3","ios":"levelo://app?vid=2256a0a0-f5f3-4f95-bc79-2ee019fd15f3"},"vehicle_type_id":"4","last_reported":1679213339,"current_range_meters":11200,"station_id":"","pricing_plan_id":"free"},{"bike_id":"8ff21820-d2ed-49b3-81b7-35841e9cb72a","system_id":"levelo_inurba_marseille","lat":43.33717,"lon":5.391857,"is_reserved":false,"is_disabled":false,"rental_uris":{"android":"levelo://app?vid=8ff21820-d2ed-49b3-81b7-35841e9cb72a","ios":"levelo://app?vid=8ff21820-d2ed-49b3-81b7-35841e9cb72a"},"vehicle_type_id":"4","last_reported":1679213339,"current_range_meters":19600,"station_id":"ce4bhr92rcd13ifvqhsg","pricing_plan_id":"free"},{"bike_id":"30e442ed-2291-46fc-a5e0-83d3f5983b43","system_id":"levelo_inurba_marseille","lat":43.284219,"lon":5.3497,"is_reserved":false,"is_disabled":false,"rental_uris":{"android":"levelo://app?vid=30e442ed-2291-46fc-a5e0-83d3f5983b43","ios":"levelo://app?vid=30e442ed-2291-46fc-a5e0-83d3f5983b43"},"vehicle_type_id":"4","last_reported":1679213339,"current_range_meters":24000,"station_id":"ce4bhbh2rcd13ifvqepg","pricing_plan_id":"free"},{"bike_id":"00369d4e-4e16-41c1-8808-93a8556e65ec","system_id":"levelo_inurba_marseille","lat":43.284219,"lon":5.3497,"is_reserved":false,"is_disabled":false,"rental_uris":{"android":"levelo://app?vid=00369d4e-4e16-41c1-8808-93a8556e65ec","ios":"levelo://app?vid=00369d4e-4e16-41c1-8808-93a8556e65ec"},"vehicle_type_id":"4","last_reported":1679213339,"current_range_meters":16400,"station_id":"ce4bhbh2rcd13ifvqepg","pricing_plan_id":"free"},{"bike_id":"c0a2a658-41d7-4335-9ab5-ee428580e2e7","system_id":"levelo_inurba_marseille","lat":43.290282,"lon":5.397178,"is_reserved":false,"is_disabled":false,"rental_uris":{"android":"levelo://app?vid=c0a2a658-41d7-4335-9ab5-ee428580e2e7","ios":"levelo://app?vid=c0a2a658-41d7-4335-9ab5-ee428580e2e7"},"vehicle_type_id":"4","last_reported":1679213339,"current_range_meters":21600,"station_id":"","pricing_plan_id":"free"},{"bike_id":"9b8e05e3-4255-4c1b-82f8-206ee6f54eb6","system_id":"levelo_inurba_marseille","lat":43.28939,"lon":5.39624,"is_reserved":false,"is_disabled":false,"rental_uris":{"android":"levelo://app?vid=9b8e05e3-4255-4c1b-82f8-206ee6f54eb6","ios":"levelo://app?vid=9b8e05e3-4255-4c1b-82f8-206ee6f54eb6"},"vehicle_type_id":"4","last_reported":1679213339,"current_range_meters":5200,"station_id":"ce4bh3h2rcd13ifvqdn0","pricing_plan_id":"free"},{"bike_id":"05bcf267-a044-49c9-b7ba-7ad5b4142e8e","system_id":"levelo_inurba_marseille","lat":43.28939,"lon":5.39639,"is_reserved":false,"is_disabled":false,"rental_uris":{"android":"levelo://app?vid=05bcf267-a044-49c9-b7ba-7ad5b4142e8e","ios":"levelo://app?vid=05bcf267-a044-49c9-b7ba-7ad5b4142e8e"},"vehicle_type_id":"4","last_reported":1679213339,"current_range_meters":11200,"station_id":"ce4bh3h2rcd13ifvqdn0","pricing_plan_id":"free"},{"bike_id":"96ab2625-1d81-42ba-bad3-155d86f13472","system_id":"levelo_inurba_marseille","lat":43.281789,"lon":5.352736,"is_reserved":false,"is_disabled":false,"rental_uris":{"android":"levelo://app?vid=96ab2625-1d81-42ba-bad3-155d86f13472","ios":"levelo://app?vid=96ab2625-1d81-42ba-bad3-155d86f13472"},"vehicle_type_id":"4","last_reported":1679213339,"current_range_meters":0,"station_id":"","pricing_plan_id":"free"},{"bike_id":"09637bc8-273c-4e91-916b-8c879b4aeee8","system_id":"levelo_inurba_marseille","lat":43.29041,"lon":5.399634,"is_reserved":false,"is_disabled":false,"rental_uris":{"android":"levelo://app?vid=09637bc8-273c-4e91-916b-8c879b4aeee8","ios":"levelo://app?vid=09637bc8-273c-4e91-916b-8c879b4aeee8"},"vehicle_type_id":"4","last_reported":1679213339,"current_range_meters":29600,"station_id":"ce4bh392rcd13ifvqdm0","pricing_plan_id":"free"},{"bike_id":"5401effd-a518-4bec-b7c5-0ae4c7d986b7","system_id":"levelo_inurba_marseille","lat":43.296263,"lon":5.40601,"is_reserved":false,"is_disabled":false,"rental_uris":{"android":"levelo://app?vid=5401effd-a518-4bec-b7c5-0ae4c7d986b7","ios":"levelo://app?vid=5401effd-a518-4bec-b7c5-0ae4c7d986b7"},"vehicle_type_id":"4","last_reported":1679213339,"current_range_meters":28000,"station_id":"ce4bh0h2rcd13ifvqd60","pricing_plan_id":"free"},{"bike_id":"12ed1ed8-e659-41a0-805c-1e91c5f90b71","system_id":"levelo_inurba_marseille","lat":43.287154,"lon":5.399979,"is_reserved":false,"is_disabled":false,"rental_uris":{"android":"levelo://app?vid=12ed1ed8-e659-41a0-805c-1e91c5f90b71","ios":"levelo://app?vid=12ed1ed8-e659-41a0-805c-1e91c5f90b71"},"vehicle_type_id":"4","last_reported":1679213339,"current_range_meters":29200,"station_id":"ce4bho92rcd13ifvqh3g","pricing_plan_id":"free"},{"bike_id":"e9fdb5a1-7bb9-4513-b03b-d6d2991d1c6c","system_id":"levelo_inurba_marseille","lat":43.287154,"lon":5.399979,"is_reserved":false,"is_disabled":false,"rental_uris":{"android":"levelo://app?vid=e9fdb5a1-7bb9-4513-b03b-d6d2991d1c6c","ios":"levelo://app?vid=e9fdb5a1-7bb9-4513-b03b-d6d2991d1c6c"},"vehicle_type_id":"4","last_reported":1679213339,"current_range_meters":24400,"station_id":"ce4bho92rcd13ifvqh3g","pricing_plan_id":"free"},{"bike_id":"2f454740-0b4f-4abc-9d61-60c7eebac267","system_id":"levelo_inurba_marseille","lat":43.324783,"lon":5.414303,"is_reserved":false,"is_disabled":false,"rental_uris":{"android":"levelo://app?vid=2f454740-0b4f-4abc-9d61-60c7eebac267","ios":"levelo://app?vid=2f454740-0b4f-4abc-9d61-60c7eebac267"},"vehicle_type_id":"4","last_reported":1679213339,"current_range_meters":6400,"station_id":"","pricing_plan_id":"free"},{"bike_id":"673de19c-85b8-4b84-a87f-33971329f3c5","system_id":"levelo_inurba_marseille","lat":43.292569,"lon":5.409107,"is_reserved":false,"is_disabled":false,"rental_uris":{"android":"levelo://app?vid=673de19c-85b8-4b84-a87f-33971329f3c5","ios":"levelo://app?vid=673de19c-85b8-4b84-a87f-33971329f3c5"},"vehicle_type_id":"4","last_reported":1679213339,"current_range_meters":2800,"station_id":"ce4bh192rcd13ifvqdc0","pricing_plan_id":"free"},{"bike_id":"40a8953b-ac3f-45ef-8f3d-c2d3dfe28905","system_id":"levelo_inurba_marseille","lat":43.292571,"lon":5.409107,"is_reserved":false,"is_disabled":false,"rental_uris":{"android":"levelo://app?vid=40a8953b-ac3f-45ef-8f3d-c2d3dfe28905","ios":"levelo://app?vid=40a8953b-ac3f-45ef-8f3d-c2d3dfe28905"},"vehicle_type_id":"4","last_reported":1679213339,"current_range_meters":28000,"station_id":"ce4bh192rcd13ifvqdc0","pricing_plan_id":"free"},{"bike_id":"5f11de16-2911-4b4f-b726-c59123cc1e79","system_id":"levelo_inurba_marseille","lat":43.325483,"lon":5.414399,"is_reserved":false,"is_disabled":false,"rental_uris":{"android":"levelo://app?vid=5f11de16-2911-4b4f-b726-c59123cc1e79","ios":"levelo://app?vid=5f11de16-2911-4b4f-b726-c59123cc1e79"},"vehicle_type_id":"4","last_reported":1679213339,"current_range_meters":29600,"station_id":"","pricing_plan_id":"free"},{"bike_id":"8150e8e1-709e-4295-8bac-b8326d350b70","system_id":"levelo_inurba_marseille","lat":43.323936,"lon":5.415133,"is_reserved":false,"is_disabled":false,"rental_uris":{"android":"levelo://app?vid=8150e8e1-709e-4295-8bac-b8326d350b70","ios":"levelo://app?vid=8150e8e1-709e-4295-8bac-b8326d350b70"},"vehicle_type_id":"4","last_reported":1679213339,"current_range_meters":5600,"station_id":"","pricing_plan_id":"free"},{"bike_id":"ed38afd4-d724-4e08-ba37-6f0d0c8cafa0","system_id":"levelo_inurba_marseille","lat":43.325417,"lon":5.414459,"is_reserved":false,"is_disabled":false,"rental_uris":{"android":"levelo://app?vid=ed38afd4-d724-4e08-ba37-6f0d0c8cafa0","ios":"levelo://app?vid=ed38afd4-d724-4e08-ba37-6f0d0c8cafa0"},"vehicle_type_id":"4","last_reported":1679213339,"current_range_meters":29200,"station_id":"","pricing_plan_id":"free"},{"bike_id":"51d76d32-5703-4de6-9544-9d06ddb31cbf","system_id":"levelo_inurba_marseille","lat":43.325358,"lon":5.414496,"is_reserved":false,"is_disabled":false,"rental_uris":{"android":"levelo://app?vid=51d76d32-5703-4de6-9544-9d06ddb31cbf","ios":"levelo://app?vid=51d76d32-5703-4de6-9544-9d06ddb31cbf"},"vehicle_type_id":"4","last_reported":1679213339,"current_range_meters":28400,"station_id":"","pricing_plan_id":"free"},{"bike_id":"53441b7e-e41d-43a2-b706-d232e65ae764","system_id":"levelo_inurba_marseille","lat":43.276179,"lon":5.361009,"is_reserved":false,"is_disabled":false,"rental_uris":{"android":"levelo://app?vid=53441b7e-e41d-43a2-b706-d232e65ae764","ios":"levelo://app?vid=53441b7e-e41d-43a2-b706-d232e65ae764"},"vehicle_type_id":"4","last_reported":1679213339,"current_range_meters":0,"station_id":"ce4bgj92rcd13ifvqbe0","pricing_plan_id":"free"},{"bike_id":"eb462c0b-2666-46c8-b365-bcbf64fc0073","system_id":"levelo_inurba_marseille","lat":43.273799,"lon":5.36251,"is_reserved":false,"is_disabled":false,"rental_uris":{"android":"levelo://app?vid=eb462c0b-2666-46c8-b365-bcbf64fc0073","ios":"levelo://app?vid=eb462c0b-2666-46c8-b365-bcbf64fc0073"},"vehicle_type_id":"4","last_reported":1679213339,"current_range_meters":5600,"station_id":"ce4bhbh2rcd13ifvqeo0","pricing_plan_id":"free"},{"bike_id":"350d6b89-8c6e-4cbd-a303-a381f1965236","system_id":"levelo_inurba_marseille","lat":43.336134,"lon":5.410341,"is_reserved":false,"is_disabled":false,"rental_uris":{"android":"levelo://app?vid=350d6b89-8c6e-4cbd-a303-a381f1965236","ios":"levelo://app?vid=350d6b89-8c6e-4cbd-a303-a381f1965236"},"vehicle_type_id":"4","last_reported":1679213339,"current_range_meters":31600,"station_id":"ce4bhqh2rcd13ifvqhmg","pricing_plan_id":"free"},{"bike_id":"2abcf298-3819-478b-95ea-54cc72544c00","system_id":"levelo_inurba_marseille","lat":43.336148,"lon":5.410349,"is_reserved":false,"is_disabled":false,"rental_uris":{"android":"levelo://app?vid=2abcf298-3819-478b-95ea-54cc72544c00","ios":"levelo://app?vid=2abcf298-3819-478b-95ea-54cc72544c00"},"vehicle_type_id":"4","last_reported":1679213339,"current_range_meters":29200,"station_id":"ce4bhqh2rcd13ifvqhmg","pricing_plan_id":"free"},{"bike_id":"3d29cea9-890f-429e-9b69-5b86fc5b4f22","system_id":"levelo_inurba_marseille","lat":43.33612,"lon":5.410321,"is_reserved":false,"is_disabled":false,"rental_uris":{"android":"levelo://app?vid=3d29cea9-890f-429e-9b69-5b86fc5b4f22","ios":"levelo://app?vid=3d29cea9-890f-429e-9b69-5b86fc5b4f22"},"vehicle_type_id":"4","last_reported":1679213339,"current_range_meters":31600,"station_id":"ce4bhqh2rcd13ifvqhmg","pricing_plan_id":"free"},{"bike_id":"0a4c8942-fbfa-4fd5-9eaa-dfb5fb6b2fdc","system_id":"levelo_inurba_marseille","lat":43.336134,"lon":5.410341,"is_reserved":false,"is_disabled":false,"rental_uris":{"android":"levelo://app?vid=0a4c8942-fbfa-4fd5-9eaa-dfb5fb6b2fdc","ios":"levelo://app?vid=0a4c8942-fbfa-4fd5-9eaa-dfb5fb6b2fdc"},"vehicle_type_id":"4","last_reported":1679213339,"current_range_meters":24000,"station_id":"ce4bhqh2rcd13ifvqhmg","pricing_plan_id":"free"},{"bike_id":"f05cf7d3-6387-4d94-a8b7-fa5d1eaa53b7","system_id":"levelo_inurba_marseille","lat":43.336134,"lon":5.410341,"is_reserved":false,"is_disabled":false,"rental_uris":{"android":"levelo://app?vid=f05cf7d3-6387-4d94-a8b7-fa5d1eaa53b7","ios":"levelo://app?vid=f05cf7d3-6387-4d94-a8b7-fa5d1eaa53b7"},"vehicle_type_id":"4","last_reported":1679213339,"current_range_meters":24400,"station_id":"ce4bhqh2rcd13ifvqhmg","pricing_plan_id":"free"},{"bike_id":"17925c58-f95e-413c-98df-bafb5db25ab4","system_id":"levelo_inurba_marseille","lat":43.336148,"lon":5.410349,"is_reserved":false,"is_disabled":false,"rental_uris":{"android":"levelo://app?vid=17925c58-f95e-413c-98df-bafb5db25ab4","ios":"levelo://app?vid=17925c58-f95e-413c-98df-bafb5db25ab4"},"vehicle_type_id":"4","last_reported":1679213339,"current_range_meters":29200,"station_id":"ce4bhqh2rcd13ifvqhmg","pricing_plan_id":"free"},{"bike_id":"c05bc7f9-1220-40c7-a82d-86d66a5b83a1","system_id":"levelo_inurba_marseille","lat":43.336134,"lon":5.410341,"is_reserved":false,"is_disabled":false,"rental_uris":{"android":"levelo://app?vid=c05bc7f9-1220-40c7-a82d-86d66a5b83a1","ios":"levelo://app?vid=c05bc7f9-1220-40c7-a82d-86d66a5b83a1"},"vehicle_type_id":"4","last_reported":1679213339,"current_range_meters":29200,"station_id":"ce4bhqh2rcd13ifvqhmg","pricing_plan_id":"free"},{"bike_id":"d28eb7a0-38e2-46e5-82e8-844cf4ba2115","system_id":"levelo_inurba_marseille","lat":43.27673,"lon":5.388863,"is_reserved":false,"is_disabled":false,"rental_uris":{"android":"levelo://app?vid=d28eb7a0-38e2-46e5-82e8-844cf4ba2115","ios":"levelo://app?vid=d28eb7a0-38e2-46e5-82e8-844cf4ba2115"},"vehicle_type_id":"4","last_reported":1679213339,"current_range_meters":10800,"station_id":"ce4bhi12rcd13ifvqfo0","pricing_plan_id":"free"},{"bike_id":"b3248560-21ed-4374-a6e8-68dd94ca3131","system_id":"levelo_inurba_marseille","lat":43.276703,"lon":5.388937,"is_reserved":false,"is_disabled":false,"rental_uris":{"android":"levelo://app?vid=b3248560-21ed-4374-a6e8-68dd94ca3131","ios":"levelo://app?vid=b3248560-21ed-4374-a6e8-68dd94ca3131"},"vehicle_type_id":"4","last_reported":1679213339,"current_range_meters":0,"station_id":"ce4bhi12rcd13ifvqfo0","pricing_plan_id":"free"},{"bike_id":"46bed5f8-bd5e-42b5-a669-04e5975f5b1d","system_id":"levelo_inurba_marseille","lat":43.276745,"lon":5.389074,"is_reserved":false,"is_disabled":false,"rental_uris":{"android":"levelo://app?vid=46bed5f8-bd5e-42b5-a669-04e5975f5b1d","ios":"levelo://app?vid=46bed5f8-bd5e-42b5-a669-04e5975f5b1d"},"vehicle_type_id":"4","last_reported":1679213339,"current_range_meters":0,"station_id":"","pricing_plan_id":"free"},{"bike_id":"2d33d40a-d2aa-4e39-ae8d-64de36623816","system_id":"levelo_inurba_marseille","lat":43.27998,"lon":5.39954,"is_reserved":false,"is_disabled":false,"rental_uris":{"android":"levelo://app?vid=2d33d40a-d2aa-4e39-ae8d-64de36623816","ios":"levelo://app?vid=2d33d40a-d2aa-4e39-ae8d-64de36623816"},"vehicle_type_id":"4","last_reported":1679213339,"current_range_meters":0,"station_id":"","pricing_plan_id":"free"},{"bike_id":"27a138ec-ac35-43df-9be7-1ff43296cc01","system_id":"levelo_inurba_marseille","lat":43.317121,"lon":5.423936,"is_reserved":false,"is_disabled":false,"rental_uris":{"android":"levelo://app?vid=27a138ec-ac35-43df-9be7-1ff43296cc01","ios":"levelo://app?vid=27a138ec-ac35-43df-9be7-1ff43296cc01"},"vehicle_type_id":"4","last_reported":1679213339,"current_range_meters":25600,"station_id":"ce4bhp92rcd13ifvqhbg","pricing_plan_id":"free"},{"bike_id":"fab231e4-3667-4a75-a838-6e149a77f1cd","system_id":"levelo_inurba_marseille","lat":43.273125,"lon":5.390731,"is_reserved":false,"is_disabled":false,"rental_uris":{"android":"levelo://app?vid=fab231e4-3667-4a75-a838-6e149a77f1cd","ios":"levelo://app?vid=fab231e4-3667-4a75-a838-6e149a77f1cd"},"vehicle_type_id":"4","last_reported":1679213339,"current_range_meters":15600,"station_id":"ce4bhgp2rcd13ifvqfe0","pricing_plan_id":"free"},{"bike_id":"b170044d-c7bc-4687-8c61-d20e1d905ffc","system_id":"levelo_inurba_marseille","lat":43.295523,"lon":5.422926,"is_reserved":false,"is_disabled":false,"rental_uris":{"android":"levelo://app?vid=b170044d-c7bc-4687-8c61-d20e1d905ffc","ios":"levelo://app?vid=b170044d-c7bc-4687-8c61-d20e1d905ffc"},"vehicle_type_id":"4","last_reported":1679213339,"current_range_meters":6400,"station_id":"ce4bhph2rcd13ifvqhdg","pricing_plan_id":"free"},{"bike_id":"807c47ce-bbfb-4ebb-be99-d02b3b3c7987","system_id":"levelo_inurba_marseille","lat":43.272116,"lon":5.391747,"is_reserved":false,"is_disabled":false,"rental_uris":{"android":"levelo://app?vid=807c47ce-bbfb-4ebb-be99-d02b3b3c7987","ios":"levelo://app?vid=807c47ce-bbfb-4ebb-be99-d02b3b3c7987"},"vehicle_type_id":"4","last_reported":1679213339,"current_range_meters":26400,"station_id":"ce4bhhp2rcd13ifvqfm0","pricing_plan_id":"free"},{"bike_id":"9917d32c-8ebf-4e3e-b53a-7c73d136a680","system_id":"levelo_inurba_marseille","lat":43.272116,"lon":5.391747,"is_reserved":false,"is_disabled":false,"rental_uris":{"android":"levelo://app?vid=9917d32c-8ebf-4e3e-b53a-7c73d136a680","ios":"levelo://app?vid=9917d32c-8ebf-4e3e-b53a-7c73d136a680"},"vehicle_type_id":"4","last_reported":1679213339,"current_range_meters":10400,"station_id":"ce4bhhp2rcd13ifvqfm0","pricing_plan_id":"free"},{"bike_id":"600b38ce-9584-4abe-b478-d40fe130a1a8","system_id":"levelo_inurba_marseille","lat":43.27815,"lon":5.40719,"is_reserved":false,"is_disabled":false,"rental_uris":{"android":"levelo://app?vid=600b38ce-9584-4abe-b478-d40fe130a1a8","ios":"levelo://app?vid=600b38ce-9584-4abe-b478-d40fe130a1a8"},"vehicle_type_id":"4","last_reported":1679213339,"current_range_meters":0,"station_id":"","pricing_plan_id":"free"},{"bike_id":"1e9b8fcf-9da5-43fd-bd70-b34d96b26af4","system_id":"levelo_inurba_marseille","lat":43.28,"lon":5.41665,"is_reserved":false,"is_disabled":false,"rental_uris":{"android":"levelo://app?vid=1e9b8fcf-9da5-43fd-bd70-b34d96b26af4","ios":"levelo://app?vid=1e9b8fcf-9da5-43fd-bd70-b34d96b26af4"},"vehicle_type_id":"4","last_reported":1679213339,"current_range_meters":15200,"station_id":"ce4bho12rcd13ifvqh1g","pricing_plan_id":"free"},{"bike_id":"81b8813b-e1f9-4388-a8ab-ca40d442794d","system_id":"levelo_inurba_marseille","lat":43.279922,"lon":5.416591,"is_reserved":false,"is_disabled":false,"rental_uris":{"android":"levelo://app?vid=81b8813b-e1f9-4388-a8ab-ca40d442794d","ios":"levelo://app?vid=81b8813b-e1f9-4388-a8ab-ca40d442794d"},"vehicle_type_id":"4","last_reported":1679213339,"current_range_meters":0,"station_id":"","pricing_plan_id":"free"},{"bike_id":"7c3e4dc0-a7e8-4178-b3c7-70ceb02652cc","system_id":"levelo_inurba_marseille","lat":43.308051,"lon":5.43527,"is_reserved":false,"is_disabled":false,"rental_uris":{"android":"levelo://app?vid=7c3e4dc0-a7e8-4178-b3c7-70ceb02652cc","ios":"levelo://app?vid=7c3e4dc0-a7e8-4178-b3c7-70ceb02652cc"},"vehicle_type_id":"4","last_reported":1679213339,"current_range_meters":7200,"station_id":"ce4bhph2rcd13ifvqheg","pricing_plan_id":"free"},{"bike_id":"8bbbcc37-39f2-481d-9c0f-90371390543a","system_id":"levelo_inurba_marseille","lat":43.308051,"lon":5.43527,"is_reserved":false,"is_disabled":false,"rental_uris":{"android":"levelo://app?vid=8bbbcc37-39f2-481d-9c0f-90371390543a","ios":"levelo://app?vid=8bbbcc37-39f2-481d-9c0f-90371390543a"},"vehicle_type_id":"4","last_reported":1679213339,"current_range_meters":4000,"station_id":"ce4bhph2rcd13ifvqheg","pricing_plan_id":"free"},{"bike_id":"e64489c4-592d-410b-ab06-d7f4db460c24","system_id":"levelo_inurba_marseille","lat":43.308051,"lon":5.43527,"is_reserved":false,"is_disabled":false,"rental_uris":{"android":"levelo://app?vid=e64489c4-592d-410b-ab06-d7f4db460c24","ios":"levelo://app?vid=e64489c4-592d-410b-ab06-d7f4db460c24"},"vehicle_type_id":"4","last_reported":1679213339,"current_range_meters":3200,"station_id":"ce4bhph2rcd13ifvqheg","pricing_plan_id":"free"},{"bike_id":"e651345b-5632-477d-b311-e5090b529272","system_id":"levelo_inurba_marseille","lat":43.308051,"lon":5.43527,"is_reserved":false,"is_disabled":false,"rental_uris":{"android":"levelo://app?vid=e651345b-5632-477d-b311-e5090b529272","ios":"levelo://app?vid=e651345b-5632-477d-b311-e5090b529272"},"vehicle_type_id":"4","last_reported":1679213339,"current_range_meters":2000,"station_id":"ce4bhph2rcd13ifvqheg","pricing_plan_id":"free"},{"bike_id":"dd04f92d-dbda-45bd-8d5e-0a739a24bdea","system_id":"levelo_inurba_marseille","lat":43.30801,"lon":5.43523,"is_reserved":false,"is_disabled":false,"rental_uris":{"android":"levelo://app?vid=dd04f92d-dbda-45bd-8d5e-0a739a24bdea","ios":"levelo://app?vid=dd04f92d-dbda-45bd-8d5e-0a739a24bdea"},"vehicle_type_id":"4","last_reported":1679213339,"current_range_meters":0,"station_id":"ce4bhph2rcd13ifvqheg","pricing_plan_id":"free"},{"bike_id":"5f6679d7-4f4d-4ce4-bd2c-2992d4a7cbbd","system_id":"levelo_inurba_marseille","lat":43.30796,"lon":5.43526,"is_reserved":false,"is_disabled":false,"rental_uris":{"android":"levelo://app?vid=5f6679d7-4f4d-4ce4-bd2c-2992d4a7cbbd","ios":"levelo://app?vid=5f6679d7-4f4d-4ce4-bd2c-2992d4a7cbbd"},"vehicle_type_id":"4","last_reported":1679213339,"current_range_meters":3600,"station_id":"ce4bhph2rcd13ifvqheg","pricing_plan_id":"free"},{"bike_id":"6c5ac7b6-3bcd-43af-b1b9-c48badc90984","system_id":"levelo_inurba_marseille","lat":43.26297,"lon":5.3764,"is_reserved":false,"is_disabled":false,"rental_uris":{"android":"levelo://app?vid=6c5ac7b6-3bcd-43af-b1b9-c48badc90984","ios":"levelo://app?vid=6c5ac7b6-3bcd-43af-b1b9-c48badc90984"},"vehicle_type_id":"4","last_reported":1679213339,"current_range_meters":23600,"station_id":"","pricing_plan_id":"free"},{"bike_id":"2d3a60e8-2647-4de4-b6b7-bfb2d8da8fbe","system_id":"levelo_inurba_marseille","lat":43.260909,"lon":5.397591,"is_reserved":false,"is_disabled":false,"rental_uris":{"android":"levelo://app?vid=2d3a60e8-2647-4de4-b6b7-bfb2d8da8fbe","ios":"levelo://app?vid=2d3a60e8-2647-4de4-b6b7-bfb2d8da8fbe"},"vehicle_type_id":"4","last_reported":1679213339,"current_range_meters":0,"station_id":"ce4bhi12rcd13ifvqfq0","pricing_plan_id":"free"},{"bike_id":"e75bbaa1-beed-4674-a728-48aee5d3b251","system_id":"levelo_inurba_marseille","lat":43.29248,"lon":5.44137,"is_reserved":false,"is_disabled":false,"rental_uris":{"android":"levelo://app?vid=e75bbaa1-beed-4674-a728-48aee5d3b251","ios":"levelo://app?vid=e75bbaa1-beed-4674-a728-48aee5d3b251"},"vehicle_type_id":"4","last_reported":1679213339,"current_range_meters":20800,"station_id":"","pricing_plan_id":"free"},{"bike_id":"6f0614e8-a7ca-40b7-a0cf-f5e3029b8583","system_id":"levelo_inurba_marseille","lat":43.27066,"lon":5.42275,"is_reserved":false,"is_disabled":false,"rental_uris":{"android":"levelo://app?vid=6f0614e8-a7ca-40b7-a0cf-f5e3029b8583","ios":"levelo://app?vid=6f0614e8-a7ca-40b7-a0cf-f5e3029b8583"},"vehicle_type_id":"4","last_reported":1679213339,"current_range_meters":11600,"station_id":"ce4bhk92rcd13ifvqgb0","pricing_plan_id":"free"},{"bike_id":"71d96dbe-36f5-40f7-9eb1-6ab30ce570c9","system_id":"levelo_inurba_marseille","lat":43.258658,"lon":5.398935,"is_reserved":false,"is_disabled":false,"rental_uris":{"android":"levelo://app?vid=71d96dbe-36f5-40f7-9eb1-6ab30ce570c9","ios":"levelo://app?vid=71d96dbe-36f5-40f7-9eb1-6ab30ce570c9"},"vehicle_type_id":"4","last_reported":1679213339,"current_range_meters":27600,"station_id":"ce4bhl92rcd13ifvqghg","pricing_plan_id":"free"},{"bike_id":"e0736921-49cf-4829-96e9-c0918d1f5068","system_id":"levelo_inurba_marseille","lat":43.250071,"lon":5.389148,"is_reserved":false,"is_disabled":false,"rental_uris":{"android":"levelo://app?vid=e0736921-49cf-4829-96e9-c0918d1f5068","ios":"levelo://app?vid=e0736921-49cf-4829-96e9-c0918d1f5068"},"vehicle_type_id":"4","last_reported":1679213339,"current_range_meters":0,"station_id":"","pricing_plan_id":"free"},{"bike_id":"c2bd7769-3b16-4159-87b2-94391b964763","system_id":"levelo_inurba_marseille","lat":43.250009,"lon":5.389195,"is_reserved":false,"is_disabled":false,"rental_uris":{"android":"levelo://app?vid=c2bd7769-3b16-4159-87b2-94391b964763","ios":"levelo://app?vid=c2bd7769-3b16-4159-87b2-94391b964763"},"vehicle_type_id":"4","last_reported":1679213339,"current_range_meters":14800,"station_id":"ce4bhgp2rcd13ifvqfd0","pricing_plan_id":"free"},{"bike_id":"96186fc4-e261-4c9c-b25c-ccd926aa07dd","system_id":"levelo_inurba_marseille","lat":43.24812,"lon":5.37457,"is_reserved":false,"is_disabled":false,"rental_uris":{"android":"levelo://app?vid=96186fc4-e261-4c9c-b25c-ccd926aa07dd","ios":"levelo://app?vid=96186fc4-e261-4c9c-b25c-ccd926aa07dd"},"vehicle_type_id":"4","last_reported":1679213339,"current_range_meters":14800,"station_id":"","pricing_plan_id":"free"},{"bike_id":"4198d439-6bcd-4695-a8dc-ae254dd71863","system_id":"levelo_inurba_marseille","lat":43.2479,"lon":5.374457,"is_reserved":false,"is_disabled":false,"rental_uris":{"android":"levelo://app?vid=4198d439-6bcd-4695-a8dc-ae254dd71863","ios":"levelo://app?vid=4198d439-6bcd-4695-a8dc-ae254dd71863"},"vehicle_type_id":"4","last_reported":1679213339,"current_range_meters":29600,"station_id":"ce4bhgh2rcd13ifvqfb0","pricing_plan_id":"free"},{"bike_id":"32d47f2d-0bbe-4cc0-a374-e84fb1c4a813","system_id":"levelo_inurba_marseille","lat":43.2479,"lon":5.374457,"is_reserved":false,"is_disabled":false,"rental_uris":{"android":"levelo://app?vid=32d47f2d-0bbe-4cc0-a374-e84fb1c4a813","ios":"levelo://app?vid=32d47f2d-0bbe-4cc0-a374-e84fb1c4a813"},"vehicle_type_id":"4","last_reported":1679213339,"current_range_meters":27200,"station_id":"ce4bhgh2rcd13ifvqfb0","pricing_plan_id":"free"},{"bike_id":"d7697645-5c87-4b1e-b85f-dae3668138f1","system_id":"levelo_inurba_marseille","lat":43.2479,"lon":5.374457,"is_reserved":false,"is_disabled":false,"rental_uris":{"android":"levelo://app?vid=d7697645-5c87-4b1e-b85f-dae3668138f1","ios":"levelo://app?vid=d7697645-5c87-4b1e-b85f-dae3668138f1"},"vehicle_type_id":"4","last_reported":1679213339,"current_range_meters":6000,"station_id":"ce4bhgh2rcd13ifvqfb0","pricing_plan_id":"free"},{"bike_id":"87b02d55-bd4c-47e7-b4a2-8e6a3fd9412c","system_id":"levelo_inurba_marseille","lat":43.250966,"lon":5.395186,"is_reserved":false,"is_disabled":false,"rental_uris":{"android":"levelo://app?vid=87b02d55-bd4c-47e7-b4a2-8e6a3fd9412c","ios":"levelo://app?vid=87b02d55-bd4c-47e7-b4a2-8e6a3fd9412c"},"vehicle_type_id":"4","last_reported":1679213339,"current_range_meters":23600,"station_id":"ce4bhm12rcd13ifvqgkg","pricing_plan_id":"free"},{"bike_id":"0774bb22-5cd0-4e90-8f48-636c2f00cf75","system_id":"levelo_inurba_marseille","lat":43.250966,"lon":5.395186,"is_reserved":false,"is_disabled":false,"rental_uris":{"android":"levelo://app?vid=0774bb22-5cd0-4e90-8f48-636c2f00cf75","ios":"levelo://app?vid=0774bb22-5cd0-4e90-8f48-636c2f00cf75"},"vehicle_type_id":"4","last_reported":1679213339,"current_range_meters":10000,"station_id":"ce4bhm12rcd13ifvqgkg","pricing_plan_id":"free"},{"bike_id":"6226b057-c565-4f10-824c-4158b47e8105","system_id":"levelo_inurba_marseille","lat":43.250966,"lon":5.395186,"is_reserved":false,"is_disabled":false,"rental_uris":{"android":"levelo://app?vid=6226b057-c565-4f10-824c-4158b47e8105","ios":"levelo://app?vid=6226b057-c565-4f10-824c-4158b47e8105"},"vehicle_type_id":"4","last_reported":1679213339,"current_range_meters":31600,"station_id":"ce4bhm12rcd13ifvqgkg","pricing_plan_id":"free"},{"bike_id":"84e201f5-fd74-4daf-b70a-0c8b6bb115c7","system_id":"levelo_inurba_marseille","lat":43.25102,"lon":5.403214,"is_reserved":false,"is_disabled":false,"rental_uris":{"android":"levelo://app?vid=84e201f5-fd74-4daf-b70a-0c8b6bb115c7","ios":"levelo://app?vid=84e201f5-fd74-4daf-b70a-0c8b6bb115c7"},"vehicle_type_id":"4","last_reported":1679213339,"current_range_meters":10400,"station_id":"ce4bhlh2rcd13ifvqgig","pricing_plan_id":"free"},{"bike_id":"246e0911-2090-4290-9ee8-620cd0253e1f","system_id":"levelo_inurba_marseille","lat":43.25102,"lon":5.403214,"is_reserved":false,"is_disabled":false,"rental_uris":{"android":"levelo://app?vid=246e0911-2090-4290-9ee8-620cd0253e1f","ios":"levelo://app?vid=246e0911-2090-4290-9ee8-620cd0253e1f"},"vehicle_type_id":"4","last_reported":1679213339,"current_range_meters":20400,"station_id":"ce4bhlh2rcd13ifvqgig","pricing_plan_id":"free"},{"bike_id":"875d5d08-cfe6-456e-884a-2e9b70ba5783","system_id":"levelo_inurba_marseille","lat":43.25102,"lon":5.403214,"is_reserved":false,"is_disabled":false,"rental_uris":{"android":"levelo://app?vid=875d5d08-cfe6-456e-884a-2e9b70ba5783","ios":"levelo://app?vid=875d5d08-cfe6-456e-884a-2e9b70ba5783"},"vehicle_type_id":"4","last_reported":1679213339,"current_range_meters":31600,"station_id":"ce4bhlh2rcd13ifvqgig","pricing_plan_id":"free"},{"bike_id":"ca8455ae-9f0e-4d8e-9679-8d4b66a612ab","system_id":"levelo_inurba_marseille","lat":43.25102,"lon":5.403214,"is_reserved":false,"is_disabled":false,"rental_uris":{"android":"levelo://app?vid=ca8455ae-9f0e-4d8e-9679-8d4b66a612ab","ios":"levelo://app?vid=ca8455ae-9f0e-4d8e-9679-8d4b66a612ab"},"vehicle_type_id":"4","last_reported":1679213339,"current_range_meters":30000,"station_id":"ce4bhlh2rcd13ifvqgig","pricing_plan_id":"free"},{"bike_id":"0584284b-f193-47d9-afc1-6ecf86bd5230","system_id":"levelo_inurba_marseille","lat":43.25102,"lon":5.403214,"is_reserved":false,"is_disabled":false,"rental_uris":{"android":"levelo://app?vid=0584284b-f193-47d9-afc1-6ecf86bd5230","ios":"levelo://app?vid=0584284b-f193-47d9-afc1-6ecf86bd5230"},"vehicle_type_id":"4","last_reported":1679213339,"current_range_meters":26800,"station_id":"ce4bhlh2rcd13ifvqgig","pricing_plan_id":"free"},{"bike_id":"4bf33eb8-2b19-41a0-b8eb-f4197208fd18","system_id":"levelo_inurba_marseille","lat":43.25102,"lon":5.403214,"is_reserved":false,"is_disabled":false,"rental_uris":{"android":"levelo://app?vid=4bf33eb8-2b19-41a0-b8eb-f4197208fd18","ios":"levelo://app?vid=4bf33eb8-2b19-41a0-b8eb-f4197208fd18"},"vehicle_type_id":"4","last_reported":1679213339,"current_range_meters":30800,"station_id":"ce4bhlh2rcd13ifvqgig","pricing_plan_id":"free"},{"bike_id":"26545bc5-7353-408d-9699-715d1aece88c","system_id":"levelo_inurba_marseille","lat":43.25102,"lon":5.403214,"is_reserved":false,"is_disabled":false,"rental_uris":{"android":"levelo://app?vid=26545bc5-7353-408d-9699-715d1aece88c","ios":"levelo://app?vid=26545bc5-7353-408d-9699-715d1aece88c"},"vehicle_type_id":"4","last_reported":1679213339,"current_range_meters":31600,"station_id":"ce4bhlh2rcd13ifvqgig","pricing_plan_id":"free"},{"bike_id":"13b6f600-6bf7-44e2-9643-255e5169245c","system_id":"levelo_inurba_marseille","lat":43.248401,"lon":5.393754,"is_reserved":false,"is_disabled":false,"rental_uris":{"android":"levelo://app?vid=13b6f600-6bf7-44e2-9643-255e5169245c","ios":"levelo://app?vid=13b6f600-6bf7-44e2-9643-255e5169245c"},"vehicle_type_id":"4","last_reported":1679213339,"current_range_meters":12000,"station_id":"","pricing_plan_id":"free"},{"bike_id":"088a25f1-4e71-4e12-b29e-c5b32ef46c65","system_id":"levelo_inurba_marseille","lat":43.245581,"lon":5.395069,"is_reserved":false,"is_disabled":false,"rental_uris":{"android":"levelo://app?vid=088a25f1-4e71-4e12-b29e-c5b32ef46c65","ios":"levelo://app?vid=088a25f1-4e71-4e12-b29e-c5b32ef46c65"},"vehicle_type_id":"4","last_reported":1679213339,"current_range_meters":800,"station_id":"ce4bhlp2rcd13ifvqgjg","pricing_plan_id":"free"},{"bike_id":"afd9d1df-a4ec-4e3a-b1c7-2d2faa43b8f9","system_id":"levelo_inurba_marseille","lat":43.239588,"lon":5.366238,"is_reserved":false,"is_disabled":false,"rental_uris":{"android":"levelo://app?vid=afd9d1df-a4ec-4e3a-b1c7-2d2faa43b8f9","ios":"levelo://app?vid=afd9d1df-a4ec-4e3a-b1c7-2d2faa43b8f9"},"vehicle_type_id":"4","last_reported":1679213339,"current_range_meters":6800,"station_id":"ce4bhi12rcd13ifvqfp0","pricing_plan_id":"free"},{"bike_id":"b9eb7df5-4549-486d-acf3-adcd910c731d","system_id":"levelo_inurba_marseille","lat":43.239645,"lon":5.366377,"is_reserved":false,"is_disabled":false,"rental_uris":{"android":"levelo://app?vid=b9eb7df5-4549-486d-acf3-adcd910c731d","ios":"levelo://app?vid=b9eb7df5-4549-486d-acf3-adcd910c731d"},"vehicle_type_id":"4","last_reported":1679213339,"current_range_meters":5200,"station_id":"ce4bhi12rcd13ifvqfp0","pricing_plan_id":"free"},{"bike_id":"aee4b4a6-f9ab-4084-a4f7-edd5ccad8d40","system_id":"levelo_inurba_marseille","lat":43.239588,"lon":5.366238,"is_reserved":false,"is_disabled":false,"rental_uris":{"android":"levelo://app?vid=aee4b4a6-f9ab-4084-a4f7-edd5ccad8d40","ios":"levelo://app?vid=aee4b4a6-f9ab-4084-a4f7-edd5ccad8d40"},"vehicle_type_id":"4","last_reported":1679213339,"current_range_meters":16400,"station_id":"ce4bhi12rcd13ifvqfp0","pricing_plan_id":"free"},{"bike_id":"60ec317c-9c95-456f-90a7-3e1b12c23fe5","system_id":"levelo_inurba_marseille","lat":43.239588,"lon":5.366238,"is_reserved":false,"is_disabled":false,"rental_uris":{"android":"levelo://app?vid=60ec317c-9c95-456f-90a7-3e1b12c23fe5","ios":"levelo://app?vid=60ec317c-9c95-456f-90a7-3e1b12c23fe5"},"vehicle_type_id":"4","last_reported":1679213339,"current_range_meters":2000,"station_id":"ce4bhi12rcd13ifvqfp0","pricing_plan_id":"free"},{"bike_id":"dcfbe225-2601-4561-81df-92cf185c56f6","system_id":"levelo_inurba_marseille","lat":43.239588,"lon":5.366238,"is_reserved":false,"is_disabled":false,"rental_uris":{"android":"levelo://app?vid=dcfbe225-2601-4561-81df-92cf185c56f6","ios":"levelo://app?vid=dcfbe225-2601-4561-81df-92cf185c56f6"},"vehicle_type_id":"4","last_reported":1679213339,"current_range_meters":4000,"station_id":"ce4bhi12rcd13ifvqfp0","pricing_plan_id":"free"},{"bike_id":"567bff39-c647-4651-8acf-b71e598bd4a1","system_id":"levelo_inurba_marseille","lat":43.241797,"lon":5.397236,"is_reserved":false,"is_disabled":false,"rental_uris":{"android":"levelo://app?vid=567bff39-c647-4651-8acf-b71e598bd4a1","ios":"levelo://app?vid=567bff39-c647-4651-8acf-b71e598bd4a1"},"vehicle_type_id":"4","last_reported":1679213339,"current_range_meters":0,"station_id":"ce4bhn12rcd13ifvqgpg","pricing_plan_id":"free"},{"bike_id":"badd26db-d74e-47d1-a8af-80511d09ad4e","system_id":"levelo_inurba_marseille","lat":43.241782,"lon":5.397264,"is_reserved":false,"is_disabled":false,"rental_uris":{"android":"levelo://app?vid=badd26db-d74e-47d1-a8af-80511d09ad4e","ios":"levelo://app?vid=badd26db-d74e-47d1-a8af-80511d09ad4e"},"vehicle_type_id":"4","last_reported":1679213339,"current_range_meters":8400,"station_id":"ce4bhn12rcd13ifvqgpg","pricing_plan_id":"free"},{"bike_id":"0510984e-f649-44d1-8242-9d987e2a499a","system_id":"levelo_inurba_marseille","lat":43.231988,"lon":5.355511,"is_reserved":false,"is_disabled":false,"rental_uris":{"android":"levelo://app?vid=0510984e-f649-44d1-8242-9d987e2a499a","ios":"levelo://app?vid=0510984e-f649-44d1-8242-9d987e2a499a"},"vehicle_type_id":"4","last_reported":1679213339,"current_range_meters":22800,"station_id":"ce4bhu92rcd13ifvqi70","pricing_plan_id":"free"},{"bike_id":"beaf722f-8cce-48cc-9f08-62b9af3ed634","system_id":"levelo_inurba_marseille","lat":43.231983,"lon":5.355547,"is_reserved":false,"is_disabled":false,"rental_uris":{"android":"levelo://app?vid=beaf722f-8cce-48cc-9f08-62b9af3ed634","ios":"levelo://app?vid=beaf722f-8cce-48cc-9f08-62b9af3ed634"},"vehicle_type_id":"4","last_reported":1679213339,"current_range_meters":22400,"station_id":"ce4bhu92rcd13ifvqi70","pricing_plan_id":"free"},{"bike_id":"b71d4bb3-9dd8-4f9d-8402-e3595c6b6b91","system_id":"levelo_inurba_marseille","lat":43.23197,"lon":5.355481,"is_reserved":false,"is_disabled":false,"rental_uris":{"android":"levelo://app?vid=b71d4bb3-9dd8-4f9d-8402-e3595c6b6b91","ios":"levelo://app?vid=b71d4bb3-9dd8-4f9d-8402-e3595c6b6b91"},"vehicle_type_id":"4","last_reported":1679213339,"current_range_meters":23200,"station_id":"ce4bhu92rcd13ifvqi70","pricing_plan_id":"free"},{"bike_id":"aa784494-bcc8-4b38-921b-25d4252dc6ab","system_id":"levelo_inurba_marseille","lat":43.231937,"lon":5.355538,"is_reserved":false,"is_disabled":false,"rental_uris":{"android":"levelo://app?vid=aa784494-bcc8-4b38-921b-25d4252dc6ab","ios":"levelo://app?vid=aa784494-bcc8-4b38-921b-25d4252dc6ab"},"vehicle_type_id":"4","last_reported":1679213339,"current_range_meters":7200,"station_id":"ce4bhu92rcd13ifvqi70","pricing_plan_id":"free"},{"bike_id":"b9f6f4f0-f36b-4f70-8715-1fede5862196","system_id":"levelo_inurba_marseille","lat":43.23193,"lon":5.35553,"is_reserved":false,"is_disabled":false,"rental_uris":{"android":"levelo://app?vid=b9f6f4f0-f36b-4f70-8715-1fede5862196","ios":"levelo://app?vid=b9f6f4f0-f36b-4f70-8715-1fede5862196"},"vehicle_type_id":"4","last_reported":1679213339,"current_range_meters":27600,"station_id":"ce4bhu92rcd13ifvqi70","pricing_plan_id":"free"},{"bike_id":"2f1e89bb-26de-4f28-9f9c-8145daa23f89","system_id":"levelo_inurba_marseille","lat":43.231928,"lon":5.355553,"is_reserved":false,"is_disabled":false,"rental_uris":{"android":"levelo://app?vid=2f1e89bb-26de-4f28-9f9c-8145daa23f89","ios":"levelo://app?vid=2f1e89bb-26de-4f28-9f9c-8145daa23f89"},"vehicle_type_id":"4","last_reported":1679213339,"current_range_meters":30000,"station_id":"ce4bhu92rcd13ifvqi70","pricing_plan_id":"free"},{"bike_id":"8057768e-761b-41d6-916d-02a9ceb83bc6","system_id":"levelo_inurba_marseille","lat":43.231922,"lon":5.355564,"is_reserved":false,"is_disabled":false,"rental_uris":{"android":"levelo://app?vid=8057768e-761b-41d6-916d-02a9ceb83bc6","ios":"levelo://app?vid=8057768e-761b-41d6-916d-02a9ceb83bc6"},"vehicle_type_id":"4","last_reported":1679213339,"current_range_meters":26000,"station_id":"ce4bhu92rcd13ifvqi70","pricing_plan_id":"free"},{"bike_id":"9396a642-8421-4ca9-b20d-a2492104caf9","system_id":"levelo_inurba_marseille","lat":43.23192,"lon":5.35556,"is_reserved":false,"is_disabled":false,"rental_uris":{"android":"levelo://app?vid=9396a642-8421-4ca9-b20d-a2492104caf9","ios":"levelo://app?vid=9396a642-8421-4ca9-b20d-a2492104caf9"},"vehicle_type_id":"4","last_reported":1679213339,"current_range_meters":28800,"station_id":"ce4bhu92rcd13ifvqi70","pricing_plan_id":"free"},{"bike_id":"ff98316f-748f-4069-a942-b27635abd352","system_id":"levelo_inurba_marseille","lat":43.231923,"lon":5.355545,"is_reserved":false,"is_disabled":false,"rental_uris":{"android":"levelo://app?vid=ff98316f-748f-4069-a942-b27635abd352","ios":"levelo://app?vid=ff98316f-748f-4069-a942-b27635abd352"},"vehicle_type_id":"4","last_reported":1679213339,"current_range_meters":31600,"station_id":"ce4bhu92rcd13ifvqi70","pricing_plan_id":"free"},{"bike_id":"956fe110-a343-4414-91a1-6e3d50bfa094","system_id":"levelo_inurba_marseille","lat":43.231923,"lon":5.355545,"is_reserved":false,"is_disabled":false,"rental_uris":{"android":"levelo://app?vid=956fe110-a343-4414-91a1-6e3d50bfa094","ios":"levelo://app?vid=956fe110-a343-4414-91a1-6e3d50bfa094"},"vehicle_type_id":"4","last_reported":1679213339,"current_range_meters":30400,"station_id":"ce4bhu92rcd13ifvqi70","pricing_plan_id":"free"},{"bike_id":"e8fea5b7-48a9-48c9-b449-fe6211bd9de6","system_id":"levelo_inurba_marseille","lat":43.231923,"lon":5.355545,"is_reserved":false,"is_disabled":false,"rental_uris":{"android":"levelo://app?vid=e8fea5b7-48a9-48c9-b449-fe6211bd9de6","ios":"levelo://app?vid=e8fea5b7-48a9-48c9-b449-fe6211bd9de6"},"vehicle_type_id":"4","last_reported":1679213339,"current_range_meters":29200,"station_id":"ce4bhu92rcd13ifvqi70","pricing_plan_id":"free"},{"bike_id":"0010ebe6-0da4-49c8-96ff-1cfa6d1925a0","system_id":"levelo_inurba_marseille","lat":43.231903,"lon":5.355553,"is_reserved":false,"is_disabled":false,"rental_uris":{"android":"levelo://app?vid=0010ebe6-0da4-49c8-96ff-1cfa6d1925a0","ios":"levelo://app?vid=0010ebe6-0da4-49c8-96ff-1cfa6d1925a0"},"vehicle_type_id":"4","last_reported":1679213339,"current_range_meters":24400,"station_id":"ce4bhu92rcd13ifvqi70","pricing_plan_id":"free"},{"bike_id":"c4a765e8-1981-4501-b559-fd423b924ef4","system_id":"levelo_inurba_marseille","lat":43.231923,"lon":5.355545,"is_reserved":false,"is_disabled":false,"rental_uris":{"android":"levelo://app?vid=c4a765e8-1981-4501-b559-fd423b924ef4","ios":"levelo://app?vid=c4a765e8-1981-4501-b559-fd423b924ef4"},"vehicle_type_id":"4","last_reported":1679213339,"current_range_meters":27600,"station_id":"ce4bhu92rcd13ifvqi70","pricing_plan_id":"free"}]}}