{"last_updated":1758211883,"ttl":60,"version":"2.2","data":{"bikes":[{"bike_id":"f8425d03-b5d3-45f0-881a-e80fdafa706e","system_id":"levelo_inurba_marseille","lat":43.2495,"lon":5.40495,"is_reserved":false,"is_disabled":false,"rental_uris":{"android":"levelo://app?vid=f8425d03-b5d3-45f0-881a-e80fdafa706e","ios":"levelo://app?vid=f8425d03-b5d3-45f0-881a-e80fdafa706e"},"vehicle_type_id":"4","last_reported":1758211883,"current_range_meters":2800,"station_id":"st_d2ngiaodas8pm72gd1h0","pricing_plan_id":"cebpf4jnsgd1na2vs0mg"},{"bike_id":"ca5a1340-d41e-49f3-95f8-599734e0a36c","system_id":"levelo_inurba_marseille","lat":43.225342,"lon":5.348349,"is_reserved":false,"is_disabled":false,"rental_uris":{"android":"levelo://app?vid=ca5a1340-d41e-49f3-95f8-599734e0a36c","ios":"levelo://app?vid=ca5a1340-d41e-49f3-95f8-599734e0a36c"},"vehicle_type_id":"4","last_reported":1758211883,"current_range_meters":2800,"station_id":"","pricing_plan_id":"cebpf4jnsgd1na2vs0mg"},{"bike_id":"a5d843db-9b64-42f6-b133-50a5aa6f9eef","system_id":"levelo_inurba_marseille","lat":43.29561,"lon":5.37516,"is_reserved":false,"is_disabled":false,"rental_uris":{"android":"levelo://app?vid=a5d843db-9b64-42f6-b133-50a5aa6f9eef","ios":"levelo://app?vid=a5d843db-9b64-42f6-b133-50a5aa6f9eef"},"vehicle_type_id":"4","last_reported":1758211883,"current_range_meters":2800,"station_id":"","pricing_plan_id":"cebpf4jnsgd1na2vs0mg"},{"bike_id":"0b30cdb0-49ae-40ff-81b4-0182a53432a2","system_id":"levelo_inurba_marseille","lat":43.27417,"lon":5.39413,"is_reserved":false,"is_disabled":false,"rental_uris":{"android":"levelo://app?vid=0b30cdb0-49ae-40ff-81b4-0182a53432a2","ios":"levelo://app?vid=0b30cdb0-49ae-40ff-81b4-0182a53432a2"},"vehicle_type_id":"4","last_reported":1758211883,"current_range_meters":3200,"station_id":"ce4bhdp2rcd13ifvqf20","pricing_plan_id":"cebpf4jnsgd1na2vs0mg"},{"bike_id":"dcf3b6c1-9781-4ca7-a0b9-7c7f10428897","system_id":"levelo_inurba_marseille","lat":43.29279,"lon":5.36847,"is_reserved":false,"is_disabled":false,"rental_uris":{"android":"levelo://app?vid=dcf3b6c1-9781-4ca7-a0b9-7c7f10428897","ios":"levelo://app?vid=dcf3b6c1-9781-4ca7-a0b9-7c7f10428897"},"vehicle_type_id":"4","last_reported":1758211883,"current_range_meters":3200,"station_id":"ce4bhbp2rcd13ifvqesg","pricing_plan_id":"cebpf4jnsgd1na2vs0mg"},{"bike_id":"27b514bd-43ab-4a3b-923c-e625d339b67e","system_id":"levelo_inurba_marseille","lat":43.24543,"lon":5.39527,"is_reserved":false,"is_disabled":false,"rental_uris":{"android":"levelo://app?vid=27b514bd-43ab-4a3b-923c-e625d339b67e","ios":"levelo://app?vid=27b514bd-43ab-4a3b-923c-e625d339b67e"},"vehicle_type_id":"4","last_reported":1758211883,"current_range_meters":3200,"station_id":"ce4bhlp2rcd13ifvqgjg","pricing_plan_id":"cebpf4jnsgd1na2vs0mg"},{"bike_id":"6eed4045-ac0e-41a4-a037-409e3b9625fc","system_id":"levelo_inurba_marseille","lat":43.303791,"lon":5.419121,"is_reserved":false,"is_disabled":false,"rental_uris":{"android":"levelo://app?vid=6eed4045-ac0e-41a4-a037-409e3b9625fc","ios":"levelo://app?vid=6eed4045-ac0e-41a4-a037-409e3b9625fc"},"vehicle_type_id":"4","last_reported":1758211883,"current_range_meters":3600,"station_id":"ce4bhop2rcd13ifvqh7g","pricing_plan_id":"cebpf4jnsgd1na2vs0mg"},{"bike_id":"834b2543-2776-422a-bafe-a7993e76d4c2","system_id":"levelo_inurba_marseille","lat":43.30533,"lon":5.36528,"is_reserved":false,"is_disabled":false,"rental_uris":{"android":"levelo://app?vid=834b2543-2776-422a-bafe-a7993e76d4c2","ios":"levelo://app?vid=834b2543-2776-422a-bafe-a7993e76d4c2"},"vehicle_type_id":"4","last_reported":1758211883,"current_range_meters":3600,"station_id":"ce4bgs12rcd13ifvqcag","pricing_plan_id":"cebpf4jnsgd1na2vs0mg"},{"bike_id":"0d19f87b-104e-4918-a6a0-003985a3ea7e","system_id":"levelo_inurba_marseille","lat":43.29569,"lon":5.375235,"is_reserved":false,"is_disabled":false,"rental_uris":{"android":"levelo://app?vid=0d19f87b-104e-4918-a6a0-003985a3ea7e","ios":"levelo://app?vid=0d19f87b-104e-4918-a6a0-003985a3ea7e"},"vehicle_type_id":"4","last_reported":1758211883,"current_range_meters":3600,"station_id":"","pricing_plan_id":"cebpf4jnsgd1na2vs0mg"},{"bike_id":"584e37f3-c0e7-480a-83f9-1c50ea0f869f","system_id":"levelo_inurba_marseille","lat":43.29529,"lon":5.39029,"is_reserved":false,"is_disabled":false,"rental_uris":{"android":"levelo://app?vid=584e37f3-c0e7-480a-83f9-1c50ea0f869f","ios":"levelo://app?vid=584e37f3-c0e7-480a-83f9-1c50ea0f869f"},"vehicle_type_id":"4","last_reported":1758211883,"current_range_meters":3600,"station_id":"ce4bh3p2rcd13ifvqdp0","pricing_plan_id":"cebpf4jnsgd1na2vs0mg"},{"bike_id":"5b1a3548-4384-418f-b6b2-16eb93ba4829","system_id":"levelo_inurba_marseille","lat":43.28659,"lon":5.36352,"is_reserved":false,"is_disabled":true,"rental_uris":{"android":"levelo://app?vid=5b1a3548-4384-418f-b6b2-16eb93ba4829","ios":"levelo://app?vid=5b1a3548-4384-418f-b6b2-16eb93ba4829"},"vehicle_type_id":"4","last_reported":1758211883,"current_range_meters":4000,"station_id":"ce4bhah2rcd13ifvqej0","pricing_plan_id":"cebpf4jnsgd1na2vs0mg"},{"bike_id":"99d081ad-844a-4905-beb5-9840c0870f51","system_id":"levelo_inurba_marseille","lat":43.28461,"lon":5.35887,"is_reserved":false,"is_disabled":false,"rental_uris":{"android":"levelo://app?vid=99d081ad-844a-4905-beb5-9840c0870f51","ios":"levelo://app?vid=99d081ad-844a-4905-beb5-9840c0870f51"},"vehicle_type_id":"4","last_reported":1758211883,"current_range_meters":4000,"station_id":"ce4bhah2rcd13ifvqei0","pricing_plan_id":"cebpf4jnsgd1na2vs0mg"},{"bike_id":"06d8aea7-0713-4945-9560-51c718f3ed2f","system_id":"levelo_inurba_marseille","lat":43.26813,"lon":5.38884,"is_reserved":false,"is_disabled":false,"rental_uris":{"android":"levelo://app?vid=06d8aea7-0713-4945-9560-51c718f3ed2f","ios":"levelo://app?vid=06d8aea7-0713-4945-9560-51c718f3ed2f"},"vehicle_type_id":"4","last_reported":1758211883,"current_range_meters":4400,"station_id":"ce4bhhh2rcd13ifvqfl0","pricing_plan_id":"cebpf4jnsgd1na2vs0mg"},{"bike_id":"775af279-8ac9-4585-9121-809be9b13265","system_id":"levelo_inurba_marseille","lat":43.33773,"lon":5.37432,"is_reserved":false,"is_disabled":false,"rental_uris":{"android":"levelo://app?vid=775af279-8ac9-4585-9121-809be9b13265","ios":"levelo://app?vid=775af279-8ac9-4585-9121-809be9b13265"},"vehicle_type_id":"4","last_reported":1758211883,"current_range_meters":4400,"station_id":"","pricing_plan_id":"cebpf4jnsgd1na2vs0mg"},{"bike_id":"8bd1f37a-5aff-43a6-9457-41c7854f19d1","system_id":"levelo_inurba_marseille","lat":43.32336,"lon":5.40623,"is_reserved":false,"is_disabled":false,"rental_uris":{"android":"levelo://app?vid=8bd1f37a-5aff-43a6-9457-41c7854f19d1","ios":"levelo://app?vid=8bd1f37a-5aff-43a6-9457-41c7854f19d1"},"vehicle_type_id":"4","last_reported":1758211883,"current_range_meters":4400,"station_id":"ce4bhq92rcd13ifvqhjg","pricing_plan_id":"cebpf4jnsgd1na2vs0mg"},{"bike_id":"87568973-a8c3-4895-8dff-cef951599add","system_id":"levelo_inurba_marseille","lat":43.32116,"lon":5.36771,"is_reserved":false,"is_disabled":false,"rental_uris":{"android":"levelo://app?vid=87568973-a8c3-4895-8dff-cef951599add","ios":"levelo://app?vid=87568973-a8c3-4895-8dff-cef951599add"},"vehicle_type_id":"4","last_reported":1758211883,"current_range_meters":4400,"station_id":"ce4bhrh2rcd13ifvqhug","pricing_plan_id":"cebpf4jnsgd1na2vs0mg"},{"bike_id":"059c0ba7-1dcb-4f29-8d05-6060640937cc","system_id":"levelo_inurba_marseille","lat":43.330233,"lon":5.390341,"is_reserved":false,"is_disabled":false,"rental_uris":{"android":"levelo://app?vid=059c0ba7-1dcb-4f29-8d05-6060640937cc","ios":"levelo://app?vid=059c0ba7-1dcb-4f29-8d05-6060640937cc"},"vehicle_type_id":"4","last_reported":1758211883,"current_range_meters":4800,"station_id":"ce4bhr92rcd13ifvqhrg","pricing_plan_id":"cebpf4jnsgd1na2vs0mg"},{"bike_id":"e4866abf-7b6c-485b-a3fa-c4b24c73d8b9","system_id":"levelo_inurba_marseille","lat":43.25092,"lon":5.39517,"is_reserved":false,"is_disabled":true,"rental_uris":{"android":"levelo://app?vid=e4866abf-7b6c-485b-a3fa-c4b24c73d8b9","ios":"levelo://app?vid=e4866abf-7b6c-485b-a3fa-c4b24c73d8b9"},"vehicle_type_id":"4","last_reported":1758211883,"current_range_meters":5600,"station_id":"ce4bhm12rcd13ifvqgkg","pricing_plan_id":"cebpf4jnsgd1na2vs0mg"},{"bike_id":"1322316a-0db7-41ff-a6fd-078039767127","system_id":"levelo_inurba_marseille","lat":43.298978,"lon":5.436684,"is_reserved":false,"is_disabled":false,"rental_uris":{"android":"levelo://app?vid=1322316a-0db7-41ff-a6fd-078039767127","ios":"levelo://app?vid=1322316a-0db7-41ff-a6fd-078039767127"},"vehicle_type_id":"4","last_reported":1758211883,"current_range_meters":5600,"station_id":"ce4bhpp2rcd13ifvqhfg","pricing_plan_id":"cebpf4jnsgd1na2vs0mg"},{"bike_id":"2098b607-3f4e-4a0e-8819-e403a127f323","system_id":"levelo_inurba_marseille","lat":43.29293,"lon":5.37468,"is_reserved":false,"is_disabled":false,"rental_uris":{"android":"levelo://app?vid=2098b607-3f4e-4a0e-8819-e403a127f323","ios":"levelo://app?vid=2098b607-3f4e-4a0e-8819-e403a127f323"},"vehicle_type_id":"4","last_reported":1758211883,"current_range_meters":6000,"station_id":"ce4bgi12rcd13ifvqb70","pricing_plan_id":"cebpf4jnsgd1na2vs0mg"},{"bike_id":"377cb6f6-a308-4aed-9c97-5791b605c2d9","system_id":"levelo_inurba_marseille","lat":43.21491,"lon":5.34323,"is_reserved":false,"is_disabled":false,"rental_uris":{"android":"levelo://app?vid=377cb6f6-a308-4aed-9c97-5791b605c2d9","ios":"levelo://app?vid=377cb6f6-a308-4aed-9c97-5791b605c2d9"},"vehicle_type_id":"4","last_reported":1758211883,"current_range_meters":6400,"station_id":"","pricing_plan_id":"cebpf4jnsgd1na2vs0mg"},{"bike_id":"5cebaa99-7be9-4a3f-9cc0-5cdfdaef03f0","system_id":"levelo_inurba_marseille","lat":43.225319,"lon":5.348348,"is_reserved":false,"is_disabled":false,"rental_uris":{"android":"levelo://app?vid=5cebaa99-7be9-4a3f-9cc0-5cdfdaef03f0","ios":"levelo://app?vid=5cebaa99-7be9-4a3f-9cc0-5cdfdaef03f0"},"vehicle_type_id":"4","last_reported":1758211883,"current_range_meters":6400,"station_id":"","pricing_plan_id":"cebpf4jnsgd1na2vs0mg"},{"bike_id":"e820c689-e974-4315-9bed-010e44b9c698","system_id":"levelo_inurba_marseille","lat":43.28116,"lon":5.35036,"is_reserved":false,"is_disabled":false,"rental_uris":{"android":"levelo://app?vid=e820c689-e974-4315-9bed-010e44b9c698","ios":"levelo://app?vid=e820c689-e974-4315-9bed-010e44b9c698"},"vehicle_type_id":"4","last_reported":1758211883,"current_range_meters":6800,"station_id":"","pricing_plan_id":"cebpf4jnsgd1na2vs0mg"},{"bike_id":"a4dd67d2-a2c5-4500-8369-84b841316b78","system_id":"levelo_inurba_marseille","lat":43.29535,"lon":5.37504,"is_reserved":false,"is_disabled":false,"rental_uris":{"android":"levelo://app?vid=a4dd67d2-a2c5-4500-8369-84b841316b78","ios":"levelo://app?vid=a4dd67d2-a2c5-4500-8369-84b841316b78"},"vehicle_type_id":"4","last_reported":1758211883,"current_range_meters":6800,"station_id":"ce4bgkp2rcd13ifvqbmg","pricing_plan_id":"cebpf4jnsgd1na2vs0mg"},{"bike_id":"25b2da70-3345-491c-80f8-92888481b5a8","system_id":"levelo_inurba_marseille","lat":43.30167,"lon":5.37411,"is_reserved":false,"is_disabled":true,"rental_uris":{"android":"levelo://app?vid=25b2da70-3345-491c-80f8-92888481b5a8","ios":"levelo://app?vid=25b2da70-3345-491c-80f8-92888481b5a8"},"vehicle_type_id":"4","last_reported":1758211883,"current_range_meters":6800,"station_id":"","pricing_plan_id":"cebpf4jnsgd1na2vs0mg"},{"bike_id":"003515e8-8117-44bb-979d-5f47e8d50fda","system_id":"levelo_inurba_marseille","lat":43.3062,"lon":5.37594,"is_reserved":false,"is_disabled":false,"rental_uris":{"android":"levelo://app?vid=003515e8-8117-44bb-979d-5f47e8d50fda","ios":"levelo://app?vid=003515e8-8117-44bb-979d-5f47e8d50fda"},"vehicle_type_id":"4","last_reported":1758211883,"current_range_meters":7200,"station_id":"","pricing_plan_id":"cebpf4jnsgd1na2vs0mg"},{"bike_id":"14aaed1a-b546-4f51-a9af-bdff26138b7c","system_id":"levelo_inurba_marseille","lat":43.26549,"lon":5.37297,"is_reserved":false,"is_disabled":true,"rental_uris":{"android":"levelo://app?vid=14aaed1a-b546-4f51-a9af-bdff26138b7c","ios":"levelo://app?vid=14aaed1a-b546-4f51-a9af-bdff26138b7c"},"vehicle_type_id":"4","last_reported":1758211883,"current_range_meters":7200,"station_id":"ce4bhg12rcd13ifvqf70","pricing_plan_id":"cebpf4jnsgd1na2vs0mg"},{"bike_id":"d0f27eec-6a8a-47f9-8ede-26dddd2acb67","system_id":"levelo_inurba_marseille","lat":43.29526,"lon":5.37507,"is_reserved":false,"is_disabled":false,"rental_uris":{"android":"levelo://app?vid=d0f27eec-6a8a-47f9-8ede-26dddd2acb67","ios":"levelo://app?vid=d0f27eec-6a8a-47f9-8ede-26dddd2acb67"},"vehicle_type_id":"4","last_reported":1758211883,"current_range_meters":7200,"station_id":"ce4bgkp2rcd13ifvqbmg","pricing_plan_id":"cebpf4jnsgd1na2vs0mg"},{"bike_id":"116b970b-af28-48be-b4c3-2fac1e68c1b4","system_id":"levelo_inurba_marseille","lat":43.2862,"lon":5.35109,"is_reserved":false,"is_disabled":false,"rental_uris":{"android":"levelo://app?vid=116b970b-af28-48be-b4c3-2fac1e68c1b4","ios":"levelo://app?vid=116b970b-af28-48be-b4c3-2fac1e68c1b4"},"vehicle_type_id":"4","last_reported":1758211883,"current_range_meters":7200,"station_id":"ce4bhch2rcd13ifvqeug","pricing_plan_id":"cebpf4jnsgd1na2vs0mg"},{"bike_id":"37efd363-853d-4517-ac03-c533923708ce","system_id":"levelo_inurba_marseille","lat":43.28001,"lon":5.41663,"is_reserved":false,"is_disabled":false,"rental_uris":{"android":"levelo://app?vid=37efd363-853d-4517-ac03-c533923708ce","ios":"levelo://app?vid=37efd363-853d-4517-ac03-c533923708ce"},"vehicle_type_id":"4","last_reported":1758211883,"current_range_meters":7200,"station_id":"ce4bho12rcd13ifvqh1g","pricing_plan_id":"cebpf4jnsgd1na2vs0mg"},{"bike_id":"81ea6637-4118-4bfe-b01c-7d60e0449db6","system_id":"levelo_inurba_marseille","lat":43.29595,"lon":5.37708,"is_reserved":false,"is_disabled":true,"rental_uris":{"android":"levelo://app?vid=81ea6637-4118-4bfe-b01c-7d60e0449db6","ios":"levelo://app?vid=81ea6637-4118-4bfe-b01c-7d60e0449db6"},"vehicle_type_id":"4","last_reported":1758211883,"current_range_meters":7200,"station_id":"","pricing_plan_id":"cebpf4jnsgd1na2vs0mg"},{"bike_id":"537146fd-77f3-4a7e-aef6-61209f803e53","system_id":"levelo_inurba_marseille","lat":43.30291,"lon":5.37691,"is_reserved":false,"is_disabled":true,"rental_uris":{"android":"levelo://app?vid=537146fd-77f3-4a7e-aef6-61209f803e53","ios":"levelo://app?vid=537146fd-77f3-4a7e-aef6-61209f803e53"},"vehicle_type_id":"4","last_reported":1758211883,"current_range_meters":7200,"station_id":"","pricing_plan_id":"cebpf4jnsgd1na2vs0mg"},{"bike_id":"12831fd7-730d-4121-9d62-987bfd5f6337","system_id":"levelo_inurba_marseille","lat":43.26497,"lon":5.39556,"is_reserved":false,"is_disabled":false,"rental_uris":{"android":"levelo://app?vid=12831fd7-730d-4121-9d62-987bfd5f6337","ios":"levelo://app?vid=12831fd7-730d-4121-9d62-987bfd5f6337"},"vehicle_type_id":"4","last_reported":1758211883,"current_range_meters":8000,"station_id":"ce4bhi12rcd13ifvqfq0","pricing_plan_id":"cebpf4jnsgd1na2vs0mg"},{"bike_id":"eea94d62-2917-4ca5-96d0-8a4d56ba79e1","system_id":"levelo_inurba_marseille","lat":43.3014,"lon":5.38784,"is_reserved":false,"is_disabled":false,"rental_uris":{"android":"levelo://app?vid=eea94d62-2917-4ca5-96d0-8a4d56ba79e1","ios":"levelo://app?vid=eea94d62-2917-4ca5-96d0-8a4d56ba79e1"},"vehicle_type_id":"4","last_reported":1758211883,"current_range_meters":8000,"station_id":"ce4bghh2rcd13ifvqb60","pricing_plan_id":"cebpf4jnsgd1na2vs0mg"},{"bike_id":"190d0825-c1b9-4efd-8a03-d87285d4a5b6","system_id":"levelo_inurba_marseille","lat":43.298034,"lon":5.377317,"is_reserved":false,"is_disabled":false,"rental_uris":{"android":"levelo://app?vid=190d0825-c1b9-4efd-8a03-d87285d4a5b6","ios":"levelo://app?vid=190d0825-c1b9-4efd-8a03-d87285d4a5b6"},"vehicle_type_id":"4","last_reported":1758211883,"current_range_meters":8000,"station_id":"","pricing_plan_id":"cebpf4jnsgd1na2vs0mg"},{"bike_id":"434c6797-6c28-41f2-9a70-567fbeb31b9f","system_id":"levelo_inurba_marseille","lat":43.292667,"lon":5.37623,"is_reserved":false,"is_disabled":false,"rental_uris":{"android":"levelo://app?vid=434c6797-6c28-41f2-9a70-567fbeb31b9f","ios":"levelo://app?vid=434c6797-6c28-41f2-9a70-567fbeb31b9f"},"vehicle_type_id":"4","last_reported":1758211883,"current_range_meters":8000,"station_id":"ce4bgi12rcd13ifvqb80","pricing_plan_id":"cebpf4jnsgd1na2vs0mg"},{"bike_id":"c024496f-57c8-4a1f-8d92-bd6b0404eb59","system_id":"levelo_inurba_marseille","lat":43.30128,"lon":5.38802,"is_reserved":false,"is_disabled":false,"rental_uris":{"android":"levelo://app?vid=c024496f-57c8-4a1f-8d92-bd6b0404eb59","ios":"levelo://app?vid=c024496f-57c8-4a1f-8d92-bd6b0404eb59"},"vehicle_type_id":"4","last_reported":1758211883,"current_range_meters":8400,"station_id":"ce4bghh2rcd13ifvqb60","pricing_plan_id":"cebpf4jnsgd1na2vs0mg"},{"bike_id":"36639f04-6506-40f6-8227-a79b2df65e76","system_id":"levelo_inurba_marseille","lat":43.29533,"lon":5.37505,"is_reserved":false,"is_disabled":false,"rental_uris":{"android":"levelo://app?vid=36639f04-6506-40f6-8227-a79b2df65e76","ios":"levelo://app?vid=36639f04-6506-40f6-8227-a79b2df65e76"},"vehicle_type_id":"4","last_reported":1758211883,"current_range_meters":8400,"station_id":"ce4bgkp2rcd13ifvqbmg","pricing_plan_id":"cebpf4jnsgd1na2vs0mg"},{"bike_id":"428a636b-b0dc-491f-b732-07c288f67afe","system_id":"levelo_inurba_marseille","lat":43.28579,"lon":5.39479,"is_reserved":false,"is_disabled":false,"rental_uris":{"android":"levelo://app?vid=428a636b-b0dc-491f-b732-07c288f67afe","ios":"levelo://app?vid=428a636b-b0dc-491f-b732-07c288f67afe"},"vehicle_type_id":"4","last_reported":1758211883,"current_range_meters":8400,"station_id":"ce4bh292rcd13ifvqdg0","pricing_plan_id":"cebpf4jnsgd1na2vs0mg"},{"bike_id":"3b8b87b4-c2d4-49fb-97c9-8b8f774a7e66","system_id":"levelo_inurba_marseille","lat":43.337444,"lon":5.374475,"is_reserved":false,"is_disabled":false,"rental_uris":{"android":"levelo://app?vid=3b8b87b4-c2d4-49fb-97c9-8b8f774a7e66","ios":"levelo://app?vid=3b8b87b4-c2d4-49fb-97c9-8b8f774a7e66"},"vehicle_type_id":"4","last_reported":1758211883,"current_range_meters":8800,"station_id":"","pricing_plan_id":"cebpf4jnsgd1na2vs0mg"},{"bike_id":"36639ba1-8d01-49bc-9e84-f8442992aa67","system_id":"levelo_inurba_marseille","lat":43.29361,"lon":5.3783,"is_reserved":false,"is_disabled":false,"rental_uris":{"android":"levelo://app?vid=36639ba1-8d01-49bc-9e84-f8442992aa67","ios":"levelo://app?vid=36639ba1-8d01-49bc-9e84-f8442992aa67"},"vehicle_type_id":"4","last_reported":1758211883,"current_range_meters":9200,"station_id":"ce4bgjh2rcd13ifvqbf0","pricing_plan_id":"cebpf4jnsgd1na2vs0mg"},{"bike_id":"f45c4870-a86e-436f-b2e3-7606e5b1ee1b","system_id":"levelo_inurba_marseille","lat":43.30732,"lon":5.42443,"is_reserved":false,"is_disabled":false,"rental_uris":{"android":"levelo://app?vid=f45c4870-a86e-436f-b2e3-7606e5b1ee1b","ios":"levelo://app?vid=f45c4870-a86e-436f-b2e3-7606e5b1ee1b"},"vehicle_type_id":"4","last_reported":1758211883,"current_range_meters":9200,"station_id":"st_cvj6ca6bvosntc0bfgr0","pricing_plan_id":"cebpf4jnsgd1na2vs0mg"},{"bike_id":"2dd2293b-7117-41a4-bd04-fcf163fd9b16","system_id":"levelo_inurba_marseille","lat":43.28458,"lon":5.35886,"is_reserved":false,"is_disabled":false,"rental_uris":{"android":"levelo://app?vid=2dd2293b-7117-41a4-bd04-fcf163fd9b16","ios":"levelo://app?vid=2dd2293b-7117-41a4-bd04-fcf163fd9b16"},"vehicle_type_id":"4","last_reported":1758211883,"current_range_meters":9200,"station_id":"ce4bhah2rcd13ifvqei0","pricing_plan_id":"cebpf4jnsgd1na2vs0mg"},{"bike_id":"45afe5f4-5cbe-49c2-a913-33c967100178","system_id":"levelo_inurba_marseille","lat":43.29776,"lon":5.380931,"is_reserved":false,"is_disabled":false,"rental_uris":{"android":"levelo://app?vid=45afe5f4-5cbe-49c2-a913-33c967100178","ios":"levelo://app?vid=45afe5f4-5cbe-49c2-a913-33c967100178"},"vehicle_type_id":"4","last_reported":1758211883,"current_range_meters":9200,"station_id":"","pricing_plan_id":"cebpf4jnsgd1na2vs0mg"},{"bike_id":"d44736bf-db99-49b0-aa67-f4a5e8e32999","system_id":"levelo_inurba_marseille","lat":43.27837,"lon":5.39212,"is_reserved":false,"is_disabled":false,"rental_uris":{"android":"levelo://app?vid=d44736bf-db99-49b0-aa67-f4a5e8e32999","ios":"levelo://app?vid=d44736bf-db99-49b0-aa67-f4a5e8e32999"},"vehicle_type_id":"4","last_reported":1758211883,"current_range_meters":9600,"station_id":"ce4bhjp2rcd13ifvqga0","pricing_plan_id":"cebpf4jnsgd1na2vs0mg"},{"bike_id":"67df8158-2909-41b3-8de5-88ec92603a08","system_id":"levelo_inurba_marseille","lat":43.28816,"lon":5.36186,"is_reserved":false,"is_disabled":false,"rental_uris":{"android":"levelo://app?vid=67df8158-2909-41b3-8de5-88ec92603a08","ios":"levelo://app?vid=67df8158-2909-41b3-8de5-88ec92603a08"},"vehicle_type_id":"4","last_reported":1758211883,"current_range_meters":9600,"station_id":"","pricing_plan_id":"cebpf4jnsgd1na2vs0mg"},{"bike_id":"0effe65d-a72a-42c9-aa9c-565cb79dd11c","system_id":"levelo_inurba_marseille","lat":43.290802,"lon":5.371788,"is_reserved":false,"is_disabled":false,"rental_uris":{"android":"levelo://app?vid=0effe65d-a72a-42c9-aa9c-565cb79dd11c","ios":"levelo://app?vid=0effe65d-a72a-42c9-aa9c-565cb79dd11c"},"vehicle_type_id":"4","last_reported":1758211883,"current_range_meters":9600,"station_id":"ce4bh5p2rcd13ifvqe4g","pricing_plan_id":"cebpf4jnsgd1na2vs0mg"},{"bike_id":"495c43fb-7e57-4ab5-ba65-170e5315947a","system_id":"levelo_inurba_marseille","lat":43.292608,"lon":5.376238,"is_reserved":false,"is_disabled":false,"rental_uris":{"android":"levelo://app?vid=495c43fb-7e57-4ab5-ba65-170e5315947a","ios":"levelo://app?vid=495c43fb-7e57-4ab5-ba65-170e5315947a"},"vehicle_type_id":"4","last_reported":1758211883,"current_range_meters":10000,"station_id":"ce4bgi12rcd13ifvqb80","pricing_plan_id":"cebpf4jnsgd1na2vs0mg"},{"bike_id":"55dfb17a-dc13-4669-82ac-2c676d600c2d","system_id":"levelo_inurba_marseille","lat":43.31351,"lon":5.37936,"is_reserved":false,"is_disabled":true,"rental_uris":{"android":"levelo://app?vid=55dfb17a-dc13-4669-82ac-2c676d600c2d","ios":"levelo://app?vid=55dfb17a-dc13-4669-82ac-2c676d600c2d"},"vehicle_type_id":"4","last_reported":1758211883,"current_range_meters":10000,"station_id":"","pricing_plan_id":"cebpf4jnsgd1na2vs0mg"},{"bike_id":"38e4de73-c4bc-416d-a57e-faec6ced09ab","system_id":"levelo_inurba_marseille","lat":43.28154,"lon":5.42643,"is_reserved":false,"is_disabled":false,"rental_uris":{"android":"levelo://app?vid=38e4de73-c4bc-416d-a57e-faec6ced09ab","ios":"levelo://app?vid=38e4de73-c4bc-416d-a57e-faec6ced09ab"},"vehicle_type_id":"4","last_reported":1758211883,"current_range_meters":10000,"station_id":"ce4bhnh2rcd13ifvqgug","pricing_plan_id":"cebpf4jnsgd1na2vs0mg"},{"bike_id":"b4982662-2742-4a01-be8b-254417115f8d","system_id":"levelo_inurba_marseille","lat":43.29742,"lon":5.37092,"is_reserved":false,"is_disabled":false,"rental_uris":{"android":"levelo://app?vid=b4982662-2742-4a01-be8b-254417115f8d","ios":"levelo://app?vid=b4982662-2742-4a01-be8b-254417115f8d"},"vehicle_type_id":"4","last_reported":1758211883,"current_range_meters":10000,"station_id":"","pricing_plan_id":"cebpf4jnsgd1na2vs0mg"},{"bike_id":"d507ce46-00f5-4d3f-ba03-b31a89c0d325","system_id":"levelo_inurba_marseille","lat":43.225353,"lon":5.348406,"is_reserved":false,"is_disabled":false,"rental_uris":{"android":"levelo://app?vid=d507ce46-00f5-4d3f-ba03-b31a89c0d325","ios":"levelo://app?vid=d507ce46-00f5-4d3f-ba03-b31a89c0d325"},"vehicle_type_id":"4","last_reported":1758211883,"current_range_meters":10000,"station_id":"","pricing_plan_id":"cebpf4jnsgd1na2vs0mg"},{"bike_id":"a535f5b2-86fc-4439-b9c9-d1e5d4116b9a","system_id":"levelo_inurba_marseille","lat":43.24628,"lon":5.43146,"is_reserved":false,"is_disabled":false,"rental_uris":{"android":"levelo://app?vid=a535f5b2-86fc-4439-b9c9-d1e5d4116b9a","ios":"levelo://app?vid=a535f5b2-86fc-4439-b9c9-d1e5d4116b9a"},"vehicle_type_id":"4","last_reported":1758211883,"current_range_meters":10000,"station_id":"st_d2m6c4gdas8pm72e190g","pricing_plan_id":"cebpf4jnsgd1na2vs0mg"},{"bike_id":"74a3f0fd-d8cc-4f2e-8552-bbbd2c1837ef","system_id":"levelo_inurba_marseille","lat":43.260647,"lon":5.393984,"is_reserved":false,"is_disabled":false,"rental_uris":{"android":"levelo://app?vid=74a3f0fd-d8cc-4f2e-8552-bbbd2c1837ef","ios":"levelo://app?vid=74a3f0fd-d8cc-4f2e-8552-bbbd2c1837ef"},"vehicle_type_id":"4","last_reported":1758211883,"current_range_meters":10800,"station_id":"ce4bhh92rcd13ifvqfj0","pricing_plan_id":"cebpf4jnsgd1na2vs0mg"},{"bike_id":"5701fe9c-3e98-4b9f-a910-5eb395d4e5d3","system_id":"levelo_inurba_marseille","lat":43.305389,"lon":5.384223,"is_reserved":false,"is_disabled":false,"rental_uris":{"android":"levelo://app?vid=5701fe9c-3e98-4b9f-a910-5eb395d4e5d3","ios":"levelo://app?vid=5701fe9c-3e98-4b9f-a910-5eb395d4e5d3"},"vehicle_type_id":"4","last_reported":1758211883,"current_range_meters":10800,"station_id":"ce4bgg92rcd13ifvqb30","pricing_plan_id":"cebpf4jnsgd1na2vs0mg"},{"bike_id":"020ca93b-468e-40ef-bb1e-44f55acba55f","system_id":"levelo_inurba_marseille","lat":43.29048,"lon":5.37154,"is_reserved":false,"is_disabled":false,"rental_uris":{"android":"levelo://app?vid=020ca93b-468e-40ef-bb1e-44f55acba55f","ios":"levelo://app?vid=020ca93b-468e-40ef-bb1e-44f55acba55f"},"vehicle_type_id":"4","last_reported":1758211883,"current_range_meters":10800,"station_id":"ce4bh5p2rcd13ifvqe4g","pricing_plan_id":"cebpf4jnsgd1na2vs0mg"},{"bike_id":"b6b9f326-7d83-457a-b455-acae1c787800","system_id":"levelo_inurba_marseille","lat":43.27619,"lon":5.36109,"is_reserved":false,"is_disabled":false,"rental_uris":{"android":"levelo://app?vid=b6b9f326-7d83-457a-b455-acae1c787800","ios":"levelo://app?vid=b6b9f326-7d83-457a-b455-acae1c787800"},"vehicle_type_id":"4","last_reported":1758211883,"current_range_meters":11200,"station_id":"ce4bgj92rcd13ifvqbe0","pricing_plan_id":"cebpf4jnsgd1na2vs0mg"},{"bike_id":"217f8457-c627-4222-8f56-fa785045c757","system_id":"levelo_inurba_marseille","lat":43.289646,"lon":5.378398,"is_reserved":false,"is_disabled":false,"rental_uris":{"android":"levelo://app?vid=217f8457-c627-4222-8f56-fa785045c757","ios":"levelo://app?vid=217f8457-c627-4222-8f56-fa785045c757"},"vehicle_type_id":"4","last_reported":1758211883,"current_range_meters":11600,"station_id":"ce4bh9p2rcd13ifvqed0","pricing_plan_id":"cebpf4jnsgd1na2vs0mg"},{"bike_id":"b6974509-486b-4dc4-ab75-b190a8b42c99","system_id":"levelo_inurba_marseille","lat":43.29288,"lon":5.3687,"is_reserved":false,"is_disabled":false,"rental_uris":{"android":"levelo://app?vid=b6974509-486b-4dc4-ab75-b190a8b42c99","ios":"levelo://app?vid=b6974509-486b-4dc4-ab75-b190a8b42c99"},"vehicle_type_id":"4","last_reported":1758211883,"current_range_meters":11600,"station_id":"ce4bhbp2rcd13ifvqesg","pricing_plan_id":"cebpf4jnsgd1na2vs0mg"},{"bike_id":"783a175e-4b6a-4772-afae-ea0fe7835227","system_id":"levelo_inurba_marseille","lat":43.22525,"lon":5.34827,"is_reserved":false,"is_disabled":false,"rental_uris":{"android":"levelo://app?vid=783a175e-4b6a-4772-afae-ea0fe7835227","ios":"levelo://app?vid=783a175e-4b6a-4772-afae-ea0fe7835227"},"vehicle_type_id":"4","last_reported":1758211883,"current_range_meters":12000,"station_id":"st_cvj5dfep6f1abm77gieg","pricing_plan_id":"cebpf4jnsgd1na2vs0mg"},{"bike_id":"7455ab97-ba58-4b1f-9638-3798a732d1ab","system_id":"levelo_inurba_marseille","lat":43.22553,"lon":5.41635,"is_reserved":false,"is_disabled":false,"rental_uris":{"android":"levelo://app?vid=7455ab97-ba58-4b1f-9638-3798a732d1ab","ios":"levelo://app?vid=7455ab97-ba58-4b1f-9638-3798a732d1ab"},"vehicle_type_id":"4","last_reported":1758211883,"current_range_meters":12000,"station_id":"st_d2o4gvlbi1j2169b742g","pricing_plan_id":"cebpf4jnsgd1na2vs0mg"},{"bike_id":"cf66592a-d8fa-4c6c-9927-5d7a9fef5026","system_id":"levelo_inurba_marseille","lat":43.26284,"lon":5.39842,"is_reserved":false,"is_disabled":false,"rental_uris":{"android":"levelo://app?vid=cf66592a-d8fa-4c6c-9927-5d7a9fef5026","ios":"levelo://app?vid=cf66592a-d8fa-4c6c-9927-5d7a9fef5026"},"vehicle_type_id":"4","last_reported":1758211883,"current_range_meters":12000,"station_id":"","pricing_plan_id":"cebpf4jnsgd1na2vs0mg"},{"bike_id":"d1788760-0706-4b90-8999-db00a9e42210","system_id":"levelo_inurba_marseille","lat":43.32797,"lon":5.41011,"is_reserved":false,"is_disabled":true,"rental_uris":{"android":"levelo://app?vid=d1788760-0706-4b90-8999-db00a9e42210","ios":"levelo://app?vid=d1788760-0706-4b90-8999-db00a9e42210"},"vehicle_type_id":"4","last_reported":1758211883,"current_range_meters":12000,"station_id":"","pricing_plan_id":"cebpf4jnsgd1na2vs0mg"},{"bike_id":"0e87acea-054a-4b54-88b5-9fe67a96b07a","system_id":"levelo_inurba_marseille","lat":43.26062,"lon":5.39402,"is_reserved":false,"is_disabled":false,"rental_uris":{"android":"levelo://app?vid=0e87acea-054a-4b54-88b5-9fe67a96b07a","ios":"levelo://app?vid=0e87acea-054a-4b54-88b5-9fe67a96b07a"},"vehicle_type_id":"4","last_reported":1758211883,"current_range_meters":12000,"station_id":"ce4bhh92rcd13ifvqfj0","pricing_plan_id":"cebpf4jnsgd1na2vs0mg"},{"bike_id":"315f367b-945e-48e9-9810-8183f084f5fc","system_id":"levelo_inurba_marseille","lat":43.27498,"lon":5.42453,"is_reserved":false,"is_disabled":true,"rental_uris":{"android":"levelo://app?vid=315f367b-945e-48e9-9810-8183f084f5fc","ios":"levelo://app?vid=315f367b-945e-48e9-9810-8183f084f5fc"},"vehicle_type_id":"4","last_reported":1758211883,"current_range_meters":12400,"station_id":"ce4bhn92rcd13ifvqgrg","pricing_plan_id":"cebpf4jnsgd1na2vs0mg"},{"bike_id":"6fe5ee4d-d638-47ed-9e67-4166b3f93870","system_id":"levelo_inurba_marseille","lat":43.25336,"lon":5.42215,"is_reserved":false,"is_disabled":false,"rental_uris":{"android":"levelo://app?vid=6fe5ee4d-d638-47ed-9e67-4166b3f93870","ios":"levelo://app?vid=6fe5ee4d-d638-47ed-9e67-4166b3f93870"},"vehicle_type_id":"4","last_reported":1758211883,"current_range_meters":13600,"station_id":"st_d2m65c5bi1j21697t3ng","pricing_plan_id":"cebpf4jnsgd1na2vs0mg"},{"bike_id":"42323a1a-489c-43cb-90ae-c675b27444d5","system_id":"levelo_inurba_marseille","lat":43.21645,"lon":5.34386,"is_reserved":false,"is_disabled":false,"rental_uris":{"android":"levelo://app?vid=42323a1a-489c-43cb-90ae-c675b27444d5","ios":"levelo://app?vid=42323a1a-489c-43cb-90ae-c675b27444d5"},"vehicle_type_id":"4","last_reported":1758211883,"current_range_meters":13600,"station_id":"","pricing_plan_id":"cebpf4jnsgd1na2vs0mg"},{"bike_id":"80a9a218-f77f-42ce-8136-b0dceb9fc366","system_id":"levelo_inurba_marseille","lat":43.267867,"lon":5.394102,"is_reserved":false,"is_disabled":false,"rental_uris":{"android":"levelo://app?vid=80a9a218-f77f-42ce-8136-b0dceb9fc366","ios":"levelo://app?vid=80a9a218-f77f-42ce-8136-b0dceb9fc366"},"vehicle_type_id":"4","last_reported":1758211883,"current_range_meters":14000,"station_id":"ce4bhh12rcd13ifvqfg0","pricing_plan_id":"cebpf4jnsgd1na2vs0mg"},{"bike_id":"d9f0ae84-d732-44f5-b420-064e325a0d60","system_id":"levelo_inurba_marseille","lat":43.320183,"lon":5.381343,"is_reserved":false,"is_disabled":false,"rental_uris":{"android":"levelo://app?vid=d9f0ae84-d732-44f5-b420-064e325a0d60","ios":"levelo://app?vid=d9f0ae84-d732-44f5-b420-064e325a0d60"},"vehicle_type_id":"4","last_reported":1758211883,"current_range_meters":14000,"station_id":"","pricing_plan_id":"cebpf4jnsgd1na2vs0mg"},{"bike_id":"f705795d-f769-4b7d-b278-c9bd8e26de2d","system_id":"levelo_inurba_marseille","lat":43.24391,"lon":5.37058,"is_reserved":false,"is_disabled":false,"rental_uris":{"android":"levelo://app?vid=f705795d-f769-4b7d-b278-c9bd8e26de2d","ios":"levelo://app?vid=f705795d-f769-4b7d-b278-c9bd8e26de2d"},"vehicle_type_id":"4","last_reported":1758211883,"current_range_meters":14000,"station_id":"ce4bhhh2rcd13ifvqfk0","pricing_plan_id":"cebpf4jnsgd1na2vs0mg"},{"bike_id":"be9ee84b-9ec1-497c-800c-5907ad1418ae","system_id":"levelo_inurba_marseille","lat":43.22557,"lon":5.41616,"is_reserved":false,"is_disabled":false,"rental_uris":{"android":"levelo://app?vid=be9ee84b-9ec1-497c-800c-5907ad1418ae","ios":"levelo://app?vid=be9ee84b-9ec1-497c-800c-5907ad1418ae"},"vehicle_type_id":"4","last_reported":1758211883,"current_range_meters":14000,"station_id":"st_d2o4gvlbi1j2169b742g","pricing_plan_id":"cebpf4jnsgd1na2vs0mg"},{"bike_id":"f1cb89fd-3aae-45dd-8b07-61c162b2375e","system_id":"levelo_inurba_marseille","lat":43.21379,"lon":5.35019,"is_reserved":false,"is_disabled":false,"rental_uris":{"android":"levelo://app?vid=f1cb89fd-3aae-45dd-8b07-61c162b2375e","ios":"levelo://app?vid=f1cb89fd-3aae-45dd-8b07-61c162b2375e"},"vehicle_type_id":"4","last_reported":1758211883,"current_range_meters":14000,"station_id":"","pricing_plan_id":"cebpf4jnsgd1na2vs0mg"},{"bike_id":"a0fc3b5d-11a0-4aa6-9474-a92a7008887a","system_id":"levelo_inurba_marseille","lat":43.33707,"lon":5.39203,"is_reserved":false,"is_disabled":false,"rental_uris":{"android":"levelo://app?vid=a0fc3b5d-11a0-4aa6-9474-a92a7008887a","ios":"levelo://app?vid=a0fc3b5d-11a0-4aa6-9474-a92a7008887a"},"vehicle_type_id":"4","last_reported":1758211883,"current_range_meters":14000,"station_id":"ce4bhr92rcd13ifvqhsg","pricing_plan_id":"cebpf4jnsgd1na2vs0mg"},{"bike_id":"f3e1815f-18ff-4893-b6af-8a006dfcb441","system_id":"levelo_inurba_marseille","lat":43.33722,"lon":5.39192,"is_reserved":false,"is_disabled":false,"rental_uris":{"android":"levelo://app?vid=f3e1815f-18ff-4893-b6af-8a006dfcb441","ios":"levelo://app?vid=f3e1815f-18ff-4893-b6af-8a006dfcb441"},"vehicle_type_id":"4","last_reported":1758211883,"current_range_meters":14000,"station_id":"ce4bhr92rcd13ifvqhsg","pricing_plan_id":"cebpf4jnsgd1na2vs0mg"},{"bike_id":"9fde0e2a-7a73-473c-840a-bc0602dc4c5d","system_id":"levelo_inurba_marseille","lat":43.28152,"lon":5.42658,"is_reserved":false,"is_disabled":false,"rental_uris":{"android":"levelo://app?vid=9fde0e2a-7a73-473c-840a-bc0602dc4c5d","ios":"levelo://app?vid=9fde0e2a-7a73-473c-840a-bc0602dc4c5d"},"vehicle_type_id":"4","last_reported":1758211883,"current_range_meters":14400,"station_id":"ce4bhnh2rcd13ifvqgug","pricing_plan_id":"cebpf4jnsgd1na2vs0mg"},{"bike_id":"a740f00f-a20b-4210-a4ab-4e77b8d25655","system_id":"levelo_inurba_marseille","lat":43.32376,"lon":5.38883,"is_reserved":false,"is_disabled":false,"rental_uris":{"android":"levelo://app?vid=a740f00f-a20b-4210-a4ab-4e77b8d25655","ios":"levelo://app?vid=a740f00f-a20b-4210-a4ab-4e77b8d25655"},"vehicle_type_id":"4","last_reported":1758211883,"current_range_meters":14400,"station_id":"ce4bhqp2rcd13ifvqhog","pricing_plan_id":"cebpf4jnsgd1na2vs0mg"},{"bike_id":"a4faa1fd-62ee-404a-aff8-b79ea6b6b5d2","system_id":"levelo_inurba_marseille","lat":43.32986,"lon":5.39245,"is_reserved":false,"is_disabled":false,"rental_uris":{"android":"levelo://app?vid=a4faa1fd-62ee-404a-aff8-b79ea6b6b5d2","ios":"levelo://app?vid=a4faa1fd-62ee-404a-aff8-b79ea6b6b5d2"},"vehicle_type_id":"4","last_reported":1758211883,"current_range_meters":14400,"station_id":"","pricing_plan_id":"cebpf4jnsgd1na2vs0mg"},{"bike_id":"d31d8a09-f22e-40c5-a11a-d324851a854d","system_id":"levelo_inurba_marseille","lat":43.32334,"lon":5.4062,"is_reserved":false,"is_disabled":false,"rental_uris":{"android":"levelo://app?vid=d31d8a09-f22e-40c5-a11a-d324851a854d","ios":"levelo://app?vid=d31d8a09-f22e-40c5-a11a-d324851a854d"},"vehicle_type_id":"4","last_reported":1758211883,"current_range_meters":14400,"station_id":"ce4bhq92rcd13ifvqhjg","pricing_plan_id":"cebpf4jnsgd1na2vs0mg"},{"bike_id":"fa0847a4-8d8b-47a2-9c0d-c16fe7a48c9b","system_id":"levelo_inurba_marseille","lat":43.330285,"lon":5.390556,"is_reserved":false,"is_disabled":false,"rental_uris":{"android":"levelo://app?vid=fa0847a4-8d8b-47a2-9c0d-c16fe7a48c9b","ios":"levelo://app?vid=fa0847a4-8d8b-47a2-9c0d-c16fe7a48c9b"},"vehicle_type_id":"4","last_reported":1758211883,"current_range_meters":14400,"station_id":"","pricing_plan_id":"cebpf4jnsgd1na2vs0mg"},{"bike_id":"7df5983d-afc7-4c15-a3e6-ba7d41a736f9","system_id":"levelo_inurba_marseille","lat":43.24534,"lon":5.37326,"is_reserved":false,"is_disabled":true,"rental_uris":{"android":"levelo://app?vid=7df5983d-afc7-4c15-a3e6-ba7d41a736f9","ios":"levelo://app?vid=7df5983d-afc7-4c15-a3e6-ba7d41a736f9"},"vehicle_type_id":"4","last_reported":1758211883,"current_range_meters":14400,"station_id":"","pricing_plan_id":"cebpf4jnsgd1na2vs0mg"},{"bike_id":"22f0687d-25d3-4094-9c4a-293a61e189a6","system_id":"levelo_inurba_marseille","lat":43.2463,"lon":5.39626,"is_reserved":false,"is_disabled":false,"rental_uris":{"android":"levelo://app?vid=22f0687d-25d3-4094-9c4a-293a61e189a6","ios":"levelo://app?vid=22f0687d-25d3-4094-9c4a-293a61e189a6"},"vehicle_type_id":"4","last_reported":1758211883,"current_range_meters":14400,"station_id":"","pricing_plan_id":"cebpf4jnsgd1na2vs0mg"},{"bike_id":"f5215a22-198a-479d-b10c-8e2e6d92047a","system_id":"levelo_inurba_marseille","lat":43.29061,"lon":5.37168,"is_reserved":false,"is_disabled":false,"rental_uris":{"android":"levelo://app?vid=f5215a22-198a-479d-b10c-8e2e6d92047a","ios":"levelo://app?vid=f5215a22-198a-479d-b10c-8e2e6d92047a"},"vehicle_type_id":"4","last_reported":1758211883,"current_range_meters":14400,"station_id":"ce4bh5p2rcd13ifvqe4g","pricing_plan_id":"cebpf4jnsgd1na2vs0mg"},{"bike_id":"d439638e-12b4-4f65-a51d-b9bf4a1ddea6","system_id":"levelo_inurba_marseille","lat":43.29562,"lon":5.37494,"is_reserved":false,"is_disabled":false,"rental_uris":{"android":"levelo://app?vid=d439638e-12b4-4f65-a51d-b9bf4a1ddea6","ios":"levelo://app?vid=d439638e-12b4-4f65-a51d-b9bf4a1ddea6"},"vehicle_type_id":"4","last_reported":1758211883,"current_range_meters":14800,"station_id":"","pricing_plan_id":"cebpf4jnsgd1na2vs0mg"},{"bike_id":"ff44f1ad-2efa-4491-b8e1-7e77aa981a6b","system_id":"levelo_inurba_marseille","lat":43.30149,"lon":5.37415,"is_reserved":false,"is_disabled":true,"rental_uris":{"android":"levelo://app?vid=ff44f1ad-2efa-4491-b8e1-7e77aa981a6b","ios":"levelo://app?vid=ff44f1ad-2efa-4491-b8e1-7e77aa981a6b"},"vehicle_type_id":"4","last_reported":1758211883,"current_range_meters":14800,"station_id":"","pricing_plan_id":"cebpf4jnsgd1na2vs0mg"},{"bike_id":"d007b170-9320-4c7c-b5e3-8db2adf3a0d2","system_id":"levelo_inurba_marseille","lat":43.22563,"lon":5.41622,"is_reserved":false,"is_disabled":false,"rental_uris":{"android":"levelo://app?vid=d007b170-9320-4c7c-b5e3-8db2adf3a0d2","ios":"levelo://app?vid=d007b170-9320-4c7c-b5e3-8db2adf3a0d2"},"vehicle_type_id":"4","last_reported":1758211883,"current_range_meters":15200,"station_id":"st_d2o4gvlbi1j2169b742g","pricing_plan_id":"cebpf4jnsgd1na2vs0mg"},{"bike_id":"14b0b536-1224-48a2-9649-a40684ff5788","system_id":"levelo_inurba_marseille","lat":43.29605,"lon":5.37727,"is_reserved":false,"is_disabled":true,"rental_uris":{"android":"levelo://app?vid=14b0b536-1224-48a2-9649-a40684ff5788","ios":"levelo://app?vid=14b0b536-1224-48a2-9649-a40684ff5788"},"vehicle_type_id":"4","last_reported":1758211883,"current_range_meters":15200,"station_id":"","pricing_plan_id":"cebpf4jnsgd1na2vs0mg"},{"bike_id":"e942f984-8fe7-48d1-8f04-3806656b9996","system_id":"levelo_inurba_marseille","lat":43.3361,"lon":5.37927,"is_reserved":false,"is_disabled":false,"rental_uris":{"android":"levelo://app?vid=e942f984-8fe7-48d1-8f04-3806656b9996","ios":"levelo://app?vid=e942f984-8fe7-48d1-8f04-3806656b9996"},"vehicle_type_id":"4","last_reported":1758211883,"current_range_meters":16000,"station_id":"","pricing_plan_id":"cebpf4jnsgd1na2vs0mg"},{"bike_id":"7eed94c4-182d-4460-826b-78b4ef60c719","system_id":"levelo_inurba_marseille","lat":43.295859,"lon":5.375163,"is_reserved":false,"is_disabled":false,"rental_uris":{"android":"levelo://app?vid=7eed94c4-182d-4460-826b-78b4ef60c719","ios":"levelo://app?vid=7eed94c4-182d-4460-826b-78b4ef60c719"},"vehicle_type_id":"4","last_reported":1758211883,"current_range_meters":16000,"station_id":"","pricing_plan_id":"cebpf4jnsgd1na2vs0mg"},{"bike_id":"9d8b4944-013e-4958-9415-40d7b5ee9701","system_id":"levelo_inurba_marseille","lat":43.3161,"lon":5.38184,"is_reserved":false,"is_disabled":false,"rental_uris":{"android":"levelo://app?vid=9d8b4944-013e-4958-9415-40d7b5ee9701","ios":"levelo://app?vid=9d8b4944-013e-4958-9415-40d7b5ee9701"},"vehicle_type_id":"4","last_reported":1758211883,"current_range_meters":16400,"station_id":"","pricing_plan_id":"cebpf4jnsgd1na2vs0mg"},{"bike_id":"0d82b35c-17e7-4268-966b-cc4ee5eb3f1c","system_id":"levelo_inurba_marseille","lat":43.23182,"lon":5.39994,"is_reserved":false,"is_disabled":false,"rental_uris":{"android":"levelo://app?vid=0d82b35c-17e7-4268-966b-cc4ee5eb3f1c","ios":"levelo://app?vid=0d82b35c-17e7-4268-966b-cc4ee5eb3f1c"},"vehicle_type_id":"4","last_reported":1758211883,"current_range_meters":16400,"station_id":"ce4bhn12rcd13ifvqgqg","pricing_plan_id":"cebpf4jnsgd1na2vs0mg"},{"bike_id":"f9418cc9-c64d-43d9-9060-3aeedd69cdee","system_id":"levelo_inurba_marseille","lat":43.33078,"lon":5.37859,"is_reserved":false,"is_disabled":false,"rental_uris":{"android":"levelo://app?vid=f9418cc9-c64d-43d9-9060-3aeedd69cdee","ios":"levelo://app?vid=f9418cc9-c64d-43d9-9060-3aeedd69cdee"},"vehicle_type_id":"4","last_reported":1758211883,"current_range_meters":16400,"station_id":"","pricing_plan_id":"cebpf4jnsgd1na2vs0mg"},{"bike_id":"fb78ea42-e26f-45b3-a617-d3474b811b72","system_id":"levelo_inurba_marseille","lat":43.29878,"lon":5.37958,"is_reserved":false,"is_disabled":false,"rental_uris":{"android":"levelo://app?vid=fb78ea42-e26f-45b3-a617-d3474b811b72","ios":"levelo://app?vid=fb78ea42-e26f-45b3-a617-d3474b811b72"},"vehicle_type_id":"4","last_reported":1758211883,"current_range_meters":16800,"station_id":"","pricing_plan_id":"cebpf4jnsgd1na2vs0mg"},{"bike_id":"03ec47f2-c6a1-4fc4-90a9-6256e89fb939","system_id":"levelo_inurba_marseille","lat":43.25002,"lon":5.38926,"is_reserved":false,"is_disabled":false,"rental_uris":{"android":"levelo://app?vid=03ec47f2-c6a1-4fc4-90a9-6256e89fb939","ios":"levelo://app?vid=03ec47f2-c6a1-4fc4-90a9-6256e89fb939"},"vehicle_type_id":"4","last_reported":1758211883,"current_range_meters":16800,"station_id":"ce4bhgp2rcd13ifvqfd0","pricing_plan_id":"cebpf4jnsgd1na2vs0mg"},{"bike_id":"ac688288-af6d-40a2-be0a-dca8785e5499","system_id":"levelo_inurba_marseille","lat":43.30806,"lon":5.43522,"is_reserved":false,"is_disabled":false,"rental_uris":{"android":"levelo://app?vid=ac688288-af6d-40a2-be0a-dca8785e5499","ios":"levelo://app?vid=ac688288-af6d-40a2-be0a-dca8785e5499"},"vehicle_type_id":"4","last_reported":1758211883,"current_range_meters":16800,"station_id":"ce4bhph2rcd13ifvqheg","pricing_plan_id":"cebpf4jnsgd1na2vs0mg"},{"bike_id":"bf6e6d27-c09e-4725-9fbc-20073fd5a515","system_id":"levelo_inurba_marseille","lat":43.289376,"lon":5.396214,"is_reserved":false,"is_disabled":false,"rental_uris":{"android":"levelo://app?vid=bf6e6d27-c09e-4725-9fbc-20073fd5a515","ios":"levelo://app?vid=bf6e6d27-c09e-4725-9fbc-20073fd5a515"},"vehicle_type_id":"4","last_reported":1758211883,"current_range_meters":16800,"station_id":"","pricing_plan_id":"cebpf4jnsgd1na2vs0mg"},{"bike_id":"e0165bfc-2dc7-4512-a208-1e1fcbe60203","system_id":"levelo_inurba_marseille","lat":43.26569,"lon":5.39012,"is_reserved":false,"is_disabled":false,"rental_uris":{"android":"levelo://app?vid=e0165bfc-2dc7-4512-a208-1e1fcbe60203","ios":"levelo://app?vid=e0165bfc-2dc7-4512-a208-1e1fcbe60203"},"vehicle_type_id":"4","last_reported":1758211883,"current_range_meters":16800,"station_id":"ce4bhe12rcd13ifvqf30","pricing_plan_id":"cebpf4jnsgd1na2vs0mg"},{"bike_id":"0960e3dd-c358-4474-bd10-8223758e1f6b","system_id":"levelo_inurba_marseille","lat":43.296996,"lon":5.376855,"is_reserved":false,"is_disabled":false,"rental_uris":{"android":"levelo://app?vid=0960e3dd-c358-4474-bd10-8223758e1f6b","ios":"levelo://app?vid=0960e3dd-c358-4474-bd10-8223758e1f6b"},"vehicle_type_id":"4","last_reported":1758211883,"current_range_meters":16800,"station_id":"","pricing_plan_id":"cebpf4jnsgd1na2vs0mg"},{"bike_id":"553f8368-9fc7-4fab-ab6b-4ab64407d3bf","system_id":"levelo_inurba_marseille","lat":43.28855,"lon":5.4251,"is_reserved":false,"is_disabled":false,"rental_uris":{"android":"levelo://app?vid=553f8368-9fc7-4fab-ab6b-4ab64407d3bf","ios":"levelo://app?vid=553f8368-9fc7-4fab-ab6b-4ab64407d3bf"},"vehicle_type_id":"4","last_reported":1758211883,"current_range_meters":16800,"station_id":"","pricing_plan_id":"cebpf4jnsgd1na2vs0mg"},{"bike_id":"d254d18a-8a90-42a6-8817-961ca6760683","system_id":"levelo_inurba_marseille","lat":43.31723,"lon":5.42397,"is_reserved":false,"is_disabled":false,"rental_uris":{"android":"levelo://app?vid=d254d18a-8a90-42a6-8817-961ca6760683","ios":"levelo://app?vid=d254d18a-8a90-42a6-8817-961ca6760683"},"vehicle_type_id":"4","last_reported":1758211883,"current_range_meters":17200,"station_id":"ce4bhp92rcd13ifvqhbg","pricing_plan_id":"cebpf4jnsgd1na2vs0mg"},{"bike_id":"c43882b1-5e02-4ad9-b699-728f77e5b88f","system_id":"levelo_inurba_marseille","lat":43.31517,"lon":5.37318,"is_reserved":false,"is_disabled":true,"rental_uris":{"android":"levelo://app?vid=c43882b1-5e02-4ad9-b699-728f77e5b88f","ios":"levelo://app?vid=c43882b1-5e02-4ad9-b699-728f77e5b88f"},"vehicle_type_id":"4","last_reported":1758211883,"current_range_meters":17200,"station_id":"ce4bgt12rcd13ifvqcd0","pricing_plan_id":"cebpf4jnsgd1na2vs0mg"},{"bike_id":"444b2dd7-03dc-4d8f-8e7f-442801b28af4","system_id":"levelo_inurba_marseille","lat":43.30797,"lon":5.43524,"is_reserved":false,"is_disabled":false,"rental_uris":{"android":"levelo://app?vid=444b2dd7-03dc-4d8f-8e7f-442801b28af4","ios":"levelo://app?vid=444b2dd7-03dc-4d8f-8e7f-442801b28af4"},"vehicle_type_id":"4","last_reported":1758211883,"current_range_meters":17200,"station_id":"ce4bhph2rcd13ifvqheg","pricing_plan_id":"cebpf4jnsgd1na2vs0mg"},{"bike_id":"06319b1f-bb7d-4df8-beb6-4cc890d4ea37","system_id":"levelo_inurba_marseille","lat":43.33785,"lon":5.37452,"is_reserved":false,"is_disabled":false,"rental_uris":{"android":"levelo://app?vid=06319b1f-bb7d-4df8-beb6-4cc890d4ea37","ios":"levelo://app?vid=06319b1f-bb7d-4df8-beb6-4cc890d4ea37"},"vehicle_type_id":"4","last_reported":1758211883,"current_range_meters":17600,"station_id":"","pricing_plan_id":"cebpf4jnsgd1na2vs0mg"},{"bike_id":"4b25ad77-301b-4be3-89f8-94f9df20251d","system_id":"levelo_inurba_marseille","lat":43.27498,"lon":5.42457,"is_reserved":false,"is_disabled":true,"rental_uris":{"android":"levelo://app?vid=4b25ad77-301b-4be3-89f8-94f9df20251d","ios":"levelo://app?vid=4b25ad77-301b-4be3-89f8-94f9df20251d"},"vehicle_type_id":"4","last_reported":1758211883,"current_range_meters":17600,"station_id":"ce4bhn92rcd13ifvqgrg","pricing_plan_id":"cebpf4jnsgd1na2vs0mg"},{"bike_id":"af2f278e-099e-4c69-9d08-9c9c152ad899","system_id":"levelo_inurba_marseille","lat":43.29524,"lon":5.38547,"is_reserved":false,"is_disabled":false,"rental_uris":{"android":"levelo://app?vid=af2f278e-099e-4c69-9d08-9c9c152ad899","ios":"levelo://app?vid=af2f278e-099e-4c69-9d08-9c9c152ad899"},"vehicle_type_id":"4","last_reported":1758211883,"current_range_meters":17200,"station_id":"ce4bgih2rcd13ifvqba0","pricing_plan_id":"cebpf4jnsgd1na2vs0mg"},{"bike_id":"34dc4c05-5010-47f0-80b7-6fc2287076b4","system_id":"levelo_inurba_marseille","lat":43.26786,"lon":5.39418,"is_reserved":false,"is_disabled":false,"rental_uris":{"android":"levelo://app?vid=34dc4c05-5010-47f0-80b7-6fc2287076b4","ios":"levelo://app?vid=34dc4c05-5010-47f0-80b7-6fc2287076b4"},"vehicle_type_id":"4","last_reported":1758211883,"current_range_meters":17600,"station_id":"ce4bhh12rcd13ifvqfg0","pricing_plan_id":"cebpf4jnsgd1na2vs0mg"},{"bike_id":"43d57fd4-047e-4ac8-97e5-ec9b96239472","system_id":"levelo_inurba_marseille","lat":43.32942,"lon":5.38968,"is_reserved":false,"is_disabled":false,"rental_uris":{"android":"levelo://app?vid=43d57fd4-047e-4ac8-97e5-ec9b96239472","ios":"levelo://app?vid=43d57fd4-047e-4ac8-97e5-ec9b96239472"},"vehicle_type_id":"4","last_reported":1758211883,"current_range_meters":17600,"station_id":"","pricing_plan_id":"cebpf4jnsgd1na2vs0mg"},{"bike_id":"08faf21b-3bbb-4d4e-975e-8b59b390f18e","system_id":"levelo_inurba_marseille","lat":43.29564,"lon":5.37523,"is_reserved":false,"is_disabled":false,"rental_uris":{"android":"levelo://app?vid=08faf21b-3bbb-4d4e-975e-8b59b390f18e","ios":"levelo://app?vid=08faf21b-3bbb-4d4e-975e-8b59b390f18e"},"vehicle_type_id":"4","last_reported":1758211883,"current_range_meters":18000,"station_id":"ce4bgkp2rcd13ifvqbmg","pricing_plan_id":"cebpf4jnsgd1na2vs0mg"},{"bike_id":"83981190-f3d9-45bf-a46e-4ee5e9cd6e7e","system_id":"levelo_inurba_marseille","lat":43.232,"lon":5.39986,"is_reserved":false,"is_disabled":false,"rental_uris":{"android":"levelo://app?vid=83981190-f3d9-45bf-a46e-4ee5e9cd6e7e","ios":"levelo://app?vid=83981190-f3d9-45bf-a46e-4ee5e9cd6e7e"},"vehicle_type_id":"4","last_reported":1758211883,"current_range_meters":18000,"station_id":"ce4bhn12rcd13ifvqgqg","pricing_plan_id":"cebpf4jnsgd1na2vs0mg"},{"bike_id":"91e835c4-87ed-442b-9364-d2053c1c7085","system_id":"levelo_inurba_marseille","lat":43.29894,"lon":5.3747,"is_reserved":false,"is_disabled":false,"rental_uris":{"android":"levelo://app?vid=91e835c4-87ed-442b-9364-d2053c1c7085","ios":"levelo://app?vid=91e835c4-87ed-442b-9364-d2053c1c7085"},"vehicle_type_id":"4","last_reported":1758211883,"current_range_meters":18000,"station_id":"","pricing_plan_id":"cebpf4jnsgd1na2vs0mg"},{"bike_id":"a03c09ad-b3e9-4837-a2db-c7aaf6087e68","system_id":"levelo_inurba_marseille","lat":43.28081,"lon":5.39661,"is_reserved":false,"is_disabled":false,"rental_uris":{"android":"levelo://app?vid=a03c09ad-b3e9-4837-a2db-c7aaf6087e68","ios":"levelo://app?vid=a03c09ad-b3e9-4837-a2db-c7aaf6087e68"},"vehicle_type_id":"4","last_reported":1758211883,"current_range_meters":18000,"station_id":"ce4bho12rcd13ifvqh2g","pricing_plan_id":"cebpf4jnsgd1na2vs0mg"},{"bike_id":"038cfc23-81bd-49bf-922d-d21301e89a9d","system_id":"levelo_inurba_marseille","lat":43.29003,"lon":5.35625,"is_reserved":false,"is_disabled":false,"rental_uris":{"android":"levelo://app?vid=038cfc23-81bd-49bf-922d-d21301e89a9d","ios":"levelo://app?vid=038cfc23-81bd-49bf-922d-d21301e89a9d"},"vehicle_type_id":"4","last_reported":1758211883,"current_range_meters":18800,"station_id":"ce4bhb92rcd13ifvqen0","pricing_plan_id":"cebpf4jnsgd1na2vs0mg"},{"bike_id":"bea1d3f2-73ba-4309-a201-b3ae7e900784","system_id":"levelo_inurba_marseille","lat":43.26536,"lon":5.37315,"is_reserved":false,"is_disabled":false,"rental_uris":{"android":"levelo://app?vid=bea1d3f2-73ba-4309-a201-b3ae7e900784","ios":"levelo://app?vid=bea1d3f2-73ba-4309-a201-b3ae7e900784"},"vehicle_type_id":"4","last_reported":1758211883,"current_range_meters":18800,"station_id":"ce4bhg12rcd13ifvqf70","pricing_plan_id":"cebpf4jnsgd1na2vs0mg"},{"bike_id":"9c0693b2-33f4-40d9-85fa-754a770a9d54","system_id":"levelo_inurba_marseille","lat":43.295188,"lon":5.390328,"is_reserved":false,"is_disabled":false,"rental_uris":{"android":"levelo://app?vid=9c0693b2-33f4-40d9-85fa-754a770a9d54","ios":"levelo://app?vid=9c0693b2-33f4-40d9-85fa-754a770a9d54"},"vehicle_type_id":"4","last_reported":1758211883,"current_range_meters":18800,"station_id":"ce4bh312rcd13ifvqdj0","pricing_plan_id":"cebpf4jnsgd1na2vs0mg"},{"bike_id":"adbab27a-e95d-4607-b8a3-6dfd23cf79c3","system_id":"levelo_inurba_marseille","lat":43.31724,"lon":5.4241,"is_reserved":false,"is_disabled":false,"rental_uris":{"android":"levelo://app?vid=adbab27a-e95d-4607-b8a3-6dfd23cf79c3","ios":"levelo://app?vid=adbab27a-e95d-4607-b8a3-6dfd23cf79c3"},"vehicle_type_id":"4","last_reported":1758211883,"current_range_meters":18800,"station_id":"ce4bhp92rcd13ifvqhbg","pricing_plan_id":"cebpf4jnsgd1na2vs0mg"},{"bike_id":"b4278d1e-b9ba-4544-b1ff-6d90b6e2cd3d","system_id":"levelo_inurba_marseille","lat":43.295829,"lon":5.375652,"is_reserved":false,"is_disabled":false,"rental_uris":{"android":"levelo://app?vid=b4278d1e-b9ba-4544-b1ff-6d90b6e2cd3d","ios":"levelo://app?vid=b4278d1e-b9ba-4544-b1ff-6d90b6e2cd3d"},"vehicle_type_id":"4","last_reported":1758211883,"current_range_meters":19200,"station_id":"","pricing_plan_id":"cebpf4jnsgd1na2vs0mg"},{"bike_id":"f85a8c4d-f9d0-4136-9b57-8bfb28db950c","system_id":"levelo_inurba_marseille","lat":43.31901,"lon":5.37428,"is_reserved":false,"is_disabled":false,"rental_uris":{"android":"levelo://app?vid=f85a8c4d-f9d0-4136-9b57-8bfb28db950c","ios":"levelo://app?vid=f85a8c4d-f9d0-4136-9b57-8bfb28db950c"},"vehicle_type_id":"4","last_reported":1758211883,"current_range_meters":19200,"station_id":"","pricing_plan_id":"cebpf4jnsgd1na2vs0mg"},{"bike_id":"4b8537a5-4736-4d92-b52d-2168a000a2e9","system_id":"levelo_inurba_marseille","lat":43.28948,"lon":5.36418,"is_reserved":false,"is_disabled":true,"rental_uris":{"android":"levelo://app?vid=4b8537a5-4736-4d92-b52d-2168a000a2e9","ios":"levelo://app?vid=4b8537a5-4736-4d92-b52d-2168a000a2e9"},"vehicle_type_id":"4","last_reported":1758211883,"current_range_meters":19200,"station_id":"ce4bhc92rcd13ifvqetg","pricing_plan_id":"cebpf4jnsgd1na2vs0mg"},{"bike_id":"4b3e8128-0cba-44be-a6fb-61899439f2dd","system_id":"levelo_inurba_marseille","lat":43.23191,"lon":5.39978,"is_reserved":false,"is_disabled":false,"rental_uris":{"android":"levelo://app?vid=4b3e8128-0cba-44be-a6fb-61899439f2dd","ios":"levelo://app?vid=4b3e8128-0cba-44be-a6fb-61899439f2dd"},"vehicle_type_id":"4","last_reported":1758211883,"current_range_meters":19200,"station_id":"ce4bhn12rcd13ifvqgqg","pricing_plan_id":"cebpf4jnsgd1na2vs0mg"},{"bike_id":"5023d1e7-800b-4888-9be2-e050f286d68a","system_id":"levelo_inurba_marseille","lat":43.24806,"lon":5.37458,"is_reserved":false,"is_disabled":false,"rental_uris":{"android":"levelo://app?vid=5023d1e7-800b-4888-9be2-e050f286d68a","ios":"levelo://app?vid=5023d1e7-800b-4888-9be2-e050f286d68a"},"vehicle_type_id":"4","last_reported":1758211883,"current_range_meters":19200,"station_id":"ce4bhgh2rcd13ifvqfb0","pricing_plan_id":"cebpf4jnsgd1na2vs0mg"},{"bike_id":"00ad1bd4-ccc6-4858-8393-4441511e3879","system_id":"levelo_inurba_marseille","lat":43.25586,"lon":5.38225,"is_reserved":false,"is_disabled":false,"rental_uris":{"android":"levelo://app?vid=00ad1bd4-ccc6-4858-8393-4441511e3879","ios":"levelo://app?vid=00ad1bd4-ccc6-4858-8393-4441511e3879"},"vehicle_type_id":"4","last_reported":1758211883,"current_range_meters":19200,"station_id":"ce4bhih2rcd13ifvqfs0","pricing_plan_id":"cebpf4jnsgd1na2vs0mg"},{"bike_id":"2a6533a0-14b1-42b3-b5a4-c2629c3539cf","system_id":"levelo_inurba_marseille","lat":43.2848,"lon":5.38428,"is_reserved":false,"is_disabled":true,"rental_uris":{"android":"levelo://app?vid=2a6533a0-14b1-42b3-b5a4-c2629c3539cf","ios":"levelo://app?vid=2a6533a0-14b1-42b3-b5a4-c2629c3539cf"},"vehicle_type_id":"4","last_reported":1758211883,"current_range_meters":19600,"station_id":"ce4bh512rcd13ifvqe3g","pricing_plan_id":"cebpf4jnsgd1na2vs0mg"},{"bike_id":"42ce7218-2b24-4a07-b887-13e0259f540b","system_id":"levelo_inurba_marseille","lat":43.2952,"lon":5.39025,"is_reserved":false,"is_disabled":false,"rental_uris":{"android":"levelo://app?vid=42ce7218-2b24-4a07-b887-13e0259f540b","ios":"levelo://app?vid=42ce7218-2b24-4a07-b887-13e0259f540b"},"vehicle_type_id":"4","last_reported":1758211883,"current_range_meters":19600,"station_id":"ce4bh3p2rcd13ifvqdp0","pricing_plan_id":"cebpf4jnsgd1na2vs0mg"},{"bike_id":"fba32ab2-1e43-4af0-a1e4-aa9ec1d370ca","system_id":"levelo_inurba_marseille","lat":43.24172,"lon":5.36384,"is_reserved":false,"is_disabled":false,"rental_uris":{"android":"levelo://app?vid=fba32ab2-1e43-4af0-a1e4-aa9ec1d370ca","ios":"levelo://app?vid=fba32ab2-1e43-4af0-a1e4-aa9ec1d370ca"},"vehicle_type_id":"4","last_reported":1758211883,"current_range_meters":19600,"station_id":"cpo36qri1sfpv3e86is0","pricing_plan_id":"cebpf4jnsgd1na2vs0mg"},{"bike_id":"518eef5b-9e3c-4b06-94a9-56e70af9d262","system_id":"levelo_inurba_marseille","lat":43.30823,"lon":5.38147,"is_reserved":false,"is_disabled":true,"rental_uris":{"android":"levelo://app?vid=518eef5b-9e3c-4b06-94a9-56e70af9d262","ios":"levelo://app?vid=518eef5b-9e3c-4b06-94a9-56e70af9d262"},"vehicle_type_id":"4","last_reported":1758211883,"current_range_meters":19600,"station_id":"ce4bgt12rcd13ifvqce0","pricing_plan_id":"cebpf4jnsgd1na2vs0mg"},{"bike_id":"af73c4cf-f4c8-4d3b-902e-58e02def4a83","system_id":"levelo_inurba_marseille","lat":43.2954,"lon":5.374932,"is_reserved":false,"is_disabled":false,"rental_uris":{"android":"levelo://app?vid=af73c4cf-f4c8-4d3b-902e-58e02def4a83","ios":"levelo://app?vid=af73c4cf-f4c8-4d3b-902e-58e02def4a83"},"vehicle_type_id":"4","last_reported":1758211883,"current_range_meters":19600,"station_id":"ce4bgkp2rcd13ifvqbmg","pricing_plan_id":"cebpf4jnsgd1na2vs0mg"},{"bike_id":"c08fab13-c1df-4b8c-b8d5-7ac32770ac63","system_id":"levelo_inurba_marseille","lat":43.27374,"lon":5.36257,"is_reserved":false,"is_disabled":false,"rental_uris":{"android":"levelo://app?vid=c08fab13-c1df-4b8c-b8d5-7ac32770ac63","ios":"levelo://app?vid=c08fab13-c1df-4b8c-b8d5-7ac32770ac63"},"vehicle_type_id":"4","last_reported":1758211883,"current_range_meters":19600,"station_id":"ce4bhbh2rcd13ifvqeo0","pricing_plan_id":"cebpf4jnsgd1na2vs0mg"},{"bike_id":"40646b6d-992c-4d14-b0f8-6c16472024c2","system_id":"levelo_inurba_marseille","lat":43.21744,"lon":5.34602,"is_reserved":false,"is_disabled":true,"rental_uris":{"android":"levelo://app?vid=40646b6d-992c-4d14-b0f8-6c16472024c2","ios":"levelo://app?vid=40646b6d-992c-4d14-b0f8-6c16472024c2"},"vehicle_type_id":"4","last_reported":1758211883,"current_range_meters":20000,"station_id":"","pricing_plan_id":"cebpf4jnsgd1na2vs0mg"},{"bike_id":"835975a0-27c7-47e7-bc1c-b8ba0b505127","system_id":"levelo_inurba_marseille","lat":43.32569,"lon":5.3781,"is_reserved":false,"is_disabled":false,"rental_uris":{"android":"levelo://app?vid=835975a0-27c7-47e7-bc1c-b8ba0b505127","ios":"levelo://app?vid=835975a0-27c7-47e7-bc1c-b8ba0b505127"},"vehicle_type_id":"4","last_reported":1758211883,"current_range_meters":20000,"station_id":"","pricing_plan_id":"cebpf4jnsgd1na2vs0mg"},{"bike_id":"6d19e81b-a98e-41f4-b608-54cd624282a2","system_id":"levelo_inurba_marseille","lat":43.31715,"lon":5.42395,"is_reserved":false,"is_disabled":false,"rental_uris":{"android":"levelo://app?vid=6d19e81b-a98e-41f4-b608-54cd624282a2","ios":"levelo://app?vid=6d19e81b-a98e-41f4-b608-54cd624282a2"},"vehicle_type_id":"4","last_reported":1758211883,"current_range_meters":20000,"station_id":"ce4bhp92rcd13ifvqhbg","pricing_plan_id":"cebpf4jnsgd1na2vs0mg"},{"bike_id":"146e86e3-69a5-4741-b69e-9ab4db98e4b8","system_id":"levelo_inurba_marseille","lat":43.27067,"lon":5.42283,"is_reserved":false,"is_disabled":false,"rental_uris":{"android":"levelo://app?vid=146e86e3-69a5-4741-b69e-9ab4db98e4b8","ios":"levelo://app?vid=146e86e3-69a5-4741-b69e-9ab4db98e4b8"},"vehicle_type_id":"4","last_reported":1758211883,"current_range_meters":20000,"station_id":"ce4bhk92rcd13ifvqgb0","pricing_plan_id":"cebpf4jnsgd1na2vs0mg"},{"bike_id":"f0a67aa7-08d4-4b3d-8032-075f3168e1c5","system_id":"levelo_inurba_marseille","lat":43.28078,"lon":5.3966,"is_reserved":false,"is_disabled":false,"rental_uris":{"android":"levelo://app?vid=f0a67aa7-08d4-4b3d-8032-075f3168e1c5","ios":"levelo://app?vid=f0a67aa7-08d4-4b3d-8032-075f3168e1c5"},"vehicle_type_id":"4","last_reported":1758211883,"current_range_meters":20400,"station_id":"ce4bho12rcd13ifvqh2g","pricing_plan_id":"cebpf4jnsgd1na2vs0mg"},{"bike_id":"c5e95224-360e-4c4c-b6ca-a337a16371e5","system_id":"levelo_inurba_marseille","lat":43.26556,"lon":5.37281,"is_reserved":false,"is_disabled":false,"rental_uris":{"android":"levelo://app?vid=c5e95224-360e-4c4c-b6ca-a337a16371e5","ios":"levelo://app?vid=c5e95224-360e-4c4c-b6ca-a337a16371e5"},"vehicle_type_id":"4","last_reported":1758211883,"current_range_meters":20400,"station_id":"ce4bhg12rcd13ifvqf70","pricing_plan_id":"cebpf4jnsgd1na2vs0mg"},{"bike_id":"c4706891-6ce1-4440-91ff-a3ecf2ff007e","system_id":"levelo_inurba_marseille","lat":43.26374,"lon":5.40075,"is_reserved":false,"is_disabled":false,"rental_uris":{"android":"levelo://app?vid=c4706891-6ce1-4440-91ff-a3ecf2ff007e","ios":"levelo://app?vid=c4706891-6ce1-4440-91ff-a3ecf2ff007e"},"vehicle_type_id":"4","last_reported":1758211883,"current_range_meters":20400,"station_id":"","pricing_plan_id":"cebpf4jnsgd1na2vs0mg"},{"bike_id":"ec30100b-e313-4a6d-9419-6cd4a2cb3ebf","system_id":"levelo_inurba_marseille","lat":43.22929,"lon":5.35381,"is_reserved":false,"is_disabled":false,"rental_uris":{"android":"levelo://app?vid=ec30100b-e313-4a6d-9419-6cd4a2cb3ebf","ios":"levelo://app?vid=ec30100b-e313-4a6d-9419-6cd4a2cb3ebf"},"vehicle_type_id":"4","last_reported":1758211883,"current_range_meters":20400,"station_id":"cpo3532slgdg3j2ikp40","pricing_plan_id":"cebpf4jnsgd1na2vs0mg"},{"bike_id":"3325b9fd-efe9-458e-9c8f-4f9413f00611","system_id":"levelo_inurba_marseille","lat":43.270633,"lon":5.402575,"is_reserved":false,"is_disabled":false,"rental_uris":{"android":"levelo://app?vid=3325b9fd-efe9-458e-9c8f-4f9413f00611","ios":"levelo://app?vid=3325b9fd-efe9-458e-9c8f-4f9413f00611"},"vehicle_type_id":"4","last_reported":1758211883,"current_range_meters":20400,"station_id":"","pricing_plan_id":"cebpf4jnsgd1na2vs0mg"},{"bike_id":"4faf8c26-e217-41f0-9860-7f817ec251d4","system_id":"levelo_inurba_marseille","lat":43.25337,"lon":5.42178,"is_reserved":false,"is_disabled":false,"rental_uris":{"android":"levelo://app?vid=4faf8c26-e217-41f0-9860-7f817ec251d4","ios":"levelo://app?vid=4faf8c26-e217-41f0-9860-7f817ec251d4"},"vehicle_type_id":"4","last_reported":1758211883,"current_range_meters":20400,"station_id":"st_d2m65c5bi1j21697t3ng","pricing_plan_id":"cebpf4jnsgd1na2vs0mg"},{"bike_id":"a92a7d71-7f62-4f59-bb93-c292585f87d6","system_id":"levelo_inurba_marseille","lat":43.2862,"lon":5.35104,"is_reserved":false,"is_disabled":false,"rental_uris":{"android":"levelo://app?vid=a92a7d71-7f62-4f59-bb93-c292585f87d6","ios":"levelo://app?vid=a92a7d71-7f62-4f59-bb93-c292585f87d6"},"vehicle_type_id":"4","last_reported":1758211883,"current_range_meters":20400,"station_id":"ce4bhch2rcd13ifvqeug","pricing_plan_id":"cebpf4jnsgd1na2vs0mg"},{"bike_id":"af92115d-6f7a-49ce-a65e-77f9182df835","system_id":"levelo_inurba_marseille","lat":43.21717,"lon":5.34604,"is_reserved":false,"is_disabled":true,"rental_uris":{"android":"levelo://app?vid=af92115d-6f7a-49ce-a65e-77f9182df835","ios":"levelo://app?vid=af92115d-6f7a-49ce-a65e-77f9182df835"},"vehicle_type_id":"4","last_reported":1758211883,"current_range_meters":20800,"station_id":"st_cvj6r9ubvosntc0bgbag","pricing_plan_id":"cebpf4jnsgd1na2vs0mg"},{"bike_id":"c6de10fb-0bda-4389-82be-37e158ecfb30","system_id":"levelo_inurba_marseille","lat":43.29793,"lon":5.38099,"is_reserved":false,"is_disabled":false,"rental_uris":{"android":"levelo://app?vid=c6de10fb-0bda-4389-82be-37e158ecfb30","ios":"levelo://app?vid=c6de10fb-0bda-4389-82be-37e158ecfb30"},"vehicle_type_id":"4","last_reported":1758211883,"current_range_meters":20800,"station_id":"ce4bgip2rcd13ifvqbb0","pricing_plan_id":"cebpf4jnsgd1na2vs0mg"},{"bike_id":"676728c4-3ea8-4dd5-aa61-a21c27b9eddb","system_id":"levelo_inurba_marseille","lat":43.23183,"lon":5.3998,"is_reserved":false,"is_disabled":false,"rental_uris":{"android":"levelo://app?vid=676728c4-3ea8-4dd5-aa61-a21c27b9eddb","ios":"levelo://app?vid=676728c4-3ea8-4dd5-aa61-a21c27b9eddb"},"vehicle_type_id":"4","last_reported":1758211883,"current_range_meters":20800,"station_id":"ce4bhn12rcd13ifvqgqg","pricing_plan_id":"cebpf4jnsgd1na2vs0mg"},{"bike_id":"18d084b7-d987-4ff9-87e1-c9d861d3ea61","system_id":"levelo_inurba_marseille","lat":43.27375,"lon":5.3626,"is_reserved":false,"is_disabled":false,"rental_uris":{"android":"levelo://app?vid=18d084b7-d987-4ff9-87e1-c9d861d3ea61","ios":"levelo://app?vid=18d084b7-d987-4ff9-87e1-c9d861d3ea61"},"vehicle_type_id":"4","last_reported":1758211883,"current_range_meters":20800,"station_id":"ce4bhbh2rcd13ifvqeo0","pricing_plan_id":"cebpf4jnsgd1na2vs0mg"},{"bike_id":"561cf22c-9966-4508-a8ea-deada2bf1ad0","system_id":"levelo_inurba_marseille","lat":43.29965,"lon":5.385,"is_reserved":false,"is_disabled":false,"rental_uris":{"android":"levelo://app?vid=561cf22c-9966-4508-a8ea-deada2bf1ad0","ios":"levelo://app?vid=561cf22c-9966-4508-a8ea-deada2bf1ad0"},"vehicle_type_id":"4","last_reported":1758211883,"current_range_meters":20800,"station_id":"ce4bgj92rcd13ifvqbd0","pricing_plan_id":"cebpf4jnsgd1na2vs0mg"},{"bike_id":"cdf6b260-0c44-4678-9203-42f93b76065d","system_id":"levelo_inurba_marseille","lat":43.26566,"lon":5.39012,"is_reserved":false,"is_disabled":false,"rental_uris":{"android":"levelo://app?vid=cdf6b260-0c44-4678-9203-42f93b76065d","ios":"levelo://app?vid=cdf6b260-0c44-4678-9203-42f93b76065d"},"vehicle_type_id":"4","last_reported":1758211883,"current_range_meters":20800,"station_id":"ce4bhe12rcd13ifvqf30","pricing_plan_id":"cebpf4jnsgd1na2vs0mg"},{"bike_id":"70b30cec-a21d-4e27-8c28-ecf0ed497000","system_id":"levelo_inurba_marseille","lat":43.317272,"lon":5.423909,"is_reserved":false,"is_disabled":false,"rental_uris":{"android":"levelo://app?vid=70b30cec-a21d-4e27-8c28-ecf0ed497000","ios":"levelo://app?vid=70b30cec-a21d-4e27-8c28-ecf0ed497000"},"vehicle_type_id":"4","last_reported":1758211883,"current_range_meters":20800,"station_id":"ce4bhp92rcd13ifvqhbg","pricing_plan_id":"cebpf4jnsgd1na2vs0mg"},{"bike_id":"5304049e-91d5-46c7-b1ae-caae14291e88","system_id":"levelo_inurba_marseille","lat":43.29252,"lon":5.37631,"is_reserved":false,"is_disabled":true,"rental_uris":{"android":"levelo://app?vid=5304049e-91d5-46c7-b1ae-caae14291e88","ios":"levelo://app?vid=5304049e-91d5-46c7-b1ae-caae14291e88"},"vehicle_type_id":"4","last_reported":1758211883,"current_range_meters":21600,"station_id":"ce4bgi12rcd13ifvqb80","pricing_plan_id":"cebpf4jnsgd1na2vs0mg"},{"bike_id":"47775078-4540-4c32-aed8-6425dfb6c115","system_id":"levelo_inurba_marseille","lat":43.26031,"lon":5.37549,"is_reserved":false,"is_disabled":false,"rental_uris":{"android":"levelo://app?vid=47775078-4540-4c32-aed8-6425dfb6c115","ios":"levelo://app?vid=47775078-4540-4c32-aed8-6425dfb6c115"},"vehicle_type_id":"4","last_reported":1758211883,"current_range_meters":21600,"station_id":"ce4bhgh2rcd13ifvqfa0","pricing_plan_id":"cebpf4jnsgd1na2vs0mg"},{"bike_id":"170dc97c-0095-4492-841e-00cbb74f820f","system_id":"levelo_inurba_marseille","lat":43.28487,"lon":5.3842,"is_reserved":false,"is_disabled":false,"rental_uris":{"android":"levelo://app?vid=170dc97c-0095-4492-841e-00cbb74f820f","ios":"levelo://app?vid=170dc97c-0095-4492-841e-00cbb74f820f"},"vehicle_type_id":"4","last_reported":1758211883,"current_range_meters":21600,"station_id":"ce4bh512rcd13ifvqe3g","pricing_plan_id":"cebpf4jnsgd1na2vs0mg"},{"bike_id":"5613f75e-13dd-421b-b027-149ea8b149c7","system_id":"levelo_inurba_marseille","lat":43.24598,"lon":5.43173,"is_reserved":false,"is_disabled":false,"rental_uris":{"android":"levelo://app?vid=5613f75e-13dd-421b-b027-149ea8b149c7","ios":"levelo://app?vid=5613f75e-13dd-421b-b027-149ea8b149c7"},"vehicle_type_id":"4","last_reported":1758211883,"current_range_meters":21600,"station_id":"st_d2m6c4gdas8pm72e190g","pricing_plan_id":"cebpf4jnsgd1na2vs0mg"},{"bike_id":"2836ce26-b1f8-4176-8d47-1ab6bd539431","system_id":"levelo_inurba_marseille","lat":43.32335,"lon":5.40624,"is_reserved":false,"is_disabled":false,"rental_uris":{"android":"levelo://app?vid=2836ce26-b1f8-4176-8d47-1ab6bd539431","ios":"levelo://app?vid=2836ce26-b1f8-4176-8d47-1ab6bd539431"},"vehicle_type_id":"4","last_reported":1758211883,"current_range_meters":21600,"station_id":"ce4bhq92rcd13ifvqhjg","pricing_plan_id":"cebpf4jnsgd1na2vs0mg"},{"bike_id":"4320c4a5-c4ef-4ba6-a362-f5aa9eb77c63","system_id":"levelo_inurba_marseille","lat":43.28701,"lon":5.3739,"is_reserved":false,"is_disabled":false,"rental_uris":{"android":"levelo://app?vid=4320c4a5-c4ef-4ba6-a362-f5aa9eb77c63","ios":"levelo://app?vid=4320c4a5-c4ef-4ba6-a362-f5aa9eb77c63"},"vehicle_type_id":"4","last_reported":1758211883,"current_range_meters":22000,"station_id":"ce4bh3p2rcd13ifvqdq0","pricing_plan_id":"cebpf4jnsgd1na2vs0mg"},{"bike_id":"77517afa-93ff-43d6-86e0-5d62dfd96c87","system_id":"levelo_inurba_marseille","lat":43.22532,"lon":5.34846,"is_reserved":false,"is_disabled":false,"rental_uris":{"android":"levelo://app?vid=77517afa-93ff-43d6-86e0-5d62dfd96c87","ios":"levelo://app?vid=77517afa-93ff-43d6-86e0-5d62dfd96c87"},"vehicle_type_id":"4","last_reported":1758211883,"current_range_meters":22000,"station_id":"","pricing_plan_id":"cebpf4jnsgd1na2vs0mg"},{"bike_id":"af0490b6-c1c9-4895-8a15-568d23e0a730","system_id":"levelo_inurba_marseille","lat":43.28052,"lon":5.40777,"is_reserved":false,"is_disabled":false,"rental_uris":{"android":"levelo://app?vid=af0490b6-c1c9-4895-8a15-568d23e0a730","ios":"levelo://app?vid=af0490b6-c1c9-4895-8a15-568d23e0a730"},"vehicle_type_id":"4","last_reported":1758211883,"current_range_meters":22000,"station_id":"","pricing_plan_id":"cebpf4jnsgd1na2vs0mg"},{"bike_id":"e66483f8-2d81-441b-822e-79a774a2a4e8","system_id":"levelo_inurba_marseille","lat":43.29784,"lon":5.3701,"is_reserved":false,"is_disabled":false,"rental_uris":{"android":"levelo://app?vid=e66483f8-2d81-441b-822e-79a774a2a4e8","ios":"levelo://app?vid=e66483f8-2d81-441b-822e-79a774a2a4e8"},"vehicle_type_id":"4","last_reported":1758211883,"current_range_meters":22000,"station_id":"","pricing_plan_id":"cebpf4jnsgd1na2vs0mg"},{"bike_id":"3d158a28-bece-4b10-9f82-ab3eb3313408","system_id":"levelo_inurba_marseille","lat":43.337485,"lon":5.374512,"is_reserved":false,"is_disabled":false,"rental_uris":{"android":"levelo://app?vid=3d158a28-bece-4b10-9f82-ab3eb3313408","ios":"levelo://app?vid=3d158a28-bece-4b10-9f82-ab3eb3313408"},"vehicle_type_id":"4","last_reported":1758211883,"current_range_meters":22000,"station_id":"","pricing_plan_id":"cebpf4jnsgd1na2vs0mg"},{"bike_id":"b810ec46-97ab-4356-95f9-0c9d02506d5a","system_id":"levelo_inurba_marseille","lat":43.24458,"lon":5.39039,"is_reserved":false,"is_disabled":false,"rental_uris":{"android":"levelo://app?vid=b810ec46-97ab-4356-95f9-0c9d02506d5a","ios":"levelo://app?vid=b810ec46-97ab-4356-95f9-0c9d02506d5a"},"vehicle_type_id":"4","last_reported":1758211883,"current_range_meters":22400,"station_id":"","pricing_plan_id":"cebpf4jnsgd1na2vs0mg"},{"bike_id":"1bd2f481-3ada-4ac5-b24d-3bbc9ede1a8a","system_id":"levelo_inurba_marseille","lat":43.297807,"lon":5.371085,"is_reserved":false,"is_disabled":false,"rental_uris":{"android":"levelo://app?vid=1bd2f481-3ada-4ac5-b24d-3bbc9ede1a8a","ios":"levelo://app?vid=1bd2f481-3ada-4ac5-b24d-3bbc9ede1a8a"},"vehicle_type_id":"4","last_reported":1758211883,"current_range_meters":22400,"station_id":"","pricing_plan_id":"cebpf4jnsgd1na2vs0mg"},{"bike_id":"fa04fbd4-83e8-40b3-968d-fa7925a28ab2","system_id":"levelo_inurba_marseille","lat":43.225335,"lon":5.348288,"is_reserved":false,"is_disabled":false,"rental_uris":{"android":"levelo://app?vid=fa04fbd4-83e8-40b3-968d-fa7925a28ab2","ios":"levelo://app?vid=fa04fbd4-83e8-40b3-968d-fa7925a28ab2"},"vehicle_type_id":"4","last_reported":1758211883,"current_range_meters":22400,"station_id":"","pricing_plan_id":"cebpf4jnsgd1na2vs0mg"},{"bike_id":"9ff71e53-307a-4b91-af24-fc0196821d6a","system_id":"levelo_inurba_marseille","lat":43.31329,"lon":5.3969,"is_reserved":false,"is_disabled":false,"rental_uris":{"android":"levelo://app?vid=9ff71e53-307a-4b91-af24-fc0196821d6a","ios":"levelo://app?vid=9ff71e53-307a-4b91-af24-fc0196821d6a"},"vehicle_type_id":"4","last_reported":1758211883,"current_range_meters":22400,"station_id":"ce4bgvp2rcd13ifvqcu0","pricing_plan_id":"cebpf4jnsgd1na2vs0mg"},{"bike_id":"0f7caa9f-1d1a-40d7-9b4a-2f8720e63681","system_id":"levelo_inurba_marseille","lat":43.30869,"lon":5.37539,"is_reserved":false,"is_disabled":false,"rental_uris":{"android":"levelo://app?vid=0f7caa9f-1d1a-40d7-9b4a-2f8720e63681","ios":"levelo://app?vid=0f7caa9f-1d1a-40d7-9b4a-2f8720e63681"},"vehicle_type_id":"4","last_reported":1758211883,"current_range_meters":22800,"station_id":"","pricing_plan_id":"cebpf4jnsgd1na2vs0mg"},{"bike_id":"2c734c36-442f-468e-ab47-e34ad5183e32","system_id":"levelo_inurba_marseille","lat":43.25772,"lon":5.41047,"is_reserved":false,"is_disabled":false,"rental_uris":{"android":"levelo://app?vid=2c734c36-442f-468e-ab47-e34ad5183e32","ios":"levelo://app?vid=2c734c36-442f-468e-ab47-e34ad5183e32"},"vehicle_type_id":"4","last_reported":1758211883,"current_range_meters":22800,"station_id":"","pricing_plan_id":"cebpf4jnsgd1na2vs0mg"},{"bike_id":"43656096-3901-4c1c-ba91-d79ba028e521","system_id":"levelo_inurba_marseille","lat":43.27487,"lon":5.42448,"is_reserved":false,"is_disabled":true,"rental_uris":{"android":"levelo://app?vid=43656096-3901-4c1c-ba91-d79ba028e521","ios":"levelo://app?vid=43656096-3901-4c1c-ba91-d79ba028e521"},"vehicle_type_id":"4","last_reported":1758211883,"current_range_meters":22800,"station_id":"ce4bhn92rcd13ifvqgrg","pricing_plan_id":"cebpf4jnsgd1na2vs0mg"},{"bike_id":"ca6cfb19-1dc3-4908-b50d-fcb1e1ef8339","system_id":"levelo_inurba_marseille","lat":43.2734,"lon":5.36252,"is_reserved":false,"is_disabled":false,"rental_uris":{"android":"levelo://app?vid=ca6cfb19-1dc3-4908-b50d-fcb1e1ef8339","ios":"levelo://app?vid=ca6cfb19-1dc3-4908-b50d-fcb1e1ef8339"},"vehicle_type_id":"4","last_reported":1758211883,"current_range_meters":22800,"station_id":"ce4bhbh2rcd13ifvqeo0","pricing_plan_id":"cebpf4jnsgd1na2vs0mg"},{"bike_id":"badc2240-5707-4a61-92a4-f8269e98d8d2","system_id":"levelo_inurba_marseille","lat":43.292284,"lon":5.360663,"is_reserved":false,"is_disabled":false,"rental_uris":{"android":"levelo://app?vid=badc2240-5707-4a61-92a4-f8269e98d8d2","ios":"levelo://app?vid=badc2240-5707-4a61-92a4-f8269e98d8d2"},"vehicle_type_id":"4","last_reported":1758211883,"current_range_meters":22800,"station_id":"ce4bhbh2rcd13ifvqeqg","pricing_plan_id":"cebpf4jnsgd1na2vs0mg"},{"bike_id":"52b462a5-92f2-420a-8d90-43daa62cdd99","system_id":"levelo_inurba_marseille","lat":43.32366,"lon":5.38886,"is_reserved":false,"is_disabled":false,"rental_uris":{"android":"levelo://app?vid=52b462a5-92f2-420a-8d90-43daa62cdd99","ios":"levelo://app?vid=52b462a5-92f2-420a-8d90-43daa62cdd99"},"vehicle_type_id":"4","last_reported":1758211883,"current_range_meters":22800,"station_id":"ce4bhqp2rcd13ifvqhog","pricing_plan_id":"cebpf4jnsgd1na2vs0mg"},{"bike_id":"a07a513e-e5a9-4481-8592-d991379bc662","system_id":"levelo_inurba_marseille","lat":43.337536,"lon":5.374536,"is_reserved":false,"is_disabled":false,"rental_uris":{"android":"levelo://app?vid=a07a513e-e5a9-4481-8592-d991379bc662","ios":"levelo://app?vid=a07a513e-e5a9-4481-8592-d991379bc662"},"vehicle_type_id":"4","last_reported":1758211883,"current_range_meters":22800,"station_id":"","pricing_plan_id":"cebpf4jnsgd1na2vs0mg"},{"bike_id":"b54d06bf-82d9-48cb-ae8d-065a5bec2925","system_id":"levelo_inurba_marseille","lat":43.26972,"lon":5.40306,"is_reserved":false,"is_disabled":false,"rental_uris":{"android":"levelo://app?vid=b54d06bf-82d9-48cb-ae8d-065a5bec2925","ios":"levelo://app?vid=b54d06bf-82d9-48cb-ae8d-065a5bec2925"},"vehicle_type_id":"4","last_reported":1758211883,"current_range_meters":23200,"station_id":"cjm6bp8fraef2m0cb0m0","pricing_plan_id":"cebpf4jnsgd1na2vs0mg"},{"bike_id":"a0826990-c8da-4478-b081-3c0239354bc0","system_id":"levelo_inurba_marseille","lat":43.28536,"lon":5.37789,"is_reserved":false,"is_disabled":false,"rental_uris":{"android":"levelo://app?vid=a0826990-c8da-4478-b081-3c0239354bc0","ios":"levelo://app?vid=a0826990-c8da-4478-b081-3c0239354bc0"},"vehicle_type_id":"4","last_reported":1758211883,"current_range_meters":23200,"station_id":"","pricing_plan_id":"cebpf4jnsgd1na2vs0mg"},{"bike_id":"dd68d72b-b321-4fcd-af1f-290909a848db","system_id":"levelo_inurba_marseille","lat":43.265591,"lon":5.390044,"is_reserved":false,"is_disabled":false,"rental_uris":{"android":"levelo://app?vid=dd68d72b-b321-4fcd-af1f-290909a848db","ios":"levelo://app?vid=dd68d72b-b321-4fcd-af1f-290909a848db"},"vehicle_type_id":"4","last_reported":1758211883,"current_range_meters":23200,"station_id":"ce4bhe12rcd13ifvqf30","pricing_plan_id":"cebpf4jnsgd1na2vs0mg"},{"bike_id":"98dacb02-5bdd-4085-ab3d-9582a2c17dea","system_id":"levelo_inurba_marseille","lat":43.23193,"lon":5.35551,"is_reserved":false,"is_disabled":false,"rental_uris":{"android":"levelo://app?vid=98dacb02-5bdd-4085-ab3d-9582a2c17dea","ios":"levelo://app?vid=98dacb02-5bdd-4085-ab3d-9582a2c17dea"},"vehicle_type_id":"4","last_reported":1758211883,"current_range_meters":23200,"station_id":"ce4bhu92rcd13ifvqi70","pricing_plan_id":"cebpf4jnsgd1na2vs0mg"},{"bike_id":"3edab8b5-08ab-4bd7-a8e3-46e14fec2b69","system_id":"levelo_inurba_marseille","lat":43.22569,"lon":5.41593,"is_reserved":false,"is_disabled":false,"rental_uris":{"android":"levelo://app?vid=3edab8b5-08ab-4bd7-a8e3-46e14fec2b69","ios":"levelo://app?vid=3edab8b5-08ab-4bd7-a8e3-46e14fec2b69"},"vehicle_type_id":"4","last_reported":1758211883,"current_range_meters":23200,"station_id":"st_d2o4gvlbi1j2169b742g","pricing_plan_id":"cebpf4jnsgd1na2vs0mg"},{"bike_id":"5ebdbe86-9bd9-4f97-a39b-82a77b050d9a","system_id":"levelo_inurba_marseille","lat":43.231781,"lon":5.399933,"is_reserved":false,"is_disabled":false,"rental_uris":{"android":"levelo://app?vid=5ebdbe86-9bd9-4f97-a39b-82a77b050d9a","ios":"levelo://app?vid=5ebdbe86-9bd9-4f97-a39b-82a77b050d9a"},"vehicle_type_id":"4","last_reported":1758211883,"current_range_meters":23200,"station_id":"ce4bhn12rcd13ifvqgqg","pricing_plan_id":"cebpf4jnsgd1na2vs0mg"},{"bike_id":"e5dd9a0e-a122-4005-a718-fcd69b226c9b","system_id":"levelo_inurba_marseille","lat":43.29711,"lon":5.37706,"is_reserved":false,"is_disabled":true,"rental_uris":{"android":"levelo://app?vid=e5dd9a0e-a122-4005-a718-fcd69b226c9b","ios":"levelo://app?vid=e5dd9a0e-a122-4005-a718-fcd69b226c9b"},"vehicle_type_id":"4","last_reported":1758211883,"current_range_meters":23200,"station_id":"","pricing_plan_id":"cebpf4jnsgd1na2vs0mg"},{"bike_id":"d90a47f1-7cb2-4236-96cb-834d8963385a","system_id":"levelo_inurba_marseille","lat":43.29803,"lon":5.38088,"is_reserved":false,"is_disabled":false,"rental_uris":{"android":"levelo://app?vid=d90a47f1-7cb2-4236-96cb-834d8963385a","ios":"levelo://app?vid=d90a47f1-7cb2-4236-96cb-834d8963385a"},"vehicle_type_id":"4","last_reported":1758211883,"current_range_meters":23200,"station_id":"ce4bgip2rcd13ifvqbb0","pricing_plan_id":"cebpf4jnsgd1na2vs0mg"},{"bike_id":"9f1244cf-3f00-4722-8239-60c080dc53c0","system_id":"levelo_inurba_marseille","lat":43.231938,"lon":5.355515,"is_reserved":false,"is_disabled":false,"rental_uris":{"android":"levelo://app?vid=9f1244cf-3f00-4722-8239-60c080dc53c0","ios":"levelo://app?vid=9f1244cf-3f00-4722-8239-60c080dc53c0"},"vehicle_type_id":"4","last_reported":1758211883,"current_range_meters":23200,"station_id":"ce4bhu92rcd13ifvqi70","pricing_plan_id":"cebpf4jnsgd1na2vs0mg"},{"bike_id":"2dbb25d8-e9da-48a9-99d5-d9f17b655900","system_id":"levelo_inurba_marseille","lat":43.24167,"lon":5.36392,"is_reserved":false,"is_disabled":false,"rental_uris":{"android":"levelo://app?vid=2dbb25d8-e9da-48a9-99d5-d9f17b655900","ios":"levelo://app?vid=2dbb25d8-e9da-48a9-99d5-d9f17b655900"},"vehicle_type_id":"4","last_reported":1758211883,"current_range_meters":23200,"station_id":"cpo36qri1sfpv3e86is0","pricing_plan_id":"cebpf4jnsgd1na2vs0mg"},{"bike_id":"68adab37-f5ad-4072-b58a-fe6c68285ca6","system_id":"levelo_inurba_marseille","lat":43.30661,"lon":5.37739,"is_reserved":false,"is_disabled":false,"rental_uris":{"android":"levelo://app?vid=68adab37-f5ad-4072-b58a-fe6c68285ca6","ios":"levelo://app?vid=68adab37-f5ad-4072-b58a-fe6c68285ca6"},"vehicle_type_id":"4","last_reported":1758211883,"current_range_meters":24000,"station_id":"","pricing_plan_id":"cebpf4jnsgd1na2vs0mg"},{"bike_id":"c44cbb5b-c601-4ff2-b67f-59caee368761","system_id":"levelo_inurba_marseille","lat":43.3373,"lon":5.39187,"is_reserved":false,"is_disabled":false,"rental_uris":{"android":"levelo://app?vid=c44cbb5b-c601-4ff2-b67f-59caee368761","ios":"levelo://app?vid=c44cbb5b-c601-4ff2-b67f-59caee368761"},"vehicle_type_id":"4","last_reported":1758211883,"current_range_meters":24000,"station_id":"ce4bhr92rcd13ifvqhsg","pricing_plan_id":"cebpf4jnsgd1na2vs0mg"},{"bike_id":"e381a9e1-9822-4506-89a6-fa6ad978a183","system_id":"levelo_inurba_marseille","lat":43.22549,"lon":5.34837,"is_reserved":false,"is_disabled":false,"rental_uris":{"android":"levelo://app?vid=e381a9e1-9822-4506-89a6-fa6ad978a183","ios":"levelo://app?vid=e381a9e1-9822-4506-89a6-fa6ad978a183"},"vehicle_type_id":"4","last_reported":1758211883,"current_range_meters":24400,"station_id":"","pricing_plan_id":"cebpf4jnsgd1na2vs0mg"},{"bike_id":"bb0afd67-60fb-465d-bbbb-2433fd5a8d59","system_id":"levelo_inurba_marseille","lat":43.31724,"lon":5.423943,"is_reserved":false,"is_disabled":false,"rental_uris":{"android":"levelo://app?vid=bb0afd67-60fb-465d-bbbb-2433fd5a8d59","ios":"levelo://app?vid=bb0afd67-60fb-465d-bbbb-2433fd5a8d59"},"vehicle_type_id":"4","last_reported":1758211883,"current_range_meters":24400,"station_id":"ce4bhp92rcd13ifvqhbg","pricing_plan_id":"cebpf4jnsgd1na2vs0mg"},{"bike_id":"58f6d4bd-008f-4d23-8a1c-632b1c534b7c","system_id":"levelo_inurba_marseille","lat":43.31684,"lon":5.40475,"is_reserved":false,"is_disabled":false,"rental_uris":{"android":"levelo://app?vid=58f6d4bd-008f-4d23-8a1c-632b1c534b7c","ios":"levelo://app?vid=58f6d4bd-008f-4d23-8a1c-632b1c534b7c"},"vehicle_type_id":"4","last_reported":1758211883,"current_range_meters":24400,"station_id":"ce4bh012rcd13ifvqd00","pricing_plan_id":"cebpf4jnsgd1na2vs0mg"},{"bike_id":"d3ec3e9f-2cce-47bf-9350-c21d686b4932","system_id":"levelo_inurba_marseille","lat":43.24165,"lon":5.36412,"is_reserved":false,"is_disabled":false,"rental_uris":{"android":"levelo://app?vid=d3ec3e9f-2cce-47bf-9350-c21d686b4932","ios":"levelo://app?vid=d3ec3e9f-2cce-47bf-9350-c21d686b4932"},"vehicle_type_id":"4","last_reported":1758211883,"current_range_meters":24800,"station_id":"cpo36qri1sfpv3e86is0","pricing_plan_id":"cebpf4jnsgd1na2vs0mg"},{"bike_id":"61aff4be-b7ef-4ae6-907b-66c472fdf4e4","system_id":"levelo_inurba_marseille","lat":43.26572,"lon":5.390102,"is_reserved":false,"is_disabled":false,"rental_uris":{"android":"levelo://app?vid=61aff4be-b7ef-4ae6-907b-66c472fdf4e4","ios":"levelo://app?vid=61aff4be-b7ef-4ae6-907b-66c472fdf4e4"},"vehicle_type_id":"4","last_reported":1758211883,"current_range_meters":24800,"station_id":"ce4bhe12rcd13ifvqf30","pricing_plan_id":"cebpf4jnsgd1na2vs0mg"},{"bike_id":"97514a44-1f4d-4ae1-a270-04ca7b75c621","system_id":"levelo_inurba_marseille","lat":43.2886,"lon":5.42526,"is_reserved":false,"is_disabled":false,"rental_uris":{"android":"levelo://app?vid=97514a44-1f4d-4ae1-a270-04ca7b75c621","ios":"levelo://app?vid=97514a44-1f4d-4ae1-a270-04ca7b75c621"},"vehicle_type_id":"4","last_reported":1758211883,"current_range_meters":24800,"station_id":"","pricing_plan_id":"cebpf4jnsgd1na2vs0mg"},{"bike_id":"e2537bfd-7ad0-4d8c-8331-579cce4b080f","system_id":"levelo_inurba_marseille","lat":43.29307,"lon":5.37159,"is_reserved":false,"is_disabled":false,"rental_uris":{"android":"levelo://app?vid=e2537bfd-7ad0-4d8c-8331-579cce4b080f","ios":"levelo://app?vid=e2537bfd-7ad0-4d8c-8331-579cce4b080f"},"vehicle_type_id":"4","last_reported":1758211883,"current_range_meters":24400,"station_id":"ce4bgh92rcd13ifvqb40","pricing_plan_id":"cebpf4jnsgd1na2vs0mg"},{"bike_id":"d0db706a-10fd-484f-9355-af4c2ece8bc9","system_id":"levelo_inurba_marseille","lat":43.22934,"lon":5.35369,"is_reserved":false,"is_disabled":false,"rental_uris":{"android":"levelo://app?vid=d0db706a-10fd-484f-9355-af4c2ece8bc9","ios":"levelo://app?vid=d0db706a-10fd-484f-9355-af4c2ece8bc9"},"vehicle_type_id":"4","last_reported":1758211883,"current_range_meters":24800,"station_id":"cpo3532slgdg3j2ikp40","pricing_plan_id":"cebpf4jnsgd1na2vs0mg"},{"bike_id":"b8af4056-fb36-4e39-a4f0-5cd179383459","system_id":"levelo_inurba_marseille","lat":43.32918,"lon":5.38949,"is_reserved":false,"is_disabled":false,"rental_uris":{"android":"levelo://app?vid=b8af4056-fb36-4e39-a4f0-5cd179383459","ios":"levelo://app?vid=b8af4056-fb36-4e39-a4f0-5cd179383459"},"vehicle_type_id":"4","last_reported":1758211883,"current_range_meters":24800,"station_id":"","pricing_plan_id":"cebpf4jnsgd1na2vs0mg"},{"bike_id":"76bbf107-7ec5-4826-b296-ab629ecd14ab","system_id":"levelo_inurba_marseille","lat":43.29827,"lon":5.42039,"is_reserved":false,"is_disabled":false,"rental_uris":{"android":"levelo://app?vid=76bbf107-7ec5-4826-b296-ab629ecd14ab","ios":"levelo://app?vid=76bbf107-7ec5-4826-b296-ab629ecd14ab"},"vehicle_type_id":"4","last_reported":1758211883,"current_range_meters":24800,"station_id":"","pricing_plan_id":"cebpf4jnsgd1na2vs0mg"},{"bike_id":"cfe6dec4-7099-43b3-9e41-3212cd5eeadd","system_id":"levelo_inurba_marseille","lat":43.29621,"lon":5.37697,"is_reserved":false,"is_disabled":true,"rental_uris":{"android":"levelo://app?vid=cfe6dec4-7099-43b3-9e41-3212cd5eeadd","ios":"levelo://app?vid=cfe6dec4-7099-43b3-9e41-3212cd5eeadd"},"vehicle_type_id":"4","last_reported":1758211883,"current_range_meters":25200,"station_id":"","pricing_plan_id":"cebpf4jnsgd1na2vs0mg"},{"bike_id":"932aaedf-dd17-4047-8c0a-8fa28c4ede96","system_id":"levelo_inurba_marseille","lat":43.3377,"lon":5.37487,"is_reserved":false,"is_disabled":false,"rental_uris":{"android":"levelo://app?vid=932aaedf-dd17-4047-8c0a-8fa28c4ede96","ios":"levelo://app?vid=932aaedf-dd17-4047-8c0a-8fa28c4ede96"},"vehicle_type_id":"4","last_reported":1758211883,"current_range_meters":25200,"station_id":"","pricing_plan_id":"cebpf4jnsgd1na2vs0mg"},{"bike_id":"ce5eebfb-f89a-4680-92e0-9b0f8b1831a6","system_id":"levelo_inurba_marseille","lat":43.29591,"lon":5.37713,"is_reserved":false,"is_disabled":true,"rental_uris":{"android":"levelo://app?vid=ce5eebfb-f89a-4680-92e0-9b0f8b1831a6","ios":"levelo://app?vid=ce5eebfb-f89a-4680-92e0-9b0f8b1831a6"},"vehicle_type_id":"4","last_reported":1758211883,"current_range_meters":25200,"station_id":"","pricing_plan_id":"cebpf4jnsgd1na2vs0mg"},{"bike_id":"2ec08256-90ca-4d8f-9299-c62bd5da2f24","system_id":"levelo_inurba_marseille","lat":43.30792,"lon":5.43531,"is_reserved":false,"is_disabled":false,"rental_uris":{"android":"levelo://app?vid=2ec08256-90ca-4d8f-9299-c62bd5da2f24","ios":"levelo://app?vid=2ec08256-90ca-4d8f-9299-c62bd5da2f24"},"vehicle_type_id":"4","last_reported":1758211883,"current_range_meters":25200,"station_id":"ce4bhph2rcd13ifvqheg","pricing_plan_id":"cebpf4jnsgd1na2vs0mg"},{"bike_id":"37f99d20-8b7f-45c6-94aa-9a4143897022","system_id":"levelo_inurba_marseille","lat":43.30924,"lon":5.40131,"is_reserved":false,"is_disabled":false,"rental_uris":{"android":"levelo://app?vid=37f99d20-8b7f-45c6-94aa-9a4143897022","ios":"levelo://app?vid=37f99d20-8b7f-45c6-94aa-9a4143897022"},"vehicle_type_id":"4","last_reported":1758211883,"current_range_meters":25200,"station_id":"","pricing_plan_id":"cebpf4jnsgd1na2vs0mg"},{"bike_id":"b4362fd4-eef8-4d31-a6b3-35fcc02ce673","system_id":"levelo_inurba_marseille","lat":43.30604,"lon":5.3723,"is_reserved":false,"is_disabled":false,"rental_uris":{"android":"levelo://app?vid=b4362fd4-eef8-4d31-a6b3-35fcc02ce673","ios":"levelo://app?vid=b4362fd4-eef8-4d31-a6b3-35fcc02ce673"},"vehicle_type_id":"4","last_reported":1758211883,"current_range_meters":25200,"station_id":"ce4bgqh2rcd13ifvqc4g","pricing_plan_id":"cebpf4jnsgd1na2vs0mg"},{"bike_id":"505d074c-79ea-4b2c-b531-3fd024870a3c","system_id":"levelo_inurba_marseille","lat":43.264437,"lon":5.395755,"is_reserved":false,"is_disabled":false,"rental_uris":{"android":"levelo://app?vid=505d074c-79ea-4b2c-b531-3fd024870a3c","ios":"levelo://app?vid=505d074c-79ea-4b2c-b531-3fd024870a3c"},"vehicle_type_id":"4","last_reported":1758211883,"current_range_meters":25600,"station_id":"ce4bhh12rcd13ifvqfg0","pricing_plan_id":"cebpf4jnsgd1na2vs0mg"},{"bike_id":"cbc3d8ff-5140-499f-98d1-87b622cfd1d4","system_id":"levelo_inurba_marseille","lat":43.29879,"lon":5.39769,"is_reserved":false,"is_disabled":false,"rental_uris":{"android":"levelo://app?vid=cbc3d8ff-5140-499f-98d1-87b622cfd1d4","ios":"levelo://app?vid=cbc3d8ff-5140-499f-98d1-87b622cfd1d4"},"vehicle_type_id":"4","last_reported":1758211883,"current_range_meters":25600,"station_id":"ce4bh0h2rcd13ifvqd50","pricing_plan_id":"cebpf4jnsgd1na2vs0mg"},{"bike_id":"aee4e66a-da70-4a67-a0c6-9fb24af213c2","system_id":"levelo_inurba_marseille","lat":43.24177,"lon":5.36412,"is_reserved":false,"is_disabled":false,"rental_uris":{"android":"levelo://app?vid=aee4e66a-da70-4a67-a0c6-9fb24af213c2","ios":"levelo://app?vid=aee4e66a-da70-4a67-a0c6-9fb24af213c2"},"vehicle_type_id":"4","last_reported":1758211883,"current_range_meters":25600,"station_id":"cpo36qri1sfpv3e86is0","pricing_plan_id":"cebpf4jnsgd1na2vs0mg"},{"bike_id":"51c8b76d-0b1e-48e5-ad15-d8a2cac1e820","system_id":"levelo_inurba_marseille","lat":43.26016,"lon":5.41744,"is_reserved":false,"is_disabled":false,"rental_uris":{"android":"levelo://app?vid=51c8b76d-0b1e-48e5-ad15-d8a2cac1e820","ios":"levelo://app?vid=51c8b76d-0b1e-48e5-ad15-d8a2cac1e820"},"vehicle_type_id":"4","last_reported":1758211883,"current_range_meters":25600,"station_id":"","pricing_plan_id":"cebpf4jnsgd1na2vs0mg"},{"bike_id":"65201847-9cc5-4858-b783-32a87c66d952","system_id":"levelo_inurba_marseille","lat":43.28864,"lon":5.42528,"is_reserved":false,"is_disabled":false,"rental_uris":{"android":"levelo://app?vid=65201847-9cc5-4858-b783-32a87c66d952","ios":"levelo://app?vid=65201847-9cc5-4858-b783-32a87c66d952"},"vehicle_type_id":"4","last_reported":1758211883,"current_range_meters":25600,"station_id":"","pricing_plan_id":"cebpf4jnsgd1na2vs0mg"},{"bike_id":"1d0b5d60-568f-4170-98dc-84bbc30b1c4e","system_id":"levelo_inurba_marseille","lat":43.28367,"lon":5.43836,"is_reserved":false,"is_disabled":false,"rental_uris":{"android":"levelo://app?vid=1d0b5d60-568f-4170-98dc-84bbc30b1c4e","ios":"levelo://app?vid=1d0b5d60-568f-4170-98dc-84bbc30b1c4e"},"vehicle_type_id":"4","last_reported":1758211883,"current_range_meters":25600,"station_id":"","pricing_plan_id":"cebpf4jnsgd1na2vs0mg"},{"bike_id":"b709b1de-3955-4581-b798-9dc1df4d6a3f","system_id":"levelo_inurba_marseille","lat":43.28472,"lon":5.38471,"is_reserved":false,"is_disabled":true,"rental_uris":{"android":"levelo://app?vid=b709b1de-3955-4581-b798-9dc1df4d6a3f","ios":"levelo://app?vid=b709b1de-3955-4581-b798-9dc1df4d6a3f"},"vehicle_type_id":"4","last_reported":1758211883,"current_range_meters":26000,"station_id":"ce4bh512rcd13ifvqe3g","pricing_plan_id":"cebpf4jnsgd1na2vs0mg"},{"bike_id":"c72ca9cb-9508-4433-b06d-56c939349529","system_id":"levelo_inurba_marseille","lat":43.29567,"lon":5.39974,"is_reserved":false,"is_disabled":false,"rental_uris":{"android":"levelo://app?vid=c72ca9cb-9508-4433-b06d-56c939349529","ios":"levelo://app?vid=c72ca9cb-9508-4433-b06d-56c939349529"},"vehicle_type_id":"4","last_reported":1758211883,"current_range_meters":26000,"station_id":"","pricing_plan_id":"cebpf4jnsgd1na2vs0mg"},{"bike_id":"e86857f8-f405-4657-b145-ec58ed187087","system_id":"levelo_inurba_marseille","lat":43.31484,"lon":5.3881,"is_reserved":false,"is_disabled":false,"rental_uris":{"android":"levelo://app?vid=e86857f8-f405-4657-b145-ec58ed187087","ios":"levelo://app?vid=e86857f8-f405-4657-b145-ec58ed187087"},"vehicle_type_id":"4","last_reported":1758211883,"current_range_meters":26000,"station_id":"ce4bgt92rcd13ifvqcf0","pricing_plan_id":"cebpf4jnsgd1na2vs0mg"},{"bike_id":"a0a76531-5f1b-4b69-9ce0-bec523f8d1ae","system_id":"levelo_inurba_marseille","lat":43.2318,"lon":5.35579,"is_reserved":false,"is_disabled":false,"rental_uris":{"android":"levelo://app?vid=a0a76531-5f1b-4b69-9ce0-bec523f8d1ae","ios":"levelo://app?vid=a0a76531-5f1b-4b69-9ce0-bec523f8d1ae"},"vehicle_type_id":"4","last_reported":1758211883,"current_range_meters":26000,"station_id":"ce4bhu92rcd13ifvqi70","pricing_plan_id":"cebpf4jnsgd1na2vs0mg"},{"bike_id":"4266b374-d4bf-4fd2-bb94-51b2d7d40946","system_id":"levelo_inurba_marseille","lat":43.22564,"lon":5.41623,"is_reserved":false,"is_disabled":false,"rental_uris":{"android":"levelo://app?vid=4266b374-d4bf-4fd2-bb94-51b2d7d40946","ios":"levelo://app?vid=4266b374-d4bf-4fd2-bb94-51b2d7d40946"},"vehicle_type_id":"4","last_reported":1758211883,"current_range_meters":26000,"station_id":"st_d2o4gvlbi1j2169b742g","pricing_plan_id":"cebpf4jnsgd1na2vs0mg"},{"bike_id":"879d09ff-d2d9-4f33-bdd2-92c0ca35e281","system_id":"levelo_inurba_marseille","lat":43.27944,"lon":5.41053,"is_reserved":false,"is_disabled":false,"rental_uris":{"android":"levelo://app?vid=879d09ff-d2d9-4f33-bdd2-92c0ca35e281","ios":"levelo://app?vid=879d09ff-d2d9-4f33-bdd2-92c0ca35e281"},"vehicle_type_id":"4","last_reported":1758211883,"current_range_meters":26000,"station_id":"ce4bhnp2rcd13ifvqh0g","pricing_plan_id":"cebpf4jnsgd1na2vs0mg"},{"bike_id":"96bcd4cf-8648-41f5-8bee-52cfc82ab6ee","system_id":"levelo_inurba_marseille","lat":43.24388,"lon":5.37067,"is_reserved":false,"is_disabled":false,"rental_uris":{"android":"levelo://app?vid=96bcd4cf-8648-41f5-8bee-52cfc82ab6ee","ios":"levelo://app?vid=96bcd4cf-8648-41f5-8bee-52cfc82ab6ee"},"vehicle_type_id":"4","last_reported":1758211883,"current_range_meters":26800,"station_id":"ce4bhhh2rcd13ifvqfk0","pricing_plan_id":"cebpf4jnsgd1na2vs0mg"},{"bike_id":"cad97885-b582-49b2-8b83-0a6c3d079fc6","system_id":"levelo_inurba_marseille","lat":43.297054,"lon":5.366038,"is_reserved":false,"is_disabled":false,"rental_uris":{"android":"levelo://app?vid=cad97885-b582-49b2-8b83-0a6c3d079fc6","ios":"levelo://app?vid=cad97885-b582-49b2-8b83-0a6c3d079fc6"},"vehicle_type_id":"4","last_reported":1758211883,"current_range_meters":27200,"station_id":"ce4bgn12rcd13ifvqbt0","pricing_plan_id":"cebpf4jnsgd1na2vs0mg"},{"bike_id":"0d325681-9541-45e8-882a-ea58b6044e26","system_id":"levelo_inurba_marseille","lat":43.22916,"lon":5.35357,"is_reserved":false,"is_disabled":false,"rental_uris":{"android":"levelo://app?vid=0d325681-9541-45e8-882a-ea58b6044e26","ios":"levelo://app?vid=0d325681-9541-45e8-882a-ea58b6044e26"},"vehicle_type_id":"4","last_reported":1758211883,"current_range_meters":27200,"station_id":"cpo3532slgdg3j2ikp40","pricing_plan_id":"cebpf4jnsgd1na2vs0mg"},{"bike_id":"2aa65136-961e-4258-881c-3154654c175d","system_id":"levelo_inurba_marseille","lat":43.31263,"lon":5.36848,"is_reserved":false,"is_disabled":false,"rental_uris":{"android":"levelo://app?vid=2aa65136-961e-4258-881c-3154654c175d","ios":"levelo://app?vid=2aa65136-961e-4258-881c-3154654c175d"},"vehicle_type_id":"4","last_reported":1758211883,"current_range_meters":27200,"station_id":"ce4bgl92rcd13ifvqbq0","pricing_plan_id":"cebpf4jnsgd1na2vs0mg"},{"bike_id":"c19ce7ae-5df8-42b3-9193-4e9d9c3ade45","system_id":"levelo_inurba_marseille","lat":43.28274,"lon":5.35075,"is_reserved":false,"is_disabled":true,"rental_uris":{"android":"levelo://app?vid=c19ce7ae-5df8-42b3-9193-4e9d9c3ade45","ios":"levelo://app?vid=c19ce7ae-5df8-42b3-9193-4e9d9c3ade45"},"vehicle_type_id":"4","last_reported":1758211883,"current_range_meters":27200,"station_id":"ce4bhbp2rcd13ifvqerg","pricing_plan_id":"cebpf4jnsgd1na2vs0mg"},{"bike_id":"69a52a0c-8952-4685-8be1-e982eeea325e","system_id":"levelo_inurba_marseille","lat":43.269455,"lon":5.402572,"is_reserved":false,"is_disabled":true,"rental_uris":{"android":"levelo://app?vid=69a52a0c-8952-4685-8be1-e982eeea325e","ios":"levelo://app?vid=69a52a0c-8952-4685-8be1-e982eeea325e"},"vehicle_type_id":"4","last_reported":1758211883,"current_range_meters":27200,"station_id":"cjm6bp8fraef2m0cb0m0","pricing_plan_id":"cebpf4jnsgd1na2vs0mg"},{"bike_id":"3789a9ae-ad87-458b-9531-74f7a80fcda2","system_id":"levelo_inurba_marseille","lat":43.26027,"lon":5.41738,"is_reserved":false,"is_disabled":false,"rental_uris":{"android":"levelo://app?vid=3789a9ae-ad87-458b-9531-74f7a80fcda2","ios":"levelo://app?vid=3789a9ae-ad87-458b-9531-74f7a80fcda2"},"vehicle_type_id":"4","last_reported":1758211883,"current_range_meters":27200,"station_id":"","pricing_plan_id":"cebpf4jnsgd1na2vs0mg"},{"bike_id":"2b3ce1d4-3519-47e7-8ca0-b9989936cd0b","system_id":"levelo_inurba_marseille","lat":43.296779,"lon":5.377219,"is_reserved":false,"is_disabled":true,"rental_uris":{"android":"levelo://app?vid=2b3ce1d4-3519-47e7-8ca0-b9989936cd0b","ios":"levelo://app?vid=2b3ce1d4-3519-47e7-8ca0-b9989936cd0b"},"vehicle_type_id":"4","last_reported":1758211883,"current_range_meters":27200,"station_id":"","pricing_plan_id":"cebpf4jnsgd1na2vs0mg"},{"bike_id":"b2b5e9cb-b905-404b-85c4-54251e4eb97a","system_id":"levelo_inurba_marseille","lat":43.22557,"lon":5.41649,"is_reserved":false,"is_disabled":false,"rental_uris":{"android":"levelo://app?vid=b2b5e9cb-b905-404b-85c4-54251e4eb97a","ios":"levelo://app?vid=b2b5e9cb-b905-404b-85c4-54251e4eb97a"},"vehicle_type_id":"4","last_reported":1758211883,"current_range_meters":27600,"station_id":"st_d2o4gvlbi1j2169b742g","pricing_plan_id":"cebpf4jnsgd1na2vs0mg"},{"bike_id":"4805d8c3-6c37-480a-9d1a-8c6088f525d9","system_id":"levelo_inurba_marseille","lat":43.28972,"lon":5.37826,"is_reserved":false,"is_disabled":true,"rental_uris":{"android":"levelo://app?vid=4805d8c3-6c37-480a-9d1a-8c6088f525d9","ios":"levelo://app?vid=4805d8c3-6c37-480a-9d1a-8c6088f525d9"},"vehicle_type_id":"4","last_reported":1758211883,"current_range_meters":27600,"station_id":"ce4bh9p2rcd13ifvqed0","pricing_plan_id":"cebpf4jnsgd1na2vs0mg"},{"bike_id":"3f7608bc-ccb4-4fbf-ac97-973982db3a76","system_id":"levelo_inurba_marseille","lat":43.2762,"lon":5.3611,"is_reserved":false,"is_disabled":false,"rental_uris":{"android":"levelo://app?vid=3f7608bc-ccb4-4fbf-ac97-973982db3a76","ios":"levelo://app?vid=3f7608bc-ccb4-4fbf-ac97-973982db3a76"},"vehicle_type_id":"4","last_reported":1758211883,"current_range_meters":27600,"station_id":"ce4bgj92rcd13ifvqbe0","pricing_plan_id":"cebpf4jnsgd1na2vs0mg"},{"bike_id":"c1fe14cd-728d-4e7d-838d-c323e5e8aaf1","system_id":"levelo_inurba_marseille","lat":43.28497,"lon":5.385585,"is_reserved":false,"is_disabled":true,"rental_uris":{"android":"levelo://app?vid=c1fe14cd-728d-4e7d-838d-c323e5e8aaf1","ios":"levelo://app?vid=c1fe14cd-728d-4e7d-838d-c323e5e8aaf1"},"vehicle_type_id":"4","last_reported":1758211883,"current_range_meters":27600,"station_id":"ce4bh8p2rcd13ifvqeb0","pricing_plan_id":"cebpf4jnsgd1na2vs0mg"},{"bike_id":"13928b91-4001-4592-985a-d01a38cf9a73","system_id":"levelo_inurba_marseille","lat":43.29982,"lon":5.38496,"is_reserved":false,"is_disabled":true,"rental_uris":{"android":"levelo://app?vid=13928b91-4001-4592-985a-d01a38cf9a73","ios":"levelo://app?vid=13928b91-4001-4592-985a-d01a38cf9a73"},"vehicle_type_id":"4","last_reported":1758211883,"current_range_meters":27600,"station_id":"","pricing_plan_id":"cebpf4jnsgd1na2vs0mg"},{"bike_id":"9176512c-2cc1-4df2-a8e0-6be514fbcdbf","system_id":"levelo_inurba_marseille","lat":43.33748,"lon":5.37465,"is_reserved":false,"is_disabled":false,"rental_uris":{"android":"levelo://app?vid=9176512c-2cc1-4df2-a8e0-6be514fbcdbf","ios":"levelo://app?vid=9176512c-2cc1-4df2-a8e0-6be514fbcdbf"},"vehicle_type_id":"4","last_reported":1758211883,"current_range_meters":27600,"station_id":"","pricing_plan_id":"cebpf4jnsgd1na2vs0mg"},{"bike_id":"c51ccb1a-2c79-4f7f-afd4-a263a858bfb5","system_id":"levelo_inurba_marseille","lat":43.24162,"lon":5.36406,"is_reserved":false,"is_disabled":false,"rental_uris":{"android":"levelo://app?vid=c51ccb1a-2c79-4f7f-afd4-a263a858bfb5","ios":"levelo://app?vid=c51ccb1a-2c79-4f7f-afd4-a263a858bfb5"},"vehicle_type_id":"4","last_reported":1758211883,"current_range_meters":27600,"station_id":"cpo36qri1sfpv3e86is0","pricing_plan_id":"cebpf4jnsgd1na2vs0mg"},{"bike_id":"0a8ed33b-b943-4872-a04b-96b8a1c79306","system_id":"levelo_inurba_marseille","lat":43.28463,"lon":5.35891,"is_reserved":false,"is_disabled":false,"rental_uris":{"android":"levelo://app?vid=0a8ed33b-b943-4872-a04b-96b8a1c79306","ios":"levelo://app?vid=0a8ed33b-b943-4872-a04b-96b8a1c79306"},"vehicle_type_id":"4","last_reported":1758211883,"current_range_meters":27600,"station_id":"ce4bhah2rcd13ifvqei0","pricing_plan_id":"cebpf4jnsgd1na2vs0mg"},{"bike_id":"300d13c7-503a-434f-8826-1685742a2f12","system_id":"levelo_inurba_marseille","lat":43.26559,"lon":5.39004,"is_reserved":false,"is_disabled":false,"rental_uris":{"android":"levelo://app?vid=300d13c7-503a-434f-8826-1685742a2f12","ios":"levelo://app?vid=300d13c7-503a-434f-8826-1685742a2f12"},