{"last_updated":1746648705,"ttl":60,"version":"2.2","data":{"bikes":[{"bike_id":"646ce932-e3b6-448c-a87b-52e6b01e32fa","system_id":"levelo_inurba_marseille","lat":43.2619,"lon":5.38767,"is_reserved":false,"is_disabled":true,"rental_uris":{"android":"levelo://app?vid=646ce932-e3b6-448c-a87b-52e6b01e32fa","ios":"levelo://app?vid=646ce932-e3b6-448c-a87b-52e6b01e32fa"},"vehicle_type_id":"4","last_reported":1746648705,"current_range_meters":0,"station_id":"","pricing_plan_id":"cebpf4jnsgd1na2vs0mg"},{"bike_id":"9afdaa32-5437-40bb-b5dc-0e42f55a33ee","system_id":"levelo_inurba_marseille","lat":43.25393,"lon":5.41871,"is_reserved":false,"is_disabled":true,"rental_uris":{"android":"levelo://app?vid=9afdaa32-5437-40bb-b5dc-0e42f55a33ee","ios":"levelo://app?vid=9afdaa32-5437-40bb-b5dc-0e42f55a33ee"},"vehicle_type_id":"4","last_reported":1746648705,"current_range_meters":0,"station_id":"","pricing_plan_id":"cebpf4jnsgd1na2vs0mg"},{"bike_id":"66b646b3-6352-44bb-9bfb-21570512e3e5","system_id":"levelo_inurba_marseille","lat":43.281,"lon":5.40404,"is_reserved":false,"is_disabled":true,"rental_uris":{"android":"levelo://app?vid=66b646b3-6352-44bb-9bfb-21570512e3e5","ios":"levelo://app?vid=66b646b3-6352-44bb-9bfb-21570512e3e5"},"vehicle_type_id":"4","last_reported":1746648705,"current_range_meters":0,"station_id":"","pricing_plan_id":"cebpf4jnsgd1na2vs0mg"},{"bike_id":"a38c2d49-7988-4ef8-83e8-42a2504085da","system_id":"levelo_inurba_marseille","lat":43.24531,"lon":5.4123,"is_reserved":false,"is_disabled":true,"rental_uris":{"android":"levelo://app?vid=a38c2d49-7988-4ef8-83e8-42a2504085da","ios":"levelo://app?vid=a38c2d49-7988-4ef8-83e8-42a2504085da"},"vehicle_type_id":"4","last_reported":1746648705,"current_range_meters":0,"station_id":"","pricing_plan_id":"cebpf4jnsgd1na2vs0mg"},{"bike_id":"b56eeeb9-9ded-4dd2-9efa-c8d4f8a5e387","system_id":"levelo_inurba_marseille","lat":43.27389,"lon":5.42242,"is_reserved":false,"is_disabled":true,"rental_uris":{"android":"levelo://app?vid=b56eeeb9-9ded-4dd2-9efa-c8d4f8a5e387","ios":"levelo://app?vid=b56eeeb9-9ded-4dd2-9efa-c8d4f8a5e387"},"vehicle_type_id":"4","last_reported":1746648705,"current_range_meters":0,"station_id":"","pricing_plan_id":"cebpf4jnsgd1na2vs0mg"},{"bike_id":"88c3c6c1-a33a-48ed-b2a4-48c16332184c","system_id":"levelo_inurba_marseille","lat":43.2794,"lon":5.37392,"is_reserved":false,"is_disabled":true,"rental_uris":{"android":"levelo://app?vid=88c3c6c1-a33a-48ed-b2a4-48c16332184c","ios":"levelo://app?vid=88c3c6c1-a33a-48ed-b2a4-48c16332184c"},"vehicle_type_id":"4","last_reported":1746648705,"current_range_meters":0,"station_id":"","pricing_plan_id":"cebpf4jnsgd1na2vs0mg"},{"bike_id":"13b86587-2261-4433-80cd-5706e0afe1ab","system_id":"levelo_inurba_marseille","lat":43.29476,"lon":5.38658,"is_reserved":false,"is_disabled":true,"rental_uris":{"android":"levelo://app?vid=13b86587-2261-4433-80cd-5706e0afe1ab","ios":"levelo://app?vid=13b86587-2261-4433-80cd-5706e0afe1ab"},"vehicle_type_id":"4","last_reported":1746648705,"current_range_meters":0,"station_id":"","pricing_plan_id":"cebpf4jnsgd1na2vs0mg"},{"bike_id":"edaf51df-2b4b-4d63-a4ec-c1762e310aff","system_id":"levelo_inurba_marseille","lat":43.3061,"lon":5.37557,"is_reserved":false,"is_disabled":true,"rental_uris":{"android":"levelo://app?vid=edaf51df-2b4b-4d63-a4ec-c1762e310aff","ios":"levelo://app?vid=edaf51df-2b4b-4d63-a4ec-c1762e310aff"},"vehicle_type_id":"4","last_reported":1746648705,"current_range_meters":0,"station_id":"","pricing_plan_id":"cebpf4jnsgd1na2vs0mg"},{"bike_id":"2d251c8d-e9d0-476f-8622-cb88831f30c3","system_id":"levelo_inurba_marseille","lat":43.27007,"lon":5.38771,"is_reserved":false,"is_disabled":true,"rental_uris":{"android":"levelo://app?vid=2d251c8d-e9d0-476f-8622-cb88831f30c3","ios":"levelo://app?vid=2d251c8d-e9d0-476f-8622-cb88831f30c3"},"vehicle_type_id":"4","last_reported":1746648705,"current_range_meters":0,"station_id":"","pricing_plan_id":"cebpf4jnsgd1na2vs0mg"},{"bike_id":"718447f3-b6d2-4455-9edd-b1cf56662f96","system_id":"levelo_inurba_marseille","lat":43.32276,"lon":5.4422,"is_reserved":false,"is_disabled":true,"rental_uris":{"android":"levelo://app?vid=718447f3-b6d2-4455-9edd-b1cf56662f96","ios":"levelo://app?vid=718447f3-b6d2-4455-9edd-b1cf56662f96"},"vehicle_type_id":"4","last_reported":1746648705,"current_range_meters":0,"station_id":"","pricing_plan_id":"cebpf4jnsgd1na2vs0mg"},{"bike_id":"9e00f792-83c9-45fa-b78b-1875b64cb816","system_id":"levelo_inurba_marseille","lat":43.27362,"lon":5.36246,"is_reserved":false,"is_disabled":true,"rental_uris":{"android":"levelo://app?vid=9e00f792-83c9-45fa-b78b-1875b64cb816","ios":"levelo://app?vid=9e00f792-83c9-45fa-b78b-1875b64cb816"},"vehicle_type_id":"4","last_reported":1746648705,"current_range_meters":0,"station_id":"ce4bhbh2rcd13ifvqeo0","pricing_plan_id":"cebpf4jnsgd1na2vs0mg"},{"bike_id":"0aa7891c-d4e7-4322-bc35-ca00696aff9a","system_id":"levelo_inurba_marseille","lat":43.272905,"lon":5.363042,"is_reserved":false,"is_disabled":true,"rental_uris":{"android":"levelo://app?vid=0aa7891c-d4e7-4322-bc35-ca00696aff9a","ios":"levelo://app?vid=0aa7891c-d4e7-4322-bc35-ca00696aff9a"},"vehicle_type_id":"4","last_reported":1746648705,"current_range_meters":0,"station_id":"ce4bhbh2rcd13ifvqeo0","pricing_plan_id":"cebpf4jnsgd1na2vs0mg"},{"bike_id":"872faada-d85d-4c28-819b-0af38b8fd6ed","system_id":"levelo_inurba_marseille","lat":43.2558,"lon":5.38226,"is_reserved":false,"is_disabled":true,"rental_uris":{"android":"levelo://app?vid=872faada-d85d-4c28-819b-0af38b8fd6ed","ios":"levelo://app?vid=872faada-d85d-4c28-819b-0af38b8fd6ed"},"vehicle_type_id":"4","last_reported":1746648705,"current_range_meters":400,"station_id":"ce4bhih2rcd13ifvqfs0","pricing_plan_id":"cebpf4jnsgd1na2vs0mg"},{"bike_id":"25b1dfd3-6979-44ac-b4b6-6ae95adb3073","system_id":"levelo_inurba_marseille","lat":43.28729,"lon":5.39972,"is_reserved":false,"is_disabled":true,"rental_uris":{"android":"levelo://app?vid=25b1dfd3-6979-44ac-b4b6-6ae95adb3073","ios":"levelo://app?vid=25b1dfd3-6979-44ac-b4b6-6ae95adb3073"},"vehicle_type_id":"4","last_reported":1746648705,"current_range_meters":400,"station_id":"ce4bho92rcd13ifvqh3g","pricing_plan_id":"cebpf4jnsgd1na2vs0mg"},{"bike_id":"5d94c240-27fd-45b7-8958-a8ce3a33982d","system_id":"levelo_inurba_marseille","lat":43.301182,"lon":5.398493,"is_reserved":false,"is_disabled":false,"rental_uris":{"android":"levelo://app?vid=5d94c240-27fd-45b7-8958-a8ce3a33982d","ios":"levelo://app?vid=5d94c240-27fd-45b7-8958-a8ce3a33982d"},"vehicle_type_id":"4","last_reported":1746648705,"current_range_meters":1200,"station_id":"ce4bh0h2rcd13ifvqd40","pricing_plan_id":"cebpf4jnsgd1na2vs0mg"},{"bike_id":"1f640c4f-9f02-447f-9d8b-38e1583fd6b0","system_id":"levelo_inurba_marseille","lat":43.29277,"lon":5.40135,"is_reserved":false,"is_disabled":true,"rental_uris":{"android":"levelo://app?vid=1f640c4f-9f02-447f-9d8b-38e1583fd6b0","ios":"levelo://app?vid=1f640c4f-9f02-447f-9d8b-38e1583fd6b0"},"vehicle_type_id":"4","last_reported":1746648705,"current_range_meters":1200,"station_id":"ce4bh312rcd13ifvqdk0","pricing_plan_id":"cebpf4jnsgd1na2vs0mg"},{"bike_id":"12a97e69-28fa-4a38-83dd-2abfb17a80c3","system_id":"levelo_inurba_marseille","lat":43.264968,"lon":5.395346,"is_reserved":false,"is_disabled":true,"rental_uris":{"android":"levelo://app?vid=12a97e69-28fa-4a38-83dd-2abfb17a80c3","ios":"levelo://app?vid=12a97e69-28fa-4a38-83dd-2abfb17a80c3"},"vehicle_type_id":"4","last_reported":1746648705,"current_range_meters":1600,"station_id":"","pricing_plan_id":"cebpf4jnsgd1na2vs0mg"},{"bike_id":"280a5f10-1881-424c-adf7-2ff4798a4d7f","system_id":"levelo_inurba_marseille","lat":43.23174,"lon":5.39991,"is_reserved":false,"is_disabled":true,"rental_uris":{"android":"levelo://app?vid=280a5f10-1881-424c-adf7-2ff4798a4d7f","ios":"levelo://app?vid=280a5f10-1881-424c-adf7-2ff4798a4d7f"},"vehicle_type_id":"4","last_reported":1746648705,"current_range_meters":1600,"station_id":"","pricing_plan_id":"cebpf4jnsgd1na2vs0mg"},{"bike_id":"ff632d57-724a-4586-b584-cb9f7db86314","system_id":"levelo_inurba_marseille","lat":43.29307,"lon":5.37178,"is_reserved":false,"is_disabled":true,"rental_uris":{"android":"levelo://app?vid=ff632d57-724a-4586-b584-cb9f7db86314","ios":"levelo://app?vid=ff632d57-724a-4586-b584-cb9f7db86314"},"vehicle_type_id":"4","last_reported":1746648705,"current_range_meters":1600,"station_id":"ce4bgh92rcd13ifvqb40","pricing_plan_id":"cebpf4jnsgd1na2vs0mg"},{"bike_id":"04e17804-20fc-40fe-9b6c-61fbac18d15a","system_id":"levelo_inurba_marseille","lat":43.29418,"lon":5.38627,"is_reserved":false,"is_disabled":true,"rental_uris":{"android":"levelo://app?vid=04e17804-20fc-40fe-9b6c-61fbac18d15a","ios":"levelo://app?vid=04e17804-20fc-40fe-9b6c-61fbac18d15a"},"vehicle_type_id":"4","last_reported":1746648705,"current_range_meters":1600,"station_id":"ce4bh2h2rcd13ifvqdh0","pricing_plan_id":"cebpf4jnsgd1na2vs0mg"},{"bike_id":"ef9bc37a-776c-48ca-9639-a59e59dcab7d","system_id":"levelo_inurba_marseille","lat":43.25121,"lon":5.40316,"is_reserved":false,"is_disabled":true,"rental_uris":{"android":"levelo://app?vid=ef9bc37a-776c-48ca-9639-a59e59dcab7d","ios":"levelo://app?vid=ef9bc37a-776c-48ca-9639-a59e59dcab7d"},"vehicle_type_id":"4","last_reported":1746648705,"current_range_meters":1600,"station_id":"ce4bhlh2rcd13ifvqgig","pricing_plan_id":"cebpf4jnsgd1na2vs0mg"},{"bike_id":"1cc7b4e2-5175-4a05-8d71-7941ba6b27fa","system_id":"levelo_inurba_marseille","lat":43.28151,"lon":5.42646,"is_reserved":false,"is_disabled":false,"rental_uris":{"android":"levelo://app?vid=1cc7b4e2-5175-4a05-8d71-7941ba6b27fa","ios":"levelo://app?vid=1cc7b4e2-5175-4a05-8d71-7941ba6b27fa"},"vehicle_type_id":"4","last_reported":1746648705,"current_range_meters":1600,"station_id":"ce4bhnh2rcd13ifvqgug","pricing_plan_id":"cebpf4jnsgd1na2vs0mg"},{"bike_id":"71d55781-5da5-40f8-a2a1-91119e247565","system_id":"levelo_inurba_marseille","lat":43.29255,"lon":5.40903,"is_reserved":false,"is_disabled":true,"rental_uris":{"android":"levelo://app?vid=71d55781-5da5-40f8-a2a1-91119e247565","ios":"levelo://app?vid=71d55781-5da5-40f8-a2a1-91119e247565"},"vehicle_type_id":"4","last_reported":1746648705,"current_range_meters":2000,"station_id":"ce4bh192rcd13ifvqdc0","pricing_plan_id":"cebpf4jnsgd1na2vs0mg"},{"bike_id":"f0e1f931-5128-45d2-a432-12f1e3b9e5b9","system_id":"levelo_inurba_marseille","lat":43.29036,"lon":5.39959,"is_reserved":false,"is_disabled":false,"rental_uris":{"android":"levelo://app?vid=f0e1f931-5128-45d2-a432-12f1e3b9e5b9","ios":"levelo://app?vid=f0e1f931-5128-45d2-a432-12f1e3b9e5b9"},"vehicle_type_id":"4","last_reported":1746648705,"current_range_meters":2800,"station_id":"ce4bh392rcd13ifvqdm0","pricing_plan_id":"cebpf4jnsgd1na2vs0mg"},{"bike_id":"a00e807c-fde4-42b9-99a4-f463420a9dfb","system_id":"levelo_inurba_marseille","lat":43.31405,"lon":5.43844,"is_reserved":false,"is_disabled":false,"rental_uris":{"android":"levelo://app?vid=a00e807c-fde4-42b9-99a4-f463420a9dfb","ios":"levelo://app?vid=a00e807c-fde4-42b9-99a4-f463420a9dfb"},"vehicle_type_id":"4","last_reported":1746648705,"current_range_meters":3200,"station_id":"","pricing_plan_id":"cebpf4jnsgd1na2vs0mg"},{"bike_id":"5c41b8fa-6601-4508-b63d-0d0978cbb2f7","system_id":"levelo_inurba_marseille","lat":43.29779,"lon":5.37114,"is_reserved":false,"is_disabled":false,"rental_uris":{"android":"levelo://app?vid=5c41b8fa-6601-4508-b63d-0d0978cbb2f7","ios":"levelo://app?vid=5c41b8fa-6601-4508-b63d-0d0978cbb2f7"},"vehicle_type_id":"4","last_reported":1746648705,"current_range_meters":3200,"station_id":"ce4bgop2rcd13ifvqc1g","pricing_plan_id":"cebpf4jnsgd1na2vs0mg"},{"bike_id":"f46ae0d7-03f3-41e1-96db-970fe58465cc","system_id":"levelo_inurba_marseille","lat":43.33019,"lon":5.38154,"is_reserved":false,"is_disabled":false,"rental_uris":{"android":"levelo://app?vid=f46ae0d7-03f3-41e1-96db-970fe58465cc","ios":"levelo://app?vid=f46ae0d7-03f3-41e1-96db-970fe58465cc"},"vehicle_type_id":"4","last_reported":1746648705,"current_range_meters":3600,"station_id":"","pricing_plan_id":"cebpf4jnsgd1na2vs0mg"},{"bike_id":"9748a0c4-d6b8-4d04-814d-c8cd66193aaf","system_id":"levelo_inurba_marseille","lat":43.25219,"lon":5.41068,"is_reserved":false,"is_disabled":false,"rental_uris":{"android":"levelo://app?vid=9748a0c4-d6b8-4d04-814d-c8cd66193aaf","ios":"levelo://app?vid=9748a0c4-d6b8-4d04-814d-c8cd66193aaf"},"vehicle_type_id":"4","last_reported":1746648705,"current_range_meters":3600,"station_id":"","pricing_plan_id":"cebpf4jnsgd1na2vs0mg"},{"bike_id":"c1f5558c-05ec-49e6-944d-d4aacfc536ef","system_id":"levelo_inurba_marseille","lat":43.28837,"lon":5.39336,"is_reserved":false,"is_disabled":false,"rental_uris":{"android":"levelo://app?vid=c1f5558c-05ec-49e6-944d-d4aacfc536ef","ios":"levelo://app?vid=c1f5558c-05ec-49e6-944d-d4aacfc536ef"},"vehicle_type_id":"4","last_reported":1746648705,"current_range_meters":3600,"station_id":"ce4bh2p2rcd13ifvqdi0","pricing_plan_id":"cebpf4jnsgd1na2vs0mg"},{"bike_id":"35710596-1866-4dbb-9d3d-e9801385ad68","system_id":"levelo_inurba_marseille","lat":43.275666,"lon":5.384247,"is_reserved":false,"is_disabled":true,"rental_uris":{"android":"levelo://app?vid=35710596-1866-4dbb-9d3d-e9801385ad68","ios":"levelo://app?vid=35710596-1866-4dbb-9d3d-e9801385ad68"},"vehicle_type_id":"4","last_reported":1746648705,"current_range_meters":4000,"station_id":"ce4bhh92rcd13ifvqfi0","pricing_plan_id":"cebpf4jnsgd1na2vs0mg"},{"bike_id":"e751cb7d-ec5e-412a-9462-ee3e21f7b712","system_id":"levelo_inurba_marseille","lat":43.29533,"lon":5.38546,"is_reserved":false,"is_disabled":false,"rental_uris":{"android":"levelo://app?vid=e751cb7d-ec5e-412a-9462-ee3e21f7b712","ios":"levelo://app?vid=e751cb7d-ec5e-412a-9462-ee3e21f7b712"},"vehicle_type_id":"4","last_reported":1746648705,"current_range_meters":4400,"station_id":"ce4bgih2rcd13ifvqba0","pricing_plan_id":"cebpf4jnsgd1na2vs0mg"},{"bike_id":"ede21088-86fa-48bb-8a22-89a8cadd492a","system_id":"levelo_inurba_marseille","lat":43.27616,"lon":5.36108,"is_reserved":false,"is_disabled":false,"rental_uris":{"android":"levelo://app?vid=ede21088-86fa-48bb-8a22-89a8cadd492a","ios":"levelo://app?vid=ede21088-86fa-48bb-8a22-89a8cadd492a"},"vehicle_type_id":"4","last_reported":1746648705,"current_range_meters":4400,"station_id":"ce4bgj92rcd13ifvqbe0","pricing_plan_id":"cebpf4jnsgd1na2vs0mg"},{"bike_id":"9485d3c9-f408-47ef-8889-1762c2390dd8","system_id":"levelo_inurba_marseille","lat":43.28105,"lon":5.37838,"is_reserved":false,"is_disabled":false,"rental_uris":{"android":"levelo://app?vid=9485d3c9-f408-47ef-8889-1762c2390dd8","ios":"levelo://app?vid=9485d3c9-f408-47ef-8889-1762c2390dd8"},"vehicle_type_id":"4","last_reported":1746648705,"current_range_meters":4400,"station_id":"ce4bha12rcd13ifvqee0","pricing_plan_id":"cebpf4jnsgd1na2vs0mg"},{"bike_id":"2ffa008f-4045-404e-a632-f92e2b79f62f","system_id":"levelo_inurba_marseille","lat":43.28153,"lon":5.42644,"is_reserved":false,"is_disabled":false,"rental_uris":{"android":"levelo://app?vid=2ffa008f-4045-404e-a632-f92e2b79f62f","ios":"levelo://app?vid=2ffa008f-4045-404e-a632-f92e2b79f62f"},"vehicle_type_id":"4","last_reported":1746648705,"current_range_meters":4400,"station_id":"ce4bhnh2rcd13ifvqgug","pricing_plan_id":"cebpf4jnsgd1na2vs0mg"},{"bike_id":"eccba332-1be7-42d7-a3c4-90b0d1cb293e","system_id":"levelo_inurba_marseille","lat":43.27999,"lon":5.4166,"is_reserved":false,"is_disabled":false,"rental_uris":{"android":"levelo://app?vid=eccba332-1be7-42d7-a3c4-90b0d1cb293e","ios":"levelo://app?vid=eccba332-1be7-42d7-a3c4-90b0d1cb293e"},"vehicle_type_id":"4","last_reported":1746648705,"current_range_meters":4400,"station_id":"ce4bho12rcd13ifvqh1g","pricing_plan_id":"cebpf4jnsgd1na2vs0mg"},{"bike_id":"c9592205-9409-4f74-aed1-7c4141a58caa","system_id":"levelo_inurba_marseille","lat":43.27147,"lon":5.36358,"is_reserved":false,"is_disabled":false,"rental_uris":{"android":"levelo://app?vid=c9592205-9409-4f74-aed1-7c4141a58caa","ios":"levelo://app?vid=c9592205-9409-4f74-aed1-7c4141a58caa"},"vehicle_type_id":"4","last_reported":1746648705,"current_range_meters":4800,"station_id":"","pricing_plan_id":"cebpf4jnsgd1na2vs0mg"},{"bike_id":"63cb73aa-86fe-4599-9b76-3790ec130780","system_id":"levelo_inurba_marseille","lat":43.29641,"lon":5.37914,"is_reserved":false,"is_disabled":false,"rental_uris":{"android":"levelo://app?vid=63cb73aa-86fe-4599-9b76-3790ec130780","ios":"levelo://app?vid=63cb73aa-86fe-4599-9b76-3790ec130780"},"vehicle_type_id":"4","last_reported":1746648705,"current_range_meters":4800,"station_id":"","pricing_plan_id":"cebpf4jnsgd1na2vs0mg"},{"bike_id":"8c45a76e-fd81-4017-9e53-8d1379fae169","system_id":"levelo_inurba_marseille","lat":43.29077,"lon":5.37162,"is_reserved":false,"is_disabled":false,"rental_uris":{"android":"levelo://app?vid=8c45a76e-fd81-4017-9e53-8d1379fae169","ios":"levelo://app?vid=8c45a76e-fd81-4017-9e53-8d1379fae169"},"vehicle_type_id":"4","last_reported":1746648705,"current_range_meters":4800,"station_id":"ce4bh5p2rcd13ifvqe4g","pricing_plan_id":"cebpf4jnsgd1na2vs0mg"},{"bike_id":"b27c67c5-5457-4307-b4a2-575e898944ab","system_id":"levelo_inurba_marseille","lat":43.28264,"lon":5.35065,"is_reserved":false,"is_disabled":false,"rental_uris":{"android":"levelo://app?vid=b27c67c5-5457-4307-b4a2-575e898944ab","ios":"levelo://app?vid=b27c67c5-5457-4307-b4a2-575e898944ab"},"vehicle_type_id":"4","last_reported":1746648705,"current_range_meters":4800,"station_id":"ce4bhbp2rcd13ifvqerg","pricing_plan_id":"cebpf4jnsgd1na2vs0mg"},{"bike_id":"efffaf9f-6cd9-4b5b-8c9a-c0f07f4ef8e3","system_id":"levelo_inurba_marseille","lat":43.29273,"lon":5.36843,"is_reserved":false,"is_disabled":false,"rental_uris":{"android":"levelo://app?vid=efffaf9f-6cd9-4b5b-8c9a-c0f07f4ef8e3","ios":"levelo://app?vid=efffaf9f-6cd9-4b5b-8c9a-c0f07f4ef8e3"},"vehicle_type_id":"4","last_reported":1746648705,"current_range_meters":4800,"station_id":"ce4bhbp2rcd13ifvqesg","pricing_plan_id":"cebpf4jnsgd1na2vs0mg"},{"bike_id":"18f396a8-d2b2-4236-a6f6-18ac9c642def","system_id":"levelo_inurba_marseille","lat":43.27807,"lon":5.40709,"is_reserved":false,"is_disabled":false,"rental_uris":{"android":"levelo://app?vid=18f396a8-d2b2-4236-a6f6-18ac9c642def","ios":"levelo://app?vid=18f396a8-d2b2-4236-a6f6-18ac9c642def"},"vehicle_type_id":"4","last_reported":1746648705,"current_range_meters":4800,"station_id":"ce4bhnh2rcd13ifvqgtg","pricing_plan_id":"cebpf4jnsgd1na2vs0mg"},{"bike_id":"3c101ae7-1bbf-4ac1-8514-a5c2f5273de4","system_id":"levelo_inurba_marseille","lat":43.28265,"lon":5.35066,"is_reserved":false,"is_disabled":false,"rental_uris":{"android":"levelo://app?vid=3c101ae7-1bbf-4ac1-8514-a5c2f5273de4","ios":"levelo://app?vid=3c101ae7-1bbf-4ac1-8514-a5c2f5273de4"},"vehicle_type_id":"4","last_reported":1746648705,"current_range_meters":5600,"station_id":"ce4bhbp2rcd13ifvqerg","pricing_plan_id":"cebpf4jnsgd1na2vs0mg"},{"bike_id":"53f2102a-6f07-4847-96fb-94159a32105f","system_id":"levelo_inurba_marseille","lat":43.29322,"lon":5.37167,"is_reserved":false,"is_disabled":false,"rental_uris":{"android":"levelo://app?vid=53f2102a-6f07-4847-96fb-94159a32105f","ios":"levelo://app?vid=53f2102a-6f07-4847-96fb-94159a32105f"},"vehicle_type_id":"4","last_reported":1746648705,"current_range_meters":6000,"station_id":"ce4bgh92rcd13ifvqb40","pricing_plan_id":"cebpf4jnsgd1na2vs0mg"},{"bike_id":"97f8a202-bc3f-4382-8171-0ae7aecd2fa5","system_id":"levelo_inurba_marseille","lat":43.23963,"lon":5.3663,"is_reserved":false,"is_disabled":false,"rental_uris":{"android":"levelo://app?vid=97f8a202-bc3f-4382-8171-0ae7aecd2fa5","ios":"levelo://app?vid=97f8a202-bc3f-4382-8171-0ae7aecd2fa5"},"vehicle_type_id":"4","last_reported":1746648705,"current_range_meters":6000,"station_id":"ce4bhi12rcd13ifvqfp0","pricing_plan_id":"cebpf4jnsgd1na2vs0mg"},{"bike_id":"d59f6a7d-9d6f-498b-a97f-479f8b95a457","system_id":"levelo_inurba_marseille","lat":43.28711,"lon":5.36096,"is_reserved":false,"is_disabled":false,"rental_uris":{"android":"levelo://app?vid=d59f6a7d-9d6f-498b-a97f-479f8b95a457","ios":"levelo://app?vid=d59f6a7d-9d6f-498b-a97f-479f8b95a457"},"vehicle_type_id":"4","last_reported":1746648705,"current_range_meters":6000,"station_id":"cki0cbj6b192h4jlfktg","pricing_plan_id":"cebpf4jnsgd1na2vs0mg"},{"bike_id":"5f89e5d8-8e5e-4a6d-901c-70aafb0a905d","system_id":"levelo_inurba_marseille","lat":43.29237,"lon":5.37425,"is_reserved":false,"is_disabled":false,"rental_uris":{"android":"levelo://app?vid=5f89e5d8-8e5e-4a6d-901c-70aafb0a905d","ios":"levelo://app?vid=5f89e5d8-8e5e-4a6d-901c-70aafb0a905d"},"vehicle_type_id":"4","last_reported":1746648705,"current_range_meters":6400,"station_id":"","pricing_plan_id":"cebpf4jnsgd1na2vs0mg"},{"bike_id":"db97f7d1-d35d-4dcd-976a-fbe1c8cbdd29","system_id":"levelo_inurba_marseille","lat":43.32616,"lon":5.42876,"is_reserved":false,"is_disabled":false,"rental_uris":{"android":"levelo://app?vid=db97f7d1-d35d-4dcd-976a-fbe1c8cbdd29","ios":"levelo://app?vid=db97f7d1-d35d-4dcd-976a-fbe1c8cbdd29"},"vehicle_type_id":"4","last_reported":1746648705,"current_range_meters":6400,"station_id":"","pricing_plan_id":"cebpf4jnsgd1na2vs0mg"},{"bike_id":"6fa5060f-bfaa-486c-8fab-7d22463dc89b","system_id":"levelo_inurba_marseille","lat":43.29264,"lon":5.38442,"is_reserved":false,"is_disabled":false,"rental_uris":{"android":"levelo://app?vid=6fa5060f-bfaa-486c-8fab-7d22463dc89b","ios":"levelo://app?vid=6fa5060f-bfaa-486c-8fab-7d22463dc89b"},"vehicle_type_id":"4","last_reported":1746648705,"current_range_meters":6400,"station_id":"ce4bh692rcd13ifvqea0","pricing_plan_id":"cebpf4jnsgd1na2vs0mg"},{"bike_id":"705f1f6f-d92c-4df1-a512-943b0bf79900","system_id":"levelo_inurba_marseille","lat":43.22507,"lon":5.34792,"is_reserved":false,"is_disabled":false,"rental_uris":{"android":"levelo://app?vid=705f1f6f-d92c-4df1-a512-943b0bf79900","ios":"levelo://app?vid=705f1f6f-d92c-4df1-a512-943b0bf79900"},"vehicle_type_id":"4","last_reported":1746648705,"current_range_meters":6400,"station_id":"st_cvj5dfep6f1abm77gieg","pricing_plan_id":"cebpf4jnsgd1na2vs0mg"},{"bike_id":"b10d480f-ea04-452c-8b00-fa07b9da3d00","system_id":"levelo_inurba_marseille","lat":43.31187,"lon":5.38725,"is_reserved":false,"is_disabled":false,"rental_uris":{"android":"levelo://app?vid=b10d480f-ea04-452c-8b00-fa07b9da3d00","ios":"levelo://app?vid=b10d480f-ea04-452c-8b00-fa07b9da3d00"},"vehicle_type_id":"4","last_reported":1746648705,"current_range_meters":6800,"station_id":"ce4bgv12rcd13ifvqcp0","pricing_plan_id":"cebpf4jnsgd1na2vs0mg"},{"bike_id":"7c26b8d3-fd03-4ad9-9d8e-33a7a113ba96","system_id":"levelo_inurba_marseille","lat":43.28843,"lon":5.39309,"is_reserved":false,"is_disabled":false,"rental_uris":{"android":"levelo://app?vid=7c26b8d3-fd03-4ad9-9d8e-33a7a113ba96","ios":"levelo://app?vid=7c26b8d3-fd03-4ad9-9d8e-33a7a113ba96"},"vehicle_type_id":"4","last_reported":1746648705,"current_range_meters":6800,"station_id":"ce4bh2p2rcd13ifvqdi0","pricing_plan_id":"cebpf4jnsgd1na2vs0mg"},{"bike_id":"05dc4990-e4e9-47ec-88a0-d6db56ee509e","system_id":"levelo_inurba_marseille","lat":43.31878,"lon":5.40742,"is_reserved":false,"is_disabled":false,"rental_uris":{"android":"levelo://app?vid=05dc4990-e4e9-47ec-88a0-d6db56ee509e","ios":"levelo://app?vid=05dc4990-e4e9-47ec-88a0-d6db56ee509e"},"vehicle_type_id":"4","last_reported":1746648705,"current_range_meters":6800,"station_id":"ce4bhq12rcd13ifvqhig","pricing_plan_id":"cebpf4jnsgd1na2vs0mg"},{"bike_id":"2aef7377-27a2-42fd-9206-45a02e76181f","system_id":"levelo_inurba_marseille","lat":43.29261,"lon":5.40899,"is_reserved":false,"is_disabled":false,"rental_uris":{"android":"levelo://app?vid=2aef7377-27a2-42fd-9206-45a02e76181f","ios":"levelo://app?vid=2aef7377-27a2-42fd-9206-45a02e76181f"},"vehicle_type_id":"4","last_reported":1746648705,"current_range_meters":7200,"station_id":"ce4bh192rcd13ifvqdc0","pricing_plan_id":"cebpf4jnsgd1na2vs0mg"},{"bike_id":"88242c36-ec72-498c-a95b-444aac7b45d5","system_id":"levelo_inurba_marseille","lat":43.26499,"lon":5.3954,"is_reserved":false,"is_disabled":false,"rental_uris":{"android":"levelo://app?vid=88242c36-ec72-498c-a95b-444aac7b45d5","ios":"levelo://app?vid=88242c36-ec72-498c-a95b-444aac7b45d5"},"vehicle_type_id":"4","last_reported":1746648705,"current_range_meters":7200,"station_id":"ce4bhi12rcd13ifvqfq0","pricing_plan_id":"cebpf4jnsgd1na2vs0mg"},{"bike_id":"9b14cb29-e1e9-4dcc-ae53-804f07a94bb0","system_id":"levelo_inurba_marseille","lat":43.27175,"lon":5.40998,"is_reserved":false,"is_disabled":false,"rental_uris":{"android":"levelo://app?vid=9b14cb29-e1e9-4dcc-ae53-804f07a94bb0","ios":"levelo://app?vid=9b14cb29-e1e9-4dcc-ae53-804f07a94bb0"},"vehicle_type_id":"4","last_reported":1746648705,"current_range_meters":7200,"station_id":"ce4bhl12rcd13ifvqgf0","pricing_plan_id":"cebpf4jnsgd1na2vs0mg"},{"bike_id":"dce814c0-4c4e-4a20-a33b-97af480f0bcb","system_id":"levelo_inurba_marseille","lat":43.29042,"lon":5.42684,"is_reserved":false,"is_disabled":false,"rental_uris":{"android":"levelo://app?vid=dce814c0-4c4e-4a20-a33b-97af480f0bcb","ios":"levelo://app?vid=dce814c0-4c4e-4a20-a33b-97af480f0bcb"},"vehicle_type_id":"4","last_reported":1746648705,"current_range_meters":8000,"station_id":"","pricing_plan_id":"cebpf4jnsgd1na2vs0mg"},{"bike_id":"a4e632c8-2eb9-4762-820b-c6b43e21095c","system_id":"levelo_inurba_marseille","lat":43.30298,"lon":5.392006,"is_reserved":false,"is_disabled":false,"rental_uris":{"android":"levelo://app?vid=a4e632c8-2eb9-4762-820b-c6b43e21095c","ios":"levelo://app?vid=a4e632c8-2eb9-4762-820b-c6b43e21095c"},"vehicle_type_id":"4","last_reported":1746648705,"current_range_meters":8000,"station_id":"ce4bgkh2rcd13ifvqbk0","pricing_plan_id":"cebpf4jnsgd1na2vs0mg"},{"bike_id":"52b21318-b266-4d7f-847a-90923ab83bbe","system_id":"levelo_inurba_marseille","lat":43.2928,"lon":5.36845,"is_reserved":false,"is_disabled":false,"rental_uris":{"android":"levelo://app?vid=52b21318-b266-4d7f-847a-90923ab83bbe","ios":"levelo://app?vid=52b21318-b266-4d7f-847a-90923ab83bbe"},"vehicle_type_id":"4","last_reported":1746648705,"current_range_meters":8000,"station_id":"ce4bhbp2rcd13ifvqesg","pricing_plan_id":"cebpf4jnsgd1na2vs0mg"},{"bike_id":"d3107ed7-afdb-43c3-bab5-1af258429e5d","system_id":"levelo_inurba_marseille","lat":43.27175,"lon":5.40993,"is_reserved":false,"is_disabled":false,"rental_uris":{"android":"levelo://app?vid=d3107ed7-afdb-43c3-bab5-1af258429e5d","ios":"levelo://app?vid=d3107ed7-afdb-43c3-bab5-1af258429e5d"},"vehicle_type_id":"4","last_reported":1746648705,"current_range_meters":8000,"station_id":"ce4bhl12rcd13ifvqgf0","pricing_plan_id":"cebpf4jnsgd1na2vs0mg"},{"bike_id":"aa6eaa6f-a172-4a31-8500-b76476b59cb3","system_id":"levelo_inurba_marseille","lat":43.23192,"lon":5.39995,"is_reserved":false,"is_disabled":false,"rental_uris":{"android":"levelo://app?vid=aa6eaa6f-a172-4a31-8500-b76476b59cb3","ios":"levelo://app?vid=aa6eaa6f-a172-4a31-8500-b76476b59cb3"},"vehicle_type_id":"4","last_reported":1746648705,"current_range_meters":8000,"station_id":"ce4bhn12rcd13ifvqgqg","pricing_plan_id":"cebpf4jnsgd1na2vs0mg"},{"bike_id":"9d03e3b9-cc02-47cb-8220-42e752a6ad34","system_id":"levelo_inurba_marseille","lat":43.29002,"lon":5.47693,"is_reserved":false,"is_disabled":false,"rental_uris":{"android":"levelo://app?vid=9d03e3b9-cc02-47cb-8220-42e752a6ad34","ios":"levelo://app?vid=9d03e3b9-cc02-47cb-8220-42e752a6ad34"},"vehicle_type_id":"4","last_reported":1746648705,"current_range_meters":8400,"station_id":"","pricing_plan_id":"cebpf4jnsgd1na2vs0mg"},{"bike_id":"1b617b33-4bbe-49ab-862d-58bf6223d8e9","system_id":"levelo_inurba_marseille","lat":43.3264,"lon":5.42961,"is_reserved":false,"is_disabled":false,"rental_uris":{"android":"levelo://app?vid=1b617b33-4bbe-49ab-862d-58bf6223d8e9","ios":"levelo://app?vid=1b617b33-4bbe-49ab-862d-58bf6223d8e9"},"vehicle_type_id":"4","last_reported":1746648705,"current_range_meters":8400,"station_id":"","pricing_plan_id":"cebpf4jnsgd1na2vs0mg"},{"bike_id":"81ba7db5-5264-4e66-9236-ac68ced72379","system_id":"levelo_inurba_marseille","lat":43.31375,"lon":5.38496,"is_reserved":false,"is_disabled":false,"rental_uris":{"android":"levelo://app?vid=81ba7db5-5264-4e66-9236-ac68ced72379","ios":"levelo://app?vid=81ba7db5-5264-4e66-9236-ac68ced72379"},"vehicle_type_id":"4","last_reported":1746648705,"current_range_meters":8400,"station_id":"ce4bgt92rcd13ifvqcf0","pricing_plan_id":"cebpf4jnsgd1na2vs0mg"},{"bike_id":"944710a0-c34c-41f9-b252-46b22790a9ba","system_id":"levelo_inurba_marseille","lat":43.26562,"lon":5.372819,"is_reserved":false,"is_disabled":false,"rental_uris":{"android":"levelo://app?vid=944710a0-c34c-41f9-b252-46b22790a9ba","ios":"levelo://app?vid=944710a0-c34c-41f9-b252-46b22790a9ba"},"vehicle_type_id":"4","last_reported":1746648705,"current_range_meters":8400,"station_id":"ce4bhg12rcd13ifvqf70","pricing_plan_id":"cebpf4jnsgd1na2vs0mg"},{"bike_id":"f44f1a89-67d8-4c00-9599-b3a2c38876d9","system_id":"levelo_inurba_marseille","lat":43.279661,"lon":5.417009,"is_reserved":false,"is_disabled":false,"rental_uris":{"android":"levelo://app?vid=f44f1a89-67d8-4c00-9599-b3a2c38876d9","ios":"levelo://app?vid=f44f1a89-67d8-4c00-9599-b3a2c38876d9"},"vehicle_type_id":"4","last_reported":1746648705,"current_range_meters":8400,"station_id":"ce4bho12rcd13ifvqh1g","pricing_plan_id":"cebpf4jnsgd1na2vs0mg"},{"bike_id":"ed3997a9-f42b-4f90-9e12-6614d4a0cbc5","system_id":"levelo_inurba_marseille","lat":43.33026,"lon":5.39034,"is_reserved":false,"is_disabled":false,"rental_uris":{"android":"levelo://app?vid=ed3997a9-f42b-4f90-9e12-6614d4a0cbc5","ios":"levelo://app?vid=ed3997a9-f42b-4f90-9e12-6614d4a0cbc5"},"vehicle_type_id":"4","last_reported":1746648705,"current_range_meters":8400,"station_id":"ce4bhr92rcd13ifvqhrg","pricing_plan_id":"cebpf4jnsgd1na2vs0mg"},{"bike_id":"dfd27e22-9b34-42f8-9fdf-f3a07c5bdce7","system_id":"levelo_inurba_marseille","lat":43.24211,"lon":5.36495,"is_reserved":false,"is_disabled":false,"rental_uris":{"android":"levelo://app?vid=dfd27e22-9b34-42f8-9fdf-f3a07c5bdce7","ios":"levelo://app?vid=dfd27e22-9b34-42f8-9fdf-f3a07c5bdce7"},"vehicle_type_id":"4","last_reported":1746648705,"current_range_meters":8400,"station_id":"cpo36qri1sfpv3e86is0","pricing_plan_id":"cebpf4jnsgd1na2vs0mg"},{"bike_id":"58991635-ddbf-4acf-a70a-a8b20775125c","system_id":"levelo_inurba_marseille","lat":43.3032,"lon":5.4044,"is_reserved":false,"is_disabled":false,"rental_uris":{"android":"levelo://app?vid=58991635-ddbf-4acf-a70a-a8b20775125c","ios":"levelo://app?vid=58991635-ddbf-4acf-a70a-a8b20775125c"},"vehicle_type_id":"4","last_reported":1746648705,"current_range_meters":8800,"station_id":"ce4bh012rcd13ifvqd10","pricing_plan_id":"cebpf4jnsgd1na2vs0mg"},{"bike_id":"653e7c80-1bde-46ed-afaa-3d6b7855edec","system_id":"levelo_inurba_marseille","lat":43.31272,"lon":5.40166,"is_reserved":false,"is_disabled":false,"rental_uris":{"android":"levelo://app?vid=653e7c80-1bde-46ed-afaa-3d6b7855edec","ios":"levelo://app?vid=653e7c80-1bde-46ed-afaa-3d6b7855edec"},"vehicle_type_id":"4","last_reported":1746648705,"current_range_meters":8800,"station_id":"ce4bh092rcd13ifvqd30","pricing_plan_id":"cebpf4jnsgd1na2vs0mg"},{"bike_id":"871d92dc-153b-42ec-8d90-34c9e0fb29bf","system_id":"levelo_inurba_marseille","lat":43.30635,"lon":5.39881,"is_reserved":false,"is_disabled":false,"rental_uris":{"android":"levelo://app?vid=871d92dc-153b-42ec-8d90-34c9e0fb29bf","ios":"levelo://app?vid=871d92dc-153b-42ec-8d90-34c9e0fb29bf"},"vehicle_type_id":"4","last_reported":1746648705,"current_range_meters":9200,"station_id":"","pricing_plan_id":"cebpf4jnsgd1na2vs0mg"},{"bike_id":"b7bdbe3a-b7ec-4256-908f-dfa71835a5d1","system_id":"levelo_inurba_marseille","lat":43.28869,"lon":5.37167,"is_reserved":false,"is_disabled":false,"rental_uris":{"android":"levelo://app?vid=b7bdbe3a-b7ec-4256-908f-dfa71835a5d1","ios":"levelo://app?vid=b7bdbe3a-b7ec-4256-908f-dfa71835a5d1"},"vehicle_type_id":"4","last_reported":1746648705,"current_range_meters":9200,"station_id":"","pricing_plan_id":"cebpf4jnsgd1na2vs0mg"},{"bike_id":"57550d4c-0511-47fe-ade8-16aeedc6dedf","system_id":"levelo_inurba_marseille","lat":43.29259,"lon":5.384314,"is_reserved":false,"is_disabled":false,"rental_uris":{"android":"levelo://app?vid=57550d4c-0511-47fe-ade8-16aeedc6dedf","ios":"levelo://app?vid=57550d4c-0511-47fe-ade8-16aeedc6dedf"},"vehicle_type_id":"4","last_reported":1746648705,"current_range_meters":9200,"station_id":"ce4bh692rcd13ifvqea0","pricing_plan_id":"cebpf4jnsgd1na2vs0mg"},{"bike_id":"f0deccb7-a270-4fd4-a51e-39844e0ae45a","system_id":"levelo_inurba_marseille","lat":43.29261,"lon":5.38449,"is_reserved":false,"is_disabled":false,"rental_uris":{"android":"levelo://app?vid=f0deccb7-a270-4fd4-a51e-39844e0ae45a","ios":"levelo://app?vid=f0deccb7-a270-4fd4-a51e-39844e0ae45a"},"vehicle_type_id":"4","last_reported":1746648705,"current_range_meters":9200,"station_id":"ce4bh692rcd13ifvqea0","pricing_plan_id":"cebpf4jnsgd1na2vs0mg"},{"bike_id":"72883d60-f880-4f50-be88-847478167c0b","system_id":"levelo_inurba_marseille","lat":43.29254,"lon":5.38441,"is_reserved":false,"is_disabled":false,"rental_uris":{"android":"levelo://app?vid=72883d60-f880-4f50-be88-847478167c0b","ios":"levelo://app?vid=72883d60-f880-4f50-be88-847478167c0b"},"vehicle_type_id":"4","last_reported":1746648705,"current_range_meters":9200,"station_id":"ce4bh692rcd13ifvqea0","pricing_plan_id":"cebpf4jnsgd1na2vs0mg"},{"bike_id":"b869a19e-7f03-464b-be2b-5804c268973b","system_id":"levelo_inurba_marseille","lat":43.29276,"lon":5.36842,"is_reserved":false,"is_disabled":false,"rental_uris":{"android":"levelo://app?vid=b869a19e-7f03-464b-be2b-5804c268973b","ios":"levelo://app?vid=b869a19e-7f03-464b-be2b-5804c268973b"},"vehicle_type_id":"4","last_reported":1746648705,"current_range_meters":9200,"station_id":"ce4bhbp2rcd13ifvqesg","pricing_plan_id":"cebpf4jnsgd1na2vs0mg"},{"bike_id":"5872f101-9271-4805-860d-0ee54b52f844","system_id":"levelo_inurba_marseille","lat":43.3229,"lon":5.38264,"is_reserved":false,"is_disabled":false,"rental_uris":{"android":"levelo://app?vid=5872f101-9271-4805-860d-0ee54b52f844","ios":"levelo://app?vid=5872f101-9271-4805-860d-0ee54b52f844"},"vehicle_type_id":"4","last_reported":1746648705,"current_range_meters":9200,"station_id":"ce4bhr12rcd13ifvqhqg","pricing_plan_id":"cebpf4jnsgd1na2vs0mg"},{"bike_id":"149dbc3f-738a-4425-9044-fb81967ea585","system_id":"levelo_inurba_marseille","lat":43.23054,"lon":5.35495,"is_reserved":false,"is_disabled":false,"rental_uris":{"android":"levelo://app?vid=149dbc3f-738a-4425-9044-fb81967ea585","ios":"levelo://app?vid=149dbc3f-738a-4425-9044-fb81967ea585"},"vehicle_type_id":"4","last_reported":1746648705,"current_range_meters":9200,"station_id":"cpo3342slgdg3j2ifvpg","pricing_plan_id":"cebpf4jnsgd1na2vs0mg"},{"bike_id":"e8f2e017-ef03-4bc6-bcb9-e6015310306c","system_id":"levelo_inurba_marseille","lat":43.248028,"lon":5.374533,"is_reserved":false,"is_disabled":false,"rental_uris":{"android":"levelo://app?vid=e8f2e017-ef03-4bc6-bcb9-e6015310306c","ios":"levelo://app?vid=e8f2e017-ef03-4bc6-bcb9-e6015310306c"},"vehicle_type_id":"4","last_reported":1746648705,"current_range_meters":9600,"station_id":"ce4bhgh2rcd13ifvqfb0","pricing_plan_id":"cebpf4jnsgd1na2vs0mg"},{"bike_id":"b96655e8-7754-4219-9938-385f2066428d","system_id":"levelo_inurba_marseille","lat":43.2318,"lon":5.39998,"is_reserved":false,"is_disabled":false,"rental_uris":{"android":"levelo://app?vid=b96655e8-7754-4219-9938-385f2066428d","ios":"levelo://app?vid=b96655e8-7754-4219-9938-385f2066428d"},"vehicle_type_id":"4","last_reported":1746648705,"current_range_meters":9600,"station_id":"ce4bhn12rcd13ifvqgqg","pricing_plan_id":"cebpf4jnsgd1na2vs0mg"},{"bike_id":"ecf93d58-d94b-4cdf-b1a3-a23555f4e6b8","system_id":"levelo_inurba_marseille","lat":43.23187,"lon":5.35544,"is_reserved":false,"is_disabled":false,"rental_uris":{"android":"levelo://app?vid=ecf93d58-d94b-4cdf-b1a3-a23555f4e6b8","ios":"levelo://app?vid=ecf93d58-d94b-4cdf-b1a3-a23555f4e6b8"},"vehicle_type_id":"4","last_reported":1746648705,"current_range_meters":9600,"station_id":"ce4bhu92rcd13ifvqi70","pricing_plan_id":"cebpf4jnsgd1na2vs0mg"},{"bike_id":"89420609-8590-4e4d-9042-8fb0e02b5686","system_id":"levelo_inurba_marseille","lat":43.24161,"lon":5.36392,"is_reserved":false,"is_disabled":false,"rental_uris":{"android":"levelo://app?vid=89420609-8590-4e4d-9042-8fb0e02b5686","ios":"levelo://app?vid=89420609-8590-4e4d-9042-8fb0e02b5686"},"vehicle_type_id":"4","last_reported":1746648705,"current_range_meters":9600,"station_id":"cpo36qri1sfpv3e86is0","pricing_plan_id":"cebpf4jnsgd1na2vs0mg"},{"bike_id":"dbe6c090-a883-4f7a-86ca-f7062cab9bbf","system_id":"levelo_inurba_marseille","lat":43.217458,"lon":5.346054,"is_reserved":false,"is_disabled":false,"rental_uris":{"android":"levelo://app?vid=dbe6c090-a883-4f7a-86ca-f7062cab9bbf","ios":"levelo://app?vid=dbe6c090-a883-4f7a-86ca-f7062cab9bbf"},"vehicle_type_id":"4","last_reported":1746648705,"current_range_meters":9600,"station_id":"st_cvj6r9ubvosntc0bgbag","pricing_plan_id":"cebpf4jnsgd1na2vs0mg"},{"bike_id":"ce40ea43-bacf-49f3-b5af-ffaf2a1f03b1","system_id":"levelo_inurba_marseille","lat":43.30495,"lon":5.36757,"is_reserved":false,"is_disabled":false,"rental_uris":{"android":"levelo://app?vid=ce40ea43-bacf-49f3-b5af-ffaf2a1f03b1","ios":"levelo://app?vid=ce40ea43-bacf-49f3-b5af-ffaf2a1f03b1"},"vehicle_type_id":"4","last_reported":1746648705,"current_range_meters":10000,"station_id":"ce4bgrp2rcd13ifvqc9g","pricing_plan_id":"cebpf4jnsgd1na2vs0mg"},{"bike_id":"22248004-7c57-4d02-88e6-ebaa94d58f67","system_id":"levelo_inurba_marseille","lat":43.30423,"lon":5.39735,"is_reserved":false,"is_disabled":false,"rental_uris":{"android":"levelo://app?vid=22248004-7c57-4d02-88e6-ebaa94d58f67","ios":"levelo://app?vid=22248004-7c57-4d02-88e6-ebaa94d58f67"},"vehicle_type_id":"4","last_reported":1746648705,"current_range_meters":10000,"station_id":"ce4bh092rcd13ifvqd20","pricing_plan_id":"cebpf4jnsgd1na2vs0mg"},{"bike_id":"f29f7b63-6f39-4414-947e-d5e3209b6c9e","system_id":"levelo_inurba_marseille","lat":43.2738,"lon":5.36264,"is_reserved":false,"is_disabled":false,"rental_uris":{"android":"levelo://app?vid=f29f7b63-6f39-4414-947e-d5e3209b6c9e","ios":"levelo://app?vid=f29f7b63-6f39-4414-947e-d5e3209b6c9e"},"vehicle_type_id":"4","last_reported":1746648705,"current_range_meters":10000,"station_id":"ce4bhbh2rcd13ifvqeo0","pricing_plan_id":"cebpf4jnsgd1na2vs0mg"},{"bike_id":"936ce776-f7a5-44ea-83d2-94cb7a8d5b75","system_id":"levelo_inurba_marseille","lat":43.2606,"lon":5.39401,"is_reserved":false,"is_disabled":false,"rental_uris":{"android":"levelo://app?vid=936ce776-f7a5-44ea-83d2-94cb7a8d5b75","ios":"levelo://app?vid=936ce776-f7a5-44ea-83d2-94cb7a8d5b75"},"vehicle_type_id":"4","last_reported":1746648705,"current_range_meters":10000,"station_id":"ce4bhh92rcd13ifvqfj0","pricing_plan_id":"cebpf4jnsgd1na2vs0mg"},{"bike_id":"c650db92-e467-494a-8ffb-fba552729a60","system_id":"levelo_inurba_marseille","lat":43.23961,"lon":5.36645,"is_reserved":false,"is_disabled":false,"rental_uris":{"android":"levelo://app?vid=c650db92-e467-494a-8ffb-fba552729a60","ios":"levelo://app?vid=c650db92-e467-494a-8ffb-fba552729a60"},"vehicle_type_id":"4","last_reported":1746648705,"current_range_meters":10000,"station_id":"ce4bhi12rcd13ifvqfp0","pricing_plan_id":"cebpf4jnsgd1na2vs0mg"},{"bike_id":"39bf2d56-d69d-4108-879b-b6df6ee83fb9","system_id":"levelo_inurba_marseille","lat":43.28079,"lon":5.39662,"is_reserved":false,"is_disabled":false,"rental_uris":{"android":"levelo://app?vid=39bf2d56-d69d-4108-879b-b6df6ee83fb9","ios":"levelo://app?vid=39bf2d56-d69d-4108-879b-b6df6ee83fb9"},"vehicle_type_id":"4","last_reported":1746648705,"current_range_meters":10000,"station_id":"ce4bho12rcd13ifvqh2g","pricing_plan_id":"cebpf4jnsgd1na2vs0mg"},{"bike_id":"199aa2d6-674b-49ea-a9d0-cb338758f4a2","system_id":"levelo_inurba_marseille","lat":43.28716,"lon":5.36115,"is_reserved":false,"is_disabled":false,"rental_uris":{"android":"levelo://app?vid=199aa2d6-674b-49ea-a9d0-cb338758f4a2","ios":"levelo://app?vid=199aa2d6-674b-49ea-a9d0-cb338758f4a2"},"vehicle_type_id":"4","last_reported":1746648705,"current_range_meters":10000,"station_id":"cki0cbj6b192h4jlfktg","pricing_plan_id":"cebpf4jnsgd1na2vs0mg"},{"bike_id":"2aa7cda7-115a-4abe-ae6e-937831174c08","system_id":"levelo_inurba_marseille","lat":43.29611,"lon":5.38097,"is_reserved":false,"is_disabled":false,"rental_uris":{"android":"levelo://app?vid=2aa7cda7-115a-4abe-ae6e-937831174c08","ios":"levelo://app?vid=2aa7cda7-115a-4abe-ae6e-937831174c08"},"vehicle_type_id":"4","last_reported":1746648705,"current_range_meters":10800,"station_id":"ce4bgl12rcd13ifvqbo0","pricing_plan_id":"cebpf4jnsgd1na2vs0mg"},{"bike_id":"1af74947-bf81-414f-89d2-23cce578bd1b","system_id":"levelo_inurba_marseille","lat":43.29262,"lon":5.38447,"is_reserved":false,"is_disabled":false,"rental_uris":{"android":"levelo://app?vid=1af74947-bf81-414f-89d2-23cce578bd1b","ios":"levelo://app?vid=1af74947-bf81-414f-89d2-23cce578bd1b"},"vehicle_type_id":"4","last_reported":1746648705,"current_range_meters":10800,"station_id":"ce4bh692rcd13ifvqea0","pricing_plan_id":"cebpf4jnsgd1na2vs0mg"},{"bike_id":"f243534f-3450-48a8-b88e-c779cf397b00","system_id":"levelo_inurba_marseille","lat":43.28716,"lon":5.37937,"is_reserved":false,"is_disabled":false,"rental_uris":{"android":"levelo://app?vid=f243534f-3450-48a8-b88e-c779cf397b00","ios":"levelo://app?vid=f243534f-3450-48a8-b88e-c779cf397b00"},"vehicle_type_id":"4","last_reported":1746648705,"current_range_meters":10800,"station_id":"ce4bh9p2rcd13ifvqec0","pricing_plan_id":"cebpf4jnsgd1na2vs0mg"},{"bike_id":"40604081-f5e4-4a6b-8ab7-71f0909c7fc0","system_id":"levelo_inurba_marseille","lat":43.27377,"lon":5.36271,"is_reserved":false,"is_disabled":false,"rental_uris":{"android":"levelo://app?vid=40604081-f5e4-4a6b-8ab7-71f0909c7fc0","ios":"levelo://app?vid=40604081-f5e4-4a6b-8ab7-71f0909c7fc0"},"vehicle_type_id":"4","last_reported":1746648705,"current_range_meters":10800,"station_id":"ce4bhbh2rcd13ifvqeo0","pricing_plan_id":"cebpf4jnsgd1na2vs0mg"},{"bike_id":"b0c70e14-f44e-433e-9134-7dab1033467b","system_id":"levelo_inurba_marseille","lat":43.273783,"lon":5.36258,"is_reserved":false,"is_disabled":false,"rental_uris":{"android":"levelo://app?vid=b0c70e14-f44e-433e-9134-7dab1033467b","ios":"levelo://app?vid=b0c70e14-f44e-433e-9134-7dab1033467b"},"vehicle_type_id":"4","last_reported":1746648705,"current_range_meters":10800,"station_id":"ce4bhbh2rcd13ifvqeo0","pricing_plan_id":"cebpf4jnsgd1na2vs0mg"},{"bike_id":"8595f23e-9d34-4baa-97fb-423c97ce2fde","system_id":"levelo_inurba_marseille","lat":43.29194,"lon":5.36069,"is_reserved":false,"is_disabled":false,"rental_uris":{"android":"levelo://app?vid=8595f23e-9d34-4baa-97fb-423c97ce2fde","ios":"levelo://app?vid=8595f23e-9d34-4baa-97fb-423c97ce2fde"},"vehicle_type_id":"4","last_reported":1746648705,"current_range_meters":10800,"station_id":"ce4bhbh2rcd13ifvqeqg","pricing_plan_id":"cebpf4jnsgd1na2vs0mg"},{"bike_id":"bf3b3c7d-471d-410f-b0be-28f5419d5a2b","system_id":"levelo_inurba_marseille","lat":43.28698,"lon":5.39989,"is_reserved":false,"is_disabled":false,"rental_uris":{"android":"levelo://app?vid=bf3b3c7d-471d-410f-b0be-28f5419d5a2b","ios":"levelo://app?vid=bf3b3c7d-471d-410f-b0be-28f5419d5a2b"},"vehicle_type_id":"4","last_reported":1746648705,"current_range_meters":10800,"station_id":"ce4bho92rcd13ifvqh3g","pricing_plan_id":"cebpf4jnsgd1na2vs0mg"},{"bike_id":"8155e806-6cd6-4341-b8a8-55dfc6ca51a1","system_id":"levelo_inurba_marseille","lat":43.31997,"lon":5.38166,"is_reserved":false,"is_disabled":false,"rental_uris":{"android":"levelo://app?vid=8155e806-6cd6-4341-b8a8-55dfc6ca51a1","ios":"levelo://app?vid=8155e806-6cd6-4341-b8a8-55dfc6ca51a1"},"vehicle_type_id":"4","last_reported":1746648705,"current_range_meters":10800,"station_id":"ce4bhr12rcd13ifvqhpg","pricing_plan_id":"cebpf4jnsgd1na2vs0mg"},{"bike_id":"043830c4-30a0-46aa-a786-025ac310f6dd","system_id":"levelo_inurba_marseille","lat":43.31359,"lon":5.37013,"is_reserved":false,"is_disabled":false,"rental_uris":{"android":"levelo://app?vid=043830c4-30a0-46aa-a786-025ac310f6dd","ios":"levelo://app?vid=043830c4-30a0-46aa-a786-025ac310f6dd"},"vehicle_type_id":"4","last_reported":1746648705,"current_range_meters":11200,"station_id":"","pricing_plan_id":"cebpf4jnsgd1na2vs0mg"},{"bike_id":"b15fe93b-1059-4d75-abd3-040e349ce402","system_id":"levelo_inurba_marseille","lat":43.30102,"lon":5.37002,"is_reserved":false,"is_disabled":false,"rental_uris":{"android":"levelo://app?vid=b15fe93b-1059-4d75-abd3-040e349ce402","ios":"levelo://app?vid=b15fe93b-1059-4d75-abd3-040e349ce402"},"vehicle_type_id":"4","last_reported":1746648705,"current_range_meters":11200,"station_id":"","pricing_plan_id":"cebpf4jnsgd1na2vs0mg"},{"bike_id":"a96833c3-7aad-4769-953e-d8192a324355","system_id":"levelo_inurba_marseille","lat":43.337444,"lon":5.374475,"is_reserved":false,"is_disabled":false,"rental_uris":{"android":"levelo://app?vid=a96833c3-7aad-4769-953e-d8192a324355","ios":"levelo://app?vid=a96833c3-7aad-4769-953e-d8192a324355"},"vehicle_type_id":"4","last_reported":1746648705,"current_range_meters":11200,"station_id":"","pricing_plan_id":"cebpf4jnsgd1na2vs0mg"},{"bike_id":"ad2145ed-2967-4b42-bd38-5af28beddeb1","system_id":"levelo_inurba_marseille","lat":43.30539,"lon":5.38422,"is_reserved":false,"is_disabled":false,"rental_uris":{"android":"levelo://app?vid=ad2145ed-2967-4b42-bd38-5af28beddeb1","ios":"levelo://app?vid=ad2145ed-2967-4b42-bd38-5af28beddeb1"},"vehicle_type_id":"4","last_reported":1746648705,"current_range_meters":11200,"station_id":"ce4bgg92rcd13ifvqb30","pricing_plan_id":"cebpf4jnsgd1na2vs0mg"},{"bike_id":"d76be796-edd1-4ae6-be10-253ece60c30d","system_id":"levelo_inurba_marseille","lat":43.31483,"lon":5.37316,"is_reserved":false,"is_disabled":false,"rental_uris":{"android":"levelo://app?vid=d76be796-edd1-4ae6-be10-253ece60c30d","ios":"levelo://app?vid=d76be796-edd1-4ae6-be10-253ece60c30d"},"vehicle_type_id":"4","last_reported":1746648705,"current_range_meters":11200,"station_id":"ce4bgt12rcd13ifvqcd0","pricing_plan_id":"cebpf4jnsgd1na2vs0mg"},{"bike_id":"29c11375-e586-40df-9ee9-fabfa49c8507","system_id":"levelo_inurba_marseille","lat":43.28712,"lon":5.37929,"is_reserved":false,"is_disabled":false,"rental_uris":{"android":"levelo://app?vid=29c11375-e586-40df-9ee9-fabfa49c8507","ios":"levelo://app?vid=29c11375-e586-40df-9ee9-fabfa49c8507"},"vehicle_type_id":"4","last_reported":1746648705,"current_range_meters":11200,"station_id":"ce4bh9p2rcd13ifvqec0","pricing_plan_id":"cebpf4jnsgd1na2vs0mg"},{"bike_id":"c460d626-46dc-4323-977a-1bf36ca4902b","system_id":"levelo_inurba_marseille","lat":43.28037,"lon":5.36942,"is_reserved":false,"is_disabled":false,"rental_uris":{"android":"levelo://app?vid=c460d626-46dc-4323-977a-1bf36ca4902b","ios":"levelo://app?vid=c460d626-46dc-4323-977a-1bf36ca4902b"},"vehicle_type_id":"4","last_reported":1746648705,"current_range_meters":11600,"station_id":"ce4bha12rcd13ifvqef0","pricing_plan_id":"cebpf4jnsgd1na2vs0mg"},{"bike_id":"e2af7fe1-7301-4b7b-80d1-dec3d7463744","system_id":"levelo_inurba_marseille","lat":43.28664,"lon":5.36356,"is_reserved":false,"is_disabled":false,"rental_uris":{"android":"levelo://app?vid=e2af7fe1-7301-4b7b-80d1-dec3d7463744","ios":"levelo://app?vid=e2af7fe1-7301-4b7b-80d1-dec3d7463744"},"vehicle_type_id":"4","last_reported":1746648705,"current_range_meters":11600,"station_id":"ce4bhah2rcd13ifvqej0","pricing_plan_id":"cebpf4jnsgd1na2vs0mg"},{"bike_id":"be2ea01e-901c-4275-b9a1-758d91918d20","system_id":"levelo_inurba_marseille","lat":43.31073,"lon":5.38353,"is_reserved":false,"is_disabled":false,"rental_uris":{"android":"levelo://app?vid=be2ea01e-901c-4275-b9a1-758d91918d20","ios":"levelo://app?vid=be2ea01e-901c-4275-b9a1-758d91918d20"},"vehicle_type_id":"4","last_reported":1746648705,"current_range_meters":12000,"station_id":"ce4bgv92rcd13ifvqcr0","pricing_plan_id":"cebpf4jnsgd1na2vs0mg"},{"bike_id":"3e492348-a833-474f-86e4-ac7c1b66940f","system_id":"levelo_inurba_marseille","lat":43.28692,"lon":5.37393,"is_reserved":false,"is_disabled":false,"rental_uris":{"android":"levelo://app?vid=3e492348-a833-474f-86e4-ac7c1b66940f","ios":"levelo://app?vid=3e492348-a833-474f-86e4-ac7c1b66940f"},"vehicle_type_id":"4","last_reported":1746648705,"current_range_meters":12000,"station_id":"ce4bh3p2rcd13ifvqdq0","pricing_plan_id":"cebpf4jnsgd1na2vs0mg"},{"bike_id":"b95f4830-76c2-48af-a1a6-db3a400538dd","system_id":"levelo_inurba_marseille","lat":43.331298,"lon":5.382492,"is_reserved":false,"is_disabled":false,"rental_uris":{"android":"levelo://app?vid=b95f4830-76c2-48af-a1a6-db3a400538dd","ios":"levelo://app?vid=b95f4830-76c2-48af-a1a6-db3a400538dd"},"vehicle_type_id":"4","last_reported":1746648705,"current_range_meters":12400,"station_id":"","pricing_plan_id":"cebpf4jnsgd1na2vs0mg"},{"bike_id":"db823666-8f97-438c-8230-0115db4a7694","system_id":"levelo_inurba_marseille","lat":43.28282,"lon":5.36182,"is_reserved":false,"is_disabled":false,"rental_uris":{"android":"levelo://app?vid=db823666-8f97-438c-8230-0115db4a7694","ios":"levelo://app?vid=db823666-8f97-438c-8230-0115db4a7694"},"vehicle_type_id":"4","last_reported":1746648705,"current_range_meters":12400,"station_id":"","pricing_plan_id":"cebpf4jnsgd1na2vs0mg"},{"bike_id":"56bd24be-6f64-47ba-8c35-e59e917d355e","system_id":"levelo_inurba_marseille","lat":43.29317,"lon":5.37171,"is_reserved":false,"is_disabled":false,"rental_uris":{"android":"levelo://app?vid=56bd24be-6f64-47ba-8c35-e59e917d355e","ios":"levelo://app?vid=56bd24be-6f64-47ba-8c35-e59e917d355e"},"vehicle_type_id":"4","last_reported":1746648705,"current_range_meters":12400,"station_id":"ce4bgh92rcd13ifvqb40","pricing_plan_id":"cebpf4jnsgd1na2vs0mg"},{"bike_id":"cbb568b2-7002-44bc-a849-cbc0c38aea52","system_id":"levelo_inurba_marseille","lat":43.29365,"lon":5.3858,"is_reserved":false,"is_disabled":false,"rental_uris":{"android":"levelo://app?vid=cbb568b2-7002-44bc-a849-cbc0c38aea52","ios":"levelo://app?vid=cbb568b2-7002-44bc-a849-cbc0c38aea52"},"vehicle_type_id":"4","last_reported":1746648705,"current_range_meters":12400,"station_id":"ce4bh2h2rcd13ifvqdh0","pricing_plan_id":"cebpf4jnsgd1na2vs0mg"},{"bike_id":"412da3ba-cb9b-472e-b850-959eec8df49a","system_id":"levelo_inurba_marseille","lat":43.29264,"lon":5.38445,"is_reserved":false,"is_disabled":false,"rental_uris":{"android":"levelo://app?vid=412da3ba-cb9b-472e-b850-959eec8df49a","ios":"levelo://app?vid=412da3ba-cb9b-472e-b850-959eec8df49a"},"vehicle_type_id":"4","last_reported":1746648705,"current_range_meters":12400,"station_id":"ce4bh692rcd13ifvqea0","pricing_plan_id":"cebpf4jnsgd1na2vs0mg"},{"bike_id":"7dd5a980-4989-44f4-8514-fcc84322bba0","system_id":"levelo_inurba_marseille","lat":43.27382,"lon":5.36261,"is_reserved":false,"is_disabled":false,"rental_uris":{"android":"levelo://app?vid=7dd5a980-4989-44f4-8514-fcc84322bba0","ios":"levelo://app?vid=7dd5a980-4989-44f4-8514-fcc84322bba0"},"vehicle_type_id":"4","last_reported":1746648705,"current_range_meters":12400,"station_id":"ce4bhbh2rcd13ifvqeo0","pricing_plan_id":"cebpf4jnsgd1na2vs0mg"},{"bike_id":"47bfc016-0555-4c29-b924-01e16266044a","system_id":"levelo_inurba_marseille","lat":43.30919,"lon":5.40147,"is_reserved":false,"is_disabled":false,"rental_uris":{"android":"levelo://app?vid=47bfc016-0555-4c29-b924-01e16266044a","ios":"levelo://app?vid=47bfc016-0555-4c29-b924-01e16266044a"},"vehicle_type_id":"4","last_reported":1746648705,"current_range_meters":12800,"station_id":"ce4bgvp2rcd13ifvqct0","pricing_plan_id":"cebpf4jnsgd1na2vs0mg"},{"bike_id":"853edf05-a4a6-4557-9618-7f23af33d320","system_id":"levelo_inurba_marseille","lat":43.28849,"lon":5.39306,"is_reserved":false,"is_disabled":false,"rental_uris":{"android":"levelo://app?vid=853edf05-a4a6-4557-9618-7f23af33d320","ios":"levelo://app?vid=853edf05-a4a6-4557-9618-7f23af33d320"},"vehicle_type_id":"4","last_reported":1746648705,"current_range_meters":12800,"station_id":"ce4bh2p2rcd13ifvqdi0","pricing_plan_id":"cebpf4jnsgd1na2vs0mg"},{"bike_id":"cb5561fb-3ed2-49bf-bd58-7c8862116c78","system_id":"levelo_inurba_marseille","lat":43.21193,"lon":5.35077,"is_reserved":false,"is_disabled":false,"rental_uris":{"android":"levelo://app?vid=cb5561fb-3ed2-49bf-bd58-7c8862116c78","ios":"levelo://app?vid=cb5561fb-3ed2-49bf-bd58-7c8862116c78"},"vehicle_type_id":"4","last_reported":1746648705,"current_range_meters":12800,"station_id":"st_cvj6sg6p6f1abm77japg","pricing_plan_id":"cebpf4jnsgd1na2vs0mg"},{"bike_id":"bffbdaa2-7ec4-47ef-9ce9-2f0293695e76","system_id":"levelo_inurba_marseille","lat":43.29978,"lon":5.38484,"is_reserved":false,"is_disabled":false,"rental_uris":{"android":"levelo://app?vid=bffbdaa2-7ec4-47ef-9ce9-2f0293695e76","ios":"levelo://app?vid=bffbdaa2-7ec4-47ef-9ce9-2f0293695e76"},"vehicle_type_id":"4","last_reported":1746648705,"current_range_meters":13600,"station_id":"ce4bgj92rcd13ifvqbd0","pricing_plan_id":"cebpf4jnsgd1na2vs0mg"},{"bike_id":"222d7d5b-43c2-4fc8-9c5d-2fdfdc5429ba","system_id":"levelo_inurba_marseille","lat":43.29277,"lon":5.38408,"is_reserved":false,"is_disabled":false,"rental_uris":{"android":"levelo://app?vid=222d7d5b-43c2-4fc8-9c5d-2fdfdc5429ba","ios":"levelo://app?vid=222d7d5b-43c2-4fc8-9c5d-2fdfdc5429ba"},"vehicle_type_id":"4","last_reported":1746648705,"current_range_meters":13600,"station_id":"ce4bh692rcd13ifvqea0","pricing_plan_id":"cebpf4jnsgd1na2vs0mg"},{"bike_id":"ea3d2dcc-28e8-4b18-862d-086237abd3cd","system_id":"levelo_inurba_marseille","lat":43.29604,"lon":5.38107,"is_reserved":false,"is_disabled":false,"rental_uris":{"android":"levelo://app?vid=ea3d2dcc-28e8-4b18-862d-086237abd3cd","ios":"levelo://app?vid=ea3d2dcc-28e8-4b18-862d-086237abd3cd"},"vehicle_type_id":"4","last_reported":1746648705,"current_range_meters":14000,"station_id":"ce4bgl12rcd13ifvqbo0","pricing_plan_id":"cebpf4jnsgd1na2vs0mg"},{"bike_id":"e8bb7743-f8b9-49f7-95ab-b1a34628ea0b","system_id":"levelo_inurba_marseille","lat":43.30879,"lon":5.39655,"is_reserved":false,"is_disabled":false,"rental_uris":{"android":"levelo://app?vid=e8bb7743-f8b9-49f7-95ab-b1a34628ea0b","ios":"levelo://app?vid=e8bb7743-f8b9-49f7-95ab-b1a34628ea0b"},"vehicle_type_id":"4","last_reported":1746648705,"current_range_meters":14000,"station_id":"ce4bh012rcd13ifvqcv0","pricing_plan_id":"cebpf4jnsgd1na2vs0mg"},{"bike_id":"1661de55-4d67-477c-90e4-53ea01c1dbf0","system_id":"levelo_inurba_marseille","lat":43.27382,"lon":5.36257,"is_reserved":false,"is_disabled":false,"rental_uris":{"android":"levelo://app?vid=1661de55-4d67-477c-90e4-53ea01c1dbf0","ios":"levelo://app?vid=1661de55-4d67-477c-90e4-53ea01c1dbf0"},"vehicle_type_id":"4","last_reported":1746648705,"current_range_meters":14000,"station_id":"ce4bhbh2rcd13ifvqeo0","pricing_plan_id":"cebpf4jnsgd1na2vs0mg"},{"bike_id":"26ff23c0-5b24-490d-96c6-855f0a05a30d","system_id":"levelo_inurba_marseille","lat":43.264943,"lon":5.395182,"is_reserved":false,"is_disabled":false,"rental_uris":{"android":"levelo://app?vid=26ff23c0-5b24-490d-96c6-855f0a05a30d","ios":"levelo://app?vid=26ff23c0-5b24-490d-96c6-855f0a05a30d"},"vehicle_type_id":"4","last_reported":1746648705,"current_range_meters":14000,"station_id":"ce4bhi12rcd13ifvqfq0","pricing_plan_id":"cebpf4jnsgd1na2vs0mg"},{"bike_id":"3125fe2e-f44f-4ebd-a08d-890abdb8ca36","system_id":"levelo_inurba_marseille","lat":43.26498,"lon":5.39537,"is_reserved":false,"is_disabled":false,"rental_uris":{"android":"levelo://app?vid=3125fe2e-f44f-4ebd-a08d-890abdb8ca36","ios":"levelo://app?vid=3125fe2e-f44f-4ebd-a08d-890abdb8ca36"},"vehicle_type_id":"4","last_reported":1746648705,"current_range_meters":14000,"station_id":"ce4bhi12rcd13ifvqfq0","pricing_plan_id":"cebpf4jnsgd1na2vs0mg"},{"bike_id":"1ac3db99-4722-4f4a-8229-f23b893a8e77","system_id":"levelo_inurba_marseille","lat":43.28667,"lon":5.36355,"is_reserved":false,"is_disabled":false,"rental_uris":{"android":"levelo://app?vid=1ac3db99-4722-4f4a-8229-f23b893a8e77","ios":"levelo://app?vid=1ac3db99-4722-4f4a-8229-f23b893a8e77"},"vehicle_type_id":"4","last_reported":1746648705,"current_range_meters":14400,"station_id":"ce4bhah2rcd13ifvqej0","pricing_plan_id":"cebpf4jnsgd1na2vs0mg"},{"bike_id":"93d2445e-c92c-4da1-9cb1-eefade90d887","system_id":"levelo_inurba_marseille","lat":43.29593,"lon":5.381,"is_reserved":false,"is_disabled":false,"rental_uris":{"android":"levelo://app?vid=93d2445e-c92c-4da1-9cb1-eefade90d887","ios":"levelo://app?vid=93d2445e-c92c-4da1-9cb1-eefade90d887"},"vehicle_type_id":"4","last_reported":1746648705,"current_range_meters":14800,"station_id":"ce4bgl12rcd13ifvqbo0","pricing_plan_id":"cebpf4jnsgd1na2vs0mg"},{"bike_id":"2c8e77b9-dd0f-4f5b-a80f-ee2972c228d8","system_id":"levelo_inurba_marseille","lat":43.24082,"lon":5.37752,"is_reserved":false,"is_disabled":false,"rental_uris":{"android":"levelo://app?vid=2c8e77b9-dd0f-4f5b-a80f-ee2972c228d8","ios":"levelo://app?vid=2c8e77b9-dd0f-4f5b-a80f-ee2972c228d8"},"vehicle_type_id":"4","last_reported":1746648705,"current_range_meters":14800,"station_id":"ce4bhnp2rcd13ifvqgvg","pricing_plan_id":"cebpf4jnsgd1na2vs0mg"},{"bike_id":"e945a495-d359-4bb7-bb94-1340aff95955","system_id":"levelo_inurba_marseille","lat":43.28053,"lon":5.40662,"is_reserved":false,"is_disabled":false,"rental_uris":{"android":"levelo://app?vid=e945a495-d359-4bb7-bb94-1340aff95955","ios":"levelo://app?vid=e945a495-d359-4bb7-bb94-1340aff95955"},"vehicle_type_id":"4","last_reported":1746648705,"current_range_meters":15200,"station_id":"","pricing_plan_id":"cebpf4jnsgd1na2vs0mg"},{"bike_id":"3a760dc3-905e-40c9-816e-b83e82f11e46","system_id":"levelo_inurba_marseille","lat":43.30167,"lon":5.36633,"is_reserved":false,"is_disabled":false,"rental_uris":{"android":"levelo://app?vid=3a760dc3-905e-40c9-816e-b83e82f11e46","ios":"levelo://app?vid=3a760dc3-905e-40c9-816e-b83e82f11e46"},"vehicle_type_id":"4","last_reported":1746648705,"current_range_meters":15200,"station_id":"ce4bgrh2rcd13ifvqc8g","pricing_plan_id":"cebpf4jnsgd1na2vs0mg"},{"bike_id":"17b214d6-99b5-4fbd-a65f-6ac3467903ea","system_id":"levelo_inurba_marseille","lat":43.31083,"lon":5.38362,"is_reserved":false,"is_disabled":false,"rental_uris":{"android":"levelo://app?vid=17b214d6-99b5-4fbd-a65f-6ac3467903ea","ios":"levelo://app?vid=17b214d6-99b5-4fbd-a65f-6ac3467903ea"},"vehicle_type_id":"4","last_reported":1746648705,"current_range_meters":15200,"station_id":"ce4bgv92rcd13ifvqcr0","pricing_plan_id":"cebpf4jnsgd1na2vs0mg"},{"bike_id":"aebc79c0-9077-4834-a3da-49432daff9c4","system_id":"levelo_inurba_marseille","lat":43.29262,"lon":5.38447,"is_reserved":false,"is_disabled":false,"rental_uris":{"android":"levelo://app?vid=aebc79c0-9077-4834-a3da-49432daff9c4","ios":"levelo://app?vid=aebc79c0-9077-4834-a3da-49432daff9c4"},"vehicle_type_id":"4","last_reported":1746648705,"current_range_meters":15200,"station_id":"ce4bh692rcd13ifvqea0","pricing_plan_id":"cebpf4jnsgd1na2vs0mg"},{"bike_id":"42dae3dc-6328-4962-870f-b07876df5937","system_id":"levelo_inurba_marseille","lat":43.24549,"lon":5.39521,"is_reserved":false,"is_disabled":false,"rental_uris":{"android":"levelo://app?vid=42dae3dc-6328-4962-870f-b07876df5937","ios":"levelo://app?vid=42dae3dc-6328-4962-870f-b07876df5937"},"vehicle_type_id":"4","last_reported":1746648705,"current_range_meters":15200,"station_id":"ce4bhlp2rcd13ifvqgjg","pricing_plan_id":"cebpf4jnsgd1na2vs0mg"},{"bike_id":"3e015219-7be0-4c5f-80a6-2ab7817f1f6a","system_id":"levelo_inurba_marseille","lat":43.27494,"lon":5.4245,"is_reserved":false,"is_disabled":false,"rental_uris":{"android":"levelo://app?vid=3e015219-7be0-4c5f-80a6-2ab7817f1f6a","ios":"levelo://app?vid=3e015219-7be0-4c5f-80a6-2ab7817f1f6a"},"vehicle_type_id":"4","last_reported":1746648705,"current_range_meters":15200,"station_id":"ce4bhn92rcd13ifvqgrg","pricing_plan_id":"cebpf4jnsgd1na2vs0mg"},{"bike_id":"80199f8f-032d-45cd-9852-50d56bbc0842","system_id":"levelo_inurba_marseille","lat":43.32286,"lon":5.382705,"is_reserved":false,"is_disabled":false,"rental_uris":{"android":"levelo://app?vid=80199f8f-032d-45cd-9852-50d56bbc0842","ios":"levelo://app?vid=80199f8f-032d-45cd-9852-50d56bbc0842"},"vehicle_type_id":"4","last_reported":1746648705,"current_range_meters":15200,"station_id":"ce4bhr12rcd13ifvqhqg","pricing_plan_id":"cebpf4jnsgd1na2vs0mg"},{"bike_id":"5d713a40-e6f3-4885-b30e-8953fd7e64b0","system_id":"levelo_inurba_marseille","lat":43.31836,"lon":5.37997,"is_reserved":false,"is_disabled":false,"rental_uris":{"android":"levelo://app?vid=5d713a40-e6f3-4885-b30e-8953fd7e64b0","ios":"levelo://app?vid=5d713a40-e6f3-4885-b30e-8953fd7e64b0"},"vehicle_type_id":"4","last_reported":1746648705,"current_range_meters":16000,"station_id":"","pricing_plan_id":"cebpf4jnsgd1na2vs0mg"},{"bike_id":"809c8673-c032-46b9-aa07-62c38e26d44e","system_id":"levelo_inurba_marseille","lat":43.25068,"lon":5.38779,"is_reserved":false,"is_disabled":false,"rental_uris":{"android":"levelo://app?vid=809c8673-c032-46b9-aa07-62c38e26d44e","ios":"levelo://app?vid=809c8673-c032-46b9-aa07-62c38e26d44e"},"vehicle_type_id":"4","last_reported":1746648705,"current_range_meters":16000,"station_id":"","pricing_plan_id":"cebpf4jnsgd1na2vs0mg"},{"bike_id":"a51fdf92-3c77-4a94-8497-bb3052c31896","system_id":"levelo_inurba_marseille","lat":43.31492,"lon":5.37305,"is_reserved":false,"is_disabled":false,"rental_uris":{"android":"levelo://app?vid=a51fdf92-3c77-4a94-8497-bb3052c31896","ios":"levelo://app?vid=a51fdf92-3c77-4a94-8497-bb3052c31896"},"vehicle_type_id":"4","last_reported":1746648705,"current_range_meters":16000,"station_id":"ce4bgt12rcd13ifvqcd0","pricing_plan_id":"cebpf4jnsgd1na2vs0mg"},{"bike_id":"e6282093-23fb-41a9-859d-c0d9ad966535","system_id":"levelo_inurba_marseille","lat":43.316973,"lon":5.377103,"is_reserved":false,"is_disabled":false,"rental_uris":{"android":"levelo://app?vid=e6282093-23fb-41a9-859d-c0d9ad966535","ios":"levelo://app?vid=e6282093-23fb-41a9-859d-c0d9ad966535"},"vehicle_type_id":"4","last_reported":1746648705,"current_range_meters":16000,"station_id":"ce4bgth2rcd13ifvqch0","pricing_plan_id":"cebpf4jnsgd1na2vs0mg"},{"bike_id":"36fca820-290f-4c5a-8ac5-3d6a0315b30c","system_id":"levelo_inurba_marseille","lat":43.28418,"lon":5.34996,"is_reserved":false,"is_disabled":false,"rental_uris":{"android":"levelo://app?vid=36fca820-290f-4c5a-8ac5-3d6a0315b30c","ios":"levelo://app?vid=36fca820-290f-4c5a-8ac5-3d6a0315b30c"},"vehicle_type_id":"4","last_reported":1746648705,"current_range_meters":16000,"station_id":"ce4bhbh2rcd13ifvqepg","pricing_plan_id":"cebpf4jnsgd1na2vs0mg"},{"bike_id":"47cd9dba-9c5a-4de3-a27d-45ec0de547bc","system_id":"levelo_inurba_marseille","lat":43.28847,"lon":5.43322,"is_reserved":false,"is_disabled":false,"rental_uris":{"android":"levelo://app?vid=47cd9dba-9c5a-4de3-a27d-45ec0de547bc","ios":"levelo://app?vid=47cd9dba-9c5a-4de3-a27d-45ec0de547bc"},"vehicle_type_id":"4","last_reported":1746648705,"current_range_meters":16400,"station_id":"","pricing_plan_id":"cebpf4jnsgd1na2vs0mg"},{"bike_id":"d04ac5d0-3623-465f-95f4-b8bcdb3e209c","system_id":"levelo_inurba_marseille","lat":43.29418,"lon":5.38627,"is_reserved":false,"is_disabled":false,"rental_uris":{"android":"levelo://app?vid=d04ac5d0-3623-465f-95f4-b8bcdb3e209c","ios":"levelo://app?vid=d04ac5d0-3623-465f-95f4-b8bcdb3e209c"},"vehicle_type_id":"4","last_reported":1746648705,"current_range_meters":16400,"station_id":"ce4bh2h2rcd13ifvqdh0","pricing_plan_id":"cebpf4jnsgd1na2vs0mg"},{"bike_id":"7783f5c4-455c-429c-89eb-77c01a04e81b","system_id":"levelo_inurba_marseille","lat":43.29268,"lon":5.3844,"is_reserved":false,"is_disabled":false,"rental_uris":{"android":"levelo://app?vid=7783f5c4-455c-429c-89eb-77c01a04e81b","ios":"levelo://app?vid=7783f5c4-455c-429c-89eb-77c01a04e81b"},"vehicle_type_id":"4","last_reported":1746648705,"current_range_meters":16400,"station_id":"ce4bh692rcd13ifvqea0","pricing_plan_id":"cebpf4jnsgd1na2vs0mg"},{"bike_id":"9483b3dc-5b66-4bed-be3c-3c5beb40a288","system_id":"levelo_inurba_marseille","lat":43.28938,"lon":5.3664,"is_reserved":false,"is_disabled":false,"rental_uris":{"android":"levelo://app?vid=9483b3dc-5b66-4bed-be3c-3c5beb40a288","ios":"levelo://app?vid=9483b3dc-5b66-4bed-be3c-3c5beb40a288"},"vehicle_type_id":"4","last_reported":1746648705,"current_range_meters":16400,"station_id":"ce4bhap2rcd13ifvqek0","pricing_plan_id":"cebpf4jnsgd1na2vs0mg"},{"bike_id":"de9cec45-cb9d-4cbf-afe9-1c3bdf3b02f6","system_id":"levelo_inurba_marseille","lat":43.27375,"lon":5.36252,"is_reserved":false,"is_disabled":false,"rental_uris":{"android":"levelo://app?vid=de9cec45-cb9d-4cbf-afe9-1c3bdf3b02f6","ios":"levelo://app?vid=de9cec45-cb9d-4cbf-afe9-1c3bdf3b02f6"},"vehicle_type_id":"4","last_reported":1746648705,"current_range_meters":16400,"station_id":"ce4bhbh2rcd13ifvqeo0","pricing_plan_id":"cebpf4jnsgd1na2vs0mg"},{"bike_id":"ea96f9dd-65bd-4fcc-a36b-4f54ca5cea80","system_id":"levelo_inurba_marseille","lat":43.27811,"lon":5.407,"is_reserved":false,"is_disabled":false,"rental_uris":{"android":"levelo://app?vid=ea96f9dd-65bd-4fcc-a36b-4f54ca5cea80","ios":"levelo://app?vid=ea96f9dd-65bd-4fcc-a36b-4f54ca5cea80"},"vehicle_type_id":"4","last_reported":1746648705,"current_range_meters":16400,"station_id":"ce4bhnh2rcd13ifvqgtg","pricing_plan_id":"cebpf4jnsgd1na2vs0mg"},{"bike_id":"3b9f931f-9974-4797-9575-55bcc795121c","system_id":"levelo_inurba_marseille","lat":43.29606,"lon":5.38093,"is_reserved":false,"is_disabled":false,"rental_uris":{"android":"levelo://app?vid=3b9f931f-9974-4797-9575-55bcc795121c","ios":"levelo://app?vid=3b9f931f-9974-4797-9575-55bcc795121c"},"vehicle_type_id":"4","last_reported":1746648705,"current_range_meters":17200,"station_id":"ce4bgl12rcd13ifvqbo0","pricing_plan_id":"cebpf4jnsgd1na2vs0mg"},{"bike_id":"21e37311-4968-49b9-b5e5-804676926203","system_id":"levelo_inurba_marseille","lat":43.28848,"lon":5.3933,"is_reserved":false,"is_disabled":false,"rental_uris":{"android":"levelo://app?vid=21e37311-4968-49b9-b5e5-804676926203","ios":"levelo://app?vid=21e37311-4968-49b9-b5e5-804676926203"},"vehicle_type_id":"4","last_reported":1746648705,"current_range_meters":17200,"station_id":"ce4bh2p2rcd13ifvqdi0","pricing_plan_id":"cebpf4jnsgd1na2vs0mg"},{"bike_id":"a8940954-c41e-4509-a643-8b3cf5c2d497","system_id":"levelo_inurba_marseille","lat":43.25729,"lon":5.41109,"is_reserved":false,"is_disabled":false,"rental_uris":{"android":"levelo://app?vid=a8940954-c41e-4509-a643-8b3cf5c2d497","ios":"levelo://app?vid=a8940954-c41e-4509-a643-8b3cf5c2d497"},"vehicle_type_id":"4","last_reported":1746648705,"current_range_meters":17200,"station_id":"ce4bhkp2rcd13ifvqgd0","pricing_plan_id":"cebpf4jnsgd1na2vs0mg"},{"bike_id":"49e1edb5-3fad-4311-9de7-56cceb654a91","system_id":"levelo_inurba_marseille","lat":43.26806,"lon":5.40268,"is_reserved":false,"is_disabled":false,"rental_uris":{"android":"levelo://app?vid=49e1edb5-3fad-4311-9de7-56cceb654a91","ios":"levelo://app?vid=49e1edb5-3fad-4311-9de7-56cceb654a91"},"vehicle_type_id":"4","last_reported":1746648705,"current_range_meters":17200,"station_id":"ce501612rcd8frsf0b60","pricing_plan_id":"cebpf4jnsgd1na2vs0mg"},{"bike_id":"44cd33cd-68be-4697-9327-0b715b11c653","system_id":"levelo_inurba_marseille","lat":43.23193,"lon":5.35558,"is_reserved":false,"is_disabled":false,"rental_uris":{"android":"levelo://app?vid=44cd33cd-68be-4697-9327-0b715b11c653","ios":"levelo://app?vid=44cd33cd-68be-4697-9327-0b715b11c653"},"vehicle_type_id":"4","last_reported":1746648705,"current_range_meters":17600,"station_id":"ce4bhu92rcd13ifvqi70","pricing_plan_id":"cebpf4jnsgd1na2vs0mg"},{"bike_id":"7cb84a55-eae0-4ff8-a8e8-801fd7179396","system_id":"levelo_inurba_marseille","lat":43.30621,"lon":5.37414,"is_reserved":false,"is_disabled":false,"rental_uris":{"android":"levelo://app?vid=7cb84a55-eae0-4ff8-a8e8-801fd7179396","ios":"levelo://app?vid=7cb84a55-eae0-4ff8-a8e8-801fd7179396"},"vehicle_type_id":"4","last_reported":1746648705,"current_range_meters":18000,"station_id":"","pricing_plan_id":"cebpf4jnsgd1na2vs0mg"},{"bike_id":"8845de1a-be34-4f74-b18c-495de805e8ba","system_id":"levelo_inurba_marseille","lat":43.24801,"lon":5.37461,"is_reserved":false,"is_disabled":false,"rental_uris":{"android":"levelo://app?vid=8845de1a-be34-4f74-b18c-495de805e8ba","ios":"levelo://app?vid=8845de1a-be34-4f74-b18c-495de805e8ba"},"vehicle_type_id":"4","last_reported":1746648705,"current_range_meters":18000,"station_id":"ce4bhgh2rcd13ifvqfb0","pricing_plan_id":"cebpf4jnsgd1na2vs0mg"},{"bike_id":"8bdf87bd-c91b-4644-9046-7072259f9131","system_id":"levelo_inurba_marseille","lat":43.31316,"lon":5.36814,"is_reserved":false,"is_disabled":false,"rental_uris":{"android":"levelo://app?vid=8bdf87bd-c91b-4644-9046-7072259f9131","ios":"levelo://app?vid=8bdf87bd-c91b-4644-9046-7072259f9131"},"vehicle_type_id":"4","last_reported":1746648705,"current_range_meters":18800,"station_id":"","pricing_plan_id":"cebpf4jnsgd1na2vs0mg"},{"bike_id":"758dbe23-d343-46ae-b761-fa6e07e905e6","system_id":"levelo_inurba_marseille","lat":43.30304,"lon":5.3921,"is_reserved":false,"is_disabled":false,"rental_uris":{"android":"levelo://app?vid=758dbe23-d343-46ae-b761-fa6e07e905e6","ios":"levelo://app?vid=758dbe23-d343-46ae-b761-fa6e07e905e6"},"vehicle_type_id":"4","last_reported":1746648705,"current_range_meters":18800,"station_id":"ce4bgkh2rcd13ifvqbk0","pricing_plan_id":"cebpf4jnsgd1na2vs0mg"},{"bike_id":"a62a0f52-5f98-413f-96a5-e889e946e1b2","system_id":"levelo_inurba_marseille","lat":43.30436,"lon":5.378801,"is_reserved":false,"is_disabled":false,"rental_uris":{"android":"levelo://app?vid=a62a0f52-5f98-413f-96a5-e889e946e1b2","ios":"levelo://app?vid=a62a0f52-5f98-413f-96a5-e889e946e1b2"},"vehicle_type_id":"4","last_reported":1746648705,"current_range_meters":18800,"station_id":"ce4bgup2rcd13ifvqcn0","pricing_plan_id":"cebpf4jnsgd1na2vs0mg"},{"bike_id":"2cf57508-6254-45d9-b8ae-7fb01af4b4fc","system_id":"levelo_inurba_marseille","lat":43.28994,"lon":5.37827,"is_reserved":false,"is_disabled":false,"rental_uris":{"android":"levelo://app?vid=2cf57508-6254-45d9-b8ae-7fb01af4b4fc","ios":"levelo://app?vid=2cf57508-6254-45d9-b8ae-7fb01af4b4fc"},"vehicle_type_id":"4","last_reported":1746648705,"current_range_meters":18800,"station_id":"ce4bh9p2rcd13ifvqed0","pricing_plan_id":"cebpf4jnsgd1na2vs0mg"},{"bike_id":"80b02f0f-29d8-43d1-b0e0-93657000421e","system_id":"levelo_inurba_marseille","lat":43.24388,"lon":5.37058,"is_reserved":false,"is_disabled":false,"rental_uris":{"android":"levelo://app?vid=80b02f0f-29d8-43d1-b0e0-93657000421e","ios":"levelo://app?vid=80b02f0f-29d8-43d1-b0e0-93657000421e"},"vehicle_type_id":"4","last_reported":1746648705,"current_range_meters":18800,"station_id":"ce4bhhh2rcd13ifvqfk0","pricing_plan_id":"cebpf4jnsgd1na2vs0mg"},{"bike_id":"7a68be61-8756-4f10-947b-b796000fafc5","system_id":"levelo_inurba_marseille","lat":43.27058,"lon":5.40253,"is_reserved":false,"is_disabled":false,"rental_uris":{"android":"levelo://app?vid=7a68be61-8756-4f10-947b-b796000fafc5","ios":"levelo://app?vid=7a68be61-8756-4f10-947b-b796000fafc5"},"vehicle_type_id":"4","last_reported":1746648705,"current_range_meters":18800,"station_id":"ce4bhk92rcd13ifvqgc0","pricing_plan_id":"cebpf4jnsgd1na2vs0mg"},{"bike_id":"0ec16688-632b-4134-ba1b-eb024a30fc58","system_id":"levelo_inurba_marseille","lat":43.28485,"lon":5.3921,"is_reserved":false,"is_disabled":false,"rental_uris":{"android":"levelo://app?vid=0ec16688-632b-4134-ba1b-eb024a30fc58","ios":"levelo://app?vid=0ec16688-632b-4134-ba1b-eb024a30fc58"},"vehicle_type_id":"4","last_reported":1746648705,"current_range_meters":18800,"station_id":"ce4bhoh2rcd13ifvqh5g","pricing_plan_id":"cebpf4jnsgd1na2vs0mg"},{"bike_id":"84b72283-56a4-4fed-867f-3b600034b9d6","system_id":"levelo_inurba_marseille","lat":43.296,"lon":5.38102,"is_reserved":false,"is_disabled":false,"rental_uris":{"android":"levelo://app?vid=84b72283-56a4-4fed-867f-3b600034b9d6","ios":"levelo://app?vid=84b72283-56a4-4fed-867f-3b600034b9d6"},"vehicle_type_id":"4","last_reported":1746648705,"current_range_meters":19200,"station_id":"ce4bgl12rcd13ifvqbo0","pricing_plan_id":"cebpf4jnsgd1na2vs0mg"},{"bike_id":"86b197b1-658c-40db-8b30-e30cbe42070a","system_id":"levelo_inurba_marseille","lat":43.273713,"lon":5.362547,"is_reserved":false,"is_disabled":false,"rental_uris":{"android":"levelo://app?vid=86b197b1-658c-40db-8b30-e30cbe42070a","ios":"levelo://app?vid=86b197b1-658c-40db-8b30-e30cbe42070a"},"vehicle_type_id":"4","last_reported":1746648705,"current_range_meters":19200,"station_id":"ce4bhbh2rcd13ifvqeo0","pricing_plan_id":"cebpf4jnsgd1na2vs0mg"},{"bike_id":"ad3912e1-02bc-450f-9f15-6e4766049115","system_id":"levelo_inurba_marseille","lat":43.2956,"lon":5.42266,"is_reserved":false,"is_disabled":false,"rental_uris":{"android":"levelo://app?vid=ad3912e1-02bc-450f-9f15-6e4766049115","ios":"levelo://app?vid=ad3912e1-02bc-450f-9f15-6e4766049115"},"vehicle_type_id":"4","last_reported":1746648705,"current_range_meters":19200,"station_id":"ce4bhph2rcd13ifvqhdg","pricing_plan_id":"cebpf4jnsgd1na2vs0mg"},{"bike_id":"70a29a45-574c-4ff1-aca3-740aa0e705be","system_id":"levelo_inurba_marseille","lat":43.24161,"lon":5.36424,"is_reserved":false,"is_disabled":false,"rental_uris":{"android":"levelo://app?vid=70a29a45-574c-4ff1-aca3-740aa0e705be","ios":"levelo://app?vid=70a29a45-574c-4ff1-aca3-740aa0e705be"},"vehicle_type_id":"4","last_reported":1746648705,"current_range_meters":19200,"station_id":"cpo36qri1sfpv3e86is0","pricing_plan_id":"cebpf4jnsgd1na2vs0mg"},{"bike_id":"e2094e82-43c9-4eb4-a6a8-fdd9d45fb240","system_id":"levelo_inurba_marseille","lat":43.2926,"lon":5.38447,"is_reserved":false,"is_disabled":false,"rental_uris":{"android":"levelo://app?vid=e2094e82-43c9-4eb4-a6a8-fdd9d45fb240","ios":"levelo://app?vid=e2094e82-43c9-4eb4-a6a8-fdd9d45fb240"},"vehicle_type_id":"4","last_reported":1746648705,"current_range_meters":19600,"station_id":"ce4bh692rcd13ifvqea0","pricing_plan_id":"cebpf4jnsgd1na2vs0mg"},{"bike_id":"259ef1ba-3b72-401a-914a-7b4ef8473ffd","system_id":"levelo_inurba_marseille","lat":43.28728,"lon":5.37941,"is_reserved":false,"is_disabled":false,"rental_uris":{"android":"levelo://app?vid=259ef1ba-3b72-401a-914a-7b4ef8473ffd","ios":"levelo://app?vid=259ef1ba-3b72-401a-914a-7b4ef8473ffd"},"vehicle_type_id":"4","last_reported":1746648705,"current_range_meters":19600,"station_id":"ce4bh9p2rcd13ifvqec0","pricing_plan_id":"cebpf4jnsgd1na2vs0mg"},{"bike_id":"1d1ed902-9c7d-4162-b5db-e65abbced81c","system_id":"levelo_inurba_marseille","lat":43.24809,"lon":5.37452,"is_reserved":false,"is_disabled":false,"rental_uris":{"android":"levelo://app?vid=1d1ed902-9c7d-4162-b5db-e65abbced81c","ios":"levelo://app?vid=1d1ed902-9c7d-4162-b5db-e65abbced81c"},"vehicle_type_id":"4","last_reported":1746648705,"current_range_meters":19600,"station_id":"ce4bhgh2rcd13ifvqfb0","pricing_plan_id":"cebpf4jnsgd1na2vs0mg"},{"bike_id":"86faaeb0-89f8-42b9-be93-a34d16b7bcf7","system_id":"levelo_inurba_marseille","lat":43.30077,"lon":5.37052,"is_reserved":false,"is_disabled":false,"rental_uris":{"android":"levelo://app?vid=86faaeb0-89f8-42b9-be93-a34d16b7bcf7","ios":"levelo://app?vid=86faaeb0-89f8-42b9-be93-a34d16b7bcf7"},"vehicle_type_id":"4","last_reported":1746648705,"current_range_meters":20000,"station_id":"","pricing_plan_id":"cebpf4jnsgd1na2vs0mg"},{"bike_id":"1d21839c-b8bb-44c8-8cbd-70efbbd32e51","system_id":"levelo_inurba_marseille","lat":43.29312,"lon":5.37153,"is_reserved":false,"is_disabled":false,"rental_uris":{"android":"levelo://app?vid=1d21839c-b8bb-44c8-8cbd-70efbbd32e51","ios":"levelo://app?vid=1d21839c-b8bb-44c8-8cbd-70efbbd32e51"},"vehicle_type_id":"4","last_reported":1746648705,"current_range_meters":20000,"station_id":"ce4bgh92rcd13ifvqb40","pricing_plan_id":"cebpf4jnsgd1na2vs0mg"},{"bike_id":"6caea97f-251f-4957-b010-be499921d7e7","system_id":"levelo_inurba_marseille","lat":43.29259,"lon":5.38458,"is_reserved":false,"is_disabled":false,"rental_uris":{"android":"levelo://app?vid=6caea97f-251f-4957-b010-be499921d7e7","ios":"levelo://app?vid=6caea97f-251f-4957-b010-be499921d7e7"},"vehicle_type_id":"4","last_reported":1746648705,"current_range_meters":20000,"station_id":"ce4bh692rcd13ifvqea0","pricing_plan_id":"cebpf4jnsgd1na2vs0mg"},{"bike_id":"26b7ed20-d681-485d-8713-2891623ae6be","system_id":"levelo_inurba_marseille","lat":43.2737,"lon":5.36252,"is_reserved":false,"is_disabled":false,"rental_uris":{"android":"levelo://app?vid=26b7ed20-d681-485d-8713-2891623ae6be","ios":"levelo://app?vid=26b7ed20-d681-485d-8713-2891623ae6be"},"vehicle_type_id":"4","last_reported":1746648705,"current_range_meters":20000,"station_id":"ce4bhbh2rcd13ifvqeo0","pricing_plan_id":"cebpf4jnsgd1na2vs0mg"},{"bike_id":"f649b199-2a89-4686-9912-93de13f5cf41","system_id":"levelo_inurba_marseille","lat":43.24546,"lon":5.39521,"is_reserved":false,"is_disabled":false,"rental_uris":{"android":"levelo://app?vid=f649b199-2a89-4686-9912-93de13f5cf41","ios":"levelo://app?vid=f649b199-2a89-4686-9912-93de13f5cf41"},"vehicle_type_id":"4","last_reported":1746648705,"current_range_meters":20000,"station_id":"ce4bhlp2rcd13ifvqgjg","pricing_plan_id":"cebpf4jnsgd1na2vs0mg"},{"bike_id":"964184fe-87f0-4890-acd6-deb4f544aa7c","system_id":"levelo_inurba_marseille","lat":43.2319,"lon":5.39983,"is_reserved":false,"is_disabled":false,"rental_uris":{"android":"levelo://app?vid=964184fe-87f0-4890-acd6-deb4f544aa7c","ios":"levelo://app?vid=964184fe-87f0-4890-acd6-deb4f544aa7c"},"vehicle_type_id":"4","last_reported":1746648705,"current_range_meters":20000,"station_id":"ce4bhn12rcd13ifvqgqg","pricing_plan_id":"cebpf4jnsgd1na2vs0mg"},{"bike_id":"16d82653-e2e5-4531-a384-7902e244f0cf","system_id":"levelo_inurba_marseille","lat":43.22507,"lon":5.34793,"is_reserved":false,"is_disabled":false,"rental_uris":{"android":"levelo://app?vid=16d82653-e2e5-4531-a384-7902e244f0cf","ios":"levelo://app?vid=16d82653-e2e5-4531-a384-7902e244f0cf"},"vehicle_type_id":"4","last_reported":1746648705,"current_range_meters":20000,"station_id":"st_cvj5dfep6f1abm77gieg","pricing_plan_id":"cebpf4jnsgd1na2vs0mg"},{"bike_id":"89b5c51b-cd9c-475c-ba7a-726b12d22f75","system_id":"levelo_inurba_marseille","lat":43.21192,"lon":5.35074,"is_reserved":false,"is_disabled":false,"rental_uris":{"android":"levelo://app?vid=89b5c51b-cd9c-475c-ba7a-726b12d22f75","ios":"levelo://app?vid=89b5c51b-cd9c-475c-ba7a-726b12d22f75"},"vehicle_type_id":"4","last_reported":1746648705,"current_range_meters":20000,"station_id":"st_cvj6sg6p6f1abm77japg","pricing_plan_id":"cebpf4jnsgd1na2vs0mg"},{"bike_id":"545f7335-f587-48c6-bdc0-fb5f2925857f","system_id":"levelo_inurba_marseille","lat":43.31064,"lon":5.38354,"is_reserved":false,"is_disabled":false,"rental_uris":{"android":"levelo://app?vid=545f7335-f587-48c6-bdc0-fb5f2925857f","ios":"levelo://app?vid=545f7335-f587-48c6-bdc0-fb5f2925857f"},"vehicle_type_id":"4","last_reported":1746648705,"current_range_meters":20400,"station_id":"ce4bgv92rcd13ifvqcr0","pricing_plan_id":"cebpf4jnsgd1na2vs0mg"},{"bike_id":"b58208f6-5c5f-4f43-8041-e907b6898206","system_id":"levelo_inurba_marseille","lat":43.29256,"lon":5.38434,"is_reserved":false,"is_disabled":false,"rental_uris":{"android":"levelo://app?vid=b58208f6-5c5f-4f43-8041-e907b6898206","ios":"levelo://app?vid=b58208f6-5c5f-4f43-8041-e907b6898206"},"vehicle_type_id":"4","last_reported":1746648705,"current_range_meters":20400,"station_id":"ce4bh692rcd13ifvqea0","pricing_plan_id":"cebpf4jnsgd1na2vs0mg"},{"bike_id":"d3d0a76b-e333-419c-94f7-0e11634bab9c","system_id":"levelo_inurba_marseille","lat":43.27992,"lon":5.41657,"is_reserved":false,"is_disabled":false,"rental_uris":{"android":"levelo://app?vid=d3d0a76b-e333-419c-94f7-0e11634bab9c","ios":"levelo://app?vid=d3d0a76b-e333-419c-94f7-0e11634bab9c"},"vehicle_type_id":"4","last_reported":1746648705,"current_range_meters":20400,"station_id":"ce4bho12rcd13ifvqh1g","pricing_plan_id":"cebpf4jnsgd1na2vs0mg"},{"bike_id":"14813968-55be-45df-9620-0f89911f17c1","system_id":"levelo_inurba_marseille","lat":43.29786,"lon":5.39354,"is_reserved":false,"is_disabled":false,"rental_uris":{"android":"levelo://app?vid=14813968-55be-45df-9620-0f89911f17c1","ios":"levelo://app?vid=14813968-55be-45df-9620-0f89911f17c1"},"vehicle_type_id":"4","last_reported":1746648705,"current_range_meters":20400,"station_id":"chh1huq6cuj3fo74tm60","pricing_plan_id":"cebpf4jnsgd1na2vs0mg"},{"bike_id":"cac0d531-1eb9-40b8-a3b6-dbae9b6fbc40","system_id":"levelo_inurba_marseille","lat":43.28725,"lon":5.36101,"is_reserved":false,"is_disabled":false,"rental_uris":{"android":"levelo://app?vid=cac0d531-1eb9-40b8-a3b6-dbae9b6fbc40","ios":"levelo://app?vid=cac0d531-1eb9-40b8-a3b6-dbae9b6fbc40"},"vehicle_type_id":"4","last_reported":1746648705,"current_range_meters":20400,"station_id":"cki0cbj6b192h4jlfktg","pricing_plan_id":"cebpf4jnsgd1na2vs0mg"},{"bike_id":"ff807334-3ad3-4e40-bbde-648eb2b1c45b","system_id":"levelo_inurba_marseille","lat":43.2118,"lon":5.35115,"is_reserved":false,"is_disabled":false,"rental_uris":{"android":"levelo://app?vid=ff807334-3ad3-4e40-bbde-648eb2b1c45b","ios":"levelo://app?vid=ff807334-3ad3-4e40-bbde-648eb2b1c45b"},"vehicle_type_id":"4","last_reported":1746648705,"current_range_meters":20400,"station_id":"st_cvj6sg6p6f1abm77japg","pricing_plan_id":"cebpf4jnsgd1na2vs0mg"},{"bike_id":"caccb556-2ad0-45b8-84b8-819024dd44e6","system_id":"levelo_inurba_marseille","lat":43.29436,"lon":5.38607,"is_reserved":false,"is_disabled":false,"rental_uris":{"android":"levelo://app?vid=caccb556-2ad0-45b8-84b8-819024dd44e6","ios":"levelo://app?vid=caccb556-2ad0-45b8-84b8-819024dd44e6"},"vehicle_type_id":"4","last_reported":1746648705,"current_range_meters":20800,"station_id":"","pricing_plan_id":"cebpf4jnsgd1na2vs0mg"},{"bike_id":"a38c5fcd-2a3e-4e2c-b5be-bfb908394086","system_id":"levelo_inurba_marseille","lat":43.32788,"lon":5.39122,"is_reserved":false,"is_disabled":false,"rental_uris":{"android":"levelo://app?vid=a38c5fcd-2a3e-4e2c-b5be-bfb908394086","ios":"levelo://app?vid=a38c5fcd-2a3e-4e2c-b5be-bfb908394086"},"vehicle_type_id":"4","last_reported":1746648705,"current_range_meters":20800,"station_id":"","pricing_plan_id":"cebpf4jnsgd1na2vs0mg"},{"bike_id":"8201c2b4-76ae-40f2-a912-47e49c35ffc8","system_id":"levelo_inurba_marseille","lat":43.27907,"lon":5.37999,"is_reserved":false,"is_disabled":false,"rental_uris":{"android":"levelo://app?vid=8201c2b4-76ae-40f2-a912-47e49c35ffc8","ios":"levelo://app?vid=8201c2b4-76ae-40f2-a912-47e49c35ffc8"},"vehicle_type_id":"4","last_reported":1746648705,"current_range_meters":20800,"station_id":"ce4bhf92rcd13ifvqf50","pricing_plan_id":"cebpf4jnsgd1na2vs0mg"},{"bike_id":"943c17e1-2f10-4f8b-b508-00da99e73e39","system_id":"levelo_inurba_marseille","lat":43.23181,"lon":5.4,"is_reserved":false,"is_disabled":false,"rental_uris":{"android":"levelo://app?vid=943c17e1-2f10-4f8b-b508-00da99e73e39","ios":"levelo://app?vid=943c17e1-2f10-4f8b-b508-00da99e73e39"},"vehicle_type_id":"4","last_reported":1746648705,"current_range_meters":20800,"station_id":"ce4bhn12rcd13ifvqgqg","pricing_plan_id":"cebpf4jnsgd1na2vs0mg"},{"bike_id":"3c17387b-5b67-4d87-8a41-8dff1a883396","system_id":"levelo_inurba_marseille","lat":43.27504,"lon":5.42451,"is_reserved":false,"is_disabled":false,"rental_uris":{"android":"levelo://app?vid=3c17387b-5b67-4d87-8a41-8dff1a883396","ios":"levelo://app?vid=3c17387b-5b67-4d87-8a41-8dff1a883396"},"vehicle_type_id":"4","last_reported":1746648705,"current_range_meters":20800,"station_id":"ce4bhn92rcd13ifvqgrg","pricing_plan_id":"cebpf4jnsgd1na2vs0mg"},{"bike_id":"6f9eadde-0dc6-4797-9b8e-02dc72b93819","system_id":"levelo_inurba_marseille","lat":43.29197,"lon":5.3932,"is_reserved":false,"is_disabled":false,"rental_uris":{"android":"levelo://app?vid=6f9eadde-0dc6-4797-9b8e-02dc72b93819","ios":"levelo://app?vid=6f9eadde-0dc6-4797-9b8e-02dc72b93819"},"vehicle_type_id":"4","last_reported":1746648705,"current_range_meters":21600,"station_id":"ce4bh192rcd13ifvqdd0","pricing_plan_id":"cebpf4jnsgd1na2vs0mg"},{"bike_id":"d3f5e6e4-4315-407c-8663-960948dfa741","system_id":"levelo_inurba_marseille","lat":43.28853,"lon":5.39311,"is_reserved":false,"is_disabled":false,"rental_uris":{"android":"levelo://app?vid=d3f5e6e4-4315-407c-8663-960948dfa741","ios":"levelo://app?vid=d3f5e6e4-4315-407c-8663-960948dfa741"},"vehicle_type_id":"4","last_reported":1746648705,"current_range_meters":21600,"station_id":"ce4bh2p2rcd13ifvqdi0","pricing_plan_id":"cebpf4jnsgd1na2vs0mg"},{"bike_id":"078a4cfe-f01b-4fca-b99b-978816ad9701","system_id":"levelo_inurba_marseille","lat":43.28034,"lon":5.36941,"is_reserved":false,"is_disabled":false,"rental_uris":{"android":"levelo://app?vid=078a4cfe-f01b-4fca-b99b-978816ad9701","ios":"levelo://app?vid=078a4cfe-f01b-4fca-b99b-978816ad9701"},"vehicle_type_id":"4","last_reported":1746648705,"current_range_meters":21600,"station_id":"ce4bha12rcd13ifvqef0","pricing_plan_id":"cebpf4jnsgd1na2vs0mg"},{"bike_id":"04db0e6d-8f3b-41b5-9d14-983406e2e2b2","system_id":"levelo_inurba_marseille","lat":43.28869,"lon":5.35839,"is_reserved":false,"is_disabled":false,"rental_uris":{"android":"levelo://app?vid=04db0e6d-8f3b-41b5-9d14-983406e2e2b2","ios":"levelo://app?vid=04db0e6d-8f3b-41b5-9d14-983406e2e2b2"},"vehicle_type_id":"4","last_reported":1746648705,"current_range_meters":21600,"station_id":"ce4bhb12rcd13ifvqem0","pricing_plan_id":"cebpf4jnsgd1na2vs0mg"},{"bike_id":"29989522-c8be-4366-b3b7-ed28be07a94f","system_id":"levelo_inurba_marseille","lat":43.27381,"lon":5.36269,"is_reserved":false,"is_disabled":false,"rental_uris":{"android":"levelo://app?vid=29989522-c8be-4366-b3b7-ed28be07a94f","ios":"levelo://app?vid=29989522-c8be-4366-b3b7-ed28be07a94f"},"vehicle_type_id":"4","last_reported":1746648705,"current_range_meters":21600,"station_id":"ce4bhbh2rcd13ifvqeo0","pricing_plan_id":"cebpf4jnsgd1na2vs0mg"},{"bike_id":"82b86ea7-e1b8-4f5a-ad95-98f75a17962e","system_id":"levelo_inurba_marseille","lat":43.27936,"lon":5.41052,"is_reserved":false,"is_disabled":false,"rental_uris":{"android":"levelo://app?vid=82b86ea7-e1b8-4f5a-ad95-98f75a17962e","ios":"levelo://app?vid=82b86ea7-e1b8-4f5a-ad95-98f75a17962e"},"vehicle_type_id":"4","last_reported":1746648705,"current_range_meters":21600,"station_id":"ce4bhnp2rcd13ifvqh0g","pricing_plan_id":"cebpf4jnsgd1na2vs0mg"},{"bike_id":"597fc841-3bf9-4fdf-b00b-e794b2d4e1c7","system_id":"levelo_inurba_marseille","lat":43.33614,"lon":5.40915,"is_reserved":false,"is_disabled":false,"rental_uris":{"android":"levelo://app?vid=597fc841-3bf9-4fdf-b00b-e794b2d4e1c7","ios":"levelo://app?vid=597fc841-3bf9-4fdf-b00b-e794b2d4e1c7"},"vehicle_type_id":"4","last_reported":1746648705,"current_range_meters":21600,"station_id":"ce4bhqh2rcd13ifvqhmg","pricing_plan_id":"cebpf4jnsgd1na2vs0mg"},{"bike_id":"10102646-70c8-4147-81cc-b3aa4198cc96","system_id":"levelo_inurba_marseille","lat":43.33154,"lon":5.38166,"is_reserved":false,"is_disabled":false,"rental_uris":{"android":"levelo://app?vid=10102646-70c8-4147-81cc-b3aa4198cc96","ios":"levelo://app?vid=10102646-70c8-4147-81cc-b3aa4198cc96"},"vehicle_type_id":"4","last_reported":1746648705,"current_range_meters":22000,"station_id":"","pricing_plan_id":"cebpf4jnsgd1na2vs0mg"},{"bike_id":"7f893cea-9af6-4acd-919f-1d29029b0ad8","system_id":"levelo_inurba_marseille","lat":43.305295,"lon":5.401044,"is_reserved":false,"is_disabled":false,"rental_uris":{"android":"levelo://app?vid=7f893cea-9af6-4acd-919f-1d29029b0ad8","ios":"levelo://app?vid=7f893cea-9af6-4acd-919f-1d29029b0ad8"},"vehicle_type_id":"4","last_reported":1746648705,"current_range_meters":22000,"station_id":"","pricing_plan_id":"cebpf4jnsgd1na2vs0mg"},{"bike_id":"44f3b8a1-f121-47c0-9af3-453db94b4b42","system_id":"levelo_inurba_marseille","lat":43.27619,"lon":5.36123,"is_reserved":false,"is_disabled":false,"rental_uris":{"android":"levelo://app?vid=44f3b8a1-f121-47c0-9af3-453db94b4b42","ios":"levelo://app?vid=44f3b8a1-f121-47c0-9af3-453db94b4b42"},"vehicle_type_id":"4","last_reported":1746648705,"current_range_meters":22000,"station_id":"ce4bgj92rcd13ifvqbe0","pricing_plan_id":"cebpf4jnsgd1na2vs0mg"},{"bike_id":"d7a310ed-7e49-4591-9734-afad79f0c6be","system_id":"levelo_inurba_marseille","lat":43.29259,"lon":5.38444,"is_reserved":false,"is_disabled":false,"rental_uris":{"android":"levelo://app?vid=d7a310ed-7e49-4591-9734-afad79f0c6be","ios":"levelo://app?vid=d7a310ed-7e49-4591-9734-afad79f0c6be"},"vehicle_type_id":"4","last_reported":1746648705,"current_range_meters":22000,"station_id":"ce4bh692rcd13ifvqea0","pricing_plan_id":"cebpf4jnsgd1na2vs0mg"},{"bike_id":"81979f5c-5607-4e11-a1b5-89bcf2c4a9f9","system_id":"levelo_inurba_marseille","lat":43.28723,"lon":5.3793,"is_reserved":false,"is_disabled":false,"rental_uris":{"android":"levelo://app?vid=81979f5c-5607-4e11-a1b5-89bcf2c4a9f9","ios":"levelo://app?vid=81979f5c-5607-4e11-a1b5-89bcf2c4a9f9"},"vehicle_type_id":"4","last_reported":1746648705,"current_range_meters":22000,"station_id":"ce4bh9p2rcd13ifvqec0","pricing_plan_id":"cebpf4jnsgd1na2vs0mg"},{"bike_id":"6d87c701-c410-45d6-bd8d-45b2c79023d0","system_id":"levelo_inurba_marseille","lat":43.27809,"lon":5.40711,"is_reserved":false,"is_disabled":false,"rental_uris":{"android":"levelo://app?vid=6d87c701-c410-45d6-bd8d-45b2c79023d0","ios":"levelo://app?vid=6d87c701-c410-45d6-bd8d-45b2c79023d0"},"vehicle_type_id":"4","last_reported":1746648705,"current_range_meters":22000,"station_id":"ce4bhnh2rcd13ifvqgtg","pricing_plan_id":"cebpf4jnsgd1na2vs0mg"},{"bike_id":"227dfb66-eb32-4fa9-9898-f2a290527190","system_id":"levelo_inurba_marseille","lat":43.287359,"lon":5.360769,"is_reserved":false,"is_disabled":false,"rental_uris":{"android":"levelo://app?vid=227dfb66-eb32-4fa9-9898-f2a290527190","ios":"levelo://app?vid=227dfb66-eb32-4fa9-9898-f2a290527190"},"vehicle_type_id":"4","last_reported":1746648705,"current_range_meters":22000,"station_id":"cki0cbj6b192h4jlfktg","pricing_plan_id":"cebpf4jnsgd1na2vs0mg"},{"bike_id":"c821e32e-d925-441c-80d2-d5a984744aba","system_id":"levelo_inurba_marseille","lat":43.21194,"lon":5.350723,"is_reserved":false,"is_disabled":false,"rental_uris":{"android":"levelo://app?vid=c821e32e-d925-441c-80d2-d5a984744aba","ios":"levelo://app?vid=c821e32e-d925-441c-80d2-d5a984744aba"},"vehicle_type_id":"4","last_reported":1746648705,"current_range_meters":22000,"station_id":"st_cvj6sg6p6f1abm77japg","pricing_plan_id":"cebpf4jnsgd1na2vs0mg"},{"bike_id":"4eaaf6bc-d6c9-44ac-9792-13bcb663accb","system_id":"levelo_inurba_marseille","lat":43.31714,"lon":5.43708,"is_reserved":false,"is_disabled":false,"rental_uris":{"android":"levelo://app?vid=4eaaf6bc-d6c9-44ac-9792-13bcb663accb","ios":"levelo://app?vid=4eaaf6bc-d6c9-44ac-9792-13bcb663accb"},"vehicle_type_id":"4","last_reported":1746648705,"current_range_meters":22400,"station_id":"ce4bhp92rcd13ifvqhcg","pricing_plan_id":"cebpf4jnsgd1na2vs0mg"},{"bike_id":"f3e9ab38-3242-4aa5-83f9-529a16ccf936","system_id":"levelo_inurba_marseille","lat":43.22526,"lon":5.34786,"is_reserved":false,"is_disabled":false,"rental_uris":{"android":"levelo://app?vid=f3e9ab38-3242-4aa5-83f9-529a16ccf936","ios":"levelo://app?vid=f3e9ab38-3242-4aa5-83f9-529a16ccf936"},"vehicle_type_id":"4","last_reported":1746648705,"current_range_meters":22400,"station_id":"st_cvj5dfep6f1abm77gieg","pricing_plan_id":"cebpf4jnsgd1na2vs0mg"},{"bike_id":"50c502ff-5207-4323-9b87-d0e5e52b0246","system_id":"levelo_inurba_marseille","lat":43.29785,"lon":5.38103,"is_reserved":false,"is_disabled":false,"rental_uris":{"android":"levelo://app?vid=50c502ff-5207-4323-9b87-d0e5e52b0246","ios":"levelo://app?vid=50c502ff-5207-4323-9b87-d0e5e52b0246"},"vehicle_type_id":"4","last_reported":1746648705,"current_range_meters":22800,"station_id":"ce4bgip2rcd13ifvqbb0","pricing_plan_id":"cebpf4jnsgd1na2vs0mg"},{"bike_id":"eb480f81-862d-47c7-8dcd-3343a905f36c","system_id":"levelo_inurba_marseille","lat":43.29528,"lon":5.37502,"is_reserved":false,"is_disabled":false,"rental_uris":{"android":"levelo://app?vid=eb480f81-862d-47c7-8dcd-3343a905f36c","ios":"levelo://app?vid=eb480f81-862d-47c7-8dcd-3343a905f36c"},"vehicle_type_id":"4","last_reported":1746648705,"current_range_meters":22800,"station_id":"ce4bgkp2rcd13ifvqbmg","pricing_plan_id":"cebpf4jnsgd1na2vs0mg"},{"bike_id":"f73d450b-fde6-4898-99b1-916875a407c6","system_id":"levelo_inurba_marseille","lat":43.22505,"lon":5.34786,"is_reserved":false,"is_disabled":false,"rental_uris":{"android":"levelo://app?vid=f73d450b-fde6-4898-99b1-916875a407c6","ios":"levelo://app?vid=f73d450b-fde6-4898-99b1-916875a407c6"},"vehicle_type_id":"4","last_reported":1746648705,"current_range_meters":22800,"station_id":"st_cvj5dfep6f1abm77gieg","pricing_plan_id":"cebpf4jnsgd1na2vs0mg"},{"bike_id":"25ec538c-65ba-4f6b-8795-27877261095d","system_id":"levelo_inurba_marseille","lat":43.29907,"lon":5.38149,"is_reserved":false,"is_disabled":false,"rental_uris":{"android":"levelo://app?vid=25ec538c-65ba-4f6b-8795-27877261095d","ios":"levelo://app?vid=25ec538c-65ba-4f6b-8795-27877261095d"},"vehicle_type_id":"4","last_reported":1746648705,"current_range_meters":23200,"station_id":"ce4bgj12rcd13ifvqbc0","pricing_plan_id":"cebpf4jnsgd1na2vs0mg"},{"bike_id":"377b2a4f-5981-48a6-bed5-35bfd73b6e3c","system_id":"levelo_inurba_marseille","lat":43.31359,"lon":5.38482,"is_reserved":false,"is_disabled":false,"rental_uris":{"android":"levelo://app?vid=377b2a4f-5981-48a6-bed5-35bfd73b6e3c","ios":"levelo://app?vid=377b2a4f-5981-48a6-bed5-35bfd73b6e3c"},"vehicle_type_id":"4","last_reported":1746648705,"current_range_meters":23200,"station_id":"ce4bgt92rcd13ifvqcf0","pricing_plan_id":"cebpf4jnsgd1na2vs0mg"},{"bike_id":"bc99380b-f811-4870-8a4f-c780d3a65e55","system_id":"levelo_inurba_marseille","lat":43.29026,"lon":5.38126,"is_reserved":false,"is_disabled":false,"rental_uris":{"android":"levelo://app?vid=bc99380b-f811-4870-8a4f-c780d3a65e55","ios":"levelo://app?vid=bc99380b-f811-4870-8a4f-c780d3a65e55"},"vehicle_type_id":"4","last_reported":1746648705,"current_range_meters":23200,"station_id":"ce4bh4p2rcd13ifvqe1g","pricing_plan_id":"cebpf4jnsgd1na2vs0mg"},{"bike_id":"5eff3279-85d7-441c-9830-1c46804847d1","system_id":"levelo_inurba_marseille","lat":43.28272,"lon":5.35053,"is_reserved":false,"is_disabled":false,"rental_uris":{"android":"levelo://app?vid=5eff3279-85d7-441c-9830-1c46804847d1","ios":"levelo://app?vid=5eff3279-85d7-441c-9830-1c46804847d1"},"vehicle_type_id":"4","last_reported":1746648705,"current_range_meters":23200,"station_id":"ce4bhbp2rcd13ifvqerg","pricing_plan_id":"cebpf4jnsgd1na2vs0mg"},{"bike_id":"8e39ba1e-b4e2-493b-ad88-95cef55ba594","system_id":"levelo_inurba_marseille","lat":43.24805,"lon":5.37453,"is_reserved":false,"is_disabled":false,"rental_uris":{"android":"levelo://app?vid=8e39ba1e-b4e2-493b-ad88-95cef55ba594","ios":"levelo://app?vid=8e39ba1e-b4e2-493b-ad88-95cef55ba594"},"vehicle_type_id":"4","last_reported":1746648705,"current_range_meters":23200,"station_id":"ce4bhgh2rcd13ifvqfb0","pricing_plan_id":"cebpf4jnsgd1na2vs0mg"},{"bike_id":"2b58f3f1-57ee-4bac-bb56-e07a23a9ced0","system_id":"levelo_inurba_marseille","lat":43.27058,"lon":5.42308,"is_reserved":false,"is_disabled":false,"rental_uris":{"android":"levelo://app?vid=2b58f3f1-57ee-4bac-bb56-e07a23a9ced0","ios":"levelo://app?vid=2b58f3f1-57ee-4bac-bb56-e07a23a9ced0"},"vehicle_type_id":"4","last_reported":1746648705,"current_range_meters":23200,"station_id":"ce4bhk92rcd13ifvqgb0","pricing_plan_id":"cebpf4jnsgd1na2vs0mg"},{"bike_id":"6905f4fe-d971-4ee8-8e07-c1f691604a70","system_id":"levelo_inurba_marseille","lat":43.27997,"lon":5.41663,"is_reserved":false,"is_disabled":false,"rental_uris":{"android":"levelo://app?vid=6905f4fe-d971-4ee8-8e07-c1f691604a70","ios":"levelo://app?vid=6905f4fe-d971-4ee8-8e07-c1f691604a70"},"vehicle_type_id":"4","last_reported":1746648705,"current_range_meters":23200,"station_id":"ce4bho12rcd13ifvqh1g","pricing_plan_id":"cebpf4jnsgd1na2vs0mg"},{"bike_id":"da3aa9b6-280e-441a-9902-7b55cb9fe3a3","system_id":"levelo_inurba_marseille","lat":43.32365,"lon":5.36754,"is_reserved":false,"is_disabled":false,"rental_uris":{"android":"levelo://app?vid=da3aa9b6-280e-441a-9902-7b55cb9fe3a3","ios":"levelo://app?vid=da3aa9b6-280e-441a-9902-7b55cb9fe3a3"},"vehicle_type_id":"4","last_reported":1746648705,"current_range_meters":23200,"station_id":"ce4bhsh2rcd13ifvqi2g","pricing_plan_id":"cebpf4jnsgd1na2vs0mg"},{"bike_id":"5a66b016-8425-4ea9-ad57-b6177cc96802","system_id":"levelo_inurba_marseille","lat":43.31575,"lon":5.38892,"is_reserved":false,"is_disabled":false,"rental_uris":{"android":"levelo://app?vid=5a66b016-8425-4ea9-ad57-b6177cc96802","ios":"levelo://app?vid=5a66b016-8425-4ea9-ad57-b6177cc96802"},"vehicle_type_id":"4","last_reported":1746648705,"current_range_meters":24000,"station_id":"","pricing_plan_id":"cebpf4jnsgd1na2vs0mg"},{"bike_id":"9a1c9931-7935-4501-9926-c53ac3815ef0","system_id":"levelo_inurba_marseille","lat":43.31115,"lon":5.37759,"is_reserved":false,"is_disabled":false,"rental_uris":{"android":"levelo://app?vid=9a1c9931-7935-4501-9926-c53ac3815ef0","ios":"levelo://app?vid=9a1c9931-7935-4501-9926-c53ac3815ef0"},"vehicle_type_id":"4","last_reported":1746648705,"current_range_meters":24000,"station_id":"ce4bgt92rcd13ifvqcg0","pricing_plan_id":"cebpf4jnsgd1na2vs0mg"},{"bike_id":"e44b9f0e-036b-49af-bf73-373b696d272a","system_id":"levelo_inurba_marseille","lat":43.295277,"lon":5.390417,"is_reserved":false,"is_disabled":false,"rental_uris":{"android":"levelo://app?vid=e44b9f0e-036b-49af-bf73-373b696d272a","ios":"levelo://app?vid=e44b9f0e-036b-49af-bf73-373b696d272a"},"vehicle_type_id":"4","last_reported":1746648705,"current_range_meters":24000,"station_id":"ce4bh3p2rcd13ifvqdp0","pricing_plan_id":"cebpf4jnsgd1na2vs0mg"},{"bike_id":"48610e19-cb42-4a79-99b2-4d5a92f8e9a7","system_id":"levelo_inurba_marseille","lat":43.29262,"lon":5.37626,"is_reserved":false,"is_disabled":false,"rental_uris":{"android":"levelo://app?vid=48610e19-cb42-4a79-99b2-4d5a92f8e9a7","ios":"levelo://app?vid=48610e19-cb42-4a79-99b2-4d5a92f8e9a7"},"vehicle_type_id":"4","last_reported":1746648705,"current_range_meters":24400,"station_id":"ce4bgi12rcd13ifvqb80","pricing_plan_id":"cebpf4jnsgd1na2vs0mg"},{"bike_id":"804ad770-b6e1-4d7a-bb72-974c40a1fae0","system_id":"levelo_inurba_marseille","lat":43.30599,"lon":5.3722,"is_reserved":false,"is_disabled":false,"rental_uris":{"android":"levelo://app?vid=804ad770-b6e1-4d7a-bb72-974c40a1fae0","ios":"levelo://app?vid=804ad770-b6e1-4d7a-bb72-974c40a1fae0"},"vehicle_type_id":"4","last_reported":1746648705,"current_range_meters":24400,"station_id":"ce4bgqh2rcd13ifvqc4g","pricing_plan_id":"cebpf4jnsgd1na2vs0mg"},{"bike_id":"8d3d6889-7246-4d64-a078-7ddc628ab1bf","system_id":"levelo_inurba_marseille","lat":43.29094,"lon":5.38166,"is_reserved":false,"is_disabled":false,"rental_uris":{"android":"levelo://app?vid=8d3d6889-7246-4d64-a078-7ddc628ab1bf","ios":"levelo://app?vid=8d3d6889-7246-4d64-a078-7ddc628ab1bf"},"vehicle_type_id":"4","last_reported":1746648705,"current_range_meters":24400,"station_id":"ce4bh512rcd13ifvqe2g","pricing_plan_id":"cebpf4jnsgd1na2vs0mg"},{"bike_id":"856bf0c8-089e-4333-a189-05eae84b766b","system_id":"levelo_inurba_marseille","lat":43.27372,"lon":5.36262,"is_reserved":false,"is_disabled":false,"rental_uris":{"android":"levelo://app?vid=856bf0c8-089e-4333-a189-05eae84b766b","ios":"levelo://app?vid=856bf0c8-089e-4333-a189-05eae84b766b"},"vehicle_type_id":"4","last_reported":1746648705,"current_range_meters":24400,"station_id":"ce4bhbh2rcd13ifvqeo0","pricing_plan_id":"cebpf4jnsgd1na2vs0mg"},{"bike_id":"6405ff0b-ba58-4a55-9b02-a87a7275238e","system_id":"levelo_inurba_marseille","lat":43.27377,"lon":5.3627,"is_reserved":false,"is_disabled":false,"rental_uris":{"android":"levelo://app?vid=6405ff0b-ba58-4a55-9b02-a87a7275238e","ios":"levelo://app?vid=6405ff0b-ba58-4a55-9b02-a87a7275238e"},"vehicle_type_id":"4","last_reported":1746648705,"current_range_meters":24400,"station_id":"ce4bhbh2rcd13ifvqeo0","pricing_plan_id":"cebpf4jnsgd1na2vs0mg"},{"bike_id":"074b6d2c-dab6-431c-b697-bcc3d5cf1762","system_id":"levelo_inurba_marseille","lat":43.26034,"lon":5.37545,"is_reserved":false,"is_disabled":false,"rental_uris":{"android":"levelo://app?vid=074b6d2c-dab6-431c-b697-bcc3d5cf1762","ios":"levelo://app?vid=074b6d2c-dab6-431c-b697-bcc3d5cf1762"},