{"last_updated":1701590914,"ttl":30,"version":"2.2","data":{"bikes":[{"bike_id":"a79c895f-dfd8-4233-9881-24d019f38123","system_id":"levelo_inurba_marseille","lat":43.31341,"lon":5.367098,"is_reserved":false,"is_disabled":false,"rental_uris":{"android":"levelo://app?vid=a79c895f-dfd8-4233-9881-24d019f38123","ios":"levelo://app?vid=a79c895f-dfd8-4233-9881-24d019f38123"},"vehicle_type_id":"4","last_reported":1701590915,"current_range_meters":25600,"station_id":"ce4bgr92rcd13ifvqc6g","pricing_plan_id":"free"},{"bike_id":"19337c19-12ca-4f3b-a568-40a561779510","system_id":"levelo_inurba_marseille","lat":43.308876,"lon":5.368048,"is_reserved":false,"is_disabled":false,"rental_uris":{"android":"levelo://app?vid=19337c19-12ca-4f3b-a568-40a561779510","ios":"levelo://app?vid=19337c19-12ca-4f3b-a568-40a561779510"},"vehicle_type_id":"4","last_reported":1701590915,"current_range_meters":25200,"station_id":"ce4bgn92rcd13ifvqbvg","pricing_plan_id":"free"},{"bike_id":"cf091409-a438-4d70-a723-3315e0801850","system_id":"levelo_inurba_marseille","lat":43.309039,"lon":5.371797,"is_reserved":false,"is_disabled":false,"rental_uris":{"android":"levelo://app?vid=cf091409-a438-4d70-a723-3315e0801850","ios":"levelo://app?vid=cf091409-a438-4d70-a723-3315e0801850"},"vehicle_type_id":"4","last_reported":1701590915,"current_range_meters":24000,"station_id":"ce4bguh2rcd13ifvqckg","pricing_plan_id":"free"},{"bike_id":"8fb82b40-970c-40aa-95b1-765ba30fba6c","system_id":"levelo_inurba_marseille","lat":43.305706,"lon":5.365654,"is_reserved":false,"is_disabled":false,"rental_uris":{"android":"levelo://app?vid=8fb82b40-970c-40aa-95b1-765ba30fba6c","ios":"levelo://app?vid=8fb82b40-970c-40aa-95b1-765ba30fba6c"},"vehicle_type_id":"4","last_reported":1701590915,"current_range_meters":28800,"station_id":"ce4bgs12rcd13ifvqcag","pricing_plan_id":"free"},{"bike_id":"2103ad92-aa78-4722-978a-9b01ef7549be","system_id":"levelo_inurba_marseille","lat":43.305989,"lon":5.37225,"is_reserved":false,"is_disabled":false,"rental_uris":{"android":"levelo://app?vid=2103ad92-aa78-4722-978a-9b01ef7549be","ios":"levelo://app?vid=2103ad92-aa78-4722-978a-9b01ef7549be"},"vehicle_type_id":"4","last_reported":1701590915,"current_range_meters":26800,"station_id":"ce4bgqh2rcd13ifvqc4g","pricing_plan_id":"free"},{"bike_id":"f427a2c3-6e4a-446b-ae2f-9be8aa7f4122","system_id":"levelo_inurba_marseille","lat":43.31719,"lon":5.376813,"is_reserved":false,"is_disabled":false,"rental_uris":{"android":"levelo://app?vid=f427a2c3-6e4a-446b-ae2f-9be8aa7f4122","ios":"levelo://app?vid=f427a2c3-6e4a-446b-ae2f-9be8aa7f4122"},"vehicle_type_id":"4","last_reported":1701590915,"current_range_meters":0,"station_id":"","pricing_plan_id":"free"},{"bike_id":"e913f328-1e31-4c22-bd87-f809ea246de4","system_id":"levelo_inurba_marseille","lat":43.317168,"lon":5.376883,"is_reserved":false,"is_disabled":false,"rental_uris":{"android":"levelo://app?vid=e913f328-1e31-4c22-bd87-f809ea246de4","ios":"levelo://app?vid=e913f328-1e31-4c22-bd87-f809ea246de4"},"vehicle_type_id":"4","last_reported":1701590915,"current_range_meters":0,"station_id":"","pricing_plan_id":"free"},{"bike_id":"fb6fd937-527b-4585-9058-0dfdc6436ac8","system_id":"levelo_inurba_marseille","lat":43.31351,"lon":5.37909,"is_reserved":false,"is_disabled":false,"rental_uris":{"android":"levelo://app?vid=fb6fd937-527b-4585-9058-0dfdc6436ac8","ios":"levelo://app?vid=fb6fd937-527b-4585-9058-0dfdc6436ac8"},"vehicle_type_id":"4","last_reported":1701590915,"current_range_meters":18800,"station_id":"","pricing_plan_id":"free"},{"bike_id":"7bd9bd1c-4a13-4449-a81e-21faf79ed115","system_id":"levelo_inurba_marseille","lat":43.303046,"lon":5.368981,"is_reserved":false,"is_disabled":false,"rental_uris":{"android":"levelo://app?vid=7bd9bd1c-4a13-4449-a81e-21faf79ed115","ios":"levelo://app?vid=7bd9bd1c-4a13-4449-a81e-21faf79ed115"},"vehicle_type_id":"4","last_reported":1701590915,"current_range_meters":28800,"station_id":"ce4bgqh2rcd13ifvqc5g","pricing_plan_id":"free"},{"bike_id":"e7b33de9-5238-48e8-9563-538ba55d60af","system_id":"levelo_inurba_marseille","lat":43.301939,"lon":5.366286,"is_reserved":false,"is_disabled":false,"rental_uris":{"android":"levelo://app?vid=e7b33de9-5238-48e8-9563-538ba55d60af","ios":"levelo://app?vid=e7b33de9-5238-48e8-9563-538ba55d60af"},"vehicle_type_id":"4","last_reported":1701590915,"current_range_meters":22400,"station_id":"ce4bgrh2rcd13ifvqc8g","pricing_plan_id":"free"},{"bike_id":"ac17d8ce-dcc9-463d-a38f-c3d3b61e2e37","system_id":"levelo_inurba_marseille","lat":43.308012,"lon":5.381511,"is_reserved":false,"is_disabled":false,"rental_uris":{"android":"levelo://app?vid=ac17d8ce-dcc9-463d-a38f-c3d3b61e2e37","ios":"levelo://app?vid=ac17d8ce-dcc9-463d-a38f-c3d3b61e2e37"},"vehicle_type_id":"4","last_reported":1701590915,"current_range_meters":22000,"station_id":"ce4bgt12rcd13ifvqce0","pricing_plan_id":"free"},{"bike_id":"fd333b43-8824-4fe1-b7ea-0277f902afe2","system_id":"levelo_inurba_marseille","lat":43.304606,"lon":5.379026,"is_reserved":false,"is_disabled":false,"rental_uris":{"android":"levelo://app?vid=fd333b43-8824-4fe1-b7ea-0277f902afe2","ios":"levelo://app?vid=fd333b43-8824-4fe1-b7ea-0277f902afe2"},"vehicle_type_id":"4","last_reported":1701590915,"current_range_meters":14800,"station_id":"ce4bgup2rcd13ifvqcn0","pricing_plan_id":"free"},{"bike_id":"7caa02d3-a874-4de1-b57c-8ec22df9ef47","system_id":"levelo_inurba_marseille","lat":43.304606,"lon":5.379026,"is_reserved":false,"is_disabled":false,"rental_uris":{"android":"levelo://app?vid=7caa02d3-a874-4de1-b57c-8ec22df9ef47","ios":"levelo://app?vid=7caa02d3-a874-4de1-b57c-8ec22df9ef47"},"vehicle_type_id":"4","last_reported":1701590915,"current_range_meters":26000,"station_id":"ce4bgup2rcd13ifvqcn0","pricing_plan_id":"free"},{"bike_id":"79b087bb-0ee6-49ed-a545-d29a78392a9a","system_id":"levelo_inurba_marseille","lat":43.304606,"lon":5.379026,"is_reserved":false,"is_disabled":false,"rental_uris":{"android":"levelo://app?vid=79b087bb-0ee6-49ed-a545-d29a78392a9a","ios":"levelo://app?vid=79b087bb-0ee6-49ed-a545-d29a78392a9a"},"vehicle_type_id":"4","last_reported":1701590915,"current_range_meters":26000,"station_id":"ce4bgup2rcd13ifvqcn0","pricing_plan_id":"free"},{"bike_id":"a941d8c3-be90-4b65-b6c5-09e62b45ea5b","system_id":"levelo_inurba_marseille","lat":43.304606,"lon":5.379026,"is_reserved":false,"is_disabled":false,"rental_uris":{"android":"levelo://app?vid=a941d8c3-be90-4b65-b6c5-09e62b45ea5b","ios":"levelo://app?vid=a941d8c3-be90-4b65-b6c5-09e62b45ea5b"},"vehicle_type_id":"4","last_reported":1701590915,"current_range_meters":22400,"station_id":"ce4bgup2rcd13ifvqcn0","pricing_plan_id":"free"},{"bike_id":"8ef00d39-b058-459a-b8e5-e554b655e9c4","system_id":"levelo_inurba_marseille","lat":43.304606,"lon":5.379026,"is_reserved":false,"is_disabled":false,"rental_uris":{"android":"levelo://app?vid=8ef00d39-b058-459a-b8e5-e554b655e9c4","ios":"levelo://app?vid=8ef00d39-b058-459a-b8e5-e554b655e9c4"},"vehicle_type_id":"4","last_reported":1701590915,"current_range_meters":27200,"station_id":"ce4bgup2rcd13ifvqcn0","pricing_plan_id":"free"},{"bike_id":"de628166-cd18-45c8-a128-8712c2ff29ce","system_id":"levelo_inurba_marseille","lat":43.304606,"lon":5.379026,"is_reserved":false,"is_disabled":false,"rental_uris":{"android":"levelo://app?vid=de628166-cd18-45c8-a128-8712c2ff29ce","ios":"levelo://app?vid=de628166-cd18-45c8-a128-8712c2ff29ce"},"vehicle_type_id":"4","last_reported":1701590915,"current_range_meters":24000,"station_id":"ce4bgup2rcd13ifvqcn0","pricing_plan_id":"free"},{"bike_id":"8c6725c5-5ff6-4a6a-9768-66e32939cf43","system_id":"levelo_inurba_marseille","lat":43.324771,"lon":5.36557,"is_reserved":false,"is_disabled":false,"rental_uris":{"android":"levelo://app?vid=8c6725c5-5ff6-4a6a-9768-66e32939cf43","ios":"levelo://app?vid=8c6725c5-5ff6-4a6a-9768-66e32939cf43"},"vehicle_type_id":"4","last_reported":1701590915,"current_range_meters":22800,"station_id":"ce4bhs12rcd13ifvqhvg","pricing_plan_id":"free"},{"bike_id":"bc8eac31-4b5b-48b3-aa99-5c3fdd18d82e","system_id":"levelo_inurba_marseille","lat":43.324771,"lon":5.36557,"is_reserved":false,"is_disabled":false,"rental_uris":{"android":"levelo://app?vid=bc8eac31-4b5b-48b3-aa99-5c3fdd18d82e","ios":"levelo://app?vid=bc8eac31-4b5b-48b3-aa99-5c3fdd18d82e"},"vehicle_type_id":"4","last_reported":1701590915,"current_range_meters":14000,"station_id":"ce4bhs12rcd13ifvqhvg","pricing_plan_id":"free"},{"bike_id":"2275aca5-3158-4c2c-8022-ca5d2714bc86","system_id":"levelo_inurba_marseille","lat":43.319997,"lon":5.381594,"is_reserved":false,"is_disabled":false,"rental_uris":{"android":"levelo://app?vid=2275aca5-3158-4c2c-8022-ca5d2714bc86","ios":"levelo://app?vid=2275aca5-3158-4c2c-8022-ca5d2714bc86"},"vehicle_type_id":"4","last_reported":1701590915,"current_range_meters":12400,"station_id":"ce4bhr12rcd13ifvqhpg","pricing_plan_id":"free"},{"bike_id":"9fdb7f97-586d-42d2-befd-15216ba2e422","system_id":"levelo_inurba_marseille","lat":43.31183,"lon":5.38523,"is_reserved":false,"is_disabled":false,"rental_uris":{"android":"levelo://app?vid=9fdb7f97-586d-42d2-befd-15216ba2e422","ios":"levelo://app?vid=9fdb7f97-586d-42d2-befd-15216ba2e422"},"vehicle_type_id":"4","last_reported":1701590915,"current_range_meters":0,"station_id":"","pricing_plan_id":"free"},{"bike_id":"748d12ab-8e09-4ecd-b2d2-cbe0ea9624f6","system_id":"levelo_inurba_marseille","lat":43.298982,"lon":5.367322,"is_reserved":false,"is_disabled":false,"rental_uris":{"android":"levelo://app?vid=748d12ab-8e09-4ecd-b2d2-cbe0ea9624f6","ios":"levelo://app?vid=748d12ab-8e09-4ecd-b2d2-cbe0ea9624f6"},"vehicle_type_id":"4","last_reported":1701590915,"current_range_meters":2800,"station_id":"","pricing_plan_id":"free"},{"bike_id":"bd32464a-2892-4ad2-97f4-c223dcfdd8ef","system_id":"levelo_inurba_marseille","lat":43.29852,"lon":5.36285,"is_reserved":false,"is_disabled":false,"rental_uris":{"android":"levelo://app?vid=bd32464a-2892-4ad2-97f4-c223dcfdd8ef","ios":"levelo://app?vid=bd32464a-2892-4ad2-97f4-c223dcfdd8ef"},"vehicle_type_id":"4","last_reported":1701590915,"current_range_meters":30800,"station_id":"ce4bgpp2rcd13ifvqc3g","pricing_plan_id":"free"},{"bike_id":"14aa6f0e-730b-45b2-aaa7-f935cdbea959","system_id":"levelo_inurba_marseille","lat":43.29851,"lon":5.36283,"is_reserved":false,"is_disabled":false,"rental_uris":{"android":"levelo://app?vid=14aa6f0e-730b-45b2-aaa7-f935cdbea959","ios":"levelo://app?vid=14aa6f0e-730b-45b2-aaa7-f935cdbea959"},"vehicle_type_id":"4","last_reported":1701590915,"current_range_meters":28000,"station_id":"ce4bgpp2rcd13ifvqc3g","pricing_plan_id":"free"},{"bike_id":"bdfd353d-3f0d-4587-ae92-9241fbc7f201","system_id":"levelo_inurba_marseille","lat":43.29849,"lon":5.3629,"is_reserved":false,"is_disabled":false,"rental_uris":{"android":"levelo://app?vid=bdfd353d-3f0d-4587-ae92-9241fbc7f201","ios":"levelo://app?vid=bdfd353d-3f0d-4587-ae92-9241fbc7f201"},"vehicle_type_id":"4","last_reported":1701590915,"current_range_meters":30000,"station_id":"ce4bgpp2rcd13ifvqc3g","pricing_plan_id":"free"},{"bike_id":"c1d33ba2-5209-4ac4-b45a-1a78e20f5699","system_id":"levelo_inurba_marseille","lat":43.29848,"lon":5.3629,"is_reserved":false,"is_disabled":false,"rental_uris":{"android":"levelo://app?vid=c1d33ba2-5209-4ac4-b45a-1a78e20f5699","ios":"levelo://app?vid=c1d33ba2-5209-4ac4-b45a-1a78e20f5699"},"vehicle_type_id":"4","last_reported":1701590915,"current_range_meters":19600,"station_id":"ce4bgpp2rcd13ifvqc3g","pricing_plan_id":"free"},{"bike_id":"00e67ff7-871b-409c-b0ba-d233ae404f26","system_id":"levelo_inurba_marseille","lat":43.298433,"lon":5.362774,"is_reserved":false,"is_disabled":false,"rental_uris":{"android":"levelo://app?vid=00e67ff7-871b-409c-b0ba-d233ae404f26","ios":"levelo://app?vid=00e67ff7-871b-409c-b0ba-d233ae404f26"},"vehicle_type_id":"4","last_reported":1701590915,"current_range_meters":27600,"station_id":"ce4bgpp2rcd13ifvqc3g","pricing_plan_id":"free"},{"bike_id":"d52036f6-80ce-47f6-bd01-96da0e66369f","system_id":"levelo_inurba_marseille","lat":43.298433,"lon":5.362774,"is_reserved":false,"is_disabled":false,"rental_uris":{"android":"levelo://app?vid=d52036f6-80ce-47f6-bd01-96da0e66369f","ios":"levelo://app?vid=d52036f6-80ce-47f6-bd01-96da0e66369f"},"vehicle_type_id":"4","last_reported":1701590915,"current_range_meters":22400,"station_id":"ce4bgpp2rcd13ifvqc3g","pricing_plan_id":"free"},{"bike_id":"c322c04d-c66d-439a-85b7-e9528ebbbade","system_id":"levelo_inurba_marseille","lat":43.311722,"lon":5.387247,"is_reserved":false,"is_disabled":false,"rental_uris":{"android":"levelo://app?vid=c322c04d-c66d-439a-85b7-e9528ebbbade","ios":"levelo://app?vid=c322c04d-c66d-439a-85b7-e9528ebbbade"},"vehicle_type_id":"4","last_reported":1701590915,"current_range_meters":24800,"station_id":"ce4bgv12rcd13ifvqcp0","pricing_plan_id":"free"},{"bike_id":"ab410702-3559-4bd4-9fb4-dbd674695d31","system_id":"levelo_inurba_marseille","lat":43.3118,"lon":5.38715,"is_reserved":false,"is_disabled":false,"rental_uris":{"android":"levelo://app?vid=ab410702-3559-4bd4-9fb4-dbd674695d31","ios":"levelo://app?vid=ab410702-3559-4bd4-9fb4-dbd674695d31"},"vehicle_type_id":"4","last_reported":1701590915,"current_range_meters":28000,"station_id":"ce4bgv12rcd13ifvqcp0","pricing_plan_id":"free"},{"bike_id":"50451858-4fd4-406d-badc-776a2e8a63c3","system_id":"levelo_inurba_marseille","lat":43.328298,"lon":5.366771,"is_reserved":false,"is_disabled":false,"rental_uris":{"android":"levelo://app?vid=50451858-4fd4-406d-badc-776a2e8a63c3","ios":"levelo://app?vid=50451858-4fd4-406d-badc-776a2e8a63c3"},"vehicle_type_id":"4","last_reported":1701590915,"current_range_meters":18000,"station_id":"ce4bhs92rcd13ifvqi0g","pricing_plan_id":"free"},{"bike_id":"5c26bdfb-7b7c-43fb-8a01-250128a1a6f8","system_id":"levelo_inurba_marseille","lat":43.328332,"lon":5.366804,"is_reserved":false,"is_disabled":false,"rental_uris":{"android":"levelo://app?vid=5c26bdfb-7b7c-43fb-8a01-250128a1a6f8","ios":"levelo://app?vid=5c26bdfb-7b7c-43fb-8a01-250128a1a6f8"},"vehicle_type_id":"4","last_reported":1701590915,"current_range_meters":20000,"station_id":"ce4bhs92rcd13ifvqi0g","pricing_plan_id":"free"},{"bike_id":"56c27ac6-d3be-4b1b-a869-2d0f1759ad4a","system_id":"levelo_inurba_marseille","lat":43.29815,"lon":5.37652,"is_reserved":false,"is_disabled":false,"rental_uris":{"android":"levelo://app?vid=56c27ac6-d3be-4b1b-a869-2d0f1759ad4a","ios":"levelo://app?vid=56c27ac6-d3be-4b1b-a869-2d0f1759ad4a"},"vehicle_type_id":"4","last_reported":1701590915,"current_range_meters":1600,"station_id":"","pricing_plan_id":"free"},{"bike_id":"78df3ee9-637d-4b45-b697-eb40f0353c73","system_id":"levelo_inurba_marseille","lat":43.2968,"lon":5.37291,"is_reserved":false,"is_disabled":false,"rental_uris":{"android":"levelo://app?vid=78df3ee9-637d-4b45-b697-eb40f0353c73","ios":"levelo://app?vid=78df3ee9-637d-4b45-b697-eb40f0353c73"},"vehicle_type_id":"4","last_reported":1701590915,"current_range_meters":27600,"station_id":"ce4bgk12rcd13ifvqbj0","pricing_plan_id":"free"},{"bike_id":"0b8843d5-753f-405a-b5d1-65afea933113","system_id":"levelo_inurba_marseille","lat":43.29573,"lon":5.367355,"is_reserved":false,"is_disabled":false,"rental_uris":{"android":"levelo://app?vid=0b8843d5-753f-405a-b5d1-65afea933113","ios":"levelo://app?vid=0b8843d5-753f-405a-b5d1-65afea933113"},"vehicle_type_id":"4","last_reported":1701590915,"current_range_meters":31200,"station_id":"ce4bgph2rcd13ifvqc2g","pricing_plan_id":"free"},{"bike_id":"f405295e-dcfa-4ecd-8b7f-d26db1b6e6e3","system_id":"levelo_inurba_marseille","lat":43.29573,"lon":5.367355,"is_reserved":false,"is_disabled":false,"rental_uris":{"android":"levelo://app?vid=f405295e-dcfa-4ecd-8b7f-d26db1b6e6e3","ios":"levelo://app?vid=f405295e-dcfa-4ecd-8b7f-d26db1b6e6e3"},"vehicle_type_id":"4","last_reported":1701590915,"current_range_meters":27200,"station_id":"ce4bgph2rcd13ifvqc2g","pricing_plan_id":"free"},{"bike_id":"da3ebd65-04d0-4e52-9a4a-29a2c624c25e","system_id":"levelo_inurba_marseille","lat":43.29573,"lon":5.367355,"is_reserved":false,"is_disabled":false,"rental_uris":{"android":"levelo://app?vid=da3ebd65-04d0-4e52-9a4a-29a2c624c25e","ios":"levelo://app?vid=da3ebd65-04d0-4e52-9a4a-29a2c624c25e"},"vehicle_type_id":"4","last_reported":1701590915,"current_range_meters":27600,"station_id":"ce4bgph2rcd13ifvqc2g","pricing_plan_id":"free"},{"bike_id":"eaa0e7e7-2390-47fa-909b-7b240952cbef","system_id":"levelo_inurba_marseille","lat":43.316509,"lon":5.389606,"is_reserved":false,"is_disabled":false,"rental_uris":{"android":"levelo://app?vid=eaa0e7e7-2390-47fa-909b-7b240952cbef","ios":"levelo://app?vid=eaa0e7e7-2390-47fa-909b-7b240952cbef"},"vehicle_type_id":"4","last_reported":1701590915,"current_range_meters":18800,"station_id":"","pricing_plan_id":"free"},{"bike_id":"8ccd4d12-4c63-4f03-98e8-8a6c282f1d7f","system_id":"levelo_inurba_marseille","lat":43.29577,"lon":5.36741,"is_reserved":false,"is_disabled":false,"rental_uris":{"android":"levelo://app?vid=8ccd4d12-4c63-4f03-98e8-8a6c282f1d7f","ios":"levelo://app?vid=8ccd4d12-4c63-4f03-98e8-8a6c282f1d7f"},"vehicle_type_id":"4","last_reported":1701590915,"current_range_meters":28800,"station_id":"ce4bgph2rcd13ifvqc2g","pricing_plan_id":"free"},{"bike_id":"dbdb6624-f413-4dc1-aeb7-fa5be3cf64a9","system_id":"levelo_inurba_marseille","lat":43.297203,"lon":5.376925,"is_reserved":false,"is_disabled":false,"rental_uris":{"android":"levelo://app?vid=dbdb6624-f413-4dc1-aeb7-fa5be3cf64a9","ios":"levelo://app?vid=dbdb6624-f413-4dc1-aeb7-fa5be3cf64a9"},"vehicle_type_id":"4","last_reported":1701590915,"current_range_meters":20400,"station_id":"ce4bgkh2rcd13ifvqbl0","pricing_plan_id":"free"},{"bike_id":"0655676a-5bdd-446a-a5fc-629dc088afb2","system_id":"levelo_inurba_marseille","lat":43.299028,"lon":5.381509,"is_reserved":false,"is_disabled":false,"rental_uris":{"android":"levelo://app?vid=0655676a-5bdd-446a-a5fc-629dc088afb2","ios":"levelo://app?vid=0655676a-5bdd-446a-a5fc-629dc088afb2"},"vehicle_type_id":"4","last_reported":1701590915,"current_range_meters":19200,"station_id":"ce4bgj12rcd13ifvqbc0","pricing_plan_id":"free"},{"bike_id":"9ce59d2c-5acd-4bc1-a006-0860cb05dc77","system_id":"levelo_inurba_marseille","lat":43.299028,"lon":5.381509,"is_reserved":false,"is_disabled":false,"rental_uris":{"android":"levelo://app?vid=9ce59d2c-5acd-4bc1-a006-0860cb05dc77","ios":"levelo://app?vid=9ce59d2c-5acd-4bc1-a006-0860cb05dc77"},"vehicle_type_id":"4","last_reported":1701590915,"current_range_meters":31600,"station_id":"ce4bgj12rcd13ifvqbc0","pricing_plan_id":"free"},{"bike_id":"7901d567-070e-4086-9731-b03906071ef3","system_id":"levelo_inurba_marseille","lat":43.298037,"lon":5.381066,"is_reserved":false,"is_disabled":false,"rental_uris":{"android":"levelo://app?vid=7901d567-070e-4086-9731-b03906071ef3","ios":"levelo://app?vid=7901d567-070e-4086-9731-b03906071ef3"},"vehicle_type_id":"4","last_reported":1701590915,"current_range_meters":21600,"station_id":"ce4bgip2rcd13ifvqbb0","pricing_plan_id":"free"},{"bike_id":"b3abe0da-f5f4-4065-a916-6aea72a969eb","system_id":"levelo_inurba_marseille","lat":43.295748,"lon":5.37522,"is_reserved":false,"is_disabled":false,"rental_uris":{"android":"levelo://app?vid=b3abe0da-f5f4-4065-a916-6aea72a969eb","ios":"levelo://app?vid=b3abe0da-f5f4-4065-a916-6aea72a969eb"},"vehicle_type_id":"4","last_reported":1701590915,"current_range_meters":24400,"station_id":"ce4bgh92rcd13ifvqb50","pricing_plan_id":"free"},{"bike_id":"dde6d299-8d16-4e3d-ab89-777f8c680945","system_id":"levelo_inurba_marseille","lat":43.29526,"lon":5.37507,"is_reserved":false,"is_disabled":false,"rental_uris":{"android":"levelo://app?vid=dde6d299-8d16-4e3d-ab89-777f8c680945","ios":"levelo://app?vid=dde6d299-8d16-4e3d-ab89-777f8c680945"},"vehicle_type_id":"4","last_reported":1701590915,"current_range_meters":19200,"station_id":"ce4bgkp2rcd13ifvqbmg","pricing_plan_id":"free"},{"bike_id":"6bde6eea-3db5-4a6a-ad71-f17ca8a13a96","system_id":"levelo_inurba_marseille","lat":43.294845,"lon":5.374641,"is_reserved":false,"is_disabled":false,"rental_uris":{"android":"levelo://app?vid=6bde6eea-3db5-4a6a-ad71-f17ca8a13a96","ios":"levelo://app?vid=6bde6eea-3db5-4a6a-ad71-f17ca8a13a96"},"vehicle_type_id":"4","last_reported":1701590915,"current_range_meters":23200,"station_id":"","pricing_plan_id":"free"},{"bike_id":"22ea043e-5957-47ea-84af-551ca5aedd75","system_id":"levelo_inurba_marseille","lat":43.29601,"lon":5.381084,"is_reserved":false,"is_disabled":false,"rental_uris":{"android":"levelo://app?vid=22ea043e-5957-47ea-84af-551ca5aedd75","ios":"levelo://app?vid=22ea043e-5957-47ea-84af-551ca5aedd75"},"vehicle_type_id":"4","last_reported":1701590915,"current_range_meters":14400,"station_id":"ce4bgl12rcd13ifvqbo0","pricing_plan_id":"free"},{"bike_id":"8d7b9cee-bacc-4529-98ef-1e0609b70f86","system_id":"levelo_inurba_marseille","lat":43.293259,"lon":5.371586,"is_reserved":false,"is_disabled":false,"rental_uris":{"android":"levelo://app?vid=8d7b9cee-bacc-4529-98ef-1e0609b70f86","ios":"levelo://app?vid=8d7b9cee-bacc-4529-98ef-1e0609b70f86"},"vehicle_type_id":"4","last_reported":1701590915,"current_range_meters":25600,"station_id":"ce4bgh92rcd13ifvqb40","pricing_plan_id":"free"},{"bike_id":"596e950b-4a96-45c8-8bc2-548dbaa9a3c6","system_id":"levelo_inurba_marseille","lat":43.29537,"lon":5.38122,"is_reserved":false,"is_disabled":false,"rental_uris":{"android":"levelo://app?vid=596e950b-4a96-45c8-8bc2-548dbaa9a3c6","ios":"levelo://app?vid=596e950b-4a96-45c8-8bc2-548dbaa9a3c6"},"vehicle_type_id":"4","last_reported":1701590915,"current_range_meters":16800,"station_id":"","pricing_plan_id":"free"},{"bike_id":"6d31df2f-6541-45ae-b384-6811a75e0ec5","system_id":"levelo_inurba_marseille","lat":43.293009,"lon":5.374584,"is_reserved":false,"is_disabled":false,"rental_uris":{"android":"levelo://app?vid=6d31df2f-6541-45ae-b384-6811a75e0ec5","ios":"levelo://app?vid=6d31df2f-6541-45ae-b384-6811a75e0ec5"},"vehicle_type_id":"4","last_reported":1701590915,"current_range_meters":28400,"station_id":"ce4bgi12rcd13ifvqb70","pricing_plan_id":"free"},{"bike_id":"883a6ada-f1d0-40a3-b41b-87d77315752e","system_id":"levelo_inurba_marseille","lat":43.2936,"lon":5.37835,"is_reserved":false,"is_disabled":false,"rental_uris":{"android":"levelo://app?vid=883a6ada-f1d0-40a3-b41b-87d77315752e","ios":"levelo://app?vid=883a6ada-f1d0-40a3-b41b-87d77315752e"},"vehicle_type_id":"4","last_reported":1701590915,"current_range_meters":31200,"station_id":"ce4bgjh2rcd13ifvqbf0","pricing_plan_id":"free"},{"bike_id":"2edaadd0-02c5-497f-a2d3-4295805f98e7","system_id":"levelo_inurba_marseille","lat":43.2936,"lon":5.37835,"is_reserved":false,"is_disabled":false,"rental_uris":{"android":"levelo://app?vid=2edaadd0-02c5-497f-a2d3-4295805f98e7","ios":"levelo://app?vid=2edaadd0-02c5-497f-a2d3-4295805f98e7"},"vehicle_type_id":"4","last_reported":1701590915,"current_range_meters":5600,"station_id":"ce4bgjh2rcd13ifvqbf0","pricing_plan_id":"free"},{"bike_id":"5a410ecd-a46a-4747-a3fb-e1100ed745b0","system_id":"levelo_inurba_marseille","lat":43.292311,"lon":5.360731,"is_reserved":false,"is_disabled":false,"rental_uris":{"android":"levelo://app?vid=5a410ecd-a46a-4747-a3fb-e1100ed745b0","ios":"levelo://app?vid=5a410ecd-a46a-4747-a3fb-e1100ed745b0"},"vehicle_type_id":"4","last_reported":1701590915,"current_range_meters":19600,"station_id":"ce4bhbh2rcd13ifvqeqg","pricing_plan_id":"free"},{"bike_id":"a589f449-ac5c-43bf-b3a4-25acbdc9f1b7","system_id":"levelo_inurba_marseille","lat":43.292663,"lon":5.376389,"is_reserved":false,"is_disabled":false,"rental_uris":{"android":"levelo://app?vid=a589f449-ac5c-43bf-b3a4-25acbdc9f1b7","ios":"levelo://app?vid=a589f449-ac5c-43bf-b3a4-25acbdc9f1b7"},"vehicle_type_id":"4","last_reported":1701590915,"current_range_meters":27200,"station_id":"ce4bgi12rcd13ifvqb80","pricing_plan_id":"free"},{"bike_id":"3c6d2dfb-7ede-4b9a-b9cc-ae6d3a1236bc","system_id":"levelo_inurba_marseille","lat":43.291936,"lon":5.358086,"is_reserved":false,"is_disabled":false,"rental_uris":{"android":"levelo://app?vid=3c6d2dfb-7ede-4b9a-b9cc-ae6d3a1236bc","ios":"levelo://app?vid=3c6d2dfb-7ede-4b9a-b9cc-ae6d3a1236bc"},"vehicle_type_id":"4","last_reported":1701590915,"current_range_meters":24800,"station_id":"ce4bhb12rcd13ifvqel0","pricing_plan_id":"free"},{"bike_id":"de2ea5f5-67ed-4c4c-bc8c-9a48e3912b5b","system_id":"levelo_inurba_marseille","lat":43.291994,"lon":5.357886,"is_reserved":false,"is_disabled":false,"rental_uris":{"android":"levelo://app?vid=de2ea5f5-67ed-4c4c-bc8c-9a48e3912b5b","ios":"levelo://app?vid=de2ea5f5-67ed-4c4c-bc8c-9a48e3912b5b"},"vehicle_type_id":"4","last_reported":1701590915,"current_range_meters":23200,"station_id":"ce4bhb12rcd13ifvqel0","pricing_plan_id":"free"},{"bike_id":"0c418c5f-0178-42fb-9048-ec393130baf9","system_id":"levelo_inurba_marseille","lat":43.302008,"lon":5.394694,"is_reserved":false,"is_disabled":false,"rental_uris":{"android":"levelo://app?vid=0c418c5f-0178-42fb-9048-ec393130baf9","ios":"levelo://app?vid=0c418c5f-0178-42fb-9048-ec393130baf9"},"vehicle_type_id":"4","last_reported":1701590915,"current_range_meters":18000,"station_id":"ce4bh0p2rcd13ifvqd70","pricing_plan_id":"free"},{"bike_id":"f3e8f2a2-13aa-4441-b306-c86ccd87b26a","system_id":"levelo_inurba_marseille","lat":43.290631,"lon":5.359244,"is_reserved":false,"is_disabled":false,"rental_uris":{"android":"levelo://app?vid=f3e8f2a2-13aa-4441-b306-c86ccd87b26a","ios":"levelo://app?vid=f3e8f2a2-13aa-4441-b306-c86ccd87b26a"},"vehicle_type_id":"4","last_reported":1701590915,"current_range_meters":25600,"station_id":"ce4bha92rcd13ifvqeg0","pricing_plan_id":"free"},{"bike_id":"0a70971e-3515-48b5-85eb-a643ee510ac2","system_id":"levelo_inurba_marseille","lat":43.294162,"lon":5.386292,"is_reserved":false,"is_disabled":false,"rental_uris":{"android":"levelo://app?vid=0a70971e-3515-48b5-85eb-a643ee510ac2","ios":"levelo://app?vid=0a70971e-3515-48b5-85eb-a643ee510ac2"},"vehicle_type_id":"4","last_reported":1701590915,"current_range_meters":18000,"station_id":"ce4bh2h2rcd13ifvqdh0","pricing_plan_id":"free"},{"bike_id":"30eba7ac-f6e4-4a25-ae9d-e1082ff314cb","system_id":"levelo_inurba_marseille","lat":43.28937,"lon":5.36389,"is_reserved":false,"is_disabled":false,"rental_uris":{"android":"levelo://app?vid=30eba7ac-f6e4-4a25-ae9d-e1082ff314cb","ios":"levelo://app?vid=30eba7ac-f6e4-4a25-ae9d-e1082ff314cb"},"vehicle_type_id":"4","last_reported":1701590915,"current_range_meters":28400,"station_id":"ce4bhc92rcd13ifvqetg","pricing_plan_id":"free"},{"bike_id":"48515b03-c41d-4923-a48d-ecbac8315d0a","system_id":"levelo_inurba_marseille","lat":43.29108,"lon":5.380355,"is_reserved":false,"is_disabled":false,"rental_uris":{"android":"levelo://app?vid=48515b03-c41d-4923-a48d-ecbac8315d0a","ios":"levelo://app?vid=48515b03-c41d-4923-a48d-ecbac8315d0a"},"vehicle_type_id":"4","last_reported":1701590915,"current_range_meters":17200,"station_id":"","pricing_plan_id":"free"},{"bike_id":"7c5eefe0-39f2-4544-bf33-8983ebca7bda","system_id":"levelo_inurba_marseille","lat":43.304296,"lon":5.397513,"is_reserved":false,"is_disabled":false,"rental_uris":{"android":"levelo://app?vid=7c5eefe0-39f2-4544-bf33-8983ebca7bda","ios":"levelo://app?vid=7c5eefe0-39f2-4544-bf33-8983ebca7bda"},"vehicle_type_id":"4","last_reported":1701590915,"current_range_meters":21200,"station_id":"ce4bh092rcd13ifvqd20","pricing_plan_id":"free"},{"bike_id":"e19acda2-a930-438f-9c14-7d08fe94c998","system_id":"levelo_inurba_marseille","lat":43.304274,"lon":5.397513,"is_reserved":false,"is_disabled":false,"rental_uris":{"android":"levelo://app?vid=e19acda2-a930-438f-9c14-7d08fe94c998","ios":"levelo://app?vid=e19acda2-a930-438f-9c14-7d08fe94c998"},"vehicle_type_id":"4","last_reported":1701590915,"current_range_meters":25200,"station_id":"ce4bh092rcd13ifvqd20","pricing_plan_id":"free"},{"bike_id":"80f15921-9d11-40c5-80f6-47a0d3ed9900","system_id":"levelo_inurba_marseille","lat":43.330442,"lon":5.389148,"is_reserved":false,"is_disabled":false,"rental_uris":{"android":"levelo://app?vid=80f15921-9d11-40c5-80f6-47a0d3ed9900","ios":"levelo://app?vid=80f15921-9d11-40c5-80f6-47a0d3ed9900"},"vehicle_type_id":"4","last_reported":1701590915,"current_range_meters":28800,"station_id":"ce4bhr92rcd13ifvqhrg","pricing_plan_id":"free"},{"bike_id":"0130b991-b450-40ef-af0b-556d62bf3844","system_id":"levelo_inurba_marseille","lat":43.28856,"lon":5.358371,"is_reserved":false,"is_disabled":false,"rental_uris":{"android":"levelo://app?vid=0130b991-b450-40ef-af0b-556d62bf3844","ios":"levelo://app?vid=0130b991-b450-40ef-af0b-556d62bf3844"},"vehicle_type_id":"4","last_reported":1701590915,"current_range_meters":12400,"station_id":"ce4bhb12rcd13ifvqem0","pricing_plan_id":"free"},{"bike_id":"54cddc60-5559-4b4a-b345-5137e1297254","system_id":"levelo_inurba_marseille","lat":43.28856,"lon":5.358371,"is_reserved":false,"is_disabled":false,"rental_uris":{"android":"levelo://app?vid=54cddc60-5559-4b4a-b345-5137e1297254","ios":"levelo://app?vid=54cddc60-5559-4b4a-b345-5137e1297254"},"vehicle_type_id":"4","last_reported":1701590915,"current_range_meters":22000,"station_id":"ce4bhb12rcd13ifvqem0","pricing_plan_id":"free"},{"bike_id":"477e1144-9eee-4917-ac99-7ad7235ffc00","system_id":"levelo_inurba_marseille","lat":43.288485,"lon":5.35831,"is_reserved":false,"is_disabled":false,"rental_uris":{"android":"levelo://app?vid=477e1144-9eee-4917-ac99-7ad7235ffc00","ios":"levelo://app?vid=477e1144-9eee-4917-ac99-7ad7235ffc00"},"vehicle_type_id":"4","last_reported":1701590915,"current_range_meters":29200,"station_id":"ce4bhb12rcd13ifvqem0","pricing_plan_id":"free"},{"bike_id":"2b0510fb-295c-40ba-8891-c0b7a18c180c","system_id":"levelo_inurba_marseille","lat":43.33746,"lon":5.37434,"is_reserved":false,"is_disabled":false,"rental_uris":{"android":"levelo://app?vid=2b0510fb-295c-40ba-8891-c0b7a18c180c","ios":"levelo://app?vid=2b0510fb-295c-40ba-8891-c0b7a18c180c"},"vehicle_type_id":"4","last_reported":1701590915,"current_range_meters":22400,"station_id":"","pricing_plan_id":"free"},{"bike_id":"6424795e-524d-494a-be8f-44913fe1fa04","system_id":"levelo_inurba_marseille","lat":43.33773,"lon":5.374453,"is_reserved":false,"is_disabled":false,"rental_uris":{"android":"levelo://app?vid=6424795e-524d-494a-be8f-44913fe1fa04","ios":"levelo://app?vid=6424795e-524d-494a-be8f-44913fe1fa04"},"vehicle_type_id":"4","last_reported":1701590915,"current_range_meters":16000,"station_id":"","pricing_plan_id":"free"},{"bike_id":"7b1ccf46-5b18-4b14-8778-5f1e89edb09e","system_id":"levelo_inurba_marseille","lat":43.30129,"lon":5.39851,"is_reserved":false,"is_disabled":false,"rental_uris":{"android":"levelo://app?vid=7b1ccf46-5b18-4b14-8778-5f1e89edb09e","ios":"levelo://app?vid=7b1ccf46-5b18-4b14-8778-5f1e89edb09e"},"vehicle_type_id":"4","last_reported":1701590915,"current_range_meters":16000,"station_id":"ce4bh0h2rcd13ifvqd40","pricing_plan_id":"free"},{"bike_id":"4d95ba0b-1250-423c-af90-98c558d64bfd","system_id":"levelo_inurba_marseille","lat":43.301427,"lon":5.398726,"is_reserved":false,"is_disabled":false,"rental_uris":{"android":"levelo://app?vid=4d95ba0b-1250-423c-af90-98c558d64bfd","ios":"levelo://app?vid=4d95ba0b-1250-423c-af90-98c558d64bfd"},"vehicle_type_id":"4","last_reported":1701590915,"current_range_meters":23200,"station_id":"ce4bh0h2rcd13ifvqd40","pricing_plan_id":"free"},{"bike_id":"04bbca44-4f7a-491a-af18-414e290efea4","system_id":"levelo_inurba_marseille","lat":43.301392,"lon":5.39877,"is_reserved":false,"is_disabled":false,"rental_uris":{"android":"levelo://app?vid=04bbca44-4f7a-491a-af18-414e290efea4","ios":"levelo://app?vid=04bbca44-4f7a-491a-af18-414e290efea4"},"vehicle_type_id":"4","last_reported":1701590915,"current_range_meters":30800,"station_id":"ce4bh0h2rcd13ifvqd40","pricing_plan_id":"free"},{"bike_id":"8ce6427f-ff5c-4198-b4a9-d8bddee1b652","system_id":"levelo_inurba_marseille","lat":43.30135,"lon":5.39878,"is_reserved":false,"is_disabled":false,"rental_uris":{"android":"levelo://app?vid=8ce6427f-ff5c-4198-b4a9-d8bddee1b652","ios":"levelo://app?vid=8ce6427f-ff5c-4198-b4a9-d8bddee1b652"},"vehicle_type_id":"4","last_reported":1701590915,"current_range_meters":18000,"station_id":"ce4bh0h2rcd13ifvqd40","pricing_plan_id":"free"},{"bike_id":"b4d50b31-3828-405d-9e6f-724d7e898ebc","system_id":"levelo_inurba_marseille","lat":43.28727,"lon":5.36078,"is_reserved":false,"is_disabled":false,"rental_uris":{"android":"levelo://app?vid=b4d50b31-3828-405d-9e6f-724d7e898ebc","ios":"levelo://app?vid=b4d50b31-3828-405d-9e6f-724d7e898ebc"},"vehicle_type_id":"4","last_reported":1701590915,"current_range_meters":27600,"station_id":"cki0cbj6b192h4jlfktg","pricing_plan_id":"free"},{"bike_id":"f89cd354-0730-455b-a9fa-53fa626c0048","system_id":"levelo_inurba_marseille","lat":43.28727,"lon":5.36078,"is_reserved":false,"is_disabled":false,"rental_uris":{"android":"levelo://app?vid=f89cd354-0730-455b-a9fa-53fa626c0048","ios":"levelo://app?vid=f89cd354-0730-455b-a9fa-53fa626c0048"},"vehicle_type_id":"4","last_reported":1701590915,"current_range_meters":26400,"station_id":"cki0cbj6b192h4jlfktg","pricing_plan_id":"free"},{"bike_id":"7756a441-c525-4ad2-b103-3a538232fe1d","system_id":"levelo_inurba_marseille","lat":43.286961,"lon":5.373785,"is_reserved":false,"is_disabled":false,"rental_uris":{"android":"levelo://app?vid=7756a441-c525-4ad2-b103-3a538232fe1d","ios":"levelo://app?vid=7756a441-c525-4ad2-b103-3a538232fe1d"},"vehicle_type_id":"4","last_reported":1701590915,"current_range_meters":29600,"station_id":"ce4bh3p2rcd13ifvqdq0","pricing_plan_id":"free"},{"bike_id":"7f940b04-eb6a-4373-b659-eddc34f39caa","system_id":"levelo_inurba_marseille","lat":43.295194,"lon":5.39397,"is_reserved":false,"is_disabled":false,"rental_uris":{"android":"levelo://app?vid=7f940b04-eb6a-4373-b659-eddc34f39caa","ios":"levelo://app?vid=7f940b04-eb6a-4373-b659-eddc34f39caa"},"vehicle_type_id":"4","last_reported":1701590915,"current_range_meters":29200,"station_id":"ce4bh292rcd13ifvqdf0","pricing_plan_id":"free"},{"bike_id":"7d793c91-9823-4632-b634-2e41ea60e841","system_id":"levelo_inurba_marseille","lat":43.287185,"lon":5.379373,"is_reserved":false,"is_disabled":false,"rental_uris":{"android":"levelo://app?vid=7d793c91-9823-4632-b634-2e41ea60e841","ios":"levelo://app?vid=7d793c91-9823-4632-b634-2e41ea60e841"},"vehicle_type_id":"4","last_reported":1701590915,"current_range_meters":26000,"station_id":"ce4bh9p2rcd13ifvqec0","pricing_plan_id":"free"},{"bike_id":"dc231def-da48-4e2b-b3f2-269667570e7a","system_id":"levelo_inurba_marseille","lat":43.31641,"lon":5.40443,"is_reserved":false,"is_disabled":false,"rental_uris":{"android":"levelo://app?vid=dc231def-da48-4e2b-b3f2-269667570e7a","ios":"levelo://app?vid=dc231def-da48-4e2b-b3f2-269667570e7a"},"vehicle_type_id":"4","last_reported":1701590915,"current_range_meters":14000,"station_id":"ce4bh012rcd13ifvqd00","pricing_plan_id":"free"},{"bike_id":"64f718e9-b87a-4574-91ed-03a3fa9dd2ad","system_id":"levelo_inurba_marseille","lat":43.316517,"lon":5.404375,"is_reserved":false,"is_disabled":false,"rental_uris":{"android":"levelo://app?vid=64f718e9-b87a-4574-91ed-03a3fa9dd2ad","ios":"levelo://app?vid=64f718e9-b87a-4574-91ed-03a3fa9dd2ad"},"vehicle_type_id":"4","last_reported":1701590915,"current_range_meters":7200,"station_id":"ce4bh012rcd13ifvqd00","pricing_plan_id":"free"},{"bike_id":"6a16440e-51cf-4c9a-a604-b91ae3f544f0","system_id":"levelo_inurba_marseille","lat":43.284538,"lon":5.358657,"is_reserved":false,"is_disabled":false,"rental_uris":{"android":"levelo://app?vid=6a16440e-51cf-4c9a-a604-b91ae3f544f0","ios":"levelo://app?vid=6a16440e-51cf-4c9a-a604-b91ae3f544f0"},"vehicle_type_id":"4","last_reported":1701590915,"current_range_meters":31200,"station_id":"ce4bhah2rcd13ifvqei0","pricing_plan_id":"free"},{"bike_id":"d429aff5-47b3-445d-8f95-4d199501d8f2","system_id":"levelo_inurba_marseille","lat":43.291994,"lon":5.357886,"is_reserved":false,"is_disabled":false,"rental_uris":{"android":"levelo://app?vid=d429aff5-47b3-445d-8f95-4d199501d8f2","ios":"levelo://app?vid=d429aff5-47b3-445d-8f95-4d199501d8f2"},"vehicle_type_id":"4","last_reported":1701590915,"current_range_meters":27600,"station_id":"ce4bhb12rcd13ifvqel0","pricing_plan_id":"free"},{"bike_id":"d18484f4-6df1-42b3-9838-356a5262f0f1","system_id":"levelo_inurba_marseille","lat":43.285856,"lon":5.350771,"is_reserved":false,"is_disabled":false,"rental_uris":{"android":"levelo://app?vid=d18484f4-6df1-42b3-9838-356a5262f0f1","ios":"levelo://app?vid=d18484f4-6df1-42b3-9838-356a5262f0f1"},"vehicle_type_id":"4","last_reported":1701590915,"current_range_meters":23600,"station_id":"ce4bhch2rcd13ifvqeug","pricing_plan_id":"free"},{"bike_id":"62a12227-09fe-4e67-80f5-720dc6f6971e","system_id":"levelo_inurba_marseille","lat":43.285856,"lon":5.350771,"is_reserved":false,"is_disabled":false,"rental_uris":{"android":"levelo://app?vid=62a12227-09fe-4e67-80f5-720dc6f6971e","ios":"levelo://app?vid=62a12227-09fe-4e67-80f5-720dc6f6971e"},"vehicle_type_id":"4","last_reported":1701590915,"current_range_meters":26400,"station_id":"ce4bhch2rcd13ifvqeug","pricing_plan_id":"free"},{"bike_id":"c473edd9-5de8-4efa-83af-63743183060e","system_id":"levelo_inurba_marseille","lat":43.28616,"lon":5.35099,"is_reserved":false,"is_disabled":false,"rental_uris":{"android":"levelo://app?vid=c473edd9-5de8-4efa-83af-63743183060e","ios":"levelo://app?vid=c473edd9-5de8-4efa-83af-63743183060e"},"vehicle_type_id":"4","last_reported":1701590915,"current_range_meters":18400,"station_id":"ce4bhch2rcd13ifvqeug","pricing_plan_id":"free"},{"bike_id":"7c33a7aa-b54e-46a5-9c76-23f94c2d393f","system_id":"levelo_inurba_marseille","lat":43.283998,"lon":5.375062,"is_reserved":false,"is_disabled":false,"rental_uris":{"android":"levelo://app?vid=7c33a7aa-b54e-46a5-9c76-23f94c2d393f","ios":"levelo://app?vid=7c33a7aa-b54e-46a5-9c76-23f94c2d393f"},"vehicle_type_id":"4","last_reported":1701590915,"current_range_meters":29600,"station_id":"ce4bh412rcd13ifvqds0","pricing_plan_id":"free"},{"bike_id":"b5f8ce4f-687f-4481-b008-b46afe79fcb7","system_id":"levelo_inurba_marseille","lat":43.283998,"lon":5.375062,"is_reserved":false,"is_disabled":false,"rental_uris":{"android":"levelo://app?vid=b5f8ce4f-687f-4481-b008-b46afe79fcb7","ios":"levelo://app?vid=b5f8ce4f-687f-4481-b008-b46afe79fcb7"},"vehicle_type_id":"4","last_reported":1701590915,"current_range_meters":27600,"station_id":"ce4bh412rcd13ifvqds0","pricing_plan_id":"free"},{"bike_id":"75ee5a35-25e5-4210-a426-2d92cbb1b782","system_id":"levelo_inurba_marseille","lat":43.333168,"lon":5.395981,"is_reserved":false,"is_disabled":false,"rental_uris":{"android":"levelo://app?vid=75ee5a35-25e5-4210-a426-2d92cbb1b782","ios":"levelo://app?vid=75ee5a35-25e5-4210-a426-2d92cbb1b782"},"vehicle_type_id":"4","last_reported":1701590915,"current_range_meters":0,"station_id":"","pricing_plan_id":"free"},{"bike_id":"dec60f20-4464-41aa-8287-865103d280af","system_id":"levelo_inurba_marseille","lat":43.286595,"lon":5.386795,"is_reserved":false,"is_disabled":false,"rental_uris":{"android":"levelo://app?vid=dec60f20-4464-41aa-8287-865103d280af","ios":"levelo://app?vid=dec60f20-4464-41aa-8287-865103d280af"},"vehicle_type_id":"4","last_reported":1701590915,"current_range_meters":4400,"station_id":"ce4bh492rcd13ifvqdug","pricing_plan_id":"free"},{"bike_id":"bc29c412-9d07-4a62-9f33-948ed97e95a3","system_id":"levelo_inurba_marseille","lat":43.319179,"lon":5.407725,"is_reserved":false,"is_disabled":false,"rental_uris":{"android":"levelo://app?vid=bc29c412-9d07-4a62-9f33-948ed97e95a3","ios":"levelo://app?vid=bc29c412-9d07-4a62-9f33-948ed97e95a3"},"vehicle_type_id":"4","last_reported":1701590915,"current_range_meters":11200,"station_id":"ce4bhq12rcd13ifvqhig","pricing_plan_id":"free"},{"bike_id":"f99fc4d8-709b-4cee-a32c-2cdd6f1e8b1e","system_id":"levelo_inurba_marseille","lat":43.33742,"lon":5.39112,"is_reserved":false,"is_disabled":false,"rental_uris":{"android":"levelo://app?vid=f99fc4d8-709b-4cee-a32c-2cdd6f1e8b1e","ios":"levelo://app?vid=f99fc4d8-709b-4cee-a32c-2cdd6f1e8b1e"},"vehicle_type_id":"4","last_reported":1701590915,"current_range_meters":21600,"station_id":"","pricing_plan_id":"free"},{"bike_id":"23a6e18e-5ad6-40cf-b6fb-7a4b1a6034c9","system_id":"levelo_inurba_marseille","lat":43.33717,"lon":5.391857,"is_reserved":false,"is_disabled":false,"rental_uris":{"android":"levelo://app?vid=23a6e18e-5ad6-40cf-b6fb-7a4b1a6034c9","ios":"levelo://app?vid=23a6e18e-5ad6-40cf-b6fb-7a4b1a6034c9"},"vehicle_type_id":"4","last_reported":1701590915,"current_range_meters":28000,"station_id":"ce4bhr92rcd13ifvqhsg","pricing_plan_id":"free"},{"bike_id":"ef8b2cf2-0711-4227-b7af-f411b85a8354","system_id":"levelo_inurba_marseille","lat":43.323464,"lon":5.406297,"is_reserved":false,"is_disabled":false,"rental_uris":{"android":"levelo://app?vid=ef8b2cf2-0711-4227-b7af-f411b85a8354","ios":"levelo://app?vid=ef8b2cf2-0711-4227-b7af-f411b85a8354"},"vehicle_type_id":"4","last_reported":1701590915,"current_range_meters":30800,"station_id":"ce4bhq92rcd13ifvqhjg","pricing_plan_id":"free"},{"bike_id":"066d3c92-d505-4447-9277-8951cf66b38c","system_id":"levelo_inurba_marseille","lat":43.284787,"lon":5.384116,"is_reserved":false,"is_disabled":false,"rental_uris":{"android":"levelo://app?vid=066d3c92-d505-4447-9277-8951cf66b38c","ios":"levelo://app?vid=066d3c92-d505-4447-9277-8951cf66b38c"},"vehicle_type_id":"4","last_reported":1701590915,"current_range_meters":22400,"station_id":"ce4bh512rcd13ifvqe3g","pricing_plan_id":"free"},{"bike_id":"e29deb00-4467-4e9a-ae79-8ebce9d85153","system_id":"levelo_inurba_marseille","lat":43.29795,"lon":5.404086,"is_reserved":false,"is_disabled":false,"rental_uris":{"android":"levelo://app?vid=e29deb00-4467-4e9a-ae79-8ebce9d85153","ios":"levelo://app?vid=e29deb00-4467-4e9a-ae79-8ebce9d85153"},"vehicle_type_id":"4","last_reported":1701590915,"current_range_meters":28800,"station_id":"ce4bh112rcd13ifvqd90","pricing_plan_id":"free"},{"bike_id":"bcb46a23-c043-4fb2-999c-90b6d9ad7c1a","system_id":"levelo_inurba_marseille","lat":43.284219,"lon":5.3497,"is_reserved":false,"is_disabled":false,"rental_uris":{"android":"levelo://app?vid=bcb46a23-c043-4fb2-999c-90b6d9ad7c1a","ios":"levelo://app?vid=bcb46a23-c043-4fb2-999c-90b6d9ad7c1a"},"vehicle_type_id":"4","last_reported":1701590915,"current_range_meters":29600,"station_id":"ce4bhbh2rcd13ifvqepg","pricing_plan_id":"free"},{"bike_id":"f42af326-eed4-46a2-ae11-e7dcb97cb119","system_id":"levelo_inurba_marseille","lat":43.289363,"lon":5.396322,"is_reserved":false,"is_disabled":false,"rental_uris":{"android":"levelo://app?vid=f42af326-eed4-46a2-ae11-e7dcb97cb119","ios":"levelo://app?vid=f42af326-eed4-46a2-ae11-e7dcb97cb119"},"vehicle_type_id":"4","last_reported":1701590915,"current_range_meters":28800,"station_id":"ce4bh3h2rcd13ifvqdn0","pricing_plan_id":"free"},{"bike_id":"d6dce8f9-3ac5-4689-8133-b6322ee85f7b","system_id":"levelo_inurba_marseille","lat":43.289363,"lon":5.396322,"is_reserved":false,"is_disabled":false,"rental_uris":{"android":"levelo://app?vid=d6dce8f9-3ac5-4689-8133-b6322ee85f7b","ios":"levelo://app?vid=d6dce8f9-3ac5-4689-8133-b6322ee85f7b"},"vehicle_type_id":"4","last_reported":1701590915,"current_range_meters":27200,"station_id":"ce4bh3h2rcd13ifvqdn0","pricing_plan_id":"free"},{"bike_id":"ed11c2a9-5ab4-490c-abd2-90d946b4786c","system_id":"levelo_inurba_marseille","lat":43.289363,"lon":5.396322,"is_reserved":false,"is_disabled":false,"rental_uris":{"android":"levelo://app?vid=ed11c2a9-5ab4-490c-abd2-90d946b4786c","ios":"levelo://app?vid=ed11c2a9-5ab4-490c-abd2-90d946b4786c"},"vehicle_type_id":"4","last_reported":1701590915,"current_range_meters":31600,"station_id":"ce4bh3h2rcd13ifvqdn0","pricing_plan_id":"free"},{"bike_id":"9a8fd00e-f38b-4963-b15e-53e9d113cc86","system_id":"levelo_inurba_marseille","lat":43.283502,"lon":5.386471,"is_reserved":false,"is_disabled":false,"rental_uris":{"android":"levelo://app?vid=9a8fd00e-f38b-4963-b15e-53e9d113cc86","ios":"levelo://app?vid=9a8fd00e-f38b-4963-b15e-53e9d113cc86"},"vehicle_type_id":"4","last_reported":1701590915,"current_range_meters":18400,"station_id":"ce4bh492rcd13ifvqdvg","pricing_plan_id":"free"},{"bike_id":"7f6cb324-42ef-4905-9ae2-4e899efab3df","system_id":"levelo_inurba_marseille","lat":43.2826,"lon":5.35074,"is_reserved":false,"is_disabled":false,"rental_uris":{"android":"levelo://app?vid=7f6cb324-42ef-4905-9ae2-4e899efab3df","ios":"levelo://app?vid=7f6cb324-42ef-4905-9ae2-4e899efab3df"},"vehicle_type_id":"4","last_reported":1701590915,"current_range_meters":20800,"station_id":"ce4bhbp2rcd13ifvqerg","pricing_plan_id":"free"},{"bike_id":"3ffe2381-791e-4dfc-ab55-b1a1afebe7c4","system_id":"levelo_inurba_marseille","lat":43.28039,"lon":5.369297,"is_reserved":false,"is_disabled":false,"rental_uris":{"android":"levelo://app?vid=3ffe2381-791e-4dfc-ab55-b1a1afebe7c4","ios":"levelo://app?vid=3ffe2381-791e-4dfc-ab55-b1a1afebe7c4"},"vehicle_type_id":"4","last_reported":1701590915,"current_range_meters":22000,"station_id":"ce4bha12rcd13ifvqef0","pricing_plan_id":"free"},{"bike_id":"e3254949-fbff-4b65-b756-aa958968c414","system_id":"levelo_inurba_marseille","lat":43.280382,"lon":5.369291,"is_reserved":false,"is_disabled":false,"rental_uris":{"android":"levelo://app?vid=e3254949-fbff-4b65-b756-aa958968c414","ios":"levelo://app?vid=e3254949-fbff-4b65-b756-aa958968c414"},"vehicle_type_id":"4","last_reported":1701590915,"current_range_meters":30000,"station_id":"ce4bha12rcd13ifvqef0","pricing_plan_id":"free"},{"bike_id":"13c49cc6-014e-4c7b-82e8-0b090fd14229","system_id":"levelo_inurba_marseille","lat":43.280382,"lon":5.369291,"is_reserved":false,"is_disabled":false,"rental_uris":{"android":"levelo://app?vid=13c49cc6-014e-4c7b-82e8-0b090fd14229","ios":"levelo://app?vid=13c49cc6-014e-4c7b-82e8-0b090fd14229"},"vehicle_type_id":"4","last_reported":1701590915,"current_range_meters":30000,"station_id":"ce4bha12rcd13ifvqef0","pricing_plan_id":"free"},{"bike_id":"cb54c956-e63b-46b9-94c5-80ab65b5e594","system_id":"levelo_inurba_marseille","lat":43.29041,"lon":5.39944,"is_reserved":false,"is_disabled":false,"rental_uris":{"android":"levelo://app?vid=cb54c956-e63b-46b9-94c5-80ab65b5e594","ios":"levelo://app?vid=cb54c956-e63b-46b9-94c5-80ab65b5e594"},"vehicle_type_id":"4","last_reported":1701590915,"current_range_meters":21200,"station_id":"ce4bh392rcd13ifvqdm0","pricing_plan_id":"free"},{"bike_id":"1ca968cc-6faf-40f3-96ac-12782ca3a4cb","system_id":"levelo_inurba_marseille","lat":43.29045,"lon":5.399557,"is_reserved":false,"is_disabled":false,"rental_uris":{"android":"levelo://app?vid=1ca968cc-6faf-40f3-96ac-12782ca3a4cb","ios":"levelo://app?vid=1ca968cc-6faf-40f3-96ac-12782ca3a4cb"},"vehicle_type_id":"4","last_reported":1701590915,"current_range_meters":23200,"station_id":"ce4bh392rcd13ifvqdm0","pricing_plan_id":"free"},{"bike_id":"a0dd9fb7-9fa3-4e64-b26f-cad770566acc","system_id":"levelo_inurba_marseille","lat":43.2903,"lon":5.39969,"is_reserved":false,"is_disabled":false,"rental_uris":{"android":"levelo://app?vid=a0dd9fb7-9fa3-4e64-b26f-cad770566acc","ios":"levelo://app?vid=a0dd9fb7-9fa3-4e64-b26f-cad770566acc"},"vehicle_type_id":"4","last_reported":1701590915,"current_range_meters":31200,"station_id":"ce4bh392rcd13ifvqdm0","pricing_plan_id":"free"},{"bike_id":"cf7c8d89-bbae-471f-9be6-f5802a1c6b7d","system_id":"levelo_inurba_marseille","lat":43.281044,"lon":5.378308,"is_reserved":false,"is_disabled":false,"rental_uris":{"android":"levelo://app?vid=cf7c8d89-bbae-471f-9be6-f5802a1c6b7d","ios":"levelo://app?vid=cf7c8d89-bbae-471f-9be6-f5802a1c6b7d"},"vehicle_type_id":"4","last_reported":1701590915,"current_range_meters":26800,"station_id":"ce4bha12rcd13ifvqee0","pricing_plan_id":"free"},{"bike_id":"b4f803b7-2205-48d3-95fe-f7a2298a4581","system_id":"levelo_inurba_marseille","lat":43.296263,"lon":5.40601,"is_reserved":false,"is_disabled":false,"rental_uris":{"android":"levelo://app?vid=b4f803b7-2205-48d3-95fe-f7a2298a4581","ios":"levelo://app?vid=b4f803b7-2205-48d3-95fe-f7a2298a4581"},"vehicle_type_id":"4","last_reported":1701590915,"current_range_meters":28400,"station_id":"ce4bh0h2rcd13ifvqd60","pricing_plan_id":"free"},{"bike_id":"530bb637-cbe7-4b21-86bc-0a95c695607f","system_id":"levelo_inurba_marseille","lat":43.28573,"lon":5.394992,"is_reserved":false,"is_disabled":false,"rental_uris":{"android":"levelo://app?vid=530bb637-cbe7-4b21-86bc-0a95c695607f","ios":"levelo://app?vid=530bb637-cbe7-4b21-86bc-0a95c695607f"},"vehicle_type_id":"4","last_reported":1701590915,"current_range_meters":22800,"station_id":"ce4bh292rcd13ifvqdg0","pricing_plan_id":"free"},{"bike_id":"44923bec-f173-4b5b-8e1c-96a1fd952d66","system_id":"levelo_inurba_marseille","lat":43.304125,"lon":5.412871,"is_reserved":false,"is_disabled":false,"rental_uris":{"android":"levelo://app?vid=44923bec-f173-4b5b-8e1c-96a1fd952d66","ios":"levelo://app?vid=44923bec-f173-4b5b-8e1c-96a1fd952d66"},"vehicle_type_id":"4","last_reported":1701590915,"current_range_meters":29200,"station_id":"ce4bhop2rcd13ifvqh8g","pricing_plan_id":"free"},{"bike_id":"612c4b3f-8fec-45ae-8dac-a21d3f0b922a","system_id":"levelo_inurba_marseille","lat":43.304188,"lon":5.412904,"is_reserved":false,"is_disabled":false,"rental_uris":{"android":"levelo://app?vid=612c4b3f-8fec-45ae-8dac-a21d3f0b922a","ios":"levelo://app?vid=612c4b3f-8fec-45ae-8dac-a21d3f0b922a"},"vehicle_type_id":"4","last_reported":1701590915,"current_range_meters":30000,"station_id":"ce4bhop2rcd13ifvqh8g","pricing_plan_id":"free"},{"bike_id":"b21af117-871c-4901-957f-0ecb4fff2209","system_id":"levelo_inurba_marseille","lat":43.279087,"lon":5.380114,"is_reserved":false,"is_disabled":false,"rental_uris":{"android":"levelo://app?vid=b21af117-871c-4901-957f-0ecb4fff2209","ios":"levelo://app?vid=b21af117-871c-4901-957f-0ecb4fff2209"},"vehicle_type_id":"4","last_reported":1701590915,"current_range_meters":29600,"station_id":"ce4bhf92rcd13ifvqf50","pricing_plan_id":"free"},{"bike_id":"b43c0748-11a3-4c91-854d-ab9ab625e13b","system_id":"levelo_inurba_marseille","lat":43.320045,"lon":5.415046,"is_reserved":false,"is_disabled":false,"rental_uris":{"android":"levelo://app?vid=b43c0748-11a3-4c91-854d-ab9ab625e13b","ios":"levelo://app?vid=b43c0748-11a3-4c91-854d-ab9ab625e13b"},"vehicle_type_id":"4","last_reported":1701590915,"current_range_meters":21200,"station_id":"ce4bhq92rcd13ifvqhkg","pricing_plan_id":"free"},{"bike_id":"a86b05ec-d6e9-4108-9eb9-985025562aa2","system_id":"levelo_inurba_marseille","lat":43.299579,"lon":5.413255,"is_reserved":false,"is_disabled":false,"rental_uris":{"android":"levelo://app?vid=a86b05ec-d6e9-4108-9eb9-985025562aa2","ios":"levelo://app?vid=a86b05ec-d6e9-4108-9eb9-985025562aa2"},"vehicle_type_id":"4","last_reported":1701590915,"current_range_meters":24800,"station_id":"ce4bhp12rcd13ifvqh9g","pricing_plan_id":"free"},{"bike_id":"425676d7-4815-4767-a6b7-f9472f473e42","system_id":"levelo_inurba_marseille","lat":43.32045,"lon":5.41547,"is_reserved":false,"is_disabled":false,"rental_uris":{"android":"levelo://app?vid=425676d7-4815-4767-a6b7-f9472f473e42","ios":"levelo://app?vid=425676d7-4815-4767-a6b7-f9472f473e42"},"vehicle_type_id":"4","last_reported":1701590915,"current_range_meters":29600,"station_id":"ce4bhq92rcd13ifvqhkg","pricing_plan_id":"free"},{"bike_id":"94e8a404-f2fa-4fd2-82a6-f864cda2b0a5","system_id":"levelo_inurba_marseille","lat":43.320045,"lon":5.415046,"is_reserved":false,"is_disabled":false,"rental_uris":{"android":"levelo://app?vid=94e8a404-f2fa-4fd2-82a6-f864cda2b0a5","ios":"levelo://app?vid=94e8a404-f2fa-4fd2-82a6-f864cda2b0a5"},"vehicle_type_id":"4","last_reported":1701590915,"current_range_meters":29600,"station_id":"ce4bhq92rcd13ifvqhkg","pricing_plan_id":"free"},{"bike_id":"0a92d06c-49fb-4071-a933-073e568136e2","system_id":"levelo_inurba_marseille","lat":43.32923,"lon":5.41116,"is_reserved":false,"is_disabled":false,"rental_uris":{"android":"levelo://app?vid=0a92d06c-49fb-4071-a933-073e568136e2","ios":"levelo://app?vid=0a92d06c-49fb-4071-a933-073e568136e2"},"vehicle_type_id":"4","last_reported":1701590915,"current_range_meters":12800,"station_id":"","pricing_plan_id":"free"},{"bike_id":"32382e28-e31d-4617-84f9-1d6d09c3f25d","system_id":"levelo_inurba_marseille","lat":43.320045,"lon":5.415046,"is_reserved":false,"is_disabled":false,"rental_uris":{"android":"levelo://app?vid=32382e28-e31d-4617-84f9-1d6d09c3f25d","ios":"levelo://app?vid=32382e28-e31d-4617-84f9-1d6d09c3f25d"},"vehicle_type_id":"4","last_reported":1701590915,"current_range_meters":27600,"station_id":"ce4bhq92rcd13ifvqhkg","pricing_plan_id":"free"},{"bike_id":"50a2c86d-9961-4632-a311-0ee02f6f0360","system_id":"levelo_inurba_marseille","lat":43.276228,"lon":5.361192,"is_reserved":false,"is_disabled":false,"rental_uris":{"android":"levelo://app?vid=50a2c86d-9961-4632-a311-0ee02f6f0360","ios":"levelo://app?vid=50a2c86d-9961-4632-a311-0ee02f6f0360"},"vehicle_type_id":"4","last_reported":1701590915,"current_range_meters":26400,"station_id":"ce4bgj92rcd13ifvqbe0","pricing_plan_id":"free"},{"bike_id":"451e5711-912b-4e6f-ba92-14f20d0093e3","system_id":"levelo_inurba_marseille","lat":43.336934,"lon":5.406528,"is_reserved":false,"is_disabled":false,"rental_uris":{"android":"levelo://app?vid=451e5711-912b-4e6f-ba92-14f20d0093e3","ios":"levelo://app?vid=451e5711-912b-4e6f-ba92-14f20d0093e3"},"vehicle_type_id":"4","last_reported":1701590915,"current_range_meters":16400,"station_id":"","pricing_plan_id":"free"},{"bike_id":"3d935caa-7c73-43ea-a19b-00d46e9abe77","system_id":"levelo_inurba_marseille","lat":43.280784,"lon":5.396622,"is_reserved":false,"is_disabled":false,"rental_uris":{"android":"levelo://app?vid=3d935caa-7c73-43ea-a19b-00d46e9abe77","ios":"levelo://app?vid=3d935caa-7c73-43ea-a19b-00d46e9abe77"},"vehicle_type_id":"4","last_reported":1701590915,"current_range_meters":27200,"station_id":"ce4bho12rcd13ifvqh2g","pricing_plan_id":"free"},{"bike_id":"070f0a5d-a775-48e6-a528-b3ec03ec876a","system_id":"levelo_inurba_marseille","lat":43.280784,"lon":5.396622,"is_reserved":false,"is_disabled":false,"rental_uris":{"android":"levelo://app?vid=070f0a5d-a775-48e6-a528-b3ec03ec876a","ios":"levelo://app?vid=070f0a5d-a775-48e6-a528-b3ec03ec876a"},"vehicle_type_id":"4","last_reported":1701590915,"current_range_meters":6000,"station_id":"ce4bho12rcd13ifvqh2g","pricing_plan_id":"free"},{"bike_id":"dc059f3a-14b0-4804-9f69-1332410c8539","system_id":"levelo_inurba_marseille","lat":43.280784,"lon":5.396622,"is_reserved":false,"is_disabled":false,"rental_uris":{"android":"levelo://app?vid=dc059f3a-14b0-4804-9f69-1332410c8539","ios":"levelo://app?vid=dc059f3a-14b0-4804-9f69-1332410c8539"},"vehicle_type_id":"4","last_reported":1701590915,"current_range_meters":27600,"station_id":"ce4bho12rcd13ifvqh2g","pricing_plan_id":"free"},{"bike_id":"bfb8e777-ae51-4b2d-a99c-d5bf47ad6686","system_id":"levelo_inurba_marseille","lat":43.278399,"lon":5.392139,"is_reserved":false,"is_disabled":false,"rental_uris":{"android":"levelo://app?vid=bfb8e777-ae51-4b2d-a99c-d5bf47ad6686","ios":"levelo://app?vid=bfb8e777-ae51-4b2d-a99c-d5bf47ad6686"},"vehicle_type_id":"4","last_reported":1701590915,"current_range_meters":30000,"station_id":"ce4bhjp2rcd13ifvqga0","pricing_plan_id":"free"},{"bike_id":"860c5ca6-54a4-4e63-908d-4686ad2fafcb","system_id":"levelo_inurba_marseille","lat":43.278401,"lon":5.392152,"is_reserved":false,"is_disabled":false,"rental_uris":{"android":"levelo://app?vid=860c5ca6-54a4-4e63-908d-4686ad2fafcb","ios":"levelo://app?vid=860c5ca6-54a4-4e63-908d-4686ad2fafcb"},"vehicle_type_id":"4","last_reported":1701590915,"current_range_meters":24000,"station_id":"ce4bhjp2rcd13ifvqga0","pricing_plan_id":"free"},{"bike_id":"dd1614ba-585e-450a-834b-1c03d5d026e1","system_id":"levelo_inurba_marseille","lat":43.273613,"lon":5.362705,"is_reserved":false,"is_disabled":false,"rental_uris":{"android":"levelo://app?vid=dd1614ba-585e-450a-834b-1c03d5d026e1","ios":"levelo://app?vid=dd1614ba-585e-450a-834b-1c03d5d026e1"},"vehicle_type_id":"4","last_reported":1701590915,"current_range_meters":29200,"station_id":"ce4bhbh2rcd13ifvqeo0","pricing_plan_id":"free"},{"bike_id":"6c6dfa43-2cc5-48c4-9b7a-5ea1c94db2ec","system_id":"levelo_inurba_marseille","lat":43.273609,"lon":5.362708,"is_reserved":false,"is_disabled":false,"rental_uris":{"android":"levelo://app?vid=6c6dfa43-2cc5-48c4-9b7a-5ea1c94db2ec","ios":"levelo://app?vid=6c6dfa43-2cc5-48c4-9b7a-5ea1c94db2ec"},"vehicle_type_id":"4","last_reported":1701590915,"current_range_meters":29200,"station_id":"ce4bhbh2rcd13ifvqeo0","pricing_plan_id":"free"},{"bike_id":"5d6816a6-2580-4828-b6d6-2c41202b9639","system_id":"levelo_inurba_marseille","lat":43.33612,"lon":5.410321,"is_reserved":false,"is_disabled":false,"rental_uris":{"android":"levelo://app?vid=5d6816a6-2580-4828-b6d6-2c41202b9639","ios":"levelo://app?vid=5d6816a6-2580-4828-b6d6-2c41202b9639"},"vehicle_type_id":"4","last_reported":1701590915,"current_range_meters":28400,"station_id":"ce4bhqh2rcd13ifvqhmg","pricing_plan_id":"free"},{"bike_id":"0781d4bb-2f4d-4918-9618-02058cfa9e92","system_id":"levelo_inurba_marseille","lat":43.336148,"lon":5.410349,"is_reserved":false,"is_disabled":false,"rental_uris":{"android":"levelo://app?vid=0781d4bb-2f4d-4918-9618-02058cfa9e92","ios":"levelo://app?vid=0781d4bb-2f4d-4918-9618-02058cfa9e92"},"vehicle_type_id":"4","last_reported":1701590915,"current_range_meters":30400,"station_id":"ce4bhqh2rcd13ifvqhmg","pricing_plan_id":"free"},{"bike_id":"c77e86e6-58c5-4c6f-a983-88bb37d01692","system_id":"levelo_inurba_marseille","lat":43.336134,"lon":5.410341,"is_reserved":false,"is_disabled":false,"rental_uris":{"android":"levelo://app?vid=c77e86e6-58c5-4c6f-a983-88bb37d01692","ios":"levelo://app?vid=c77e86e6-58c5-4c6f-a983-88bb37d01692"},"vehicle_type_id":"4","last_reported":1701590915,"current_range_meters":28800,"station_id":"ce4bhqh2rcd13ifvqhmg","pricing_plan_id":"free"},{"bike_id":"45598f24-c432-4d48-863f-c0a489b55d92","system_id":"levelo_inurba_marseille","lat":43.276769,"lon":5.388787,"is_reserved":false,"is_disabled":false,"rental_uris":{"android":"levelo://app?vid=45598f24-c432-4d48-863f-c0a489b55d92","ios":"levelo://app?vid=45598f24-c432-4d48-863f-c0a489b55d92"},"vehicle_type_id":"4","last_reported":1701590915,"current_range_meters":30800,"station_id":"ce4bhi12rcd13ifvqfo0","pricing_plan_id":"free"},{"bike_id":"75269014-fd84-4a1f-9fa5-95a0080041c8","system_id":"levelo_inurba_marseille","lat":43.310785,"lon":5.424305,"is_reserved":false,"is_disabled":false,"rental_uris":{"android":"levelo://app?vid=75269014-fd84-4a1f-9fa5-95a0080041c8","ios":"levelo://app?vid=75269014-fd84-4a1f-9fa5-95a0080041c8"},"vehicle_type_id":"4","last_reported":1701590915,"current_range_meters":27600,"station_id":"ce4bhp92rcd13ifvqhag","pricing_plan_id":"free"},{"bike_id":"910fd3aa-d2e0-4553-894a-6161d41c7fcd","system_id":"levelo_inurba_marseille","lat":43.27609,"lon":5.39475,"is_reserved":false,"is_disabled":false,"rental_uris":{"android":"levelo://app?vid=910fd3aa-d2e0-4553-894a-6161d41c7fcd","ios":"levelo://app?vid=910fd3aa-d2e0-4553-894a-6161d41c7fcd"},"vehicle_type_id":"4","last_reported":1701590915,"current_range_meters":17200,"station_id":"","pricing_plan_id":"free"},{"bike_id":"da7f7625-db63-42fe-a02c-753cd5ff3678","system_id":"levelo_inurba_marseille","lat":43.340804,"lon":5.410219,"is_reserved":false,"is_disabled":false,"rental_uris":{"android":"levelo://app?vid=da7f7625-db63-42fe-a02c-753cd5ff3678","ios":"levelo://app?vid=da7f7625-db63-42fe-a02c-753cd5ff3678"},"vehicle_type_id":"4","last_reported":1701590915,"current_range_meters":25200,"station_id":"ce4bhqh2rcd13ifvqhlg","pricing_plan_id":"free"},{"bike_id":"ad5d7c4a-b8a6-45f5-b3c0-69d1db7dd932","system_id":"levelo_inurba_marseille","lat":43.340804,"lon":5.410219,"is_reserved":false,"is_disabled":false,"rental_uris":{"android":"levelo://app?vid=ad5d7c4a-b8a6-45f5-b3c0-69d1db7dd932","ios":"levelo://app?vid=ad5d7c4a-b8a6-45f5-b3c0-69d1db7dd932"},"vehicle_type_id":"4","last_reported":1701590915,"current_range_meters":28400,"station_id":"ce4bhqh2rcd13ifvqhlg","pricing_plan_id":"free"},{"bike_id":"27b7f1e5-550d-43fa-985b-b026d8531e95","system_id":"levelo_inurba_marseille","lat":43.273125,"lon":5.390731,"is_reserved":false,"is_disabled":false,"rental_uris":{"android":"levelo://app?vid=27b7f1e5-550d-43fa-985b-b026d8531e95","ios":"levelo://app?vid=27b7f1e5-550d-43fa-985b-b026d8531e95"},"vehicle_type_id":"4","last_reported":1701590915,"current_range_meters":22000,"station_id":"ce4bhgp2rcd13ifvqfe0","pricing_plan_id":"free"},{"bike_id":"3690f60c-e4ba-4cec-b7eb-046f4cf361c0","system_id":"levelo_inurba_marseille","lat":43.273125,"lon":5.390731,"is_reserved":false,"is_disabled":false,"rental_uris":{"android":"levelo://app?vid=3690f60c-e4ba-4cec-b7eb-046f4cf361c0","ios":"levelo://app?vid=3690f60c-e4ba-4cec-b7eb-046f4cf361c0"},"vehicle_type_id":"4","last_reported":1701590915,"current_range_meters":30000,"station_id":"ce4bhgp2rcd13ifvqfe0","pricing_plan_id":"free"},{"bike_id":"4530f084-2596-4292-890d-2d9b51f2dded","system_id":"levelo_inurba_marseille","lat":43.273129,"lon":5.390725,"is_reserved":false,"is_disabled":false,"rental_uris":{"android":"levelo://app?vid=4530f084-2596-4292-890d-2d9b51f2dded","ios":"levelo://app?vid=4530f084-2596-4292-890d-2d9b51f2dded"},"vehicle_type_id":"4","last_reported":1701590915,"current_range_meters":28000,"station_id":"ce4bhgp2rcd13ifvqfe0","pricing_plan_id":"free"},{"bike_id":"839c7fb9-1bbf-4f33-bb3c-08850ec621c8","system_id":"levelo_inurba_marseille","lat":43.304096,"lon":5.425385,"is_reserved":false,"is_disabled":false,"rental_uris":{"android":"levelo://app?vid=839c7fb9-1bbf-4f33-bb3c-08850ec621c8","ios":"levelo://app?vid=839c7fb9-1bbf-4f33-bb3c-08850ec621c8"},"vehicle_type_id":"4","last_reported":1701590915,"current_range_meters":14000,"station_id":"ce4bhoh2rcd13ifvqh6g","pricing_plan_id":"free"},{"bike_id":"8ffbe317-d923-405c-9268-dd9bdf57d3db","system_id":"levelo_inurba_marseille","lat":43.272124,"lon":5.391768,"is_reserved":false,"is_disabled":false,"rental_uris":{"android":"levelo://app?vid=8ffbe317-d923-405c-9268-dd9bdf57d3db","ios":"levelo://app?vid=8ffbe317-d923-405c-9268-dd9bdf57d3db"},"vehicle_type_id":"4","last_reported":1701590915,"current_range_meters":27200,"station_id":"ce4bhhp2rcd13ifvqfm0","pricing_plan_id":"free"},{"bike_id":"7c081e39-3e8b-417b-a430-17abce39ee4e","system_id":"levelo_inurba_marseille","lat":43.269467,"lon":5.386439,"is_reserved":false,"is_disabled":false,"rental_uris":{"android":"levelo://app?vid=7c081e39-3e8b-417b-a430-17abce39ee4e","ios":"levelo://app?vid=7c081e39-3e8b-417b-a430-17abce39ee4e"},"vehicle_type_id":"4","last_reported":1701590915,"current_range_meters":30000,"station_id":"ce4bhh92rcd13ifvqfh0","pricing_plan_id":"free"},{"bike_id":"b91442ce-f0be-4f2d-86c0-62b21f9262a9","system_id":"levelo_inurba_marseille","lat":43.27944,"lon":5.41042,"is_reserved":false,"is_disabled":false,"rental_uris":{"android":"levelo://app?vid=b91442ce-f0be-4f2d-86c0-62b21f9262a9","ios":"levelo://app?vid=b91442ce-f0be-4f2d-86c0-62b21f9262a9"},"vehicle_type_id":"4","last_reported":1701590915,"current_range_meters":23600,"station_id":"ce4bhnp2rcd13ifvqh0g","pricing_plan_id":"free"},{"bike_id":"d0acf138-2e44-4d8f-a9e9-6e4fb1f064dc","system_id":"levelo_inurba_marseille","lat":43.269319,"lon":5.389397,"is_reserved":false,"is_disabled":false,"rental_uris":{"android":"levelo://app?vid=d0acf138-2e44-4d8f-a9e9-6e4fb1f064dc","ios":"levelo://app?vid=d0acf138-2e44-4d8f-a9e9-6e4fb1f064dc"},"vehicle_type_id":"4","last_reported":1701590915,"current_range_meters":30000,"station_id":"ce4bhhh2rcd13ifvqfl0","pricing_plan_id":"free"},{"bike_id":"0d153516-293d-4659-b199-d6abfe9637b3","system_id":"levelo_inurba_marseille","lat":43.26681,"lon":5.382694,"is_reserved":false,"is_disabled":false,"rental_uris":{"android":"levelo://app?vid=0d153516-293d-4659-b199-d6abfe9637b3","ios":"levelo://app?vid=0d153516-293d-4659-b199-d6abfe9637b3"},"vehicle_type_id":"4","last_reported":1701590915,"current_range_meters":26800,"station_id":"ce4bhg92rcd13ifvqf90","pricing_plan_id":"free"},{"bike_id":"14c38b48-3624-4508-8cb2-8cde570f071d","system_id":"levelo_inurba_marseille","lat":43.26681,"lon":5.382694,"is_reserved":false,"is_disabled":false,"rental_uris":{"android":"levelo://app?vid=14c38b48-3624-4508-8cb2-8cde570f071d","ios":"levelo://app?vid=14c38b48-3624-4508-8cb2-8cde570f071d"},"vehicle_type_id":"4","last_reported":1701590915,"current_range_meters":26400,"station_id":"ce4bhg92rcd13ifvqf90","pricing_plan_id":"free"},{"bike_id":"fb70fc2f-44a2-4be0-859c-dfb22ee159ff","system_id":"levelo_inurba_marseille","lat":43.26496,"lon":5.38009,"is_reserved":false,"is_disabled":false,"rental_uris":{"android":"levelo://app?vid=fb70fc2f-44a2-4be0-859c-dfb22ee159ff","ios":"levelo://app?vid=fb70fc2f-44a2-4be0-859c-dfb22ee159ff"},"vehicle_type_id":"4","last_reported":1701590915,"current_range_meters":24000,"station_id":"","pricing_plan_id":"free"},{"bike_id":"5dbbf92f-9b4b-41f2-ac74-84df7cec22a4","system_id":"levelo_inurba_marseille","lat":43.27992,"lon":5.41655,"is_reserved":false,"is_disabled":false,"rental_uris":{"android":"levelo://app?vid=5dbbf92f-9b4b-41f2-ac74-84df7cec22a4","ios":"levelo://app?vid=5dbbf92f-9b4b-41f2-ac74-84df7cec22a4"},"vehicle_type_id":"4","last_reported":1701590915,"current_range_meters":26800,"station_id":"ce4bho12rcd13ifvqh1g","pricing_plan_id":"free"},{"bike_id":"b7b1c446-7046-4826-8d0c-58e8ffe5ea16","system_id":"levelo_inurba_marseille","lat":43.267966,"lon":5.393976,"is_reserved":false,"is_disabled":false,"rental_uris":{"android":"levelo://app?vid=b7b1c446-7046-4826-8d0c-58e8ffe5ea16","ios":"levelo://app?vid=b7b1c446-7046-4826-8d0c-58e8ffe5ea16"},"vehicle_type_id":"4","last_reported":1701590915,"current_range_meters":25200,"station_id":"ce4bhh12rcd13ifvqfg0","pricing_plan_id":"free"},{"bike_id":"3dd6c3ee-a031-427f-ade8-fcf61d889f2b","system_id":"levelo_inurba_marseille","lat":43.26777,"lon":5.39424,"is_reserved":false,"is_disabled":false,"rental_uris":{"android":"levelo://app?vid=3dd6c3ee-a031-427f-ade8-fcf61d889f2b","ios":"levelo://app?vid=3dd6c3ee-a031-427f-ade8-fcf61d889f2b"},"vehicle_type_id":"4","last_reported":1701590915,"current_range_meters":27600,"station_id":"ce4bhh12rcd13ifvqfg0","pricing_plan_id":"free"},{"bike_id":"a014e9a2-529c-4266-af4c-af0b066fb673","system_id":"levelo_inurba_marseille","lat":43.308051,"lon":5.43527,"is_reserved":false,"is_disabled":false,"rental_uris":{"android":"levelo://app?vid=a014e9a2-529c-4266-af4c-af0b066fb673","ios":"levelo://app?vid=a014e9a2-529c-4266-af4c-af0b066fb673"},"vehicle_type_id":"4","last_reported":1701590915,"current_range_meters":27200,"station_id":"ce4bhph2rcd13ifvqheg","pricing_plan_id":"free"},{"bike_id":"71126cf7-7a57-427b-adf8-621f529e3221","system_id":"levelo_inurba_marseille","lat":43.308051,"lon":5.43527,"is_reserved":false,"is_disabled":false,"rental_uris":{"android":"levelo://app?vid=71126cf7-7a57-427b-adf8-621f529e3221","ios":"levelo://app?vid=71126cf7-7a57-427b-adf8-621f529e3221"},"vehicle_type_id":"4","last_reported":1701590915,"current_range_meters":28800,"station_id":"ce4bhph2rcd13ifvqheg","pricing_plan_id":"free"},{"bike_id":"16e95b66-193f-4c4a-a23d-f02f992dae41","system_id":"levelo_inurba_marseille","lat":43.26557,"lon":5.39016,"is_reserved":false,"is_disabled":false,"rental_uris":{"android":"levelo://app?vid=16e95b66-193f-4c4a-a23d-f02f992dae41","ios":"levelo://app?vid=16e95b66-193f-4c4a-a23d-f02f992dae41"},"vehicle_type_id":"4","last_reported":1701590915,"current_range_meters":20400,"station_id":"ce4bhe12rcd13ifvqf30","pricing_plan_id":"free"},{"bike_id":"4c37e162-cad8-4ab3-998b-998011435797","system_id":"levelo_inurba_marseille","lat":43.26949,"lon":5.40262,"is_reserved":false,"is_disabled":false,"rental_uris":{"android":"levelo://app?vid=4c37e162-cad8-4ab3-998b-998011435797","ios":"levelo://app?vid=4c37e162-cad8-4ab3-998b-998011435797"},"vehicle_type_id":"4","last_reported":1701590915,"current_range_meters":28000,"station_id":"cjm6bp8fraef2m0cb0m0","pricing_plan_id":"free"},{"bike_id":"f600ae2f-60bb-4340-bdab-4173ff5d62b6","system_id":"levelo_inurba_marseille","lat":43.317104,"lon":5.436818,"is_reserved":false,"is_disabled":false,"rental_uris":{"android":"levelo://app?vid=f600ae2f-60bb-4340-bdab-4173ff5d62b6","ios":"levelo://app?vid=f600ae2f-60bb-4340-bdab-4173ff5d62b6"},"vehicle_type_id":"4","last_reported":1701590915,"current_range_meters":19200,"station_id":"ce4bhp92rcd13ifvqhcg","pricing_plan_id":"free"},{"bike_id":"ce0426c5-bd60-4adb-b5c2-c0cd86de6500","system_id":"levelo_inurba_marseille","lat":43.26202,"lon":5.379299,"is_reserved":false,"is_disabled":false,"rental_uris":{"android":"levelo://app?vid=ce0426c5-bd60-4adb-b5c2-c0cd86de6500","ios":"levelo://app?vid=ce0426c5-bd60-4adb-b5c2-c0cd86de6500"},"vehicle_type_id":"4","last_reported":1701590915,"current_range_meters":22400,"station_id":"ce4bhjp2rcd13ifvqg90","pricing_plan_id":"free"},{"bike_id":"780cda09-306e-4eef-89f0-55539feeef74","system_id":"levelo_inurba_marseille","lat":43.267959,"lon":5.402687,"is_reserved":false,"is_disabled":false,"rental_uris":{"android":"levelo://app?vid=780cda09-306e-4eef-89f0-55539feeef74","ios":"levelo://app?vid=780cda09-306e-4eef-89f0-55539feeef74"},"vehicle_type_id":"4","last_reported":1701590915,"current_range_meters":30800,"station_id":"ce501612rcd8frsf0b60","pricing_plan_id":"free"},{"bike_id":"a84b7951-687c-4f2a-85ea-d575dd9d7d12","system_id":"levelo_inurba_marseille","lat":43.281548,"lon":5.42643,"is_reserved":false,"is_disabled":false,"rental_uris":{"android":"levelo://app?vid=a84b7951-687c-4f2a-85ea-d575dd9d7d12","ios":"levelo://app?vid=a84b7951-687c-4f2a-85ea-d575dd9d7d12"},"vehicle_type_id":"4","last_reported":1701590915,"current_range_meters":30000,"station_id":"ce4bhnh2rcd13ifvqgug","pricing_plan_id":"free"},{"bike_id":"17c18cdf-4e49-4d62-8dce-a709034b3c76","system_id":"levelo_inurba_marseille","lat":43.281548,"lon":5.42643,"is_reserved":false,"is_disabled":false,"rental_uris":{"android":"levelo://app?vid=17c18cdf-4e49-4d62-8dce-a709034b3c76","ios":"levelo://app?vid=17c18cdf-4e49-4d62-8dce-a709034b3c76"},"vehicle_type_id":"4","last_reported":1701590915,"current_range_meters":26000,"station_id":"ce4bhnh2rcd13ifvqgug","pricing_plan_id":"free"},{"bike_id":"54912351-5a03-428d-8285-b94fb08ba084","system_id":"levelo_inurba_marseille","lat":43.2607,"lon":5.393983,"is_reserved":false,"is_disabled":false,"rental_uris":{"android":"levelo://app?vid=54912351-5a03-428d-8285-b94fb08ba084","ios":"levelo://app?vid=54912351-5a03-428d-8285-b94fb08ba084"},"vehicle_type_id":"4","last_reported":1701590915,"current_range_meters":23200,"station_id":"ce4bhh92rcd13ifvqfj0","pricing_plan_id":"free"},{"bike_id":"4bc7791d-be5f-4e52-a276-f29cc9305fdf","system_id":"levelo_inurba_marseille","lat":43.275028,"lon":5.424534,"is_reserved":false,"is_disabled":false,"rental_uris":{"android":"levelo://app?vid=4bc7791d-be5f-4e52-a276-f29cc9305fdf","ios":"levelo://app?vid=4bc7791d-be5f-4e52-a276-f29cc9305fdf"},"vehicle_type_id":"4","last_reported":1701590915,"current_range_meters":29200,"station_id":"ce4bhn92rcd13ifvqgrg","pricing_plan_id":"free"},{"bike_id":"01c556bf-bdc3-4a3f-8fc8-cb4143ee7f9b","system_id":"levelo_inurba_marseille","lat":43.258305,"lon":5.394281,"is_reserved":false,"is_disabled":false,"rental_uris":{"android":"levelo://app?vid=01c556bf-bdc3-4a3f-8fc8-cb4143ee7f9b","ios":"levelo://app?vid=01c556bf-bdc3-4a3f-8fc8-cb4143ee7f9b"},"vehicle_type_id":"4","last_reported":1701590915,"current_range_meters":22400,"station_id":"ce4bhip2rcd13ifvqft0","pricing_plan_id":"free"},{"bike_id":"2d02a26d-5b8d-48e1-a76b-6fb3cc5b30fe","system_id":"levelo_inurba_marseille","lat":43.25582,"lon":5.38233,"is_reserved":false,"is_disabled":false,"rental_uris":{"android":"levelo://app?vid=2d02a26d-5b8d-48e1-a76b-6fb3cc5b30fe","ios":"levelo://app?vid=2d02a26d-5b8d-48e1-a76b-6fb3cc5b30fe"},"vehicle_type_id":"4","last_reported":1701590915,"current_range_meters":26400,"station_id":"ce4bhih2rcd13ifvqfs0","pricing_plan_id":"free"},{"bike_id":"fc497691-edad-42d0-a905-5d7cb5add2bd","system_id":"levelo_inurba_marseille","lat":43.25581,"lon":5.38239,"is_reserved":false,"is_disabled":false,"rental_uris":{"android":"levelo://app?vid=fc497691-edad-42d0-a905-5d7cb5add2bd","ios":"levelo://app?vid=fc497691-edad-42d0-a905-5d7cb5add2bd"},"vehicle_type_id":"4","last_reported":1701590915,"current_range_meters":23600,"station_id":"ce4bhih2rcd13ifvqfs0","pricing_plan_id":"free"},{"bike_id":"0ef700e9-e361-4dc9-a3c8-eabfe1bf8d20","system_id":"levelo_inurba_marseille","lat":43.25576,"lon":5.38235,"is_reserved":false,"is_disabled":false,"rental_uris":{"android":"levelo://app?vid=0ef700e9-e361-4dc9-a3c8-eabfe1bf8d20","ios":"levelo://app?vid=0ef700e9-e361-4dc9-a3c8-eabfe1bf8d20"},"vehicle_type_id":"4","last_reported":1701590915,"current_range_meters":18800,"station_id":"ce4bhih2rcd13ifvqfs0","pricing_plan_id":"free"},{"bike_id":"72aa7227-6458-46de-af40-d7b1e983a0d7","system_id":"levelo_inurba_marseille","lat":43.254947,"lon":5.376454,"is_reserved":false,"is_disabled":false,"rental_uris":{"android":"levelo://app?vid=72aa7227-6458-46de-af40-d7b1e983a0d7","ios":"levelo://app?vid=72aa7227-6458-46de-af40-d7b1e983a0d7"},"vehicle_type_id":"4","last_reported":1701590915,"current_range_meters":18400,"station_id":"ce4bhh12rcd13ifvqff0","pricing_plan_id":"free"},{"bike_id":"1351cf23-2758-454c-aeeb-05955c57e0da","system_id":"levelo_inurba_marseille","lat":43.270721,"lon":5.422764,"is_reserved":false,"is_disabled":false,"rental_uris":{"android":"levelo://app?vid=1351cf23-2758-454c-aeeb-05955c57e0da","ios":"levelo://app?vid=1351cf23-2758-454c-aeeb-05955c57e0da"},"vehicle_type_id":"4","last_reported":1701590915,"current_range_meters":30000,"station_id":"ce4bhk92rcd13ifvqgb0","pricing_plan_id":"free"},{"bike_id":"9136fc03-274d-4496-9de0-5a5da06f8b70","system_id":"levelo_inurba_marseille","lat":43.270721,"lon":5.422764,"is_reserved":false,"is_disabled":false,"rental_uris":{"android":"levelo://app?vid=9136fc03-274d-4496-9de0-5a5da06f8b70","ios":"levelo://app?vid=9136fc03-274d-4496-9de0-5a5da06f8b70"},"vehicle_type_id":"4","last_reported":1701590915,"current_range_meters":26800,"station_id":"ce4bhk92rcd13ifvqgb0","pricing_plan_id":"free"},{"bike_id":"330c9744-e27c-470b-a043-1bc5adb1ef74","system_id":"levelo_inurba_marseille","lat":43.25858,"lon":5.39906,"is_reserved":false,"is_disabled":false,"rental_uris":{"android":"levelo://app?vid=330c9744-e27c-470b-a043-1bc5adb1ef74","ios":"levelo://app?vid=330c9744-e27c-470b-a043-1bc5adb1ef74"},"vehicle_type_id":"4","last_reported":1701590915,"current_range_meters":24800,"station_id":"ce4bhl92rcd13ifvqghg","pricing_plan_id":"free"},{"bike_id":"bdc72d7c-9d46-4016-8a92-851cd50823f9","system_id":"levelo_inurba_marseille","lat":43.259332,"lon":5.40905,"is_reserved":false,"is_disabled":false,"rental_uris":{"android":"levelo://app?vid=bdc72d7c-9d46-4016-8a92-851cd50823f9","ios":"levelo://app?vid=bdc72d7c-9d46-4016-8a92-851cd50823f9"},"vehicle_type_id":"4","last_reported":1701590915,"current_range_meters":24800,"station_id":"ce4bhm92rcd13ifvqglg","pricing_plan_id":"free"},{"bike_id":"d93d8fe3-dded-4b43-ad44-b17a7bd4f009","system_id":"levelo_inurba_marseille","lat":43.251498,"lon":5.394823,"is_reserved":false,"is_disabled":false,"rental_uris":{"android":"levelo://app?vid=d93d8fe3-dded-4b43-ad44-b17a7bd4f009","ios":"levelo://app?vid=d93d8fe3-dded-4b43-ad44-b17a7bd4f009"},"vehicle_type_id":"4","last_reported":1701590915,"current_range_meters":27200,"station_id":"","pricing_plan_id":"free"},{"bike_id":"f422e438-8219-4b36-988c-3a436160130e","system_id":"levelo_inurba_marseille","lat":43.250009,"lon":5.389195,"is_reserved":false,"is_disabled":false,"rental_uris":{"android":"levelo://app?vid=f422e438-8219-4b36-988c-3a436160130e","ios":"levelo://app?vid=f422e438-8219-4b36-988c-3a436160130e"},"vehicle_type_id":"4","last_reported":1701590915,"current_range_meters":27600,"station_id":"ce4bhgp2rcd13ifvqfd0","pricing_plan_id":"free"},{"bike_id":"47fe5043-ab51-4fa6-8cb4-f219e62fede6","system_id":"levelo_inurba_marseille","lat":43.2479,"lon":5.374457,"is_reserved":false,"is_disabled":false,"rental_uris":{"android":"levelo://app?vid=47fe5043-ab51-4fa6-8cb4-f219e62fede6","ios":"levelo://app?vid=47fe5043-ab51-4fa6-8cb4-f219e62fede6"},"vehicle_type_id":"4","last_reported":1701590915,"current_range_meters":14800,"station_id":"ce4bhgh2rcd13ifvqfb0","pricing_plan_id":"free"},{"bike_id":"c724ff24-349d-4ecd-8cd2-4e512caa6e0a","system_id":"levelo_inurba_marseille","lat":43.2479,"lon":5.374457,"is_reserved":false,"is_disabled":false,"rental_uris":{"android":"levelo://app?vid=c724ff24-349d-4ecd-8cd2-4e512caa6e0a","ios":"levelo://app?vid=c724ff24-349d-4ecd-8cd2-4e512caa6e0a"},"vehicle_type_id":"4","last_reported":1701590915,"current_range_meters":15200,"station_id":"ce4bhgh2rcd13ifvqfb0","pricing_plan_id":"free"},{"bike_id":"1fe9f4ed-4401-4dfb-a0b7-fa6c7584af6a","system_id":"levelo_inurba_marseille","lat":43.2479,"lon":5.374457,"is_reserved":false,"is_disabled":false,"rental_uris":{"android":"levelo://app?vid=1fe9f4ed-4401-4dfb-a0b7-fa6c7584af6a","ios":"levelo://app?vid=1fe9f4ed-4401-4dfb-a0b7-fa6c7584af6a"},"vehicle_type_id":"4","last_reported":1701590915,"current_range_meters":21600,"station_id":"ce4bhgh2rcd13ifvqfb0","pricing_plan_id":"free"},{"bike_id":"8d7a849d-d75b-49e8-8a06-ba3e35d09f67","system_id":"levelo_inurba_marseille","lat":43.2479,"lon":5.374457,"is_reserved":false,"is_disabled":false,"rental_uris":{"android":"levelo://app?vid=8d7a849d-d75b-49e8-8a06-ba3e35d09f67","ios":"levelo://app?vid=8d7a849d-d75b-49e8-8a06-ba3e35d09f67"},"vehicle_type_id":"4","last_reported":1701590915,"current_range_meters":31200,"station_id":"ce4bhgh2rcd13ifvqfb0","pricing_plan_id":"free"},{"bike_id":"317a5e10-b4f0-4b21-84fd-20965563253f","system_id":"levelo_inurba_marseille","lat":43.250966,"lon":5.395186,"is_reserved":false,"is_disabled":false,"rental_uris":{"android":"levelo://app?vid=317a5e10-b4f0-4b21-84fd-20965563253f","ios":"levelo://app?vid=317a5e10-b4f0-4b21-84fd-20965563253f"},"vehicle_type_id":"4","last_reported":1701590915,"current_range_meters":13200,"station_id":"ce4bhm12rcd13ifvqgkg","pricing_plan_id":"free"},{"bike_id":"6718fe93-f364-41b2-b47b-a82568206784","system_id":"levelo_inurba_marseille","lat":43.246708,"lon":5.381626,"is_reserved":false,"is_disabled":false,"rental_uris":{"android":"levelo://app?vid=6718fe93-f364-41b2-b47b-a82568206784","ios":"levelo://app?vid=6718fe93-f364-41b2-b47b-a82568206784"},"vehicle_type_id":"4","last_reported":1701590915,"current_range_meters":23600,"station_id":"ce4bhih2rcd13ifvqfr0","pricing_plan_id":"free"},{"bike_id":"4ae7c834-7469-41bd-bc12-a4070301d8d6","system_id":"levelo_inurba_marseille","lat":43.25102,"lon":5.403214,"is_reserved":false,"is_disabled":false,"rental_uris":{"android":"levelo://app?vid=4ae7c834-7469-41bd-bc12-a4070301d8d6","ios":"levelo://app?vid=4ae7c834-7469-41bd-bc12-a4070301d8d6"},"vehicle_type_id":"4","last_reported":1701590915,"current_range_meters":25200,"station_id":"ce4bhlh2rcd13ifvqgig","pricing_plan_id":"free"},{"bike_id":"9e572010-4ace-443d-afd9-5ce561a524cc","system_id":"levelo_inurba_marseille","lat":43.25106,"lon":5.40322,"is_reserved":false,"is_disabled":false,"rental_uris":{"android":"levelo://app?vid=9e572010-4ace-443d-afd9-5ce561a524cc","ios":"levelo://app?vid=9e572010-4ace-443d-afd9-5ce561a524cc"},"vehicle_type_id":"4","last_reported":1701590915,"current_range_meters":21200,"station_id":"ce4bhlh2rcd13ifvqgig","pricing_plan_id":"free"},{"bike_id":"61a9e6b0-f435-4470-83bd-a67a85c1a979","system_id":"levelo_inurba_marseille","lat":43.243884,"lon":5.370736,"is_reserved":false,"is_disabled":false,"rental_uris":{"android":"levelo://app?vid=61a9e6b0-f435-4470-83bd-a67a85c1a979","ios":"levelo://app?vid=61a9e6b0-f435-4470-83bd-a67a85c1a979"},"vehicle_type_id":"4","last_reported":1701590915,"current_range_meters":29200,"station_id":"ce4bhhh2rcd13ifvqfk0","pricing_plan_id":"free"},{"bike_id":"906eb523-6642-4f1f-bea7-1d9c586e77f4","system_id":"levelo_inurba_marseille","lat":43.243884,"lon":5.370737,"is_reserved":false,"is_disabled":false,"rental_uris":{"android":"levelo://app?vid=906eb523-6642-4f1f-bea7-1d9c586e77f4","ios":"levelo://app?vid=906eb523-6642-4f1f-bea7-1d9c586e77f4"},"vehicle_type_id":"4","last_reported":1701590915,"current_range_meters":31200,"station_id":"ce4bhhh2rcd13ifvqfk0","pricing_plan_id":"free"},{"bike_id":"c29c45d8-3131-422e-ad7a-ae98bfb7040a","system_id":"levelo_inurba_marseille","lat":43.243884,"lon":5.370736,"is_reserved":false,"is_disabled":false,"rental_uris":{"android":"levelo://app?vid=c29c45d8-3131-422e-ad7a-ae98bfb7040a","ios":"levelo://app?vid=c29c45d8-3131-422e-ad7a-ae98bfb7040a"},"vehicle_type_id":"4","last_reported":1701590915,"current_range_meters":28000,"station_id":"ce4bhhh2rcd13ifvqfk0","pricing_plan_id":"free"},{"bike_id":"879fd17b-7a84-4a06-a9a5-edcc18d93760","system_id":"levelo_inurba_marseille","lat":43.243884,"lon":5.370737,"is_reserved":false,"is_disabled":false,"rental_uris":{"android":"levelo://app?vid=879fd17b-7a84-4a06-a9a5-edcc18d93760","ios":"levelo://app?vid=879fd17b-7a84-4a06-a9a5-edcc18d93760"},"vehicle_type_id":"4","last_reported":1701590915,"current_range_meters":17600,"station_id":"ce4bhhh2rcd13ifvqfk0","pricing_plan_id":"free"},{"bike_id":"6705378b-17af-42dd-9ad8-cc9f8bd41214","system_id":"levelo_inurba_marseille","lat":43.23966,"lon":5.36637,"is_reserved":false,"is_disabled":false,"rental_uris":{"android":"levelo://app?vid=6705378b-17af-42dd-9ad8-cc9f8bd41214","ios":"levelo://app?vid=6705378b-17af-42dd-9ad8-cc9f8bd41214"},"vehicle_type_id":"4","last_reported":1701590915,"current_range_meters":27200,"station_id":"ce4bhi12rcd13ifvqfp0","pricing_plan_id":"free"},{"bike_id":"66d07158-1c05-469e-a266-b66692f04cb5","system_id":"levelo_inurba_marseille","lat":43.239588,"lon":5.366238,"is_reserved":false,"is_disabled":false,"rental_uris":{"android":"levelo://app?vid=66d07158-1c05-469e-a266-b66692f04cb5","ios":"levelo://app?vid=66d07158-1c05-469e-a266-b66692f04cb5"},"vehicle_type_id":"4","last_reported":1701590915,"current_range_meters":31200,"station_id":"ce4bhi12rcd13ifvqfp0","pricing_plan_id":"free"},{"bike_id":"b101f295-ac85-402a-8afe-c635c176f114","system_id":"levelo_inurba_marseille","lat":43.28531,"lon":5.46056,"is_reserved":false,"is_disabled":false,"rental_uris":{"android":"levelo://app?vid=b101f295-ac85-402a-8afe-c635c176f114","ios":"levelo://app?vid=b101f295-ac85-402a-8afe-c635c176f114"},"vehicle_type_id":"4","last_reported":1701590915,"current_range_meters":20400,"station_id":"","pricing_plan_id":"free"},{"bike_id":"6462fbc5-ceb8-47e3-b56d-fc1e69bef19f","system_id":"levelo_inurba_marseille","lat":43.231919,"lon":5.355532,"is_reserved":false,"is_disabled":false,"rental_uris":{"android":"levelo://app?vid=6462fbc5-ceb8-47e3-b56d-fc1e69bef19f","ios":"levelo://app?vid=6462fbc5-ceb8-47e3-b56d-fc1e69bef19f"},"vehicle_type_id":"4","last_reported":1701590915,"current_range_meters":26400,"station_id":"ce4bhu92rcd13ifvqi70","pricing_plan_id":"free"},{"bike_id":"6573cb36-3c40-4042-8b0f-1356381ee019","system_id":"levelo_inurba_marseille","lat":43.231923,"lon":5.355545,"is_reserved":false,"is_disabled":false,"rental_uris":{"android":"levelo://app?vid=6573cb36-3c40-4042-8b0f-1356381ee019","ios":"levelo://app?vid=6573cb36-3c40-4042-8b0f-1356381ee019"},"vehicle_type_id":"4","last_reported":1701590915,"current_range_meters":29200,"station_id":"ce4bhu92rcd13ifvqi70","pricing_plan_id":"free"},{"bike_id":"6041d620-664b-4836-b597-a0e62593a032","system_id":"levelo_inurba_marseille","lat":43.231923,"lon":5.355545,"is_reserved":false,"is_disabled":false,"rental_uris":{"android":"levelo://app?vid=6041d620-664b-4836-b597-a0e62593a032","ios":"levelo://app?vid=6041d620-664b-4836-b597-a0e62593a032"},"vehicle_type_id":"4","last_reported":1701590915,"current_range_meters":29600,"station_id":"ce4bhu92rcd13ifvqi70","pricing_plan_id":"free"},{"bike_id":"4e176977-ccb9-4a01-b3da-279fd61eadf6","system_id":"levelo_inurba_marseille","lat":43.231919,"lon":5.355532,"is_reserved":false,"is_disabled":false,"rental_uris":{"android":"levelo://app?vid=4e176977-ccb9-4a01-b3da-279fd61eadf6","ios":"levelo://app?vid=4e176977-ccb9-4a01-b3da-279fd61eadf6"},"vehicle_type_id":"4","last_reported":1701590915,"current_range_meters":19600,"station_id":"ce4bhu92rcd13ifvqi70","pricing_plan_id":"free"},{"bike_id":"4506c45e-2d09-462d-97b5-d051c36d1044","system_id":"levelo_inurba_marseille","lat":43.231919,"lon":5.355532,"is_reserved":false,"is_disabled":false,"rental_uris":{"android":"levelo://app?vid=4506c45e-2d09-462d-97b5-d051c36d1044","ios":"levelo://app?vid=4506c45e-2d09-462d-97b5-d051c36d1044"},"vehicle_type_id":"4","last_reported":1701590915,"current_range_meters":28400,"station_id":"ce4bhu92rcd13ifvqi70","pricing_plan_id":"free"},{"bike_id":"384a17af-27e8-4164-b8c0-d8b51c5b0eac","system_id":"levelo_inurba_marseille","lat":43.231923,"lon":5.355545,"is_reserved":false,"is_disabled":false,"rental_uris":{"android":"levelo://app?vid=384a17af-27e8-4164-b8c0-d8b51c5b0eac","ios":"levelo://app?vid=384a17af-27e8-4164-b8c0-d8b51c5b0eac"},"vehicle_type_id":"4","last_reported":1701590915,"current_range_meters":8400,"station_id":"ce4bhu92rcd13ifvqi70","pricing_plan_id":"free"},{"bike_id":"2b04708e-eed8-4471-916a-9fdeea01eec7","system_id":"levelo_inurba_marseille","lat":43.231923,"lon":5.355545,"is_reserved":false,"is_disabled":false,"rental_uris":{"android":"levelo://app?vid=2b04708e-eed8-4471-916a-9fdeea01eec7","ios":"levelo://app?vid=2b04708e-eed8-4471-916a-9fdeea01eec7"},"vehicle_type_id":"4","last_reported":1701590915,"current_range_meters":14800,"station_id":"ce4bhu92rcd13ifvqi70","pricing_plan_id":"free"},{"bike_id":"177a82e2-68da-4975-a68b-b32649f3d1f2","system_id":"levelo_inurba_marseille","lat":43.231923,"lon":5.355545,"is_reserved":false,"is_disabled":false,"rental_uris":{"android":"levelo://app?vid=177a82e2-68da-4975-a68b-b32649f3d1f2","ios":"levelo://app?vid=177a82e2-68da-4975-a68b-b32649f3d1f2"},"vehicle_type_id":"4","last_reported":1701590915,"current_range_meters":9600,"station_id":"ce4bhu92rcd13ifvqi70","pricing_plan_id":"free"},{"bike_id":"9e01ee59-41e6-425c-ae1f-3e33312fefcd","system_id":"levelo_inurba_marseille","lat":43.231923,"lon":5.355545,"is_reserved":false,"is_disabled":false,"rental_uris":{"android":"levelo://app?vid=9e01ee59-41e6-425c-ae1f-3e33312fefcd","ios":"levelo://app?vid=9e01ee59-41e6-425c-ae1f-3e33312fefcd"},"vehicle_type_id":"4","last_reported":1701590915,"current_range_meters":17200,"station_id":"ce4bhu92rcd13ifvqi70","pricing_plan_id":"free"},{"bike_id":"4dae0f2e-3beb-46e8-877b-0143e05c3e8e","system_id":"levelo_inurba_marseille","lat":43.231919,"lon":5.355532,"is_reserved":false,"is_disabled":false,"rental_uris":{"android":"levelo://app?vid=4dae0f2e-3beb-46e8-877b-0143e05c3e8e","ios":"levelo://app?vid=4dae0f2e-3beb-46e8-877b-0143e05c3e8e"},"vehicle_type_id":"4","last_reported":1701590915,"current_range_meters":29200,"station_id":"ce4bhu92rcd13ifvqi70","pricing_plan_id":"free"},{"bike_id":"cb3c5614-5a37-4ab8-a51e-8b81ebb4f897","system_id":"levelo_inurba_marseille","lat":43.231919,"lon":5.355532,"is_reserved":false,"is_disabled":false,"rental_uris":{"android":"levelo://app?vid=cb3c5614-5a37-4ab8-a51e-8b81ebb4f897","ios":"levelo://app?vid=cb3c5614-5a37-4ab8-a51e-8b81ebb4f897"},"vehicle_type_id":"4","last_reported":1701590915,"current_range_meters":13200,"station_id":"ce4bhu92rcd13ifvqi70","pricing_plan_id":"free"},{"bike_id":"b8f295a9-10f8-4746-b4a0-4491480d1fc4","system_id":"levelo_inurba_marseille","lat":43.231919,"lon":5.355532,"is_reserved":false,"is_disabled":false,"rental_uris":{"android":"levelo://app?vid=b8f295a9-10f8-4746-b4a0-4491480d1fc4","ios":"levelo://app?vid=b8f295a9-10f8-4746-b4a0-4491480d1fc4"},"vehicle_type_id":"4","last_reported":1701590915,"current_range_meters":21200,"station_id":"ce4bhu92rcd13ifvqi70","pricing_plan_id":"free"},{"bike_id":"cf3102c4-88e0-4a41-86b7-69a76932d3e6","system_id":"levelo_inurba_marseille","lat":43.231923,"lon":5.355545,"is_reserved":false,"is_disabled":false,"rental_uris":{"android":"levelo://app?vid=cf3102c4-88e0-4a41-86b7-69a76932d3e6","ios":"levelo://app?vid=cf3102c4-88e0-4a41-86b7-69a76932d3e6"},"vehicle_type_id":"4","last_reported":1701590915,"current_range_meters":31200,"station_id":"ce4bhu92rcd13ifvqi70","pricing_plan_id":"free"},{"bike_id":"71bf2f34-6f1d-4c95-bf1c-5bb61de13cd3","system_id":"levelo_inurba_marseille","lat":43.231919,"lon":5.355532,"is_reserved":false,"is_disabled":false,"rental_uris":{"android":"levelo://app?vid=71bf2f34-6f1d-4c95-bf1c-5bb61de13cd3","ios":"levelo://app?vid=71bf2f34-6f1d-4c95-bf1c-5bb61de13cd3"},"vehicle_type_id":"4","last_reported":1701590915,"current_range_meters":9600,"station_id":"ce4bhu92rcd13ifvqi70","pricing_plan_id":"free"},{"bike_id":"df76bb33-a4ef-4a36-a72d-84c57504fc7a","system_id":"levelo_inurba_marseille","lat":43.231914,"lon":5.355449,"is_reserved":false,"is_disabled":false,"rental_uris":{"android":"levelo://app?vid=df76bb33-a4ef-4a36-a72d-84c57504fc7a","ios":"levelo://app?vid=df76bb33-a4ef-4a36-a72d-84c57504fc7a"},"vehicle_type_id":"4","last_reported":1701590915,"current_range_meters":30000,"station_id":"ce4bhu92rcd13ifvqi70","pricing_plan_id":"free"},{"bike_id":"6382809b-45d0-4ad2-8be7-697249f82077","system_id":"levelo_inurba_marseille","lat":43.231919,"lon":5.355532,"is_reserved":false,"is_disabled":false,"rental_uris":{"android":"levelo://app?vid=6382809b-45d0-4ad2-8be7-697249f82077","ios":"levelo://app?vid=6382809b-45d0-4ad2-8be7-697249f82077"},"vehicle_type_id":"4","last_reported":1701590915,"current_range_meters":31200,"station_id":"ce4bhu92rcd13ifvqi70","pricing_plan_id":"free"},{"bike_id":"90a66033-92d6-4ce5-9800-5d20674c66dd","system_id":"levelo_inurba_marseille","lat":43.23191,"lon":5.355451,"is_reserved":false,"is_disabled":false,"rental_uris":{"android":"levelo://app?vid=90a66033-92d6-4ce5-9800-5d20674c66dd","ios":"levelo://app?vid=90a66033-92d6-4ce5-9800-5d20674c66dd"},"vehicle_type_id":"4","last_reported":1701590915,"current_range_meters":30000,"station_id":"ce4bhu92rcd13ifvqi70","pricing_plan_id":"free"},{"bike_id":"cc63aece-497e-49db-86a0-e2c21e8d86af","system_id":"levelo_inurba_marseille","lat":43.231919,"lon":5.355532,"is_reserved":false,"is_disabled":false,"rental_uris":{"android":"levelo://app?vid=cc63aece-497e-49db-86a0-e2c21e8d86af","ios":"levelo://app?vid=cc63aece-497e-49db-86a0-e2c21e8d86af"},"vehicle_type_id":"4","last_reported":1701590915,"current_range_meters":20800,"station_id":"ce4bhu92rcd13ifvqi70","pricing_plan_id":"free"},{"bike_id":"6bd9f065-50d9-4657-9ca0-a006f413d305","system_id":"levelo_inurba_marseille","lat":43.231794,"lon":5.400052,"is_reserved":false,"is_disabled":false,"rental_uris":{"android":"levelo://app?vid=6bd9f065-50d9-4657-9ca0-a006f413d305","ios":"levelo://app?vid=6bd9f065-50d9-4657-9ca0-a006f413d305"},"vehicle_type_id":"4","last_reported":1701590915,"current_range_meters":31200,"station_id":"ce4bhn12rcd13ifvqgqg","pricing_plan_id":"free"},{"bike_id":"3ca2546c-f9ed-464d-b941-53a82f5e8048","system_id":"levelo_inurba_marseille","lat":43.231794,"lon":5.400052,"is_reserved":false,"is_disabled":false,"rental_uris":{"android":"levelo://app?vid=3ca2546c-f9ed-464d-b941-53a82f5e8048","ios":"levelo://app?vid=3ca2546c-f9ed-464d-b941-53a82f5e8048"},"vehicle_type_id":"4","last_reported":1701590915,"current_range_meters":10800,"station_id":"ce4bhn12rcd13ifvqgqg","pricing_plan_id":"free"},{"bike_id":"b2dc27fe-d3dd-4dd0-b015-108c88d15d4b","system_id":"levelo_inurba_marseille","lat":43.23189,"lon":5.39986,"is_reserved":false,"is_disabled":false,"rental_uris":{"android":"levelo://app?vid=b2dc27fe-d3dd-4dd0-b015-108c88d15d4b","ios":"levelo://app?vid=b2dc27fe-d3dd-4dd0-b015-108c88d15d4b"},"vehicle_type_id":"4","last_reported":1701590915,"current_range_meters":12000,"station_id":"ce4bhn12rcd13ifvqgqg","pricing_plan_id":"free"},{"bike_id":"ddecb7a7-8295-4a56-96b7-ae63ab6d05c4","system_id":"levelo_inurba_marseille","lat":43.231794,"lon":5.400052,"is_reserved":false,"is_disabled":false,"rental_uris":{"android":"levelo://app?vid=ddecb7a7-8295-4a56-96b7-ae63ab6d05c4","ios":"levelo://app?vid=ddecb7a7-8295-4a56-96b7-ae63ab6d05c4"},"vehicle_type_id":"4","last_reported":1701590915,"current_range_meters":21200,"station_id":"ce4bhn12rcd13ifvqgqg","pricing_plan_id":"free"},{"bike_id":"27852c29-47dc-4826-817e-c88bd3a0386e","system_id":"levelo_inurba_marseille","lat":43.231878,"lon":5.399842,"is_reserved":false,"is_disabled":false,"rental_uris":{"android":"levelo://app?vid=27852c29-47dc-4826-817e-c88bd3a0386e","ios":"levelo://app?vid=27852c29-47dc-4826-817e-c88bd3a0386e"},"vehicle_type_id":"4","last_reported":1701590915,"current_range_meters":19200,"station_id":"ce4bhn12rcd13ifvqgqg","pricing_plan_id":"free"},{"bike_id":"d7955d6f-88ae-4e83-97c1-4a0668d076f6","system_id":"levelo_inurba_marseille","lat":43.231794,"lon":5.400052,"is_reserved":false,"is_disabled":false,"rental_uris":{"android":"levelo://app?vid=d7955d6f-88ae-4e83-97c1-4a0668d076f6","ios":"levelo://app?vid=d7955d6f-88ae-4e83-97c1-4a0668d076f6"},"vehicle_type_id":"4","last_reported":1701590915,"current_range_meters":20000,"station_id":"ce4bhn12rcd13ifvqgqg","pricing_plan_id":"free"},{"bike_id":"b105d208-97c4-48d5-92c0-d47140eb7ea4","system_id":"levelo_inurba_marseille","lat":43.231888,"lon":5.399899,"is_reserved":false,"is_disabled":false,"rental_uris":{"android":"levelo://app?vid=b105d208-97c4-48d5-92c0-d47140eb7ea4","ios":"levelo://app?vid=b105d208-97c4-48d5-92c0-d47140eb7ea4"},"vehicle_type_id":"4","last_reported":1701590915,"current_range_meters":21200,"station_id":"ce4bhn12rcd13ifvqgqg","pricing_plan_id":"free"},{"bike_id":"22bd98e3-c33f-4c44-ae2b-f96729d36f4f","system_id":"levelo_inurba_marseille","lat":43.231793,"lon":5.400044,"is_reserved":false,"is_disabled":false,"rental_uris":{"android":"levelo://app?vid=22bd98e3-c33f-4c44-ae2b-f96729d36f4f","ios":"levelo://app?vid=22bd98e3-c33f-4c44-ae2b-f96729d36f4f"},"vehicle_type_id":"4","last_reported":1701590915,"current_range_meters":28800,"station_id":"ce4bhn12rcd13ifvqgqg","pricing_plan_id":"free"},{"bike_id":"77b1a551-da7f-429a-980e-bfc6767a5958","system_id":"levelo_inurba_marseille","lat":43.231794,"lon":5.400052,"is_reserved":false,"is_disabled":false,"rental_uris":{"android":"levelo://app?vid=77b1a551-da7f-429a-980e-bfc6767a5958","ios":"levelo://app?vid=77b1a551-da7f-429a-980e-bfc6767a5958"},"vehicle_type_id":"4","last_reported":1701590915,"current_range_meters":31200,"station_id":"ce4bhn12rcd13ifvqgqg","pricing_plan_id":"free"},{"bike_id":"e47e98e0-4256-4c41-ae86-e531a41b9213","system_id":"levelo_inurba_marseille","lat":43.231794,"lon":5.400052,"is_reserved":false,"is_disabled":false,"rental_uris":{"android":"levelo://app?vid=e47e98e0-4256-4c41-ae86-e531a41b9213","ios":"levelo://app?vid=e47e98e0-4256-4c41-ae86-e531a41b9213"},"vehicle_type_id":"4","last_reported":1701590915,"current_range_meters":31200,"station_id":"ce4bhn12rcd13ifvqgqg","pricing_plan_id":"free"},{"bike_id":"88cf855f-bb31-40e0-8afc-686df3c193ab","system_id":"levelo_inurba_marseille","lat":43.231794,"lon":5.400052,"is_reserved":false,"is_disabled":false,"rental_uris":{"android":"levelo://app?vid=88cf855f-bb31-40e0-8afc-686df3c193ab","ios":"levelo://app?vid=88cf855f-bb31-40e0-8afc-686df3c193ab"},"vehicle_type_id":"4","last_reported":1701590915,"current_range_meters":27200,"station_id":"ce4bhn12rcd13ifvqgqg","pricing_plan_id":"free"},{"bike_id":"4ee99995-f63f-4ddb-ac4b-88a5ee23324c","system_id":"levelo_inurba_marseille","lat":43.231794,"lon":5.400052,"is_reserved":false,"is_disabled":false,"rental_uris":{"android":"levelo://app?vid=4ee99995-f63f-4ddb-ac4b-88a5ee23324c","ios":"levelo://app?vid=4ee99995-f63f-4ddb-ac4b-88a5ee23324c"},"vehicle_type_id":"4","last_reported":1701590915,"current_range_meters":14400,"station_id":"ce4bhn12rcd13ifvqgqg","pricing_plan_id":"free"},{"bike_id":"d0b35396-6769-42d4-8160-8b44cb829902","system_id":"levelo_inurba_marseille","lat":43.231854,"lon":5.399887,"is_reserved":false,"is_disabled":false,"rental_uris":{"android":"levelo://app?vid=d0b35396-6769-42d4-8160-8b44cb829902","ios":"levelo://app?vid=d0b35396-6769-42d4-8160-8b44cb829902"},"vehicle_type_id":"4","last_reported":1701590915,"current_range_meters":29600,"station_id":"ce4bhn12rcd13ifvqgqg","pricing_plan_id":"free"},{"bike_id":"83862a0a-d647-45eb-9884-693fce6366ab","system_id":"levelo_inurba_marseille","lat":43.231844,"lon":5.399915,"is_reserved":false,"is_disabled":false,"rental_uris":{"android":"levelo://app?vid=83862a0a-d647-45eb-9884-693fce6366ab","ios":"levelo://app?vid=83862a0a-d647-45eb-9884-693fce6366ab"},"vehicle_type_id":"4","last_reported":1701590915,"current_range_meters":15200,"station_id":"ce4bhn12rcd13ifvqgqg","pricing_plan_id":"free"},{"bike_id":"a926f4bb-1e59-4822-80ea-1d5ff6f2a5c5","system_id":"levelo_inurba_marseille","lat":43.23184,"lon":5.399904,"is_reserved":false,"is_disabled":false,"rental_uris":{"android":"levelo://app?vid=a926f4bb-1e59-4822-80ea-1d5ff6f2a5c5","ios":"levelo://app?vid=a926f4bb-1e59-4822-80ea-1d5ff6f2a5c5"},"vehicle_type_id":"4","last_reported":1701590915,"current_range_meters":15600,"station_id":"ce4bhn12rcd13ifvqgqg","pricing_plan_id":"free"},{"bike_id":"3fdd6789-d52a-4c7f-96f4-f754cbf436d6","system_id":"levelo_inurba_marseille","lat":43.231794,"lon":5.400052,"is_reserved":false,"is_disabled":false,"rental_uris":{"android":"levelo://app?vid=3fdd6789-d52a-4c7f-96f4-f754cbf436d6","ios":"levelo://app?vid=3fdd6789-d52a-4c7f-96f4-f754cbf436d6"},"vehicle_type_id":"4","last_reported":1701590915,"current_range_meters":12800,"station_id":"ce4bhn12rcd13ifvqgqg","pricing_plan_id":"free"},{"bike_id":"a3dcc229-ded5-4e12-9a40-11ae0e31a55e","system_id":"levelo_inurba_marseille","lat":43.231794,"lon":5.400052,"is_reserved":false,"is_disabled":false,"rental_uris":{"android":"levelo://app?vid=a3dcc229-ded5-4e12-9a40-11ae0e31a55e","ios":"levelo://app?vid=a3dcc229-ded5-4e12-9a40-11ae0e31a55e"},"vehicle_type_id":"4","last_reported":1701590915,"current_range_meters":19200,"station_id":"ce4bhn12rcd13ifvqgqg","pricing_plan_id":"free"},{"bike_id":"457c552c-8af5-4b7b-9f6b-8c901265a623","system_id":"levelo_inurba_marseille","lat":43.231795,"lon":5.399921,"is_reserved":false,"is_disabled":false,"rental_uris":{"android":"levelo://app?vid=457c552c-8af5-4b7b-9f6b-8c901265a623","ios":"levelo://app?vid=457c552c-8af5-4b7b-9f6b-8c901265a623"},"vehicle_type_id":"4","last_reported":1701590915,"current_range_meters":29200,"station_id":"ce4bhn12rcd13ifvqgqg","pricing_plan_id":"free"},{"bike_id":"ce50b04d-88fe-4043-a2c9-02546f6ce9f0","system_id":"levelo_inurba_marseille","lat":43.231562,"lon":5.436933,"is_reserved":false,"is_disabled":false,"rental_uris":{"android":"levelo://app?vid=ce50b04d-88fe-4043-a2c9-02546f6ce9f0","ios":"levelo://app?vid=ce50b04d-88fe-4043-a2c9-02546f6ce9f0"},"vehicle_type_id":"4","last_reported":1701590915,"current_range_meters":26000,"station_id":"ce4bhmp2rcd13ifvqgog","pricing_plan_id":"free"}]}}