{"last_updated":1701356772,"ttl":30,"version":"2.2","data":{"bikes":[{"bike_id":"6a0ba873-e6b5-4c2b-a7d7-2f9ccbe78d9e","system_id":"levelo_inurba_marseille","lat":43.313391,"lon":5.36706,"is_reserved":false,"is_disabled":false,"rental_uris":{"android":"levelo://app?vid=6a0ba873-e6b5-4c2b-a7d7-2f9ccbe78d9e","ios":"levelo://app?vid=6a0ba873-e6b5-4c2b-a7d7-2f9ccbe78d9e"},"vehicle_type_id":"4","last_reported":1701356772,"current_range_meters":31600,"station_id":"ce4bgr92rcd13ifvqc6g","pricing_plan_id":"free"},{"bike_id":"08c0f07f-1e2c-41a3-8d6c-92ccb0d6e88a","system_id":"levelo_inurba_marseille","lat":43.31341,"lon":5.367098,"is_reserved":false,"is_disabled":false,"rental_uris":{"android":"levelo://app?vid=08c0f07f-1e2c-41a3-8d6c-92ccb0d6e88a","ios":"levelo://app?vid=08c0f07f-1e2c-41a3-8d6c-92ccb0d6e88a"},"vehicle_type_id":"4","last_reported":1701356772,"current_range_meters":26400,"station_id":"ce4bgr92rcd13ifvqc6g","pricing_plan_id":"free"},{"bike_id":"7c052d57-e5ae-4cd3-a31f-2f400eadca73","system_id":"levelo_inurba_marseille","lat":43.313531,"lon":5.367208,"is_reserved":false,"is_disabled":false,"rental_uris":{"android":"levelo://app?vid=7c052d57-e5ae-4cd3-a31f-2f400eadca73","ios":"levelo://app?vid=7c052d57-e5ae-4cd3-a31f-2f400eadca73"},"vehicle_type_id":"4","last_reported":1701356772,"current_range_meters":18000,"station_id":"ce4bgr92rcd13ifvqc6g","pricing_plan_id":"free"},{"bike_id":"5b4696ba-54c0-4218-b933-f6dc6bb7dfd2","system_id":"levelo_inurba_marseille","lat":43.31356,"lon":5.367157,"is_reserved":false,"is_disabled":false,"rental_uris":{"android":"levelo://app?vid=5b4696ba-54c0-4218-b933-f6dc6bb7dfd2","ios":"levelo://app?vid=5b4696ba-54c0-4218-b933-f6dc6bb7dfd2"},"vehicle_type_id":"4","last_reported":1701356772,"current_range_meters":26400,"station_id":"ce4bgr92rcd13ifvqc6g","pricing_plan_id":"free"},{"bike_id":"230bf62b-c7d0-476d-a1c4-8200aa66fba2","system_id":"levelo_inurba_marseille","lat":43.313391,"lon":5.36706,"is_reserved":false,"is_disabled":false,"rental_uris":{"android":"levelo://app?vid=230bf62b-c7d0-476d-a1c4-8200aa66fba2","ios":"levelo://app?vid=230bf62b-c7d0-476d-a1c4-8200aa66fba2"},"vehicle_type_id":"4","last_reported":1701356772,"current_range_meters":6400,"station_id":"ce4bgr92rcd13ifvqc6g","pricing_plan_id":"free"},{"bike_id":"bed1e390-30ee-4727-858e-8a52e4b26941","system_id":"levelo_inurba_marseille","lat":43.313602,"lon":5.36703,"is_reserved":false,"is_disabled":false,"rental_uris":{"android":"levelo://app?vid=bed1e390-30ee-4727-858e-8a52e4b26941","ios":"levelo://app?vid=bed1e390-30ee-4727-858e-8a52e4b26941"},"vehicle_type_id":"4","last_reported":1701356772,"current_range_meters":29200,"station_id":"ce4bgr92rcd13ifvqc6g","pricing_plan_id":"free"},{"bike_id":"dc8aebcf-5310-4a5e-a1cd-e498b2840c41","system_id":"levelo_inurba_marseille","lat":43.313584,"lon":5.367206,"is_reserved":false,"is_disabled":false,"rental_uris":{"android":"levelo://app?vid=dc8aebcf-5310-4a5e-a1cd-e498b2840c41","ios":"levelo://app?vid=dc8aebcf-5310-4a5e-a1cd-e498b2840c41"},"vehicle_type_id":"4","last_reported":1701356772,"current_range_meters":15600,"station_id":"ce4bgr92rcd13ifvqc6g","pricing_plan_id":"free"},{"bike_id":"b51ad37a-fd38-4355-a0fa-8bdea72f2aff","system_id":"levelo_inurba_marseille","lat":43.312239,"lon":5.368562,"is_reserved":false,"is_disabled":false,"rental_uris":{"android":"levelo://app?vid=b51ad37a-fd38-4355-a0fa-8bdea72f2aff","ios":"levelo://app?vid=b51ad37a-fd38-4355-a0fa-8bdea72f2aff"},"vehicle_type_id":"4","last_reported":1701356772,"current_range_meters":17200,"station_id":"ce4bgl92rcd13ifvqbq0","pricing_plan_id":"free"},{"bike_id":"6069efed-4214-4ef4-89c2-abebeb832aca","system_id":"levelo_inurba_marseille","lat":43.312239,"lon":5.368562,"is_reserved":false,"is_disabled":false,"rental_uris":{"android":"levelo://app?vid=6069efed-4214-4ef4-89c2-abebeb832aca","ios":"levelo://app?vid=6069efed-4214-4ef4-89c2-abebeb832aca"},"vehicle_type_id":"4","last_reported":1701356772,"current_range_meters":30400,"station_id":"ce4bgl92rcd13ifvqbq0","pricing_plan_id":"free"},{"bike_id":"f40b73eb-0bdb-4dde-aa6e-c41354ad8135","system_id":"levelo_inurba_marseille","lat":43.312239,"lon":5.368562,"is_reserved":false,"is_disabled":false,"rental_uris":{"android":"levelo://app?vid=f40b73eb-0bdb-4dde-aa6e-c41354ad8135","ios":"levelo://app?vid=f40b73eb-0bdb-4dde-aa6e-c41354ad8135"},"vehicle_type_id":"4","last_reported":1701356772,"current_range_meters":28000,"station_id":"ce4bgl92rcd13ifvqbq0","pricing_plan_id":"free"},{"bike_id":"69907837-c36c-4c49-b90d-f2943933288a","system_id":"levelo_inurba_marseille","lat":43.309076,"lon":5.368465,"is_reserved":false,"is_disabled":false,"rental_uris":{"android":"levelo://app?vid=69907837-c36c-4c49-b90d-f2943933288a","ios":"levelo://app?vid=69907837-c36c-4c49-b90d-f2943933288a"},"vehicle_type_id":"4","last_reported":1701356772,"current_range_meters":31200,"station_id":"ce4bgn92rcd13ifvqbvg","pricing_plan_id":"free"},{"bike_id":"f54eedfd-603c-42cf-b084-d047335ff135","system_id":"levelo_inurba_marseille","lat":43.309076,"lon":5.368465,"is_reserved":false,"is_disabled":false,"rental_uris":{"android":"levelo://app?vid=f54eedfd-603c-42cf-b084-d047335ff135","ios":"levelo://app?vid=f54eedfd-603c-42cf-b084-d047335ff135"},"vehicle_type_id":"4","last_reported":1701356772,"current_range_meters":31200,"station_id":"ce4bgn92rcd13ifvqbvg","pricing_plan_id":"free"},{"bike_id":"0055f381-ded2-41e9-ac82-3ec7e7fbc60c","system_id":"levelo_inurba_marseille","lat":43.30906,"lon":5.36859,"is_reserved":false,"is_disabled":false,"rental_uris":{"android":"levelo://app?vid=0055f381-ded2-41e9-ac82-3ec7e7fbc60c","ios":"levelo://app?vid=0055f381-ded2-41e9-ac82-3ec7e7fbc60c"},"vehicle_type_id":"4","last_reported":1701356772,"current_range_meters":0,"station_id":"ce4bgn92rcd13ifvqbvg","pricing_plan_id":"free"},{"bike_id":"85ebfaaa-3017-45f3-906e-a6c2319c069c","system_id":"levelo_inurba_marseille","lat":43.308423,"lon":5.368997,"is_reserved":false,"is_disabled":false,"rental_uris":{"android":"levelo://app?vid=85ebfaaa-3017-45f3-906e-a6c2319c069c","ios":"levelo://app?vid=85ebfaaa-3017-45f3-906e-a6c2319c069c"},"vehicle_type_id":"4","last_reported":1701356772,"current_range_meters":14800,"station_id":"","pricing_plan_id":"free"},{"bike_id":"bbb4d7f1-08f2-4fbc-ab5c-181e6f4d6ac0","system_id":"levelo_inurba_marseille","lat":43.314811,"lon":5.373103,"is_reserved":false,"is_disabled":false,"rental_uris":{"android":"levelo://app?vid=bbb4d7f1-08f2-4fbc-ab5c-181e6f4d6ac0","ios":"levelo://app?vid=bbb4d7f1-08f2-4fbc-ab5c-181e6f4d6ac0"},"vehicle_type_id":"4","last_reported":1701356772,"current_range_meters":30800,"station_id":"ce4bgt12rcd13ifvqcd0","pricing_plan_id":"free"},{"bike_id":"2c956fd0-0828-4e6c-ac18-4831b238b588","system_id":"levelo_inurba_marseille","lat":43.314811,"lon":5.373103,"is_reserved":false,"is_disabled":false,"rental_uris":{"android":"levelo://app?vid=2c956fd0-0828-4e6c-ac18-4831b238b588","ios":"levelo://app?vid=2c956fd0-0828-4e6c-ac18-4831b238b588"},"vehicle_type_id":"4","last_reported":1701356772,"current_range_meters":32000,"station_id":"ce4bgt12rcd13ifvqcd0","pricing_plan_id":"free"},{"bike_id":"76065d94-4fb4-4b66-ab8a-11f33b3eef2c","system_id":"levelo_inurba_marseille","lat":43.314811,"lon":5.373103,"is_reserved":false,"is_disabled":false,"rental_uris":{"android":"levelo://app?vid=76065d94-4fb4-4b66-ab8a-11f33b3eef2c","ios":"levelo://app?vid=76065d94-4fb4-4b66-ab8a-11f33b3eef2c"},"vehicle_type_id":"4","last_reported":1701356772,"current_range_meters":7200,"station_id":"ce4bgt12rcd13ifvqcd0","pricing_plan_id":"free"},{"bike_id":"5f185876-5e07-4d29-9b64-bfabd71d2f95","system_id":"levelo_inurba_marseille","lat":43.314811,"lon":5.373103,"is_reserved":false,"is_disabled":false,"rental_uris":{"android":"levelo://app?vid=5f185876-5e07-4d29-9b64-bfabd71d2f95","ios":"levelo://app?vid=5f185876-5e07-4d29-9b64-bfabd71d2f95"},"vehicle_type_id":"4","last_reported":1701356772,"current_range_meters":24000,"station_id":"ce4bgt12rcd13ifvqcd0","pricing_plan_id":"free"},{"bike_id":"09b76f43-e02c-44b4-9a54-3f67b8a9b12f","system_id":"levelo_inurba_marseille","lat":43.309039,"lon":5.371797,"is_reserved":false,"is_disabled":false,"rental_uris":{"android":"levelo://app?vid=09b76f43-e02c-44b4-9a54-3f67b8a9b12f","ios":"levelo://app?vid=09b76f43-e02c-44b4-9a54-3f67b8a9b12f"},"vehicle_type_id":"4","last_reported":1701356772,"current_range_meters":22800,"station_id":"ce4bguh2rcd13ifvqckg","pricing_plan_id":"free"},{"bike_id":"25d968be-fa15-431c-ab29-f0d46ec331fb","system_id":"levelo_inurba_marseille","lat":43.309039,"lon":5.371797,"is_reserved":false,"is_disabled":false,"rental_uris":{"android":"levelo://app?vid=25d968be-fa15-431c-ab29-f0d46ec331fb","ios":"levelo://app?vid=25d968be-fa15-431c-ab29-f0d46ec331fb"},"vehicle_type_id":"4","last_reported":1701356772,"current_range_meters":15200,"station_id":"ce4bguh2rcd13ifvqckg","pricing_plan_id":"free"},{"bike_id":"67960d60-6dde-4cd6-b26a-3aead1d455ac","system_id":"levelo_inurba_marseille","lat":43.309039,"lon":5.371797,"is_reserved":false,"is_disabled":false,"rental_uris":{"android":"levelo://app?vid=67960d60-6dde-4cd6-b26a-3aead1d455ac","ios":"levelo://app?vid=67960d60-6dde-4cd6-b26a-3aead1d455ac"},"vehicle_type_id":"4","last_reported":1701356772,"current_range_meters":23600,"station_id":"ce4bguh2rcd13ifvqckg","pricing_plan_id":"free"},{"bike_id":"c438d34f-092c-4556-bbda-31e5ca1956e2","system_id":"levelo_inurba_marseille","lat":43.305714,"lon":5.365633,"is_reserved":false,"is_disabled":false,"rental_uris":{"android":"levelo://app?vid=c438d34f-092c-4556-bbda-31e5ca1956e2","ios":"levelo://app?vid=c438d34f-092c-4556-bbda-31e5ca1956e2"},"vehicle_type_id":"4","last_reported":1701356772,"current_range_meters":18000,"station_id":"ce4bgs12rcd13ifvqcag","pricing_plan_id":"free"},{"bike_id":"940bed14-d96c-4d10-9bf6-d3f71d3334b6","system_id":"levelo_inurba_marseille","lat":43.305989,"lon":5.37225,"is_reserved":false,"is_disabled":false,"rental_uris":{"android":"levelo://app?vid=940bed14-d96c-4d10-9bf6-d3f71d3334b6","ios":"levelo://app?vid=940bed14-d96c-4d10-9bf6-d3f71d3334b6"},"vehicle_type_id":"4","last_reported":1701356772,"current_range_meters":27200,"station_id":"ce4bgqh2rcd13ifvqc4g","pricing_plan_id":"free"},{"bike_id":"5cc94981-e669-4346-afa4-ba3da1be514d","system_id":"levelo_inurba_marseille","lat":43.31111,"lon":5.37763,"is_reserved":false,"is_disabled":false,"rental_uris":{"android":"levelo://app?vid=5cc94981-e669-4346-afa4-ba3da1be514d","ios":"levelo://app?vid=5cc94981-e669-4346-afa4-ba3da1be514d"},"vehicle_type_id":"4","last_reported":1701356772,"current_range_meters":30400,"station_id":"ce4bgt92rcd13ifvqcg0","pricing_plan_id":"free"},{"bike_id":"776d7baf-efbd-46e7-a883-854d60b8a291","system_id":"levelo_inurba_marseille","lat":43.311125,"lon":5.377624,"is_reserved":false,"is_disabled":false,"rental_uris":{"android":"levelo://app?vid=776d7baf-efbd-46e7-a883-854d60b8a291","ios":"levelo://app?vid=776d7baf-efbd-46e7-a883-854d60b8a291"},"vehicle_type_id":"4","last_reported":1701356772,"current_range_meters":13200,"station_id":"ce4bgt92rcd13ifvqcg0","pricing_plan_id":"free"},{"bike_id":"727d231a-d425-4d8f-ad3f-99b5a47572e8","system_id":"levelo_inurba_marseille","lat":43.30439,"lon":5.36753,"is_reserved":false,"is_disabled":false,"rental_uris":{"android":"levelo://app?vid=727d231a-d425-4d8f-ad3f-99b5a47572e8","ios":"levelo://app?vid=727d231a-d425-4d8f-ad3f-99b5a47572e8"},"vehicle_type_id":"4","last_reported":1701356772,"current_range_meters":30400,"station_id":"","pricing_plan_id":"free"},{"bike_id":"f427a2c3-6e4a-446b-ae2f-9be8aa7f4122","system_id":"levelo_inurba_marseille","lat":43.31719,"lon":5.376813,"is_reserved":false,"is_disabled":false,"rental_uris":{"android":"levelo://app?vid=f427a2c3-6e4a-446b-ae2f-9be8aa7f4122","ios":"levelo://app?vid=f427a2c3-6e4a-446b-ae2f-9be8aa7f4122"},"vehicle_type_id":"4","last_reported":1701356772,"current_range_meters":5200,"station_id":"ce4bgth2rcd13ifvqch0","pricing_plan_id":"free"},{"bike_id":"e913f328-1e31-4c22-bd87-f809ea246de4","system_id":"levelo_inurba_marseille","lat":43.317168,"lon":5.376883,"is_reserved":false,"is_disabled":false,"rental_uris":{"android":"levelo://app?vid=e913f328-1e31-4c22-bd87-f809ea246de4","ios":"levelo://app?vid=e913f328-1e31-4c22-bd87-f809ea246de4"},"vehicle_type_id":"4","last_reported":1701356772,"current_range_meters":7600,"station_id":"ce4bgth2rcd13ifvqch0","pricing_plan_id":"free"},{"bike_id":"e9a4cb60-f130-4d1b-b37e-7fdfa0506453","system_id":"levelo_inurba_marseille","lat":43.307945,"lon":5.376487,"is_reserved":false,"is_disabled":false,"rental_uris":{"android":"levelo://app?vid=e9a4cb60-f130-4d1b-b37e-7fdfa0506453","ios":"levelo://app?vid=e9a4cb60-f130-4d1b-b37e-7fdfa0506453"},"vehicle_type_id":"4","last_reported":1701356772,"current_range_meters":29600,"station_id":"ce4bgv92rcd13ifvqcq0","pricing_plan_id":"free"},{"bike_id":"bef3c888-e26e-4daf-a279-528d05d9f20b","system_id":"levelo_inurba_marseille","lat":43.30143,"lon":5.37413,"is_reserved":false,"is_disabled":false,"rental_uris":{"android":"levelo://app?vid=bef3c888-e26e-4daf-a279-528d05d9f20b","ios":"levelo://app?vid=bef3c888-e26e-4daf-a279-528d05d9f20b"},"vehicle_type_id":"4","last_reported":1701356772,"current_range_meters":21600,"station_id":"ce4bgs92rcd13ifvqcc0","pricing_plan_id":"free"},{"bike_id":"e9980625-d869-44a3-ab8f-10ac9241d786","system_id":"levelo_inurba_marseille","lat":43.308326,"lon":5.381616,"is_reserved":false,"is_disabled":false,"rental_uris":{"android":"levelo://app?vid=e9980625-d869-44a3-ab8f-10ac9241d786","ios":"levelo://app?vid=e9980625-d869-44a3-ab8f-10ac9241d786"},"vehicle_type_id":"4","last_reported":1701356772,"current_range_meters":23200,"station_id":"","pricing_plan_id":"free"},{"bike_id":"a91fa5a2-7627-4bbc-ab68-a16597bd7d4c","system_id":"levelo_inurba_marseille","lat":43.308012,"lon":5.381511,"is_reserved":false,"is_disabled":false,"rental_uris":{"android":"levelo://app?vid=a91fa5a2-7627-4bbc-ab68-a16597bd7d4c","ios":"levelo://app?vid=a91fa5a2-7627-4bbc-ab68-a16597bd7d4c"},"vehicle_type_id":"4","last_reported":1701356772,"current_range_meters":15600,"station_id":"ce4bgt12rcd13ifvqce0","pricing_plan_id":"free"},{"bike_id":"f46bd4b0-5558-4180-bceb-72fc2d2a1a94","system_id":"levelo_inurba_marseille","lat":43.30458,"lon":5.37908,"is_reserved":false,"is_disabled":false,"rental_uris":{"android":"levelo://app?vid=f46bd4b0-5558-4180-bceb-72fc2d2a1a94","ios":"levelo://app?vid=f46bd4b0-5558-4180-bceb-72fc2d2a1a94"},"vehicle_type_id":"4","last_reported":1701356772,"current_range_meters":0,"station_id":"ce4bgup2rcd13ifvqcn0","pricing_plan_id":"free"},{"bike_id":"5f0dcc7e-fe2f-41ae-b9b7-07b5430b86ee","system_id":"levelo_inurba_marseille","lat":43.32482,"lon":5.365596,"is_reserved":false,"is_disabled":false,"rental_uris":{"android":"levelo://app?vid=5f0dcc7e-fe2f-41ae-b9b7-07b5430b86ee","ios":"levelo://app?vid=5f0dcc7e-fe2f-41ae-b9b7-07b5430b86ee"},"vehicle_type_id":"4","last_reported":1701356772,"current_range_meters":14400,"station_id":"ce4bhs12rcd13ifvqhvg","pricing_plan_id":"free"},{"bike_id":"6104e35a-8f8e-4236-b5bf-c165d44f9cf9","system_id":"levelo_inurba_marseille","lat":43.324771,"lon":5.36557,"is_reserved":false,"is_disabled":false,"rental_uris":{"android":"levelo://app?vid=6104e35a-8f8e-4236-b5bf-c165d44f9cf9","ios":"levelo://app?vid=6104e35a-8f8e-4236-b5bf-c165d44f9cf9"},"vehicle_type_id":"4","last_reported":1701356772,"current_range_meters":12800,"station_id":"ce4bhs12rcd13ifvqhvg","pricing_plan_id":"free"},{"bike_id":"4490da72-7523-4dbb-b5d8-b105e9321434","system_id":"levelo_inurba_marseille","lat":43.30143,"lon":5.37413,"is_reserved":false,"is_disabled":false,"rental_uris":{"android":"levelo://app?vid=4490da72-7523-4dbb-b5d8-b105e9321434","ios":"levelo://app?vid=4490da72-7523-4dbb-b5d8-b105e9321434"},"vehicle_type_id":"4","last_reported":1701356772,"current_range_meters":800,"station_id":"ce4bgs92rcd13ifvqcc0","pricing_plan_id":"free"},{"bike_id":"2275aca5-3158-4c2c-8022-ca5d2714bc86","system_id":"levelo_inurba_marseille","lat":43.319997,"lon":5.381594,"is_reserved":false,"is_disabled":false,"rental_uris":{"android":"levelo://app?vid=2275aca5-3158-4c2c-8022-ca5d2714bc86","ios":"levelo://app?vid=2275aca5-3158-4c2c-8022-ca5d2714bc86"},"vehicle_type_id":"4","last_reported":1701356772,"current_range_meters":22800,"station_id":"ce4bhr12rcd13ifvqhpg","pricing_plan_id":"free"},{"bike_id":"85f13ce6-413a-405b-ac83-cc4a561f71dd","system_id":"levelo_inurba_marseille","lat":43.298433,"lon":5.362774,"is_reserved":false,"is_disabled":false,"rental_uris":{"android":"levelo://app?vid=85f13ce6-413a-405b-ac83-cc4a561f71dd","ios":"levelo://app?vid=85f13ce6-413a-405b-ac83-cc4a561f71dd"},"vehicle_type_id":"4","last_reported":1701356772,"current_range_meters":15200,"station_id":"ce4bgpp2rcd13ifvqc3g","pricing_plan_id":"free"},{"bike_id":"3a5c1632-f345-475e-a9dc-0cf71e99501f","system_id":"levelo_inurba_marseille","lat":43.299243,"lon":5.374807,"is_reserved":false,"is_disabled":false,"rental_uris":{"android":"levelo://app?vid=3a5c1632-f345-475e-a9dc-0cf71e99501f","ios":"levelo://app?vid=3a5c1632-f345-475e-a9dc-0cf71e99501f"},"vehicle_type_id":"4","last_reported":1701356772,"current_range_meters":27600,"station_id":"ce4bgjh2rcd13ifvqbg0","pricing_plan_id":"free"},{"bike_id":"f30f4908-0ff0-4bbe-a261-f62b0bc99122","system_id":"levelo_inurba_marseille","lat":43.298433,"lon":5.362774,"is_reserved":false,"is_disabled":false,"rental_uris":{"android":"levelo://app?vid=f30f4908-0ff0-4bbe-a261-f62b0bc99122","ios":"levelo://app?vid=f30f4908-0ff0-4bbe-a261-f62b0bc99122"},"vehicle_type_id":"4","last_reported":1701356772,"current_range_meters":27600,"station_id":"ce4bgpp2rcd13ifvqc3g","pricing_plan_id":"free"},{"bike_id":"571c8774-2366-47fa-81d6-f4c24711bd3b","system_id":"levelo_inurba_marseille","lat":43.311722,"lon":5.387247,"is_reserved":false,"is_disabled":false,"rental_uris":{"android":"levelo://app?vid=571c8774-2366-47fa-81d6-f4c24711bd3b","ios":"levelo://app?vid=571c8774-2366-47fa-81d6-f4c24711bd3b"},"vehicle_type_id":"4","last_reported":1701356772,"current_range_meters":31200,"station_id":"ce4bgv12rcd13ifvqcp0","pricing_plan_id":"free"},{"bike_id":"e96a4a03-24e7-4a57-89cb-67ed655374b4","system_id":"levelo_inurba_marseille","lat":43.299243,"lon":5.37481,"is_reserved":false,"is_disabled":false,"rental_uris":{"android":"levelo://app?vid=e96a4a03-24e7-4a57-89cb-67ed655374b4","ios":"levelo://app?vid=e96a4a03-24e7-4a57-89cb-67ed655374b4"},"vehicle_type_id":"4","last_reported":1701356772,"current_range_meters":10000,"station_id":"ce4bgjh2rcd13ifvqbg0","pricing_plan_id":"free"},{"bike_id":"aebb5f1f-3a1e-4323-a4f0-ae83e0b78d14","system_id":"levelo_inurba_marseille","lat":43.327603,"lon":5.36705,"is_reserved":false,"is_disabled":false,"rental_uris":{"android":"levelo://app?vid=aebb5f1f-3a1e-4323-a4f0-ae83e0b78d14","ios":"levelo://app?vid=aebb5f1f-3a1e-4323-a4f0-ae83e0b78d14"},"vehicle_type_id":"4","last_reported":1701356772,"current_range_meters":24400,"station_id":"","pricing_plan_id":"free"},{"bike_id":"11fbc002-5b4d-4629-a038-bbbaf88697c2","system_id":"levelo_inurba_marseille","lat":43.322872,"lon":5.382756,"is_reserved":false,"is_disabled":false,"rental_uris":{"android":"levelo://app?vid=11fbc002-5b4d-4629-a038-bbbaf88697c2","ios":"levelo://app?vid=11fbc002-5b4d-4629-a038-bbbaf88697c2"},"vehicle_type_id":"4","last_reported":1701356772,"current_range_meters":26000,"station_id":"ce4bhr12rcd13ifvqhqg","pricing_plan_id":"free"},{"bike_id":"f572b1d3-94bc-4ea1-95d9-f0b1739b38c6","system_id":"levelo_inurba_marseille","lat":43.328371,"lon":5.366909,"is_reserved":false,"is_disabled":false,"rental_uris":{"android":"levelo://app?vid=f572b1d3-94bc-4ea1-95d9-f0b1739b38c6","ios":"levelo://app?vid=f572b1d3-94bc-4ea1-95d9-f0b1739b38c6"},"vehicle_type_id":"4","last_reported":1701356772,"current_range_meters":18800,"station_id":"ce4bhs92rcd13ifvqi0g","pricing_plan_id":"free"},{"bike_id":"d068864e-3768-4cb7-8f2c-e01febcf4d60","system_id":"levelo_inurba_marseille","lat":43.29625,"lon":5.36527,"is_reserved":false,"is_disabled":false,"rental_uris":{"android":"levelo://app?vid=d068864e-3768-4cb7-8f2c-e01febcf4d60","ios":"levelo://app?vid=d068864e-3768-4cb7-8f2c-e01febcf4d60"},"vehicle_type_id":"4","last_reported":1701356772,"current_range_meters":12800,"station_id":"","pricing_plan_id":"free"},{"bike_id":"925c2d34-2dcd-4d33-8141-1306492fd9d8","system_id":"levelo_inurba_marseille","lat":43.299028,"lon":5.381509,"is_reserved":false,"is_disabled":false,"rental_uris":{"android":"levelo://app?vid=925c2d34-2dcd-4d33-8141-1306492fd9d8","ios":"levelo://app?vid=925c2d34-2dcd-4d33-8141-1306492fd9d8"},"vehicle_type_id":"4","last_reported":1701356772,"current_range_meters":25200,"station_id":"ce4bgj12rcd13ifvqbc0","pricing_plan_id":"free"},{"bike_id":"2cc903a2-1d51-4547-a2d2-07dd7e959aef","system_id":"levelo_inurba_marseille","lat":43.297922,"lon":5.381278,"is_reserved":false,"is_disabled":false,"rental_uris":{"android":"levelo://app?vid=2cc903a2-1d51-4547-a2d2-07dd7e959aef","ios":"levelo://app?vid=2cc903a2-1d51-4547-a2d2-07dd7e959aef"},"vehicle_type_id":"4","last_reported":1701356772,"current_range_meters":0,"station_id":"ce4bgip2rcd13ifvqbb0","pricing_plan_id":"free"},{"bike_id":"c3711e06-2f7e-4988-9b82-b2d8df68ffee","system_id":"levelo_inurba_marseille","lat":43.295748,"lon":5.37522,"is_reserved":false,"is_disabled":false,"rental_uris":{"android":"levelo://app?vid=c3711e06-2f7e-4988-9b82-b2d8df68ffee","ios":"levelo://app?vid=c3711e06-2f7e-4988-9b82-b2d8df68ffee"},"vehicle_type_id":"4","last_reported":1701356772,"current_range_meters":18800,"station_id":"ce4bgh92rcd13ifvqb50","pricing_plan_id":"free"},{"bike_id":"a2f12fcc-77db-4a5e-9d0a-3e37ef1844fc","system_id":"levelo_inurba_marseille","lat":43.323651,"lon":5.388861,"is_reserved":false,"is_disabled":false,"rental_uris":{"android":"levelo://app?vid=a2f12fcc-77db-4a5e-9d0a-3e37ef1844fc","ios":"levelo://app?vid=a2f12fcc-77db-4a5e-9d0a-3e37ef1844fc"},"vehicle_type_id":"4","last_reported":1701356772,"current_range_meters":24400,"station_id":"ce4bhqp2rcd13ifvqhog","pricing_plan_id":"free"},{"bike_id":"945498c6-18d6-4e5a-af30-52283692cde7","system_id":"levelo_inurba_marseille","lat":43.32367,"lon":5.388836,"is_reserved":false,"is_disabled":false,"rental_uris":{"android":"levelo://app?vid=945498c6-18d6-4e5a-af30-52283692cde7","ios":"levelo://app?vid=945498c6-18d6-4e5a-af30-52283692cde7"},"vehicle_type_id":"4","last_reported":1701356772,"current_range_meters":14800,"station_id":"ce4bhqp2rcd13ifvqhog","pricing_plan_id":"free"},{"bike_id":"749dc05e-03fb-4454-ba23-0dbbbe091b19","system_id":"levelo_inurba_marseille","lat":43.29602,"lon":5.381084,"is_reserved":false,"is_disabled":false,"rental_uris":{"android":"levelo://app?vid=749dc05e-03fb-4454-ba23-0dbbbe091b19","ios":"levelo://app?vid=749dc05e-03fb-4454-ba23-0dbbbe091b19"},"vehicle_type_id":"4","last_reported":1701356772,"current_range_meters":20000,"station_id":"ce4bgl12rcd13ifvqbo0","pricing_plan_id":"free"},{"bike_id":"eaa0e7e7-2390-47fa-909b-7b240952cbef","system_id":"levelo_inurba_marseille","lat":43.3193,"lon":5.39237,"is_reserved":false,"is_disabled":false,"rental_uris":{"android":"levelo://app?vid=eaa0e7e7-2390-47fa-909b-7b240952cbef","ios":"levelo://app?vid=eaa0e7e7-2390-47fa-909b-7b240952cbef"},"vehicle_type_id":"4","last_reported":1701356772,"current_range_meters":22400,"station_id":"","pricing_plan_id":"free"},{"bike_id":"b11ddf64-c6ba-430a-b989-9d9f7d2951de","system_id":"levelo_inurba_marseille","lat":43.29271,"lon":5.36851,"is_reserved":false,"is_disabled":false,"rental_uris":{"android":"levelo://app?vid=b11ddf64-c6ba-430a-b989-9d9f7d2951de","ios":"levelo://app?vid=b11ddf64-c6ba-430a-b989-9d9f7d2951de"},"vehicle_type_id":"4","last_reported":1701356772,"current_range_meters":20400,"station_id":"ce4bhbp2rcd13ifvqesg","pricing_plan_id":"free"},{"bike_id":"79065496-2374-4e37-ad68-3b91996be7ab","system_id":"levelo_inurba_marseille","lat":43.293009,"lon":5.374584,"is_reserved":false,"is_disabled":false,"rental_uris":{"android":"levelo://app?vid=79065496-2374-4e37-ad68-3b91996be7ab","ios":"levelo://app?vid=79065496-2374-4e37-ad68-3b91996be7ab"},"vehicle_type_id":"4","last_reported":1701356772,"current_range_meters":24000,"station_id":"ce4bgi12rcd13ifvqb70","pricing_plan_id":"free"},{"bike_id":"6da5f53c-5328-4fe1-8d81-b429aa9d86b9","system_id":"levelo_inurba_marseille","lat":43.292311,"lon":5.360731,"is_reserved":false,"is_disabled":false,"rental_uris":{"android":"levelo://app?vid=6da5f53c-5328-4fe1-8d81-b429aa9d86b9","ios":"levelo://app?vid=6da5f53c-5328-4fe1-8d81-b429aa9d86b9"},"vehicle_type_id":"4","last_reported":1701356772,"current_range_meters":21200,"station_id":"ce4bhbh2rcd13ifvqeqg","pricing_plan_id":"free"},{"bike_id":"60678744-7fa4-4926-b396-ff757ae64545","system_id":"levelo_inurba_marseille","lat":43.300852,"lon":5.390859,"is_reserved":false,"is_disabled":false,"rental_uris":{"android":"levelo://app?vid=60678744-7fa4-4926-b396-ff757ae64545","ios":"levelo://app?vid=60678744-7fa4-4926-b396-ff757ae64545"},"vehicle_type_id":"4","last_reported":1701356772,"current_range_meters":26800,"station_id":"ce4bh192rcd13ifvqdb0","pricing_plan_id":"free"},{"bike_id":"0a7b73fa-5531-42f5-9ace-667ad3a61a2b","system_id":"levelo_inurba_marseille","lat":43.30085,"lon":5.390856,"is_reserved":false,"is_disabled":false,"rental_uris":{"android":"levelo://app?vid=0a7b73fa-5531-42f5-9ace-667ad3a61a2b","ios":"levelo://app?vid=0a7b73fa-5531-42f5-9ace-667ad3a61a2b"},"vehicle_type_id":"4","last_reported":1701356772,"current_range_meters":24800,"station_id":"ce4bh192rcd13ifvqdb0","pricing_plan_id":"free"},{"bike_id":"b5757a90-345b-45e2-8eab-70200dd4122c","system_id":"levelo_inurba_marseille","lat":43.292663,"lon":5.376394,"is_reserved":false,"is_disabled":false,"rental_uris":{"android":"levelo://app?vid=b5757a90-345b-45e2-8eab-70200dd4122c","ios":"levelo://app?vid=b5757a90-345b-45e2-8eab-70200dd4122c"},"vehicle_type_id":"4","last_reported":1701356772,"current_range_meters":29600,"station_id":"ce4bgi12rcd13ifvqb80","pricing_plan_id":"free"},{"bike_id":"ee9aa49e-1b8d-4af4-b91e-9ff602d63ccd","system_id":"levelo_inurba_marseille","lat":43.29885,"lon":5.38906,"is_reserved":false,"is_disabled":false,"rental_uris":{"android":"levelo://app?vid=ee9aa49e-1b8d-4af4-b91e-9ff602d63ccd","ios":"levelo://app?vid=ee9aa49e-1b8d-4af4-b91e-9ff602d63ccd"},"vehicle_type_id":"4","last_reported":1701356772,"current_range_meters":19600,"station_id":"ce4bh392rcd13ifvqdl0","pricing_plan_id":"free"},{"bike_id":"2467b626-6da0-4b4d-9fcf-d22dca25f77b","system_id":"levelo_inurba_marseille","lat":43.291675,"lon":5.371583,"is_reserved":false,"is_disabled":false,"rental_uris":{"android":"levelo://app?vid=2467b626-6da0-4b4d-9fcf-d22dca25f77b","ios":"levelo://app?vid=2467b626-6da0-4b4d-9fcf-d22dca25f77b"},"vehicle_type_id":"4","last_reported":1701356772,"current_range_meters":21200,"station_id":"ce4bha92rcd13ifvqeh0","pricing_plan_id":"free"},{"bike_id":"3a2dc878-7bc5-4afd-8b61-56ae90500501","system_id":"levelo_inurba_marseille","lat":43.29529,"lon":5.385581,"is_reserved":false,"is_disabled":false,"rental_uris":{"android":"levelo://app?vid=3a2dc878-7bc5-4afd-8b61-56ae90500501","ios":"levelo://app?vid=3a2dc878-7bc5-4afd-8b61-56ae90500501"},"vehicle_type_id":"4","last_reported":1701356772,"current_range_meters":28400,"station_id":"ce4bgih2rcd13ifvqba0","pricing_plan_id":"free"},{"bike_id":"45ddaf08-8ac8-4d5d-a2d2-6aa9381e915f","system_id":"levelo_inurba_marseille","lat":43.309038,"lon":5.396546,"is_reserved":false,"is_disabled":false,"rental_uris":{"android":"levelo://app?vid=45ddaf08-8ac8-4d5d-a2d2-6aa9381e915f","ios":"levelo://app?vid=45ddaf08-8ac8-4d5d-a2d2-6aa9381e915f"},"vehicle_type_id":"4","last_reported":1701356772,"current_range_meters":15200,"station_id":"ce4bh012rcd13ifvqcv0","pricing_plan_id":"free"},{"bike_id":"e28e3fab-2b04-461b-94fc-87dbe697f604","system_id":"levelo_inurba_marseille","lat":43.290779,"lon":5.371482,"is_reserved":false,"is_disabled":false,"rental_uris":{"android":"levelo://app?vid=e28e3fab-2b04-461b-94fc-87dbe697f604","ios":"levelo://app?vid=e28e3fab-2b04-461b-94fc-87dbe697f604"},"vehicle_type_id":"4","last_reported":1701356772,"current_range_meters":19200,"station_id":"ce4bh5p2rcd13ifvqe4g","pricing_plan_id":"free"},{"bike_id":"80b10ba0-9a38-4004-887a-79c91af7ea85","system_id":"levelo_inurba_marseille","lat":43.282754,"lon":5.350519,"is_reserved":false,"is_disabled":false,"rental_uris":{"android":"levelo://app?vid=80b10ba0-9a38-4004-887a-79c91af7ea85","ios":"levelo://app?vid=80b10ba0-9a38-4004-887a-79c91af7ea85"},"vehicle_type_id":"4","last_reported":1701356772,"current_range_meters":18000,"station_id":"ce4bhbp2rcd13ifvqerg","pricing_plan_id":"free"},{"bike_id":"8c7e7979-e1f2-4394-97fc-0bf839edfd25","system_id":"levelo_inurba_marseille","lat":43.294162,"lon":5.386292,"is_reserved":false,"is_disabled":false,"rental_uris":{"android":"levelo://app?vid=8c7e7979-e1f2-4394-97fc-0bf839edfd25","ios":"levelo://app?vid=8c7e7979-e1f2-4394-97fc-0bf839edfd25"},"vehicle_type_id":"4","last_reported":1701356772,"current_range_meters":18000,"station_id":"ce4bh2h2rcd13ifvqdh0","pricing_plan_id":"free"},{"bike_id":"ed3f43ed-2fd0-43df-b190-10aa542763a4","system_id":"levelo_inurba_marseille","lat":43.294153,"lon":5.386305,"is_reserved":false,"is_disabled":false,"rental_uris":{"android":"levelo://app?vid=ed3f43ed-2fd0-43df-b190-10aa542763a4","ios":"levelo://app?vid=ed3f43ed-2fd0-43df-b190-10aa542763a4"},"vehicle_type_id":"4","last_reported":1701356772,"current_range_meters":26800,"station_id":"ce4bh2h2rcd13ifvqdh0","pricing_plan_id":"free"},{"bike_id":"af5175ca-7515-44c6-9fce-f0dc0d82a4d3","system_id":"levelo_inurba_marseille","lat":43.29421,"lon":5.38626,"is_reserved":false,"is_disabled":false,"rental_uris":{"android":"levelo://app?vid=af5175ca-7515-44c6-9fce-f0dc0d82a4d3","ios":"levelo://app?vid=af5175ca-7515-44c6-9fce-f0dc0d82a4d3"},"vehicle_type_id":"4","last_reported":1701356772,"current_range_meters":26000,"station_id":"ce4bh2h2rcd13ifvqdh0","pricing_plan_id":"free"},{"bike_id":"ea8a47c1-2cda-4927-88d5-b85f9637e7b3","system_id":"levelo_inurba_marseille","lat":43.294162,"lon":5.386292,"is_reserved":false,"is_disabled":false,"rental_uris":{"android":"levelo://app?vid=ea8a47c1-2cda-4927-88d5-b85f9637e7b3","ios":"levelo://app?vid=ea8a47c1-2cda-4927-88d5-b85f9637e7b3"},"vehicle_type_id":"4","last_reported":1701356772,"current_range_meters":10800,"station_id":"ce4bh2h2rcd13ifvqdh0","pricing_plan_id":"free"},{"bike_id":"9b5a4ecd-d8e1-46b5-9666-7f1a5b2035e8","system_id":"levelo_inurba_marseille","lat":43.289184,"lon":5.366408,"is_reserved":false,"is_disabled":false,"rental_uris":{"android":"levelo://app?vid=9b5a4ecd-d8e1-46b5-9666-7f1a5b2035e8","ios":"levelo://app?vid=9b5a4ecd-d8e1-46b5-9666-7f1a5b2035e8"},"vehicle_type_id":"4","last_reported":1701356772,"current_range_meters":16000,"station_id":"ce4bhap2rcd13ifvqek0","pricing_plan_id":"free"},{"bike_id":"87467222-acb2-4f0e-8c17-81532e7d6dc5","system_id":"levelo_inurba_marseille","lat":43.292642,"lon":5.384254,"is_reserved":false,"is_disabled":false,"rental_uris":{"android":"levelo://app?vid=87467222-acb2-4f0e-8c17-81532e7d6dc5","ios":"levelo://app?vid=87467222-acb2-4f0e-8c17-81532e7d6dc5"},"vehicle_type_id":"4","last_reported":1701356772,"current_range_meters":10000,"station_id":"ce4bh692rcd13ifvqea0","pricing_plan_id":"free"},{"bike_id":"86a69ebb-479d-4105-b3f5-66e9c5322ddc","system_id":"levelo_inurba_marseille","lat":43.292644,"lon":5.384257,"is_reserved":false,"is_disabled":false,"rental_uris":{"android":"levelo://app?vid=86a69ebb-479d-4105-b3f5-66e9c5322ddc","ios":"levelo://app?vid=86a69ebb-479d-4105-b3f5-66e9c5322ddc"},"vehicle_type_id":"4","last_reported":1701356772,"current_range_meters":30000,"station_id":"ce4bh692rcd13ifvqea0","pricing_plan_id":"free"},{"bike_id":"fc63a59c-4f51-4d1e-b025-c84c6ef842d2","system_id":"levelo_inurba_marseille","lat":43.292642,"lon":5.384254,"is_reserved":false,"is_disabled":false,"rental_uris":{"android":"levelo://app?vid=fc63a59c-4f51-4d1e-b025-c84c6ef842d2","ios":"levelo://app?vid=fc63a59c-4f51-4d1e-b025-c84c6ef842d2"},"vehicle_type_id":"4","last_reported":1701356772,"current_range_meters":18400,"station_id":"ce4bh692rcd13ifvqea0","pricing_plan_id":"free"},{"bike_id":"b2e11ee5-f8dc-4ff4-bf2a-cf011f25cd8b","system_id":"levelo_inurba_marseille","lat":43.290104,"lon":5.356111,"is_reserved":false,"is_disabled":false,"rental_uris":{"android":"levelo://app?vid=b2e11ee5-f8dc-4ff4-bf2a-cf011f25cd8b","ios":"levelo://app?vid=b2e11ee5-f8dc-4ff4-bf2a-cf011f25cd8b"},"vehicle_type_id":"4","last_reported":1701356772,"current_range_meters":25200,"station_id":"ce4bhb92rcd13ifvqen0","pricing_plan_id":"free"},{"bike_id":"e927fbb1-f1c4-4398-9f25-8d59e5bc44fd","system_id":"levelo_inurba_marseille","lat":43.330442,"lon":5.389148,"is_reserved":false,"is_disabled":false,"rental_uris":{"android":"levelo://app?vid=e927fbb1-f1c4-4398-9f25-8d59e5bc44fd","ios":"levelo://app?vid=e927fbb1-f1c4-4398-9f25-8d59e5bc44fd"},"vehicle_type_id":"4","last_reported":1701356772,"current_range_meters":2800,"station_id":"ce4bhr92rcd13ifvqhrg","pricing_plan_id":"free"},{"bike_id":"e1422032-c20b-45b5-8681-129cd0dcbbbc","system_id":"levelo_inurba_marseille","lat":43.290104,"lon":5.356111,"is_reserved":false,"is_disabled":false,"rental_uris":{"android":"levelo://app?vid=e1422032-c20b-45b5-8681-129cd0dcbbbc","ios":"levelo://app?vid=e1422032-c20b-45b5-8681-129cd0dcbbbc"},"vehicle_type_id":"4","last_reported":1701356772,"current_range_meters":24800,"station_id":"ce4bhb92rcd13ifvqen0","pricing_plan_id":"free"},{"bike_id":"3b63c94a-bcf2-4b3b-8957-ef37493b9bb8","system_id":"levelo_inurba_marseille","lat":43.290995,"lon":5.381361,"is_reserved":false,"is_disabled":false,"rental_uris":{"android":"levelo://app?vid=3b63c94a-bcf2-4b3b-8957-ef37493b9bb8","ios":"levelo://app?vid=3b63c94a-bcf2-4b3b-8957-ef37493b9bb8"},"vehicle_type_id":"4","last_reported":1701356772,"current_range_meters":19600,"station_id":"ce4bh512rcd13ifvqe2g","pricing_plan_id":"free"},{"bike_id":"890d125e-102e-4b3b-8ffb-d8149351e9f2","system_id":"levelo_inurba_marseille","lat":43.312609,"lon":5.401662,"is_reserved":false,"is_disabled":false,"rental_uris":{"android":"levelo://app?vid=890d125e-102e-4b3b-8ffb-d8149351e9f2","ios":"levelo://app?vid=890d125e-102e-4b3b-8ffb-d8149351e9f2"},"vehicle_type_id":"4","last_reported":1701356772,"current_range_meters":24000,"station_id":"ce4bh092rcd13ifvqd30","pricing_plan_id":"free"},{"bike_id":"0469b2e4-98f8-49e6-93cc-13cec41284ce","system_id":"levelo_inurba_marseille","lat":43.309371,"lon":5.401449,"is_reserved":false,"is_disabled":false,"rental_uris":{"android":"levelo://app?vid=0469b2e4-98f8-49e6-93cc-13cec41284ce","ios":"levelo://app?vid=0469b2e4-98f8-49e6-93cc-13cec41284ce"},"vehicle_type_id":"4","last_reported":1701356772,"current_range_meters":27200,"station_id":"ce4bgvp2rcd13ifvqct0","pricing_plan_id":"free"},{"bike_id":"2ae93018-1f66-4407-8727-ce3bd016a9f6","system_id":"levelo_inurba_marseille","lat":43.33753,"lon":5.3746,"is_reserved":false,"is_disabled":false,"rental_uris":{"android":"levelo://app?vid=2ae93018-1f66-4407-8727-ce3bd016a9f6","ios":"levelo://app?vid=2ae93018-1f66-4407-8727-ce3bd016a9f6"},"vehicle_type_id":"4","last_reported":1701356772,"current_range_meters":18800,"station_id":"","pricing_plan_id":"free"},{"bike_id":"1b9ac009-cff0-486d-a1ea-a93c08923e80","system_id":"levelo_inurba_marseille","lat":43.33762,"lon":5.37464,"is_reserved":false,"is_disabled":false,"rental_uris":{"android":"levelo://app?vid=1b9ac009-cff0-486d-a1ea-a93c08923e80","ios":"levelo://app?vid=1b9ac009-cff0-486d-a1ea-a93c08923e80"},"vehicle_type_id":"4","last_reported":1701356772,"current_range_meters":31200,"station_id":"","pricing_plan_id":"free"},{"bike_id":"5caaa2a4-2863-44f7-ad58-f3c24398eb71","system_id":"levelo_inurba_marseille","lat":43.306412,"lon":5.401035,"is_reserved":false,"is_disabled":false,"rental_uris":{"android":"levelo://app?vid=5caaa2a4-2863-44f7-ad58-f3c24398eb71","ios":"levelo://app?vid=5caaa2a4-2863-44f7-ad58-f3c24398eb71"},"vehicle_type_id":"4","last_reported":1701356772,"current_range_meters":6000,"station_id":"ce4bh112rcd13ifvqda0","pricing_plan_id":"free"},{"bike_id":"fb5abbec-3fb3-43f9-8ee3-9a40dad19d58","system_id":"levelo_inurba_marseille","lat":43.30642,"lon":5.401031,"is_reserved":false,"is_disabled":false,"rental_uris":{"android":"levelo://app?vid=fb5abbec-3fb3-43f9-8ee3-9a40dad19d58","ios":"levelo://app?vid=fb5abbec-3fb3-43f9-8ee3-9a40dad19d58"},"vehicle_type_id":"4","last_reported":1701356772,"current_range_meters":16000,"station_id":"ce4bh112rcd13ifvqda0","pricing_plan_id":"free"},{"bike_id":"da759c1e-fc19-42ec-9e73-190600291d7d","system_id":"levelo_inurba_marseille","lat":43.30642,"lon":5.401031,"is_reserved":false,"is_disabled":false,"rental_uris":{"android":"levelo://app?vid=da759c1e-fc19-42ec-9e73-190600291d7d","ios":"levelo://app?vid=da759c1e-fc19-42ec-9e73-190600291d7d"},"vehicle_type_id":"4","last_reported":1701356772,"current_range_meters":14000,"station_id":"ce4bh112rcd13ifvqda0","pricing_plan_id":"free"},{"bike_id":"b930dc4e-3488-4b4b-b52b-1874865c3274","system_id":"levelo_inurba_marseille","lat":43.305217,"lon":5.40073,"is_reserved":false,"is_disabled":false,"rental_uris":{"android":"levelo://app?vid=b930dc4e-3488-4b4b-b52b-1874865c3274","ios":"levelo://app?vid=b930dc4e-3488-4b4b-b52b-1874865c3274"},"vehicle_type_id":"4","last_reported":1701356772,"current_range_meters":27200,"station_id":"","pricing_plan_id":"free"},{"bike_id":"f30c5dd7-34bc-443b-9786-45b7c3ec467b","system_id":"levelo_inurba_marseille","lat":43.286593,"lon":5.363346,"is_reserved":false,"is_disabled":false,"rental_uris":{"android":"levelo://app?vid=f30c5dd7-34bc-443b-9786-45b7c3ec467b","ios":"levelo://app?vid=f30c5dd7-34bc-443b-9786-45b7c3ec467b"},"vehicle_type_id":"4","last_reported":1701356772,"current_range_meters":26800,"station_id":"ce4bhah2rcd13ifvqej0","pricing_plan_id":"free"},{"bike_id":"dfe33949-9201-45a0-908c-6ade5e9363fa","system_id":"levelo_inurba_marseille","lat":43.286591,"lon":5.363346,"is_reserved":false,"is_disabled":false,"rental_uris":{"android":"levelo://app?vid=dfe33949-9201-45a0-908c-6ade5e9363fa","ios":"levelo://app?vid=dfe33949-9201-45a0-908c-6ade5e9363fa"},"vehicle_type_id":"4","last_reported":1701356772,"current_range_meters":21200,"station_id":"ce4bhah2rcd13ifvqej0","pricing_plan_id":"free"},{"bike_id":"d2b94af5-c287-4e4b-9d09-5671a3163373","system_id":"levelo_inurba_marseille","lat":43.29529,"lon":5.39396,"is_reserved":false,"is_disabled":false,"rental_uris":{"android":"levelo://app?vid=d2b94af5-c287-4e4b-9d09-5671a3163373","ios":"levelo://app?vid=d2b94af5-c287-4e4b-9d09-5671a3163373"},"vehicle_type_id":"4","last_reported":1701356772,"current_range_meters":15200,"station_id":"ce4bh292rcd13ifvqdf0","pricing_plan_id":"free"},{"bike_id":"ecbf3f7a-f583-4e17-b697-27168a3725cb","system_id":"levelo_inurba_marseille","lat":43.289307,"lon":5.38406,"is_reserved":false,"is_disabled":false,"rental_uris":{"android":"levelo://app?vid=ecbf3f7a-f583-4e17-b697-27168a3725cb","ios":"levelo://app?vid=ecbf3f7a-f583-4e17-b697-27168a3725cb"},"vehicle_type_id":"4","last_reported":1701356772,"current_range_meters":20000,"station_id":"ce4bh612rcd13ifvqe6g","pricing_plan_id":"free"},{"bike_id":"3b0bc265-8a42-43a5-8aca-8069299363d2","system_id":"levelo_inurba_marseille","lat":43.289307,"lon":5.38406,"is_reserved":false,"is_disabled":false,"rental_uris":{"android":"levelo://app?vid=3b0bc265-8a42-43a5-8aca-8069299363d2","ios":"levelo://app?vid=3b0bc265-8a42-43a5-8aca-8069299363d2"},"vehicle_type_id":"4","last_reported":1701356772,"current_range_meters":14000,"station_id":"ce4bh612rcd13ifvqe6g","pricing_plan_id":"free"},{"bike_id":"4f35285f-edd0-4958-bfea-01299b472f34","system_id":"levelo_inurba_marseille","lat":43.289307,"lon":5.38406,"is_reserved":false,"is_disabled":false,"rental_uris":{"android":"levelo://app?vid=4f35285f-edd0-4958-bfea-01299b472f34","ios":"levelo://app?vid=4f35285f-edd0-4958-bfea-01299b472f34"},"vehicle_type_id":"4","last_reported":1701356772,"current_range_meters":19200,"station_id":"ce4bh612rcd13ifvqe6g","pricing_plan_id":"free"},{"bike_id":"f25c72e4-13ad-4fef-89d0-8eda3666e52f","system_id":"levelo_inurba_marseille","lat":43.289307,"lon":5.38406,"is_reserved":false,"is_disabled":false,"rental_uris":{"android":"levelo://app?vid=f25c72e4-13ad-4fef-89d0-8eda3666e52f","ios":"levelo://app?vid=f25c72e4-13ad-4fef-89d0-8eda3666e52f"},"vehicle_type_id":"4","last_reported":1701356772,"current_range_meters":9200,"station_id":"ce4bh612rcd13ifvqe6g","pricing_plan_id":"free"},{"bike_id":"d6f719e8-038b-4b2e-89f0-47ed338bbd8c","system_id":"levelo_inurba_marseille","lat":43.290345,"lon":5.38646,"is_reserved":false,"is_disabled":false,"rental_uris":{"android":"levelo://app?vid=d6f719e8-038b-4b2e-89f0-47ed338bbd8c","ios":"levelo://app?vid=d6f719e8-038b-4b2e-89f0-47ed338bbd8c"},"vehicle_type_id":"4","last_reported":1701356772,"current_range_meters":0,"station_id":"ce4bh4p2rcd13ifvqe0g","pricing_plan_id":"free"},{"bike_id":"b40d8bd0-6c68-4e84-8502-66edd82ef98d","system_id":"levelo_inurba_marseille","lat":43.302759,"lon":5.400793,"is_reserved":false,"is_disabled":false,"rental_uris":{"android":"levelo://app?vid=b40d8bd0-6c68-4e84-8502-66edd82ef98d","ios":"levelo://app?vid=b40d8bd0-6c68-4e84-8502-66edd82ef98d"},"vehicle_type_id":"4","last_reported":1701356772,"current_range_meters":400,"station_id":"ce4bgvh2rcd13ifvqcs0","pricing_plan_id":"free"},{"bike_id":"c366c444-ac11-4120-ab2c-611bd191110c","system_id":"levelo_inurba_marseille","lat":43.316517,"lon":5.404375,"is_reserved":false,"is_disabled":false,"rental_uris":{"android":"levelo://app?vid=c366c444-ac11-4120-ab2c-611bd191110c","ios":"levelo://app?vid=c366c444-ac11-4120-ab2c-611bd191110c"},"vehicle_type_id":"4","last_reported":1701356772,"current_range_meters":24000,"station_id":"ce4bh012rcd13ifvqd00","pricing_plan_id":"free"},{"bike_id":"d9f8048d-e4e3-4ee7-9b1d-b68725a575ea","system_id":"levelo_inurba_marseille","lat":43.316517,"lon":5.404375,"is_reserved":false,"is_disabled":false,"rental_uris":{"android":"levelo://app?vid=d9f8048d-e4e3-4ee7-9b1d-b68725a575ea","ios":"levelo://app?vid=d9f8048d-e4e3-4ee7-9b1d-b68725a575ea"},"vehicle_type_id":"4","last_reported":1701356772,"current_range_meters":18800,"station_id":"ce4bh012rcd13ifvqd00","pricing_plan_id":"free"},{"bike_id":"494cab30-0b59-4fee-b593-e05304d77dfd","system_id":"levelo_inurba_marseille","lat":43.316517,"lon":5.404375,"is_reserved":false,"is_disabled":false,"rental_uris":{"android":"levelo://app?vid=494cab30-0b59-4fee-b593-e05304d77dfd","ios":"levelo://app?vid=494cab30-0b59-4fee-b593-e05304d77dfd"},"vehicle_type_id":"4","last_reported":1701356772,"current_range_meters":15600,"station_id":"ce4bh012rcd13ifvqd00","pricing_plan_id":"free"},{"bike_id":"c8d3d008-a23c-44c6-a9dc-b485b3eaaf26","system_id":"levelo_inurba_marseille","lat":43.31643,"lon":5.4044,"is_reserved":false,"is_disabled":false,"rental_uris":{"android":"levelo://app?vid=c8d3d008-a23c-44c6-a9dc-b485b3eaaf26","ios":"levelo://app?vid=c8d3d008-a23c-44c6-a9dc-b485b3eaaf26"},"vehicle_type_id":"4","last_reported":1701356772,"current_range_meters":24400,"station_id":"ce4bh012rcd13ifvqd00","pricing_plan_id":"free"},{"bike_id":"5eac9492-4f15-4718-96cc-bec2b3b934d6","system_id":"levelo_inurba_marseille","lat":43.291994,"lon":5.392907,"is_reserved":false,"is_disabled":false,"rental_uris":{"android":"levelo://app?vid=5eac9492-4f15-4718-96cc-bec2b3b934d6","ios":"levelo://app?vid=5eac9492-4f15-4718-96cc-bec2b3b934d6"},"vehicle_type_id":"4","last_reported":1701356772,"current_range_meters":28800,"station_id":"ce4bh192rcd13ifvqdd0","pricing_plan_id":"free"},{"bike_id":"0eaea3c8-f805-4def-9118-c3c0bf89543b","system_id":"levelo_inurba_marseille","lat":43.286612,"lon":5.351673,"is_reserved":false,"is_disabled":false,"rental_uris":{"android":"levelo://app?vid=0eaea3c8-f805-4def-9118-c3c0bf89543b","ios":"levelo://app?vid=0eaea3c8-f805-4def-9118-c3c0bf89543b"},"vehicle_type_id":"4","last_reported":1701356772,"current_range_meters":14400,"station_id":"","pricing_plan_id":"free"},{"bike_id":"6750ee84-a8ab-40f7-9b45-c704383bad4e","system_id":"levelo_inurba_marseille","lat":43.284534,"lon":5.358662,"is_reserved":false,"is_disabled":false,"rental_uris":{"android":"levelo://app?vid=6750ee84-a8ab-40f7-9b45-c704383bad4e","ios":"levelo://app?vid=6750ee84-a8ab-40f7-9b45-c704383bad4e"},"vehicle_type_id":"4","last_reported":1701356772,"current_range_meters":32000,"station_id":"ce4bhah2rcd13ifvqei0","pricing_plan_id":"free"},{"bike_id":"9668ee4a-58d4-4f0f-a57a-c05354b40847","system_id":"levelo_inurba_marseille","lat":43.28462,"lon":5.35897,"is_reserved":false,"is_disabled":false,"rental_uris":{"android":"levelo://app?vid=9668ee4a-58d4-4f0f-a57a-c05354b40847","ios":"levelo://app?vid=9668ee4a-58d4-4f0f-a57a-c05354b40847"},"vehicle_type_id":"4","last_reported":1701356772,"current_range_meters":20400,"station_id":"ce4bhah2rcd13ifvqei0","pricing_plan_id":"free"},{"bike_id":"1169e711-9784-47a7-9fd9-3ba03d650b62","system_id":"levelo_inurba_marseille","lat":43.284623,"lon":5.358893,"is_reserved":false,"is_disabled":false,"rental_uris":{"android":"levelo://app?vid=1169e711-9784-47a7-9fd9-3ba03d650b62","ios":"levelo://app?vid=1169e711-9784-47a7-9fd9-3ba03d650b62"},"vehicle_type_id":"4","last_reported":1701356772,"current_range_meters":31200,"station_id":"ce4bhah2rcd13ifvqei0","pricing_plan_id":"free"},{"bike_id":"ff261902-c589-4f64-ba75-c3f9715dcb0c","system_id":"levelo_inurba_marseille","lat":43.28461,"lon":5.35891,"is_reserved":false,"is_disabled":false,"rental_uris":{"android":"levelo://app?vid=ff261902-c589-4f64-ba75-c3f9715dcb0c","ios":"levelo://app?vid=ff261902-c589-4f64-ba75-c3f9715dcb0c"},"vehicle_type_id":"4","last_reported":1701356772,"current_range_meters":15200,"station_id":"ce4bhah2rcd13ifvqei0","pricing_plan_id":"free"},{"bike_id":"20e1c653-8d8c-49a2-b059-080be6806713","system_id":"levelo_inurba_marseille","lat":43.28459,"lon":5.35891,"is_reserved":false,"is_disabled":false,"rental_uris":{"android":"levelo://app?vid=20e1c653-8d8c-49a2-b059-080be6806713","ios":"levelo://app?vid=20e1c653-8d8c-49a2-b059-080be6806713"},"vehicle_type_id":"4","last_reported":1701356772,"current_range_meters":16000,"station_id":"ce4bhah2rcd13ifvqei0","pricing_plan_id":"free"},{"bike_id":"4900d143-ac0b-4f76-bb39-90aa14401aa6","system_id":"levelo_inurba_marseille","lat":43.284534,"lon":5.358662,"is_reserved":false,"is_disabled":false,"rental_uris":{"android":"levelo://app?vid=4900d143-ac0b-4f76-bb39-90aa14401aa6","ios":"levelo://app?vid=4900d143-ac0b-4f76-bb39-90aa14401aa6"},"vehicle_type_id":"4","last_reported":1701356772,"current_range_meters":6800,"station_id":"ce4bhah2rcd13ifvqei0","pricing_plan_id":"free"},{"bike_id":"bad707f4-d0aa-4c2a-872d-ebe9f790b5cf","system_id":"levelo_inurba_marseille","lat":43.284534,"lon":5.358662,"is_reserved":false,"is_disabled":false,"rental_uris":{"android":"levelo://app?vid=bad707f4-d0aa-4c2a-872d-ebe9f790b5cf","ios":"levelo://app?vid=bad707f4-d0aa-4c2a-872d-ebe9f790b5cf"},"vehicle_type_id":"4","last_reported":1701356772,"current_range_meters":25600,"station_id":"ce4bhah2rcd13ifvqei0","pricing_plan_id":"free"},{"bike_id":"48ae9714-1847-4eb3-9e9c-54b0d96149da","system_id":"levelo_inurba_marseille","lat":43.284534,"lon":5.358662,"is_reserved":false,"is_disabled":false,"rental_uris":{"android":"levelo://app?vid=48ae9714-1847-4eb3-9e9c-54b0d96149da","ios":"levelo://app?vid=48ae9714-1847-4eb3-9e9c-54b0d96149da"},"vehicle_type_id":"4","last_reported":1701356772,"current_range_meters":15600,"station_id":"ce4bhah2rcd13ifvqei0","pricing_plan_id":"free"},{"bike_id":"a6e5e751-13ef-408b-941c-8c6cfa7cfe23","system_id":"levelo_inurba_marseille","lat":43.294314,"lon":5.397498,"is_reserved":false,"is_disabled":false,"rental_uris":{"android":"levelo://app?vid=a6e5e751-13ef-408b-941c-8c6cfa7cfe23","ios":"levelo://app?vid=a6e5e751-13ef-408b-941c-8c6cfa7cfe23"},"vehicle_type_id":"4","last_reported":1701356772,"current_range_meters":13200,"station_id":"ce4bh3h2rcd13ifvqdo0","pricing_plan_id":"free"},{"bike_id":"5970b04a-853b-465f-93d8-8a846f35d86e","system_id":"levelo_inurba_marseille","lat":43.319179,"lon":5.407725,"is_reserved":false,"is_disabled":false,"rental_uris":{"android":"levelo://app?vid=5970b04a-853b-465f-93d8-8a846f35d86e","ios":"levelo://app?vid=5970b04a-853b-465f-93d8-8a846f35d86e"},"vehicle_type_id":"4","last_reported":1701356772,"current_range_meters":26400,"station_id":"ce4bhq12rcd13ifvqhig","pricing_plan_id":"free"},{"bike_id":"28470c57-f96e-429a-8714-345b802614cd","system_id":"levelo_inurba_marseille","lat":43.323464,"lon":5.406297,"is_reserved":false,"is_disabled":false,"rental_uris":{"android":"levelo://app?vid=28470c57-f96e-429a-8714-345b802614cd","ios":"levelo://app?vid=28470c57-f96e-429a-8714-345b802614cd"},"vehicle_type_id":"4","last_reported":1701356772,"current_range_meters":22400,"station_id":"ce4bhq92rcd13ifvqhjg","pricing_plan_id":"free"},{"bike_id":"84132732-d5c2-4549-b3ed-7c713f6d4431","system_id":"levelo_inurba_marseille","lat":43.323464,"lon":5.406297,"is_reserved":false,"is_disabled":false,"rental_uris":{"android":"levelo://app?vid=84132732-d5c2-4549-b3ed-7c713f6d4431","ios":"levelo://app?vid=84132732-d5c2-4549-b3ed-7c713f6d4431"},"vehicle_type_id":"4","last_reported":1701356772,"current_range_meters":25200,"station_id":"ce4bhq92rcd13ifvqhjg","pricing_plan_id":"free"},{"bike_id":"d1b9b874-62ba-46ec-bb11-05d93f45364c","system_id":"levelo_inurba_marseille","lat":43.323464,"lon":5.406297,"is_reserved":false,"is_disabled":false,"rental_uris":{"android":"levelo://app?vid=d1b9b874-62ba-46ec-bb11-05d93f45364c","ios":"levelo://app?vid=d1b9b874-62ba-46ec-bb11-05d93f45364c"},"vehicle_type_id":"4","last_reported":1701356772,"current_range_meters":11600,"station_id":"ce4bhq92rcd13ifvqhjg","pricing_plan_id":"free"},{"bike_id":"88316242-5a9f-4754-b49e-7b5107325e04","system_id":"levelo_inurba_marseille","lat":43.297946,"lon":5.404063,"is_reserved":false,"is_disabled":false,"rental_uris":{"android":"levelo://app?vid=88316242-5a9f-4754-b49e-7b5107325e04","ios":"levelo://app?vid=88316242-5a9f-4754-b49e-7b5107325e04"},"vehicle_type_id":"4","last_reported":1701356772,"current_range_meters":22800,"station_id":"ce4bh112rcd13ifvqd90","pricing_plan_id":"free"},{"bike_id":"b8c08d0d-ed1b-4264-ba58-98f77911124b","system_id":"levelo_inurba_marseille","lat":43.284219,"lon":5.3497,"is_reserved":false,"is_disabled":false,"rental_uris":{"android":"levelo://app?vid=b8c08d0d-ed1b-4264-ba58-98f77911124b","ios":"levelo://app?vid=b8c08d0d-ed1b-4264-ba58-98f77911124b"},"vehicle_type_id":"4","last_reported":1701356772,"current_range_meters":17600,"station_id":"ce4bhbh2rcd13ifvqepg","pricing_plan_id":"free"},{"bike_id":"36af4a8a-183a-4f3a-935b-d86d4fff5344","system_id":"levelo_inurba_marseille","lat":43.2827,"lon":5.35077,"is_reserved":false,"is_disabled":false,"rental_uris":{"android":"levelo://app?vid=36af4a8a-183a-4f3a-935b-d86d4fff5344","ios":"levelo://app?vid=36af4a8a-183a-4f3a-935b-d86d4fff5344"},"vehicle_type_id":"4","last_reported":1701356772,"current_range_meters":29600,"station_id":"ce4bhbp2rcd13ifvqerg","pricing_plan_id":"free"},{"bike_id":"cdd76296-f50d-4641-8689-638fcc93c27b","system_id":"levelo_inurba_marseille","lat":43.282754,"lon":5.350519,"is_reserved":false,"is_disabled":false,"rental_uris":{"android":"levelo://app?vid=cdd76296-f50d-4641-8689-638fcc93c27b","ios":"levelo://app?vid=cdd76296-f50d-4641-8689-638fcc93c27b"},"vehicle_type_id":"4","last_reported":1701356772,"current_range_meters":24800,"station_id":"ce4bhbp2rcd13ifvqerg","pricing_plan_id":"free"},{"bike_id":"e6045d19-51cb-4bd2-9a2b-b0f39e5434ea","system_id":"levelo_inurba_marseille","lat":43.282754,"lon":5.350519,"is_reserved":false,"is_disabled":false,"rental_uris":{"android":"levelo://app?vid=e6045d19-51cb-4bd2-9a2b-b0f39e5434ea","ios":"levelo://app?vid=e6045d19-51cb-4bd2-9a2b-b0f39e5434ea"},"vehicle_type_id":"4","last_reported":1701356772,"current_range_meters":15600,"station_id":"ce4bhbp2rcd13ifvqerg","pricing_plan_id":"free"},{"bike_id":"601651f1-60a4-4b6e-afe6-f929056e5f20","system_id":"levelo_inurba_marseille","lat":43.282754,"lon":5.350519,"is_reserved":false,"is_disabled":false,"rental_uris":{"android":"levelo://app?vid=601651f1-60a4-4b6e-afe6-f929056e5f20","ios":"levelo://app?vid=601651f1-60a4-4b6e-afe6-f929056e5f20"},"vehicle_type_id":"4","last_reported":1701356772,"current_range_meters":31600,"station_id":"ce4bhbp2rcd13ifvqerg","pricing_plan_id":"free"},{"bike_id":"1b103df4-73fe-44ca-9995-4b5d688706c6","system_id":"levelo_inurba_marseille","lat":43.28039,"lon":5.369297,"is_reserved":false,"is_disabled":false,"rental_uris":{"android":"levelo://app?vid=1b103df4-73fe-44ca-9995-4b5d688706c6","ios":"levelo://app?vid=1b103df4-73fe-44ca-9995-4b5d688706c6"},"vehicle_type_id":"4","last_reported":1701356772,"current_range_meters":24400,"station_id":"ce4bha12rcd13ifvqef0","pricing_plan_id":"free"},{"bike_id":"f58e675e-031b-46f4-af6c-a27c3b175066","system_id":"levelo_inurba_marseille","lat":43.284317,"lon":5.391844,"is_reserved":false,"is_disabled":false,"rental_uris":{"android":"levelo://app?vid=f58e675e-031b-46f4-af6c-a27c3b175066","ios":"levelo://app?vid=f58e675e-031b-46f4-af6c-a27c3b175066"},"vehicle_type_id":"4","last_reported":1701356772,"current_range_meters":3200,"station_id":"ce4bhoh2rcd13ifvqh5g","pricing_plan_id":"free"},{"bike_id":"f66a1a71-dcaf-4bc3-af9e-d378d34f9f66","system_id":"levelo_inurba_marseille","lat":43.304188,"lon":5.412904,"is_reserved":false,"is_disabled":false,"rental_uris":{"android":"levelo://app?vid=f66a1a71-dcaf-4bc3-af9e-d378d34f9f66","ios":"levelo://app?vid=f66a1a71-dcaf-4bc3-af9e-d378d34f9f66"},"vehicle_type_id":"4","last_reported":1701356772,"current_range_meters":30400,"station_id":"ce4bhop2rcd13ifvqh8g","pricing_plan_id":"free"},{"bike_id":"916b8309-4b9b-4c99-8938-9ea8ec937f62","system_id":"levelo_inurba_marseille","lat":43.304188,"lon":5.412904,"is_reserved":false,"is_disabled":false,"rental_uris":{"android":"levelo://app?vid=916b8309-4b9b-4c99-8938-9ea8ec937f62","ios":"levelo://app?vid=916b8309-4b9b-4c99-8938-9ea8ec937f62"},"vehicle_type_id":"4","last_reported":1701356772,"current_range_meters":29200,"station_id":"ce4bhop2rcd13ifvqh8g","pricing_plan_id":"free"},{"bike_id":"24249979-5807-421e-b0a2-757de3e3c574","system_id":"levelo_inurba_marseille","lat":43.320045,"lon":5.415048,"is_reserved":false,"is_disabled":false,"rental_uris":{"android":"levelo://app?vid=24249979-5807-421e-b0a2-757de3e3c574","ios":"levelo://app?vid=24249979-5807-421e-b0a2-757de3e3c574"},"vehicle_type_id":"4","last_reported":1701356772,"current_range_meters":22400,"station_id":"ce4bhq92rcd13ifvqhkg","pricing_plan_id":"free"},{"bike_id":"b2696898-7106-42ef-b752-b8c3e3f9aae3","system_id":"levelo_inurba_marseille","lat":43.320045,"lon":5.415046,"is_reserved":false,"is_disabled":false,"rental_uris":{"android":"levelo://app?vid=b2696898-7106-42ef-b752-b8c3e3f9aae3","ios":"levelo://app?vid=b2696898-7106-42ef-b752-b8c3e3f9aae3"},"vehicle_type_id":"4","last_reported":1701356772,"current_range_meters":6800,"station_id":"ce4bhq92rcd13ifvqhkg","pricing_plan_id":"free"},{"bike_id":"177561d0-4d07-43aa-8b9f-2d0095ed23db","system_id":"levelo_inurba_marseille","lat":43.299579,"lon":5.413255,"is_reserved":false,"is_disabled":false,"rental_uris":{"android":"levelo://app?vid=177561d0-4d07-43aa-8b9f-2d0095ed23db","ios":"levelo://app?vid=177561d0-4d07-43aa-8b9f-2d0095ed23db"},"vehicle_type_id":"4","last_reported":1701356772,"current_range_meters":30400,"station_id":"ce4bhp12rcd13ifvqh9g","pricing_plan_id":"free"},{"bike_id":"9c943a55-6508-4cfb-854a-3ed8eaa88167","system_id":"levelo_inurba_marseille","lat":43.299579,"lon":5.413255,"is_reserved":false,"is_disabled":false,"rental_uris":{"android":"levelo://app?vid=9c943a55-6508-4cfb-854a-3ed8eaa88167","ios":"levelo://app?vid=9c943a55-6508-4cfb-854a-3ed8eaa88167"},"vehicle_type_id":"4","last_reported":1701356772,"current_range_meters":30400,"station_id":"ce4bhp12rcd13ifvqh9g","pricing_plan_id":"free"},{"bike_id":"090478f9-c763-407f-bcae-33007ff245cf","system_id":"levelo_inurba_marseille","lat":43.299577,"lon":5.413277,"is_reserved":false,"is_disabled":false,"rental_uris":{"android":"levelo://app?vid=090478f9-c763-407f-bcae-33007ff245cf","ios":"levelo://app?vid=090478f9-c763-407f-bcae-33007ff245cf"},"vehicle_type_id":"4","last_reported":1701356772,"current_range_meters":24400,"station_id":"ce4bhp12rcd13ifvqh9g","pricing_plan_id":"free"},{"bike_id":"a8cd9b48-43b6-410b-8152-ee7e45e311e4","system_id":"levelo_inurba_marseille","lat":43.320045,"lon":5.415046,"is_reserved":false,"is_disabled":false,"rental_uris":{"android":"levelo://app?vid=a8cd9b48-43b6-410b-8152-ee7e45e311e4","ios":"levelo://app?vid=a8cd9b48-43b6-410b-8152-ee7e45e311e4"},"vehicle_type_id":"4","last_reported":1701356772,"current_range_meters":25600,"station_id":"ce4bhq92rcd13ifvqhkg","pricing_plan_id":"free"},{"bike_id":"037f6007-6e02-4e14-9e4e-bf67e4cc3efb","system_id":"levelo_inurba_marseille","lat":43.325243,"lon":5.414326,"is_reserved":false,"is_disabled":false,"rental_uris":{"android":"levelo://app?vid=037f6007-6e02-4e14-9e4e-bf67e4cc3efb","ios":"levelo://app?vid=037f6007-6e02-4e14-9e4e-bf67e4cc3efb"},"vehicle_type_id":"4","last_reported":1701356772,"current_range_meters":11200,"station_id":"ce4bhq12rcd13ifvqhhg","pricing_plan_id":"free"},{"bike_id":"63fa3ae4-6225-4e14-b994-bac9aeaf6421","system_id":"levelo_inurba_marseille","lat":43.292571,"lon":5.409107,"is_reserved":false,"is_disabled":false,"rental_uris":{"android":"levelo://app?vid=63fa3ae4-6225-4e14-b994-bac9aeaf6421","ios":"levelo://app?vid=63fa3ae4-6225-4e14-b994-bac9aeaf6421"},"vehicle_type_id":"4","last_reported":1701356772,"current_range_meters":17200,"station_id":"ce4bh192rcd13ifvqdc0","pricing_plan_id":"free"},{"bike_id":"1de005dd-c06f-4bb2-9160-0ceaede74b2f","system_id":"levelo_inurba_marseille","lat":43.292569,"lon":5.409107,"is_reserved":false,"is_disabled":false,"rental_uris":{"android":"levelo://app?vid=1de005dd-c06f-4bb2-9160-0ceaede74b2f","ios":"levelo://app?vid=1de005dd-c06f-4bb2-9160-0ceaede74b2f"},"vehicle_type_id":"4","last_reported":1701356772,"current_range_meters":15600,"station_id":"ce4bh192rcd13ifvqdc0","pricing_plan_id":"free"},{"bike_id":"f23c819e-4e63-48d3-bd73-e9c7554c54bc","system_id":"levelo_inurba_marseille","lat":43.292571,"lon":5.409107,"is_reserved":false,"is_disabled":false,"rental_uris":{"android":"levelo://app?vid=f23c819e-4e63-48d3-bd73-e9c7554c54bc","ios":"levelo://app?vid=f23c819e-4e63-48d3-bd73-e9c7554c54bc"},"vehicle_type_id":"4","last_reported":1701356772,"current_range_meters":31200,"station_id":"ce4bh192rcd13ifvqdc0","pricing_plan_id":"free"},{"bike_id":"9b08e3b0-e14a-4ed0-97e8-c3bba1245836","system_id":"levelo_inurba_marseille","lat":43.292569,"lon":5.409107,"is_reserved":false,"is_disabled":false,"rental_uris":{"android":"levelo://app?vid=9b08e3b0-e14a-4ed0-97e8-c3bba1245836","ios":"levelo://app?vid=9b08e3b0-e14a-4ed0-97e8-c3bba1245836"},"vehicle_type_id":"4","last_reported":1701356772,"current_range_meters":12400,"station_id":"ce4bh192rcd13ifvqdc0","pricing_plan_id":"free"},{"bike_id":"eac3def9-c4e4-4c97-bc85-46d0c8a2637d","system_id":"levelo_inurba_marseille","lat":43.292571,"lon":5.409107,"is_reserved":false,"is_disabled":false,"rental_uris":{"android":"levelo://app?vid=eac3def9-c4e4-4c97-bc85-46d0c8a2637d","ios":"levelo://app?vid=eac3def9-c4e4-4c97-bc85-46d0c8a2637d"},"vehicle_type_id":"4","last_reported":1701356772,"current_range_meters":24400,"station_id":"ce4bh192rcd13ifvqdc0","pricing_plan_id":"free"},{"bike_id":"903158e2-fa49-4694-a89f-778bdb56aecd","system_id":"levelo_inurba_marseille","lat":43.292569,"lon":5.409107,"is_reserved":false,"is_disabled":false,"rental_uris":{"android":"levelo://app?vid=903158e2-fa49-4694-a89f-778bdb56aecd","ios":"levelo://app?vid=903158e2-fa49-4694-a89f-778bdb56aecd"},"vehicle_type_id":"4","last_reported":1701356772,"current_range_meters":24400,"station_id":"ce4bh192rcd13ifvqdc0","pricing_plan_id":"free"},{"bike_id":"458466fa-fe82-4490-9c3f-f3774bb6a74c","system_id":"levelo_inurba_marseille","lat":43.292571,"lon":5.409107,"is_reserved":false,"is_disabled":false,"rental_uris":{"android":"levelo://app?vid=458466fa-fe82-4490-9c3f-f3774bb6a74c","ios":"levelo://app?vid=458466fa-fe82-4490-9c3f-f3774bb6a74c"},"vehicle_type_id":"4","last_reported":1701356772,"current_range_meters":26400,"station_id":"ce4bh192rcd13ifvqdc0","pricing_plan_id":"free"},{"bike_id":"27e52eca-951c-4f9c-9ab9-a67b8611cafd","system_id":"levelo_inurba_marseille","lat":43.292609,"lon":5.409232,"is_reserved":false,"is_disabled":false,"rental_uris":{"android":"levelo://app?vid=27e52eca-951c-4f9c-9ab9-a67b8611cafd","ios":"levelo://app?vid=27e52eca-951c-4f9c-9ab9-a67b8611cafd"},"vehicle_type_id":"4","last_reported":1701356772,"current_range_meters":24000,"station_id":"","pricing_plan_id":"free"},{"bike_id":"6f0a5cfc-c1d3-43ab-833a-cbe3b95e59c9","system_id":"levelo_inurba_marseille","lat":43.280784,"lon":5.396622,"is_reserved":false,"is_disabled":false,"rental_uris":{"android":"levelo://app?vid=6f0a5cfc-c1d3-43ab-833a-cbe3b95e59c9","ios":"levelo://app?vid=6f0a5cfc-c1d3-43ab-833a-cbe3b95e59c9"},"vehicle_type_id":"4","last_reported":1701356772,"current_range_meters":15600,"station_id":"ce4bho12rcd13ifvqh2g","pricing_plan_id":"free"},{"bike_id":"cc28fb87-ce22-4602-a963-8b5e43d8b022","system_id":"levelo_inurba_marseille","lat":43.280784,"lon":5.396622,"is_reserved":false,"is_disabled":false,"rental_uris":{"android":"levelo://app?vid=cc28fb87-ce22-4602-a963-8b5e43d8b022","ios":"levelo://app?vid=cc28fb87-ce22-4602-a963-8b5e43d8b022"},"vehicle_type_id":"4","last_reported":1701356772,"current_range_meters":23200,"station_id":"ce4bho12rcd13ifvqh2g","pricing_plan_id":"free"},{"bike_id":"17ca63d3-79fc-4a99-8453-13d0865e2768","system_id":"levelo_inurba_marseille","lat":43.275625,"lon":5.384392,"is_reserved":false,"is_disabled":false,"rental_uris":{"android":"levelo://app?vid=17ca63d3-79fc-4a99-8453-13d0865e2768","ios":"levelo://app?vid=17ca63d3-79fc-4a99-8453-13d0865e2768"},"vehicle_type_id":"4","last_reported":1701356772,"current_range_meters":26800,"station_id":"ce4bhh92rcd13ifvqfi0","pricing_plan_id":"free"},{"bike_id":"4c2ad448-8794-47d9-9855-14e57795611f","system_id":"levelo_inurba_marseille","lat":43.275625,"lon":5.384392,"is_reserved":false,"is_disabled":false,"rental_uris":{"android":"levelo://app?vid=4c2ad448-8794-47d9-9855-14e57795611f","ios":"levelo://app?vid=4c2ad448-8794-47d9-9855-14e57795611f"},"vehicle_type_id":"4","last_reported":1701356772,"current_range_meters":17200,"station_id":"ce4bhh92rcd13ifvqfi0","pricing_plan_id":"free"},{"bike_id":"7313fffe-2b5a-491d-8527-3518bb295189","system_id":"levelo_inurba_marseille","lat":43.273613,"lon":5.362705,"is_reserved":false,"is_disabled":false,"rental_uris":{"android":"levelo://app?vid=7313fffe-2b5a-491d-8527-3518bb295189","ios":"levelo://app?vid=7313fffe-2b5a-491d-8527-3518bb295189"},"vehicle_type_id":"4","last_reported":1701356772,"current_range_meters":30000,"station_id":"ce4bhbh2rcd13ifvqeo0","pricing_plan_id":"free"},{"bike_id":"95deb5dc-ecfd-48b0-8f42-7ea732b83d1b","system_id":"levelo_inurba_marseille","lat":43.273609,"lon":5.362708,"is_reserved":false,"is_disabled":false,"rental_uris":{"android":"levelo://app?vid=95deb5dc-ecfd-48b0-8f42-7ea732b83d1b","ios":"levelo://app?vid=95deb5dc-ecfd-48b0-8f42-7ea732b83d1b"},"vehicle_type_id":"4","last_reported":1701356772,"current_range_meters":31200,"station_id":"ce4bhbh2rcd13ifvqeo0","pricing_plan_id":"free"},{"bike_id":"c065a29e-b330-4c67-8433-0cff63330c85","system_id":"levelo_inurba_marseille","lat":43.279952,"lon":5.400085,"is_reserved":false,"is_disabled":false,"rental_uris":{"android":"levelo://app?vid=c065a29e-b330-4c67-8433-0cff63330c85","ios":"levelo://app?vid=c065a29e-b330-4c67-8433-0cff63330c85"},"vehicle_type_id":"4","last_reported":1701356772,"current_range_meters":29200,"station_id":"ce4bho92rcd13ifvqh4g","pricing_plan_id":"free"},{"bike_id":"68234c93-50fa-4eb6-ab5d-05c54968fb5c","system_id":"levelo_inurba_marseille","lat":43.279952,"lon":5.400085,"is_reserved":false,"is_disabled":false,"rental_uris":{"android":"levelo://app?vid=68234c93-50fa-4eb6-ab5d-05c54968fb5c","ios":"levelo://app?vid=68234c93-50fa-4eb6-ab5d-05c54968fb5c"},"vehicle_type_id":"4","last_reported":1701356772,"current_range_meters":31600,"station_id":"ce4bho92rcd13ifvqh4g","pricing_plan_id":"free"},{"bike_id":"ec215ff4-b682-4229-97a3-55d8671b7581","system_id":"levelo_inurba_marseille","lat":43.27994,"lon":5.40015,"is_reserved":false,"is_disabled":false,"rental_uris":{"android":"levelo://app?vid=ec215ff4-b682-4229-97a3-55d8671b7581","ios":"levelo://app?vid=ec215ff4-b682-4229-97a3-55d8671b7581"},"vehicle_type_id":"4","last_reported":1701356772,"current_range_meters":29200,"station_id":"ce4bho92rcd13ifvqh4g","pricing_plan_id":"free"},{"bike_id":"61e501c3-0546-42f1-8d3c-3b742d8240c5","system_id":"levelo_inurba_marseille","lat":43.340804,"lon":5.410219,"is_reserved":false,"is_disabled":false,"rental_uris":{"android":"levelo://app?vid=61e501c3-0546-42f1-8d3c-3b742d8240c5","ios":"levelo://app?vid=61e501c3-0546-42f1-8d3c-3b742d8240c5"},"vehicle_type_id":"4","last_reported":1701356772,"current_range_meters":21200,"station_id":"ce4bhqh2rcd13ifvqhlg","pricing_plan_id":"free"},{"bike_id":"10d8c945-4c67-47d0-b030-7532e740b09c","system_id":"levelo_inurba_marseille","lat":43.340804,"lon":5.410219,"is_reserved":false,"is_disabled":false,"rental_uris":{"android":"levelo://app?vid=10d8c945-4c67-47d0-b030-7532e740b09c","ios":"levelo://app?vid=10d8c945-4c67-47d0-b030-7532e740b09c"},"vehicle_type_id":"4","last_reported":1701356772,"current_range_meters":8400,"station_id":"ce4bhqh2rcd13ifvqhlg","pricing_plan_id":"free"},{"bike_id":"845ca869-e8ea-4299-89e7-c60b8a98634c","system_id":"levelo_inurba_marseille","lat":43.273125,"lon":5.390731,"is_reserved":false,"is_disabled":false,"rental_uris":{"android":"levelo://app?vid=845ca869-e8ea-4299-89e7-c60b8a98634c","ios":"levelo://app?vid=845ca869-e8ea-4299-89e7-c60b8a98634c"},"vehicle_type_id":"4","last_reported":1701356772,"current_range_meters":25600,"station_id":"ce4bhgp2rcd13ifvqfe0","pricing_plan_id":"free"},{"bike_id":"c8ed5e12-1b62-44b0-822f-fdf39e791f46","system_id":"levelo_inurba_marseille","lat":43.273125,"lon":5.390731,"is_reserved":false,"is_disabled":false,"rental_uris":{"android":"levelo://app?vid=c8ed5e12-1b62-44b0-822f-fdf39e791f46","ios":"levelo://app?vid=c8ed5e12-1b62-44b0-822f-fdf39e791f46"},"vehicle_type_id":"4","last_reported":1701356772,"current_range_meters":27600,"station_id":"ce4bhgp2rcd13ifvqfe0","pricing_plan_id":"free"},{"bike_id":"dedd568e-1466-4fa3-b7d4-eb022638e90f","system_id":"levelo_inurba_marseille","lat":43.273125,"lon":5.390731,"is_reserved":false,"is_disabled":false,"rental_uris":{"android":"levelo://app?vid=dedd568e-1466-4fa3-b7d4-eb022638e90f","ios":"levelo://app?vid=dedd568e-1466-4fa3-b7d4-eb022638e90f"},"vehicle_type_id":"4","last_reported":1701356772,"current_range_meters":28800,"station_id":"ce4bhgp2rcd13ifvqfe0","pricing_plan_id":"free"},{"bike_id":"e20292e2-0493-486b-9c7e-adfd1fa4c802","system_id":"levelo_inurba_marseille","lat":43.241782,"lon":5.397261,"is_reserved":false,"is_disabled":false,"rental_uris":{"android":"levelo://app?vid=e20292e2-0493-486b-9c7e-adfd1fa4c802","ios":"levelo://app?vid=e20292e2-0493-486b-9c7e-adfd1fa4c802"},"vehicle_type_id":"4","last_reported":1701356772,"current_range_meters":13600,"station_id":"ce4bhn12rcd13ifvqgpg","pricing_plan_id":"free"},{"bike_id":"0e22a7f0-7f2d-41bc-a353-250a6ff1ced2","system_id":"levelo_inurba_marseille","lat":43.273129,"lon":5.390725,"is_reserved":false,"is_disabled":false,"rental_uris":{"android":"levelo://app?vid=0e22a7f0-7f2d-41bc-a353-250a6ff1ced2","ios":"levelo://app?vid=0e22a7f0-7f2d-41bc-a353-250a6ff1ced2"},"vehicle_type_id":"4","last_reported":1701356772,"current_range_meters":30800,"station_id":"ce4bhgp2rcd13ifvqfe0","pricing_plan_id":"free"},{"bike_id":"ddfbe648-f28a-46ab-b233-2b7264591a5b","system_id":"levelo_inurba_marseille","lat":43.273129,"lon":5.390725,"is_reserved":false,"is_disabled":false,"rental_uris":{"android":"levelo://app?vid=ddfbe648-f28a-46ab-b233-2b7264591a5b","ios":"levelo://app?vid=ddfbe648-f28a-46ab-b233-2b7264591a5b"},"vehicle_type_id":"4","last_reported":1701356772,"current_range_meters":30400,"station_id":"ce4bhgp2rcd13ifvqfe0","pricing_plan_id":"free"},{"bike_id":"c755324e-1c4e-47c3-8e59-5ee34b65069f","system_id":"levelo_inurba_marseille","lat":43.304096,"lon":5.425385,"is_reserved":false,"is_disabled":false,"rental_uris":{"android":"levelo://app?vid=c755324e-1c4e-47c3-8e59-5ee34b65069f","ios":"levelo://app?vid=c755324e-1c4e-47c3-8e59-5ee34b65069f"},"vehicle_type_id":"4","last_reported":1701356772,"current_range_meters":28400,"station_id":"ce4bhoh2rcd13ifvqh6g","pricing_plan_id":"free"},{"bike_id":"54182a82-ec7b-4f6a-8bc1-491c00d44b1a","system_id":"levelo_inurba_marseille","lat":43.30414,"lon":5.42546,"is_reserved":false,"is_disabled":false,"rental_uris":{"android":"levelo://app?vid=54182a82-ec7b-4f6a-8bc1-491c00d44b1a","ios":"levelo://app?vid=54182a82-ec7b-4f6a-8bc1-491c00d44b1a"},"vehicle_type_id":"4","last_reported":1701356772,"current_range_meters":22000,"station_id":"ce4bhoh2rcd13ifvqh6g","pricing_plan_id":"free"},{"bike_id":"b9ae69b7-5443-4dd8-a11e-4bcfc86bdecc","system_id":"levelo_inurba_marseille","lat":43.30414,"lon":5.42547,"is_reserved":false,"is_disabled":false,"rental_uris":{"android":"levelo://app?vid=b9ae69b7-5443-4dd8-a11e-4bcfc86bdecc","ios":"levelo://app?vid=b9ae69b7-5443-4dd8-a11e-4bcfc86bdecc"},"vehicle_type_id":"4","last_reported":1701356772,"current_range_meters":26400,"station_id":"ce4bhoh2rcd13ifvqh6g","pricing_plan_id":"free"},{"bike_id":"7335a393-cc37-4e1d-b729-82d3cd0e69fb","system_id":"levelo_inurba_marseille","lat":43.29517,"lon":5.42262,"is_reserved":false,"is_disabled":false,"rental_uris":{"android":"levelo://app?vid=7335a393-cc37-4e1d-b729-82d3cd0e69fb","ios":"levelo://app?vid=7335a393-cc37-4e1d-b729-82d3cd0e69fb"},"vehicle_type_id":"4","last_reported":1701356772,"current_range_meters":20000,"station_id":"ce4bhph2rcd13ifvqhdg","pricing_plan_id":"free"},{"bike_id":"0eb03c97-95af-4ab7-9ae3-e971d60e8e6c","system_id":"levelo_inurba_marseille","lat":43.295511,"lon":5.422926,"is_reserved":false,"is_disabled":false,"rental_uris":{"android":"levelo://app?vid=0eb03c97-95af-4ab7-9ae3-e971d60e8e6c","ios":"levelo://app?vid=0eb03c97-95af-4ab7-9ae3-e971d60e8e6c"},"vehicle_type_id":"4","last_reported":1701356772,"current_range_meters":27200,"station_id":"ce4bhph2rcd13ifvqhdg","pricing_plan_id":"free"},{"bike_id":"658d4183-035d-4d10-9446-5ccfb086e417","system_id":"levelo_inurba_marseille","lat":43.27947,"lon":5.41045,"is_reserved":false,"is_disabled":false,"rental_uris":{"android":"levelo://app?vid=658d4183-035d-4d10-9446-5ccfb086e417","ios":"levelo://app?vid=658d4183-035d-4d10-9446-5ccfb086e417"},"vehicle_type_id":"4","last_reported":1701356772,"current_range_meters":15200,"station_id":"ce4bhnp2rcd13ifvqh0g","pricing_plan_id":"free"},{"bike_id":"25733e2b-a4d9-46cf-9b43-91c8055e85a3","system_id":"levelo_inurba_marseille","lat":43.27953,"lon":5.41055,"is_reserved":false,"is_disabled":false,"rental_uris":{"android":"levelo://app?vid=25733e2b-a4d9-46cf-9b43-91c8055e85a3","ios":"levelo://app?vid=25733e2b-a4d9-46cf-9b43-91c8055e85a3"},"vehicle_type_id":"4","last_reported":1701356772,"current_range_meters":15200,"station_id":"ce4bhnp2rcd13ifvqh0g","pricing_plan_id":"free"},{"bike_id":"97bdd910-2bfd-4537-a998-42eaa61dcc31","system_id":"levelo_inurba_marseille","lat":43.27946,"lon":5.41053,"is_reserved":false,"is_disabled":false,"rental_uris":{"android":"levelo://app?vid=97bdd910-2bfd-4537-a998-42eaa61dcc31","ios":"levelo://app?vid=97bdd910-2bfd-4537-a998-42eaa61dcc31"},"vehicle_type_id":"4","last_reported":1701356772,"current_range_meters":19200,"station_id":"ce4bhnp2rcd13ifvqh0g","pricing_plan_id":"free"},{"bike_id":"213e83a7-63c2-4057-bf0e-a766f08f5ab9","system_id":"levelo_inurba_marseille","lat":43.27903,"lon":5.41225,"is_reserved":false,"is_disabled":false,"rental_uris":{"android":"levelo://app?vid=213e83a7-63c2-4057-bf0e-a766f08f5ab9","ios":"levelo://app?vid=213e83a7-63c2-4057-bf0e-a766f08f5ab9"},"vehicle_type_id":"4","last_reported":1701356772,"current_range_meters":23200,"station_id":"","pricing_plan_id":"free"},{"bike_id":"1ae02d0b-389e-4346-ae49-2be6e15d5224","system_id":"levelo_inurba_marseille","lat":43.26553,"lon":5.37289,"is_reserved":false,"is_disabled":false,"rental_uris":{"android":"levelo://app?vid=1ae02d0b-389e-4346-ae49-2be6e15d5224","ios":"levelo://app?vid=1ae02d0b-389e-4346-ae49-2be6e15d5224"},"vehicle_type_id":"4","last_reported":1701356772,"current_range_meters":25600,"station_id":"ce4bhg12rcd13ifvqf70","pricing_plan_id":"free"},{"bike_id":"9ade936f-5198-4870-867e-83f15eac50dc","system_id":"levelo_inurba_marseille","lat":43.27996,"lon":5.416624,"is_reserved":false,"is_disabled":false,"rental_uris":{"android":"levelo://app?vid=9ade936f-5198-4870-867e-83f15eac50dc","ios":"levelo://app?vid=9ade936f-5198-4870-867e-83f15eac50dc"},"vehicle_type_id":"4","last_reported":1701356772,"current_range_meters":20000,"station_id":"ce4bho12rcd13ifvqh1g","pricing_plan_id":"free"},{"bike_id":"8e8d349d-09ef-483a-8322-0fd5fbd7b38e","system_id":"levelo_inurba_marseille","lat":43.308051,"lon":5.43527,"is_reserved":false,"is_disabled":false,"rental_uris":{"android":"levelo://app?vid=8e8d349d-09ef-483a-8322-0fd5fbd7b38e","ios":"levelo://app?vid=8e8d349d-09ef-483a-8322-0fd5fbd7b38e"},"vehicle_type_id":"4","last_reported":1701356772,"current_range_meters":24400,"station_id":"ce4bhph2rcd13ifvqheg","pricing_plan_id":"free"},{"bike_id":"e24e6a91-9c5a-4e59-8da0-a4779f4c721c","system_id":"levelo_inurba_marseille","lat":43.308051,"lon":5.43527,"is_reserved":false,"is_disabled":false,"rental_uris":{"android":"levelo://app?vid=e24e6a91-9c5a-4e59-8da0-a4779f4c721c","ios":"levelo://app?vid=e24e6a91-9c5a-4e59-8da0-a4779f4c721c"},"vehicle_type_id":"4","last_reported":1701356772,"current_range_meters":22400,"station_id":"ce4bhph2rcd13ifvqheg","pricing_plan_id":"free"},{"bike_id":"7ab63241-0bea-4919-80fc-6d8eef69395f","system_id":"levelo_inurba_marseille","lat":43.308051,"lon":5.43527,"is_reserved":false,"is_disabled":false,"rental_uris":{"android":"levelo://app?vid=7ab63241-0bea-4919-80fc-6d8eef69395f","ios":"levelo://app?vid=7ab63241-0bea-4919-80fc-6d8eef69395f"},"vehicle_type_id":"4","last_reported":1701356772,"current_range_meters":15600,"station_id":"ce4bhph2rcd13ifvqheg","pricing_plan_id":"free"},{"bike_id":"4ccb18b8-3101-46b9-9dcb-0af56c886245","system_id":"levelo_inurba_marseille","lat":43.26573,"lon":5.39025,"is_reserved":false,"is_disabled":false,"rental_uris":{"android":"levelo://app?vid=4ccb18b8-3101-46b9-9dcb-0af56c886245","ios":"levelo://app?vid=4ccb18b8-3101-46b9-9dcb-0af56c886245"},"vehicle_type_id":"4","last_reported":1701356772,"current_range_meters":0,"station_id":"ce4bhe12rcd13ifvqf30","pricing_plan_id":"free"},{"bike_id":"a1aa46a9-23bc-4d19-8ea7-63046b918227","system_id":"levelo_inurba_marseille","lat":43.26567,"lon":5.39013,"is_reserved":false,"is_disabled":false,"rental_uris":{"android":"levelo://app?vid=a1aa46a9-23bc-4d19-8ea7-63046b918227","ios":"levelo://app?vid=a1aa46a9-23bc-4d19-8ea7-63046b918227"},"vehicle_type_id":"4","last_reported":1701356772,"current_range_meters":24400,"station_id":"ce4bhe12rcd13ifvqf30","pricing_plan_id":"free"},{"bike_id":"1975d82d-6810-47d8-a17a-7bfa408b42a5","system_id":"levelo_inurba_marseille","lat":43.26556,"lon":5.39006,"is_reserved":false,"is_disabled":false,"rental_uris":{"android":"levelo://app?vid=1975d82d-6810-47d8-a17a-7bfa408b42a5","ios":"levelo://app?vid=1975d82d-6810-47d8-a17a-7bfa408b42a5"},"vehicle_type_id":"4","last_reported":1701356772,"current_range_meters":22800,"station_id":"ce4bhe12rcd13ifvqf30","pricing_plan_id":"free"},{"bike_id":"c9508467-74f2-4bd6-bd3f-32c4f2e14ad2","system_id":"levelo_inurba_marseille","lat":43.261782,"lon":5.374515,"is_reserved":false,"is_disabled":false,"rental_uris":{"android":"levelo://app?vid=c9508467-74f2-4bd6-bd3f-32c4f2e14ad2","ios":"levelo://app?vid=c9508467-74f2-4bd6-bd3f-32c4f2e14ad2"},"vehicle_type_id":"4","last_reported":1701356772,"current_range_meters":14800,"station_id":"ce4bhgp2rcd13ifvqfc0","pricing_plan_id":"free"},{"bike_id":"0cd6ad51-cc99-4881-9241-ac061eda5e0d","system_id":"levelo_inurba_marseille","lat":43.26182,"lon":5.37442,"is_reserved":false,"is_disabled":false,"rental_uris":{"android":"levelo://app?vid=0cd6ad51-cc99-4881-9241-ac061eda5e0d","ios":"levelo://app?vid=0cd6ad51-cc99-4881-9241-ac061eda5e0d"},"vehicle_type_id":"4","last_reported":1701356772,"current_range_meters":30000,"station_id":"ce4bhgp2rcd13ifvqfc0","pricing_plan_id":"free"},{"bike_id":"6d50931a-5553-495d-be31-bbcf7bdad9de","system_id":"levelo_inurba_marseille","lat":43.31711,"lon":5.43707,"is_reserved":false,"is_disabled":false,"rental_uris":{"android":"levelo://app?vid=6d50931a-5553-495d-be31-bbcf7bdad9de","ios":"levelo://app?vid=6d50931a-5553-495d-be31-bbcf7bdad9de"},"vehicle_type_id":"4","last_reported":1701356772,"current_range_meters":24800,"station_id":"ce4bhp92rcd13ifvqhcg","pricing_plan_id":"free"},{"bike_id":"78889817-2f79-4bdc-b0f6-1aa25e8eb8c6","system_id":"levelo_inurba_marseille","lat":43.262012,"lon":5.379307,"is_reserved":false,"is_disabled":false,"rental_uris":{"android":"levelo://app?vid=78889817-2f79-4bdc-b0f6-1aa25e8eb8c6","ios":"levelo://app?vid=78889817-2f79-4bdc-b0f6-1aa25e8eb8c6"},"vehicle_type_id":"4","last_reported":1701356772,"current_range_meters":19600,"station_id":"ce4bhjp2rcd13ifvqg90","pricing_plan_id":"free"},{"bike_id":"f52cd2a1-b060-4ae2-bad8-5cf9472d5e53","system_id":"levelo_inurba_marseille","lat":43.26202,"lon":5.379299,"is_reserved":false,"is_disabled":false,"rental_uris":{"android":"levelo://app?vid=f52cd2a1-b060-4ae2-bad8-5cf9472d5e53","ios":"levelo://app?vid=f52cd2a1-b060-4ae2-bad8-5cf9472d5e53"},"vehicle_type_id":"4","last_reported":1701356772,"current_range_meters":23200,"station_id":"ce4bhjp2rcd13ifvqg90","pricing_plan_id":"free"},{"bike_id":"88110bcc-534f-457c-9f85-738566924d64","system_id":"levelo_inurba_marseille","lat":43.271388,"lon":5.409269,"is_reserved":false,"is_disabled":false,"rental_uris":{"android":"levelo://app?vid=88110bcc-534f-457c-9f85-738566924d64","ios":"levelo://app?vid=88110bcc-534f-457c-9f85-738566924d64"},"vehicle_type_id":"4","last_reported":1701356772,"current_range_meters":6000,"station_id":"ce4bhl12rcd13ifvqgf0","pricing_plan_id":"free"},{"bike_id":"f0199d75-7a24-466a-b503-ff522a4cd9c6","system_id":"levelo_inurba_marseille","lat":43.298951,"lon":5.436675,"is_reserved":false,"is_disabled":false,"rental_uris":{"android":"levelo://app?vid=f0199d75-7a24-466a-b503-ff522a4cd9c6","ios":"levelo://app?vid=f0199d75-7a24-466a-b503-ff522a4cd9c6"},"vehicle_type_id":"4","last_reported":1701356772,"current_range_meters":24800,"station_id":"ce4bhpp2rcd13ifvqhfg","pricing_plan_id":"free"},{"bike_id":"756979a2-fd14-4620-872a-282b35f74d42","system_id":"levelo_inurba_marseille","lat":43.298768,"lon":5.43643,"is_reserved":false,"is_disabled":false,"rental_uris":{"android":"levelo://app?vid=756979a2-fd14-4620-872a-282b35f74d42","ios":"levelo://app?vid=756979a2-fd14-4620-872a-282b35f74d42"},"vehicle_type_id":"4","last_reported":1701356772,"current_range_meters":23600,"station_id":"ce4bhpp2rcd13ifvqhfg","pricing_plan_id":"free"},{"bike_id":"8e88bbcc-b9ee-46eb-9d34-9108505f0afe","system_id":"levelo_inurba_marseille","lat":43.260225,"lon":5.375455,"is_reserved":false,"is_disabled":false,"rental_uris":{"android":"levelo://app?vid=8e88bbcc-b9ee-46eb-9d34-9108505f0afe","ios":"levelo://app?vid=8e88bbcc-b9ee-46eb-9d34-9108505f0afe"},"vehicle_type_id":"4","last_reported":1701356772,"current_range_meters":10800,"station_id":"ce4bhgh2rcd13ifvqfa0","pricing_plan_id":"free"},{"bike_id":"c90fe0c6-51e1-4f01-9fe5-12a3582777de","system_id":"levelo_inurba_marseille","lat":43.260219,"lon":5.37546,"is_reserved":false,"is_disabled":false,"rental_uris":{"android":"levelo://app?vid=c90fe0c6-51e1-4f01-9fe5-12a3582777de","ios":"levelo://app?vid=c90fe0c6-51e1-4f01-9fe5-12a3582777de"},"vehicle_type_id":"4","last_reported":1701356772,"current_range_meters":21600,"station_id":"ce4bhgh2rcd13ifvqfa0","pricing_plan_id":"free"},{"bike_id":"5ad1a66a-6d02-443c-935a-baa6e1b7c5ec","system_id":"levelo_inurba_marseille","lat":43.281548,"lon":5.42643,"is_reserved":false,"is_disabled":false,"rental_uris":{"android":"levelo://app?vid=5ad1a66a-6d02-443c-935a-baa6e1b7c5ec","ios":"levelo://app?vid=5ad1a66a-6d02-443c-935a-baa6e1b7c5ec"},"vehicle_type_id":"4","last_reported":1701356772,"current_range_meters":14800,"station_id":"ce4bhnh2rcd13ifvqgug","pricing_plan_id":"free"},{"bike_id":"bed25fa4-bb71-4841-86c8-9533507c6bf0","system_id":"levelo_inurba_marseille","lat":43.281548,"lon":5.42643,"is_reserved":false,"is_disabled":false,"rental_uris":{"android":"levelo://app?vid=bed25fa4-bb71-4841-86c8-9533507c6bf0","ios":"levelo://app?vid=bed25fa4-bb71-4841-86c8-9533507c6bf0"},"vehicle_type_id":"4","last_reported":1701356772,"current_range_meters":20400,"station_id":"ce4bhnh2rcd13ifvqgug","pricing_plan_id":"free"},{"bike_id":"4f5fe813-8935-4e78-9631-5e3e105a868a","system_id":"levelo_inurba_marseille","lat":43.281548,"lon":5.42643,"is_reserved":false,"is_disabled":false,"rental_uris":{"android":"levelo://app?vid=4f5fe813-8935-4e78-9631-5e3e105a868a","ios":"levelo://app?vid=4f5fe813-8935-4e78-9631-5e3e105a868a"},"vehicle_type_id":"4","last_reported":1701356772,"current_range_meters":28400,"station_id":"ce4bhnh2rcd13ifvqgug","pricing_plan_id":"free"},{"bike_id":"731957e9-b16f-4bb5-b9d3-0c0a5381731e","system_id":"levelo_inurba_marseille","lat":43.26592,"lon":5.40847,"is_reserved":false,"is_disabled":false,"rental_uris":{"android":"levelo://app?vid=731957e9-b16f-4bb5-b9d3-0c0a5381731e","ios":"levelo://app?vid=731957e9-b16f-4bb5-b9d3-0c0a5381731e"},"vehicle_type_id":"4","last_reported":1701356772,"current_range_meters":0,"station_id":"cjm6bp8fraef2m0cb0m0","pricing_plan_id":"free"},{"bike_id":"85ce7f09-a854-4d4b-b597-b7c1060a8557","system_id":"levelo_inurba_marseille","lat":43.255824,"lon":5.382331,"is_reserved":false,"is_disabled":false,"rental_uris":{"android":"levelo://app?vid=85ce7f09-a854-4d4b-b597-b7c1060a8557","ios":"levelo://app?vid=85ce7f09-a854-4d4b-b597-b7c1060a8557"},"vehicle_type_id":"4","last_reported":1701356772,"current_range_meters":14800,"station_id":"ce4bhih2rcd13ifvqfs0","pricing_plan_id":"free"},{"bike_id":"ae6a23ea-ee31-45f5-b93a-58394a56c974","system_id":"levelo_inurba_marseille","lat":43.255756,"lon":5.382303,"is_reserved":false,"is_disabled":false,"rental_uris":{"android":"levelo://app?vid=ae6a23ea-ee31-45f5-b93a-58394a56c974","ios":"levelo://app?vid=ae6a23ea-ee31-45f5-b93a-58394a56c974"},"vehicle_type_id":"4","last_reported":1701356772,"current_range_meters":30400,"station_id":"ce4bhih2rcd13ifvqfs0","pricing_plan_id":"free"},{"bike_id":"03bc60ee-d0be-434e-b9c7-c00c9ca1c8f9","system_id":"levelo_inurba_marseille","lat":43.27068,"lon":5.42279,"is_reserved":false,"is_disabled":false,"rental_uris":{"android":"levelo://app?vid=03bc60ee-d0be-434e-b9c7-c00c9ca1c8f9","ios":"levelo://app?vid=03bc60ee-d0be-434e-b9c7-c00c9ca1c8f9"},"vehicle_type_id":"4","last_reported":1701356772,"current_range_meters":21600,"station_id":"ce4bhk92rcd13ifvqgb0","pricing_plan_id":"free"},{"bike_id":"ce4a8b89-5467-4175-a7e0-4caeff86e402","system_id":"levelo_inurba_marseille","lat":43.270662,"lon":5.422784,"is_reserved":false,"is_disabled":false,"rental_uris":{"android":"levelo://app?vid=ce4a8b89-5467-4175-a7e0-4caeff86e402","ios":"levelo://app?vid=ce4a8b89-5467-4175-a7e0-4caeff86e402"},"vehicle_type_id":"4","last_reported":1701356772,"current_range_meters":31200,"station_id":"ce4bhk92rcd13ifvqgb0","pricing_plan_id":"free"},{"bike_id":"8a07c10e-58d8-480b-ac33-fcd6e26cdb24","system_id":"levelo_inurba_marseille","lat":43.27068,"lon":5.42281,"is_reserved":false,"is_disabled":false,"rental_uris":{"android":"levelo://app?vid=8a07c10e-58d8-480b-ac33-fcd6e26cdb24","ios":"levelo://app?vid=8a07c10e-58d8-480b-ac33-fcd6e26cdb24"},"vehicle_type_id":"4","last_reported":1701356772,"current_range_meters":31200,"station_id":"ce4bhk92rcd13ifvqgb0","pricing_plan_id":"free"},{"bike_id":"fc2531f9-0626-4a8b-bb54-55135dc152cb","system_id":"levelo_inurba_marseille","lat":43.259013,"lon":5.409301,"is_reserved":false,"is_disabled":false,"rental_uris":{"android":"levelo://app?vid=fc2531f9-0626-4a8b-bb54-55135dc152cb","ios":"levelo://app?vid=fc2531f9-0626-4a8b-bb54-55135dc152cb"},"vehicle_type_id":"4","last_reported":1701356772,"current_range_meters":29200,"station_id":"ce4bhm92rcd13ifvqglg","pricing_plan_id":"free"},{"bike_id":"69ead414-c1bf-4041-afef-3b34df03365a","system_id":"levelo_inurba_marseille","lat":43.257079,"lon":5.411051,"is_reserved":false,"is_disabled":false,"rental_uris":{"android":"levelo://app?vid=69ead414-c1bf-4041-afef-3b34df03365a","ios":"levelo://app?vid=69ead414-c1bf-4041-afef-3b34df03365a"},"vehicle_type_id":"4","last_reported":1701356772,"current_range_meters":12000,"station_id":"ce4bhkp2rcd13ifvqgd0","pricing_plan_id":"free"},{"bike_id":"c66749a5-9341-4545-b781-99d19546de7b","system_id":"levelo_inurba_marseille","lat":43.257079,"lon":5.411051,"is_reserved":false,"is_disabled":false,"rental_uris":{"android":"levelo://app?vid=c66749a5-9341-4545-b781-99d19546de7b","ios":"levelo://app?vid=c66749a5-9341-4545-b781-99d19546de7b"},"vehicle_type_id":"4","last_reported":1701356772,"current_range_meters":10800,"station_id":"ce4bhkp2rcd13ifvqgd0","pricing_plan_id":"free"},{"bike_id":"0031a828-92e9-41d2-942c-8297926aedfc","system_id":"levelo_inurba_marseille","lat":43.257079,"lon":5.411051,"is_reserved":false,"is_disabled":false,"rental_uris":{"android":"levelo://app?vid=0031a828-92e9-41d2-942c-8297926aedfc","ios":"levelo://app?vid=0031a828-92e9-41d2-942c-8297926aedfc"},"vehicle_type_id":"4","last_reported":1701356772,"current_range_meters":6400,"station_id":"ce4bhkp2rcd13ifvqgd0","pricing_plan_id":"free"},{"bike_id":"33f7b115-af43-4f1d-8f09-6cecbfceb1b3","system_id":"levelo_inurba_marseille","lat":43.257079,"lon":5.411051,"is_reserved":false,"is_disabled":false,"rental_uris":{"android":"levelo://app?vid=33f7b115-af43-4f1d-8f09-6cecbfceb1b3","ios":"levelo://app?vid=33f7b115-af43-4f1d-8f09-6cecbfceb1b3"},"vehicle_type_id":"4","last_reported":1701356772,"current_range_meters":10000,"station_id":"ce4bhkp2rcd13ifvqgd0","pricing_plan_id":"free"},{"bike_id":"be867067-419c-4d31-81f8-48a870d99b25","system_id":"levelo_inurba_marseille","lat":43.25007,"lon":5.38911,"is_reserved":false,"is_disabled":false,"rental_uris":{"android":"levelo://app?vid=be867067-419c-4d31-81f8-48a870d99b25","ios":"levelo://app?vid=be867067-419c-4d31-81f8-48a870d99b25"},"vehicle_type_id":"4","last_reported":1701356772,"current_range_meters":18000,"station_id":"ce4bhgp2rcd13ifvqfd0","pricing_plan_id":"free"},{"bike_id":"22cf2c40-663c-472d-a818-51639de93de0","system_id":"levelo_inurba_marseille","lat":43.250023,"lon":5.38919,"is_reserved":false,"is_disabled":false,"rental_uris":{"android":"levelo://app?vid=22cf2c40-663c-472d-a818-51639de93de0","ios":"levelo://app?vid=22cf2c40-663c-472d-a818-51639de93de0"},"vehicle_type_id":"4","last_reported":1701356772,"current_range_meters":30000,"station_id":"ce4bhgp2rcd13ifvqfd0","pricing_plan_id":"free"},{"bike_id":"856f2952-0d85-4a71-9497-5e57411e76d2","system_id":"levelo_inurba_marseille","lat":43.250009,"lon":5.389195,"is_reserved":false,"is_disabled":false,"rental_uris":{"android":"levelo://app?vid=856f2952-0d85-4a71-9497-5e57411e76d2","ios":"levelo://app?vid=856f2952-0d85-4a71-9497-5e57411e76d2"},"vehicle_type_id":"4","last_reported":1701356772,"current_range_meters":31600,"station_id":"ce4bhgp2rcd13ifvqfd0","pricing_plan_id":"free"},{"bike_id":"d4f9021c-ad89-46c1-83a7-86a9c9771265","system_id":"levelo_inurba_marseille","lat":43.250009,"lon":5.389195,"is_reserved":false,"is_disabled":false,"rental_uris":{"android":"levelo://app?vid=d4f9021c-ad89-46c1-83a7-86a9c9771265","ios":"levelo://app?vid=d4f9021c-ad89-46c1-83a7-86a9c9771265"},"vehicle_type_id":"4","last_reported":1701356772,"current_range_meters":31200,"station_id":"ce4bhgp2rcd13ifvqfd0","pricing_plan_id":"free"},{"bike_id":"85f01cb1-5515-46e6-9e1e-e59ba2b18d5b","system_id":"levelo_inurba_marseille","lat":43.250009,"lon":5.389195,"is_reserved":false,"is_disabled":false,"rental_uris":{"android":"levelo://app?vid=85f01cb1-5515-46e6-9e1e-e59ba2b18d5b","ios":"levelo://app?vid=85f01cb1-5515-46e6-9e1e-e59ba2b18d5b"},"vehicle_type_id":"4","last_reported":1701356772,"current_range_meters":18400,"station_id":"ce4bhgp2rcd13ifvqfd0","pricing_plan_id":"free"},{"bike_id":"8b689d44-d5d3-4f5d-b58d-e910f4b7cbf2","system_id":"levelo_inurba_marseille","lat":43.2479,"lon":5.374457,"is_reserved":false,"is_disabled":false,"rental_uris":{"android":"levelo://app?vid=8b689d44-d5d3-4f5d-b58d-e910f4b7cbf2","ios":"levelo://app?vid=8b689d44-d5d3-4f5d-b58d-e910f4b7cbf2"},"vehicle_type_id":"4","last_reported":1701356772,"current_range_meters":13200,"station_id":"ce4bhgh2rcd13ifvqfb0","pricing_plan_id":"free"},{"bike_id":"23ce0bec-966f-4e13-97f1-3879c1123011","system_id":"levelo_inurba_marseille","lat":43.2479,"lon":5.374457,"is_reserved":false,"is_disabled":false,"rental_uris":{"android":"levelo://app?vid=23ce0bec-966f-4e13-97f1-3879c1123011","ios":"levelo://app?vid=23ce0bec-966f-4e13-97f1-3879c1123011"},"vehicle_type_id":"4","last_reported":1701356772,"current_range_meters":24000,"station_id":"ce4bhgh2rcd13ifvqfb0","pricing_plan_id":"free"},{"bike_id":"713fb98f-9070-4b07-9618-5c77b7f4cc9f","system_id":"levelo_inurba_marseille","lat":43.250966,"lon":5.395186,"is_reserved":false,"is_disabled":false,"rental_uris":{"android":"levelo://app?vid=713fb98f-9070-4b07-9618-5c77b7f4cc9f","ios":"levelo://app?vid=713fb98f-9070-4b07-9618-5c77b7f4cc9f"},"vehicle_type_id":"4","last_reported":1701356772,"current_range_meters":7200,"station_id":"ce4bhm12rcd13ifvqgkg","pricing_plan_id":"free"},{"bike_id":"620ee53d-8a6c-4d0d-8284-edd8c7869e03","system_id":"levelo_inurba_marseille","lat":43.24693,"lon":5.382096,"is_reserved":false,"is_disabled":false,"rental_uris":{"android":"levelo://app?vid=620ee53d-8a6c-4d0d-8284-edd8c7869e03","ios":"levelo://app?vid=620ee53d-8a6c-4d0d-8284-edd8c7869e03"},"vehicle_type_id":"4","last_reported":1701356772,"current_range_meters":29200,"station_id":"ce4bhih2rcd13ifvqfr0","pricing_plan_id":"free"},{"bike_id":"bee6d833-6b66-4f49-9d16-e12ed5941826","system_id":"levelo_inurba_marseille","lat":43.25115,"lon":5.40324,"is_reserved":false,"is_disabled":false,"rental_uris":{"android":"levelo://app?vid=bee6d833-6b66-4f49-9d16-e12ed5941826","ios":"levelo://app?vid=bee6d833-6b66-4f49-9d16-e12ed5941826"},"vehicle_type_id":"4","last_reported":1701356772,"current_range_meters":19200,"station_id":"ce4bhlh2rcd13ifvqgig","pricing_plan_id":"free"},{"bike_id":"98bbff79-6c80-4e30-af99-eaf63ad54d22","system_id":"levelo_inurba_marseille","lat":43.246461,"lon":5.389014,"is_reserved":false,"is_disabled":false,"rental_uris":{"android":"levelo://app?vid=98bbff79-6c80-4e30-af99-eaf63ad54d22","ios":"levelo://app?vid=98bbff79-6c80-4e30-af99-eaf63ad54d22"},"vehicle_type_id":"4","last_reported":1701356772,"current_range_meters":5200,"station_id":"ce4bhg12rcd13ifvqf60","pricing_plan_id":"free"},{"bike_id":"a8c25e28-f89e-480f-9f3b-4a0ecaae5379","system_id":"levelo_inurba_marseille","lat":43.246461,"lon":5.389014,"is_reserved":false,"is_disabled":false,"rental_uris":{"android":"levelo://app?vid=a8c25e28-f89e-480f-9f3b-4a0ecaae5379","ios":"levelo://app?vid=a8c25e28-f89e-480f-9f3b-4a0ecaae5379"},"vehicle_type_id":"4","last_reported":1701356772,"current_range_meters":28000,"station_id":"ce4bhg12rcd13ifvqf60","pricing_plan_id":"free"},{"bike_id":"46274338-7531-44ee-8066-1fb7da05be34","system_id":"levelo_inurba_marseille","lat":43.243883,"lon":5.370578,"is_reserved":false,"is_disabled":false,"rental_uris":{"android":"levelo://app?vid=46274338-7531-44ee-8066-1fb7da05be34","ios":"levelo://app?vid=46274338-7531-44ee-8066-1fb7da05be34"},"vehicle_type_id":"4","last_reported":1701356772,"current_range_meters":30000,"station_id":"ce4bhnp2rcd13ifvqgvg","pricing_plan_id":"free"},{"bike_id":"8609ba6f-5dba-4e42-821c-263a41645ca4","system_id":"levelo_inurba_marseille","lat":43.243884,"lon":5.370737,"is_reserved":false,"is_disabled":false,"rental_uris":{"android":"levelo://app?vid=8609ba6f-5dba-4e42-821c-263a41645ca4","ios":"levelo://app?vid=8609ba6f-5dba-4e42-821c-263a41645ca4"},"vehicle_type_id":"4","last_reported":1701356772,"current_range_meters":32000,"station_id":"ce4bhhh2rcd13ifvqfk0","pricing_plan_id":"free"},{"bike_id":"2e159999-87b7-4bc7-a918-309c1622eb4c","system_id":"levelo_inurba_marseille","lat":43.243884,"lon":5.370737,"is_reserved":false,"is_disabled":false,"rental_uris":{"android":"levelo://app?vid=2e159999-87b7-4bc7-a918-309c1622eb4c","ios":"levelo://app?vid=2e159999-87b7-4bc7-a918-309c1622eb4c"},"vehicle_type_id":"4","last_reported":1701356772,"current_range_meters":31600,"station_id":"ce4bhhh2rcd13ifvqfk0","pricing_plan_id":"free"},{"bike_id":"31477cac-dad9-40da-a8f0-2b06ddb732dc","system_id":"levelo_inurba_marseille","lat":43.243884,"lon":5.370736,"is_reserved":false,"is_disabled":false,"rental_uris":{"android":"levelo://app?vid=31477cac-dad9-40da-a8f0-2b06ddb732dc","ios":"levelo://app?vid=31477cac-dad9-40da-a8f0-2b06ddb732dc"},"vehicle_type_id":"4","last_reported":1701356772,"current_range_meters":25600,"station_id":"ce4bhhh2rcd13ifvqfk0","pricing_plan_id":"free"},{"bike_id":"f5f3c97b-df4b-4968-a1c8-a86429b3884f","system_id":"levelo_inurba_marseille","lat":43.243884,"lon":5.370737,"is_reserved":false,"is_disabled":false,"rental_uris":{"android":"levelo://app?vid=f5f3c97b-df4b-4968-a1c8-a86429b3884f","ios":"levelo://app?vid=f5f3c97b-df4b-4968-a1c8-a86429b3884f"},"vehicle_type_id":"4","last_reported":1701356772,"current_range_meters":25600,"station_id":"ce4bhhh2rcd13ifvqfk0","pricing_plan_id":"free"},{"bike_id":"6d6239be-9ca4-4e23-a40c-e8cb68671c03","system_id":"levelo_inurba_marseille","lat":43.243884,"lon":5.370736,"is_reserved":false,"is_disabled":false,"rental_uris":{"android":"levelo://app?vid=6d6239be-9ca4-4e23-a40c-e8cb68671c03","ios":"levelo://app?vid=6d6239be-9ca4-4e23-a40c-e8cb68671c03"},"vehicle_type_id":"4","last_reported":1701356772,"current_range_meters":31200,"station_id":"ce4bhhh2rcd13ifvqfk0","pricing_plan_id":"free"},{"bike_id":"2ada2448-4297-4146-8f4d-5714674e6368","system_id":"levelo_inurba_marseille","lat":43.243884,"lon":5.370737,"is_reserved":false,"is_disabled":false,"rental_uris":{"android":"levelo://app?vid=2ada2448-4297-4146-8f4d-5714674e6368","ios":"levelo://app?vid=2ada2448-4297-4146-8f4d-5714674e6368"},"vehicle_type_id":"4","last_reported":1701356772,"current_range_meters":14400,"station_id":"ce4bhhh2rcd13ifvqfk0","pricing_plan_id":"free"},{"bike_id":"9d4d01bb-db24-48a7-8a26-fa45bd0aead6","system_id":"levelo_inurba_marseille","lat":43.243884,"lon":5.370737,"is_reserved":false,"is_disabled":false,"rental_uris":{"android":"levelo://app?vid=9d4d01bb-db24-48a7-8a26-fa45bd0aead6","ios":"levelo://app?vid=9d4d01bb-db24-48a7-8a26-fa45bd0aead6"},"vehicle_type_id":"4","last_reported":1701356772,"current_range_meters":8800,"station_id":"ce4bhhh2rcd13ifvqfk0","pricing_plan_id":"free"},{"bike_id":"2360896c-47a3-40b1-ba6e-3bb300a2ce00","system_id":"levelo_inurba_marseille","lat":43.24071,"lon":5.37761,"is_reserved":false,"is_disabled":false,"rental_uris":{"android":"levelo://app?vid=2360896c-47a3-40b1-ba6e-3bb300a2ce00","ios":"levelo://app?vid=2360896c-47a3-40b1-ba6e-3bb300a2ce00"},"vehicle_type_id":"4","last_reported":1701356772,"current_range_meters":22400,"station_id":"ce4bhnp2rcd13ifvqgvg","pricing_plan_id":"free"},{"bike_id":"dea79dbf-a50b-4d1e-930d-04cdf6be5d75","system_id":"levelo_inurba_marseille","lat":43.2407,"lon":5.37763,"is_reserved":false,"is_disabled":false,"rental_uris":{"android":"levelo://app?vid=dea79dbf-a50b-4d1e-930d-04cdf6be5d75","ios":"levelo://app?vid=dea79dbf-a50b-4d1e-930d-04cdf6be5d75"},"vehicle_type_id":"4","last_reported":1701356772,"current_range_meters":26800,"station_id":"ce4bhnp2rcd13ifvqgvg","pricing_plan_id":"free"},{"bike_id":"422270a1-84b6-4c2c-b4e8-c2dc0bea77dd","system_id":"levelo_inurba_marseille","lat":43.240623,"lon":5.377642,"is_reserved":false,"is_disabled":false,"rental_uris":{"android":"levelo://app?vid=422270a1-84b6-4c2c-b4e8-c2dc0bea77dd","ios":"levelo://app?vid=422270a1-84b6-4c2c-b4e8-c2dc0bea77dd"},"vehicle_type_id":"4","last_reported":1701356772,"current_range_meters":30800,"station_id":"ce4bhnp2rcd13ifvqgvg","pricing_plan_id":"free"},{"bike_id":"91df8f9a-6a54-46ce-8562-7213a1a5286c","system_id":"levelo_inurba_marseille","lat":43.231919,"lon":5.355532,"is_reserved":false,"is_disabled":false,"rental_uris":{"android":"levelo://app?vid=91df8f9a-6a54-46ce-8562-7213a1a5286c","ios":"levelo://app?vid=91df8f9a-6a54-46ce-8562-7213a1a5286c"},"vehicle_type_id":"4","last_reported":1701356772,"current_range_meters":12000,"station_id":"ce4bhu92rcd13ifvqi70","pricing_plan_id":"free"},{"bike_id":"b37cf8bc-ef87-4960-b38c-3279b894369f","system_id":"levelo_inurba_marseille","lat":43.231923,"lon":5.355545,"is_reserved":false,"is_disabled":false,"rental_uris":{"android":"levelo://app?vid=b37cf8bc-ef87-4960-b38c-3279b894369f","ios":"levelo://app?vid=b37cf8bc-ef87-4960-b38c-3279b894369f"},"vehicle_type_id":"4","last_reported":1701356772,"current_range_meters":31600,"station_id":"ce4bhu92rcd13ifvqi70","pricing_plan_id":"free"},{"bike_id":"d1703505-b125-4a98-a807-11024241bc04","system_id":"levelo_inurba_marseille","lat":43.231923,"lon":5.355545,"is_reserved":false,"is_disabled":false,"rental_uris":{"android":"levelo://app?vid=d1703505-b125-4a98-a807-11024241bc04","ios":"levelo://app?vid=d1703505-b125-4a98-a807-11024241bc04"},"vehicle_type_id":"4","last_reported":1701356772,"current_range_meters":31600,"station_id":"ce4bhu92rcd13ifvqi70","pricing_plan_id":"free"},{"bike_id":"d75baf64-9632-4edf-ae5a-7b75bff5c119","system_id":"levelo_inurba_marseille","lat":43.231562,"lon":5.436933,"is_reserved":false,"is_disabled":false,"rental_uris":{"android":"levelo://app?vid=d75baf64-9632-4edf-ae5a-7b75bff5c119","ios":"levelo://app?vid=d75baf64-9632-4edf-ae5a-7b75bff5c119"},"vehicle_type_id":"4","last_reported":1701356772,"current_range_meters":27600,"station_id":"ce4bhmp2rcd13ifvqgog","pricing_plan_id":"free"},{"bike_id":"efff7272-587c-49a1-9a30-8799331953fa","system_id":"levelo_inurba_marseille","lat":43.231562,"lon":5.436933,"is_reserved":false,"is_disabled":false,"rental_uris":{"android":"levelo://app?vid=efff7272-587c-49a1-9a30-8799331953fa","ios":"levelo://app?vid=efff7272-587c-49a1-9a30-8799331953fa"},"vehicle_type_id":"4","last_reported":1701356772,"current_range_meters":13200,"station_id":"ce4bhmp2rcd13ifvqgog","pricing_plan_id":"free"},{"bike_id":"24e3ff79-46b3-41bd-89a3-16c527066233","system_id":"levelo_inurba_marseille","lat":43.231562,"lon":5.436933,"is_reserved":false,"is_disabled":false,"rental_uris":{"android":"levelo://app?vid=24e3ff79-46b3-41bd-89a3-16c527066233","ios":"levelo://app?vid=24e3ff79-46b3-41bd-89a3-16c527066233"},"vehicle_type_id":"4","last_reported":1701356772,"current_range_meters":31200,"station_id":"ce4bhmp2rcd13ifvqgog","pricing_plan_id":"free"},{"bike_id":"0e927ffd-e778-4a11-906b-584735d1e66f","system_id":"levelo_inurba_marseille","lat":43.231562,"lon":5.436933,"is_reserved":false,"is_disabled":false,"rental_uris":{"android":"levelo://app?vid=0e927ffd-e778-4a11-906b-584735d1e66f","ios":"levelo://app?vid=0e927ffd-e778-4a11-906b-584735d1e66f"},"vehicle_type_id":"4","last_reported":1701356772,"current_range_meters":27600,"station_id":"ce4bhmp2rcd13ifvqgog","pricing_plan_id":"free"},