{"last_updated":1741072196,"ttl":60,"version":"2.2","data":{"bikes":[{"bike_id":"108038a1-0485-4d5f-8a48-347108655d51","system_id":"levelo_inurba_marseille","lat":43.26563,"lon":5.39015,"is_reserved":false,"is_disabled":false,"rental_uris":{"android":"levelo://app?vid=108038a1-0485-4d5f-8a48-347108655d51","ios":"levelo://app?vid=108038a1-0485-4d5f-8a48-347108655d51"},"vehicle_type_id":"4","last_reported":1741072197,"current_range_meters":2800,"station_id":"ce4bhe12rcd13ifvqf30","pricing_plan_id":"cebpf4jnsgd1na2vs0mg"},{"bike_id":"e6378c6c-dbce-4ead-9d7c-bc823458c722","system_id":"levelo_inurba_marseille","lat":43.29575,"lon":5.37518,"is_reserved":false,"is_disabled":false,"rental_uris":{"android":"levelo://app?vid=e6378c6c-dbce-4ead-9d7c-bc823458c722","ios":"levelo://app?vid=e6378c6c-dbce-4ead-9d7c-bc823458c722"},"vehicle_type_id":"4","last_reported":1741072197,"current_range_meters":3200,"station_id":"ce4bgh92rcd13ifvqb50","pricing_plan_id":"cebpf4jnsgd1na2vs0mg"},{"bike_id":"89c8c354-abdd-470d-87be-8e6fe400208b","system_id":"levelo_inurba_marseille","lat":43.26599,"lon":5.39037,"is_reserved":false,"is_disabled":false,"rental_uris":{"android":"levelo://app?vid=89c8c354-abdd-470d-87be-8e6fe400208b","ios":"levelo://app?vid=89c8c354-abdd-470d-87be-8e6fe400208b"},"vehicle_type_id":"4","last_reported":1741072197,"current_range_meters":3200,"station_id":"","pricing_plan_id":"cebpf4jnsgd1na2vs0mg"},{"bike_id":"81fb45c2-f60d-4341-b32d-23728888b93f","system_id":"levelo_inurba_marseille","lat":43.30465,"lon":5.37915,"is_reserved":false,"is_disabled":false,"rental_uris":{"android":"levelo://app?vid=81fb45c2-f60d-4341-b32d-23728888b93f","ios":"levelo://app?vid=81fb45c2-f60d-4341-b32d-23728888b93f"},"vehicle_type_id":"4","last_reported":1741072197,"current_range_meters":3200,"station_id":"ce4bgup2rcd13ifvqcn0","pricing_plan_id":"cebpf4jnsgd1na2vs0mg"},{"bike_id":"07d068ff-1d54-4e31-883a-bdd86e299885","system_id":"levelo_inurba_marseille","lat":43.28937,"lon":5.36638,"is_reserved":false,"is_disabled":false,"rental_uris":{"android":"levelo://app?vid=07d068ff-1d54-4e31-883a-bdd86e299885","ios":"levelo://app?vid=07d068ff-1d54-4e31-883a-bdd86e299885"},"vehicle_type_id":"4","last_reported":1741072197,"current_range_meters":3200,"station_id":"ce4bhap2rcd13ifvqek0","pricing_plan_id":"cebpf4jnsgd1na2vs0mg"},{"bike_id":"fd55ec61-ea03-4691-8f74-530e74ea7311","system_id":"levelo_inurba_marseille","lat":43.24999,"lon":5.38948,"is_reserved":false,"is_disabled":false,"rental_uris":{"android":"levelo://app?vid=fd55ec61-ea03-4691-8f74-530e74ea7311","ios":"levelo://app?vid=fd55ec61-ea03-4691-8f74-530e74ea7311"},"vehicle_type_id":"4","last_reported":1741072197,"current_range_meters":3600,"station_id":"ce4bhgp2rcd13ifvqfd0","pricing_plan_id":"cebpf4jnsgd1na2vs0mg"},{"bike_id":"face0865-d642-455a-b3a5-4e8ed90ff01b","system_id":"levelo_inurba_marseille","lat":43.25816,"lon":5.39433,"is_reserved":false,"is_disabled":true,"rental_uris":{"android":"levelo://app?vid=face0865-d642-455a-b3a5-4e8ed90ff01b","ios":"levelo://app?vid=face0865-d642-455a-b3a5-4e8ed90ff01b"},"vehicle_type_id":"4","last_reported":1741072197,"current_range_meters":3600,"station_id":"ce4bhip2rcd13ifvqft0","pricing_plan_id":"cebpf4jnsgd1na2vs0mg"},{"bike_id":"e7bf9aa4-ebab-4733-bd2d-62b9efb9b294","system_id":"levelo_inurba_marseille","lat":43.27473,"lon":5.42455,"is_reserved":false,"is_disabled":true,"rental_uris":{"android":"levelo://app?vid=e7bf9aa4-ebab-4733-bd2d-62b9efb9b294","ios":"levelo://app?vid=e7bf9aa4-ebab-4733-bd2d-62b9efb9b294"},"vehicle_type_id":"4","last_reported":1741072197,"current_range_meters":3600,"station_id":"ce4bhn92rcd13ifvqgrg","pricing_plan_id":"cebpf4jnsgd1na2vs0mg"},{"bike_id":"84e3ec97-0043-452d-80d7-39e2bcaaf420","system_id":"levelo_inurba_marseille","lat":43.302814,"lon":5.377055,"is_reserved":false,"is_disabled":false,"rental_uris":{"android":"levelo://app?vid=84e3ec97-0043-452d-80d7-39e2bcaaf420","ios":"levelo://app?vid=84e3ec97-0043-452d-80d7-39e2bcaaf420"},"vehicle_type_id":"4","last_reported":1741072197,"current_range_meters":3600,"station_id":"","pricing_plan_id":"cebpf4jnsgd1na2vs0mg"},{"bike_id":"23c20c41-e8a4-4dc6-b7b9-05b6d6793f3e","system_id":"levelo_inurba_marseille","lat":43.27793,"lon":5.40732,"is_reserved":false,"is_disabled":false,"rental_uris":{"android":"levelo://app?vid=23c20c41-e8a4-4dc6-b7b9-05b6d6793f3e","ios":"levelo://app?vid=23c20c41-e8a4-4dc6-b7b9-05b6d6793f3e"},"vehicle_type_id":"4","last_reported":1741072197,"current_range_meters":4400,"station_id":"ce4bhnh2rcd13ifvqgtg","pricing_plan_id":"cebpf4jnsgd1na2vs0mg"},{"bike_id":"e33c13e9-2819-4f9f-a321-3021596a4181","system_id":"levelo_inurba_marseille","lat":43.23151,"lon":5.43725,"is_reserved":false,"is_disabled":false,"rental_uris":{"android":"levelo://app?vid=e33c13e9-2819-4f9f-a321-3021596a4181","ios":"levelo://app?vid=e33c13e9-2819-4f9f-a321-3021596a4181"},"vehicle_type_id":"4","last_reported":1741072197,"current_range_meters":4400,"station_id":"ce4bhmp2rcd13ifvqgog","pricing_plan_id":"cebpf4jnsgd1na2vs0mg"},{"bike_id":"434a1347-b067-4ce3-a927-c237eb11cba8","system_id":"levelo_inurba_marseille","lat":43.2979,"lon":5.40418,"is_reserved":false,"is_disabled":false,"rental_uris":{"android":"levelo://app?vid=434a1347-b067-4ce3-a927-c237eb11cba8","ios":"levelo://app?vid=434a1347-b067-4ce3-a927-c237eb11cba8"},"vehicle_type_id":"4","last_reported":1741072197,"current_range_meters":4800,"station_id":"ce4bh112rcd13ifvqd90","pricing_plan_id":"cebpf4jnsgd1na2vs0mg"},{"bike_id":"7bea709c-85af-4216-a8e5-19de784dd721","system_id":"levelo_inurba_marseille","lat":43.27812,"lon":5.40715,"is_reserved":false,"is_disabled":false,"rental_uris":{"android":"levelo://app?vid=7bea709c-85af-4216-a8e5-19de784dd721","ios":"levelo://app?vid=7bea709c-85af-4216-a8e5-19de784dd721"},"vehicle_type_id":"4","last_reported":1741072197,"current_range_meters":4800,"station_id":"ce4bhnh2rcd13ifvqgtg","pricing_plan_id":"cebpf4jnsgd1na2vs0mg"},{"bike_id":"9fe1613c-a605-4b53-a200-fe06043a71ba","system_id":"levelo_inurba_marseille","lat":43.30558,"lon":5.38408,"is_reserved":false,"is_disabled":false,"rental_uris":{"android":"levelo://app?vid=9fe1613c-a605-4b53-a200-fe06043a71ba","ios":"levelo://app?vid=9fe1613c-a605-4b53-a200-fe06043a71ba"},"vehicle_type_id":"4","last_reported":1741072197,"current_range_meters":4800,"station_id":"ce4bgg92rcd13ifvqb30","pricing_plan_id":"cebpf4jnsgd1na2vs0mg"},{"bike_id":"1621e0c3-0194-4d15-8a8b-87beecb39238","system_id":"levelo_inurba_marseille","lat":43.3199,"lon":5.38167,"is_reserved":false,"is_disabled":true,"rental_uris":{"android":"levelo://app?vid=1621e0c3-0194-4d15-8a8b-87beecb39238","ios":"levelo://app?vid=1621e0c3-0194-4d15-8a8b-87beecb39238"},"vehicle_type_id":"4","last_reported":1741072197,"current_range_meters":5600,"station_id":"ce4bhr12rcd13ifvqhpg","pricing_plan_id":"cebpf4jnsgd1na2vs0mg"},{"bike_id":"e4ba411f-8746-4416-8f80-7f375fde15f2","system_id":"levelo_inurba_marseille","lat":43.28981,"lon":5.37836,"is_reserved":false,"is_disabled":false,"rental_uris":{"android":"levelo://app?vid=e4ba411f-8746-4416-8f80-7f375fde15f2","ios":"levelo://app?vid=e4ba411f-8746-4416-8f80-7f375fde15f2"},"vehicle_type_id":"4","last_reported":1741072197,"current_range_meters":5600,"station_id":"ce4bh9p2rcd13ifvqed0","pricing_plan_id":"cebpf4jnsgd1na2vs0mg"},{"bike_id":"8b97cf88-8267-451a-aeb3-ab86d27d236c","system_id":"levelo_inurba_marseille","lat":43.28941,"lon":5.36384,"is_reserved":false,"is_disabled":false,"rental_uris":{"android":"levelo://app?vid=8b97cf88-8267-451a-aeb3-ab86d27d236c","ios":"levelo://app?vid=8b97cf88-8267-451a-aeb3-ab86d27d236c"},"vehicle_type_id":"4","last_reported":1741072197,"current_range_meters":5600,"station_id":"ce4bhc92rcd13ifvqetg","pricing_plan_id":"cebpf4jnsgd1na2vs0mg"},{"bike_id":"995a62b4-4df9-4a30-aa5b-cc74bd5331cb","system_id":"levelo_inurba_marseille","lat":43.29036,"lon":5.38647,"is_reserved":false,"is_disabled":false,"rental_uris":{"android":"levelo://app?vid=995a62b4-4df9-4a30-aa5b-cc74bd5331cb","ios":"levelo://app?vid=995a62b4-4df9-4a30-aa5b-cc74bd5331cb"},"vehicle_type_id":"4","last_reported":1741072197,"current_range_meters":5600,"station_id":"ce4bh4p2rcd13ifvqe0g","pricing_plan_id":"cebpf4jnsgd1na2vs0mg"},{"bike_id":"73681137-6538-4684-87ec-aa9b29720d1e","system_id":"levelo_inurba_marseille","lat":43.23197,"lon":5.35537,"is_reserved":false,"is_disabled":false,"rental_uris":{"android":"levelo://app?vid=73681137-6538-4684-87ec-aa9b29720d1e","ios":"levelo://app?vid=73681137-6538-4684-87ec-aa9b29720d1e"},"vehicle_type_id":"4","last_reported":1741072197,"current_range_meters":5600,"station_id":"ce4bhu92rcd13ifvqi70","pricing_plan_id":"cebpf4jnsgd1na2vs0mg"},{"bike_id":"2a7ef1a9-6915-4e2e-bca9-64bc63a66d58","system_id":"levelo_inurba_marseille","lat":43.29603,"lon":5.3811,"is_reserved":false,"is_disabled":false,"rental_uris":{"android":"levelo://app?vid=2a7ef1a9-6915-4e2e-bca9-64bc63a66d58","ios":"levelo://app?vid=2a7ef1a9-6915-4e2e-bca9-64bc63a66d58"},"vehicle_type_id":"4","last_reported":1741072197,"current_range_meters":5600,"station_id":"ce4bgl12rcd13ifvqbo0","pricing_plan_id":"cebpf4jnsgd1na2vs0mg"},{"bike_id":"b621cb14-e59a-4c63-8c31-0518630d9d13","system_id":"levelo_inurba_marseille","lat":43.2705,"lon":5.42308,"is_reserved":false,"is_disabled":false,"rental_uris":{"android":"levelo://app?vid=b621cb14-e59a-4c63-8c31-0518630d9d13","ios":"levelo://app?vid=b621cb14-e59a-4c63-8c31-0518630d9d13"},"vehicle_type_id":"4","last_reported":1741072197,"current_range_meters":5600,"station_id":"ce4bhk92rcd13ifvqgb0","pricing_plan_id":"cebpf4jnsgd1na2vs0mg"},{"bike_id":"3df256a4-3af2-4e09-ac29-246774d99c68","system_id":"levelo_inurba_marseille","lat":43.23189,"lon":5.39969,"is_reserved":false,"is_disabled":false,"rental_uris":{"android":"levelo://app?vid=3df256a4-3af2-4e09-ac29-246774d99c68","ios":"levelo://app?vid=3df256a4-3af2-4e09-ac29-246774d99c68"},"vehicle_type_id":"4","last_reported":1741072197,"current_range_meters":5600,"station_id":"ce4bhn12rcd13ifvqgqg","pricing_plan_id":"cebpf4jnsgd1na2vs0mg"},{"bike_id":"9db49163-1bcf-4cb4-975b-b1e9ddf4e6d9","system_id":"levelo_inurba_marseille","lat":43.27166,"lon":5.41006,"is_reserved":false,"is_disabled":false,"rental_uris":{"android":"levelo://app?vid=9db49163-1bcf-4cb4-975b-b1e9ddf4e6d9","ios":"levelo://app?vid=9db49163-1bcf-4cb4-975b-b1e9ddf4e6d9"},"vehicle_type_id":"4","last_reported":1741072197,"current_range_meters":5600,"station_id":"ce4bhl12rcd13ifvqgf0","pricing_plan_id":"cebpf4jnsgd1na2vs0mg"},{"bike_id":"f2a145a9-bb60-472c-9af8-518bbad15bdf","system_id":"levelo_inurba_marseille","lat":43.28936,"lon":5.36392,"is_reserved":false,"is_disabled":false,"rental_uris":{"android":"levelo://app?vid=f2a145a9-bb60-472c-9af8-518bbad15bdf","ios":"levelo://app?vid=f2a145a9-bb60-472c-9af8-518bbad15bdf"},"vehicle_type_id":"4","last_reported":1741072197,"current_range_meters":5600,"station_id":"ce4bhc92rcd13ifvqetg","pricing_plan_id":"cebpf4jnsgd1na2vs0mg"},{"bike_id":"39417ca2-2175-48b1-b974-d12a550664e9","system_id":"levelo_inurba_marseille","lat":43.26948,"lon":5.38626,"is_reserved":false,"is_disabled":false,"rental_uris":{"android":"levelo://app?vid=39417ca2-2175-48b1-b974-d12a550664e9","ios":"levelo://app?vid=39417ca2-2175-48b1-b974-d12a550664e9"},"vehicle_type_id":"4","last_reported":1741072197,"current_range_meters":6000,"station_id":"ce4bhh92rcd13ifvqfh0","pricing_plan_id":"cebpf4jnsgd1na2vs0mg"},{"bike_id":"351a78a5-52e0-4fcc-968c-d2f55f5b2d81","system_id":"levelo_inurba_marseille","lat":43.262331,"lon":5.374422,"is_reserved":false,"is_disabled":false,"rental_uris":{"android":"levelo://app?vid=351a78a5-52e0-4fcc-968c-d2f55f5b2d81","ios":"levelo://app?vid=351a78a5-52e0-4fcc-968c-d2f55f5b2d81"},"vehicle_type_id":"4","last_reported":1741072197,"current_range_meters":6000,"station_id":"ce4bhbp2rcd13ifvqerg","pricing_plan_id":"cebpf4jnsgd1na2vs0mg"},{"bike_id":"339ea272-f25a-456c-877c-feadbff46552","system_id":"levelo_inurba_marseille","lat":43.273876,"lon":5.39344,"is_reserved":false,"is_disabled":false,"rental_uris":{"android":"levelo://app?vid=339ea272-f25a-456c-877c-feadbff46552","ios":"levelo://app?vid=339ea272-f25a-456c-877c-feadbff46552"},"vehicle_type_id":"4","last_reported":1741072197,"current_range_meters":6000,"station_id":"","pricing_plan_id":"cebpf4jnsgd1na2vs0mg"},{"bike_id":"9ee3d017-a864-4e85-a47f-e27d4c7b327f","system_id":"levelo_inurba_marseille","lat":43.27813,"lon":5.40728,"is_reserved":false,"is_disabled":false,"rental_uris":{"android":"levelo://app?vid=9ee3d017-a864-4e85-a47f-e27d4c7b327f","ios":"levelo://app?vid=9ee3d017-a864-4e85-a47f-e27d4c7b327f"},"vehicle_type_id":"4","last_reported":1741072197,"current_range_meters":6000,"station_id":"ce4bhnh2rcd13ifvqgtg","pricing_plan_id":"cebpf4jnsgd1na2vs0mg"},{"bike_id":"db4fc20d-ab97-4929-95e5-f6242e1f0965","system_id":"levelo_inurba_marseille","lat":43.25568,"lon":5.38264,"is_reserved":false,"is_disabled":false,"rental_uris":{"android":"levelo://app?vid=db4fc20d-ab97-4929-95e5-f6242e1f0965","ios":"levelo://app?vid=db4fc20d-ab97-4929-95e5-f6242e1f0965"},"vehicle_type_id":"4","last_reported":1741072197,"current_range_meters":6000,"station_id":"ce4bhih2rcd13ifvqfs0","pricing_plan_id":"cebpf4jnsgd1na2vs0mg"},{"bike_id":"811921d9-25e9-4092-9d51-5bbe056a08a9","system_id":"levelo_inurba_marseille","lat":43.26223,"lon":5.40469,"is_reserved":false,"is_disabled":false,"rental_uris":{"android":"levelo://app?vid=811921d9-25e9-4092-9d51-5bbe056a08a9","ios":"levelo://app?vid=811921d9-25e9-4092-9d51-5bbe056a08a9"},"vehicle_type_id":"4","last_reported":1741072197,"current_range_meters":6000,"station_id":"ce4bhmh2rcd13ifvqgmg","pricing_plan_id":"cebpf4jnsgd1na2vs0mg"},{"bike_id":"0a42b506-aec3-4369-808c-c91f0f7eb197","system_id":"levelo_inurba_marseille","lat":43.25559,"lon":5.38272,"is_reserved":false,"is_disabled":false,"rental_uris":{"android":"levelo://app?vid=0a42b506-aec3-4369-808c-c91f0f7eb197","ios":"levelo://app?vid=0a42b506-aec3-4369-808c-c91f0f7eb197"},"vehicle_type_id":"4","last_reported":1741072197,"current_range_meters":6000,"station_id":"ce4bhih2rcd13ifvqfs0","pricing_plan_id":"cebpf4jnsgd1na2vs0mg"},{"bike_id":"f381c9bd-14fa-41ab-b589-3ecebd6dfe48","system_id":"levelo_inurba_marseille","lat":43.32366,"lon":5.367611,"is_reserved":false,"is_disabled":false,"rental_uris":{"android":"levelo://app?vid=f381c9bd-14fa-41ab-b589-3ecebd6dfe48","ios":"levelo://app?vid=f381c9bd-14fa-41ab-b589-3ecebd6dfe48"},"vehicle_type_id":"4","last_reported":1741072197,"current_range_meters":6000,"station_id":"ce4bhsh2rcd13ifvqi2g","pricing_plan_id":"cebpf4jnsgd1na2vs0mg"},{"bike_id":"40323d2b-7fa4-44fa-8afd-3105efa74518","system_id":"levelo_inurba_marseille","lat":43.24182,"lon":5.39733,"is_reserved":false,"is_disabled":false,"rental_uris":{"android":"levelo://app?vid=40323d2b-7fa4-44fa-8afd-3105efa74518","ios":"levelo://app?vid=40323d2b-7fa4-44fa-8afd-3105efa74518"},"vehicle_type_id":"4","last_reported":1741072197,"current_range_meters":6400,"station_id":"ce4bhn12rcd13ifvqgpg","pricing_plan_id":"cebpf4jnsgd1na2vs0mg"},{"bike_id":"2ab11bbe-a968-4ea2-8a15-b47f3045ae38","system_id":"levelo_inurba_marseille","lat":43.23183,"lon":5.39988,"is_reserved":false,"is_disabled":false,"rental_uris":{"android":"levelo://app?vid=2ab11bbe-a968-4ea2-8a15-b47f3045ae38","ios":"levelo://app?vid=2ab11bbe-a968-4ea2-8a15-b47f3045ae38"},"vehicle_type_id":"4","last_reported":1741072197,"current_range_meters":6400,"station_id":"ce4bhn12rcd13ifvqgqg","pricing_plan_id":"cebpf4jnsgd1na2vs0mg"},{"bike_id":"2d4e1c3e-7392-4616-b3cf-646345a17bd5","system_id":"levelo_inurba_marseille","lat":43.29544,"lon":5.42291,"is_reserved":false,"is_disabled":true,"rental_uris":{"android":"levelo://app?vid=2d4e1c3e-7392-4616-b3cf-646345a17bd5","ios":"levelo://app?vid=2d4e1c3e-7392-4616-b3cf-646345a17bd5"},"vehicle_type_id":"4","last_reported":1741072197,"current_range_meters":6400,"station_id":"ce4bhph2rcd13ifvqhdg","pricing_plan_id":"cebpf4jnsgd1na2vs0mg"},{"bike_id":"6d6ca8f2-034a-463b-ae90-15562337a81c","system_id":"levelo_inurba_marseille","lat":43.30443,"lon":5.37928,"is_reserved":false,"is_disabled":false,"rental_uris":{"android":"levelo://app?vid=6d6ca8f2-034a-463b-ae90-15562337a81c","ios":"levelo://app?vid=6d6ca8f2-034a-463b-ae90-15562337a81c"},"vehicle_type_id":"4","last_reported":1741072197,"current_range_meters":6400,"station_id":"ce4bgup2rcd13ifvqcn0","pricing_plan_id":"cebpf4jnsgd1na2vs0mg"},{"bike_id":"5da70b26-5045-4fcf-85cf-7f68a925e135","system_id":"levelo_inurba_marseille","lat":43.280009,"lon":5.416623,"is_reserved":false,"is_disabled":false,"rental_uris":{"android":"levelo://app?vid=5da70b26-5045-4fcf-85cf-7f68a925e135","ios":"levelo://app?vid=5da70b26-5045-4fcf-85cf-7f68a925e135"},"vehicle_type_id":"4","last_reported":1741072197,"current_range_meters":6400,"station_id":"ce4bho12rcd13ifvqh1g","pricing_plan_id":"cebpf4jnsgd1na2vs0mg"},{"bike_id":"ae32c428-8878-4011-9b36-3835e76dc85c","system_id":"levelo_inurba_marseille","lat":43.25166,"lon":5.37851,"is_reserved":false,"is_disabled":false,"rental_uris":{"android":"levelo://app?vid=ae32c428-8878-4011-9b36-3835e76dc85c","ios":"levelo://app?vid=ae32c428-8878-4011-9b36-3835e76dc85c"},"vehicle_type_id":"4","last_reported":1741072197,"current_range_meters":6400,"station_id":"","pricing_plan_id":"cebpf4jnsgd1na2vs0mg"},{"bike_id":"bf96eb8b-f285-424b-9907-98760b291ce5","system_id":"levelo_inurba_marseille","lat":43.29032,"lon":5.39968,"is_reserved":false,"is_disabled":false,"rental_uris":{"android":"levelo://app?vid=bf96eb8b-f285-424b-9907-98760b291ce5","ios":"levelo://app?vid=bf96eb8b-f285-424b-9907-98760b291ce5"},"vehicle_type_id":"4","last_reported":1741072197,"current_range_meters":6400,"station_id":"ce4bh392rcd13ifvqdm0","pricing_plan_id":"cebpf4jnsgd1na2vs0mg"},{"bike_id":"40eb5ee0-38b0-41e5-b66b-72007af47082","system_id":"levelo_inurba_marseille","lat":43.29971,"lon":5.38494,"is_reserved":false,"is_disabled":false,"rental_uris":{"android":"levelo://app?vid=40eb5ee0-38b0-41e5-b66b-72007af47082","ios":"levelo://app?vid=40eb5ee0-38b0-41e5-b66b-72007af47082"},"vehicle_type_id":"4","last_reported":1741072197,"current_range_meters":6400,"station_id":"ce4bgj92rcd13ifvqbd0","pricing_plan_id":"cebpf4jnsgd1na2vs0mg"},{"bike_id":"daf50730-f3f3-401b-8a55-2d92d62983e4","system_id":"levelo_inurba_marseille","lat":43.27465,"lon":5.43544,"is_reserved":false,"is_disabled":false,"rental_uris":{"android":"levelo://app?vid=daf50730-f3f3-401b-8a55-2d92d62983e4","ios":"levelo://app?vid=daf50730-f3f3-401b-8a55-2d92d62983e4"},"vehicle_type_id":"4","last_reported":1741072197,"current_range_meters":6800,"station_id":"","pricing_plan_id":"cebpf4jnsgd1na2vs0mg"},{"bike_id":"d20d4ac0-3e72-4d7c-b740-440a0b15f885","system_id":"levelo_inurba_marseille","lat":43.24184,"lon":5.39732,"is_reserved":false,"is_disabled":false,"rental_uris":{"android":"levelo://app?vid=d20d4ac0-3e72-4d7c-b740-440a0b15f885","ios":"levelo://app?vid=d20d4ac0-3e72-4d7c-b740-440a0b15f885"},"vehicle_type_id":"4","last_reported":1741072197,"current_range_meters":6800,"station_id":"ce4bhn12rcd13ifvqgpg","pricing_plan_id":"cebpf4jnsgd1na2vs0mg"},{"bike_id":"c55f943c-a1f5-4b2f-86d0-ef3cfa5b4d57","system_id":"levelo_inurba_marseille","lat":43.25118,"lon":5.40318,"is_reserved":false,"is_disabled":true,"rental_uris":{"android":"levelo://app?vid=c55f943c-a1f5-4b2f-86d0-ef3cfa5b4d57","ios":"levelo://app?vid=c55f943c-a1f5-4b2f-86d0-ef3cfa5b4d57"},"vehicle_type_id":"4","last_reported":1741072197,"current_range_meters":6800,"station_id":"ce4bhlh2rcd13ifvqgig","pricing_plan_id":"cebpf4jnsgd1na2vs0mg"},{"bike_id":"76d154d9-de45-47c4-aa4e-ebc4dd631146","system_id":"levelo_inurba_marseille","lat":43.29261,"lon":5.3764,"is_reserved":false,"is_disabled":false,"rental_uris":{"android":"levelo://app?vid=76d154d9-de45-47c4-aa4e-ebc4dd631146","ios":"levelo://app?vid=76d154d9-de45-47c4-aa4e-ebc4dd631146"},"vehicle_type_id":"4","last_reported":1741072197,"current_range_meters":6800,"station_id":"ce4bgi12rcd13ifvqb80","pricing_plan_id":"cebpf4jnsgd1na2vs0mg"},{"bike_id":"f17ea63a-db17-447a-a811-21a7bc82155d","system_id":"levelo_inurba_marseille","lat":43.29247,"lon":5.3763,"is_reserved":false,"is_disabled":false,"rental_uris":{"android":"levelo://app?vid=f17ea63a-db17-447a-a811-21a7bc82155d","ios":"levelo://app?vid=f17ea63a-db17-447a-a811-21a7bc82155d"},"vehicle_type_id":"4","last_reported":1741072197,"current_range_meters":6800,"station_id":"ce4bgi12rcd13ifvqb80","pricing_plan_id":"cebpf4jnsgd1na2vs0mg"},{"bike_id":"c82ed515-533d-442c-95f2-5ddb43b4dcca","system_id":"levelo_inurba_marseille","lat":43.29184,"lon":5.35802,"is_reserved":false,"is_disabled":false,"rental_uris":{"android":"levelo://app?vid=c82ed515-533d-442c-95f2-5ddb43b4dcca","ios":"levelo://app?vid=c82ed515-533d-442c-95f2-5ddb43b4dcca"},"vehicle_type_id":"4","last_reported":1741072197,"current_range_meters":6800,"station_id":"ce4bhb12rcd13ifvqel0","pricing_plan_id":"cebpf4jnsgd1na2vs0mg"},{"bike_id":"de92be04-2de7-4627-8147-771289c7a131","system_id":"levelo_inurba_marseille","lat":43.30214,"lon":5.39481,"is_reserved":false,"is_disabled":false,"rental_uris":{"android":"levelo://app?vid=de92be04-2de7-4627-8147-771289c7a131","ios":"levelo://app?vid=de92be04-2de7-4627-8147-771289c7a131"},"vehicle_type_id":"4","last_reported":1741072197,"current_range_meters":7200,"station_id":"ce4bh0p2rcd13ifvqd70","pricing_plan_id":"cebpf4jnsgd1na2vs0mg"},{"bike_id":"254b9110-d484-442d-a415-ccf31a230f00","system_id":"levelo_inurba_marseille","lat":43.298962,"lon":5.436677,"is_reserved":false,"is_disabled":false,"rental_uris":{"android":"levelo://app?vid=254b9110-d484-442d-a415-ccf31a230f00","ios":"levelo://app?vid=254b9110-d484-442d-a415-ccf31a230f00"},"vehicle_type_id":"4","last_reported":1741072197,"current_range_meters":7200,"station_id":"ce4bhpp2rcd13ifvqhfg","pricing_plan_id":"cebpf4jnsgd1na2vs0mg"},{"bike_id":"c19a15c9-dc92-4f76-999f-70a9a6709dca","system_id":"levelo_inurba_marseille","lat":43.24078,"lon":5.37762,"is_reserved":false,"is_disabled":false,"rental_uris":{"android":"levelo://app?vid=c19a15c9-dc92-4f76-999f-70a9a6709dca","ios":"levelo://app?vid=c19a15c9-dc92-4f76-999f-70a9a6709dca"},"vehicle_type_id":"4","last_reported":1741072197,"current_range_meters":7200,"station_id":"ce4bhnp2rcd13ifvqgvg","pricing_plan_id":"cebpf4jnsgd1na2vs0mg"},{"bike_id":"8ade5181-cd88-4ece-8534-46a6372826ef","system_id":"levelo_inurba_marseille","lat":43.27697,"lon":5.41544,"is_reserved":false,"is_disabled":false,"rental_uris":{"android":"levelo://app?vid=8ade5181-cd88-4ece-8534-46a6372826ef","ios":"levelo://app?vid=8ade5181-cd88-4ece-8534-46a6372826ef"},"vehicle_type_id":"4","last_reported":1741072197,"current_range_meters":7200,"station_id":"","pricing_plan_id":"cebpf4jnsgd1na2vs0mg"},{"bike_id":"c19d77a8-5520-45f7-9712-a3f89cb69d9f","system_id":"levelo_inurba_marseille","lat":43.282995,"lon":5.38902,"is_reserved":false,"is_disabled":false,"rental_uris":{"android":"levelo://app?vid=c19d77a8-5520-45f7-9712-a3f89cb69d9f","ios":"levelo://app?vid=c19d77a8-5520-45f7-9712-a3f89cb69d9f"},"vehicle_type_id":"4","last_reported":1741072197,"current_range_meters":7200,"station_id":"","pricing_plan_id":"cebpf4jnsgd1na2vs0mg"},{"bike_id":"f3cd6fd4-60b1-4d0a-8ba2-ff80b7f418e3","system_id":"levelo_inurba_marseille","lat":43.31166,"lon":5.3873,"is_reserved":false,"is_disabled":false,"rental_uris":{"android":"levelo://app?vid=f3cd6fd4-60b1-4d0a-8ba2-ff80b7f418e3","ios":"levelo://app?vid=f3cd6fd4-60b1-4d0a-8ba2-ff80b7f418e3"},"vehicle_type_id":"4","last_reported":1741072197,"current_range_meters":7200,"station_id":"ce4bgv12rcd13ifvqcp0","pricing_plan_id":"cebpf4jnsgd1na2vs0mg"},{"bike_id":"90a47c55-7d0c-4b6b-94e5-81e21155469e","system_id":"levelo_inurba_marseille","lat":43.23137,"lon":5.43741,"is_reserved":false,"is_disabled":false,"rental_uris":{"android":"levelo://app?vid=90a47c55-7d0c-4b6b-94e5-81e21155469e","ios":"levelo://app?vid=90a47c55-7d0c-4b6b-94e5-81e21155469e"},"vehicle_type_id":"4","last_reported":1741072197,"current_range_meters":7200,"station_id":"ce4bhmp2rcd13ifvqgog","pricing_plan_id":"cebpf4jnsgd1na2vs0mg"},{"bike_id":"fb971aeb-b114-4044-b8fd-9a7cf18c4741","system_id":"levelo_inurba_marseille","lat":43.30419,"lon":5.39761,"is_reserved":false,"is_disabled":false,"rental_uris":{"android":"levelo://app?vid=fb971aeb-b114-4044-b8fd-9a7cf18c4741","ios":"levelo://app?vid=fb971aeb-b114-4044-b8fd-9a7cf18c4741"},"vehicle_type_id":"4","last_reported":1741072197,"current_range_meters":7200,"station_id":"ce4bh092rcd13ifvqd20","pricing_plan_id":"cebpf4jnsgd1na2vs0mg"},{"bike_id":"45169f2d-7543-476d-8b85-06343bc68c76","system_id":"levelo_inurba_marseille","lat":43.24067,"lon":5.3777,"is_reserved":false,"is_disabled":false,"rental_uris":{"android":"levelo://app?vid=45169f2d-7543-476d-8b85-06343bc68c76","ios":"levelo://app?vid=45169f2d-7543-476d-8b85-06343bc68c76"},"vehicle_type_id":"4","last_reported":1741072197,"current_range_meters":7200,"station_id":"ce4bhnp2rcd13ifvqgvg","pricing_plan_id":"cebpf4jnsgd1na2vs0mg"},{"bike_id":"e41e0bb8-6c1c-4ce2-b18d-069e130ca183","system_id":"levelo_inurba_marseille","lat":43.23066,"lon":5.35503,"is_reserved":false,"is_disabled":false,"rental_uris":{"android":"levelo://app?vid=e41e0bb8-6c1c-4ce2-b18d-069e130ca183","ios":"levelo://app?vid=e41e0bb8-6c1c-4ce2-b18d-069e130ca183"},"vehicle_type_id":"4","last_reported":1741072197,"current_range_meters":7200,"station_id":"cpo3342slgdg3j2ifvpg","pricing_plan_id":"cebpf4jnsgd1na2vs0mg"},{"bike_id":"69539ccb-ca63-4555-bd43-968ddad5c3c6","system_id":"levelo_inurba_marseille","lat":43.24996,"lon":5.3893,"is_reserved":false,"is_disabled":false,"rental_uris":{"android":"levelo://app?vid=69539ccb-ca63-4555-bd43-968ddad5c3c6","ios":"levelo://app?vid=69539ccb-ca63-4555-bd43-968ddad5c3c6"},"vehicle_type_id":"4","last_reported":1741072197,"current_range_meters":7200,"station_id":"ce4bhgp2rcd13ifvqfd0","pricing_plan_id":"cebpf4jnsgd1na2vs0mg"},{"bike_id":"c8c30254-af6a-4a88-b0b6-9a3a52022bea","system_id":"levelo_inurba_marseille","lat":43.32428,"lon":5.42672,"is_reserved":false,"is_disabled":false,"rental_uris":{"android":"levelo://app?vid=c8c30254-af6a-4a88-b0b6-9a3a52022bea","ios":"levelo://app?vid=c8c30254-af6a-4a88-b0b6-9a3a52022bea"},"vehicle_type_id":"4","last_reported":1741072197,"current_range_meters":8000,"station_id":"","pricing_plan_id":"cebpf4jnsgd1na2vs0mg"},{"bike_id":"ce8ef3d2-07e3-4512-8813-bcde53a01429","system_id":"levelo_inurba_marseille","lat":43.24098,"lon":5.36469,"is_reserved":false,"is_disabled":false,"rental_uris":{"android":"levelo://app?vid=ce8ef3d2-07e3-4512-8813-bcde53a01429","ios":"levelo://app?vid=ce8ef3d2-07e3-4512-8813-bcde53a01429"},"vehicle_type_id":"4","last_reported":1741072197,"current_range_meters":8000,"station_id":"cpo36qri1sfpv3e86is0","pricing_plan_id":"cebpf4jnsgd1na2vs0mg"},{"bike_id":"8853f3b9-20a3-4480-9c1d-81721e27d9f9","system_id":"levelo_inurba_marseille","lat":43.26066,"lon":5.39428,"is_reserved":false,"is_disabled":false,"rental_uris":{"android":"levelo://app?vid=8853f3b9-20a3-4480-9c1d-81721e27d9f9","ios":"levelo://app?vid=8853f3b9-20a3-4480-9c1d-81721e27d9f9"},"vehicle_type_id":"4","last_reported":1741072197,"current_range_meters":8000,"station_id":"ce4bhh92rcd13ifvqfj0","pricing_plan_id":"cebpf4jnsgd1na2vs0mg"},{"bike_id":"f71f9016-cd7a-4d2f-a244-6b67297b159e","system_id":"levelo_inurba_marseille","lat":43.279233,"lon":5.416709,"is_reserved":false,"is_disabled":false,"rental_uris":{"android":"levelo://app?vid=f71f9016-cd7a-4d2f-a244-6b67297b159e","ios":"levelo://app?vid=f71f9016-cd7a-4d2f-a244-6b67297b159e"},"vehicle_type_id":"4","last_reported":1741072197,"current_range_meters":8000,"station_id":"","pricing_plan_id":"cebpf4jnsgd1na2vs0mg"},{"bike_id":"7b9a486b-d213-4445-a310-dcc7eec51447","system_id":"levelo_inurba_marseille","lat":43.29002,"lon":5.356,"is_reserved":false,"is_disabled":false,"rental_uris":{"android":"levelo://app?vid=7b9a486b-d213-4445-a310-dcc7eec51447","ios":"levelo://app?vid=7b9a486b-d213-4445-a310-dcc7eec51447"},"vehicle_type_id":"4","last_reported":1741072197,"current_range_meters":8000,"station_id":"ce4bhb92rcd13ifvqen0","pricing_plan_id":"cebpf4jnsgd1na2vs0mg"},{"bike_id":"d6602ba1-517c-4477-a861-04226626f836","system_id":"levelo_inurba_marseille","lat":43.28727,"lon":5.37933,"is_reserved":false,"is_disabled":false,"rental_uris":{"android":"levelo://app?vid=d6602ba1-517c-4477-a861-04226626f836","ios":"levelo://app?vid=d6602ba1-517c-4477-a861-04226626f836"},"vehicle_type_id":"4","last_reported":1741072197,"current_range_meters":7200,"station_id":"ce4bh9p2rcd13ifvqec0","pricing_plan_id":"cebpf4jnsgd1na2vs0mg"},{"bike_id":"e5af46d8-756e-4b29-887f-202b12c3baa0","system_id":"levelo_inurba_marseille","lat":43.30412,"lon":5.4129,"is_reserved":false,"is_disabled":false,"rental_uris":{"android":"levelo://app?vid=e5af46d8-756e-4b29-887f-202b12c3baa0","ios":"levelo://app?vid=e5af46d8-756e-4b29-887f-202b12c3baa0"},"vehicle_type_id":"4","last_reported":1741072197,"current_range_meters":8000,"station_id":"ce4bhop2rcd13ifvqh8g","pricing_plan_id":"cebpf4jnsgd1na2vs0mg"},{"bike_id":"5f6058f8-17d6-41f9-bf21-73aab62a2071","system_id":"levelo_inurba_marseille","lat":43.25803,"lon":5.39462,"is_reserved":false,"is_disabled":false,"rental_uris":{"android":"levelo://app?vid=5f6058f8-17d6-41f9-bf21-73aab62a2071","ios":"levelo://app?vid=5f6058f8-17d6-41f9-bf21-73aab62a2071"},"vehicle_type_id":"4","last_reported":1741072197,"current_range_meters":8400,"station_id":"ce4bhip2rcd13ifvqft0","pricing_plan_id":"cebpf4jnsgd1na2vs0mg"},{"bike_id":"d65670b6-fadb-4776-92a4-00f2428ddaa0","system_id":"levelo_inurba_marseille","lat":43.32533,"lon":5.41429,"is_reserved":false,"is_disabled":false,"rental_uris":{"android":"levelo://app?vid=d65670b6-fadb-4776-92a4-00f2428ddaa0","ios":"levelo://app?vid=d65670b6-fadb-4776-92a4-00f2428ddaa0"},"vehicle_type_id":"4","last_reported":1741072197,"current_range_meters":8400,"station_id":"ce4bhq12rcd13ifvqhhg","pricing_plan_id":"cebpf4jnsgd1na2vs0mg"},{"bike_id":"71cd5d9d-c4a9-4d7f-b25c-bd7ceef0b27e","system_id":"levelo_inurba_marseille","lat":43.31279,"lon":5.37749,"is_reserved":false,"is_disabled":false,"rental_uris":{"android":"levelo://app?vid=71cd5d9d-c4a9-4d7f-b25c-bd7ceef0b27e","ios":"levelo://app?vid=71cd5d9d-c4a9-4d7f-b25c-bd7ceef0b27e"},"vehicle_type_id":"4","last_reported":1741072197,"current_range_meters":8400,"station_id":"","pricing_plan_id":"cebpf4jnsgd1na2vs0mg"},{"bike_id":"ffd5fa35-92ec-4cc7-9a87-e8633ad3e1d2","system_id":"levelo_inurba_marseille","lat":43.27807,"lon":5.40718,"is_reserved":false,"is_disabled":false,"rental_uris":{"android":"levelo://app?vid=ffd5fa35-92ec-4cc7-9a87-e8633ad3e1d2","ios":"levelo://app?vid=ffd5fa35-92ec-4cc7-9a87-e8633ad3e1d2"},"vehicle_type_id":"4","last_reported":1741072197,"current_range_meters":8400,"station_id":"ce4bhnh2rcd13ifvqgtg","pricing_plan_id":"cebpf4jnsgd1na2vs0mg"},{"bike_id":"4586ca83-2f5e-4b63-b2a9-29ed75f9f1db","system_id":"levelo_inurba_marseille","lat":43.287249,"lon":5.360886,"is_reserved":false,"is_disabled":false,"rental_uris":{"android":"levelo://app?vid=4586ca83-2f5e-4b63-b2a9-29ed75f9f1db","ios":"levelo://app?vid=4586ca83-2f5e-4b63-b2a9-29ed75f9f1db"},"vehicle_type_id":"4","last_reported":1741072197,"current_range_meters":8400,"station_id":"cki0cbj6b192h4jlfktg","pricing_plan_id":"cebpf4jnsgd1na2vs0mg"},{"bike_id":"73c79102-b9af-4b09-9d57-a3c76bf14359","system_id":"levelo_inurba_marseille","lat":43.2749,"lon":5.42449,"is_reserved":false,"is_disabled":false,"rental_uris":{"android":"levelo://app?vid=73c79102-b9af-4b09-9d57-a3c76bf14359","ios":"levelo://app?vid=73c79102-b9af-4b09-9d57-a3c76bf14359"},"vehicle_type_id":"4","last_reported":1741072197,"current_range_meters":8400,"station_id":"ce4bhn92rcd13ifvqgrg","pricing_plan_id":"cebpf4jnsgd1na2vs0mg"},{"bike_id":"1074006b-a2c3-4be9-94e0-60e7cf1b617d","system_id":"levelo_inurba_marseille","lat":43.32364,"lon":5.38892,"is_reserved":false,"is_disabled":false,"rental_uris":{"android":"levelo://app?vid=1074006b-a2c3-4be9-94e0-60e7cf1b617d","ios":"levelo://app?vid=1074006b-a2c3-4be9-94e0-60e7cf1b617d"},"vehicle_type_id":"4","last_reported":1741072197,"current_range_meters":8400,"station_id":"ce4bhqp2rcd13ifvqhog","pricing_plan_id":"cebpf4jnsgd1na2vs0mg"},{"bike_id":"07f56688-c23f-4b0c-8af0-19bac8f9d72c","system_id":"levelo_inurba_marseille","lat":43.261999,"lon":5.379298,"is_reserved":false,"is_disabled":false,"rental_uris":{"android":"levelo://app?vid=07f56688-c23f-4b0c-8af0-19bac8f9d72c","ios":"levelo://app?vid=07f56688-c23f-4b0c-8af0-19bac8f9d72c"},"vehicle_type_id":"4","last_reported":1741072197,"current_range_meters":8400,"station_id":"ce4bhjp2rcd13ifvqg90","pricing_plan_id":"cebpf4jnsgd1na2vs0mg"},{"bike_id":"ee26afb6-ba4c-4dc4-8464-b764cc25857b","system_id":"levelo_inurba_marseille","lat":43.27946,"lon":5.41028,"is_reserved":false,"is_disabled":false,"rental_uris":{"android":"levelo://app?vid=ee26afb6-ba4c-4dc4-8464-b764cc25857b","ios":"levelo://app?vid=ee26afb6-ba4c-4dc4-8464-b764cc25857b"},"vehicle_type_id":"4","last_reported":1741072197,"current_range_meters":8400,"station_id":"ce4bhnp2rcd13ifvqh0g","pricing_plan_id":"cebpf4jnsgd1na2vs0mg"},{"bike_id":"f1eaf0aa-ede0-4383-b38b-806d6bd60895","system_id":"levelo_inurba_marseille","lat":43.30481,"lon":5.37914,"is_reserved":false,"is_disabled":false,"rental_uris":{"android":"levelo://app?vid=f1eaf0aa-ede0-4383-b38b-806d6bd60895","ios":"levelo://app?vid=f1eaf0aa-ede0-4383-b38b-806d6bd60895"},"vehicle_type_id":"4","last_reported":1741072197,"current_range_meters":8400,"station_id":"ce4bgup2rcd13ifvqcn0","pricing_plan_id":"cebpf4jnsgd1na2vs0mg"},{"bike_id":"20f28f92-adf9-48e3-a33b-83ded65127c5","system_id":"levelo_inurba_marseille","lat":43.230615,"lon":5.354971,"is_reserved":false,"is_disabled":false,"rental_uris":{"android":"levelo://app?vid=20f28f92-adf9-48e3-a33b-83ded65127c5","ios":"levelo://app?vid=20f28f92-adf9-48e3-a33b-83ded65127c5"},"vehicle_type_id":"4","last_reported":1741072197,"current_range_meters":8400,"station_id":"cpo3342slgdg3j2ifvpg","pricing_plan_id":"cebpf4jnsgd1na2vs0mg"},{"bike_id":"a6ab4e69-75c8-4403-93eb-6dbff684d0e1","system_id":"levelo_inurba_marseille","lat":43.28152,"lon":5.4264,"is_reserved":false,"is_disabled":false,"rental_uris":{"android":"levelo://app?vid=a6ab4e69-75c8-4403-93eb-6dbff684d0e1","ios":"levelo://app?vid=a6ab4e69-75c8-4403-93eb-6dbff684d0e1"},"vehicle_type_id":"4","last_reported":1741072197,"current_range_meters":8800,"station_id":"ce4bhnh2rcd13ifvqgug","pricing_plan_id":"cebpf4jnsgd1na2vs0mg"},{"bike_id":"853e9f93-6f18-4242-b269-d87025e7bb93","system_id":"levelo_inurba_marseille","lat":43.30719,"lon":5.37128,"is_reserved":false,"is_disabled":false,"rental_uris":{"android":"levelo://app?vid=853e9f93-6f18-4242-b269-d87025e7bb93","ios":"levelo://app?vid=853e9f93-6f18-4242-b269-d87025e7bb93"},"vehicle_type_id":"4","last_reported":1741072197,"current_range_meters":8800,"station_id":"","pricing_plan_id":"cebpf4jnsgd1na2vs0mg"},{"bike_id":"206e4439-efc0-4a3e-b983-1ff5b86d71fc","system_id":"levelo_inurba_marseille","lat":43.23147,"lon":5.43718,"is_reserved":false,"is_disabled":false,"rental_uris":{"android":"levelo://app?vid=206e4439-efc0-4a3e-b983-1ff5b86d71fc","ios":"levelo://app?vid=206e4439-efc0-4a3e-b983-1ff5b86d71fc"},"vehicle_type_id":"4","last_reported":1741072197,"current_range_meters":8800,"station_id":"ce4bhmp2rcd13ifvqgog","pricing_plan_id":"cebpf4jnsgd1na2vs0mg"},{"bike_id":"222c186d-801a-456b-a7e4-f20b6d26a31a","system_id":"levelo_inurba_marseille","lat":43.29032,"lon":5.3997,"is_reserved":false,"is_disabled":false,"rental_uris":{"android":"levelo://app?vid=222c186d-801a-456b-a7e4-f20b6d26a31a","ios":"levelo://app?vid=222c186d-801a-456b-a7e4-f20b6d26a31a"},"vehicle_type_id":"4","last_reported":1741072197,"current_range_meters":8800,"station_id":"ce4bh392rcd13ifvqdm0","pricing_plan_id":"cebpf4jnsgd1na2vs0mg"},{"bike_id":"16d90626-06af-4b37-91ae-d8b6129ba1c9","system_id":"levelo_inurba_marseille","lat":43.30441,"lon":5.39738,"is_reserved":false,"is_disabled":false,"rental_uris":{"android":"levelo://app?vid=16d90626-06af-4b37-91ae-d8b6129ba1c9","ios":"levelo://app?vid=16d90626-06af-4b37-91ae-d8b6129ba1c9"},"vehicle_type_id":"4","last_reported":1741072197,"current_range_meters":8800,"station_id":"ce4bh092rcd13ifvqd20","pricing_plan_id":"cebpf4jnsgd1na2vs0mg"},{"bike_id":"1901130a-ffd5-42a0-b994-e2aa42548e35","system_id":"levelo_inurba_marseille","lat":43.26113,"lon":5.41484,"is_reserved":false,"is_disabled":false,"rental_uris":{"android":"levelo://app?vid=1901130a-ffd5-42a0-b994-e2aa42548e35","ios":"levelo://app?vid=1901130a-ffd5-42a0-b994-e2aa42548e35"},"vehicle_type_id":"4","last_reported":1741072197,"current_range_meters":9200,"station_id":"","pricing_plan_id":"cebpf4jnsgd1na2vs0mg"},{"bike_id":"a7f805c6-f402-4944-bd01-9390cb21725a","system_id":"levelo_inurba_marseille","lat":43.28102,"lon":5.37845,"is_reserved":false,"is_disabled":false,"rental_uris":{"android":"levelo://app?vid=a7f805c6-f402-4944-bd01-9390cb21725a","ios":"levelo://app?vid=a7f805c6-f402-4944-bd01-9390cb21725a"},"vehicle_type_id":"4","last_reported":1741072197,"current_range_meters":9200,"station_id":"ce4bha12rcd13ifvqee0","pricing_plan_id":"cebpf4jnsgd1na2vs0mg"},{"bike_id":"0b818497-4d97-451b-b637-cef3d02b5c9d","system_id":"levelo_inurba_marseille","lat":43.31709,"lon":5.43695,"is_reserved":false,"is_disabled":true,"rental_uris":{"android":"levelo://app?vid=0b818497-4d97-451b-b637-cef3d02b5c9d","ios":"levelo://app?vid=0b818497-4d97-451b-b637-cef3d02b5c9d"},"vehicle_type_id":"4","last_reported":1741072197,"current_range_meters":9200,"station_id":"ce4bhp92rcd13ifvqhcg","pricing_plan_id":"cebpf4jnsgd1na2vs0mg"},{"bike_id":"a18fece4-236b-4528-b0b9-389d2006a2ed","system_id":"levelo_inurba_marseille","lat":43.29394,"lon":5.40299,"is_reserved":false,"is_disabled":false,"rental_uris":{"android":"levelo://app?vid=a18fece4-236b-4528-b0b9-389d2006a2ed","ios":"levelo://app?vid=a18fece4-236b-4528-b0b9-389d2006a2ed"},"vehicle_type_id":"4","last_reported":1741072197,"current_range_meters":9200,"station_id":"","pricing_plan_id":"cebpf4jnsgd1na2vs0mg"},{"bike_id":"caedf473-9313-4874-87c8-230b4a1efdb8","system_id":"levelo_inurba_marseille","lat":43.32465,"lon":5.36577,"is_reserved":false,"is_disabled":false,"rental_uris":{"android":"levelo://app?vid=caedf473-9313-4874-87c8-230b4a1efdb8","ios":"levelo://app?vid=caedf473-9313-4874-87c8-230b4a1efdb8"},"vehicle_type_id":"4","last_reported":1741072197,"current_range_meters":9200,"station_id":"ce4bhs12rcd13ifvqhvg","pricing_plan_id":"cebpf4jnsgd1na2vs0mg"},{"bike_id":"41ed89d3-77cd-4311-8513-748a0ca63c4f","system_id":"levelo_inurba_marseille","lat":43.21258,"lon":5.35336,"is_reserved":false,"is_disabled":false,"rental_uris":{"android":"levelo://app?vid=41ed89d3-77cd-4311-8513-748a0ca63c4f","ios":"levelo://app?vid=41ed89d3-77cd-4311-8513-748a0ca63c4f"},"vehicle_type_id":"4","last_reported":1741072197,"current_range_meters":9200,"station_id":"","pricing_plan_id":"cebpf4jnsgd1na2vs0mg"},{"bike_id":"6d738761-6542-4151-94dd-b27ac1c55724","system_id":"levelo_inurba_marseille","lat":43.24067,"lon":5.37765,"is_reserved":false,"is_disabled":false,"rental_uris":{"android":"levelo://app?vid=6d738761-6542-4151-94dd-b27ac1c55724","ios":"levelo://app?vid=6d738761-6542-4151-94dd-b27ac1c55724"},"vehicle_type_id":"4","last_reported":1741072197,"current_range_meters":9200,"station_id":"ce4bhnp2rcd13ifvqgvg","pricing_plan_id":"cebpf4jnsgd1na2vs0mg"},{"bike_id":"64953142-7637-42b4-b0d1-c449e63f1db7","system_id":"levelo_inurba_marseille","lat":43.296277,"lon":5.360317,"is_reserved":false,"is_disabled":false,"rental_uris":{"android":"levelo://app?vid=64953142-7637-42b4-b0d1-c449e63f1db7","ios":"levelo://app?vid=64953142-7637-42b4-b0d1-c449e63f1db7"},"vehicle_type_id":"4","last_reported":1741072197,"current_range_meters":9200,"station_id":"","pricing_plan_id":"cebpf4jnsgd1na2vs0mg"},{"bike_id":"4ac02a66-da50-4129-b13c-39bc5c01eb98","system_id":"levelo_inurba_marseille","lat":43.30138,"lon":5.37431,"is_reserved":false,"is_disabled":false,"rental_uris":{"android":"levelo://app?vid=4ac02a66-da50-4129-b13c-39bc5c01eb98","ios":"levelo://app?vid=4ac02a66-da50-4129-b13c-39bc5c01eb98"},"vehicle_type_id":"4","last_reported":1741072197,"current_range_meters":9200,"station_id":"ce4bgs92rcd13ifvqcc0","pricing_plan_id":"cebpf4jnsgd1na2vs0mg"},{"bike_id":"bba5c829-32fe-4a1d-9461-a852d59caa6b","system_id":"levelo_inurba_marseille","lat":43.2883,"lon":5.39336,"is_reserved":false,"is_disabled":true,"rental_uris":{"android":"levelo://app?vid=bba5c829-32fe-4a1d-9461-a852d59caa6b","ios":"levelo://app?vid=bba5c829-32fe-4a1d-9461-a852d59caa6b"},"vehicle_type_id":"4","last_reported":1741072197,"current_range_meters":9200,"station_id":"ce4bh2p2rcd13ifvqdi0","pricing_plan_id":"cebpf4jnsgd1na2vs0mg"},{"bike_id":"362b2e41-0f7d-42ca-85b4-447baad17196","system_id":"levelo_inurba_marseille","lat":43.27209,"lon":5.41898,"is_reserved":false,"is_disabled":false,"rental_uris":{"android":"levelo://app?vid=362b2e41-0f7d-42ca-85b4-447baad17196","ios":"levelo://app?vid=362b2e41-0f7d-42ca-85b4-447baad17196"},"vehicle_type_id":"4","last_reported":1741072197,"current_range_meters":9200,"station_id":"","pricing_plan_id":"cebpf4jnsgd1na2vs0mg"},{"bike_id":"270e3153-b62a-49fc-9535-621318f15eec","system_id":"levelo_inurba_marseille","lat":43.284058,"lon":5.375173,"is_reserved":false,"is_disabled":true,"rental_uris":{"android":"levelo://app?vid=270e3153-b62a-49fc-9535-621318f15eec","ios":"levelo://app?vid=270e3153-b62a-49fc-9535-621318f15eec"},"vehicle_type_id":"4","last_reported":1741072197,"current_range_meters":9200,"station_id":"ce4bh412rcd13ifvqds0","pricing_plan_id":"cebpf4jnsgd1na2vs0mg"},{"bike_id":"1127a62f-bbc3-4fbf-ac00-23f527b17798","system_id":"levelo_inurba_marseille","lat":43.27217,"lon":5.39184,"is_reserved":false,"is_disabled":false,"rental_uris":{"android":"levelo://app?vid=1127a62f-bbc3-4fbf-ac00-23f527b17798","ios":"levelo://app?vid=1127a62f-bbc3-4fbf-ac00-23f527b17798"},"vehicle_type_id":"4","last_reported":1741072197,"current_range_meters":9600,"station_id":"ce4bhhp2rcd13ifvqfm0","pricing_plan_id":"cebpf4jnsgd1na2vs0mg"},{"bike_id":"2fe8f916-4590-4cd4-978d-98051b849535","system_id":"levelo_inurba_marseille","lat":43.27991,"lon":5.41669,"is_reserved":false,"is_disabled":false,"rental_uris":{"android":"levelo://app?vid=2fe8f916-4590-4cd4-978d-98051b849535","ios":"levelo://app?vid=2fe8f916-4590-4cd4-978d-98051b849535"},"vehicle_type_id":"4","last_reported":1741072197,"current_range_meters":10000,"station_id":"ce4bho12rcd13ifvqh1g","pricing_plan_id":"cebpf4jnsgd1na2vs0mg"},{"bike_id":"9de42f25-f760-4086-9a08-2934eee1b520","system_id":"levelo_inurba_marseille","lat":43.212621,"lon":5.353468,"is_reserved":false,"is_disabled":false,"rental_uris":{"android":"levelo://app?vid=9de42f25-f760-4086-9a08-2934eee1b520","ios":"levelo://app?vid=9de42f25-f760-4086-9a08-2934eee1b520"},"vehicle_type_id":"4","last_reported":1741072197,"current_range_meters":10000,"station_id":"","pricing_plan_id":"cebpf4jnsgd1na2vs0mg"},{"bike_id":"e29f86e8-2c96-484f-9c1f-a6eb3cd7348e","system_id":"levelo_inurba_marseille","lat":43.27987,"lon":5.41666,"is_reserved":false,"is_disabled":false,"rental_uris":{"android":"levelo://app?vid=e29f86e8-2c96-484f-9c1f-a6eb3cd7348e","ios":"levelo://app?vid=e29f86e8-2c96-484f-9c1f-a6eb3cd7348e"},"vehicle_type_id":"4","last_reported":1741072197,"current_range_meters":10000,"station_id":"ce4bho12rcd13ifvqh1g","pricing_plan_id":"cebpf4jnsgd1na2vs0mg"},{"bike_id":"19739181-c9a0-4670-a512-a399524a1c40","system_id":"levelo_inurba_marseille","lat":43.30142,"lon":5.38097,"is_reserved":false,"is_disabled":false,"rental_uris":{"android":"levelo://app?vid=19739181-c9a0-4670-a512-a399524a1c40","ios":"levelo://app?vid=19739181-c9a0-4670-a512-a399524a1c40"},"vehicle_type_id":"4","last_reported":1741072197,"current_range_meters":10000,"station_id":"ce4bgjp2rcd13ifvqbh0","pricing_plan_id":"cebpf4jnsgd1na2vs0mg"},{"bike_id":"e4e91370-e554-4387-b1fb-5ffddc6d4231","system_id":"levelo_inurba_marseille","lat":43.25824,"lon":5.39439,"is_reserved":false,"is_disabled":false,"rental_uris":{"android":"levelo://app?vid=e4e91370-e554-4387-b1fb-5ffddc6d4231","ios":"levelo://app?vid=e4e91370-e554-4387-b1fb-5ffddc6d4231"},"vehicle_type_id":"4","last_reported":1741072197,"current_range_meters":10800,"station_id":"ce4bhip2rcd13ifvqft0","pricing_plan_id":"cebpf4jnsgd1na2vs0mg"},{"bike_id":"373d78c5-16bc-4095-9a66-2b440c99b361","system_id":"levelo_inurba_marseille","lat":43.27796,"lon":5.40727,"is_reserved":false,"is_disabled":false,"rental_uris":{"android":"levelo://app?vid=373d78c5-16bc-4095-9a66-2b440c99b361","ios":"levelo://app?vid=373d78c5-16bc-4095-9a66-2b440c99b361"},"vehicle_type_id":"4","last_reported":1741072197,"current_range_meters":10800,"station_id":"ce4bhnh2rcd13ifvqgtg","pricing_plan_id":"cebpf4jnsgd1na2vs0mg"},{"bike_id":"e7ec1ac1-2323-47bd-a2b5-7cd3afb282cf","system_id":"levelo_inurba_marseille","lat":43.26551,"lon":5.37314,"is_reserved":false,"is_disabled":false,"rental_uris":{"android":"levelo://app?vid=e7ec1ac1-2323-47bd-a2b5-7cd3afb282cf","ios":"levelo://app?vid=e7ec1ac1-2323-47bd-a2b5-7cd3afb282cf"},"vehicle_type_id":"4","last_reported":1741072197,"current_range_meters":10800,"station_id":"ce4bhg12rcd13ifvqf70","pricing_plan_id":"cebpf4jnsgd1na2vs0mg"},{"bike_id":"37879935-4cf9-468e-9cee-d7233264c869","system_id":"levelo_inurba_marseille","lat":43.30416,"lon":5.39752,"is_reserved":false,"is_disabled":false,"rental_uris":{"android":"levelo://app?vid=37879935-4cf9-468e-9cee-d7233264c869","ios":"levelo://app?vid=37879935-4cf9-468e-9cee-d7233264c869"},"vehicle_type_id":"4","last_reported":1741072197,"current_range_meters":10800,"station_id":"ce4bh092rcd13ifvqd20","pricing_plan_id":"cebpf4jnsgd1na2vs0mg"},{"bike_id":"a5193847-231c-4c8c-b335-8579028b0ddd","system_id":"levelo_inurba_marseille","lat":43.278053,"lon":5.40727,"is_reserved":false,"is_disabled":false,"rental_uris":{"android":"levelo://app?vid=a5193847-231c-4c8c-b335-8579028b0ddd","ios":"levelo://app?vid=a5193847-231c-4c8c-b335-8579028b0ddd"},"vehicle_type_id":"4","last_reported":1741072197,"current_range_meters":10800,"station_id":"ce4bhnh2rcd13ifvqgtg","pricing_plan_id":"cebpf4jnsgd1na2vs0mg"},{"bike_id":"18d45918-0f2e-4c9a-be93-915296d8d5f6","system_id":"levelo_inurba_marseille","lat":43.30463,"lon":5.37924,"is_reserved":false,"is_disabled":false,"rental_uris":{"android":"levelo://app?vid=18d45918-0f2e-4c9a-be93-915296d8d5f6","ios":"levelo://app?vid=18d45918-0f2e-4c9a-be93-915296d8d5f6"},"vehicle_type_id":"4","last_reported":1741072197,"current_range_meters":10800,"station_id":"ce4bgup2rcd13ifvqcn0","pricing_plan_id":"cebpf4jnsgd1na2vs0mg"},{"bike_id":"63f52bb8-7eee-48cc-8bea-f3ca709e9156","system_id":"levelo_inurba_marseille","lat":43.26606,"lon":5.38999,"is_reserved":false,"is_disabled":false,"rental_uris":{"android":"levelo://app?vid=63f52bb8-7eee-48cc-8bea-f3ca709e9156","ios":"levelo://app?vid=63f52bb8-7eee-48cc-8bea-f3ca709e9156"},"vehicle_type_id":"4","last_reported":1741072197,"current_range_meters":10800,"station_id":"","pricing_plan_id":"cebpf4jnsgd1na2vs0mg"},{"bike_id":"355e1532-21c7-4584-bd3e-0af4695c627f","system_id":"levelo_inurba_marseille","lat":43.2842,"lon":5.35006,"is_reserved":false,"is_disabled":false,"rental_uris":{"android":"levelo://app?vid=355e1532-21c7-4584-bd3e-0af4695c627f","ios":"levelo://app?vid=355e1532-21c7-4584-bd3e-0af4695c627f"},"vehicle_type_id":"4","last_reported":1741072197,"current_range_meters":10800,"station_id":"ce4bhbh2rcd13ifvqepg","pricing_plan_id":"cebpf4jnsgd1na2vs0mg"},{"bike_id":"02b997a6-3e05-492f-b461-ea9e0c30a591","system_id":"levelo_inurba_marseille","lat":43.27963,"lon":5.38757,"is_reserved":false,"is_disabled":false,"rental_uris":{"android":"levelo://app?vid=02b997a6-3e05-492f-b461-ea9e0c30a591","ios":"levelo://app?vid=02b997a6-3e05-492f-b461-ea9e0c30a591"},"vehicle_type_id":"4","last_reported":1741072197,"current_range_meters":10800,"station_id":"ce4bhg12rcd13ifvqf80","pricing_plan_id":"cebpf4jnsgd1na2vs0mg"},{"bike_id":"e5136b97-99d8-49fc-aff2-faca0326e8ae","system_id":"levelo_inurba_marseille","lat":43.279489,"lon":5.41049,"is_reserved":false,"is_disabled":false,"rental_uris":{"android":"levelo://app?vid=e5136b97-99d8-49fc-aff2-faca0326e8ae","ios":"levelo://app?vid=e5136b97-99d8-49fc-aff2-faca0326e8ae"},"vehicle_type_id":"4","last_reported":1741072197,"current_range_meters":10800,"station_id":"ce4bhnp2rcd13ifvqh0g","pricing_plan_id":"cebpf4jnsgd1na2vs0mg"},{"bike_id":"cb014a6b-6553-43cb-90ee-c6d22cf5883f","system_id":"levelo_inurba_marseille","lat":43.26047,"lon":5.39415,"is_reserved":false,"is_disabled":false,"rental_uris":{"android":"levelo://app?vid=cb014a6b-6553-43cb-90ee-c6d22cf5883f","ios":"levelo://app?vid=cb014a6b-6553-43cb-90ee-c6d22cf5883f"},"vehicle_type_id":"4","last_reported":1741072197,"current_range_meters":10800,"station_id":"ce4bhh92rcd13ifvqfj0","pricing_plan_id":"cebpf4jnsgd1na2vs0mg"},{"bike_id":"ed677855-22dc-4b23-b5ff-ce3196e85d7f","system_id":"levelo_inurba_marseille","lat":43.29319,"lon":5.38636,"is_reserved":false,"is_disabled":false,"rental_uris":{"android":"levelo://app?vid=ed677855-22dc-4b23-b5ff-ce3196e85d7f","ios":"levelo://app?vid=ed677855-22dc-4b23-b5ff-ce3196e85d7f"},"vehicle_type_id":"4","last_reported":1741072197,"current_range_meters":11200,"station_id":"","pricing_plan_id":"cebpf4jnsgd1na2vs0mg"},{"bike_id":"a4c3698b-40cd-4d33-a9d9-689474fbe572","system_id":"levelo_inurba_marseille","lat":43.30966,"lon":5.39055,"is_reserved":false,"is_disabled":false,"rental_uris":{"android":"levelo://app?vid=a4c3698b-40cd-4d33-a9d9-689474fbe572","ios":"levelo://app?vid=a4c3698b-40cd-4d33-a9d9-689474fbe572"},"vehicle_type_id":"4","last_reported":1741072197,"current_range_meters":11200,"station_id":"ce4bgup2rcd13ifvqco0","pricing_plan_id":"cebpf4jnsgd1na2vs0mg"},{"bike_id":"dd08d469-0e07-4995-a332-b3086215ce48","system_id":"levelo_inurba_marseille","lat":43.30942,"lon":5.39052,"is_reserved":false,"is_disabled":true,"rental_uris":{"android":"levelo://app?vid=dd08d469-0e07-4995-a332-b3086215ce48","ios":"levelo://app?vid=dd08d469-0e07-4995-a332-b3086215ce48"},"vehicle_type_id":"4","last_reported":1741072197,"current_range_meters":11200,"station_id":"ce4bgup2rcd13ifvqco0","pricing_plan_id":"cebpf4jnsgd1na2vs0mg"},{"bike_id":"cb813df4-3836-4634-974a-d02d99a32d8a","system_id":"levelo_inurba_marseille","lat":43.32705,"lon":5.39232,"is_reserved":false,"is_disabled":true,"rental_uris":{"android":"levelo://app?vid=cb813df4-3836-4634-974a-d02d99a32d8a","ios":"levelo://app?vid=cb813df4-3836-4634-974a-d02d99a32d8a"},"vehicle_type_id":"4","last_reported":1741072197,"current_range_meters":11600,"station_id":"","pricing_plan_id":"cebpf4jnsgd1na2vs0mg"},{"bike_id":"04c06027-db73-4dce-b5ff-2743de2cfa39","system_id":"levelo_inurba_marseille","lat":43.24081,"lon":5.37754,"is_reserved":false,"is_disabled":false,"rental_uris":{"android":"levelo://app?vid=04c06027-db73-4dce-b5ff-2743de2cfa39","ios":"levelo://app?vid=04c06027-db73-4dce-b5ff-2743de2cfa39"},"vehicle_type_id":"4","last_reported":1741072197,"current_range_meters":11600,"station_id":"ce4bhnp2rcd13ifvqgvg","pricing_plan_id":"cebpf4jnsgd1na2vs0mg"},{"bike_id":"ab481c0f-66e7-42e7-8405-2774b77fd164","system_id":"levelo_inurba_marseille","lat":43.26954,"lon":5.38618,"is_reserved":false,"is_disabled":false,"rental_uris":{"android":"levelo://app?vid=ab481c0f-66e7-42e7-8405-2774b77fd164","ios":"levelo://app?vid=ab481c0f-66e7-42e7-8405-2774b77fd164"},"vehicle_type_id":"4","last_reported":1741072197,"current_range_meters":11600,"station_id":"ce4bhh92rcd13ifvqfh0","pricing_plan_id":"cebpf4jnsgd1na2vs0mg"},{"bike_id":"2e75e4e9-8c17-4333-9511-e3e2cb3711c0","system_id":"levelo_inurba_marseille","lat":43.29999,"lon":5.37568,"is_reserved":false,"is_disabled":false,"rental_uris":{"android":"levelo://app?vid=2e75e4e9-8c17-4333-9511-e3e2cb3711c0","ios":"levelo://app?vid=2e75e4e9-8c17-4333-9511-e3e2cb3711c0"},"vehicle_type_id":"4","last_reported":1741072197,"current_range_meters":11600,"station_id":"","pricing_plan_id":"cebpf4jnsgd1na2vs0mg"},{"bike_id":"44a7153b-0fd7-4509-836b-676bbf84fb06","system_id":"levelo_inurba_marseille","lat":43.231905,"lon":5.355575,"is_reserved":false,"is_disabled":false,"rental_uris":{"android":"levelo://app?vid=44a7153b-0fd7-4509-836b-676bbf84fb06","ios":"levelo://app?vid=44a7153b-0fd7-4509-836b-676bbf84fb06"},"vehicle_type_id":"4","last_reported":1741072197,"current_range_meters":11600,"station_id":"ce4bhu92rcd13ifvqi70","pricing_plan_id":"cebpf4jnsgd1na2vs0mg"},{"bike_id":"442bfba6-bd18-40c4-a34b-7d774854ee17","system_id":"levelo_inurba_marseille","lat":43.29256,"lon":5.37649,"is_reserved":false,"is_disabled":false,"rental_uris":{"android":"levelo://app?vid=442bfba6-bd18-40c4-a34b-7d774854ee17","ios":"levelo://app?vid=442bfba6-bd18-40c4-a34b-7d774854ee17"},"vehicle_type_id":"4","last_reported":1741072197,"current_range_meters":12000,"station_id":"ce4bgi12rcd13ifvqb80","pricing_plan_id":"cebpf4jnsgd1na2vs0mg"},{"bike_id":"ee1d2ad1-36ca-49dd-a328-f2a9a9994ecb","system_id":"levelo_inurba_marseille","lat":43.310864,"lon":5.381425,"is_reserved":false,"is_disabled":false,"rental_uris":{"android":"levelo://app?vid=ee1d2ad1-36ca-49dd-a328-f2a9a9994ecb","ios":"levelo://app?vid=ee1d2ad1-36ca-49dd-a328-f2a9a9994ecb"},"vehicle_type_id":"4","last_reported":1741072197,"current_range_meters":12000,"station_id":"","pricing_plan_id":"cebpf4jnsgd1na2vs0mg"},{"bike_id":"089251b4-101d-44dd-a4b2-0e114c7f8e04","system_id":"levelo_inurba_marseille","lat":43.30416,"lon":5.39756,"is_reserved":false,"is_disabled":false,"rental_uris":{"android":"levelo://app?vid=089251b4-101d-44dd-a4b2-0e114c7f8e04","ios":"levelo://app?vid=089251b4-101d-44dd-a4b2-0e114c7f8e04"},"vehicle_type_id":"4","last_reported":1741072197,"current_range_meters":12000,"station_id":"ce4bh092rcd13ifvqd20","pricing_plan_id":"cebpf4jnsgd1na2vs0mg"},{"bike_id":"7cea7b38-f7a0-4e92-8d25-24dec4d43a08","system_id":"levelo_inurba_marseille","lat":43.26679,"lon":5.38297,"is_reserved":false,"is_disabled":true,"rental_uris":{"android":"levelo://app?vid=7cea7b38-f7a0-4e92-8d25-24dec4d43a08","ios":"levelo://app?vid=7cea7b38-f7a0-4e92-8d25-24dec4d43a08"},"vehicle_type_id":"4","last_reported":1741072197,"current_range_meters":12000,"station_id":"ce4bhg92rcd13ifvqf90","pricing_plan_id":"cebpf4jnsgd1na2vs0mg"},{"bike_id":"a9e4db3f-a424-4a70-bbb1-9ffa5bd94433","system_id":"levelo_inurba_marseille","lat":43.32365,"lon":5.38893,"is_reserved":false,"is_disabled":false,"rental_uris":{"android":"levelo://app?vid=a9e4db3f-a424-4a70-bbb1-9ffa5bd94433","ios":"levelo://app?vid=a9e4db3f-a424-4a70-bbb1-9ffa5bd94433"},"vehicle_type_id":"4","last_reported":1741072197,"current_range_meters":12000,"station_id":"ce4bhqp2rcd13ifvqhog","pricing_plan_id":"cebpf4jnsgd1na2vs0mg"},{"bike_id":"82c6f801-2df8-47f6-8a31-6f948878ab73","system_id":"levelo_inurba_marseille","lat":43.29787,"lon":5.38124,"is_reserved":false,"is_disabled":false,"rental_uris":{"android":"levelo://app?vid=82c6f801-2df8-47f6-8a31-6f948878ab73","ios":"levelo://app?vid=82c6f801-2df8-47f6-8a31-6f948878ab73"},"vehicle_type_id":"4","last_reported":1741072197,"current_range_meters":12000,"station_id":"ce4bgip2rcd13ifvqbb0","pricing_plan_id":"cebpf4jnsgd1na2vs0mg"},{"bike_id":"dd190603-253b-443f-b7fd-8f19fa28381d","system_id":"levelo_inurba_marseille","lat":43.33778,"lon":5.37445,"is_reserved":false,"is_disabled":false,"rental_uris":{"android":"levelo://app?vid=dd190603-253b-443f-b7fd-8f19fa28381d","ios":"levelo://app?vid=dd190603-253b-443f-b7fd-8f19fa28381d"},"vehicle_type_id":"4","last_reported":1741072197,"current_range_meters":12000,"station_id":"","pricing_plan_id":"cebpf4jnsgd1na2vs0mg"},{"bike_id":"474b314c-3a52-4e17-bbda-10f41385b1a6","system_id":"levelo_inurba_marseille","lat":43.305905,"lon":5.372149,"is_reserved":false,"is_disabled":false,"rental_uris":{"android":"levelo://app?vid=474b314c-3a52-4e17-bbda-10f41385b1a6","ios":"levelo://app?vid=474b314c-3a52-4e17-bbda-10f41385b1a6"},"vehicle_type_id":"4","last_reported":1741072197,"current_range_meters":12000,"station_id":"ce4bgqh2rcd13ifvqc4g","pricing_plan_id":"cebpf4jnsgd1na2vs0mg"},{"bike_id":"b2c17c63-898b-4bf8-bd07-f7d1f9c58cb9","system_id":"levelo_inurba_marseille","lat":43.33603,"lon":5.41036,"is_reserved":false,"is_disabled":false,"rental_uris":{"android":"levelo://app?vid=b2c17c63-898b-4bf8-bd07-f7d1f9c58cb9","ios":"levelo://app?vid=b2c17c63-898b-4bf8-bd07-f7d1f9c58cb9"},"vehicle_type_id":"4","last_reported":1741072197,"current_range_meters":12000,"station_id":"ce4bhqh2rcd13ifvqhmg","pricing_plan_id":"cebpf4jnsgd1na2vs0mg"},{"bike_id":"4ced6644-ce8d-40ca-9170-d9cd2beeedb6","system_id":"levelo_inurba_marseille","lat":43.304224,"lon":5.397514,"is_reserved":false,"is_disabled":false,"rental_uris":{"android":"levelo://app?vid=4ced6644-ce8d-40ca-9170-d9cd2beeedb6","ios":"levelo://app?vid=4ced6644-ce8d-40ca-9170-d9cd2beeedb6"},"vehicle_type_id":"4","last_reported":1741072197,"current_range_meters":12400,"station_id":"ce4bh092rcd13ifvqd20","pricing_plan_id":"cebpf4jnsgd1na2vs0mg"},{"bike_id":"a2e9312b-d692-42a0-9823-fe0aab56075b","system_id":"levelo_inurba_marseille","lat":43.23139,"lon":5.43723,"is_reserved":false,"is_disabled":false,"rental_uris":{"android":"levelo://app?vid=a2e9312b-d692-42a0-9823-fe0aab56075b","ios":"levelo://app?vid=a2e9312b-d692-42a0-9823-fe0aab56075b"},"vehicle_type_id":"4","last_reported":1741072197,"current_range_meters":12400,"station_id":"ce4bhmp2rcd13ifvqgog","pricing_plan_id":"cebpf4jnsgd1na2vs0mg"},{"bike_id":"0385174a-0159-4cfa-b07d-ac418158740f","system_id":"levelo_inurba_marseille","lat":43.26483,"lon":5.39552,"is_reserved":false,"is_disabled":false,"rental_uris":{"android":"levelo://app?vid=0385174a-0159-4cfa-b07d-ac418158740f","ios":"levelo://app?vid=0385174a-0159-4cfa-b07d-ac418158740f"},"vehicle_type_id":"4","last_reported":1741072197,"current_range_meters":12400,"station_id":"ce4bhi12rcd13ifvqfq0","pricing_plan_id":"cebpf4jnsgd1na2vs0mg"},{"bike_id":"9e4f53fe-e434-44c9-a146-29f149bf6c3f","system_id":"levelo_inurba_marseille","lat":43.24173,"lon":5.39744,"is_reserved":false,"is_disabled":false,"rental_uris":{"android":"levelo://app?vid=9e4f53fe-e434-44c9-a146-29f149bf6c3f","ios":"levelo://app?vid=9e4f53fe-e434-44c9-a146-29f149bf6c3f"},"vehicle_type_id":"4","last_reported":1741072197,"current_range_meters":12800,"station_id":"ce4bhn12rcd13ifvqgpg","pricing_plan_id":"cebpf4jnsgd1na2vs0mg"},{"bike_id":"f6df2e00-684e-4815-a3bb-f85cee8233be","system_id":"levelo_inurba_marseille","lat":43.24068,"lon":5.37769,"is_reserved":false,"is_disabled":false,"rental_uris":{"android":"levelo://app?vid=f6df2e00-684e-4815-a3bb-f85cee8233be","ios":"levelo://app?vid=f6df2e00-684e-4815-a3bb-f85cee8233be"},"vehicle_type_id":"4","last_reported":1741072197,"current_range_meters":12800,"station_id":"ce4bhnp2rcd13ifvqgvg","pricing_plan_id":"cebpf4jnsgd1na2vs0mg"},{"bike_id":"e0bbd19f-dbed-424f-998c-e43cb85c9ec3","system_id":"levelo_inurba_marseille","lat":43.24163,"lon":5.36402,"is_reserved":false,"is_disabled":false,"rental_uris":{"android":"levelo://app?vid=e0bbd19f-dbed-424f-998c-e43cb85c9ec3","ios":"levelo://app?vid=e0bbd19f-dbed-424f-998c-e43cb85c9ec3"},"vehicle_type_id":"4","last_reported":1741072197,"current_range_meters":12800,"station_id":"cpo36qri1sfpv3e86is0","pricing_plan_id":"cebpf4jnsgd1na2vs0mg"},{"bike_id":"4f6a53e2-adc0-4f21-a484-100d8eb7192f","system_id":"levelo_inurba_marseille","lat":43.27814,"lon":5.40718,"is_reserved":false,"is_disabled":false,"rental_uris":{"android":"levelo://app?vid=4f6a53e2-adc0-4f21-a484-100d8eb7192f","ios":"levelo://app?vid=4f6a53e2-adc0-4f21-a484-100d8eb7192f"},"vehicle_type_id":"4","last_reported":1741072197,"current_range_meters":12800,"station_id":"ce4bhnh2rcd13ifvqgtg","pricing_plan_id":"cebpf4jnsgd1na2vs0mg"},{"bike_id":"2458e0f1-a8b2-4533-b3c9-d2a934eb6fd5","system_id":"levelo_inurba_marseille","lat":43.28851,"lon":5.35836,"is_reserved":false,"is_disabled":false,"rental_uris":{"android":"levelo://app?vid=2458e0f1-a8b2-4533-b3c9-d2a934eb6fd5","ios":"levelo://app?vid=2458e0f1-a8b2-4533-b3c9-d2a934eb6fd5"},"vehicle_type_id":"4","last_reported":1741072197,"current_range_meters":13600,"station_id":"ce4bhb12rcd13ifvqem0","pricing_plan_id":"cebpf4jnsgd1na2vs0mg"},{"bike_id":"0aefc4c4-1de1-4772-a7a3-e117436c9775","system_id":"levelo_inurba_marseille","lat":43.30597,"lon":5.39365,"is_reserved":false,"is_disabled":false,"rental_uris":{"android":"levelo://app?vid=0aefc4c4-1de1-4772-a7a3-e117436c9775","ios":"levelo://app?vid=0aefc4c4-1de1-4772-a7a3-e117436c9775"},"vehicle_type_id":"4","last_reported":1741072197,"current_range_meters":13600,"station_id":"ce4bh0p2rcd13ifvqd80","pricing_plan_id":"cebpf4jnsgd1na2vs0mg"},{"bike_id":"6a2f443b-bc7f-4630-b851-1b63f59abf78","system_id":"levelo_inurba_marseille","lat":43.26048,"lon":5.39398,"is_reserved":false,"is_disabled":false,"rental_uris":{"android":"levelo://app?vid=6a2f443b-bc7f-4630-b851-1b63f59abf78","ios":"levelo://app?vid=6a2f443b-bc7f-4630-b851-1b63f59abf78"},"vehicle_type_id":"4","last_reported":1741072197,"current_range_meters":13600,"station_id":"ce4bhh92rcd13ifvqfj0","pricing_plan_id":"cebpf4jnsgd1na2vs0mg"},{"bike_id":"fe65d165-e4f8-45e4-b0cc-6ba4a385c0db","system_id":"levelo_inurba_marseille","lat":43.2925,"lon":5.37646,"is_reserved":false,"is_disabled":false,"rental_uris":{"android":"levelo://app?vid=fe65d165-e4f8-45e4-b0cc-6ba4a385c0db","ios":"levelo://app?vid=fe65d165-e4f8-45e4-b0cc-6ba4a385c0db"},"vehicle_type_id":"4","last_reported":1741072197,"current_range_meters":13600,"station_id":"ce4bgi12rcd13ifvqb80","pricing_plan_id":"cebpf4jnsgd1na2vs0mg"},{"bike_id":"d7ef5145-0bca-4f45-a0cf-6b1d49f6690d","system_id":"levelo_inurba_marseille","lat":43.31387,"lon":5.39195,"is_reserved":false,"is_disabled":false,"rental_uris":{"android":"levelo://app?vid=d7ef5145-0bca-4f45-a0cf-6b1d49f6690d","ios":"levelo://app?vid=d7ef5145-0bca-4f45-a0cf-6b1d49f6690d"},"vehicle_type_id":"4","last_reported":1741072197,"current_range_meters":13600,"station_id":"","pricing_plan_id":"cebpf4jnsgd1na2vs0mg"},{"bike_id":"cfd37df0-b1c6-4f94-a627-4f20422c897a","system_id":"levelo_inurba_marseille","lat":43.276998,"lon":5.415404,"is_reserved":false,"is_disabled":false,"rental_uris":{"android":"levelo://app?vid=cfd37df0-b1c6-4f94-a627-4f20422c897a","ios":"levelo://app?vid=cfd37df0-b1c6-4f94-a627-4f20422c897a"},"vehicle_type_id":"4","last_reported":1741072197,"current_range_meters":13600,"station_id":"","pricing_plan_id":"cebpf4jnsgd1na2vs0mg"},{"bike_id":"6f1f5576-4205-4bf3-a742-d61d128eb62a","system_id":"levelo_inurba_marseille","lat":43.26573,"lon":5.39004,"is_reserved":false,"is_disabled":false,"rental_uris":{"android":"levelo://app?vid=6f1f5576-4205-4bf3-a742-d61d128eb62a","ios":"levelo://app?vid=6f1f5576-4205-4bf3-a742-d61d128eb62a"},"vehicle_type_id":"4","last_reported":1741072197,"current_range_meters":13600,"station_id":"ce4bhe12rcd13ifvqf30","pricing_plan_id":"cebpf4jnsgd1na2vs0mg"},{"bike_id":"c543f408-044b-423f-813b-6d23133d58b0","system_id":"levelo_inurba_marseille","lat":43.26942,"lon":5.40251,"is_reserved":false,"is_disabled":false,"rental_uris":{"android":"levelo://app?vid=c543f408-044b-423f-813b-6d23133d58b0","ios":"levelo://app?vid=c543f408-044b-423f-813b-6d23133d58b0"},"vehicle_type_id":"4","last_reported":1741072197,"current_range_meters":13600,"station_id":"cjm6bp8fraef2m0cb0m0","pricing_plan_id":"cebpf4jnsgd1na2vs0mg"},{"bike_id":"987ad4a3-1076-43cd-8b5e-821000bd9197","system_id":"levelo_inurba_marseille","lat":43.29966,"lon":5.385,"is_reserved":false,"is_disabled":false,"rental_uris":{"android":"levelo://app?vid=987ad4a3-1076-43cd-8b5e-821000bd9197","ios":"levelo://app?vid=987ad4a3-1076-43cd-8b5e-821000bd9197"},"vehicle_type_id":"4","last_reported":1741072197,"current_range_meters":14000,"station_id":"ce4bgj92rcd13ifvqbd0","pricing_plan_id":"cebpf4jnsgd1na2vs0mg"},{"bike_id":"da6c78a3-dad6-4cff-b1e6-2820ea8a33bf","system_id":"levelo_inurba_marseille","lat":43.33777,"lon":5.37431,"is_reserved":false,"is_disabled":false,"rental_uris":{"android":"levelo://app?vid=da6c78a3-dad6-4cff-b1e6-2820ea8a33bf","ios":"levelo://app?vid=da6c78a3-dad6-4cff-b1e6-2820ea8a33bf"},"vehicle_type_id":"4","last_reported":1741072197,"current_range_meters":14000,"station_id":"","pricing_plan_id":"cebpf4jnsgd1na2vs0mg"},{"bike_id":"bc389614-a1bd-4bd1-ae6c-15acadf8db1a","system_id":"levelo_inurba_marseille","lat":43.28319,"lon":5.43252,"is_reserved":false,"is_disabled":false,"rental_uris":{"android":"levelo://app?vid=bc389614-a1bd-4bd1-ae6c-15acadf8db1a","ios":"levelo://app?vid=bc389614-a1bd-4bd1-ae6c-15acadf8db1a"},"vehicle_type_id":"4","last_reported":1741072197,"current_range_meters":14000,"station_id":"","pricing_plan_id":"cebpf4jnsgd1na2vs0mg"},{"bike_id":"096a4bf9-e472-45d7-828b-5ce3fa44291b","system_id":"levelo_inurba_marseille","lat":43.28653,"lon":5.36358,"is_reserved":false,"is_disabled":false,"rental_uris":{"android":"levelo://app?vid=096a4bf9-e472-45d7-828b-5ce3fa44291b","ios":"levelo://app?vid=096a4bf9-e472-45d7-828b-5ce3fa44291b"},"vehicle_type_id":"4","last_reported":1741072197,"current_range_meters":14000,"station_id":"ce4bhah2rcd13ifvqej0","pricing_plan_id":"cebpf4jnsgd1na2vs0mg"},{"bike_id":"149bfa5f-df75-4b5d-ab2d-238f64d065d2","system_id":"levelo_inurba_marseille","lat":43.30879,"lon":5.37206,"is_reserved":false,"is_disabled":false,"rental_uris":{"android":"levelo://app?vid=149bfa5f-df75-4b5d-ab2d-238f64d065d2","ios":"levelo://app?vid=149bfa5f-df75-4b5d-ab2d-238f64d065d2"},"vehicle_type_id":"4","last_reported":1741072197,"current_range_meters":14000,"station_id":"ce4bguh2rcd13ifvqckg","pricing_plan_id":"cebpf4jnsgd1na2vs0mg"},{"bike_id":"38f37a23-5169-4d18-ab25-4dff16ba5bae","system_id":"levelo_inurba_marseille","lat":43.28624,"lon":5.37068,"is_reserved":false,"is_disabled":false,"rental_uris":{"android":"levelo://app?vid=38f37a23-5169-4d18-ab25-4dff16ba5bae","ios":"levelo://app?vid=38f37a23-5169-4d18-ab25-4dff16ba5bae"},"vehicle_type_id":"4","last_reported":1741072197,"current_range_meters":14000,"station_id":"ce4bht12rcd13ifvqi60","pricing_plan_id":"cebpf4jnsgd1na2vs0mg"},{"bike_id":"8bb6a5e9-01cd-4b86-9afd-79e56354747c","system_id":"levelo_inurba_marseille","lat":43.290009,"lon":5.356184,"is_reserved":false,"is_disabled":false,"rental_uris":{"android":"levelo://app?vid=8bb6a5e9-01cd-4b86-9afd-79e56354747c","ios":"levelo://app?vid=8bb6a5e9-01cd-4b86-9afd-79e56354747c"},"vehicle_type_id":"4","last_reported":1741072197,"current_range_meters":14000,"station_id":"","pricing_plan_id":"cebpf4jnsgd1na2vs0mg"},{"bike_id":"597ec1e9-27d3-44df-8fd4-fe5beca67112","system_id":"levelo_inurba_marseille","lat":43.26202,"lon":5.37928,"is_reserved":false,"is_disabled":false,"rental_uris":{"android":"levelo://app?vid=597ec1e9-27d3-44df-8fd4-fe5beca67112","ios":"levelo://app?vid=597ec1e9-27d3-44df-8fd4-fe5beca67112"},"vehicle_type_id":"4","last_reported":1741072197,"current_range_meters":14000,"station_id":"ce4bhjp2rcd13ifvqg90","pricing_plan_id":"cebpf4jnsgd1na2vs0mg"},{"bike_id":"a701abf8-3ece-4dc1-a4be-d00e444adcf7","system_id":"levelo_inurba_marseille","lat":43.25575,"lon":5.38252,"is_reserved":false,"is_disabled":false,"rental_uris":{"android":"levelo://app?vid=a701abf8-3ece-4dc1-a4be-d00e444adcf7","ios":"levelo://app?vid=a701abf8-3ece-4dc1-a4be-d00e444adcf7"},"vehicle_type_id":"4","last_reported":1741072197,"current_range_meters":14000,"station_id":"ce4bhih2rcd13ifvqfs0","pricing_plan_id":"cebpf4jnsgd1na2vs0mg"},{"bike_id":"642c7792-3e94-4263-87b3-9666d4f3535e","system_id":"levelo_inurba_marseille","lat":43.25492,"lon":5.37754,"is_reserved":false,"is_disabled":false,"rental_uris":{"android":"levelo://app?vid=642c7792-3e94-4263-87b3-9666d4f3535e","ios":"levelo://app?vid=642c7792-3e94-4263-87b3-9666d4f3535e"},"vehicle_type_id":"4","last_reported":1741072197,"current_range_meters":14000,"station_id":"","pricing_plan_id":"cebpf4jnsgd1na2vs0mg"},{"bike_id":"e2d97c7f-cb64-4e0a-89b6-b644f73ea3a3","system_id":"levelo_inurba_marseille","lat":43.2749,"lon":5.42469,"is_reserved":false,"is_disabled":false,"rental_uris":{"android":"levelo://app?vid=e2d97c7f-cb64-4e0a-89b6-b644f73ea3a3","ios":"levelo://app?vid=e2d97c7f-cb64-4e0a-89b6-b644f73ea3a3"},"vehicle_type_id":"4","last_reported":1741072197,"current_range_meters":14000,"station_id":"ce4bhn92rcd13ifvqgrg","pricing_plan_id":"cebpf4jnsgd1na2vs0mg"},{"bike_id":"dee5d275-5d09-4f17-938d-d02597b7f2c0","system_id":"levelo_inurba_marseille","lat":43.2749,"lon":5.42456,"is_reserved":false,"is_disabled":false,"rental_uris":{"android":"levelo://app?vid=dee5d275-5d09-4f17-938d-d02597b7f2c0","ios":"levelo://app?vid=dee5d275-5d09-4f17-938d-d02597b7f2c0"},"vehicle_type_id":"4","last_reported":1741072197,"current_range_meters":14000,"station_id":"ce4bhn92rcd13ifvqgrg","pricing_plan_id":"cebpf4jnsgd1na2vs0mg"},{"bike_id":"7cc090e2-86d6-4a16-85d9-aa37c7888969","system_id":"levelo_inurba_marseille","lat":43.29197,"lon":5.35796,"is_reserved":false,"is_disabled":false,"rental_uris":{"android":"levelo://app?vid=7cc090e2-86d6-4a16-85d9-aa37c7888969","ios":"levelo://app?vid=7cc090e2-86d6-4a16-85d9-aa37c7888969"},"vehicle_type_id":"4","last_reported":1741072197,"current_range_meters":14400,"station_id":"ce4bhb12rcd13ifvqel0","pricing_plan_id":"cebpf4jnsgd1na2vs0mg"},{"bike_id":"81feccab-f4e0-464a-a8fb-d5d3cb5e3510","system_id":"levelo_inurba_marseille","lat":43.30412,"lon":5.39742,"is_reserved":false,"is_disabled":false,"rental_uris":{"android":"levelo://app?vid=81feccab-f4e0-464a-a8fb-d5d3cb5e3510","ios":"levelo://app?vid=81feccab-f4e0-464a-a8fb-d5d3cb5e3510"},"vehicle_type_id":"4","last_reported":1741072197,"current_range_meters":14400,"station_id":"ce4bh092rcd13ifvqd20","pricing_plan_id":"cebpf4jnsgd1na2vs0mg"},{"bike_id":"3ec42906-51ca-46f0-a46d-520ca867212b","system_id":"levelo_inurba_marseille","lat":43.26946,"lon":5.40257,"is_reserved":false,"is_disabled":false,"rental_uris":{"android":"levelo://app?vid=3ec42906-51ca-46f0-a46d-520ca867212b","ios":"levelo://app?vid=3ec42906-51ca-46f0-a46d-520ca867212b"},"vehicle_type_id":"4","last_reported":1741072197,"current_range_meters":14400,"station_id":"cjm6bp8fraef2m0cb0m0","pricing_plan_id":"cebpf4jnsgd1na2vs0mg"},{"bike_id":"f83a09a1-05e9-4f34-b3b0-a301d7d23141","system_id":"levelo_inurba_marseille","lat":43.29301,"lon":5.42714,"is_reserved":false,"is_disabled":false,"rental_uris":{"android":"levelo://app?vid=f83a09a1-05e9-4f34-b3b0-a301d7d23141","ios":"levelo://app?vid=f83a09a1-05e9-4f34-b3b0-a301d7d23141"},"vehicle_type_id":"4","last_reported":1741072197,"current_range_meters":14400,"station_id":"","pricing_plan_id":"cebpf4jnsgd1na2vs0mg"},{"bike_id":"51f6f578-8898-487a-9da7-ff3d6d379d1b","system_id":"levelo_inurba_marseille","lat":43.32097,"lon":5.3679,"is_reserved":false,"is_disabled":false,"rental_uris":{"android":"levelo://app?vid=51f6f578-8898-487a-9da7-ff3d6d379d1b","ios":"levelo://app?vid=51f6f578-8898-487a-9da7-ff3d6d379d1b"},"vehicle_type_id":"4","last_reported":1741072197,"current_range_meters":14400,"station_id":"ce4bhrh2rcd13ifvqhug","pricing_plan_id":"cebpf4jnsgd1na2vs0mg"},{"bike_id":"ceafbcb3-5253-467f-8d5b-15203ddf6911","system_id":"levelo_inurba_marseille","lat":43.272146,"lon":5.391814,"is_reserved":false,"is_disabled":false,"rental_uris":{"android":"levelo://app?vid=ceafbcb3-5253-467f-8d5b-15203ddf6911","ios":"levelo://app?vid=ceafbcb3-5253-467f-8d5b-15203ddf6911"},"vehicle_type_id":"4","last_reported":1741072197,"current_range_meters":14800,"station_id":"ce4bhg92rcd13ifvqf90","pricing_plan_id":"cebpf4jnsgd1na2vs0mg"},{"bike_id":"fbf07fd6-1be4-46b8-b724-b841c7f1c8b3","system_id":"levelo_inurba_marseille","lat":43.25827,"lon":5.39436,"is_reserved":false,"is_disabled":false,"rental_uris":{"android":"levelo://app?vid=fbf07fd6-1be4-46b8-b724-b841c7f1c8b3","ios":"levelo://app?vid=fbf07fd6-1be4-46b8-b724-b841c7f1c8b3"},"vehicle_type_id":"4","last_reported":1741072197,"current_range_meters":14800,"station_id":"ce4bhip2rcd13ifvqft0","pricing_plan_id":"cebpf4jnsgd1na2vs0mg"},{"bike_id":"2f3067f0-7bbc-458f-8e14-d4bc08996548","system_id":"levelo_inurba_marseille","lat":43.29208,"lon":5.36078,"is_reserved":false,"is_disabled":false,"rental_uris":{"android":"levelo://app?vid=2f3067f0-7bbc-458f-8e14-d4bc08996548","ios":"levelo://app?vid=2f3067f0-7bbc-458f-8e14-d4bc08996548"},"vehicle_type_id":"4","last_reported":1741072197,"current_range_meters":14800,"station_id":"ce4bhbh2rcd13ifvqeqg","pricing_plan_id":"cebpf4jnsgd1na2vs0mg"},{"bike_id":"72eb316f-b406-4368-b692-99c81bec4002","system_id":"levelo_inurba_marseille","lat":43.30414,"lon":5.41279,"is_reserved":false,"is_disabled":true,"rental_uris":{"android":"levelo://app?vid=72eb316f-b406-4368-b692-99c81bec4002","ios":"levelo://app?vid=72eb316f-b406-4368-b692-99c81bec4002"},"vehicle_type_id":"4","last_reported":1741072197,"current_range_meters":15200,"station_id":"ce4bhop2rcd13ifvqh8g","pricing_plan_id":"cebpf4jnsgd1na2vs0mg"},{"bike_id":"c4be5d44-4c06-46fa-891a-ac0eeb1680bb","system_id":"levelo_inurba_marseille","lat":43.30594,"lon":5.39369,"is_reserved":false,"is_disabled":false,"rental_uris":{"android":"levelo://app?vid=c4be5d44-4c06-46fa-891a-ac0eeb1680bb","ios":"levelo://app?vid=c4be5d44-4c06-46fa-891a-ac0eeb1680bb"},"vehicle_type_id":"4","last_reported":1741072197,"current_range_meters":15200,"station_id":"ce4bh0p2rcd13ifvqd80","pricing_plan_id":"cebpf4jnsgd1na2vs0mg"},{"bike_id":"8c4f7d43-96ed-4623-a433-f8e1a2179934","system_id":"levelo_inurba_marseille","lat":43.28346,"lon":5.38106,"is_reserved":false,"is_disabled":false,"rental_uris":{"android":"levelo://app?vid=8c4f7d43-96ed-4623-a433-f8e1a2179934","ios":"levelo://app?vid=8c4f7d43-96ed-4623-a433-f8e1a2179934"},"vehicle_type_id":"4","last_reported":1741072197,"current_range_meters":15200,"station_id":"ce4bh412rcd13ifvqdr0","pricing_plan_id":"cebpf4jnsgd1na2vs0mg"},{"bike_id":"5fef17dc-a689-49c5-96b0-2b94b73dab00","system_id":"levelo_inurba_marseille","lat":43.30949,"lon":5.39045,"is_reserved":false,"is_disabled":false,"rental_uris":{"android":"levelo://app?vid=5fef17dc-a689-49c5-96b0-2b94b73dab00","ios":"levelo://app?vid=5fef17dc-a689-49c5-96b0-2b94b73dab00"},"vehicle_type_id":"4","last_reported":1741072197,"current_range_meters":15200,"station_id":"ce4bgup2rcd13ifvqco0","pricing_plan_id":"cebpf4jnsgd1na2vs0mg"},{"bike_id":"2b21b95b-c462-4221-867e-402f524731e1","system_id":"levelo_inurba_marseille","lat":43.30598,"lon":5.39377,"is_reserved":false,"is_disabled":false,"rental_uris":{"android":"levelo://app?vid=2b21b95b-c462-4221-867e-402f524731e1","ios":"levelo://app?vid=2b21b95b-c462-4221-867e-402f524731e1"},"vehicle_type_id":"4","last_reported":1741072197,"current_range_meters":15200,"station_id":"ce4bh0p2rcd13ifvqd80","pricing_plan_id":"cebpf4jnsgd1na2vs0mg"},{"bike_id":"8b7b3e92-fc3d-4aa6-9b62-d67a99ca8207","system_id":"levelo_inurba_marseille","lat":43.27493,"lon":5.4246,"is_reserved":false,"is_disabled":false,"rental_uris":{"android":"levelo://app?vid=8b7b3e92-fc3d-4aa6-9b62-d67a99ca8207","ios":"levelo://app?vid=8b7b3e92-fc3d-4aa6-9b62-d67a99ca8207"},"vehicle_type_id":"4","last_reported":1741072197,"current_range_meters":15200,"station_id":"ce4bhn92rcd13ifvqgrg","pricing_plan_id":"cebpf4jnsgd1na2vs0mg"},{"bike_id":"a2b9d686-216a-4f50-ae4b-e7710a444cd6","system_id":"levelo_inurba_marseille","lat":43.24997,"lon":5.38897,"is_reserved":false,"is_disabled":false,"rental_uris":{"android":"levelo://app?vid=a2b9d686-216a-4f50-ae4b-e7710a444cd6","ios":"levelo://app?vid=a2b9d686-216a-4f50-ae4b-e7710a444cd6"},"vehicle_type_id":"4","last_reported":1741072197,"current_range_meters":15200,"station_id":"ce4bhgp2rcd13ifvqfd0","pricing_plan_id":"cebpf4jnsgd1na2vs0mg"},{"bike_id":"7f7e1c62-8591-4bd5-b418-84accf5550de","system_id":"levelo_inurba_marseille","lat":43.29809,"lon":5.40272,"is_reserved":false,"is_disabled":false,"rental_uris":{"android":"levelo://app?vid=7f7e1c62-8591-4bd5-b418-84accf5550de","ios":"levelo://app?vid=7f7e1c62-8591-4bd5-b418-84accf5550de"},"vehicle_type_id":"4","last_reported":1741072197,"current_range_meters":15200,"station_id":"","pricing_plan_id":"cebpf4jnsgd1na2vs0mg"},{"bike_id":"28e597e9-7abe-46b6-a991-69781ec73e0f","system_id":"levelo_inurba_marseille","lat":43.24082,"lon":5.37755,"is_reserved":false,"is_disabled":false,"rental_uris":{"android":"levelo://app?vid=28e597e9-7abe-46b6-a991-69781ec73e0f","ios":"levelo://app?vid=28e597e9-7abe-46b6-a991-69781ec73e0f"},"vehicle_type_id":"4","last_reported":1741072197,"current_range_meters":15200,"station_id":"ce4bhnp2rcd13ifvqgvg","pricing_plan_id":"cebpf4jnsgd1na2vs0mg"},{"bike_id":"95b3e919-4fbc-4512-83db-4e0e404f4f62","system_id":"levelo_inurba_marseille","lat":43.32965,"lon":5.39058,"is_reserved":false,"is_disabled":false,"rental_uris":{"android":"levelo://app?vid=95b3e919-4fbc-4512-83db-4e0e404f4f62","ios":"levelo://app?vid=95b3e919-4fbc-4512-83db-4e0e404f4f62"},"vehicle_type_id":"4","last_reported":1741072197,"current_range_meters":15200,"station_id":"ce4bhr92rcd13ifvqhrg","pricing_plan_id":"cebpf4jnsgd1na2vs0mg"},{"bike_id":"9fec91bd-d7aa-4149-bd43-cd46ffb8d0a9","system_id":"levelo_inurba_marseille","lat":43.2919,"lon":5.393171,"is_reserved":false,"is_disabled":false,"rental_uris":{"android":"levelo://app?vid=9fec91bd-d7aa-4149-bd43-cd46ffb8d0a9","ios":"levelo://app?vid=9fec91bd-d7aa-4149-bd43-cd46ffb8d0a9"},"vehicle_type_id":"4","last_reported":1741072197,"current_range_meters":15200,"station_id":"ce4bh192rcd13ifvqdd0","pricing_plan_id":"cebpf4jnsgd1na2vs0mg"},{"bike_id":"47ca7176-dcba-4b9e-8dbb-e2bb239319ab","system_id":"levelo_inurba_marseille","lat":43.31449,"lon":5.38624,"is_reserved":false,"is_disabled":false,"rental_uris":{"android":"levelo://app?vid=47ca7176-dcba-4b9e-8dbb-e2bb239319ab","ios":"levelo://app?vid=47ca7176-dcba-4b9e-8dbb-e2bb239319ab"},"vehicle_type_id":"4","last_reported":1741072197,"current_range_meters":16000,"station_id":"","pricing_plan_id":"cebpf4jnsgd1na2vs0mg"},{"bike_id":"428ddc3d-05a8-4b76-b027-89ba3c31dbda","system_id":"levelo_inurba_marseille","lat":43.25567,"lon":5.38253,"is_reserved":false,"is_disabled":false,"rental_uris":{"android":"levelo://app?vid=428ddc3d-05a8-4b76-b027-89ba3c31dbda","ios":"levelo://app?vid=428ddc3d-05a8-4b76-b027-89ba3c31dbda"},"vehicle_type_id":"4","last_reported":1741072197,"current_range_meters":16000,"station_id":"ce4bhih2rcd13ifvqfs0","pricing_plan_id":"cebpf4jnsgd1na2vs0mg"},{"bike_id":"8ef12c96-4a02-4ab6-af53-ca8fd7864c6a","system_id":"levelo_inurba_marseille","lat":43.309529,"lon":5.390041,"is_reserved":false,"is_disabled":false,"rental_uris":{"android":"levelo://app?vid=8ef12c96-4a02-4ab6-af53-ca8fd7864c6a","ios":"levelo://app?vid=8ef12c96-4a02-4ab6-af53-ca8fd7864c6a"},"vehicle_type_id":"4","last_reported":1741072197,"current_range_meters":16000,"station_id":"ce4bgup2rcd13ifvqco0","pricing_plan_id":"cebpf4jnsgd1na2vs0mg"},{"bike_id":"c71d653e-60a3-4469-bbba-cf4a9877a2d8","system_id":"levelo_inurba_marseille","lat":43.28948,"lon":5.364,"is_reserved":false,"is_disabled":false,"rental_uris":{"android":"levelo://app?vid=c71d653e-60a3-4469-bbba-cf4a9877a2d8","ios":"levelo://app?vid=c71d653e-60a3-4469-bbba-cf4a9877a2d8"},"vehicle_type_id":"4","last_reported":1741072197,"current_range_meters":16000,"station_id":"ce4bhc92rcd13ifvqetg","pricing_plan_id":"cebpf4jnsgd1na2vs0mg"},{"bike_id":"985d2fa7-01f5-44f0-8aae-9e1fc7712f86","system_id":"levelo_inurba_marseille","lat":43.29252,"lon":5.37626,"is_reserved":false,"is_disabled":false,"rental_uris":{"android":"levelo://app?vid=985d2fa7-01f5-44f0-8aae-9e1fc7712f86","ios":"levelo://app?vid=985d2fa7-01f5-44f0-8aae-9e1fc7712f86"},"vehicle_type_id":"4","last_reported":1741072197,"current_range_meters":16000,"station_id":"ce4bgi12rcd13ifvqb80","pricing_plan_id":"cebpf4jnsgd1na2vs0mg"},{"bike_id":"e6ce3260-6e42-4334-a434-b7f25aa0a5bb","system_id":"levelo_inurba_marseille","lat":43.31883,"lon":5.37941,"is_reserved":false,"is_disabled":false,"rental_uris":{"android":"levelo://app?vid=e6ce3260-6e42-4334-a434-b7f25aa0a5bb","ios":"levelo://app?vid=e6ce3260-6e42-4334-a434-b7f25aa0a5bb"},"vehicle_type_id":"4","last_reported":1741072197,"current_range_meters":16000,"station_id":"","pricing_plan_id":"cebpf4jnsgd1na2vs0mg"},{"bike_id":"71e7e831-7788-449a-bf40-47f97d1d588c","system_id":"levelo_inurba_marseille","lat":43.320597,"lon":5.409885,"is_reserved":false,"is_disabled":false,"rental_uris":{"android":"levelo://app?vid=71e7e831-7788-449a-bf40-47f97d1d588c","ios":"levelo://app?vid=71e7e831-7788-449a-bf40-47f97d1d588c"},"vehicle_type_id":"4","last_reported":1741072197,"current_range_meters":16000,"station_id":"","pricing_plan_id":"cebpf4jnsgd1na2vs0mg"},{"bike_id":"076436f3-964c-4094-afc3-2dc5e70d7a5d","system_id":"levelo_inurba_marseille","lat":43.27055,"lon":5.40257,"is_reserved":false,"is_disabled":false,"rental_uris":{"android":"levelo://app?vid=076436f3-964c-4094-afc3-2dc5e70d7a5d","ios":"levelo://app?vid=076436f3-964c-4094-afc3-2dc5e70d7a5d"},"vehicle_type_id":"4","last_reported":1741072197,"current_range_meters":16000,"station_id":"ce4bhk92rcd13ifvqgc0","pricing_plan_id":"cebpf4jnsgd1na2vs0mg"},{"bike_id":"2c21a737-415d-41f7-8dfa-ed2c8cbe3fbf","system_id":"levelo_inurba_marseille","lat":43.28442,"lon":5.3592,"is_reserved":false,"is_disabled":true,"rental_uris":{"android":"levelo://app?vid=2c21a737-415d-41f7-8dfa-ed2c8cbe3fbf","ios":"levelo://app?vid=2c21a737-415d-41f7-8dfa-ed2c8cbe3fbf"},"vehicle_type_id":"4","last_reported":1741072197,"current_range_meters":16400,"station_id":"ce4bhah2rcd13ifvqei0","pricing_plan_id":"cebpf4jnsgd1na2vs0mg"},{"bike_id":"4ead3cf7-030a-48ef-8e3f-f442056c69b3","system_id":"levelo_inurba_marseille","lat":43.30462,"lon":5.37918,"is_reserved":false,"is_disabled":false,"rental_uris":{"android":"levelo://app?vid=4ead3cf7-030a-48ef-8e3f-f442056c69b3","ios":"levelo://app?vid=4ead3cf7-030a-48ef-8e3f-f442056c69b3"},"vehicle_type_id":"4","last_reported":1741072197,"current_range_meters":16400,"station_id":"ce4bgup2rcd13ifvqcn0","pricing_plan_id":"cebpf4jnsgd1na2vs0mg"},{"bike_id":"7cd5e07c-ad2a-4af8-99d9-77c41335ce79","system_id":"levelo_inurba_marseille","lat":43.24169,"lon":5.36405,"is_reserved":false,"is_disabled":false,"rental_uris":{"android":"levelo://app?vid=7cd5e07c-ad2a-4af8-99d9-77c41335ce79","ios":"levelo://app?vid=7cd5e07c-ad2a-4af8-99d9-77c41335ce79"},"vehicle_type_id":"4","last_reported":1741072197,"current_range_meters":16400,"station_id":"cpo36qri1sfpv3e86is0","pricing_plan_id":"cebpf4jnsgd1na2vs0mg"},{"bike_id":"95d7778b-2b79-4249-abba-96e616b8ac44","system_id":"levelo_inurba_marseille","lat":43.304311,"lon":5.397506,"is_reserved":false,"is_disabled":false,"rental_uris":{"android":"levelo://app?vid=95d7778b-2b79-4249-abba-96e616b8ac44","ios":"levelo://app?vid=95d7778b-2b79-4249-abba-96e616b8ac44"},"vehicle_type_id":"4","last_reported":1741072197,"current_range_meters":16400,"station_id":"ce4bh092rcd13ifvqd20","pricing_plan_id":"cebpf4jnsgd1na2vs0mg"},{"bike_id":"d571166c-77a4-4a91-b051-9cc34ad31336","system_id":"levelo_inurba_marseille","lat":43.301963,"lon":5.393263,"is_reserved":false,"is_disabled":false,"rental_uris":{"android":"levelo://app?vid=d571166c-77a4-4a91-b051-9cc34ad31336","ios":"levelo://app?vid=d571166c-77a4-4a91-b051-9cc34ad31336"},"vehicle_type_id":"4","last_reported":1741072197,"current_range_meters":16400,"station_id":"","pricing_plan_id":"cebpf4jnsgd1na2vs0mg"},{"bike_id":"c97db55d-641e-4edb-b92d-c701ab285fc1","system_id":"levelo_inurba_marseille","lat":43.272108,"lon":5.391467,"is_reserved":false,"is_disabled":false,"rental_uris":{"android":"levelo://app?vid=c97db55d-641e-4edb-b92d-c701ab285fc1","ios":"levelo://app?vid=c97db55d-641e-4edb-b92d-c701ab285fc1"},"vehicle_type_id":"4","last_reported":1741072197,"current_range_meters":16400,"station_id":"ce4bhdp2rcd13ifvqf20","pricing_plan_id":"cebpf4jnsgd1na2vs0mg"},{"bike_id":"1fa29a2d-b199-47af-b6d0-e7d847d41d3b","system_id":"levelo_inurba_marseille","lat":43.24079,"lon":5.37755,"is_reserved":false,"is_disabled":false,"rental_uris":{"android":"levelo://app?vid=1fa29a2d-b199-47af-b6d0-e7d847d41d3b","ios":"levelo://app?vid=1fa29a2d-b199-47af-b6d0-e7d847d41d3b"},"vehicle_type_id":"4","last_reported":1741072197,"current_range_meters":16400,"station_id":"ce4bhnp2rcd13ifvqgvg","pricing_plan_id":"cebpf4jnsgd1na2vs0mg"},{"bike_id":"4f22ed03-3f01-49f0-87ec-77cf8c324e7e","system_id":"levelo_inurba_marseille","lat":43.30989,"lon":5.384,"is_reserved":false,"is_disabled":false,"rental_uris":{"android":"levelo://app?vid=4f22ed03-3f01-49f0-87ec-77cf8c324e7e","ios":"levelo://app?vid=4f22ed03-3f01-49f0-87ec-77cf8c324e7e"},"vehicle_type_id":"4","last_reported":1741072197,"current_range_meters":16800,"station_id":"","pricing_plan_id":"cebpf4jnsgd1na2vs0mg"},{"bike_id":"b61de86e-763a-4c41-8050-2a3cc34c0988","system_id":"levelo_inurba_marseille","lat":43.30588,"lon":5.3725,"is_reserved":false,"is_disabled":false,"rental_uris":{"android":"levelo://app?vid=b61de86e-763a-4c41-8050-2a3cc34c0988","ios":"levelo://app?vid=b61de86e-763a-4c41-8050-2a3cc34c0988"},"vehicle_type_id":"4","last_reported":1741072197,"current_range_meters":16800,"station_id":"ce4bgqh2rcd13ifvqc4g","pricing_plan_id":"cebpf4jnsgd1na2vs0mg"},{"bike_id":"e4c74c34-e1ab-4bad-ac9a-b859a9a8acb2","system_id":"levelo_inurba_marseille","lat":43.30149,"lon":5.38099,"is_reserved":false,"is_disabled":false,"rental_uris":{"android":"levelo://app?vid=e4c74c34-e1ab-4bad-ac9a-b859a9a8acb2","ios":"levelo://app?vid=e4c74c34-e1ab-4bad-ac9a-b859a9a8acb2"},"vehicle_type_id":"4","last_reported":1741072197,"current_range_meters":16800,"station_id":"ce4bgjp2rcd13ifvqbh0","pricing_plan_id":"cebpf4jnsgd1na2vs0mg"},{"bike_id":"4a131a6e-20ed-4f37-9325-fb0815961b00","system_id":"levelo_inurba_marseille","lat":43.23135,"lon":5.43798,"is_reserved":false,"is_disabled":false,"rental_uris":{"android":"levelo://app?vid=4a131a6e-20ed-4f37-9325-fb0815961b00","ios":"levelo://app?vid=4a131a6e-20ed-4f37-9325-fb0815961b00"},"vehicle_type_id":"4","last_reported":1741072197,"current_range_meters":16800,"station_id":"","pricing_plan_id":"cebpf4jnsgd1na2vs0mg"},{"bike_id":"794109e5-e770-4c60-a632-c6dcf297cc2d","system_id":"levelo_inurba_marseille","lat":43.29008,"lon":5.35616,"is_reserved":false,"is_disabled":false,"rental_uris":{"android":"levelo://app?vid=794109e5-e770-4c60-a632-c6dcf297cc2d","ios":"levelo://app?vid=794109e5-e770-4c60-a632-c6dcf297cc2d"},"vehicle_type_id":"4","last_reported":1741072197,"current_range_meters":16800,"station_id":"ce4bhb92rcd13ifvqen0","pricing_plan_id":"cebpf4jnsgd1na2vs0mg"},{"bike_id":"03d5bd23-db2c-4a3d-9573-a1403447f741","system_id":"levelo_inurba_marseille","lat":43.27802,"lon":5.40713,"is_reserved":false,"is_disabled":false,"rental_uris":{"android":"levelo://app?vid=03d5bd23-db2c-4a3d-9573-a1403447f741","ios":"levelo://app?vid=03d5bd23-db2c-4a3d-9573-a1403447f741"},"vehicle_type_id":"4","last_reported":1741072197,"current_range_meters":16800,"station_id":"ce4bhnh2rcd13ifvqgtg","pricing_plan_id":"cebpf4jnsgd1na2vs0mg"},{"bike_id":"19927819-4488-4fee-bee2-a2a35891795f","system_id":"levelo_inurba_marseille","lat":43.28404,"lon":5.37532,"is_reserved":false,"is_disabled":true,"rental_uris":{"android":"levelo://app?vid=19927819-4488-4fee-bee2-a2a35891795f","ios":"levelo://app?vid=19927819-4488-4fee-bee2-a2a35891795f"},"vehicle_type_id":"4","last_reported":1741072197,"current_range_meters":16800,"station_id":"ce4bh412rcd13ifvqds0","pricing_plan_id":"cebpf4jnsgd1na2vs0mg"},{"bike_id":"e96e0c5f-d0e5-478b-b4aa-43a39d7ff26e","system_id":"levelo_inurba_marseille","lat":43.32359,"lon":5.36746,"is_reserved":false,"is_disabled":false,"rental_uris":{"android":"levelo://app?vid=e96e0c5f-d0e5-478b-b4aa-43a39d7ff26e","ios":"levelo://app?vid=e96e0c5f-d0e5-478b-b4aa-43a39d7ff26e"},"vehicle_type_id":"4","last_reported":1741072197,"current_range_meters":16800,"station_id":"ce4bhsh2rcd13ifvqi2g","pricing_plan_id":"cebpf4jnsgd1na2vs0mg"},{"bike_id":"5861498d-3787-4f13-82f6-d67d305bf482","system_id":"levelo_inurba_marseille","lat":43.24648,"lon":5.38899,"is_reserved":false,"is_disabled":false,"rental_uris":{"android":"levelo://app?vid=5861498d-3787-4f13-82f6-d67d305bf482","ios":"levelo://app?vid=5861498d-3787-4f13-82f6-d67d305bf482"},"vehicle_type_id":"4","last_reported":1741072197,"current_range_meters":16800,"station_id":"ce4bhg12rcd13ifvqf60","pricing_plan_id":"cebpf4jnsgd1na2vs0mg"},{"bike_id":"490cd9e3-9cb1-4459-91ee-57a5eb428d08","system_id":"levelo_inurba_marseille","lat":43.30144,"lon":5.38068,"is_reserved":false,"is_disabled":false,"rental_uris":{"android":"levelo://app?vid=490cd9e3-9cb1-4459-91ee-57a5eb428d08","ios":"levelo://app?vid=490cd9e3-9cb1-4459-91ee-57a5eb428d08"},"vehicle_type_id":"4","last_reported":1741072197,"current_range_meters":16800,"station_id":"ce4bgjp2rcd13ifvqbh0","pricing_plan_id":"cebpf4jnsgd1na2vs0mg"},{"bike_id":"e14ef293-eb82-44d0-8012-6fe5ab3c92d9","system_id":"levelo_inurba_marseille","lat":43.26006,"lon":5.37572,"is_reserved":false,"is_disabled":false,"rental_uris":{"android":"levelo://app?vid=e14ef293-eb82-44d0-8012-6fe5ab3c92d9","ios":"levelo://app?vid=e14ef293-eb82-44d0-8012-6fe5ab3c92d9"},"vehicle_type_id":"4","last_reported":1741072197,"current_range_meters":17200,"station_id":"ce4bhgh2rcd13ifvqfa0","pricing_plan_id":"cebpf4jnsgd1na2vs0mg"},{"bike_id":"9638ffb4-7394-4b25-b500-98bdd9afcfe2","system_id":"levelo_inurba_marseille","lat":43.29029,"lon":5.38647,"is_reserved":false,"is_disabled":false,"rental_uris":{"android":"levelo://app?vid=9638ffb4-7394-4b25-b500-98bdd9afcfe2","ios":"levelo://app?vid=9638ffb4-7394-4b25-b500-98bdd9afcfe2"},"vehicle_type_id":"4","last_reported":1741072197,"current_range_meters":17200,"station_id":"ce4bh4p2rcd13ifvqe0g","pricing_plan_id":"cebpf4jnsgd1na2vs0mg"},{"bike_id":"d479540c-299a-4fdd-b2cd-83fb4e8d16e6","system_id":"levelo_inurba_marseille","lat":43.28936,"lon":5.36397,"is_reserved":false,"is_disabled":false,"rental_uris":{"android":"levelo://app?vid=d479540c-299a-4fdd-b2cd-83fb4e8d16e6","ios":"levelo://app?vid=d479540c-299a-4fdd-b2cd-83fb4e8d16e6"},"vehicle_type_id":"4","last_reported":1741072197,"current_range_meters":17200,"station_id":"ce4bhc92rcd13ifvqetg","pricing_plan_id":"cebpf4jnsgd1na2vs0mg"},{"bike_id":"83906805-b088-4b1c-ad3e-277ab6f5b063","system_id":"levelo_inurba_marseille","lat":43.26051,"lon":5.39393,"is_reserved":false,"is_disabled":false,"rental_uris":{"android":"levelo://app?vid=83906805-b088-4b1c-ad3e-277ab6f5b063","ios":"levelo://app?vid=83906805-b088-4b1c-ad3e-277ab6f5b063"},"vehicle_type_id":"4","last_reported":1741072197,"current_range_meters":17200,"station_id":"ce4bhh92rcd13ifvqfj0","pricing_plan_id":"cebpf4jnsgd1na2vs0mg"},{"bike_id":"ebf93e70-ecbb-4054-83ee-7e49950092cf","system_id":"levelo_inurba_marseille","lat":43.28345,"lon":5.3812,"is_reserved":false,"is_disabled":false,"rental_uris":{"android":"levelo://app?vid=ebf93e70-ecbb-4054-83ee-7e49950092cf","ios":"levelo://app?vid=ebf93e70-ecbb-4054-83ee-7e49950092cf"},"vehicle_type_id":"4","last_reported":1741072197,"current_range_meters":16800,"station_id":"ce4bh412rcd13ifvqdr0","pricing_plan_id":"cebpf4jnsgd1na2vs0mg"},{"bike_id":"3912f757-3d37-4f94-aaca-1895778b0982","system_id":"levelo_inurba_marseille","lat":43.28427,"lon":5.37514,"is_reserved":false,"is_disabled":false,"rental_uris":{"android":"levelo://app?vid=3912f757-3d37-4f94-aaca-1895778b0982","ios":"levelo://app?vid=3912f757-3d37-4f94-aaca-1895778b0982"},"vehicle_type_id":"4","last_reported":1741072197,"current_range_meters":17200,"station_id":"ce4bh412rcd13ifvqds0","pricing_plan_id":"cebpf4jnsgd1na2vs0mg"},{"bike_id":"3eee0dc5-ae82-4a87-84bd-e56ec3329485","system_id":"levelo_inurba_marseille","lat":43.24643,"lon":5.38917,"is_reserved":false,"is_disabled":false,"rental_uris":{"android":"levelo://app?vid=3eee0dc5-ae82-4a87-84bd-e56ec3329485","ios":"levelo://app?vid=3eee0dc5-ae82-4a87-84bd-e56ec3329485"},"vehicle_type_id":"4","last_reported":1741072197,"current_range_meters":17200,"station_id":"ce4bhg12rcd13ifvqf60","pricing_plan_id":"cebpf4jnsgd1na2vs0mg"},{"bike_id":"2523c107-4acd-4357-be4d-99b017dda094","system_id":"levelo_inurba_marseille","lat":43.28128,"lon":5.39102,"is_reserved":false,"is_disabled":false,"rental_uris":{"android":"levelo://app?vid=2523c107-4acd-4357-be4d-99b017dda094","ios":"levelo://app?vid=2523c107-4acd-4357-be4d-99b017dda094"},"vehicle_type_id":"4","last_reported":1741072197,"current_range_meters":17200,"station_id":"","pricing_plan_id":"cebpf4jnsgd1na2vs0mg"},{"bike_id":"d0c1d623-11ab-4348-95de-20d490237449","system_id":"levelo_inurba_marseille","lat":43.30952,"lon":5.39041,"is_reserved":false,"is_disabled":false,"rental_uris":{"android":"levelo://app?vid=d0c1d623-11ab-4348-95de-20d490237449","ios":"levelo://app?vid=d0c1d623-11ab-4348-95de-20d490237449"},"vehicle_type_id":"4","last_reported":1741072197,"current_range_meters":17200,"station_id":"ce4bgup2rcd13ifvqco0","pricing_plan_id":"cebpf4jnsgd1na2vs0mg"},{"bike_id":"cff839e9-cfc6-4fd9-84f5-77e40b37580c","system_id":"levelo_inurba_marseille","lat":43.238315,"lon":5.376258,"is_reserved":false,"is_disabled":false,"rental_uris":{"android":"levelo://app?vid=cff839e9-cfc6-4fd9-84f5-77e40b37580c","ios":"levelo://app?vid=cff839e9-cfc6-4fd9-84f5-77e40b37580c"},"vehicle_type_id":"4","last_reported":1741072197,"current_range_meters":17200,"station_id":"","pricing_plan_id":"cebpf4jnsgd1na2vs0mg"},{"bike_id":"7ad449bc-99c2-472f-b781-ad26766d1190","system_id":"levelo_inurba_marseille","lat":43.26063,"lon":5.394019,"is_reserved":false,"is_disabled":false,"rental_uris":{"android":"levelo://app?vid=7ad449bc-99c2-472f-b781-ad26766d1190","ios":"levelo://app?vid=7ad449bc-99c2-472f-b781-ad26766d1190"},"vehicle_type_id":"4","last_reported":1741072197,"current_range_meters":17200,"station_id":"ce4bhh92rcd13ifvqfj0","pricing_plan_id":"cebpf4jnsgd1na2vs0mg"},{"bike_id":"0798275a-ebea-47ce-84e9-db2a1c955ac9","system_id":"levelo_inurba_marseille","lat":43.29591,"lon":5.38678,"is_reserved":false,"is_disabled":false,"rental_uris":{"android":"levelo://app?vid=0798275a-ebea-47ce-84e9-db2a1c955ac9","ios":"levelo://app?vid=0798275a-ebea-47ce-84e9-db2a1c955ac9"},"vehicle_type_id":"4","last_reported":1741072197,"current_range_meters":17200,"station_id":"","pricing_plan_id":"cebpf4jnsgd1na2vs0mg"},{"bike_id":"31d12a73-0bdf-44ae-a9d6-e9e89fc98019","system_id":"levelo_inurba_marseille","lat":43.26023,"lon":5.37556,"is_reserved":false,"is_disabled":true,"rental_uris":{"android":"levelo://app?vid=31d12a73-0bdf-44ae-a9d6-e9e89fc98019","ios":"levelo://app?vid=31d12a73-0bdf-44ae-a9d6-e9e89fc98019"},"vehicle_type_id":"4","last_reported":1741072197,"current_range_meters":17200,"station_id":"","pricing_plan_id":"cebpf4jnsgd1na2vs0mg"},{"bike_id":"7fec35ed-7fe7-474f-b905-f363910e4db9","system_id":"levelo_inurba_marseille","lat":43.26935,"lon":5.38668,"is_reserved":false,"is_disabled":false,"rental_uris":{"android":"levelo://app?vid=7fec35ed-7fe7-474f-b905-f363910e4db9","ios":"levelo://app?vid=7fec35ed-7fe7-474f-b905-f363910e4db9"},"vehicle_type_id":"4","last_reported":1741072197,"current_range_meters":17600,"station_id":"ce4bhh92rcd13ifvqfh0","pricing_plan_id":"cebpf4jnsgd1na2vs0mg"},{"bike_id":"09e12b9c-a9ed-4e1d-a053-e96fbb39c2b4","system_id":"levelo_inurba_marseille","lat":43.30536,"lon":5.38446,"is_reserved":false,"is_disabled":false,"rental_uris":{"android":"levelo://app?vid=09e12b9c-a9ed-4e1d-a053-e96fbb39c2b4","ios":"levelo://app?vid=09e12b9c-a9ed-4e1d-a053-e96fbb39c2b4"},"vehicle_type_id":"4","last_reported":1741072197,"current_range_meters":17200,"station_id":"ce4bgg92rcd13ifvqb30","pricing_plan_id":"cebpf4jnsgd1na2vs0mg"},{"bike_id":"6a3b0a3e-1dcb-4a04-a9a9-c9fde4c8e0b7","system_id":"levelo_inurba_marseille","lat":43.30926,"lon":5.40148,"is_reserved":false,"is_disabled":false,"rental_uris":{"android":"levelo://app?vid=6a3b0a3e-1dcb-4a04-a9a9-c9fde4c8e0b7","ios":"levelo://app?vid=6a3b0a3e-1dcb-4a04-a9a9-c9fde4c8e0b7"},"vehicle_type_id":"4","last_reported":1741072197,"current_range_meters":17600,"station_id":"ce4bgvp2rcd13ifvqct0","pricing_plan_id":"cebpf4jnsgd1na2vs0mg"},{"bike_id":"63a1aa4f-7981-49e2-b1e9-2aac104829dc","system_id":"levelo_inurba_marseille","lat":43.30507,"lon":5.37332,"is_reserved":false,"is_disabled":false,"rental_uris":{"android":"levelo://app?vid=63a1aa4f-7981-49e2-b1e9-2aac104829dc","ios":"levelo://app?vid=63a1aa4f-7981-49e2-b1e9-2aac104829dc"},"vehicle_type_id":"4","last_reported":1741072197,"current_range_meters":17600,"station_id":"ce4bguh2rcd13ifvqckg","pricing_plan_id":"cebpf4jnsgd1na2vs0mg"},{"bike_id":"e05ecef1-5095-4568-94de-aa3cd6ad5b25","system_id":"levelo_inurba_marseille","lat":43.27056,"lon":5.40258,"is_reserved":false,"is_disabled":false,"rental_uris":{"android":"levelo://app?vid=e05ecef1-5095-4568-94de-aa3cd6ad5b25","ios":"levelo://app?vid=e05ecef1-5095-4568-94de-aa3cd6ad5b25"},"vehicle_type_id":"4","last_reported":1741072197,"current_range_meters":17600,"station_id":"ce4bhk92rcd13ifvqgc0","pricing_plan_id":"cebpf4jnsgd1na2vs0mg"},{"bike_id":"8d55e287-6d3f-47cd-9309-902b1d732288","system_id":"levelo_inurba_marseille","lat":43.28937,"lon":5.39628,"is_reserved":false,"is_disabled":false,"rental_uris":{"android":"levelo://app?vid=8d55e287-6d3f-47cd-9309-902b1d732288","ios":"levelo://app?vid=8d55e287-6d3f-47cd-9309-902b1d732288"},"vehicle_type_id":"4","last_reported":1741072197,"current_range_meters":17600,"station_id":"ce4bh3h2rcd13ifvqdn0","pricing_plan_id":"cebpf4jnsgd1na2vs0mg"},{"bike_id":"330426bc-0af9-4c3e-8e4c-6ec10833df11","system_id":"levelo_inurba_marseille","lat":43.29894,"lon":5.43661,"is_reserved":false,"is_disabled":false,"rental_uris":{"android":"levelo://app?vid=330426bc-0af9-4c3e-8e4c-6ec10833df11","ios":"levelo://app?vid=330426bc-0af9-4c3e-8e4c-6ec10833df11"},"vehicle_type_id":"4","last_reported":1741072197,"current_range_meters":17600,"station_id":"ce4bhpp2rcd13ifvqhfg","pricing_plan_id":"cebpf4jnsgd1na2vs0mg"},{"bike_id":"08ab1368-2a61-4059-a62d-1f0314c53d95","system_id":"levelo_inurba_marseille","lat":43.232043,"lon":5.399543,"is_reserved":false,"is_disabled":false,"rental_uris":{"android":"levelo://app?vid=08ab1368-2a61-4059-a62d-1f0314c53d95","ios":"levelo://app?vid=08ab1368-2a61-4059-a62d-1f0314c53d95"},"vehicle_type_id":"4","last_reported":1741072197,"current_range_meters":17600,"station_id":"ce4bhn12rcd13ifvqgqg","pricing_plan_id":"cebpf4jnsgd1na2vs0mg"},{"bike_id":"044c08c7-9d6d-4eb2-bbda-394be4ec7bd9","system_id":"levelo_inurba_marseille","lat":43.28082,"lon":5.39663,"is_reserved":false,"is_disabled":false,"rental_uris":{"android":"levelo://app?vid=044c08c7-9d6d-4eb2-bbda-394be4ec7bd9","ios":"levelo://app?vid=044c08c7-9d6d-4eb2-bbda-394be4ec7bd9"},"vehicle_type_id":"4","last_reported":1741072197,"current_range_meters":17600,"station_id":"ce4bho12rcd13ifvqh2g","pricing_plan_id":"cebpf4jnsgd1na2vs0mg"},{"bike_id":"9ed2b8ac-d974-4b0e-96f8-4599f1b4ac9d","system_id":"levelo_inurba_marseille","lat":43.32063,"lon":5.4156,"is_reserved":false,"is_disabled":true,"rental_uris":{"android":"levelo://app?vid=9ed2b8ac-d974-4b0e-96f8-4599f1b4ac9d","ios":"levelo://app?vid=9ed2b8ac-d974-4b0e-96f8-4599f1b4ac9d"},"vehicle_type_id":"4","last_reported":1741072197,"current_range_meters":17600,"station_id":"ce4bhq92rcd13ifvqhkg","pricing_plan_id":"cebpf4jnsgd1na2vs0mg"},{"bike_id":"7c692c55-c61e-4d5a-bfe8-be9996392f3d","system_id":"levelo_inurba_marseille","lat":43.278151,"lon":5.407184,"is_reserved":false,"is_disabled":false,"rental_uris":{"android":"levelo://app?vid=7c692c55-c61e-4d5a-bfe8-be9996392f3d","ios":"levelo://app?vid=7c692c55-c61e-4d5a-bfe8-be9996392f3d"},"vehicle_type_id":"4","last_reported":1741072197,"current_range_meters":17600,"station_id":"ce4bhnh2rcd13ifvqgtg","pricing_plan_id":"cebpf4jnsgd1na2vs0mg"},