{"last_updated":1679083676,"ttl":30,"version":"2.2","data":{"bikes":[{"bike_id":"b4071b07-6e85-4c5d-8ae2-6710585858d7","system_id":"levelo_inurba_marseille","lat":43.312239,"lon":5.368562,"is_reserved":false,"is_disabled":false,"rental_uris":{"android":"levelo://app?vid=b4071b07-6e85-4c5d-8ae2-6710585858d7","ios":"levelo://app?vid=b4071b07-6e85-4c5d-8ae2-6710585858d7"},"vehicle_type_id":"4","last_reported":1679083677,"current_range_meters":4000,"station_id":"ce4bgl92rcd13ifvqbq0","pricing_plan_id":"free"},{"bike_id":"6f633d12-cdb3-4f8a-aa74-972b5b40f779","system_id":"levelo_inurba_marseille","lat":43.30931,"lon":5.36769,"is_reserved":false,"is_disabled":false,"rental_uris":{"android":"levelo://app?vid=6f633d12-cdb3-4f8a-aa74-972b5b40f779","ios":"levelo://app?vid=6f633d12-cdb3-4f8a-aa74-972b5b40f779"},"vehicle_type_id":"4","last_reported":1679083677,"current_range_meters":4400,"station_id":"","pricing_plan_id":"free"},{"bike_id":"a4c6848c-99c7-4916-b462-670012de1613","system_id":"levelo_inurba_marseille","lat":43.30917,"lon":5.36845,"is_reserved":false,"is_disabled":false,"rental_uris":{"android":"levelo://app?vid=a4c6848c-99c7-4916-b462-670012de1613","ios":"levelo://app?vid=a4c6848c-99c7-4916-b462-670012de1613"},"vehicle_type_id":"4","last_reported":1679083677,"current_range_meters":800,"station_id":"ce4bgn92rcd13ifvqbvg","pricing_plan_id":"free"},{"bike_id":"a517af82-f479-4ad9-9df2-2b5fba27cce5","system_id":"levelo_inurba_marseille","lat":43.314811,"lon":5.373103,"is_reserved":false,"is_disabled":false,"rental_uris":{"android":"levelo://app?vid=a517af82-f479-4ad9-9df2-2b5fba27cce5","ios":"levelo://app?vid=a517af82-f479-4ad9-9df2-2b5fba27cce5"},"vehicle_type_id":"4","last_reported":1679083677,"current_range_meters":0,"station_id":"ce4bgt12rcd13ifvqcd0","pricing_plan_id":"free"},{"bike_id":"d3ba29f0-b855-4522-980d-8c9c2da94fde","system_id":"levelo_inurba_marseille","lat":43.30606,"lon":5.37229,"is_reserved":false,"is_disabled":false,"rental_uris":{"android":"levelo://app?vid=d3ba29f0-b855-4522-980d-8c9c2da94fde","ios":"levelo://app?vid=d3ba29f0-b855-4522-980d-8c9c2da94fde"},"vehicle_type_id":"4","last_reported":1679083677,"current_range_meters":19600,"station_id":"","pricing_plan_id":"free"},{"bike_id":"247f46b4-43af-4862-bebf-54aca106cfb5","system_id":"levelo_inurba_marseille","lat":43.3171,"lon":5.377437,"is_reserved":false,"is_disabled":false,"rental_uris":{"android":"levelo://app?vid=247f46b4-43af-4862-bebf-54aca106cfb5","ios":"levelo://app?vid=247f46b4-43af-4862-bebf-54aca106cfb5"},"vehicle_type_id":"4","last_reported":1679083677,"current_range_meters":2400,"station_id":"","pricing_plan_id":"free"},{"bike_id":"a92bb922-3af0-45ef-b554-4b622c86ea0d","system_id":"levelo_inurba_marseille","lat":43.317107,"lon":5.377433,"is_reserved":false,"is_disabled":false,"rental_uris":{"android":"levelo://app?vid=a92bb922-3af0-45ef-b554-4b622c86ea0d","ios":"levelo://app?vid=a92bb922-3af0-45ef-b554-4b622c86ea0d"},"vehicle_type_id":"4","last_reported":1679083677,"current_range_meters":14800,"station_id":"","pricing_plan_id":"free"},{"bike_id":"3fc64213-ea0e-4f05-96ea-dd02f4c2730c","system_id":"levelo_inurba_marseille","lat":43.317135,"lon":5.377535,"is_reserved":false,"is_disabled":false,"rental_uris":{"android":"levelo://app?vid=3fc64213-ea0e-4f05-96ea-dd02f4c2730c","ios":"levelo://app?vid=3fc64213-ea0e-4f05-96ea-dd02f4c2730c"},"vehicle_type_id":"4","last_reported":1679083677,"current_range_meters":0,"station_id":"","pricing_plan_id":"free"},{"bike_id":"48085c80-5570-4160-b739-ce0cccbadb61","system_id":"levelo_inurba_marseille","lat":43.317113,"lon":5.377578,"is_reserved":false,"is_disabled":false,"rental_uris":{"android":"levelo://app?vid=48085c80-5570-4160-b739-ce0cccbadb61","ios":"levelo://app?vid=48085c80-5570-4160-b739-ce0cccbadb61"},"vehicle_type_id":"4","last_reported":1679083677,"current_range_meters":5600,"station_id":"","pricing_plan_id":"free"},{"bike_id":"12514f36-85b4-4368-81ea-e9e32bfefce5","system_id":"levelo_inurba_marseille","lat":43.308012,"lon":5.381511,"is_reserved":false,"is_disabled":false,"rental_uris":{"android":"levelo://app?vid=12514f36-85b4-4368-81ea-e9e32bfefce5","ios":"levelo://app?vid=12514f36-85b4-4368-81ea-e9e32bfefce5"},"vehicle_type_id":"4","last_reported":1679083677,"current_range_meters":21200,"station_id":"ce4bgt12rcd13ifvqce0","pricing_plan_id":"free"},{"bike_id":"538ee1c4-8201-4325-b282-721f47edebef","system_id":"levelo_inurba_marseille","lat":43.313571,"lon":5.384829,"is_reserved":false,"is_disabled":false,"rental_uris":{"android":"levelo://app?vid=538ee1c4-8201-4325-b282-721f47edebef","ios":"levelo://app?vid=538ee1c4-8201-4325-b282-721f47edebef"},"vehicle_type_id":"4","last_reported":1679083677,"current_range_meters":16800,"station_id":"ce4bgt92rcd13ifvqcf0","pricing_plan_id":"free"},{"bike_id":"71321d26-8c8d-4bae-9c45-a8f9f8c410a1","system_id":"levelo_inurba_marseille","lat":43.300578,"lon":5.374332,"is_reserved":false,"is_disabled":false,"rental_uris":{"android":"levelo://app?vid=71321d26-8c8d-4bae-9c45-a8f9f8c410a1","ios":"levelo://app?vid=71321d26-8c8d-4bae-9c45-a8f9f8c410a1"},"vehicle_type_id":"4","last_reported":1679083677,"current_range_meters":0,"station_id":"","pricing_plan_id":"free"},{"bike_id":"3648bed3-ee43-4205-be4c-387bcd120527","system_id":"levelo_inurba_marseille","lat":43.299094,"lon":5.365415,"is_reserved":false,"is_disabled":false,"rental_uris":{"android":"levelo://app?vid=3648bed3-ee43-4205-be4c-387bcd120527","ios":"levelo://app?vid=3648bed3-ee43-4205-be4c-387bcd120527"},"vehicle_type_id":"4","last_reported":1679083677,"current_range_meters":14000,"station_id":"ce4bgm92rcd13ifvqbr0","pricing_plan_id":"free"},{"bike_id":"ffc71f73-c13f-4167-9a5d-c3c099cd4127","system_id":"levelo_inurba_marseille","lat":43.313571,"lon":5.384829,"is_reserved":false,"is_disabled":false,"rental_uris":{"android":"levelo://app?vid=ffc71f73-c13f-4167-9a5d-c3c099cd4127","ios":"levelo://app?vid=ffc71f73-c13f-4167-9a5d-c3c099cd4127"},"vehicle_type_id":"4","last_reported":1679083677,"current_range_meters":29600,"station_id":"ce4bgt92rcd13ifvqcf0","pricing_plan_id":"free"},{"bike_id":"3c02bb7b-afb3-4adc-b525-fdef87e97604","system_id":"levelo_inurba_marseille","lat":43.298433,"lon":5.362774,"is_reserved":false,"is_disabled":false,"rental_uris":{"android":"levelo://app?vid=3c02bb7b-afb3-4adc-b525-fdef87e97604","ios":"levelo://app?vid=3c02bb7b-afb3-4adc-b525-fdef87e97604"},"vehicle_type_id":"4","last_reported":1679083677,"current_range_meters":0,"station_id":"ce4bgpp2rcd13ifvqc3g","pricing_plan_id":"free"},{"bike_id":"f26dec7e-572d-4805-9878-d0bc0d9abf04","system_id":"levelo_inurba_marseille","lat":43.305364,"lon":5.384119,"is_reserved":false,"is_disabled":false,"rental_uris":{"android":"levelo://app?vid=f26dec7e-572d-4805-9878-d0bc0d9abf04","ios":"levelo://app?vid=f26dec7e-572d-4805-9878-d0bc0d9abf04"},"vehicle_type_id":"4","last_reported":1679083677,"current_range_meters":6400,"station_id":"ce4bgg92rcd13ifvqb30","pricing_plan_id":"free"},{"bike_id":"2005b694-527b-4167-b667-2aa0b2a094c6","system_id":"levelo_inurba_marseille","lat":43.297774,"lon":5.370875,"is_reserved":false,"is_disabled":false,"rental_uris":{"android":"levelo://app?vid=2005b694-527b-4167-b667-2aa0b2a094c6","ios":"levelo://app?vid=2005b694-527b-4167-b667-2aa0b2a094c6"},"vehicle_type_id":"4","last_reported":1679083677,"current_range_meters":10000,"station_id":"ce4bgop2rcd13ifvqc1g","pricing_plan_id":"free"},{"bike_id":"157c0422-a8c6-4c56-bb0f-d293286e8eba","system_id":"levelo_inurba_marseille","lat":43.3283,"lon":5.36685,"is_reserved":false,"is_disabled":false,"rental_uris":{"android":"levelo://app?vid=157c0422-a8c6-4c56-bb0f-d293286e8eba","ios":"levelo://app?vid=157c0422-a8c6-4c56-bb0f-d293286e8eba"},"vehicle_type_id":"4","last_reported":1679083677,"current_range_meters":14400,"station_id":"","pricing_plan_id":"free"},{"bike_id":"e3200dba-abc2-470d-a7f2-90696ebcecbb","system_id":"levelo_inurba_marseille","lat":43.29573,"lon":5.367355,"is_reserved":false,"is_disabled":false,"rental_uris":{"android":"levelo://app?vid=e3200dba-abc2-470d-a7f2-90696ebcecbb","ios":"levelo://app?vid=e3200dba-abc2-470d-a7f2-90696ebcecbb"},"vehicle_type_id":"4","last_reported":1679083677,"current_range_meters":2400,"station_id":"ce4bgph2rcd13ifvqc2g","pricing_plan_id":"free"},{"bike_id":"bb0db88b-06d3-4b3e-98eb-16bfb63d00a6","system_id":"levelo_inurba_marseille","lat":43.29588,"lon":5.367367,"is_reserved":false,"is_disabled":false,"rental_uris":{"android":"levelo://app?vid=bb0db88b-06d3-4b3e-98eb-16bfb63d00a6","ios":"levelo://app?vid=bb0db88b-06d3-4b3e-98eb-16bfb63d00a6"},"vehicle_type_id":"4","last_reported":1679083677,"current_range_meters":15600,"station_id":"","pricing_plan_id":"free"},{"bike_id":"17b5d4e9-7019-489f-b0a0-d42fdb2f0dda","system_id":"levelo_inurba_marseille","lat":43.29587,"lon":5.36734,"is_reserved":false,"is_disabled":false,"rental_uris":{"android":"levelo://app?vid=17b5d4e9-7019-489f-b0a0-d42fdb2f0dda","ios":"levelo://app?vid=17b5d4e9-7019-489f-b0a0-d42fdb2f0dda"},"vehicle_type_id":"4","last_reported":1679083677,"current_range_meters":4800,"station_id":"ce4bgph2rcd13ifvqc2g","pricing_plan_id":"free"},{"bike_id":"378b5d99-8567-4e4d-8df9-9c16f25a42dd","system_id":"levelo_inurba_marseille","lat":43.299028,"lon":5.381509,"is_reserved":false,"is_disabled":false,"rental_uris":{"android":"levelo://app?vid=378b5d99-8567-4e4d-8df9-9c16f25a42dd","ios":"levelo://app?vid=378b5d99-8567-4e4d-8df9-9c16f25a42dd"},"vehicle_type_id":"4","last_reported":1679083677,"current_range_meters":3600,"station_id":"ce4bgj12rcd13ifvqbc0","pricing_plan_id":"free"},{"bike_id":"a453a564-ea75-4c7d-ac44-5b4ad496d261","system_id":"levelo_inurba_marseille","lat":43.30955,"lon":5.39037,"is_reserved":false,"is_disabled":false,"rental_uris":{"android":"levelo://app?vid=a453a564-ea75-4c7d-ac44-5b4ad496d261","ios":"levelo://app?vid=a453a564-ea75-4c7d-ac44-5b4ad496d261"},"vehicle_type_id":"4","last_reported":1679083677,"current_range_meters":3600,"station_id":"ce4bgup2rcd13ifvqco0","pricing_plan_id":"free"},{"bike_id":"0f123556-1509-44f9-a20b-c18105d3b7b8","system_id":"levelo_inurba_marseille","lat":43.299028,"lon":5.381509,"is_reserved":false,"is_disabled":false,"rental_uris":{"android":"levelo://app?vid=0f123556-1509-44f9-a20b-c18105d3b7b8","ios":"levelo://app?vid=0f123556-1509-44f9-a20b-c18105d3b7b8"},"vehicle_type_id":"4","last_reported":1679083677,"current_range_meters":22000,"station_id":"ce4bgj12rcd13ifvqbc0","pricing_plan_id":"free"},{"bike_id":"7b2e498d-096a-4d26-b209-cdfd481aca92","system_id":"levelo_inurba_marseille","lat":43.317557,"lon":5.390173,"is_reserved":false,"is_disabled":false,"rental_uris":{"android":"levelo://app?vid=7b2e498d-096a-4d26-b209-cdfd481aca92","ios":"levelo://app?vid=7b2e498d-096a-4d26-b209-cdfd481aca92"},"vehicle_type_id":"4","last_reported":1679083677,"current_range_meters":31600,"station_id":"ce4bhqp2rcd13ifvqhng","pricing_plan_id":"free"},{"bike_id":"6ce7d9c9-088f-4a46-a453-9cba3c6d13e9","system_id":"levelo_inurba_marseille","lat":43.317557,"lon":5.390173,"is_reserved":false,"is_disabled":false,"rental_uris":{"android":"levelo://app?vid=6ce7d9c9-088f-4a46-a453-9cba3c6d13e9","ios":"levelo://app?vid=6ce7d9c9-088f-4a46-a453-9cba3c6d13e9"},"vehicle_type_id":"4","last_reported":1679083677,"current_range_meters":9600,"station_id":"ce4bhqp2rcd13ifvqhng","pricing_plan_id":"free"},{"bike_id":"bac0aae8-17ae-47fd-a899-d202f06443c1","system_id":"levelo_inurba_marseille","lat":43.3176,"lon":5.39012,"is_reserved":false,"is_disabled":false,"rental_uris":{"android":"levelo://app?vid=bac0aae8-17ae-47fd-a899-d202f06443c1","ios":"levelo://app?vid=bac0aae8-17ae-47fd-a899-d202f06443c1"},"vehicle_type_id":"4","last_reported":1679083677,"current_range_meters":21200,"station_id":"","pricing_plan_id":"free"},{"bike_id":"f2e802e3-e55e-47fc-8e1e-34a2a38d4d3d","system_id":"levelo_inurba_marseille","lat":43.3176,"lon":5.390123,"is_reserved":false,"is_disabled":false,"rental_uris":{"android":"levelo://app?vid=f2e802e3-e55e-47fc-8e1e-34a2a38d4d3d","ios":"levelo://app?vid=f2e802e3-e55e-47fc-8e1e-34a2a38d4d3d"},"vehicle_type_id":"4","last_reported":1679083677,"current_range_meters":28800,"station_id":"ce4bhqp2rcd13ifvqhng","pricing_plan_id":"free"},{"bike_id":"bcf0bdc6-4550-4053-9b23-8fb96c36e1f7","system_id":"levelo_inurba_marseille","lat":43.317574,"lon":5.390162,"is_reserved":false,"is_disabled":false,"rental_uris":{"android":"levelo://app?vid=bcf0bdc6-4550-4053-9b23-8fb96c36e1f7","ios":"levelo://app?vid=bcf0bdc6-4550-4053-9b23-8fb96c36e1f7"},"vehicle_type_id":"4","last_reported":1679083677,"current_range_meters":31600,"station_id":"ce4bhqp2rcd13ifvqhng","pricing_plan_id":"free"},{"bike_id":"af6b39fe-6d6d-494a-bccd-eee89a424aff","system_id":"levelo_inurba_marseille","lat":43.317608,"lon":5.390169,"is_reserved":false,"is_disabled":false,"rental_uris":{"android":"levelo://app?vid=af6b39fe-6d6d-494a-bccd-eee89a424aff","ios":"levelo://app?vid=af6b39fe-6d6d-494a-bccd-eee89a424aff"},"vehicle_type_id":"4","last_reported":1679083677,"current_range_meters":31600,"station_id":"","pricing_plan_id":"free"},{"bike_id":"e7d9d9f1-6d13-4c91-a0c0-b21489190405","system_id":"levelo_inurba_marseille","lat":43.317566,"lon":5.390197,"is_reserved":false,"is_disabled":false,"rental_uris":{"android":"levelo://app?vid=e7d9d9f1-6d13-4c91-a0c0-b21489190405","ios":"levelo://app?vid=e7d9d9f1-6d13-4c91-a0c0-b21489190405"},"vehicle_type_id":"4","last_reported":1679083677,"current_range_meters":31600,"station_id":"ce4bhqp2rcd13ifvqhng","pricing_plan_id":"free"},{"bike_id":"96792c1a-6980-4ed1-a23b-22e099eb5385","system_id":"levelo_inurba_marseille","lat":43.317595,"lon":5.39023,"is_reserved":false,"is_disabled":false,"rental_uris":{"android":"levelo://app?vid=96792c1a-6980-4ed1-a23b-22e099eb5385","ios":"levelo://app?vid=96792c1a-6980-4ed1-a23b-22e099eb5385"},"vehicle_type_id":"4","last_reported":1679083677,"current_range_meters":30400,"station_id":"ce4bhqp2rcd13ifvqhng","pricing_plan_id":"free"},{"bike_id":"3e0aaf7b-ccf5-448c-a217-d8ead9216a63","system_id":"levelo_inurba_marseille","lat":43.298037,"lon":5.381066,"is_reserved":false,"is_disabled":false,"rental_uris":{"android":"levelo://app?vid=3e0aaf7b-ccf5-448c-a217-d8ead9216a63","ios":"levelo://app?vid=3e0aaf7b-ccf5-448c-a217-d8ead9216a63"},"vehicle_type_id":"4","last_reported":1679083677,"current_range_meters":0,"station_id":"ce4bgip2rcd13ifvqbb0","pricing_plan_id":"free"},{"bike_id":"b73458b0-6b2c-4633-b3c6-799d32aee40e","system_id":"levelo_inurba_marseille","lat":43.295279,"lon":5.375048,"is_reserved":false,"is_disabled":false,"rental_uris":{"android":"levelo://app?vid=b73458b0-6b2c-4633-b3c6-799d32aee40e","ios":"levelo://app?vid=b73458b0-6b2c-4633-b3c6-799d32aee40e"},"vehicle_type_id":"4","last_reported":1679083677,"current_range_meters":0,"station_id":"ce4bgkp2rcd13ifvqbmg","pricing_plan_id":"free"},{"bike_id":"22c850e5-8689-4148-8821-e84ba5cdf4b2","system_id":"levelo_inurba_marseille","lat":43.32367,"lon":5.388836,"is_reserved":false,"is_disabled":false,"rental_uris":{"android":"levelo://app?vid=22c850e5-8689-4148-8821-e84ba5cdf4b2","ios":"levelo://app?vid=22c850e5-8689-4148-8821-e84ba5cdf4b2"},"vehicle_type_id":"4","last_reported":1679083677,"current_range_meters":400,"station_id":"ce4bhqp2rcd13ifvqhog","pricing_plan_id":"free"},{"bike_id":"38bdb383-7422-4d95-b975-4502a8dfee4d","system_id":"levelo_inurba_marseille","lat":43.32367,"lon":5.388836,"is_reserved":false,"is_disabled":false,"rental_uris":{"android":"levelo://app?vid=38bdb383-7422-4d95-b975-4502a8dfee4d","ios":"levelo://app?vid=38bdb383-7422-4d95-b975-4502a8dfee4d"},"vehicle_type_id":"4","last_reported":1679083677,"current_range_meters":23600,"station_id":"ce4bhqp2rcd13ifvqhog","pricing_plan_id":"free"},{"bike_id":"70100082-d077-4ea2-b9c4-6cfa8ffaa675","system_id":"levelo_inurba_marseille","lat":43.32368,"lon":5.38879,"is_reserved":false,"is_disabled":false,"rental_uris":{"android":"levelo://app?vid=70100082-d077-4ea2-b9c4-6cfa8ffaa675","ios":"levelo://app?vid=70100082-d077-4ea2-b9c4-6cfa8ffaa675"},"vehicle_type_id":"4","last_reported":1679083677,"current_range_meters":13200,"station_id":"","pricing_plan_id":"free"},{"bike_id":"6cbfc7d4-189c-45b8-9695-fd49bcb22064","system_id":"levelo_inurba_marseille","lat":43.32367,"lon":5.388836,"is_reserved":false,"is_disabled":false,"rental_uris":{"android":"levelo://app?vid=6cbfc7d4-189c-45b8-9695-fd49bcb22064","ios":"levelo://app?vid=6cbfc7d4-189c-45b8-9695-fd49bcb22064"},"vehicle_type_id":"4","last_reported":1679083677,"current_range_meters":31600,"station_id":"ce4bhqp2rcd13ifvqhog","pricing_plan_id":"free"},{"bike_id":"0697f7c4-7ca8-4885-ad60-f38638fd912d","system_id":"levelo_inurba_marseille","lat":43.32367,"lon":5.388836,"is_reserved":false,"is_disabled":false,"rental_uris":{"android":"levelo://app?vid=0697f7c4-7ca8-4885-ad60-f38638fd912d","ios":"levelo://app?vid=0697f7c4-7ca8-4885-ad60-f38638fd912d"},"vehicle_type_id":"4","last_reported":1679083677,"current_range_meters":21600,"station_id":"ce4bhqp2rcd13ifvqhog","pricing_plan_id":"free"},{"bike_id":"001a4c9f-4f73-4f1f-b8cf-f34e5dd78480","system_id":"levelo_inurba_marseille","lat":43.32367,"lon":5.388836,"is_reserved":false,"is_disabled":false,"rental_uris":{"android":"levelo://app?vid=001a4c9f-4f73-4f1f-b8cf-f34e5dd78480","ios":"levelo://app?vid=001a4c9f-4f73-4f1f-b8cf-f34e5dd78480"},"vehicle_type_id":"4","last_reported":1679083677,"current_range_meters":18000,"station_id":"ce4bhqp2rcd13ifvqhog","pricing_plan_id":"free"},{"bike_id":"b21c2572-1460-4285-a5ea-22ba9e67b220","system_id":"levelo_inurba_marseille","lat":43.32367,"lon":5.388836,"is_reserved":false,"is_disabled":false,"rental_uris":{"android":"levelo://app?vid=b21c2572-1460-4285-a5ea-22ba9e67b220","ios":"levelo://app?vid=b21c2572-1460-4285-a5ea-22ba9e67b220"},"vehicle_type_id":"4","last_reported":1679083677,"current_range_meters":26800,"station_id":"ce4bhqp2rcd13ifvqhog","pricing_plan_id":"free"},{"bike_id":"a5fe50d9-061a-4cd5-a94b-10089754ee9e","system_id":"levelo_inurba_marseille","lat":43.32367,"lon":5.388836,"is_reserved":false,"is_disabled":false,"rental_uris":{"android":"levelo://app?vid=a5fe50d9-061a-4cd5-a94b-10089754ee9e","ios":"levelo://app?vid=a5fe50d9-061a-4cd5-a94b-10089754ee9e"},"vehicle_type_id":"4","last_reported":1679083677,"current_range_meters":11600,"station_id":"ce4bhqp2rcd13ifvqhog","pricing_plan_id":"free"},{"bike_id":"2fa0936f-ba3d-4a1d-9378-dd56e43913b0","system_id":"levelo_inurba_marseille","lat":43.293009,"lon":5.374584,"is_reserved":false,"is_disabled":false,"rental_uris":{"android":"levelo://app?vid=2fa0936f-ba3d-4a1d-9378-dd56e43913b0","ios":"levelo://app?vid=2fa0936f-ba3d-4a1d-9378-dd56e43913b0"},"vehicle_type_id":"4","last_reported":1679083677,"current_range_meters":20400,"station_id":"ce4bgi12rcd13ifvqb70","pricing_plan_id":"free"},{"bike_id":"d46265d5-876f-4ac1-8f5c-62f69339e50d","system_id":"levelo_inurba_marseille","lat":43.291675,"lon":5.371583,"is_reserved":false,"is_disabled":false,"rental_uris":{"android":"levelo://app?vid=d46265d5-876f-4ac1-8f5c-62f69339e50d","ios":"levelo://app?vid=d46265d5-876f-4ac1-8f5c-62f69339e50d"},"vehicle_type_id":"4","last_reported":1679083677,"current_range_meters":1200,"station_id":"ce4bha92rcd13ifvqeh0","pricing_plan_id":"free"},{"bike_id":"1945f10e-6913-4fb7-90eb-802368941b24","system_id":"levelo_inurba_marseille","lat":43.313277,"lon":5.396846,"is_reserved":false,"is_disabled":false,"rental_uris":{"android":"levelo://app?vid=1945f10e-6913-4fb7-90eb-802368941b24","ios":"levelo://app?vid=1945f10e-6913-4fb7-90eb-802368941b24"},"vehicle_type_id":"4","last_reported":1679083677,"current_range_meters":0,"station_id":"ce4bgvp2rcd13ifvqcu0","pricing_plan_id":"free"},{"bike_id":"9625009a-8716-4d10-8350-8eae341843e2","system_id":"levelo_inurba_marseille","lat":43.313291,"lon":5.396838,"is_reserved":false,"is_disabled":false,"rental_uris":{"android":"levelo://app?vid=9625009a-8716-4d10-8350-8eae341843e2","ios":"levelo://app?vid=9625009a-8716-4d10-8350-8eae341843e2"},"vehicle_type_id":"4","last_reported":1679083677,"current_range_meters":5600,"station_id":"ce4bgvp2rcd13ifvqcu0","pricing_plan_id":"free"},{"bike_id":"486beaed-628f-4bcc-ba3b-e0de696bd3dc","system_id":"levelo_inurba_marseille","lat":43.322106,"lon":5.394255,"is_reserved":false,"is_disabled":false,"rental_uris":{"android":"levelo://app?vid=486beaed-628f-4bcc-ba3b-e0de696bd3dc","ios":"levelo://app?vid=486beaed-628f-4bcc-ba3b-e0de696bd3dc"},"vehicle_type_id":"4","last_reported":1679083677,"current_range_meters":14000,"station_id":"","pricing_plan_id":"free"},{"bike_id":"819658f6-04f2-4cf3-b3b7-fee84dc4299c","system_id":"levelo_inurba_marseille","lat":43.29529,"lon":5.385581,"is_reserved":false,"is_disabled":false,"rental_uris":{"android":"levelo://app?vid=819658f6-04f2-4cf3-b3b7-fee84dc4299c","ios":"levelo://app?vid=819658f6-04f2-4cf3-b3b7-fee84dc4299c"},"vehicle_type_id":"4","last_reported":1679083677,"current_range_meters":6000,"station_id":"ce4bgih2rcd13ifvqba0","pricing_plan_id":"free"},{"bike_id":"a7786cf9-e92c-4ab6-9349-bd2aff0e395b","system_id":"levelo_inurba_marseille","lat":43.2908,"lon":5.37168,"is_reserved":false,"is_disabled":false,"rental_uris":{"android":"levelo://app?vid=a7786cf9-e92c-4ab6-9349-bd2aff0e395b","ios":"levelo://app?vid=a7786cf9-e92c-4ab6-9349-bd2aff0e395b"},"vehicle_type_id":"4","last_reported":1679083677,"current_range_meters":18000,"station_id":"ce4bh5p2rcd13ifvqe4g","pricing_plan_id":"free"},{"bike_id":"fb568733-4d49-482e-ae88-4d0945f0676f","system_id":"levelo_inurba_marseille","lat":43.290327,"lon":5.375711,"is_reserved":false,"is_disabled":false,"rental_uris":{"android":"levelo://app?vid=fb568733-4d49-482e-ae88-4d0945f0676f","ios":"levelo://app?vid=fb568733-4d49-482e-ae88-4d0945f0676f"},"vehicle_type_id":"4","last_reported":1679083677,"current_range_meters":3200,"station_id":"ce4bh692rcd13ifvqe90","pricing_plan_id":"free"},{"bike_id":"649b53f8-dc26-40f4-bdd7-8177f597f817","system_id":"levelo_inurba_marseille","lat":43.294162,"lon":5.386292,"is_reserved":false,"is_disabled":false,"rental_uris":{"android":"levelo://app?vid=649b53f8-dc26-40f4-bdd7-8177f597f817","ios":"levelo://app?vid=649b53f8-dc26-40f4-bdd7-8177f597f817"},"vehicle_type_id":"4","last_reported":1679083677,"current_range_meters":0,"station_id":"ce4bh2h2rcd13ifvqdh0","pricing_plan_id":"free"},{"bike_id":"30cc5646-b93b-4be9-83d7-0228a2a99038","system_id":"levelo_inurba_marseille","lat":43.289184,"lon":5.366408,"is_reserved":false,"is_disabled":false,"rental_uris":{"android":"levelo://app?vid=30cc5646-b93b-4be9-83d7-0228a2a99038","ios":"levelo://app?vid=30cc5646-b93b-4be9-83d7-0228a2a99038"},"vehicle_type_id":"4","last_reported":1679083677,"current_range_meters":5600,"station_id":"ce4bhap2rcd13ifvqek0","pricing_plan_id":"free"},{"bike_id":"5ea9f5cb-63e0-498b-8730-dd6bfb41239d","system_id":"levelo_inurba_marseille","lat":43.289468,"lon":5.363719,"is_reserved":false,"is_disabled":false,"rental_uris":{"android":"levelo://app?vid=5ea9f5cb-63e0-498b-8730-dd6bfb41239d","ios":"levelo://app?vid=5ea9f5cb-63e0-498b-8730-dd6bfb41239d"},"vehicle_type_id":"4","last_reported":1679083677,"current_range_meters":20800,"station_id":"ce4bhc92rcd13ifvqetg","pricing_plan_id":"free"},{"bike_id":"e687661e-f58c-4fcf-ba67-854a7de9b903","system_id":"levelo_inurba_marseille","lat":43.292644,"lon":5.384257,"is_reserved":false,"is_disabled":false,"rental_uris":{"android":"levelo://app?vid=e687661e-f58c-4fcf-ba67-854a7de9b903","ios":"levelo://app?vid=e687661e-f58c-4fcf-ba67-854a7de9b903"},"vehicle_type_id":"4","last_reported":1679083677,"current_range_meters":4400,"station_id":"ce4bh692rcd13ifvqea0","pricing_plan_id":"free"},{"bike_id":"5e4fbe98-8600-4863-8e07-e44211b0b6f3","system_id":"levelo_inurba_marseille","lat":43.292644,"lon":5.384257,"is_reserved":false,"is_disabled":false,"rental_uris":{"android":"levelo://app?vid=5e4fbe98-8600-4863-8e07-e44211b0b6f3","ios":"levelo://app?vid=5e4fbe98-8600-4863-8e07-e44211b0b6f3"},"vehicle_type_id":"4","last_reported":1679083677,"current_range_meters":0,"station_id":"ce4bh692rcd13ifvqea0","pricing_plan_id":"free"},{"bike_id":"b799def0-bf00-4409-9ba7-8bddf8c3051d","system_id":"levelo_inurba_marseille","lat":43.33045,"lon":5.389143,"is_reserved":false,"is_disabled":false,"rental_uris":{"android":"levelo://app?vid=b799def0-bf00-4409-9ba7-8bddf8c3051d","ios":"levelo://app?vid=b799def0-bf00-4409-9ba7-8bddf8c3051d"},"vehicle_type_id":"4","last_reported":1679083677,"current_range_meters":31600,"station_id":"","pricing_plan_id":"free"},{"bike_id":"40fa3a1a-2ecc-435c-868f-43dec3f32230","system_id":"levelo_inurba_marseille","lat":43.33043,"lon":5.38919,"is_reserved":false,"is_disabled":false,"rental_uris":{"android":"levelo://app?vid=40fa3a1a-2ecc-435c-868f-43dec3f32230","ios":"levelo://app?vid=40fa3a1a-2ecc-435c-868f-43dec3f32230"},"vehicle_type_id":"4","last_reported":1679083677,"current_range_meters":24000,"station_id":"","pricing_plan_id":"free"},{"bike_id":"9dad7b6d-05a6-4811-8d70-d0de5b51c2d7","system_id":"levelo_inurba_marseille","lat":43.33047,"lon":5.38913,"is_reserved":false,"is_disabled":false,"rental_uris":{"android":"levelo://app?vid=9dad7b6d-05a6-4811-8d70-d0de5b51c2d7","ios":"levelo://app?vid=9dad7b6d-05a6-4811-8d70-d0de5b51c2d7"},"vehicle_type_id":"4","last_reported":1679083677,"current_range_meters":1600,"station_id":"ce4bhr92rcd13ifvqhrg","pricing_plan_id":"free"},{"bike_id":"48a6d882-a176-425e-9987-f988cf2af6fb","system_id":"levelo_inurba_marseille","lat":43.33047,"lon":5.38917,"is_reserved":false,"is_disabled":false,"rental_uris":{"android":"levelo://app?vid=48a6d882-a176-425e-9987-f988cf2af6fb","ios":"levelo://app?vid=48a6d882-a176-425e-9987-f988cf2af6fb"},"vehicle_type_id":"4","last_reported":1679083677,"current_range_meters":31600,"station_id":"","pricing_plan_id":"free"},{"bike_id":"9b7f0c6d-26e1-4736-817a-c9a756b17483","system_id":"levelo_inurba_marseille","lat":43.33044,"lon":5.38922,"is_reserved":false,"is_disabled":false,"rental_uris":{"android":"levelo://app?vid=9b7f0c6d-26e1-4736-817a-c9a756b17483","ios":"levelo://app?vid=9b7f0c6d-26e1-4736-817a-c9a756b17483"},"vehicle_type_id":"4","last_reported":1679083677,"current_range_meters":6400,"station_id":"","pricing_plan_id":"free"},{"bike_id":"c69afdb3-4f0f-4cb6-a387-4969a018dbf0","system_id":"levelo_inurba_marseille","lat":43.33044,"lon":5.38922,"is_reserved":false,"is_disabled":false,"rental_uris":{"android":"levelo://app?vid=c69afdb3-4f0f-4cb6-a387-4969a018dbf0","ios":"levelo://app?vid=c69afdb3-4f0f-4cb6-a387-4969a018dbf0"},"vehicle_type_id":"4","last_reported":1679083677,"current_range_meters":24000,"station_id":"","pricing_plan_id":"free"},{"bike_id":"c3e7030f-138d-4b9d-b969-9311d5134939","system_id":"levelo_inurba_marseille","lat":43.29089,"lon":5.381455,"is_reserved":false,"is_disabled":false,"rental_uris":{"android":"levelo://app?vid=c3e7030f-138d-4b9d-b969-9311d5134939","ios":"levelo://app?vid=c3e7030f-138d-4b9d-b969-9311d5134939"},"vehicle_type_id":"4","last_reported":1679083677,"current_range_meters":800,"station_id":"","pricing_plan_id":"free"},{"bike_id":"cbe42430-50f9-4c49-917d-e2899094cff9","system_id":"levelo_inurba_marseille","lat":43.28856,"lon":5.358371,"is_reserved":false,"is_disabled":false,"rental_uris":{"android":"levelo://app?vid=cbe42430-50f9-4c49-917d-e2899094cff9","ios":"levelo://app?vid=cbe42430-50f9-4c49-917d-e2899094cff9"},"vehicle_type_id":"4","last_reported":1679083677,"current_range_meters":27200,"station_id":"ce4bhb12rcd13ifvqem0","pricing_plan_id":"free"},{"bike_id":"7e6f64df-95bc-465d-a7b4-0c9de7caec82","system_id":"levelo_inurba_marseille","lat":43.28856,"lon":5.358371,"is_reserved":false,"is_disabled":false,"rental_uris":{"android":"levelo://app?vid=7e6f64df-95bc-465d-a7b4-0c9de7caec82","ios":"levelo://app?vid=7e6f64df-95bc-465d-a7b4-0c9de7caec82"},"vehicle_type_id":"4","last_reported":1679083677,"current_range_meters":2800,"station_id":"ce4bhb12rcd13ifvqem0","pricing_plan_id":"free"},{"bike_id":"1725d19c-b261-4eb5-ad19-54d35c469138","system_id":"levelo_inurba_marseille","lat":43.28856,"lon":5.358371,"is_reserved":false,"is_disabled":false,"rental_uris":{"android":"levelo://app?vid=1725d19c-b261-4eb5-ad19-54d35c469138","ios":"levelo://app?vid=1725d19c-b261-4eb5-ad19-54d35c469138"},"vehicle_type_id":"4","last_reported":1679083677,"current_range_meters":6400,"station_id":"ce4bhb12rcd13ifvqem0","pricing_plan_id":"free"},{"bike_id":"a0c1982b-9ada-4374-a49a-73ea45c80c09","system_id":"levelo_inurba_marseille","lat":43.2885,"lon":5.35836,"is_reserved":false,"is_disabled":false,"rental_uris":{"android":"levelo://app?vid=a0c1982b-9ada-4374-a49a-73ea45c80c09","ios":"levelo://app?vid=a0c1982b-9ada-4374-a49a-73ea45c80c09"},"vehicle_type_id":"4","last_reported":1679083677,"current_range_meters":10800,"station_id":"ce4bhb12rcd13ifvqem0","pricing_plan_id":"free"},{"bike_id":"39f0ec80-84de-4a2d-a0d9-18b0a9d520ee","system_id":"levelo_inurba_marseille","lat":43.337388,"lon":5.374506,"is_reserved":false,"is_disabled":false,"rental_uris":{"android":"levelo://app?vid=39f0ec80-84de-4a2d-a0d9-18b0a9d520ee","ios":"levelo://app?vid=39f0ec80-84de-4a2d-a0d9-18b0a9d520ee"},"vehicle_type_id":"4","last_reported":1679083677,"current_range_meters":31200,"station_id":"","pricing_plan_id":"free"},{"bike_id":"f0888a5d-8469-4a4a-aa32-e51183159fbe","system_id":"levelo_inurba_marseille","lat":43.337469,"lon":5.374616,"is_reserved":false,"is_disabled":false,"rental_uris":{"android":"levelo://app?vid=f0888a5d-8469-4a4a-aa32-e51183159fbe","ios":"levelo://app?vid=f0888a5d-8469-4a4a-aa32-e51183159fbe"},"vehicle_type_id":"4","last_reported":1679083677,"current_range_meters":11600,"station_id":"","pricing_plan_id":"free"},{"bike_id":"97a70748-85a2-4139-aa8d-3426ee2a5b86","system_id":"levelo_inurba_marseille","lat":43.337501,"lon":5.374448,"is_reserved":false,"is_disabled":false,"rental_uris":{"android":"levelo://app?vid=97a70748-85a2-4139-aa8d-3426ee2a5b86","ios":"levelo://app?vid=97a70748-85a2-4139-aa8d-3426ee2a5b86"},"vehicle_type_id":"4","last_reported":1679083677,"current_range_meters":0,"station_id":"","pricing_plan_id":"free"},{"bike_id":"24e42b65-e736-4b02-9f91-341883142906","system_id":"levelo_inurba_marseille","lat":43.337554,"lon":5.374451,"is_reserved":false,"is_disabled":false,"rental_uris":{"android":"levelo://app?vid=24e42b65-e736-4b02-9f91-341883142906","ios":"levelo://app?vid=24e42b65-e736-4b02-9f91-341883142906"},"vehicle_type_id":"4","last_reported":1679083677,"current_range_meters":20000,"station_id":"","pricing_plan_id":"free"},{"bike_id":"f3e60a9c-2b74-43cb-ac11-5dfafdbb73c0","system_id":"levelo_inurba_marseille","lat":43.337563,"lon":5.374653,"is_reserved":false,"is_disabled":false,"rental_uris":{"android":"levelo://app?vid=f3e60a9c-2b74-43cb-ac11-5dfafdbb73c0","ios":"levelo://app?vid=f3e60a9c-2b74-43cb-ac11-5dfafdbb73c0"},"vehicle_type_id":"4","last_reported":1679083677,"current_range_meters":30000,"station_id":"","pricing_plan_id":"free"},{"bike_id":"70cf46c9-16c2-49bd-aea4-41872a74c03f","system_id":"levelo_inurba_marseille","lat":43.305909,"lon":5.400746,"is_reserved":false,"is_disabled":false,"rental_uris":{"android":"levelo://app?vid=70cf46c9-16c2-49bd-aea4-41872a74c03f","ios":"levelo://app?vid=70cf46c9-16c2-49bd-aea4-41872a74c03f"},"vehicle_type_id":"4","last_reported":1679083677,"current_range_meters":22000,"station_id":"ce4bh112rcd13ifvqda0","pricing_plan_id":"free"},{"bike_id":"6a177724-bd8f-4d84-a119-15a4daa479e9","system_id":"levelo_inurba_marseille","lat":43.298681,"lon":5.397225,"is_reserved":false,"is_disabled":false,"rental_uris":{"android":"levelo://app?vid=6a177724-bd8f-4d84-a119-15a4daa479e9","ios":"levelo://app?vid=6a177724-bd8f-4d84-a119-15a4daa479e9"},"vehicle_type_id":"4","last_reported":1679083677,"current_range_meters":5200,"station_id":"ce4bh0h2rcd13ifvqd50","pricing_plan_id":"free"},{"bike_id":"1cf56304-9b0d-42cf-b2d4-b4f446066000","system_id":"levelo_inurba_marseille","lat":43.29531,"lon":5.39403,"is_reserved":false,"is_disabled":false,"rental_uris":{"android":"levelo://app?vid=1cf56304-9b0d-42cf-b2d4-b4f446066000","ios":"levelo://app?vid=1cf56304-9b0d-42cf-b2d4-b4f446066000"},"vehicle_type_id":"4","last_reported":1679083677,"current_range_meters":400,"station_id":"ce4bh212rcd13ifvqde0","pricing_plan_id":"free"},{"bike_id":"1f833297-5316-4ddb-8f80-bbf2c246a335","system_id":"levelo_inurba_marseille","lat":43.29514,"lon":5.39392,"is_reserved":false,"is_disabled":false,"rental_uris":{"android":"levelo://app?vid=1f833297-5316-4ddb-8f80-bbf2c246a335","ios":"levelo://app?vid=1f833297-5316-4ddb-8f80-bbf2c246a335"},"vehicle_type_id":"4","last_reported":1679083677,"current_range_meters":7600,"station_id":"ce4bh212rcd13ifvqde0","pricing_plan_id":"free"},{"bike_id":"954ba6ae-2aea-4a61-b759-2b60b907ea4e","system_id":"levelo_inurba_marseille","lat":43.286167,"lon":5.370637,"is_reserved":false,"is_disabled":false,"rental_uris":{"android":"levelo://app?vid=954ba6ae-2aea-4a61-b759-2b60b907ea4e","ios":"levelo://app?vid=954ba6ae-2aea-4a61-b759-2b60b907ea4e"},"vehicle_type_id":"4","last_reported":1679083677,"current_range_meters":9600,"station_id":"","pricing_plan_id":"free"},{"bike_id":"7276a0f3-39e8-4af1-8160-d977e96e7a30","system_id":"levelo_inurba_marseille","lat":43.272116,"lon":5.391747,"is_reserved":false,"is_disabled":false,"rental_uris":{"android":"levelo://app?vid=7276a0f3-39e8-4af1-8160-d977e96e7a30","ios":"levelo://app?vid=7276a0f3-39e8-4af1-8160-d977e96e7a30"},"vehicle_type_id":"4","last_reported":1679083677,"current_range_meters":10000,"station_id":"ce4bhhp2rcd13ifvqfm0","pricing_plan_id":"free"},{"bike_id":"3d9cd009-728c-49e4-ba95-8d995a114afb","system_id":"levelo_inurba_marseille","lat":43.272116,"lon":5.391747,"is_reserved":false,"is_disabled":false,"rental_uris":{"android":"levelo://app?vid=3d9cd009-728c-49e4-ba95-8d995a114afb","ios":"levelo://app?vid=3d9cd009-728c-49e4-ba95-8d995a114afb"},"vehicle_type_id":"4","last_reported":1679083677,"current_range_meters":26400,"station_id":"ce4bhhp2rcd13ifvqfm0","pricing_plan_id":"free"},{"bike_id":"83223246-8e08-4a37-9a27-056cb7faf80e","system_id":"levelo_inurba_marseille","lat":43.272116,"lon":5.391747,"is_reserved":false,"is_disabled":false,"rental_uris":{"android":"levelo://app?vid=83223246-8e08-4a37-9a27-056cb7faf80e","ios":"levelo://app?vid=83223246-8e08-4a37-9a27-056cb7faf80e"},"vehicle_type_id":"4","last_reported":1679083677,"current_range_meters":26400,"station_id":"ce4bhhp2rcd13ifvqfm0","pricing_plan_id":"free"},{"bike_id":"0f1d7370-a79a-4981-a2a3-4b430205c40f","system_id":"levelo_inurba_marseille","lat":43.31643,"lon":5.40433,"is_reserved":false,"is_disabled":false,"rental_uris":{"android":"levelo://app?vid=0f1d7370-a79a-4981-a2a3-4b430205c40f","ios":"levelo://app?vid=0f1d7370-a79a-4981-a2a3-4b430205c40f"},"vehicle_type_id":"4","last_reported":1679083677,"current_range_meters":30800,"station_id":"","pricing_plan_id":"free"},{"bike_id":"371e1588-9993-4297-826e-9cf3b8865050","system_id":"levelo_inurba_marseille","lat":43.316517,"lon":5.404375,"is_reserved":false,"is_disabled":false,"rental_uris":{"android":"levelo://app?vid=371e1588-9993-4297-826e-9cf3b8865050","ios":"levelo://app?vid=371e1588-9993-4297-826e-9cf3b8865050"},"vehicle_type_id":"4","last_reported":1679083677,"current_range_meters":11200,"station_id":"ce4bh012rcd13ifvqd00","pricing_plan_id":"free"},{"bike_id":"e24597c7-c2e6-41a1-9a15-dda2daefa4f2","system_id":"levelo_inurba_marseille","lat":43.31643,"lon":5.40434,"is_reserved":false,"is_disabled":false,"rental_uris":{"android":"levelo://app?vid=e24597c7-c2e6-41a1-9a15-dda2daefa4f2","ios":"levelo://app?vid=e24597c7-c2e6-41a1-9a15-dda2daefa4f2"},"vehicle_type_id":"4","last_reported":1679083677,"current_range_meters":11600,"station_id":"ce4bh012rcd13ifvqd00","pricing_plan_id":"free"},{"bike_id":"3def00d9-0c31-4c3b-a275-e74d5d5ed248","system_id":"levelo_inurba_marseille","lat":43.316517,"lon":5.404375,"is_reserved":false,"is_disabled":false,"rental_uris":{"android":"levelo://app?vid=3def00d9-0c31-4c3b-a275-e74d5d5ed248","ios":"levelo://app?vid=3def00d9-0c31-4c3b-a275-e74d5d5ed248"},"vehicle_type_id":"4","last_reported":1679083677,"current_range_meters":21200,"station_id":"ce4bh012rcd13ifvqd00","pricing_plan_id":"free"},{"bike_id":"fb8f763c-c01f-4ca8-ab39-1acf812d8d52","system_id":"levelo_inurba_marseille","lat":43.31645,"lon":5.40435,"is_reserved":false,"is_disabled":false,"rental_uris":{"android":"levelo://app?vid=fb8f763c-c01f-4ca8-ab39-1acf812d8d52","ios":"levelo://app?vid=fb8f763c-c01f-4ca8-ab39-1acf812d8d52"},"vehicle_type_id":"4","last_reported":1679083677,"current_range_meters":6800,"station_id":"ce4bh012rcd13ifvqd00","pricing_plan_id":"free"},{"bike_id":"f98cc2a8-9554-4a17-ba7c-48a6bdb32513","system_id":"levelo_inurba_marseille","lat":43.316517,"lon":5.404375,"is_reserved":false,"is_disabled":false,"rental_uris":{"android":"levelo://app?vid=f98cc2a8-9554-4a17-ba7c-48a6bdb32513","ios":"levelo://app?vid=f98cc2a8-9554-4a17-ba7c-48a6bdb32513"},"vehicle_type_id":"4","last_reported":1679083677,"current_range_meters":30000,"station_id":"ce4bh012rcd13ifvqd00","pricing_plan_id":"free"},{"bike_id":"9fa5b2d6-3fee-439d-a3ed-3c151e9839f5","system_id":"levelo_inurba_marseille","lat":43.31645,"lon":5.40436,"is_reserved":false,"is_disabled":false,"rental_uris":{"android":"levelo://app?vid=9fa5b2d6-3fee-439d-a3ed-3c151e9839f5","ios":"levelo://app?vid=9fa5b2d6-3fee-439d-a3ed-3c151e9839f5"},"vehicle_type_id":"4","last_reported":1679083677,"current_range_meters":3600,"station_id":"","pricing_plan_id":"free"},{"bike_id":"c4411a89-2d66-44f5-8066-19ab283f61e9","system_id":"levelo_inurba_marseille","lat":43.31647,"lon":5.40436,"is_reserved":false,"is_disabled":false,"rental_uris":{"android":"levelo://app?vid=c4411a89-2d66-44f5-8066-19ab283f61e9","ios":"levelo://app?vid=c4411a89-2d66-44f5-8066-19ab283f61e9"},"vehicle_type_id":"4","last_reported":1679083677,"current_range_meters":0,"station_id":"ce4bh012rcd13ifvqd00","pricing_plan_id":"free"},{"bike_id":"e6540e28-fb13-45fc-80bb-646bb70aa750","system_id":"levelo_inurba_marseille","lat":43.316517,"lon":5.404375,"is_reserved":false,"is_disabled":false,"rental_uris":{"android":"levelo://app?vid=e6540e28-fb13-45fc-80bb-646bb70aa750","ios":"levelo://app?vid=e6540e28-fb13-45fc-80bb-646bb70aa750"},"vehicle_type_id":"4","last_reported":1679083677,"current_range_meters":31600,"station_id":"ce4bh012rcd13ifvqd00","pricing_plan_id":"free"},{"bike_id":"4fabb1ad-c32a-46d2-a1e7-2b7643518867","system_id":"levelo_inurba_marseille","lat":43.316517,"lon":5.404375,"is_reserved":false,"is_disabled":false,"rental_uris":{"android":"levelo://app?vid=4fabb1ad-c32a-46d2-a1e7-2b7643518867","ios":"levelo://app?vid=4fabb1ad-c32a-46d2-a1e7-2b7643518867"},"vehicle_type_id":"4","last_reported":1679083677,"current_range_meters":29200,"station_id":"ce4bh012rcd13ifvqd00","pricing_plan_id":"free"},{"bike_id":"fcb49e95-cf92-49ff-abc4-0f0b91e64e54","system_id":"levelo_inurba_marseille","lat":43.31648,"lon":5.40443,"is_reserved":false,"is_disabled":false,"rental_uris":{"android":"levelo://app?vid=fcb49e95-cf92-49ff-abc4-0f0b91e64e54","ios":"levelo://app?vid=fcb49e95-cf92-49ff-abc4-0f0b91e64e54"},"vehicle_type_id":"4","last_reported":1679083677,"current_range_meters":31600,"station_id":"ce4bh012rcd13ifvqd00","pricing_plan_id":"free"},{"bike_id":"fbdb9d51-f497-472c-9f0a-dfa5f32e744a","system_id":"levelo_inurba_marseille","lat":43.303194,"lon":5.402949,"is_reserved":false,"is_disabled":false,"rental_uris":{"android":"levelo://app?vid=fbdb9d51-f497-472c-9f0a-dfa5f32e744a","ios":"levelo://app?vid=fbdb9d51-f497-472c-9f0a-dfa5f32e744a"},"vehicle_type_id":"4","last_reported":1679083677,"current_range_meters":0,"station_id":"","pricing_plan_id":"free"},{"bike_id":"02577bc3-2af8-47f7-a256-fcbc9c480962","system_id":"levelo_inurba_marseille","lat":43.284534,"lon":5.358662,"is_reserved":false,"is_disabled":false,"rental_uris":{"android":"levelo://app?vid=02577bc3-2af8-47f7-a256-fcbc9c480962","ios":"levelo://app?vid=02577bc3-2af8-47f7-a256-fcbc9c480962"},"vehicle_type_id":"4","last_reported":1679083677,"current_range_meters":14000,"station_id":"ce4bhah2rcd13ifvqei0","pricing_plan_id":"free"},{"bike_id":"05b85da7-4e6d-4a55-b3ed-f07f9e4c0130","system_id":"levelo_inurba_marseille","lat":43.284534,"lon":5.358662,"is_reserved":false,"is_disabled":false,"rental_uris":{"android":"levelo://app?vid=05b85da7-4e6d-4a55-b3ed-f07f9e4c0130","ios":"levelo://app?vid=05b85da7-4e6d-4a55-b3ed-f07f9e4c0130"},"vehicle_type_id":"4","last_reported":1679083677,"current_range_meters":8800,"station_id":"ce4bhah2rcd13ifvqei0","pricing_plan_id":"free"},{"bike_id":"4393eee0-150a-4e80-9dcd-08bbaab564f6","system_id":"levelo_inurba_marseille","lat":43.295713,"lon":5.399639,"is_reserved":false,"is_disabled":false,"rental_uris":{"android":"levelo://app?vid=4393eee0-150a-4e80-9dcd-08bbaab564f6","ios":"levelo://app?vid=4393eee0-150a-4e80-9dcd-08bbaab564f6"},"vehicle_type_id":"4","last_reported":1679083677,"current_range_meters":30000,"station_id":"ce4bh312rcd13ifvqdj0","pricing_plan_id":"free"},{"bike_id":"2112e010-3448-41dc-9a2f-1a1b90247493","system_id":"levelo_inurba_marseille","lat":43.286595,"lon":5.386795,"is_reserved":false,"is_disabled":false,"rental_uris":{"android":"levelo://app?vid=2112e010-3448-41dc-9a2f-1a1b90247493","ios":"levelo://app?vid=2112e010-3448-41dc-9a2f-1a1b90247493"},"vehicle_type_id":"4","last_reported":1679083677,"current_range_meters":0,"station_id":"ce4bh492rcd13ifvqdug","pricing_plan_id":"free"},{"bike_id":"e92849ce-e810-4025-8774-6ec0d3944c9a","system_id":"levelo_inurba_marseille","lat":43.32339,"lon":5.40615,"is_reserved":false,"is_disabled":false,"rental_uris":{"android":"levelo://app?vid=e92849ce-e810-4025-8774-6ec0d3944c9a","ios":"levelo://app?vid=e92849ce-e810-4025-8774-6ec0d3944c9a"},"vehicle_type_id":"4","last_reported":1679083677,"current_range_meters":31600,"station_id":"","pricing_plan_id":"free"},{"bike_id":"80ba76b4-d3c8-4ede-bc79-5a13e5122b90","system_id":"levelo_inurba_marseille","lat":43.32334,"lon":5.4062,"is_reserved":false,"is_disabled":false,"rental_uris":{"android":"levelo://app?vid=80ba76b4-d3c8-4ede-bc79-5a13e5122b90","ios":"levelo://app?vid=80ba76b4-d3c8-4ede-bc79-5a13e5122b90"},"vehicle_type_id":"4","last_reported":1679083677,"current_range_meters":31600,"station_id":"ce4bhq92rcd13ifvqhjg","pricing_plan_id":"free"},{"bike_id":"7da50cf2-84b2-4cdc-90b1-294cf45698cb","system_id":"levelo_inurba_marseille","lat":43.32336,"lon":5.40621,"is_reserved":false,"is_disabled":false,"rental_uris":{"android":"levelo://app?vid=7da50cf2-84b2-4cdc-90b1-294cf45698cb","ios":"levelo://app?vid=7da50cf2-84b2-4cdc-90b1-294cf45698cb"},"vehicle_type_id":"4","last_reported":1679083677,"current_range_meters":11600,"station_id":"ce4bhq92rcd13ifvqhjg","pricing_plan_id":"free"},{"bike_id":"5f9f6a68-b7bd-4e7c-81f2-8596a29c1b98","system_id":"levelo_inurba_marseille","lat":43.32337,"lon":5.40628,"is_reserved":false,"is_disabled":false,"rental_uris":{"android":"levelo://app?vid=5f9f6a68-b7bd-4e7c-81f2-8596a29c1b98","ios":"levelo://app?vid=5f9f6a68-b7bd-4e7c-81f2-8596a29c1b98"},"vehicle_type_id":"4","last_reported":1679083677,"current_range_meters":1600,"station_id":"ce4bhq92rcd13ifvqhjg","pricing_plan_id":"free"},{"bike_id":"0d5ca4b0-30dc-4656-8edd-41b1500bd4dc","system_id":"levelo_inurba_marseille","lat":43.32342,"lon":5.40627,"is_reserved":false,"is_disabled":false,"rental_uris":{"android":"levelo://app?vid=0d5ca4b0-30dc-4656-8edd-41b1500bd4dc","ios":"levelo://app?vid=0d5ca4b0-30dc-4656-8edd-41b1500bd4dc"},"vehicle_type_id":"4","last_reported":1679083677,"current_range_meters":1600,"station_id":"","pricing_plan_id":"free"},{"bike_id":"9545c55a-c523-4a24-b9cb-c30dbd3597ef","system_id":"levelo_inurba_marseille","lat":43.284793,"lon":5.384119,"is_reserved":false,"is_disabled":false,"rental_uris":{"android":"levelo://app?vid=9545c55a-c523-4a24-b9cb-c30dbd3597ef","ios":"levelo://app?vid=9545c55a-c523-4a24-b9cb-c30dbd3597ef"},"vehicle_type_id":"4","last_reported":1679083677,"current_range_meters":20800,"station_id":"ce4bh512rcd13ifvqe3g","pricing_plan_id":"free"},{"bike_id":"d5aac7c5-5c2b-466b-9cd9-ca27f75d3bf2","system_id":"levelo_inurba_marseille","lat":43.284793,"lon":5.384119,"is_reserved":false,"is_disabled":false,"rental_uris":{"android":"levelo://app?vid=d5aac7c5-5c2b-466b-9cd9-ca27f75d3bf2","ios":"levelo://app?vid=d5aac7c5-5c2b-466b-9cd9-ca27f75d3bf2"},"vehicle_type_id":"4","last_reported":1679083677,"current_range_meters":4800,"station_id":"ce4bh512rcd13ifvqe3g","pricing_plan_id":"free"},{"bike_id":"2c775848-4dad-4fe2-b56c-07681af5e124","system_id":"levelo_inurba_marseille","lat":43.29275,"lon":5.40118,"is_reserved":false,"is_disabled":false,"rental_uris":{"android":"levelo://app?vid=2c775848-4dad-4fe2-b56c-07681af5e124","ios":"levelo://app?vid=2c775848-4dad-4fe2-b56c-07681af5e124"},"vehicle_type_id":"4","last_reported":1679083677,"current_range_meters":18000,"station_id":"ce4bh312rcd13ifvqdk0","pricing_plan_id":"free"},{"bike_id":"e735f348-3835-4a46-9f1c-e7caf03b68ae","system_id":"levelo_inurba_marseille","lat":43.282744,"lon":5.350533,"is_reserved":false,"is_disabled":false,"rental_uris":{"android":"levelo://app?vid=e735f348-3835-4a46-9f1c-e7caf03b68ae","ios":"levelo://app?vid=e735f348-3835-4a46-9f1c-e7caf03b68ae"},"vehicle_type_id":"4","last_reported":1679083677,"current_range_meters":0,"station_id":"ce4bhbp2rcd13ifvqerg","pricing_plan_id":"free"},{"bike_id":"d530077b-1516-4f8c-96c2-93fc6efb996d","system_id":"levelo_inurba_marseille","lat":43.28039,"lon":5.369297,"is_reserved":false,"is_disabled":false,"rental_uris":{"android":"levelo://app?vid=d530077b-1516-4f8c-96c2-93fc6efb996d","ios":"levelo://app?vid=d530077b-1516-4f8c-96c2-93fc6efb996d"},"vehicle_type_id":"4","last_reported":1679083677,"current_range_meters":4400,"station_id":"ce4bha12rcd13ifvqef0","pricing_plan_id":"free"},{"bike_id":"1afe73dc-9693-4a36-9a04-0765baeaa754","system_id":"levelo_inurba_marseille","lat":43.28463,"lon":5.39199,"is_reserved":false,"is_disabled":false,"rental_uris":{"android":"levelo://app?vid=1afe73dc-9693-4a36-9a04-0765baeaa754","ios":"levelo://app?vid=1afe73dc-9693-4a36-9a04-0765baeaa754"},"vehicle_type_id":"4","last_reported":1679083677,"current_range_meters":14800,"station_id":"","pricing_plan_id":"free"},{"bike_id":"36a30458-4e3c-4d4d-b921-ac15d6c36973","system_id":"levelo_inurba_marseille","lat":43.287154,"lon":5.399979,"is_reserved":false,"is_disabled":false,"rental_uris":{"android":"levelo://app?vid=36a30458-4e3c-4d4d-b921-ac15d6c36973","ios":"levelo://app?vid=36a30458-4e3c-4d4d-b921-ac15d6c36973"},"vehicle_type_id":"4","last_reported":1679083677,"current_range_meters":2000,"station_id":"ce4bho92rcd13ifvqh3g","pricing_plan_id":"free"},{"bike_id":"0bfa3916-61ae-44b9-8aff-27e8b7d6738c","system_id":"levelo_inurba_marseille","lat":43.287154,"lon":5.399979,"is_reserved":false,"is_disabled":false,"rental_uris":{"android":"levelo://app?vid=0bfa3916-61ae-44b9-8aff-27e8b7d6738c","ios":"levelo://app?vid=0bfa3916-61ae-44b9-8aff-27e8b7d6738c"},"vehicle_type_id":"4","last_reported":1679083677,"current_range_meters":800,"station_id":"ce4bho92rcd13ifvqh3g","pricing_plan_id":"free"},{"bike_id":"392a8b9c-aa43-44cf-8c1a-da0e3b792182","system_id":"levelo_inurba_marseille","lat":43.320045,"lon":5.415048,"is_reserved":false,"is_disabled":false,"rental_uris":{"android":"levelo://app?vid=392a8b9c-aa43-44cf-8c1a-da0e3b792182","ios":"levelo://app?vid=392a8b9c-aa43-44cf-8c1a-da0e3b792182"},"vehicle_type_id":"4","last_reported":1679083677,"current_range_meters":18800,"station_id":"ce4bhq92rcd13ifvqhkg","pricing_plan_id":"free"},{"bike_id":"5ea9b123-bdfc-4b6e-92dc-3ca774a31406","system_id":"levelo_inurba_marseille","lat":43.32043,"lon":5.41546,"is_reserved":false,"is_disabled":false,"rental_uris":{"android":"levelo://app?vid=5ea9b123-bdfc-4b6e-92dc-3ca774a31406","ios":"levelo://app?vid=5ea9b123-bdfc-4b6e-92dc-3ca774a31406"},"vehicle_type_id":"4","last_reported":1679083677,"current_range_meters":6400,"station_id":"","pricing_plan_id":"free"},{"bike_id":"fdd20072-084e-440b-8619-885eb988a660","system_id":"levelo_inurba_marseille","lat":43.32043,"lon":5.41556,"is_reserved":false,"is_disabled":false,"rental_uris":{"android":"levelo://app?vid=fdd20072-084e-440b-8619-885eb988a660","ios":"levelo://app?vid=fdd20072-084e-440b-8619-885eb988a660"},"vehicle_type_id":"4","last_reported":1679083677,"current_range_meters":4000,"station_id":"","pricing_plan_id":"free"},{"bike_id":"e29e3f5d-3cf9-41c8-b926-16fd5d1b00d2","system_id":"levelo_inurba_marseille","lat":43.320045,"lon":5.415048,"is_reserved":false,"is_disabled":false,"rental_uris":{"android":"levelo://app?vid=e29e3f5d-3cf9-41c8-b926-16fd5d1b00d2","ios":"levelo://app?vid=e29e3f5d-3cf9-41c8-b926-16fd5d1b00d2"},"vehicle_type_id":"4","last_reported":1679083677,"current_range_meters":19600,"station_id":"ce4bhq92rcd13ifvqhkg","pricing_plan_id":"free"},{"bike_id":"e43a0af9-80f3-4730-9f00-8feb46c951d8","system_id":"levelo_inurba_marseille","lat":43.279742,"lon":5.38744,"is_reserved":false,"is_disabled":false,"rental_uris":{"android":"levelo://app?vid=e43a0af9-80f3-4730-9f00-8feb46c951d8","ios":"levelo://app?vid=e43a0af9-80f3-4730-9f00-8feb46c951d8"},"vehicle_type_id":"4","last_reported":1679083677,"current_range_meters":22400,"station_id":"ce4bhg12rcd13ifvqf80","pricing_plan_id":"free"},{"bike_id":"9d002998-c479-45f0-879d-1bd38fbf953b","system_id":"levelo_inurba_marseille","lat":43.324762,"lon":5.41431,"is_reserved":false,"is_disabled":false,"rental_uris":{"android":"levelo://app?vid=9d002998-c479-45f0-879d-1bd38fbf953b","ios":"levelo://app?vid=9d002998-c479-45f0-879d-1bd38fbf953b"},"vehicle_type_id":"4","last_reported":1679083677,"current_range_meters":14000,"station_id":"","pricing_plan_id":"free"},{"bike_id":"e63f44e2-88ef-4b63-8922-3746eb56c673","system_id":"levelo_inurba_marseille","lat":43.32501,"lon":5.41441,"is_reserved":false,"is_disabled":false,"rental_uris":{"android":"levelo://app?vid=e63f44e2-88ef-4b63-8922-3746eb56c673","ios":"levelo://app?vid=e63f44e2-88ef-4b63-8922-3746eb56c673"},"vehicle_type_id":"4","last_reported":1679083677,"current_range_meters":0,"station_id":"","pricing_plan_id":"free"},{"bike_id":"53283567-3df8-437e-9bd3-fbb43e15f866","system_id":"levelo_inurba_marseille","lat":43.325455,"lon":5.414295,"is_reserved":false,"is_disabled":false,"rental_uris":{"android":"levelo://app?vid=53283567-3df8-437e-9bd3-fbb43e15f866","ios":"levelo://app?vid=53283567-3df8-437e-9bd3-fbb43e15f866"},"vehicle_type_id":"4","last_reported":1679083677,"current_range_meters":4400,"station_id":"ce4bhq12rcd13ifvqhhg","pricing_plan_id":"free"},{"bike_id":"d28a0cc5-17bc-4dac-8b64-2dd42c881461","system_id":"levelo_inurba_marseille","lat":43.325395,"lon":5.41434,"is_reserved":false,"is_disabled":false,"rental_uris":{"android":"levelo://app?vid=d28a0cc5-17bc-4dac-8b64-2dd42c881461","ios":"levelo://app?vid=d28a0cc5-17bc-4dac-8b64-2dd42c881461"},"vehicle_type_id":"4","last_reported":1679083677,"current_range_meters":18800,"station_id":"","pricing_plan_id":"free"},{"bike_id":"0c668e4e-e0a5-4c13-8369-a5a145cb4df9","system_id":"levelo_inurba_marseille","lat":43.325243,"lon":5.414326,"is_reserved":false,"is_disabled":false,"rental_uris":{"android":"levelo://app?vid=0c668e4e-e0a5-4c13-8369-a5a145cb4df9","ios":"levelo://app?vid=0c668e4e-e0a5-4c13-8369-a5a145cb4df9"},"vehicle_type_id":"4","last_reported":1679083677,"current_range_meters":29600,"station_id":"ce4bhq12rcd13ifvqhhg","pricing_plan_id":"free"},{"bike_id":"475c1bf4-38c3-49a6-bf4f-dda43ab568f1","system_id":"levelo_inurba_marseille","lat":43.32541,"lon":5.41438,"is_reserved":false,"is_disabled":false,"rental_uris":{"android":"levelo://app?vid=475c1bf4-38c3-49a6-bf4f-dda43ab568f1","ios":"levelo://app?vid=475c1bf4-38c3-49a6-bf4f-dda43ab568f1"},"vehicle_type_id":"4","last_reported":1679083677,"current_range_meters":11200,"station_id":"ce4bhq12rcd13ifvqhhg","pricing_plan_id":"free"},{"bike_id":"c414d882-0c84-4eeb-b931-bc8968f7e3bb","system_id":"levelo_inurba_marseille","lat":43.32546,"lon":5.41439,"is_reserved":false,"is_disabled":false,"rental_uris":{"android":"levelo://app?vid=c414d882-0c84-4eeb-b931-bc8968f7e3bb","ios":"levelo://app?vid=c414d882-0c84-4eeb-b931-bc8968f7e3bb"},"vehicle_type_id":"4","last_reported":1679083677,"current_range_meters":18800,"station_id":"","pricing_plan_id":"free"},{"bike_id":"f35169e8-0c85-4cfa-b943-66ea72517626","system_id":"levelo_inurba_marseille","lat":43.325437,"lon":5.414407,"is_reserved":false,"is_disabled":false,"rental_uris":{"android":"levelo://app?vid=f35169e8-0c85-4cfa-b943-66ea72517626","ios":"levelo://app?vid=f35169e8-0c85-4cfa-b943-66ea72517626"},"vehicle_type_id":"4","last_reported":1679083677,"current_range_meters":12400,"station_id":"","pricing_plan_id":"free"},{"bike_id":"79063469-4674-491b-8fe3-abc2f7254d62","system_id":"levelo_inurba_marseille","lat":43.27618,"lon":5.361009,"is_reserved":false,"is_disabled":false,"rental_uris":{"android":"levelo://app?vid=79063469-4674-491b-8fe3-abc2f7254d62","ios":"levelo://app?vid=79063469-4674-491b-8fe3-abc2f7254d62"},"vehicle_type_id":"4","last_reported":1679083677,"current_range_meters":18000,"station_id":"ce4bgj92rcd13ifvqbe0","pricing_plan_id":"free"},{"bike_id":"bd109f50-88eb-43e5-a165-fc6966e140e3","system_id":"levelo_inurba_marseille","lat":43.276091,"lon":5.361088,"is_reserved":false,"is_disabled":false,"rental_uris":{"android":"levelo://app?vid=bd109f50-88eb-43e5-a165-fc6966e140e3","ios":"levelo://app?vid=bd109f50-88eb-43e5-a165-fc6966e140e3"},"vehicle_type_id":"4","last_reported":1679083677,"current_range_meters":0,"station_id":"","pricing_plan_id":"free"},{"bike_id":"07605091-d098-4c24-bc9a-5d02bfad1fd5","system_id":"levelo_inurba_marseille","lat":43.33605,"lon":5.41034,"is_reserved":false,"is_disabled":false,"rental_uris":{"android":"levelo://app?vid=07605091-d098-4c24-bc9a-5d02bfad1fd5","ios":"levelo://app?vid=07605091-d098-4c24-bc9a-5d02bfad1fd5"},"vehicle_type_id":"4","last_reported":1679083677,"current_range_meters":7200,"station_id":"ce4bhqh2rcd13ifvqhmg","pricing_plan_id":"free"},{"bike_id":"f88b5f55-a52e-4488-bd3b-05f55e53c93e","system_id":"levelo_inurba_marseille","lat":43.336035,"lon":5.410381,"is_reserved":false,"is_disabled":false,"rental_uris":{"android":"levelo://app?vid=f88b5f55-a52e-4488-bd3b-05f55e53c93e","ios":"levelo://app?vid=f88b5f55-a52e-4488-bd3b-05f55e53c93e"},"vehicle_type_id":"4","last_reported":1679083677,"current_range_meters":13600,"station_id":"ce4bhqh2rcd13ifvqhmg","pricing_plan_id":"free"},{"bike_id":"971664dd-6006-408c-909f-ca7aa25cd44b","system_id":"levelo_inurba_marseille","lat":43.276771,"lon":5.388799,"is_reserved":false,"is_disabled":false,"rental_uris":{"android":"levelo://app?vid=971664dd-6006-408c-909f-ca7aa25cd44b","ios":"levelo://app?vid=971664dd-6006-408c-909f-ca7aa25cd44b"},"vehicle_type_id":"4","last_reported":1679083677,"current_range_meters":10000,"station_id":"ce4bhi12rcd13ifvqfo0","pricing_plan_id":"free"},{"bike_id":"68093a89-d7b5-4359-b351-3c6ab72eb622","system_id":"levelo_inurba_marseille","lat":43.29483,"lon":5.41829,"is_reserved":false,"is_disabled":false,"rental_uris":{"android":"levelo://app?vid=68093a89-d7b5-4359-b351-3c6ab72eb622","ios":"levelo://app?vid=68093a89-d7b5-4359-b351-3c6ab72eb622"},"vehicle_type_id":"4","last_reported":1679083677,"current_range_meters":0,"station_id":"","pricing_plan_id":"free"},{"bike_id":"807355fe-5d3b-484a-9955-ef9e45dea16f","system_id":"levelo_inurba_marseille","lat":43.317121,"lon":5.423936,"is_reserved":false,"is_disabled":false,"rental_uris":{"android":"levelo://app?vid=807355fe-5d3b-484a-9955-ef9e45dea16f","ios":"levelo://app?vid=807355fe-5d3b-484a-9955-ef9e45dea16f"},"vehicle_type_id":"4","last_reported":1679083677,"current_range_meters":10400,"station_id":"ce4bhp92rcd13ifvqhbg","pricing_plan_id":"free"},{"bike_id":"0c4efe77-21dd-48ff-9013-d24e65c72518","system_id":"levelo_inurba_marseille","lat":43.317121,"lon":5.423936,"is_reserved":false,"is_disabled":false,"rental_uris":{"android":"levelo://app?vid=0c4efe77-21dd-48ff-9013-d24e65c72518","ios":"levelo://app?vid=0c4efe77-21dd-48ff-9013-d24e65c72518"},"vehicle_type_id":"4","last_reported":1679083677,"current_range_meters":7600,"station_id":"ce4bhp92rcd13ifvqhbg","pricing_plan_id":"free"},{"bike_id":"b39779a8-0f97-46f9-bd9b-ccbe2a18dc68","system_id":"levelo_inurba_marseille","lat":43.273125,"lon":5.390731,"is_reserved":false,"is_disabled":false,"rental_uris":{"android":"levelo://app?vid=b39779a8-0f97-46f9-bd9b-ccbe2a18dc68","ios":"levelo://app?vid=b39779a8-0f97-46f9-bd9b-ccbe2a18dc68"},"vehicle_type_id":"4","last_reported":1679083677,"current_range_meters":17200,"station_id":"ce4bhgp2rcd13ifvqfe0","pricing_plan_id":"free"},{"bike_id":"4a0304f5-1ac1-4bf4-9978-a2f945a7fbc4","system_id":"levelo_inurba_marseille","lat":43.272116,"lon":5.391747,"is_reserved":false,"is_disabled":false,"rental_uris":{"android":"levelo://app?vid=4a0304f5-1ac1-4bf4-9978-a2f945a7fbc4","ios":"levelo://app?vid=4a0304f5-1ac1-4bf4-9978-a2f945a7fbc4"},"vehicle_type_id":"4","last_reported":1679083677,"current_range_meters":23200,"station_id":"ce4bhhp2rcd13ifvqfm0","pricing_plan_id":"free"},{"bike_id":"07b4fcbf-0b2a-496b-a57f-97dfd12cb6e4","system_id":"levelo_inurba_marseille","lat":43.295523,"lon":5.422926,"is_reserved":false,"is_disabled":false,"rental_uris":{"android":"levelo://app?vid=07b4fcbf-0b2a-496b-a57f-97dfd12cb6e4","ios":"levelo://app?vid=07b4fcbf-0b2a-496b-a57f-97dfd12cb6e4"},"vehicle_type_id":"4","last_reported":1679083677,"current_range_meters":8000,"station_id":"ce4bhph2rcd13ifvqhdg","pricing_plan_id":"free"},{"bike_id":"915972c7-6407-48f3-ba8b-ee14bd5b5910","system_id":"levelo_inurba_marseille","lat":43.295511,"lon":5.422926,"is_reserved":false,"is_disabled":false,"rental_uris":{"android":"levelo://app?vid=915972c7-6407-48f3-ba8b-ee14bd5b5910","ios":"levelo://app?vid=915972c7-6407-48f3-ba8b-ee14bd5b5910"},"vehicle_type_id":"4","last_reported":1679083677,"current_range_meters":26800,"station_id":"ce4bhph2rcd13ifvqhdg","pricing_plan_id":"free"},{"bike_id":"9b282168-f6a1-478c-b744-be67d026feb4","system_id":"levelo_inurba_marseille","lat":43.295523,"lon":5.422926,"is_reserved":false,"is_disabled":false,"rental_uris":{"android":"levelo://app?vid=9b282168-f6a1-478c-b744-be67d026feb4","ios":"levelo://app?vid=9b282168-f6a1-478c-b744-be67d026feb4"},"vehicle_type_id":"4","last_reported":1679083677,"current_range_meters":26000,"station_id":"ce4bhph2rcd13ifvqhdg","pricing_plan_id":"free"},{"bike_id":"d5ce91c7-eea7-4f5f-869d-fd52053f0c67","system_id":"levelo_inurba_marseille","lat":43.29555,"lon":5.42295,"is_reserved":false,"is_disabled":false,"rental_uris":{"android":"levelo://app?vid=d5ce91c7-eea7-4f5f-869d-fd52053f0c67","ios":"levelo://app?vid=d5ce91c7-eea7-4f5f-869d-fd52053f0c67"},"vehicle_type_id":"4","last_reported":1679083677,"current_range_meters":15600,"station_id":"ce4bhph2rcd13ifvqhdg","pricing_plan_id":"free"},{"bike_id":"5bca3dfa-2fa6-4695-a175-b1268efca6b5","system_id":"levelo_inurba_marseille","lat":43.272116,"lon":5.391747,"is_reserved":false,"is_disabled":false,"rental_uris":{"android":"levelo://app?vid=5bca3dfa-2fa6-4695-a175-b1268efca6b5","ios":"levelo://app?vid=5bca3dfa-2fa6-4695-a175-b1268efca6b5"},"vehicle_type_id":"4","last_reported":1679083677,"current_range_meters":0,"station_id":"ce4bhhp2rcd13ifvqfm0","pricing_plan_id":"free"},{"bike_id":"e38538de-e128-4a7a-a115-713ea47e4397","system_id":"levelo_inurba_marseille","lat":43.26554,"lon":5.37294,"is_reserved":false,"is_disabled":false,"rental_uris":{"android":"levelo://app?vid=e38538de-e128-4a7a-a115-713ea47e4397","ios":"levelo://app?vid=e38538de-e128-4a7a-a115-713ea47e4397"},"vehicle_type_id":"4","last_reported":1679083677,"current_range_meters":0,"station_id":"ce4bhg12rcd13ifvqf70","pricing_plan_id":"free"},{"bike_id":"be8bc1a6-c2a9-4e9b-9fa4-d2d509e8cc64","system_id":"levelo_inurba_marseille","lat":43.27994,"lon":5.41659,"is_reserved":false,"is_disabled":false,"rental_uris":{"android":"levelo://app?vid=be8bc1a6-c2a9-4e9b-9fa4-d2d509e8cc64","ios":"levelo://app?vid=be8bc1a6-c2a9-4e9b-9fa4-d2d509e8cc64"},"vehicle_type_id":"4","last_reported":1679083677,"current_range_meters":17200,"station_id":"ce4bho12rcd13ifvqh1g","pricing_plan_id":"free"},{"bike_id":"3fbf823e-8d07-4bd3-85df-5431d3399d5d","system_id":"levelo_inurba_marseille","lat":43.27996,"lon":5.416624,"is_reserved":false,"is_disabled":false,"rental_uris":{"android":"levelo://app?vid=3fbf823e-8d07-4bd3-85df-5431d3399d5d","ios":"levelo://app?vid=3fbf823e-8d07-4bd3-85df-5431d3399d5d"},"vehicle_type_id":"4","last_reported":1679083677,"current_range_meters":5200,"station_id":"ce4bho12rcd13ifvqh1g","pricing_plan_id":"free"},{"bike_id":"7b142210-5006-4def-a9de-26a8dba91889","system_id":"levelo_inurba_marseille","lat":43.27991,"lon":5.41662,"is_reserved":false,"is_disabled":false,"rental_uris":{"android":"levelo://app?vid=7b142210-5006-4def-a9de-26a8dba91889","ios":"levelo://app?vid=7b142210-5006-4def-a9de-26a8dba91889"},"vehicle_type_id":"4","last_reported":1679083677,"current_range_meters":11200,"station_id":"","pricing_plan_id":"free"},{"bike_id":"10bb1087-26ec-4c14-aa29-4ada5aaafb2e","system_id":"levelo_inurba_marseille","lat":43.308051,"lon":5.43527,"is_reserved":false,"is_disabled":false,"rental_uris":{"android":"levelo://app?vid=10bb1087-26ec-4c14-aa29-4ada5aaafb2e","ios":"levelo://app?vid=10bb1087-26ec-4c14-aa29-4ada5aaafb2e"},"vehicle_type_id":"4","last_reported":1679083677,"current_range_meters":0,"station_id":"ce4bhph2rcd13ifvqheg","pricing_plan_id":"free"},{"bike_id":"93cbad91-5aa8-45a9-b352-0be48d17cd90","system_id":"levelo_inurba_marseille","lat":43.261782,"lon":5.374515,"is_reserved":false,"is_disabled":false,"rental_uris":{"android":"levelo://app?vid=93cbad91-5aa8-45a9-b352-0be48d17cd90","ios":"levelo://app?vid=93cbad91-5aa8-45a9-b352-0be48d17cd90"},"vehicle_type_id":"4","last_reported":1679083677,"current_range_meters":1600,"station_id":"ce4bhgp2rcd13ifvqfc0","pricing_plan_id":"free"},{"bike_id":"25bdd930-89e4-4791-a365-5fee6abf16d0","system_id":"levelo_inurba_marseille","lat":43.261782,"lon":5.374515,"is_reserved":false,"is_disabled":false,"rental_uris":{"android":"levelo://app?vid=25bdd930-89e4-4791-a365-5fee6abf16d0","ios":"levelo://app?vid=25bdd930-89e4-4791-a365-5fee6abf16d0"},"vehicle_type_id":"4","last_reported":1679083677,"current_range_meters":2800,"station_id":"ce4bhgp2rcd13ifvqfc0","pricing_plan_id":"free"},{"bike_id":"d0abec6a-ef61-48a5-9066-6920a6d49c7a","system_id":"levelo_inurba_marseille","lat":43.261782,"lon":5.374515,"is_reserved":false,"is_disabled":false,"rental_uris":{"android":"levelo://app?vid=d0abec6a-ef61-48a5-9066-6920a6d49c7a","ios":"levelo://app?vid=d0abec6a-ef61-48a5-9066-6920a6d49c7a"},"vehicle_type_id":"4","last_reported":1679083677,"current_range_meters":8000,"station_id":"ce4bhgp2rcd13ifvqfc0","pricing_plan_id":"free"},{"bike_id":"219cb498-3bf2-475d-b85d-9498619b4166","system_id":"levelo_inurba_marseille","lat":43.260225,"lon":5.375455,"is_reserved":false,"is_disabled":false,"rental_uris":{"android":"levelo://app?vid=219cb498-3bf2-475d-b85d-9498619b4166","ios":"levelo://app?vid=219cb498-3bf2-475d-b85d-9498619b4166"},"vehicle_type_id":"4","last_reported":1679083677,"current_range_meters":6800,"station_id":"ce4bhgh2rcd13ifvqfa0","pricing_plan_id":"free"},{"bike_id":"e7c4c036-fcec-4101-b1e7-2b2be236674c","system_id":"levelo_inurba_marseille","lat":43.260225,"lon":5.375455,"is_reserved":false,"is_disabled":false,"rental_uris":{"android":"levelo://app?vid=e7c4c036-fcec-4101-b1e7-2b2be236674c","ios":"levelo://app?vid=e7c4c036-fcec-4101-b1e7-2b2be236674c"},"vehicle_type_id":"4","last_reported":1679083677,"current_range_meters":1600,"station_id":"ce4bhgh2rcd13ifvqfa0","pricing_plan_id":"free"},{"bike_id":"da3523ce-66b1-415c-8464-3a7f98f95187","system_id":"levelo_inurba_marseille","lat":43.260219,"lon":5.37546,"is_reserved":false,"is_disabled":false,"rental_uris":{"android":"levelo://app?vid=da3523ce-66b1-415c-8464-3a7f98f95187","ios":"levelo://app?vid=da3523ce-66b1-415c-8464-3a7f98f95187"},"vehicle_type_id":"4","last_reported":1679083677,"current_range_meters":28800,"station_id":"ce4bhgh2rcd13ifvqfa0","pricing_plan_id":"free"},{"bike_id":"d275f099-7d4d-496e-945b-932cc2d2c880","system_id":"levelo_inurba_marseille","lat":43.2607,"lon":5.393983,"is_reserved":false,"is_disabled":false,"rental_uris":{"android":"levelo://app?vid=d275f099-7d4d-496e-945b-932cc2d2c880","ios":"levelo://app?vid=d275f099-7d4d-496e-945b-932cc2d2c880"},"vehicle_type_id":"4","last_reported":1679083677,"current_range_meters":14400,"station_id":"ce4bhh92rcd13ifvqfj0","pricing_plan_id":"free"},{"bike_id":"04f9b3d8-73f9-47c4-b3a4-858631614bfb","system_id":"levelo_inurba_marseille","lat":43.2607,"lon":5.393983,"is_reserved":false,"is_disabled":false,"rental_uris":{"android":"levelo://app?vid=04f9b3d8-73f9-47c4-b3a4-858631614bfb","ios":"levelo://app?vid=04f9b3d8-73f9-47c4-b3a4-858631614bfb"},"vehicle_type_id":"4","last_reported":1679083677,"current_range_meters":19600,"station_id":"ce4bhh92rcd13ifvqfj0","pricing_plan_id":"free"},{"bike_id":"8d9cd18c-580c-449b-a2c3-795306c62147","system_id":"levelo_inurba_marseille","lat":43.2607,"lon":5.393983,"is_reserved":false,"is_disabled":false,"rental_uris":{"android":"levelo://app?vid=8d9cd18c-580c-449b-a2c3-795306c62147","ios":"levelo://app?vid=8d9cd18c-580c-449b-a2c3-795306c62147"},"vehicle_type_id":"4","last_reported":1679083677,"current_range_meters":2000,"station_id":"ce4bhh92rcd13ifvqfj0","pricing_plan_id":"free"},{"bike_id":"8b297e91-f409-4f29-b865-9e2fddad7daf","system_id":"levelo_inurba_marseille","lat":43.2607,"lon":5.393983,"is_reserved":false,"is_disabled":false,"rental_uris":{"android":"levelo://app?vid=8b297e91-f409-4f29-b865-9e2fddad7daf","ios":"levelo://app?vid=8b297e91-f409-4f29-b865-9e2fddad7daf"},"vehicle_type_id":"4","last_reported":1679083677,"current_range_meters":22800,"station_id":"ce4bhh92rcd13ifvqfj0","pricing_plan_id":"free"},{"bike_id":"377a072e-20f2-468b-9607-ad83681ee0e4","system_id":"levelo_inurba_marseille","lat":43.2607,"lon":5.393983,"is_reserved":false,"is_disabled":false,"rental_uris":{"android":"levelo://app?vid=377a072e-20f2-468b-9607-ad83681ee0e4","ios":"levelo://app?vid=377a072e-20f2-468b-9607-ad83681ee0e4"},"vehicle_type_id":"4","last_reported":1679083677,"current_range_meters":0,"station_id":"ce4bhh92rcd13ifvqfj0","pricing_plan_id":"free"},{"bike_id":"33290f53-11ce-4685-a914-622570e6bc59","system_id":"levelo_inurba_marseille","lat":43.2607,"lon":5.393983,"is_reserved":false,"is_disabled":false,"rental_uris":{"android":"levelo://app?vid=33290f53-11ce-4685-a914-622570e6bc59","ios":"levelo://app?vid=33290f53-11ce-4685-a914-622570e6bc59"},"vehicle_type_id":"4","last_reported":1679083677,"current_range_meters":6400,"station_id":"ce4bhh92rcd13ifvqfj0","pricing_plan_id":"free"},{"bike_id":"f39264aa-9bda-43cb-8038-465870e49ae4","system_id":"levelo_inurba_marseille","lat":43.255756,"lon":5.382303,"is_reserved":false,"is_disabled":false,"rental_uris":{"android":"levelo://app?vid=f39264aa-9bda-43cb-8038-465870e49ae4","ios":"levelo://app?vid=f39264aa-9bda-43cb-8038-465870e49ae4"},"vehicle_type_id":"4","last_reported":1679083677,"current_range_meters":13600,"station_id":"ce4bhih2rcd13ifvqfs0","pricing_plan_id":"free"},{"bike_id":"87259458-d40e-4613-9389-67007431a7f6","system_id":"levelo_inurba_marseille","lat":43.25502,"lon":5.37649,"is_reserved":false,"is_disabled":false,"rental_uris":{"android":"levelo://app?vid=87259458-d40e-4613-9389-67007431a7f6","ios":"levelo://app?vid=87259458-d40e-4613-9389-67007431a7f6"},"vehicle_type_id":"4","last_reported":1679083677,"current_range_meters":0,"station_id":"ce4bhh12rcd13ifvqff0","pricing_plan_id":"free"},{"bike_id":"2c555c71-dec5-47cd-bf30-fa24b4ce6714","system_id":"levelo_inurba_marseille","lat":43.254947,"lon":5.376454,"is_reserved":false,"is_disabled":false,"rental_uris":{"android":"levelo://app?vid=2c555c71-dec5-47cd-bf30-fa24b4ce6714","ios":"levelo://app?vid=2c555c71-dec5-47cd-bf30-fa24b4ce6714"},"vehicle_type_id":"4","last_reported":1679083677,"current_range_meters":1600,"station_id":"ce4bhh12rcd13ifvqff0","pricing_plan_id":"free"},{"bike_id":"80a04a24-da9a-4428-ac5d-879cd9dd0f18","system_id":"levelo_inurba_marseille","lat":43.25493,"lon":5.37648,"is_reserved":false,"is_disabled":false,"rental_uris":{"android":"levelo://app?vid=80a04a24-da9a-4428-ac5d-879cd9dd0f18","ios":"levelo://app?vid=80a04a24-da9a-4428-ac5d-879cd9dd0f18"},"vehicle_type_id":"4","last_reported":1679083677,"current_range_meters":14000,"station_id":"ce4bhh12rcd13ifvqff0","pricing_plan_id":"free"},{"bike_id":"b1272868-12b9-4b2b-b953-65e7e816c560","system_id":"levelo_inurba_marseille","lat":43.258658,"lon":5.398935,"is_reserved":false,"is_disabled":false,"rental_uris":{"android":"levelo://app?vid=b1272868-12b9-4b2b-b953-65e7e816c560","ios":"levelo://app?vid=b1272868-12b9-4b2b-b953-65e7e816c560"},"vehicle_type_id":"4","last_reported":1679083677,"current_range_meters":1600,"station_id":"ce4bhl92rcd13ifvqghg","pricing_plan_id":"free"},{"bike_id":"2ff0118f-272b-4158-bb50-f312f6629d3b","system_id":"levelo_inurba_marseille","lat":43.25006,"lon":5.38923,"is_reserved":false,"is_disabled":false,"rental_uris":{"android":"levelo://app?vid=2ff0118f-272b-4158-bb50-f312f6629d3b","ios":"levelo://app?vid=2ff0118f-272b-4158-bb50-f312f6629d3b"},"vehicle_type_id":"4","last_reported":1679083677,"current_range_meters":26400,"station_id":"","pricing_plan_id":"free"},{"bike_id":"d3f80df1-423a-475c-b3af-2c55f31442a1","system_id":"levelo_inurba_marseille","lat":43.250064,"lon":5.389278,"is_reserved":false,"is_disabled":false,"rental_uris":{"android":"levelo://app?vid=d3f80df1-423a-475c-b3af-2c55f31442a1","ios":"levelo://app?vid=d3f80df1-423a-475c-b3af-2c55f31442a1"},"vehicle_type_id":"4","last_reported":1679083677,"current_range_meters":0,"station_id":"","pricing_plan_id":"free"},{"bike_id":"ba29c688-dc88-4fca-807b-be485213b0f7","system_id":"levelo_inurba_marseille","lat":43.250009,"lon":5.389195,"is_reserved":false,"is_disabled":false,"rental_uris":{"android":"levelo://app?vid=ba29c688-dc88-4fca-807b-be485213b0f7","ios":"levelo://app?vid=ba29c688-dc88-4fca-807b-be485213b0f7"},"vehicle_type_id":"4","last_reported":1679083677,"current_range_meters":1200,"station_id":"ce4bhgp2rcd13ifvqfd0","pricing_plan_id":"free"},{"bike_id":"383550a8-fca2-47c0-922b-492710f30663","system_id":"levelo_inurba_marseille","lat":43.2479,"lon":5.374457,"is_reserved":false,"is_disabled":false,"rental_uris":{"android":"levelo://app?vid=383550a8-fca2-47c0-922b-492710f30663","ios":"levelo://app?vid=383550a8-fca2-47c0-922b-492710f30663"},"vehicle_type_id":"4","last_reported":1679083677,"current_range_meters":2400,"station_id":"ce4bhgh2rcd13ifvqfb0","pricing_plan_id":"free"},{"bike_id":"ddad8a6e-783e-4ef6-b8e5-ae48406d0df5","system_id":"levelo_inurba_marseille","lat":43.2479,"lon":5.374457,"is_reserved":false,"is_disabled":false,"rental_uris":{"android":"levelo://app?vid=ddad8a6e-783e-4ef6-b8e5-ae48406d0df5","ios":"levelo://app?vid=ddad8a6e-783e-4ef6-b8e5-ae48406d0df5"},"vehicle_type_id":"4","last_reported":1679083677,"current_range_meters":19600,"station_id":"ce4bhgh2rcd13ifvqfb0","pricing_plan_id":"free"},{"bike_id":"78de50d9-3ef1-47e8-949a-cb3343760bee","system_id":"levelo_inurba_marseille","lat":43.2479,"lon":5.374457,"is_reserved":false,"is_disabled":false,"rental_uris":{"android":"levelo://app?vid=78de50d9-3ef1-47e8-949a-cb3343760bee","ios":"levelo://app?vid=78de50d9-3ef1-47e8-949a-cb3343760bee"},"vehicle_type_id":"4","last_reported":1679083677,"current_range_meters":16000,"station_id":"ce4bhgh2rcd13ifvqfb0","pricing_plan_id":"free"},{"bike_id":"dd67920b-f305-4bc4-b8d3-06168721c5d6","system_id":"levelo_inurba_marseille","lat":43.2479,"lon":5.374457,"is_reserved":false,"is_disabled":false,"rental_uris":{"android":"levelo://app?vid=dd67920b-f305-4bc4-b8d3-06168721c5d6","ios":"levelo://app?vid=dd67920b-f305-4bc4-b8d3-06168721c5d6"},"vehicle_type_id":"4","last_reported":1679083677,"current_range_meters":400,"station_id":"ce4bhgh2rcd13ifvqfb0","pricing_plan_id":"free"},{"bike_id":"55514ff1-5f51-44d3-a50e-e3a813c0edbc","system_id":"levelo_inurba_marseille","lat":43.2479,"lon":5.374457,"is_reserved":false,"is_disabled":false,"rental_uris":{"android":"levelo://app?vid=55514ff1-5f51-44d3-a50e-e3a813c0edbc","ios":"levelo://app?vid=55514ff1-5f51-44d3-a50e-e3a813c0edbc"},"vehicle_type_id":"4","last_reported":1679083677,"current_range_meters":8800,"station_id":"ce4bhgh2rcd13ifvqfb0","pricing_plan_id":"free"},{"bike_id":"77657fdb-40ec-4ecf-8d78-043b025fef11","system_id":"levelo_inurba_marseille","lat":43.25091,"lon":5.39525,"is_reserved":false,"is_disabled":false,"rental_uris":{"android":"levelo://app?vid=77657fdb-40ec-4ecf-8d78-043b025fef11","ios":"levelo://app?vid=77657fdb-40ec-4ecf-8d78-043b025fef11"},"vehicle_type_id":"4","last_reported":1679083677,"current_range_meters":14800,"station_id":"ce4bhm12rcd13ifvqgkg","pricing_plan_id":"free"},{"bike_id":"bb808e2a-b667-4b70-abb6-7a33538d9ac8","system_id":"levelo_inurba_marseille","lat":43.250966,"lon":5.395186,"is_reserved":false,"is_disabled":false,"rental_uris":{"android":"levelo://app?vid=bb808e2a-b667-4b70-abb6-7a33538d9ac8","ios":"levelo://app?vid=bb808e2a-b667-4b70-abb6-7a33538d9ac8"},"vehicle_type_id":"4","last_reported":1679083677,"current_range_meters":11200,"station_id":"ce4bhm12rcd13ifvqgkg","pricing_plan_id":"free"},{"bike_id":"9d4734cf-3661-44a9-9755-40259893e51c","system_id":"levelo_inurba_marseille","lat":43.250966,"lon":5.395186,"is_reserved":false,"is_disabled":false,"rental_uris":{"android":"levelo://app?vid=9d4734cf-3661-44a9-9755-40259893e51c","ios":"levelo://app?vid=9d4734cf-3661-44a9-9755-40259893e51c"},"vehicle_type_id":"4","last_reported":1679083677,"current_range_meters":22800,"station_id":"ce4bhm12rcd13ifvqgkg","pricing_plan_id":"free"},{"bike_id":"7319c031-5309-4693-bf85-e88244e3b4c7","system_id":"levelo_inurba_marseille","lat":43.250966,"lon":5.395186,"is_reserved":false,"is_disabled":false,"rental_uris":{"android":"levelo://app?vid=7319c031-5309-4693-bf85-e88244e3b4c7","ios":"levelo://app?vid=7319c031-5309-4693-bf85-e88244e3b4c7"},"vehicle_type_id":"4","last_reported":1679083677,"current_range_meters":10400,"station_id":"ce4bhm12rcd13ifvqgkg","pricing_plan_id":"free"},{"bike_id":"536cfefd-6ada-4099-b049-c6fcd397cd06","system_id":"levelo_inurba_marseille","lat":43.24693,"lon":5.382096,"is_reserved":false,"is_disabled":false,"rental_uris":{"android":"levelo://app?vid=536cfefd-6ada-4099-b049-c6fcd397cd06","ios":"levelo://app?vid=536cfefd-6ada-4099-b049-c6fcd397cd06"},"vehicle_type_id":"4","last_reported":1679083677,"current_range_meters":30000,"station_id":"ce4bhih2rcd13ifvqfr0","pricing_plan_id":"free"},{"bike_id":"89087527-8e75-48a9-99fc-905f3e063502","system_id":"levelo_inurba_marseille","lat":43.24693,"lon":5.382096,"is_reserved":false,"is_disabled":false,"rental_uris":{"android":"levelo://app?vid=89087527-8e75-48a9-99fc-905f3e063502","ios":"levelo://app?vid=89087527-8e75-48a9-99fc-905f3e063502"},"vehicle_type_id":"4","last_reported":1679083677,"current_range_meters":11200,"station_id":"ce4bhih2rcd13ifvqfr0","pricing_plan_id":"free"},{"bike_id":"27405174-d2f4-455d-bcf2-09f76a323553","system_id":"levelo_inurba_marseille","lat":43.25126,"lon":5.40316,"is_reserved":false,"is_disabled":false,"rental_uris":{"android":"levelo://app?vid=27405174-d2f4-455d-bcf2-09f76a323553","ios":"levelo://app?vid=27405174-d2f4-455d-bcf2-09f76a323553"},"vehicle_type_id":"4","last_reported":1679083677,"current_range_meters":6000,"station_id":"","pricing_plan_id":"free"},{"bike_id":"b49e884f-1519-49fd-9af9-b7af61544fb7","system_id":"levelo_inurba_marseille","lat":43.24693,"lon":5.382096,"is_reserved":false,"is_disabled":false,"rental_uris":{"android":"levelo://app?vid=b49e884f-1519-49fd-9af9-b7af61544fb7","ios":"levelo://app?vid=b49e884f-1519-49fd-9af9-b7af61544fb7"},"vehicle_type_id":"4","last_reported":1679083677,"current_range_meters":0,"station_id":"ce4bhih2rcd13ifvqfr0","pricing_plan_id":"free"},{"bike_id":"40a1b558-922f-4917-9f5b-e51c564abb0c","system_id":"levelo_inurba_marseille","lat":43.25122,"lon":5.40315,"is_reserved":false,"is_disabled":false,"rental_uris":{"android":"levelo://app?vid=40a1b558-922f-4917-9f5b-e51c564abb0c","ios":"levelo://app?vid=40a1b558-922f-4917-9f5b-e51c564abb0c"},"vehicle_type_id":"4","last_reported":1679083677,"current_range_meters":20400,"station_id":"","pricing_plan_id":"free"},{"bike_id":"f90c9470-cac4-4bc7-8356-3edf3cac2569","system_id":"levelo_inurba_marseille","lat":43.25117,"lon":5.40317,"is_reserved":false,"is_disabled":false,"rental_uris":{"android":"levelo://app?vid=f90c9470-cac4-4bc7-8356-3edf3cac2569","ios":"levelo://app?vid=f90c9470-cac4-4bc7-8356-3edf3cac2569"},"vehicle_type_id":"4","last_reported":1679083677,"current_range_meters":19600,"station_id":"","pricing_plan_id":"free"},{"bike_id":"f2ed81d0-448a-4122-bcb3-a453992721cc","system_id":"levelo_inurba_marseille","lat":43.25111,"lon":5.40327,"is_reserved":false,"is_disabled":false,"rental_uris":{"android":"levelo://app?vid=f2ed81d0-448a-4122-bcb3-a453992721cc","ios":"levelo://app?vid=f2ed81d0-448a-4122-bcb3-a453992721cc"},"vehicle_type_id":"4","last_reported":1679083677,"current_range_meters":13200,"station_id":"ce4bhlh2rcd13ifvqgig","pricing_plan_id":"free"},{"bike_id":"592adabc-a5ae-45cb-8040-f3f3638a9dd4","system_id":"levelo_inurba_marseille","lat":43.246461,"lon":5.389014,"is_reserved":false,"is_disabled":false,"rental_uris":{"android":"levelo://app?vid=592adabc-a5ae-45cb-8040-f3f3638a9dd4","ios":"levelo://app?vid=592adabc-a5ae-45cb-8040-f3f3638a9dd4"},"vehicle_type_id":"4","last_reported":1679083677,"current_range_meters":28800,"station_id":"ce4bhg12rcd13ifvqf60","pricing_plan_id":"free"},{"bike_id":"2f2e67d9-ef12-49f5-93bb-89e83bd22016","system_id":"levelo_inurba_marseille","lat":43.246467,"lon":5.388984,"is_reserved":false,"is_disabled":false,"rental_uris":{"android":"levelo://app?vid=2f2e67d9-ef12-49f5-93bb-89e83bd22016","ios":"levelo://app?vid=2f2e67d9-ef12-49f5-93bb-89e83bd22016"},"vehicle_type_id":"4","last_reported":1679083677,"current_range_meters":23200,"station_id":"ce4bhg12rcd13ifvqf60","pricing_plan_id":"free"},{"bike_id":"7ce66863-916e-43d9-9f4d-1ac9f0665a8c","system_id":"levelo_inurba_marseille","lat":43.246467,"lon":5.388984,"is_reserved":false,"is_disabled":false,"rental_uris":{"android":"levelo://app?vid=7ce66863-916e-43d9-9f4d-1ac9f0665a8c","ios":"levelo://app?vid=7ce66863-916e-43d9-9f4d-1ac9f0665a8c"},"vehicle_type_id":"4","last_reported":1679083677,"current_range_meters":5600,"station_id":"ce4bhg12rcd13ifvqf60","pricing_plan_id":"free"},{"bike_id":"6c4437b1-a7df-4671-b1af-076deaf3f28d","system_id":"levelo_inurba_marseille","lat":43.243884,"lon":5.370736,"is_reserved":false,"is_disabled":false,"rental_uris":{"android":"levelo://app?vid=6c4437b1-a7df-4671-b1af-076deaf3f28d","ios":"levelo://app?vid=6c4437b1-a7df-4671-b1af-076deaf3f28d"},"vehicle_type_id":"4","last_reported":1679083677,"current_range_meters":14400,"station_id":"ce4bhhh2rcd13ifvqfk0","pricing_plan_id":"free"},{"bike_id":"c3db6ff0-6909-407d-9c9e-dc4de213d9ed","system_id":"levelo_inurba_marseille","lat":43.245581,"lon":5.395069,"is_reserved":false,"is_disabled":false,"rental_uris":{"android":"levelo://app?vid=c3db6ff0-6909-407d-9c9e-dc4de213d9ed","ios":"levelo://app?vid=c3db6ff0-6909-407d-9c9e-dc4de213d9ed"},"vehicle_type_id":"4","last_reported":1679083677,"current_range_meters":12000,"station_id":"ce4bhlp2rcd13ifvqgjg","pricing_plan_id":"free"},{"bike_id":"069eaf24-b4e0-465d-b84a-647011d15fa4","system_id":"levelo_inurba_marseille","lat":43.239675,"lon":5.36634,"is_reserved":false,"is_disabled":false,"rental_uris":{"android":"levelo://app?vid=069eaf24-b4e0-465d-b84a-647011d15fa4","ios":"levelo://app?vid=069eaf24-b4e0-465d-b84a-647011d15fa4"},"vehicle_type_id":"4","last_reported":1679083677,"current_range_meters":19200,"station_id":"ce4bhi12rcd13ifvqfp0","pricing_plan_id":"free"},{"bike_id":"5d9781e8-b868-408e-88ee-4e427979c715","system_id":"levelo_inurba_marseille","lat":43.239588,"lon":5.366238,"is_reserved":false,"is_disabled":false,"rental_uris":{"android":"levelo://app?vid=5d9781e8-b868-408e-88ee-4e427979c715","ios":"levelo://app?vid=5d9781e8-b868-408e-88ee-4e427979c715"},"vehicle_type_id":"4","last_reported":1679083677,"current_range_meters":16800,"station_id":"ce4bhi12rcd13ifvqfp0","pricing_plan_id":"free"},{"bike_id":"9e08a389-75f3-4b7f-9b1c-ec02a7f18063","system_id":"levelo_inurba_marseille","lat":43.239619,"lon":5.366346,"is_reserved":false,"is_disabled":false,"rental_uris":{"android":"levelo://app?vid=9e08a389-75f3-4b7f-9b1c-ec02a7f18063","ios":"levelo://app?vid=9e08a389-75f3-4b7f-9b1c-ec02a7f18063"},"vehicle_type_id":"4","last_reported":1679083677,"current_range_meters":8000,"station_id":"ce4bhi12rcd13ifvqfp0","pricing_plan_id":"free"},{"bike_id":"cae187de-8eae-4824-bdbe-d94e74c0d6f0","system_id":"levelo_inurba_marseille","lat":43.239613,"lon":5.366253,"is_reserved":false,"is_disabled":false,"rental_uris":{"android":"levelo://app?vid=cae187de-8eae-4824-bdbe-d94e74c0d6f0","ios":"levelo://app?vid=cae187de-8eae-4824-bdbe-d94e74c0d6f0"},"vehicle_type_id":"4","last_reported":1679083677,"current_range_meters":16400,"station_id":"ce4bhi12rcd13ifvqfp0","pricing_plan_id":"free"},{"bike_id":"88bdd677-aafb-45e2-a27f-94de5917c5b3","system_id":"levelo_inurba_marseille","lat":43.24182,"lon":5.39725,"is_reserved":false,"is_disabled":false,"rental_uris":{"android":"levelo://app?vid=88bdd677-aafb-45e2-a27f-94de5917c5b3","ios":"levelo://app?vid=88bdd677-aafb-45e2-a27f-94de5917c5b3"},"vehicle_type_id":"4","last_reported":1679083677,"current_range_meters":0,"station_id":"ce4bhn12rcd13ifvqgpg","pricing_plan_id":"free"},{"bike_id":"3ac1471f-7271-47f6-82c6-fc260a1fb105","system_id":"levelo_inurba_marseille","lat":43.24181,"lon":5.39726,"is_reserved":false,"is_disabled":false,"rental_uris":{"android":"levelo://app?vid=3ac1471f-7271-47f6-82c6-fc260a1fb105","ios":"levelo://app?vid=3ac1471f-7271-47f6-82c6-fc260a1fb105"},"vehicle_type_id":"4","last_reported":1679083677,"current_range_meters":400,"station_id":"ce4bhn12rcd13ifvqgpg","pricing_plan_id":"free"},{"bike_id":"e90cc6a7-b071-4519-91af-c4a37f29e0ba","system_id":"levelo_inurba_marseille","lat":43.2418,"lon":5.39733,"is_reserved":false,"is_disabled":false,"rental_uris":{"android":"levelo://app?vid=e90cc6a7-b071-4519-91af-c4a37f29e0ba","ios":"levelo://app?vid=e90cc6a7-b071-4519-91af-c4a37f29e0ba"},"vehicle_type_id":"4","last_reported":1679083677,"current_range_meters":0,"station_id":"ce4bhn12rcd13ifvqgpg","pricing_plan_id":"free"},{"bike_id":"8050e31f-ec46-4b77-b5ff-dbda51a64f0e","system_id":"levelo_inurba_marseille","lat":43.24178,"lon":5.39737,"is_reserved":false,"is_disabled":false,"rental_uris":{"android":"levelo://app?vid=8050e31f-ec46-4b77-b5ff-dbda51a64f0e","ios":"levelo://app?vid=8050e31f-ec46-4b77-b5ff-dbda51a64f0e"},"vehicle_type_id":"4","last_reported":1679083677,"current_range_meters":6400,"station_id":"","pricing_plan_id":"free"},{"bike_id":"9396a642-8421-4ca9-b20d-a2492104caf9","system_id":"levelo_inurba_marseille","lat":43.231919,"lon":5.355532,"is_reserved":false,"is_disabled":false,"rental_uris":{"android":"levelo://app?vid=9396a642-8421-4ca9-b20d-a2492104caf9","ios":"levelo://app?vid=9396a642-8421-4ca9-b20d-a2492104caf9"},"vehicle_type_id":"4","last_reported":1679083677,"current_range_meters":29200,"station_id":"ce4bhu92rcd13ifvqi70","pricing_plan_id":"free"},{"bike_id":"88879922-dcd9-4b6f-9fe6-a6a039e9642d","system_id":"levelo_inurba_marseille","lat":43.231923,"lon":5.355545,"is_reserved":false,"is_disabled":false,"rental_uris":{"android":"levelo://app?vid=88879922-dcd9-4b6f-9fe6-a6a039e9642d","ios":"levelo://app?vid=88879922-dcd9-4b6f-9fe6-a6a039e9642d"},"vehicle_type_id":"4","last_reported":1679083677,"current_range_meters":18400,"station_id":"ce4bhu92rcd13ifvqi70","pricing_plan_id":"free"},{"bike_id":"956fe110-a343-4414-91a1-6e3d50bfa094","system_id":"levelo_inurba_marseille","lat":43.231923,"lon":5.355545,"is_reserved":false,"is_disabled":false,"rental_uris":{"android":"levelo://app?vid=956fe110-a343-4414-91a1-6e3d50bfa094","ios":"levelo://app?vid=956fe110-a343-4414-91a1-6e3d50bfa094"},"vehicle_type_id":"4","last_reported":1679083677,"current_range_meters":17600,"station_id":"ce4bhu92rcd13ifvqi70","pricing_plan_id":"free"},{"bike_id":"ff98316f-748f-4069-a942-b27635abd352","system_id":"levelo_inurba_marseille","lat":43.231923,"lon":5.355545,"is_reserved":false,"is_disabled":false,"rental_uris":{"android":"levelo://app?vid=ff98316f-748f-4069-a942-b27635abd352","ios":"levelo://app?vid=ff98316f-748f-4069-a942-b27635abd352"},"vehicle_type_id":"4","last_reported":1679083677,"current_range_meters":17600,"station_id":"ce4bhu92rcd13ifvqi70","pricing_plan_id":"free"},{"bike_id":"5c296cfe-bb42-4ddc-9604-9304ff266475","system_id":"levelo_inurba_marseille","lat":43.231919,"lon":5.355532,"is_reserved":false,"is_disabled":false,"rental_uris":{"android":"levelo://app?vid=5c296cfe-bb42-4ddc-9604-9304ff266475","ios":"levelo://app?vid=5c296cfe-bb42-4ddc-9604-9304ff266475"},"vehicle_type_id":"4","last_reported":1679083677,"current_range_meters":29200,"station_id":"ce4bhu92rcd13ifvqi70","pricing_plan_id":"free"}]}}