{"last_updated":1741187413,"ttl":60,"version":"2.2","data":{"bikes":[{"bike_id":"1683b253-09ea-4bb1-b7f3-17de32f293db","system_id":"levelo_inurba_marseille","lat":43.2827,"lon":5.35056,"is_reserved":false,"is_disabled":false,"rental_uris":{"android":"levelo://app?vid=1683b253-09ea-4bb1-b7f3-17de32f293db","ios":"levelo://app?vid=1683b253-09ea-4bb1-b7f3-17de32f293db"},"vehicle_type_id":"4","last_reported":1741187413,"current_range_meters":2800,"station_id":"ce4bhbp2rcd13ifvqerg","pricing_plan_id":"cebpf4jnsgd1na2vs0mg"},{"bike_id":"f721f885-ccff-4d83-a5e0-e18ca2b2a250","system_id":"levelo_inurba_marseille","lat":43.28428,"lon":5.34974,"is_reserved":false,"is_disabled":true,"rental_uris":{"android":"levelo://app?vid=f721f885-ccff-4d83-a5e0-e18ca2b2a250","ios":"levelo://app?vid=f721f885-ccff-4d83-a5e0-e18ca2b2a250"},"vehicle_type_id":"4","last_reported":1741187413,"current_range_meters":2800,"station_id":"ce4bhbh2rcd13ifvqepg","pricing_plan_id":"cebpf4jnsgd1na2vs0mg"},{"bike_id":"dddf2771-747b-41c8-8087-88468989b75e","system_id":"levelo_inurba_marseille","lat":43.28263,"lon":5.35063,"is_reserved":false,"is_disabled":false,"rental_uris":{"android":"levelo://app?vid=dddf2771-747b-41c8-8087-88468989b75e","ios":"levelo://app?vid=dddf2771-747b-41c8-8087-88468989b75e"},"vehicle_type_id":"4","last_reported":1741187413,"current_range_meters":2800,"station_id":"ce4bhbp2rcd13ifvqerg","pricing_plan_id":"cebpf4jnsgd1na2vs0mg"},{"bike_id":"aa626fce-4ff7-4f7b-a44b-5c3530a7283f","system_id":"levelo_inurba_marseille","lat":43.2315,"lon":5.4372,"is_reserved":false,"is_disabled":false,"rental_uris":{"android":"levelo://app?vid=aa626fce-4ff7-4f7b-a44b-5c3530a7283f","ios":"levelo://app?vid=aa626fce-4ff7-4f7b-a44b-5c3530a7283f"},"vehicle_type_id":"4","last_reported":1741187413,"current_range_meters":3200,"station_id":"ce4bhmp2rcd13ifvqgog","pricing_plan_id":"cebpf4jnsgd1na2vs0mg"},{"bike_id":"58e5910f-368c-400d-9eaa-da41b512eb6b","system_id":"levelo_inurba_marseille","lat":43.29,"lon":5.35612,"is_reserved":false,"is_disabled":true,"rental_uris":{"android":"levelo://app?vid=58e5910f-368c-400d-9eaa-da41b512eb6b","ios":"levelo://app?vid=58e5910f-368c-400d-9eaa-da41b512eb6b"},"vehicle_type_id":"4","last_reported":1741187413,"current_range_meters":3200,"station_id":"ce4bhb92rcd13ifvqen0","pricing_plan_id":"cebpf4jnsgd1na2vs0mg"},{"bike_id":"51aec33d-3e4c-400d-853b-29a36c1d0398","system_id":"levelo_inurba_marseille","lat":43.28156,"lon":5.42644,"is_reserved":false,"is_disabled":false,"rental_uris":{"android":"levelo://app?vid=51aec33d-3e4c-400d-853b-29a36c1d0398","ios":"levelo://app?vid=51aec33d-3e4c-400d-853b-29a36c1d0398"},"vehicle_type_id":"4","last_reported":1741187413,"current_range_meters":3200,"station_id":"ce4bhnh2rcd13ifvqgug","pricing_plan_id":"cebpf4jnsgd1na2vs0mg"},{"bike_id":"07db6d90-7cfa-4d95-8e14-1bf695540458","system_id":"levelo_inurba_marseille","lat":43.28695,"lon":5.38677,"is_reserved":false,"is_disabled":false,"rental_uris":{"android":"levelo://app?vid=07db6d90-7cfa-4d95-8e14-1bf695540458","ios":"levelo://app?vid=07db6d90-7cfa-4d95-8e14-1bf695540458"},"vehicle_type_id":"4","last_reported":1741187413,"current_range_meters":3200,"station_id":"ce4bh492rcd13ifvqdug","pricing_plan_id":"cebpf4jnsgd1na2vs0mg"},{"bike_id":"d109470e-5c1e-48c9-9726-bacaa587da37","system_id":"levelo_inurba_marseille","lat":43.280345,"lon":5.369525,"is_reserved":false,"is_disabled":false,"rental_uris":{"android":"levelo://app?vid=d109470e-5c1e-48c9-9726-bacaa587da37","ios":"levelo://app?vid=d109470e-5c1e-48c9-9726-bacaa587da37"},"vehicle_type_id":"4","last_reported":1741187413,"current_range_meters":3600,"station_id":"ce4bha12rcd13ifvqef0","pricing_plan_id":"cebpf4jnsgd1na2vs0mg"},{"bike_id":"d2e8c80e-78fa-42e5-8446-906d8becc9c6","system_id":"levelo_inurba_marseille","lat":43.28935,"lon":5.36647,"is_reserved":false,"is_disabled":false,"rental_uris":{"android":"levelo://app?vid=d2e8c80e-78fa-42e5-8446-906d8becc9c6","ios":"levelo://app?vid=d2e8c80e-78fa-42e5-8446-906d8becc9c6"},"vehicle_type_id":"4","last_reported":1741187413,"current_range_meters":3200,"station_id":"ce4bhap2rcd13ifvqek0","pricing_plan_id":"cebpf4jnsgd1na2vs0mg"},{"bike_id":"c2bceb53-726d-4e23-ba49-af56f1ebcf67","system_id":"levelo_inurba_marseille","lat":43.28265,"lon":5.35066,"is_reserved":false,"is_disabled":false,"rental_uris":{"android":"levelo://app?vid=c2bceb53-726d-4e23-ba49-af56f1ebcf67","ios":"levelo://app?vid=c2bceb53-726d-4e23-ba49-af56f1ebcf67"},"vehicle_type_id":"4","last_reported":1741187413,"current_range_meters":3600,"station_id":"ce4bhbp2rcd13ifvqerg","pricing_plan_id":"cebpf4jnsgd1na2vs0mg"},{"bike_id":"795cc555-c91c-4e5a-816e-9f4ea727f564","system_id":"levelo_inurba_marseille","lat":43.26806,"lon":5.40269,"is_reserved":false,"is_disabled":false,"rental_uris":{"android":"levelo://app?vid=795cc555-c91c-4e5a-816e-9f4ea727f564","ios":"levelo://app?vid=795cc555-c91c-4e5a-816e-9f4ea727f564"},"vehicle_type_id":"4","last_reported":1741187413,"current_range_meters":3600,"station_id":"ce501612rcd8frsf0b60","pricing_plan_id":"cebpf4jnsgd1na2vs0mg"},{"bike_id":"028e6bdc-6d35-4966-9c84-843a06702f93","system_id":"levelo_inurba_marseille","lat":43.3042,"lon":5.39749,"is_reserved":false,"is_disabled":false,"rental_uris":{"android":"levelo://app?vid=028e6bdc-6d35-4966-9c84-843a06702f93","ios":"levelo://app?vid=028e6bdc-6d35-4966-9c84-843a06702f93"},"vehicle_type_id":"4","last_reported":1741187413,"current_range_meters":3600,"station_id":"ce4bh092rcd13ifvqd20","pricing_plan_id":"cebpf4jnsgd1na2vs0mg"},{"bike_id":"cd037331-8da8-4c31-80bf-ca2ffa2839a4","system_id":"levelo_inurba_marseille","lat":43.30976,"lon":5.39067,"is_reserved":false,"is_disabled":true,"rental_uris":{"android":"levelo://app?vid=cd037331-8da8-4c31-80bf-ca2ffa2839a4","ios":"levelo://app?vid=cd037331-8da8-4c31-80bf-ca2ffa2839a4"},"vehicle_type_id":"4","last_reported":1741187413,"current_range_meters":3600,"station_id":"ce4bgup2rcd13ifvqco0","pricing_plan_id":"cebpf4jnsgd1na2vs0mg"},{"bike_id":"d3cbdd86-aa6d-491f-9e31-42bb3d27f281","system_id":"levelo_inurba_marseille","lat":43.26208,"lon":5.37443,"is_reserved":false,"is_disabled":false,"rental_uris":{"android":"levelo://app?vid=d3cbdd86-aa6d-491f-9e31-42bb3d27f281","ios":"levelo://app?vid=d3cbdd86-aa6d-491f-9e31-42bb3d27f281"},"vehicle_type_id":"4","last_reported":1741187413,"current_range_meters":3600,"station_id":"ce4bhgp2rcd13ifvqfc0","pricing_plan_id":"cebpf4jnsgd1na2vs0mg"},{"bike_id":"91e4e33f-dfba-480d-82e2-096419454712","system_id":"levelo_inurba_marseille","lat":43.28153,"lon":5.42656,"is_reserved":false,"is_disabled":false,"rental_uris":{"android":"levelo://app?vid=91e4e33f-dfba-480d-82e2-096419454712","ios":"levelo://app?vid=91e4e33f-dfba-480d-82e2-096419454712"},"vehicle_type_id":"4","last_reported":1741187413,"current_range_meters":4400,"station_id":"ce4bhnh2rcd13ifvqgug","pricing_plan_id":"cebpf4jnsgd1na2vs0mg"},{"bike_id":"9353d517-6a96-45d1-b54c-9522bacaeca4","system_id":"levelo_inurba_marseille","lat":43.27364,"lon":5.36255,"is_reserved":false,"is_disabled":false,"rental_uris":{"android":"levelo://app?vid=9353d517-6a96-45d1-b54c-9522bacaeca4","ios":"levelo://app?vid=9353d517-6a96-45d1-b54c-9522bacaeca4"},"vehicle_type_id":"4","last_reported":1741187413,"current_range_meters":4000,"station_id":"ce4bhbh2rcd13ifvqeo0","pricing_plan_id":"cebpf4jnsgd1na2vs0mg"},{"bike_id":"bd93ef34-9269-4e46-b803-d2f2f4f9fdf0","system_id":"levelo_inurba_marseille","lat":43.27373,"lon":5.36269,"is_reserved":false,"is_disabled":false,"rental_uris":{"android":"levelo://app?vid=bd93ef34-9269-4e46-b803-d2f2f4f9fdf0","ios":"levelo://app?vid=bd93ef34-9269-4e46-b803-d2f2f4f9fdf0"},"vehicle_type_id":"4","last_reported":1741187413,"current_range_meters":4000,"station_id":"ce4bhbh2rcd13ifvqeo0","pricing_plan_id":"cebpf4jnsgd1na2vs0mg"},{"bike_id":"2f932698-cf21-4455-8444-5743cdb76ab1","system_id":"levelo_inurba_marseille","lat":43.33737,"lon":5.39181,"is_reserved":false,"is_disabled":false,"rental_uris":{"android":"levelo://app?vid=2f932698-cf21-4455-8444-5743cdb76ab1","ios":"levelo://app?vid=2f932698-cf21-4455-8444-5743cdb76ab1"},"vehicle_type_id":"4","last_reported":1741187413,"current_range_meters":4400,"station_id":"ce4bhr92rcd13ifvqhsg","pricing_plan_id":"cebpf4jnsgd1na2vs0mg"},{"bike_id":"3f9fae04-f1f3-4869-8154-8b5321664179","system_id":"levelo_inurba_marseille","lat":43.23062,"lon":5.35503,"is_reserved":false,"is_disabled":false,"rental_uris":{"android":"levelo://app?vid=3f9fae04-f1f3-4869-8154-8b5321664179","ios":"levelo://app?vid=3f9fae04-f1f3-4869-8154-8b5321664179"},"vehicle_type_id":"4","last_reported":1741187413,"current_range_meters":4400,"station_id":"cpo3342slgdg3j2ifvpg","pricing_plan_id":"cebpf4jnsgd1na2vs0mg"},{"bike_id":"75fcfd4e-bad5-410f-b59d-995e2fc25781","system_id":"levelo_inurba_marseille","lat":43.26935,"lon":5.38694,"is_reserved":false,"is_disabled":false,"rental_uris":{"android":"levelo://app?vid=75fcfd4e-bad5-410f-b59d-995e2fc25781","ios":"levelo://app?vid=75fcfd4e-bad5-410f-b59d-995e2fc25781"},"vehicle_type_id":"4","last_reported":1741187413,"current_range_meters":4400,"station_id":"ce4bhh92rcd13ifvqfh0","pricing_plan_id":"cebpf4jnsgd1na2vs0mg"},{"bike_id":"0b5d7ac2-1703-4481-b798-8dfc2c0257b0","system_id":"levelo_inurba_marseille","lat":43.286865,"lon":5.351729,"is_reserved":false,"is_disabled":false,"rental_uris":{"android":"levelo://app?vid=0b5d7ac2-1703-4481-b798-8dfc2c0257b0","ios":"levelo://app?vid=0b5d7ac2-1703-4481-b798-8dfc2c0257b0"},"vehicle_type_id":"4","last_reported":1741187413,"current_range_meters":4800,"station_id":"ce4bgnh2rcd13ifvqc0g","pricing_plan_id":"cebpf4jnsgd1na2vs0mg"},{"bike_id":"529fe18c-f843-47e8-8284-9e721e2c64e4","system_id":"levelo_inurba_marseille","lat":43.29881,"lon":5.38921,"is_reserved":false,"is_disabled":false,"rental_uris":{"android":"levelo://app?vid=529fe18c-f843-47e8-8284-9e721e2c64e4","ios":"levelo://app?vid=529fe18c-f843-47e8-8284-9e721e2c64e4"},"vehicle_type_id":"4","last_reported":1741187413,"current_range_meters":4800,"station_id":"ce4bh392rcd13ifvqdl0","pricing_plan_id":"cebpf4jnsgd1na2vs0mg"},{"bike_id":"caaad431-9099-4993-8d75-d7d342d99e7e","system_id":"levelo_inurba_marseille","lat":43.2964,"lon":5.40592,"is_reserved":false,"is_disabled":false,"rental_uris":{"android":"levelo://app?vid=caaad431-9099-4993-8d75-d7d342d99e7e","ios":"levelo://app?vid=caaad431-9099-4993-8d75-d7d342d99e7e"},"vehicle_type_id":"4","last_reported":1741187413,"current_range_meters":2000,"station_id":"ce4bh0h2rcd13ifvqd60","pricing_plan_id":"cebpf4jnsgd1na2vs0mg"},{"bike_id":"68588078-953f-481a-b08f-9fcd9e609fab","system_id":"levelo_inurba_marseille","lat":43.25583,"lon":5.38233,"is_reserved":false,"is_disabled":false,"rental_uris":{"android":"levelo://app?vid=68588078-953f-481a-b08f-9fcd9e609fab","ios":"levelo://app?vid=68588078-953f-481a-b08f-9fcd9e609fab"},"vehicle_type_id":"4","last_reported":1741187413,"current_range_meters":2000,"station_id":"ce4bhih2rcd13ifvqfs0","pricing_plan_id":"cebpf4jnsgd1na2vs0mg"},{"bike_id":"4ae5aca6-5755-4efa-93d6-ea9d96dde650","system_id":"levelo_inurba_marseille","lat":43.29313,"lon":5.37168,"is_reserved":false,"is_disabled":false,"rental_uris":{"android":"levelo://app?vid=4ae5aca6-5755-4efa-93d6-ea9d96dde650","ios":"levelo://app?vid=4ae5aca6-5755-4efa-93d6-ea9d96dde650"},"vehicle_type_id":"4","last_reported":1741187413,"current_range_meters":3200,"station_id":"ce4bgh92rcd13ifvqb40","pricing_plan_id":"cebpf4jnsgd1na2vs0mg"},{"bike_id":"1bee058a-ac79-4bbf-b682-ceeca711b39d","system_id":"levelo_inurba_marseille","lat":43.28616,"lon":5.35103,"is_reserved":false,"is_disabled":false,"rental_uris":{"android":"levelo://app?vid=1bee058a-ac79-4bbf-b682-ceeca711b39d","ios":"levelo://app?vid=1bee058a-ac79-4bbf-b682-ceeca711b39d"},"vehicle_type_id":"4","last_reported":1741187413,"current_range_meters":4800,"station_id":"ce4bhch2rcd13ifvqeug","pricing_plan_id":"cebpf4jnsgd1na2vs0mg"},{"bike_id":"8e97f93f-54b6-4897-b0cd-3282dd58a836","system_id":"levelo_inurba_marseille","lat":43.2813,"lon":5.401815,"is_reserved":false,"is_disabled":false,"rental_uris":{"android":"levelo://app?vid=8e97f93f-54b6-4897-b0cd-3282dd58a836","ios":"levelo://app?vid=8e97f93f-54b6-4897-b0cd-3282dd58a836"},"vehicle_type_id":"4","last_reported":1741187413,"current_range_meters":6000,"station_id":"","pricing_plan_id":"cebpf4jnsgd1na2vs0mg"},{"bike_id":"c983cfb3-44da-4db3-bf67-aeba95a40e54","system_id":"levelo_inurba_marseille","lat":43.23184,"lon":5.3999,"is_reserved":false,"is_disabled":false,"rental_uris":{"android":"levelo://app?vid=c983cfb3-44da-4db3-bf67-aeba95a40e54","ios":"levelo://app?vid=c983cfb3-44da-4db3-bf67-aeba95a40e54"},"vehicle_type_id":"4","last_reported":1741187413,"current_range_meters":5600,"station_id":"ce4bhn12rcd13ifvqgqg","pricing_plan_id":"cebpf4jnsgd1na2vs0mg"},{"bike_id":"f7a903af-5c3d-44f7-85e9-7af11fda0198","system_id":"levelo_inurba_marseille","lat":43.29222,"lon":5.36912,"is_reserved":false,"is_disabled":false,"rental_uris":{"android":"levelo://app?vid=f7a903af-5c3d-44f7-85e9-7af11fda0198","ios":"levelo://app?vid=f7a903af-5c3d-44f7-85e9-7af11fda0198"},"vehicle_type_id":"4","last_reported":1741187413,"current_range_meters":5600,"station_id":"","pricing_plan_id":"cebpf4jnsgd1na2vs0mg"},{"bike_id":"a3a09a6d-5da4-442d-8bc5-4379edc288b7","system_id":"levelo_inurba_marseille","lat":43.26786,"lon":5.39421,"is_reserved":false,"is_disabled":false,"rental_uris":{"android":"levelo://app?vid=a3a09a6d-5da4-442d-8bc5-4379edc288b7","ios":"levelo://app?vid=a3a09a6d-5da4-442d-8bc5-4379edc288b7"},"vehicle_type_id":"4","last_reported":1741187413,"current_range_meters":6000,"station_id":"ce4bhh12rcd13ifvqfg0","pricing_plan_id":"cebpf4jnsgd1na2vs0mg"},{"bike_id":"3e076aff-5996-4211-ab1a-5d3bd2b66668","system_id":"levelo_inurba_marseille","lat":43.28439,"lon":5.39196,"is_reserved":false,"is_disabled":false,"rental_uris":{"android":"levelo://app?vid=3e076aff-5996-4211-ab1a-5d3bd2b66668","ios":"levelo://app?vid=3e076aff-5996-4211-ab1a-5d3bd2b66668"},"vehicle_type_id":"4","last_reported":1741187413,"current_range_meters":6000,"station_id":"ce4bhoh2rcd13ifvqh5g","pricing_plan_id":"cebpf4jnsgd1na2vs0mg"},{"bike_id":"bc0361c7-d588-46bf-a127-f09755f4333a","system_id":"levelo_inurba_marseille","lat":43.27368,"lon":5.3626,"is_reserved":false,"is_disabled":false,"rental_uris":{"android":"levelo://app?vid=bc0361c7-d588-46bf-a127-f09755f4333a","ios":"levelo://app?vid=bc0361c7-d588-46bf-a127-f09755f4333a"},"vehicle_type_id":"4","last_reported":1741187413,"current_range_meters":6000,"station_id":"ce4bhbh2rcd13ifvqeo0","pricing_plan_id":"cebpf4jnsgd1na2vs0mg"},{"bike_id":"a07de0b7-0b8d-4f94-a90a-8317efe443f7","system_id":"levelo_inurba_marseille","lat":43.28269,"lon":5.3506,"is_reserved":false,"is_disabled":false,"rental_uris":{"android":"levelo://app?vid=a07de0b7-0b8d-4f94-a90a-8317efe443f7","ios":"levelo://app?vid=a07de0b7-0b8d-4f94-a90a-8317efe443f7"},"vehicle_type_id":"4","last_reported":1741187413,"current_range_meters":6000,"station_id":"ce4bhbp2rcd13ifvqerg","pricing_plan_id":"cebpf4jnsgd1na2vs0mg"},{"bike_id":"6da767bf-b23d-4782-af2a-929f3092116f","system_id":"levelo_inurba_marseille","lat":43.296179,"lon":5.376951,"is_reserved":false,"is_disabled":false,"rental_uris":{"android":"levelo://app?vid=6da767bf-b23d-4782-af2a-929f3092116f","ios":"levelo://app?vid=6da767bf-b23d-4782-af2a-929f3092116f"},"vehicle_type_id":"4","last_reported":1741187413,"current_range_meters":6000,"station_id":"ce4bhf92rcd13ifvqf50","pricing_plan_id":"cebpf4jnsgd1na2vs0mg"},{"bike_id":"07037447-ae6c-4225-8600-52e635f50002","system_id":"levelo_inurba_marseille","lat":43.28443,"lon":5.39216,"is_reserved":false,"is_disabled":false,"rental_uris":{"android":"levelo://app?vid=07037447-ae6c-4225-8600-52e635f50002","ios":"levelo://app?vid=07037447-ae6c-4225-8600-52e635f50002"},"vehicle_type_id":"4","last_reported":1741187413,"current_range_meters":6400,"station_id":"ce4bhoh2rcd13ifvqh5g","pricing_plan_id":"cebpf4jnsgd1na2vs0mg"},{"bike_id":"eaf16725-d0d1-403e-b3bf-8ee996e1da2e","system_id":"levelo_inurba_marseille","lat":43.31492,"lon":5.37299,"is_reserved":false,"is_disabled":false,"rental_uris":{"android":"levelo://app?vid=eaf16725-d0d1-403e-b3bf-8ee996e1da2e","ios":"levelo://app?vid=eaf16725-d0d1-403e-b3bf-8ee996e1da2e"},"vehicle_type_id":"4","last_reported":1741187413,"current_range_meters":6400,"station_id":"ce4bgt12rcd13ifvqcd0","pricing_plan_id":"cebpf4jnsgd1na2vs0mg"},{"bike_id":"a88c142e-d928-4561-88fe-ca6968b4c6c1","system_id":"levelo_inurba_marseille","lat":43.26227,"lon":5.40466,"is_reserved":false,"is_disabled":false,"rental_uris":{"android":"levelo://app?vid=a88c142e-d928-4561-88fe-ca6968b4c6c1","ios":"levelo://app?vid=a88c142e-d928-4561-88fe-ca6968b4c6c1"},"vehicle_type_id":"4","last_reported":1741187413,"current_range_meters":6400,"station_id":"ce4bhmh2rcd13ifvqgmg","pricing_plan_id":"cebpf4jnsgd1na2vs0mg"},{"bike_id":"997217d4-9110-4f1d-bb92-525e0e2d4061","system_id":"levelo_inurba_marseille","lat":43.23152,"lon":5.43708,"is_reserved":false,"is_disabled":false,"rental_uris":{"android":"levelo://app?vid=997217d4-9110-4f1d-bb92-525e0e2d4061","ios":"levelo://app?vid=997217d4-9110-4f1d-bb92-525e0e2d4061"},"vehicle_type_id":"4","last_reported":1741187413,"current_range_meters":6400,"station_id":"ce4bhmp2rcd13ifvqgog","pricing_plan_id":"cebpf4jnsgd1na2vs0mg"},{"bike_id":"d3ada97d-b519-442c-985f-3b5ff1cad64e","system_id":"levelo_inurba_marseille","lat":43.27965,"lon":5.38739,"is_reserved":false,"is_disabled":false,"rental_uris":{"android":"levelo://app?vid=d3ada97d-b519-442c-985f-3b5ff1cad64e","ios":"levelo://app?vid=d3ada97d-b519-442c-985f-3b5ff1cad64e"},"vehicle_type_id":"4","last_reported":1741187413,"current_range_meters":6400,"station_id":"ce4bhg12rcd13ifvqf80","pricing_plan_id":"cebpf4jnsgd1na2vs0mg"},{"bike_id":"4d96a45d-8e1d-4f5c-846e-3a9ab83111fb","system_id":"levelo_inurba_marseille","lat":43.32366,"lon":5.3678,"is_reserved":false,"is_disabled":false,"rental_uris":{"android":"levelo://app?vid=4d96a45d-8e1d-4f5c-846e-3a9ab83111fb","ios":"levelo://app?vid=4d96a45d-8e1d-4f5c-846e-3a9ab83111fb"},"vehicle_type_id":"4","last_reported":1741187413,"current_range_meters":6400,"station_id":"ce4bhsh2rcd13ifvqi2g","pricing_plan_id":"cebpf4jnsgd1na2vs0mg"},{"bike_id":"21b19842-9ad9-4db0-bc46-3d2827c0069e","system_id":"levelo_inurba_marseille","lat":43.23195,"lon":5.35566,"is_reserved":false,"is_disabled":false,"rental_uris":{"android":"levelo://app?vid=21b19842-9ad9-4db0-bc46-3d2827c0069e","ios":"levelo://app?vid=21b19842-9ad9-4db0-bc46-3d2827c0069e"},"vehicle_type_id":"4","last_reported":1741187413,"current_range_meters":6400,"station_id":"ce4bhu92rcd13ifvqi70","pricing_plan_id":"cebpf4jnsgd1na2vs0mg"},{"bike_id":"91c67bdb-7ccb-4a35-957b-6f10bdb3e409","system_id":"levelo_inurba_marseille","lat":43.27911,"lon":5.39576,"is_reserved":false,"is_disabled":false,"rental_uris":{"android":"levelo://app?vid=91c67bdb-7ccb-4a35-957b-6f10bdb3e409","ios":"levelo://app?vid=91c67bdb-7ccb-4a35-957b-6f10bdb3e409"},"vehicle_type_id":"4","last_reported":1741187413,"current_range_meters":6800,"station_id":"ce4bhf92rcd13ifvqf40","pricing_plan_id":"cebpf4jnsgd1na2vs0mg"},{"bike_id":"ee1d2ad1-36ca-49dd-a328-f2a9a9994ecb","system_id":"levelo_inurba_marseille","lat":43.31064,"lon":5.38173,"is_reserved":false,"is_disabled":false,"rental_uris":{"android":"levelo://app?vid=ee1d2ad1-36ca-49dd-a328-f2a9a9994ecb","ios":"levelo://app?vid=ee1d2ad1-36ca-49dd-a328-f2a9a9994ecb"},"vehicle_type_id":"4","last_reported":1741187413,"current_range_meters":6800,"station_id":"","pricing_plan_id":"cebpf4jnsgd1na2vs0mg"},{"bike_id":"43470340-82b4-401c-a3e9-1f7e2c51a578","system_id":"levelo_inurba_marseille","lat":43.2987,"lon":5.38909,"is_reserved":false,"is_disabled":false,"rental_uris":{"android":"levelo://app?vid=43470340-82b4-401c-a3e9-1f7e2c51a578","ios":"levelo://app?vid=43470340-82b4-401c-a3e9-1f7e2c51a578"},"vehicle_type_id":"4","last_reported":1741187413,"current_range_meters":6800,"station_id":"","pricing_plan_id":"cebpf4jnsgd1na2vs0mg"},{"bike_id":"9cfd3bd2-32c9-4816-a6e8-0b5ec900b3ae","system_id":"levelo_inurba_marseille","lat":43.28268,"lon":5.35067,"is_reserved":false,"is_disabled":false,"rental_uris":{"android":"levelo://app?vid=9cfd3bd2-32c9-4816-a6e8-0b5ec900b3ae","ios":"levelo://app?vid=9cfd3bd2-32c9-4816-a6e8-0b5ec900b3ae"},"vehicle_type_id":"4","last_reported":1741187413,"current_range_meters":6400,"station_id":"ce4bhbp2rcd13ifvqerg","pricing_plan_id":"cebpf4jnsgd1na2vs0mg"},{"bike_id":"e47d2240-ac88-4720-80ad-43d0847272f9","system_id":"levelo_inurba_marseille","lat":43.30429,"lon":5.38898,"is_reserved":false,"is_disabled":false,"rental_uris":{"android":"levelo://app?vid=e47d2240-ac88-4720-80ad-43d0847272f9","ios":"levelo://app?vid=e47d2240-ac88-4720-80ad-43d0847272f9"},"vehicle_type_id":"4","last_reported":1741187413,"current_range_meters":6800,"station_id":"ce4bgk12rcd13ifvqbi0","pricing_plan_id":"cebpf4jnsgd1na2vs0mg"},{"bike_id":"92058459-b814-4229-b2cd-a5c41785cdd0","system_id":"levelo_inurba_marseille","lat":43.28367,"lon":5.38649,"is_reserved":false,"is_disabled":false,"rental_uris":{"android":"levelo://app?vid=92058459-b814-4229-b2cd-a5c41785cdd0","ios":"levelo://app?vid=92058459-b814-4229-b2cd-a5c41785cdd0"},"vehicle_type_id":"4","last_reported":1741187413,"current_range_meters":6800,"station_id":"ce4bh492rcd13ifvqdvg","pricing_plan_id":"cebpf4jnsgd1na2vs0mg"},{"bike_id":"5a6f6465-c6c2-41f4-954c-6c9f3e199226","system_id":"levelo_inurba_marseille","lat":43.26551,"lon":5.37284,"is_reserved":false,"is_disabled":false,"rental_uris":{"android":"levelo://app?vid=5a6f6465-c6c2-41f4-954c-6c9f3e199226","ios":"levelo://app?vid=5a6f6465-c6c2-41f4-954c-6c9f3e199226"},"vehicle_type_id":"4","last_reported":1741187413,"current_range_meters":6800,"station_id":"ce4bhg12rcd13ifvqf70","pricing_plan_id":"cebpf4jnsgd1na2vs0mg"},{"bike_id":"1792509b-6a57-49cf-897c-c9ecf58ce674","system_id":"levelo_inurba_marseille","lat":43.28276,"lon":5.35056,"is_reserved":false,"is_disabled":false,"rental_uris":{"android":"levelo://app?vid=1792509b-6a57-49cf-897c-c9ecf58ce674","ios":"levelo://app?vid=1792509b-6a57-49cf-897c-c9ecf58ce674"},"vehicle_type_id":"4","last_reported":1741187413,"current_range_meters":6800,"station_id":"ce4bhbp2rcd13ifvqerg","pricing_plan_id":"cebpf4jnsgd1na2vs0mg"},{"bike_id":"acc909e7-3836-42b3-b51d-082940d4d9ec","system_id":"levelo_inurba_marseille","lat":43.26229,"lon":5.40467,"is_reserved":false,"is_disabled":false,"rental_uris":{"android":"levelo://app?vid=acc909e7-3836-42b3-b51d-082940d4d9ec","ios":"levelo://app?vid=acc909e7-3836-42b3-b51d-082940d4d9ec"},"vehicle_type_id":"4","last_reported":1741187413,"current_range_meters":6800,"station_id":"ce4bhmh2rcd13ifvqgmg","pricing_plan_id":"cebpf4jnsgd1na2vs0mg"},{"bike_id":"f6662bde-1632-4b0f-a966-f86b33b7c3b9","system_id":"levelo_inurba_marseille","lat":43.33757,"lon":5.37442,"is_reserved":false,"is_disabled":false,"rental_uris":{"android":"levelo://app?vid=f6662bde-1632-4b0f-a966-f86b33b7c3b9","ios":"levelo://app?vid=f6662bde-1632-4b0f-a966-f86b33b7c3b9"},"vehicle_type_id":"4","last_reported":1741187413,"current_range_meters":7200,"station_id":"","pricing_plan_id":"cebpf4jnsgd1na2vs0mg"},{"bike_id":"5259c561-fdff-45e4-b300-9239edc9950c","system_id":"levelo_inurba_marseille","lat":43.26213,"lon":5.4044,"is_reserved":false,"is_disabled":false,"rental_uris":{"android":"levelo://app?vid=5259c561-fdff-45e4-b300-9239edc9950c","ios":"levelo://app?vid=5259c561-fdff-45e4-b300-9239edc9950c"},"vehicle_type_id":"4","last_reported":1741187413,"current_range_meters":7200,"station_id":"ce4bhmh2rcd13ifvqgmg","pricing_plan_id":"cebpf4jnsgd1na2vs0mg"},{"bike_id":"e6a4f953-5895-4fa8-ac31-a0a59838afae","system_id":"levelo_inurba_marseille","lat":43.25941,"lon":5.40903,"is_reserved":false,"is_disabled":false,"rental_uris":{"android":"levelo://app?vid=e6a4f953-5895-4fa8-ac31-a0a59838afae","ios":"levelo://app?vid=e6a4f953-5895-4fa8-ac31-a0a59838afae"},"vehicle_type_id":"4","last_reported":1741187413,"current_range_meters":7200,"station_id":"ce4bhm92rcd13ifvqglg","pricing_plan_id":"cebpf4jnsgd1na2vs0mg"},{"bike_id":"cacbc7cf-929a-49e3-a56e-85fc11219ab9","system_id":"levelo_inurba_marseille","lat":43.25354,"lon":5.375843,"is_reserved":false,"is_disabled":false,"rental_uris":{"android":"levelo://app?vid=cacbc7cf-929a-49e3-a56e-85fc11219ab9","ios":"levelo://app?vid=cacbc7cf-929a-49e3-a56e-85fc11219ab9"},"vehicle_type_id":"4","last_reported":1741187413,"current_range_meters":8000,"station_id":"ce4bhh12rcd13ifvqff0","pricing_plan_id":"cebpf4jnsgd1na2vs0mg"},{"bike_id":"6b4ccd0a-d8d4-47e8-a23e-db23c42b230c","system_id":"levelo_inurba_marseille","lat":43.24998,"lon":5.38937,"is_reserved":false,"is_disabled":false,"rental_uris":{"android":"levelo://app?vid=6b4ccd0a-d8d4-47e8-a23e-db23c42b230c","ios":"levelo://app?vid=6b4ccd0a-d8d4-47e8-a23e-db23c42b230c"},"vehicle_type_id":"4","last_reported":1741187413,"current_range_meters":7200,"station_id":"ce4bhgp2rcd13ifvqfd0","pricing_plan_id":"cebpf4jnsgd1na2vs0mg"},{"bike_id":"dae721b9-3d6d-4db6-9eec-1cb4081dbd74","system_id":"levelo_inurba_marseille","lat":43.26213,"lon":5.37448,"is_reserved":false,"is_disabled":false,"rental_uris":{"android":"levelo://app?vid=dae721b9-3d6d-4db6-9eec-1cb4081dbd74","ios":"levelo://app?vid=dae721b9-3d6d-4db6-9eec-1cb4081dbd74"},"vehicle_type_id":"4","last_reported":1741187413,"current_range_meters":7200,"station_id":"ce4bhgp2rcd13ifvqfc0","pricing_plan_id":"cebpf4jnsgd1na2vs0mg"},{"bike_id":"aefd78d5-1f92-4b39-9874-c0cf48611365","system_id":"levelo_inurba_marseille","lat":43.28413,"lon":5.34976,"is_reserved":false,"is_disabled":false,"rental_uris":{"android":"levelo://app?vid=aefd78d5-1f92-4b39-9874-c0cf48611365","ios":"levelo://app?vid=aefd78d5-1f92-4b39-9874-c0cf48611365"},"vehicle_type_id":"4","last_reported":1741187413,"current_range_meters":8000,"station_id":"ce4bhbh2rcd13ifvqepg","pricing_plan_id":"cebpf4jnsgd1na2vs0mg"},{"bike_id":"377b214a-67a5-49ea-b3eb-10bb989a6943","system_id":"levelo_inurba_marseille","lat":43.31074,"lon":5.38354,"is_reserved":false,"is_disabled":false,"rental_uris":{"android":"levelo://app?vid=377b214a-67a5-49ea-b3eb-10bb989a6943","ios":"levelo://app?vid=377b214a-67a5-49ea-b3eb-10bb989a6943"},"vehicle_type_id":"4","last_reported":1741187413,"current_range_meters":8000,"station_id":"ce4bgv92rcd13ifvqcr0","pricing_plan_id":"cebpf4jnsgd1na2vs0mg"},{"bike_id":"09d3cdde-305c-4d79-b8d4-59d68a850c2b","system_id":"levelo_inurba_marseille","lat":43.29279,"lon":5.3684,"is_reserved":false,"is_disabled":false,"rental_uris":{"android":"levelo://app?vid=09d3cdde-305c-4d79-b8d4-59d68a850c2b","ios":"levelo://app?vid=09d3cdde-305c-4d79-b8d4-59d68a850c2b"},"vehicle_type_id":"4","last_reported":1741187413,"current_range_meters":8000,"station_id":"ce4bhbp2rcd13ifvqesg","pricing_plan_id":"cebpf4jnsgd1na2vs0mg"},{"bike_id":"2a506dc3-b25f-4d1d-8254-8307b3a83b36","system_id":"levelo_inurba_marseille","lat":43.28263,"lon":5.35064,"is_reserved":false,"is_disabled":false,"rental_uris":{"android":"levelo://app?vid=2a506dc3-b25f-4d1d-8254-8307b3a83b36","ios":"levelo://app?vid=2a506dc3-b25f-4d1d-8254-8307b3a83b36"},"vehicle_type_id":"4","last_reported":1741187413,"current_range_meters":8000,"station_id":"ce4bhbp2rcd13ifvqerg","pricing_plan_id":"cebpf4jnsgd1na2vs0mg"},{"bike_id":"327a5fbf-fde0-4755-9627-a6269b9bb544","system_id":"levelo_inurba_marseille","lat":43.26941,"lon":5.40253,"is_reserved":false,"is_disabled":false,"rental_uris":{"android":"levelo://app?vid=327a5fbf-fde0-4755-9627-a6269b9bb544","ios":"levelo://app?vid=327a5fbf-fde0-4755-9627-a6269b9bb544"},"vehicle_type_id":"4","last_reported":1741187413,"current_range_meters":8000,"station_id":"cjm6bp8fraef2m0cb0m0","pricing_plan_id":"cebpf4jnsgd1na2vs0mg"},{"bike_id":"a1c11417-7b7e-47fe-a879-3cb2658f1b87","system_id":"levelo_inurba_marseille","lat":43.24183,"lon":5.39731,"is_reserved":false,"is_disabled":false,"rental_uris":{"android":"levelo://app?vid=a1c11417-7b7e-47fe-a879-3cb2658f1b87","ios":"levelo://app?vid=a1c11417-7b7e-47fe-a879-3cb2658f1b87"},"vehicle_type_id":"4","last_reported":1741187413,"current_range_meters":8000,"station_id":"ce4bhn12rcd13ifvqgpg","pricing_plan_id":"cebpf4jnsgd1na2vs0mg"},{"bike_id":"c7ff6489-44d4-4b0c-bd14-7a3a429e1447","system_id":"levelo_inurba_marseille","lat":43.29379,"lon":5.37841,"is_reserved":false,"is_disabled":false,"rental_uris":{"android":"levelo://app?vid=c7ff6489-44d4-4b0c-bd14-7a3a429e1447","ios":"levelo://app?vid=c7ff6489-44d4-4b0c-bd14-7a3a429e1447"},"vehicle_type_id":"4","last_reported":1741187413,"current_range_meters":8000,"station_id":"ce4bgjh2rcd13ifvqbf0","pricing_plan_id":"cebpf4jnsgd1na2vs0mg"},{"bike_id":"ed663efe-074b-4aba-b0e9-f846e4bd3747","system_id":"levelo_inurba_marseille","lat":43.29281,"lon":5.40944,"is_reserved":false,"is_disabled":false,"rental_uris":{"android":"levelo://app?vid=ed663efe-074b-4aba-b0e9-f846e4bd3747","ios":"levelo://app?vid=ed663efe-074b-4aba-b0e9-f846e4bd3747"},"vehicle_type_id":"4","last_reported":1741187413,"current_range_meters":8000,"station_id":"ce4bh192rcd13ifvqdc0","pricing_plan_id":"cebpf4jnsgd1na2vs0mg"},{"bike_id":"41da4b56-604c-4398-a7b9-104be2ad83f3","system_id":"levelo_inurba_marseille","lat":43.23154,"lon":5.4373,"is_reserved":false,"is_disabled":false,"rental_uris":{"android":"levelo://app?vid=41da4b56-604c-4398-a7b9-104be2ad83f3","ios":"levelo://app?vid=41da4b56-604c-4398-a7b9-104be2ad83f3"},"vehicle_type_id":"4","last_reported":1741187413,"current_range_meters":8000,"station_id":"ce4bhmp2rcd13ifvqgog","pricing_plan_id":"cebpf4jnsgd1na2vs0mg"},{"bike_id":"de44d09a-d4db-4ce3-a2dd-62f4dc2e96ab","system_id":"levelo_inurba_marseille","lat":43.28161,"lon":5.4279,"is_reserved":false,"is_disabled":false,"rental_uris":{"android":"levelo://app?vid=de44d09a-d4db-4ce3-a2dd-62f4dc2e96ab","ios":"levelo://app?vid=de44d09a-d4db-4ce3-a2dd-62f4dc2e96ab"},"vehicle_type_id":"4","last_reported":1741187413,"current_range_meters":8000,"station_id":"","pricing_plan_id":"cebpf4jnsgd1na2vs0mg"},{"bike_id":"136bb51c-d012-4916-adf9-aed8533144cf","system_id":"levelo_inurba_marseille","lat":43.30551,"lon":5.36566,"is_reserved":false,"is_disabled":false,"rental_uris":{"android":"levelo://app?vid=136bb51c-d012-4916-adf9-aed8533144cf","ios":"levelo://app?vid=136bb51c-d012-4916-adf9-aed8533144cf"},"vehicle_type_id":"4","last_reported":1741187413,"current_range_meters":8000,"station_id":"ce4bgs12rcd13ifvqcag","pricing_plan_id":"cebpf4jnsgd1na2vs0mg"},{"bike_id":"346c5faf-5c6d-40f5-b832-4598b852a63c","system_id":"levelo_inurba_marseille","lat":43.26566,"lon":5.3729,"is_reserved":false,"is_disabled":false,"rental_uris":{"android":"levelo://app?vid=346c5faf-5c6d-40f5-b832-4598b852a63c","ios":"levelo://app?vid=346c5faf-5c6d-40f5-b832-4598b852a63c"},"vehicle_type_id":"4","last_reported":1741187413,"current_range_meters":8000,"station_id":"ce4bhg12rcd13ifvqf70","pricing_plan_id":"cebpf4jnsgd1na2vs0mg"},{"bike_id":"dd78ee39-2304-498e-9349-ef2f418ec150","system_id":"levelo_inurba_marseille","lat":43.25866,"lon":5.39895,"is_reserved":false,"is_disabled":false,"rental_uris":{"android":"levelo://app?vid=dd78ee39-2304-498e-9349-ef2f418ec150","ios":"levelo://app?vid=dd78ee39-2304-498e-9349-ef2f418ec150"},"vehicle_type_id":"4","last_reported":1741187413,"current_range_meters":8000,"station_id":"ce4bhl92rcd13ifvqghg","pricing_plan_id":"cebpf4jnsgd1na2vs0mg"},{"bike_id":"43b27d74-fe0a-4ffe-b0e1-4d8b528f4e21","system_id":"levelo_inurba_marseille","lat":43.3124,"lon":5.36874,"is_reserved":false,"is_disabled":false,"rental_uris":{"android":"levelo://app?vid=43b27d74-fe0a-4ffe-b0e1-4d8b528f4e21","ios":"levelo://app?vid=43b27d74-fe0a-4ffe-b0e1-4d8b528f4e21"},"vehicle_type_id":"4","last_reported":1741187413,"current_range_meters":8000,"station_id":"ce4bgl92rcd13ifvqbq0","pricing_plan_id":"cebpf4jnsgd1na2vs0mg"},{"bike_id":"44a7153b-0fd7-4509-836b-676bbf84fb06","system_id":"levelo_inurba_marseille","lat":43.23196,"lon":5.3557,"is_reserved":false,"is_disabled":false,"rental_uris":{"android":"levelo://app?vid=44a7153b-0fd7-4509-836b-676bbf84fb06","ios":"levelo://app?vid=44a7153b-0fd7-4509-836b-676bbf84fb06"},"vehicle_type_id":"4","last_reported":1741187413,"current_range_meters":8000,"station_id":"ce4bhu92rcd13ifvqi70","pricing_plan_id":"cebpf4jnsgd1na2vs0mg"},{"bike_id":"65ecb88d-b0a9-44cc-9d7c-50a557a699a8","system_id":"levelo_inurba_marseille","lat":43.23966,"lon":5.36636,"is_reserved":false,"is_disabled":false,"rental_uris":{"android":"levelo://app?vid=65ecb88d-b0a9-44cc-9d7c-50a557a699a8","ios":"levelo://app?vid=65ecb88d-b0a9-44cc-9d7c-50a557a699a8"},"vehicle_type_id":"4","last_reported":1741187413,"current_range_meters":8000,"station_id":"ce4bhi12rcd13ifvqfp0","pricing_plan_id":"cebpf4jnsgd1na2vs0mg"},{"bike_id":"fcc09483-9138-4100-8f88-d6102cbcde69","system_id":"levelo_inurba_marseille","lat":43.2942,"lon":5.38648,"is_reserved":false,"is_disabled":false,"rental_uris":{"android":"levelo://app?vid=fcc09483-9138-4100-8f88-d6102cbcde69","ios":"levelo://app?vid=fcc09483-9138-4100-8f88-d6102cbcde69"},"vehicle_type_id":"4","last_reported":1741187413,"current_range_meters":8400,"station_id":"ce4bh2h2rcd13ifvqdh0","pricing_plan_id":"cebpf4jnsgd1na2vs0mg"},{"bike_id":"78b299af-2a6a-4381-bc41-61bda2677d20","system_id":"levelo_inurba_marseille","lat":43.32559,"lon":5.36558,"is_reserved":false,"is_disabled":false,"rental_uris":{"android":"levelo://app?vid=78b299af-2a6a-4381-bc41-61bda2677d20","ios":"levelo://app?vid=78b299af-2a6a-4381-bc41-61bda2677d20"},"vehicle_type_id":"4","last_reported":1741187413,"current_range_meters":8000,"station_id":"ce4bhs12rcd13ifvqhvg","pricing_plan_id":"cebpf4jnsgd1na2vs0mg"},{"bike_id":"813cd52f-3548-4c24-a667-d182cfef52b8","system_id":"levelo_inurba_marseille","lat":43.23966,"lon":5.36644,"is_reserved":false,"is_disabled":false,"rental_uris":{"android":"levelo://app?vid=813cd52f-3548-4c24-a667-d182cfef52b8","ios":"levelo://app?vid=813cd52f-3548-4c24-a667-d182cfef52b8"},"vehicle_type_id":"4","last_reported":1741187413,"current_range_meters":8400,"station_id":"ce4bhi12rcd13ifvqfp0","pricing_plan_id":"cebpf4jnsgd1na2vs0mg"},{"bike_id":"6196714a-ed09-4abe-aae4-0fa555633c72","system_id":"levelo_inurba_marseille","lat":43.24171,"lon":5.36405,"is_reserved":false,"is_disabled":false,"rental_uris":{"android":"levelo://app?vid=6196714a-ed09-4abe-aae4-0fa555633c72","ios":"levelo://app?vid=6196714a-ed09-4abe-aae4-0fa555633c72"},"vehicle_type_id":"4","last_reported":1741187413,"current_range_meters":8400,"station_id":"cpo36qri1sfpv3e86is0","pricing_plan_id":"cebpf4jnsgd1na2vs0mg"},{"bike_id":"332ef344-65bf-459d-8a27-d3a3243b5925","system_id":"levelo_inurba_marseille","lat":43.26551,"lon":5.37287,"is_reserved":false,"is_disabled":false,"rental_uris":{"android":"levelo://app?vid=332ef344-65bf-459d-8a27-d3a3243b5925","ios":"levelo://app?vid=332ef344-65bf-459d-8a27-d3a3243b5925"},"vehicle_type_id":"4","last_reported":1741187413,"current_range_meters":8400,"station_id":"ce4bhg12rcd13ifvqf70","pricing_plan_id":"cebpf4jnsgd1na2vs0mg"},{"bike_id":"d5846449-7219-4265-90f9-a2ede6b6465f","system_id":"levelo_inurba_marseille","lat":43.24167,"lon":5.39713,"is_reserved":false,"is_disabled":false,"rental_uris":{"android":"levelo://app?vid=d5846449-7219-4265-90f9-a2ede6b6465f","ios":"levelo://app?vid=d5846449-7219-4265-90f9-a2ede6b6465f"},"vehicle_type_id":"4","last_reported":1741187413,"current_range_meters":8400,"station_id":"ce4bhn12rcd13ifvqgpg","pricing_plan_id":"cebpf4jnsgd1na2vs0mg"},{"bike_id":"5650a716-c35b-4656-9919-39b835609686","system_id":"levelo_inurba_marseille","lat":43.289824,"lon":5.378311,"is_reserved":false,"is_disabled":false,"rental_uris":{"android":"levelo://app?vid=5650a716-c35b-4656-9919-39b835609686","ios":"levelo://app?vid=5650a716-c35b-4656-9919-39b835609686"},"vehicle_type_id":"4","last_reported":1741187413,"current_range_meters":8400,"station_id":"","pricing_plan_id":"cebpf4jnsgd1na2vs0mg"},{"bike_id":"468067cf-0d47-41d2-8570-54d100214293","system_id":"levelo_inurba_marseille","lat":43.30145,"lon":5.37427,"is_reserved":false,"is_disabled":false,"rental_uris":{"android":"levelo://app?vid=468067cf-0d47-41d2-8570-54d100214293","ios":"levelo://app?vid=468067cf-0d47-41d2-8570-54d100214293"},"vehicle_type_id":"4","last_reported":1741187413,"current_range_meters":8400,"station_id":"ce4bgs92rcd13ifvqcc0","pricing_plan_id":"cebpf4jnsgd1na2vs0mg"},{"bike_id":"187ecd8a-d75b-4775-85e8-0c588afbf768","system_id":"levelo_inurba_marseille","lat":43.24174,"lon":5.39725,"is_reserved":false,"is_disabled":false,"rental_uris":{"android":"levelo://app?vid=187ecd8a-d75b-4775-85e8-0c588afbf768","ios":"levelo://app?vid=187ecd8a-d75b-4775-85e8-0c588afbf768"},"vehicle_type_id":"4","last_reported":1741187413,"current_range_meters":8400,"station_id":"ce4bhn12rcd13ifvqgpg","pricing_plan_id":"cebpf4jnsgd1na2vs0mg"},{"bike_id":"df880f51-1c16-4dfc-8518-293a929f9f32","system_id":"levelo_inurba_marseille","lat":43.23152,"lon":5.4372,"is_reserved":false,"is_disabled":false,"rental_uris":{"android":"levelo://app?vid=df880f51-1c16-4dfc-8518-293a929f9f32","ios":"levelo://app?vid=df880f51-1c16-4dfc-8518-293a929f9f32"},"vehicle_type_id":"4","last_reported":1741187413,"current_range_meters":8800,"station_id":"ce4bhmp2rcd13ifvqgog","pricing_plan_id":"cebpf4jnsgd1na2vs0mg"},{"bike_id":"437b93c3-3ef0-4008-9a21-f67323f13007","system_id":"levelo_inurba_marseille","lat":43.28419,"lon":5.34979,"is_reserved":false,"is_disabled":false,"rental_uris":{"android":"levelo://app?vid=437b93c3-3ef0-4008-9a21-f67323f13007","ios":"levelo://app?vid=437b93c3-3ef0-4008-9a21-f67323f13007"},"vehicle_type_id":"4","last_reported":1741187413,"current_range_meters":8800,"station_id":"ce4bhbh2rcd13ifvqepg","pricing_plan_id":"cebpf4jnsgd1na2vs0mg"},{"bike_id":"017a401a-e2dd-42af-b9e1-5e499d8c4ed9","system_id":"levelo_inurba_marseille","lat":43.24172,"lon":5.39714,"is_reserved":false,"is_disabled":false,"rental_uris":{"android":"levelo://app?vid=017a401a-e2dd-42af-b9e1-5e499d8c4ed9","ios":"levelo://app?vid=017a401a-e2dd-42af-b9e1-5e499d8c4ed9"},"vehicle_type_id":"4","last_reported":1741187413,"current_range_meters":8800,"station_id":"ce4bhn12rcd13ifvqgpg","pricing_plan_id":"cebpf4jnsgd1na2vs0mg"},{"bike_id":"51f6f578-8898-487a-9da7-ff3d6d379d1b","system_id":"levelo_inurba_marseille","lat":43.32088,"lon":5.36786,"is_reserved":false,"is_disabled":false,"rental_uris":{"android":"levelo://app?vid=51f6f578-8898-487a-9da7-ff3d6d379d1b","ios":"levelo://app?vid=51f6f578-8898-487a-9da7-ff3d6d379d1b"},"vehicle_type_id":"4","last_reported":1741187413,"current_range_meters":8800,"station_id":"ce4bhrh2rcd13ifvqhug","pricing_plan_id":"cebpf4jnsgd1na2vs0mg"},{"bike_id":"4c0e314a-87e2-48f0-a7b0-ec6605046de8","system_id":"levelo_inurba_marseille","lat":43.32102,"lon":5.36796,"is_reserved":false,"is_disabled":false,"rental_uris":{"android":"levelo://app?vid=4c0e314a-87e2-48f0-a7b0-ec6605046de8","ios":"levelo://app?vid=4c0e314a-87e2-48f0-a7b0-ec6605046de8"},"vehicle_type_id":"4","last_reported":1741187413,"current_range_meters":9200,"station_id":"ce4bhrh2rcd13ifvqhug","pricing_plan_id":"cebpf4jnsgd1na2vs0mg"},{"bike_id":"53a32a36-0a29-44b9-83bf-98b37f95e037","system_id":"levelo_inurba_marseille","lat":43.26566,"lon":5.37313,"is_reserved":false,"is_disabled":false,"rental_uris":{"android":"levelo://app?vid=53a32a36-0a29-44b9-83bf-98b37f95e037","ios":"levelo://app?vid=53a32a36-0a29-44b9-83bf-98b37f95e037"},"vehicle_type_id":"4","last_reported":1741187413,"current_range_meters":8800,"station_id":"ce4bhg12rcd13ifvqf70","pricing_plan_id":"cebpf4jnsgd1na2vs0mg"},{"bike_id":"e87d3657-a927-4464-955b-80e91ac549b2","system_id":"levelo_inurba_marseille","lat":43.31078,"lon":5.38377,"is_reserved":false,"is_disabled":false,"rental_uris":{"android":"levelo://app?vid=e87d3657-a927-4464-955b-80e91ac549b2","ios":"levelo://app?vid=e87d3657-a927-4464-955b-80e91ac549b2"},"vehicle_type_id":"4","last_reported":1741187413,"current_range_meters":9200,"station_id":"ce4bgv92rcd13ifvqcr0","pricing_plan_id":"cebpf4jnsgd1na2vs0mg"},{"bike_id":"d2663c83-d4b2-4f50-a3cd-9b4bc5a8f741","system_id":"levelo_inurba_marseille","lat":43.28081,"lon":5.39656,"is_reserved":false,"is_disabled":false,"rental_uris":{"android":"levelo://app?vid=d2663c83-d4b2-4f50-a3cd-9b4bc5a8f741","ios":"levelo://app?vid=d2663c83-d4b2-4f50-a3cd-9b4bc5a8f741"},"vehicle_type_id":"4","last_reported":1741187413,"current_range_meters":9200,"station_id":"ce4bho12rcd13ifvqh2g","pricing_plan_id":"cebpf4jnsgd1na2vs0mg"},{"bike_id":"4e09ed07-b9de-4934-8e29-48e02b534999","system_id":"levelo_inurba_marseille","lat":43.31759,"lon":5.39018,"is_reserved":false,"is_disabled":false,"rental_uris":{"android":"levelo://app?vid=4e09ed07-b9de-4934-8e29-48e02b534999","ios":"levelo://app?vid=4e09ed07-b9de-4934-8e29-48e02b534999"},"vehicle_type_id":"4","last_reported":1741187413,"current_range_meters":9200,"station_id":"ce4bhqp2rcd13ifvqhng","pricing_plan_id":"cebpf4jnsgd1na2vs0mg"},{"bike_id":"5144b9c8-c4df-4ccc-8d10-8a21030b87de","system_id":"levelo_inurba_marseille","lat":43.25943,"lon":5.40908,"is_reserved":false,"is_disabled":false,"rental_uris":{"android":"levelo://app?vid=5144b9c8-c4df-4ccc-8d10-8a21030b87de","ios":"levelo://app?vid=5144b9c8-c4df-4ccc-8d10-8a21030b87de"},"vehicle_type_id":"4","last_reported":1741187413,"current_range_meters":9200,"station_id":"ce4bhm92rcd13ifvqglg","pricing_plan_id":"cebpf4jnsgd1na2vs0mg"},{"bike_id":"e9a48210-25d8-4963-b64a-2706a3116026","system_id":"levelo_inurba_marseille","lat":43.24808,"lon":5.37462,"is_reserved":false,"is_disabled":false,"rental_uris":{"android":"levelo://app?vid=e9a48210-25d8-4963-b64a-2706a3116026","ios":"levelo://app?vid=e9a48210-25d8-4963-b64a-2706a3116026"},"vehicle_type_id":"4","last_reported":1741187413,"current_range_meters":9200,"station_id":"ce4bhgh2rcd13ifvqfb0","pricing_plan_id":"cebpf4jnsgd1na2vs0mg"},{"bike_id":"c4fdd09c-e097-4343-bcf4-861fefe878ef","system_id":"levelo_inurba_marseille","lat":43.32365,"lon":5.38888,"is_reserved":false,"is_disabled":false,"rental_uris":{"android":"levelo://app?vid=c4fdd09c-e097-4343-bcf4-861fefe878ef","ios":"levelo://app?vid=c4fdd09c-e097-4343-bcf4-861fefe878ef"},"vehicle_type_id":"4","last_reported":1741187413,"current_range_meters":9200,"station_id":"ce4bhqp2rcd13ifvqhog","pricing_plan_id":"cebpf4jnsgd1na2vs0mg"},{"bike_id":"ff22ac5f-4107-4c43-91dd-83932ff30650","system_id":"levelo_inurba_marseille","lat":43.26699,"lon":5.38273,"is_reserved":false,"is_disabled":true,"rental_uris":{"android":"levelo://app?vid=ff22ac5f-4107-4c43-91dd-83932ff30650","ios":"levelo://app?vid=ff22ac5f-4107-4c43-91dd-83932ff30650"},"vehicle_type_id":"4","last_reported":1741187413,"current_range_meters":9200,"station_id":"ce4bhg92rcd13ifvqf90","pricing_plan_id":"cebpf4jnsgd1na2vs0mg"},{"bike_id":"394b31bc-5971-4489-b8a2-788f7932b778","system_id":"levelo_inurba_marseille","lat":43.25583,"lon":5.38224,"is_reserved":false,"is_disabled":false,"rental_uris":{"android":"levelo://app?vid=394b31bc-5971-4489-b8a2-788f7932b778","ios":"levelo://app?vid=394b31bc-5971-4489-b8a2-788f7932b778"},"vehicle_type_id":"4","last_reported":1741187413,"current_range_meters":9200,"station_id":"ce4bhih2rcd13ifvqfs0","pricing_plan_id":"cebpf4jnsgd1na2vs0mg"},{"bike_id":"21b21f0f-574d-4a16-9bb1-ac53f716b355","system_id":"levelo_inurba_marseille","lat":43.28573,"lon":5.39495,"is_reserved":false,"is_disabled":false,"rental_uris":{"android":"levelo://app?vid=21b21f0f-574d-4a16-9bb1-ac53f716b355","ios":"levelo://app?vid=21b21f0f-574d-4a16-9bb1-ac53f716b355"},"vehicle_type_id":"4","last_reported":1741187413,"current_range_meters":8800,"station_id":"ce4bh292rcd13ifvqdg0","pricing_plan_id":"cebpf4jnsgd1na2vs0mg"},{"bike_id":"573a146c-fcda-4dc9-957d-9ceebf3688a0","system_id":"levelo_inurba_marseille","lat":43.30143,"lon":5.3741,"is_reserved":false,"is_disabled":false,"rental_uris":{"android":"levelo://app?vid=573a146c-fcda-4dc9-957d-9ceebf3688a0","ios":"levelo://app?vid=573a146c-fcda-4dc9-957d-9ceebf3688a0"},"vehicle_type_id":"4","last_reported":1741187413,"current_range_meters":9200,"station_id":"ce4bgs92rcd13ifvqcc0","pricing_plan_id":"cebpf4jnsgd1na2vs0mg"},{"bike_id":"da012e55-56aa-4836-97eb-401c7578f569","system_id":"levelo_inurba_marseille","lat":43.25933,"lon":5.40918,"is_reserved":false,"is_disabled":false,"rental_uris":{"android":"levelo://app?vid=da012e55-56aa-4836-97eb-401c7578f569","ios":"levelo://app?vid=da012e55-56aa-4836-97eb-401c7578f569"},"vehicle_type_id":"4","last_reported":1741187413,"current_range_meters":9200,"station_id":"ce4bhm92rcd13ifvqglg","pricing_plan_id":"cebpf4jnsgd1na2vs0mg"},{"bike_id":"3de42499-332f-4f37-855f-942539a949a7","system_id":"levelo_inurba_marseille","lat":43.2976,"lon":5.37118,"is_reserved":false,"is_disabled":false,"rental_uris":{"android":"levelo://app?vid=3de42499-332f-4f37-855f-942539a949a7","ios":"levelo://app?vid=3de42499-332f-4f37-855f-942539a949a7"},"vehicle_type_id":"4","last_reported":1741187413,"current_range_meters":9600,"station_id":"ce4bgop2rcd13ifvqc1g","pricing_plan_id":"cebpf4jnsgd1na2vs0mg"},{"bike_id":"91a1ee83-54b8-4fad-90b0-b60f1de63a24","system_id":"levelo_inurba_marseille","lat":43.28418,"lon":5.34982,"is_reserved":false,"is_disabled":false,"rental_uris":{"android":"levelo://app?vid=91a1ee83-54b8-4fad-90b0-b60f1de63a24","ios":"levelo://app?vid=91a1ee83-54b8-4fad-90b0-b60f1de63a24"},"vehicle_type_id":"4","last_reported":1741187413,"current_range_meters":9600,"station_id":"ce4bhbh2rcd13ifvqepg","pricing_plan_id":"cebpf4jnsgd1na2vs0mg"},{"bike_id":"b84a690f-b671-443d-91c9-b2ff99575890","system_id":"levelo_inurba_marseille","lat":43.28857,"lon":5.35842,"is_reserved":false,"is_disabled":false,"rental_uris":{"android":"levelo://app?vid=b84a690f-b671-443d-91c9-b2ff99575890","ios":"levelo://app?vid=b84a690f-b671-443d-91c9-b2ff99575890"},"vehicle_type_id":"4","last_reported":1741187413,"current_range_meters":9600,"station_id":"ce4bhb12rcd13ifvqem0","pricing_plan_id":"cebpf4jnsgd1na2vs0mg"},{"bike_id":"487c0631-52d2-4e65-925b-ce47d03b21b2","system_id":"levelo_inurba_marseille","lat":43.29808,"lon":5.40415,"is_reserved":false,"is_disabled":false,"rental_uris":{"android":"levelo://app?vid=487c0631-52d2-4e65-925b-ce47d03b21b2","ios":"levelo://app?vid=487c0631-52d2-4e65-925b-ce47d03b21b2"},"vehicle_type_id":"4","last_reported":1741187413,"current_range_meters":10000,"station_id":"ce4bh112rcd13ifvqd90","pricing_plan_id":"cebpf4jnsgd1na2vs0mg"},{"bike_id":"c55557ad-1ed5-4997-aee7-ac92107f14b6","system_id":"levelo_inurba_marseille","lat":43.26475,"lon":5.37505,"is_reserved":false,"is_disabled":false,"rental_uris":{"android":"levelo://app?vid=c55557ad-1ed5-4997-aee7-ac92107f14b6","ios":"levelo://app?vid=c55557ad-1ed5-4997-aee7-ac92107f14b6"},"vehicle_type_id":"4","last_reported":1741187413,"current_range_meters":10000,"station_id":"","pricing_plan_id":"cebpf4jnsgd1na2vs0mg"},{"bike_id":"b3049e77-a22e-4abb-b5c7-1844a32e4a90","system_id":"levelo_inurba_marseille","lat":43.314812,"lon":5.36939,"is_reserved":false,"is_disabled":false,"rental_uris":{"android":"levelo://app?vid=b3049e77-a22e-4abb-b5c7-1844a32e4a90","ios":"levelo://app?vid=b3049e77-a22e-4abb-b5c7-1844a32e4a90"},"vehicle_type_id":"4","last_reported":1741187413,"current_range_meters":12800,"station_id":"ce4bgn92rcd13ifvqbvg","pricing_plan_id":"cebpf4jnsgd1na2vs0mg"},{"bike_id":"7cd5e07c-ad2a-4af8-99d9-77c41335ce79","system_id":"levelo_inurba_marseille","lat":43.24163,"lon":5.36392,"is_reserved":false,"is_disabled":false,"rental_uris":{"android":"levelo://app?vid=7cd5e07c-ad2a-4af8-99d9-77c41335ce79","ios":"levelo://app?vid=7cd5e07c-ad2a-4af8-99d9-77c41335ce79"},"vehicle_type_id":"4","last_reported":1741187413,"current_range_meters":10000,"station_id":"cpo36qri1sfpv3e86is0","pricing_plan_id":"cebpf4jnsgd1na2vs0mg"},{"bike_id":"e3d7bc68-e1c3-463f-8323-6b168c27cfde","system_id":"levelo_inurba_marseille","lat":43.23145,"lon":5.43733,"is_reserved":false,"is_disabled":false,"rental_uris":{"android":"levelo://app?vid=e3d7bc68-e1c3-463f-8323-6b168c27cfde","ios":"levelo://app?vid=e3d7bc68-e1c3-463f-8323-6b168c27cfde"},"vehicle_type_id":"4","last_reported":1741187413,"current_range_meters":10000,"station_id":"ce4bhmp2rcd13ifvqgog","pricing_plan_id":"cebpf4jnsgd1na2vs0mg"},{"bike_id":"bd715048-f983-483b-ab2d-4e7285e8547b","system_id":"levelo_inurba_marseille","lat":43.31393,"lon":5.40445,"is_reserved":false,"is_disabled":false,"rental_uris":{"android":"levelo://app?vid=bd715048-f983-483b-ab2d-4e7285e8547b","ios":"levelo://app?vid=bd715048-f983-483b-ab2d-4e7285e8547b"},"vehicle_type_id":"4","last_reported":1741187413,"current_range_meters":10000,"station_id":"","pricing_plan_id":"cebpf4jnsgd1na2vs0mg"},{"bike_id":"3b03a23d-f9a6-4ceb-8556-65379433c70a","system_id":"levelo_inurba_marseille","lat":43.2842,"lon":5.34956,"is_reserved":false,"is_disabled":false,"rental_uris":{"android":"levelo://app?vid=3b03a23d-f9a6-4ceb-8556-65379433c70a","ios":"levelo://app?vid=3b03a23d-f9a6-4ceb-8556-65379433c70a"},"vehicle_type_id":"4","last_reported":1741187413,"current_range_meters":10000,"station_id":"ce4bhbh2rcd13ifvqepg","pricing_plan_id":"cebpf4jnsgd1na2vs0mg"},{"bike_id":"d571166c-77a4-4a91-b051-9cc34ad31336","system_id":"levelo_inurba_marseille","lat":43.302,"lon":5.3935,"is_reserved":false,"is_disabled":false,"rental_uris":{"android":"levelo://app?vid=d571166c-77a4-4a91-b051-9cc34ad31336","ios":"levelo://app?vid=d571166c-77a4-4a91-b051-9cc34ad31336"},"vehicle_type_id":"4","last_reported":1741187413,"current_range_meters":10000,"station_id":"","pricing_plan_id":"cebpf4jnsgd1na2vs0mg"},{"bike_id":"c9ed15b4-49bd-497b-af4e-de9877f3d01d","system_id":"levelo_inurba_marseille","lat":43.28159,"lon":5.42637,"is_reserved":false,"is_disabled":false,"rental_uris":{"android":"levelo://app?vid=c9ed15b4-49bd-497b-af4e-de9877f3d01d","ios":"levelo://app?vid=c9ed15b4-49bd-497b-af4e-de9877f3d01d"},"vehicle_type_id":"4","last_reported":1741187413,"current_range_meters":10000,"station_id":"ce4bhnh2rcd13ifvqgug","pricing_plan_id":"cebpf4jnsgd1na2vs0mg"},{"bike_id":"3b219114-afa7-412a-84e6-60bc704150c0","system_id":"levelo_inurba_marseille","lat":43.23153,"lon":5.43708,"is_reserved":false,"is_disabled":false,"rental_uris":{"android":"levelo://app?vid=3b219114-afa7-412a-84e6-60bc704150c0","ios":"levelo://app?vid=3b219114-afa7-412a-84e6-60bc704150c0"},"vehicle_type_id":"4","last_reported":1741187413,"current_range_meters":10000,"station_id":"ce4bhmp2rcd13ifvqgog","pricing_plan_id":"cebpf4jnsgd1na2vs0mg"},{"bike_id":"5b9f8ff3-044b-491c-99a8-5f9e99e203fc","system_id":"levelo_inurba_marseille","lat":43.31362,"lon":5.38493,"is_reserved":false,"is_disabled":false,"rental_uris":{"android":"levelo://app?vid=5b9f8ff3-044b-491c-99a8-5f9e99e203fc","ios":"levelo://app?vid=5b9f8ff3-044b-491c-99a8-5f9e99e203fc"},"vehicle_type_id":"4","last_reported":1741187413,"current_range_meters":10000,"station_id":"ce4bgt92rcd13ifvqcf0","pricing_plan_id":"cebpf4jnsgd1na2vs0mg"},{"bike_id":"a78978ba-53b1-4faa-9a35-dbb67443cb73","system_id":"levelo_inurba_marseille","lat":43.23153,"lon":5.43705,"is_reserved":false,"is_disabled":false,"rental_uris":{"android":"levelo://app?vid=a78978ba-53b1-4faa-9a35-dbb67443cb73","ios":"levelo://app?vid=a78978ba-53b1-4faa-9a35-dbb67443cb73"},"vehicle_type_id":"4","last_reported":1741187413,"current_range_meters":10000,"station_id":"ce4bhmp2rcd13ifvqgog","pricing_plan_id":"cebpf4jnsgd1na2vs0mg"},{"bike_id":"90a12cb5-73f1-4425-90f7-2d0885160967","system_id":"levelo_inurba_marseille","lat":43.28264,"lon":5.35062,"is_reserved":false,"is_disabled":false,"rental_uris":{"android":"levelo://app?vid=90a12cb5-73f1-4425-90f7-2d0885160967","ios":"levelo://app?vid=90a12cb5-73f1-4425-90f7-2d0885160967"},"vehicle_type_id":"4","last_reported":1741187413,"current_range_meters":10800,"station_id":"ce4bhbp2rcd13ifvqerg","pricing_plan_id":"cebpf4jnsgd1na2vs0mg"},{"bike_id":"04e59103-da24-4c14-8b6a-fccad993df8c","system_id":"levelo_inurba_marseille","lat":43.251404,"lon":5.403032,"is_reserved":false,"is_disabled":false,"rental_uris":{"android":"levelo://app?vid=04e59103-da24-4c14-8b6a-fccad993df8c","ios":"levelo://app?vid=04e59103-da24-4c14-8b6a-fccad993df8c"},"vehicle_type_id":"4","last_reported":1741187413,"current_range_meters":14800,"station_id":"ce4bh4p2rcd13ifvqe1g","pricing_plan_id":"cebpf4jnsgd1na2vs0mg"},{"bike_id":"8fa3efe1-14f9-4781-a743-478ff968203d","system_id":"levelo_inurba_marseille","lat":43.30642,"lon":5.40095,"is_reserved":false,"is_disabled":false,"rental_uris":{"android":"levelo://app?vid=8fa3efe1-14f9-4781-a743-478ff968203d","ios":"levelo://app?vid=8fa3efe1-14f9-4781-a743-478ff968203d"},"vehicle_type_id":"4","last_reported":1741187413,"current_range_meters":12400,"station_id":"ce4bh112rcd13ifvqda0","pricing_plan_id":"cebpf4jnsgd1na2vs0mg"},{"bike_id":"6dcd7069-97e1-4c34-83b8-ce6f544a9361","system_id":"levelo_inurba_marseille","lat":43.26557,"lon":5.37297,"is_reserved":false,"is_disabled":false,"rental_uris":{"android":"levelo://app?vid=6dcd7069-97e1-4c34-83b8-ce6f544a9361","ios":"levelo://app?vid=6dcd7069-97e1-4c34-83b8-ce6f544a9361"},"vehicle_type_id":"4","last_reported":1741187413,"current_range_meters":10800,"station_id":"ce4bhg12rcd13ifvqf70","pricing_plan_id":"cebpf4jnsgd1na2vs0mg"},{"bike_id":"c03f5242-2ec9-4658-bca6-cdbaaae48fe8","system_id":"levelo_inurba_marseille","lat":43.28363,"lon":5.38639,"is_reserved":false,"is_disabled":false,"rental_uris":{"android":"levelo://app?vid=c03f5242-2ec9-4658-bca6-cdbaaae48fe8","ios":"levelo://app?vid=c03f5242-2ec9-4658-bca6-cdbaaae48fe8"},"vehicle_type_id":"4","last_reported":1741187413,"current_range_meters":10800,"station_id":"ce4bh492rcd13ifvqdvg","pricing_plan_id":"cebpf4jnsgd1na2vs0mg"},{"bike_id":"195fd70d-3695-4f72-acd6-7320b392a905","system_id":"levelo_inurba_marseille","lat":43.29203,"lon":5.39329,"is_reserved":false,"is_disabled":false,"rental_uris":{"android":"levelo://app?vid=195fd70d-3695-4f72-acd6-7320b392a905","ios":"levelo://app?vid=195fd70d-3695-4f72-acd6-7320b392a905"},"vehicle_type_id":"4","last_reported":1741187413,"current_range_meters":14400,"station_id":"ce4bh192rcd13ifvqdd0","pricing_plan_id":"cebpf4jnsgd1na2vs0mg"},{"bike_id":"1ffd3e6f-da20-4dc2-83d6-76082a4ceaf9","system_id":"levelo_inurba_marseille","lat":43.27868,"lon":5.39218,"is_reserved":false,"is_disabled":false,"rental_uris":{"android":"levelo://app?vid=1ffd3e6f-da20-4dc2-83d6-76082a4ceaf9","ios":"levelo://app?vid=1ffd3e6f-da20-4dc2-83d6-76082a4ceaf9"},"vehicle_type_id":"4","last_reported":1741187413,"current_range_meters":10800,"station_id":"ce4bhjp2rcd13ifvqga0","pricing_plan_id":"cebpf4jnsgd1na2vs0mg"},{"bike_id":"04a777ad-69b5-426a-8c97-7acd8778c896","system_id":"levelo_inurba_marseille","lat":43.27617,"lon":5.36109,"is_reserved":false,"is_disabled":false,"rental_uris":{"android":"levelo://app?vid=04a777ad-69b5-426a-8c97-7acd8778c896","ios":"levelo://app?vid=04a777ad-69b5-426a-8c97-7acd8778c896"},"vehicle_type_id":"4","last_reported":1741187413,"current_range_meters":11200,"station_id":"ce4bgj92rcd13ifvqbe0","pricing_plan_id":"cebpf4jnsgd1na2vs0mg"},{"bike_id":"8cc56c61-288d-46f3-a47d-b51f9269aef8","system_id":"levelo_inurba_marseille","lat":43.31072,"lon":5.38352,"is_reserved":false,"is_disabled":false,"rental_uris":{"android":"levelo://app?vid=8cc56c61-288d-46f3-a47d-b51f9269aef8","ios":"levelo://app?vid=8cc56c61-288d-46f3-a47d-b51f9269aef8"},"vehicle_type_id":"4","last_reported":1741187413,"current_range_meters":11200,"station_id":"ce4bgv92rcd13ifvqcr0","pricing_plan_id":"cebpf4jnsgd1na2vs0mg"},{"bike_id":"e4420a4d-7211-46fe-bdcf-f7f283fbe829","system_id":"levelo_inurba_marseille","lat":43.28487,"lon":5.38411,"is_reserved":false,"is_disabled":false,"rental_uris":{"android":"levelo://app?vid=e4420a4d-7211-46fe-bdcf-f7f283fbe829","ios":"levelo://app?vid=e4420a4d-7211-46fe-bdcf-f7f283fbe829"},"vehicle_type_id":"4","last_reported":1741187413,"current_range_meters":11200,"station_id":"ce4bh512rcd13ifvqe3g","pricing_plan_id":"cebpf4jnsgd1na2vs0mg"},{"bike_id":"9d9123f7-86f6-436b-b791-f79b932fa45d","system_id":"levelo_inurba_marseille","lat":43.27972,"lon":5.38735,"is_reserved":false,"is_disabled":false,"rental_uris":{"android":"levelo://app?vid=9d9123f7-86f6-436b-b791-f79b932fa45d","ios":"levelo://app?vid=9d9123f7-86f6-436b-b791-f79b932fa45d"},"vehicle_type_id":"4","last_reported":1741187413,"current_range_meters":11600,"station_id":"ce4bhg12rcd13ifvqf80","pricing_plan_id":"cebpf4jnsgd1na2vs0mg"},{"bike_id":"a8f00c53-7a32-4924-be6a-6f49ff58e5a4","system_id":"levelo_inurba_marseille","lat":43.23151,"lon":5.43715,"is_reserved":false,"is_disabled":false,"rental_uris":{"android":"levelo://app?vid=a8f00c53-7a32-4924-be6a-6f49ff58e5a4","ios":"levelo://app?vid=a8f00c53-7a32-4924-be6a-6f49ff58e5a4"},"vehicle_type_id":"4","last_reported":1741187413,"current_range_meters":11600,"station_id":"ce4bhmp2rcd13ifvqgog","pricing_plan_id":"cebpf4jnsgd1na2vs0mg"},{"bike_id":"88a22b1d-d9d1-4f92-ba32-0732f4e154bc","system_id":"levelo_inurba_marseille","lat":43.23149,"lon":5.43712,"is_reserved":false,"is_disabled":false,"rental_uris":{"android":"levelo://app?vid=88a22b1d-d9d1-4f92-ba32-0732f4e154bc","ios":"levelo://app?vid=88a22b1d-d9d1-4f92-ba32-0732f4e154bc"},"vehicle_type_id":"4","last_reported":1741187413,"current_range_meters":12000,"station_id":"ce4bhmp2rcd13ifvqgog","pricing_plan_id":"cebpf4jnsgd1na2vs0mg"},{"bike_id":"a5666bef-01cc-4377-83ae-4862f2c79e69","system_id":"levelo_inurba_marseille","lat":43.32045,"lon":5.4156,"is_reserved":false,"is_disabled":false,"rental_uris":{"android":"levelo://app?vid=a5666bef-01cc-4377-83ae-4862f2c79e69","ios":"levelo://app?vid=a5666bef-01cc-4377-83ae-4862f2c79e69"},"vehicle_type_id":"4","last_reported":1741187413,"current_range_meters":11200,"station_id":"ce4bhq92rcd13ifvqhkg","pricing_plan_id":"cebpf4jnsgd1na2vs0mg"},{"bike_id":"8e67c6c2-1f86-420e-855b-676e159ed831","system_id":"levelo_inurba_marseille","lat":43.23064,"lon":5.35497,"is_reserved":false,"is_disabled":false,"rental_uris":{"android":"levelo://app?vid=8e67c6c2-1f86-420e-855b-676e159ed831","ios":"levelo://app?vid=8e67c6c2-1f86-420e-855b-676e159ed831"},"vehicle_type_id":"4","last_reported":1741187413,"current_range_meters":12000,"station_id":"cpo3342slgdg3j2ifvpg","pricing_plan_id":"cebpf4jnsgd1na2vs0mg"},{"bike_id":"cba6a766-3158-4fdc-849a-5887af830bdc","system_id":"levelo_inurba_marseille","lat":43.29236,"lon":5.38212,"is_reserved":false,"is_disabled":false,"rental_uris":{"android":"levelo://app?vid=cba6a766-3158-4fdc-849a-5887af830bdc","ios":"levelo://app?vid=cba6a766-3158-4fdc-849a-5887af830bdc"},"vehicle_type_id":"4","last_reported":1741187413,"current_range_meters":12000,"station_id":"","pricing_plan_id":"cebpf4jnsgd1na2vs0mg"},{"bike_id":"d42aed35-7fd0-4756-98a4-c384630d40fd","system_id":"levelo_inurba_marseille","lat":43.2508,"lon":5.39514,"is_reserved":false,"is_disabled":false,"rental_uris":{"android":"levelo://app?vid=d42aed35-7fd0-4756-98a4-c384630d40fd","ios":"levelo://app?vid=d42aed35-7fd0-4756-98a4-c384630d40fd"},"vehicle_type_id":"4","last_reported":1741187413,"current_range_meters":12000,"station_id":"ce4bhm12rcd13ifvqgkg","pricing_plan_id":"cebpf4jnsgd1na2vs0mg"},{"bike_id":"55db680c-bf24-4d06-80de-28c01351dd80","system_id":"levelo_inurba_marseille","lat":43.28667,"lon":5.3635,"is_reserved":false,"is_disabled":false,"rental_uris":{"android":"levelo://app?vid=55db680c-bf24-4d06-80de-28c01351dd80","ios":"levelo://app?vid=55db680c-bf24-4d06-80de-28c01351dd80"},"vehicle_type_id":"4","last_reported":1741187413,"current_range_meters":12000,"station_id":"ce4bhah2rcd13ifvqej0","pricing_plan_id":"cebpf4jnsgd1na2vs0mg"},{"bike_id":"096f3379-de9c-4ed9-9eb1-687fd3153fa6","system_id":"levelo_inurba_marseille","lat":43.28153,"lon":5.42643,"is_reserved":false,"is_disabled":false,"rental_uris":{"android":"levelo://app?vid=096f3379-de9c-4ed9-9eb1-687fd3153fa6","ios":"levelo://app?vid=096f3379-de9c-4ed9-9eb1-687fd3153fa6"},"vehicle_type_id":"4","last_reported":1741187413,"current_range_meters":12000,"station_id":"ce4bhnh2rcd13ifvqgug","pricing_plan_id":"cebpf4jnsgd1na2vs0mg"},{"bike_id":"47f9c1e6-4ef1-44b5-8c09-2530f1ca3ff6","system_id":"levelo_inurba_marseille","lat":43.297127,"lon":5.37694,"is_reserved":false,"is_disabled":false,"rental_uris":{"android":"levelo://app?vid=47f9c1e6-4ef1-44b5-8c09-2530f1ca3ff6","ios":"levelo://app?vid=47f9c1e6-4ef1-44b5-8c09-2530f1ca3ff6"},"vehicle_type_id":"4","last_reported":1741187413,"current_range_meters":12400,"station_id":"ce4bhih2rcd13ifvqfr0","pricing_plan_id":"cebpf4jnsgd1na2vs0mg"},{"bike_id":"fdad7052-c76b-4b08-83f3-7ec7d28ef289","system_id":"levelo_inurba_marseille","lat":43.25108,"lon":5.40325,"is_reserved":false,"is_disabled":false,"rental_uris":{"android":"levelo://app?vid=fdad7052-c76b-4b08-83f3-7ec7d28ef289","ios":"levelo://app?vid=fdad7052-c76b-4b08-83f3-7ec7d28ef289"},"vehicle_type_id":"4","last_reported":1741187413,"current_range_meters":12400,"station_id":"ce4bhlh2rcd13ifvqgig","pricing_plan_id":"cebpf4jnsgd1na2vs0mg"},{"bike_id":"cd0adcec-a5f9-435e-b965-9859e3b773ec","system_id":"levelo_inurba_marseille","lat":43.27368,"lon":5.36267,"is_reserved":false,"is_disabled":false,"rental_uris":{"android":"levelo://app?vid=cd0adcec-a5f9-435e-b965-9859e3b773ec","ios":"levelo://app?vid=cd0adcec-a5f9-435e-b965-9859e3b773ec"},"vehicle_type_id":"4","last_reported":1741187413,"current_range_meters":12400,"station_id":"ce4bhbh2rcd13ifvqeo0","pricing_plan_id":"cebpf4jnsgd1na2vs0mg"},{"bike_id":"ee59b3a3-0f87-489f-91b5-15c91569f1b2","system_id":"levelo_inurba_marseille","lat":43.241581,"lon":5.363993,"is_reserved":false,"is_disabled":false,"rental_uris":{"android":"levelo://app?vid=ee59b3a3-0f87-489f-91b5-15c91569f1b2","ios":"levelo://app?vid=ee59b3a3-0f87-489f-91b5-15c91569f1b2"},"vehicle_type_id":"4","last_reported":1741187413,"current_range_meters":12400,"station_id":"cpo36qri1sfpv3e86is0","pricing_plan_id":"cebpf4jnsgd1na2vs0mg"},{"bike_id":"fabf5cac-d94b-4612-8753-6269ff151366","system_id":"levelo_inurba_marseille","lat":43.2902,"lon":5.38646,"is_reserved":false,"is_disabled":false,"rental_uris":{"android":"levelo://app?vid=fabf5cac-d94b-4612-8753-6269ff151366","ios":"levelo://app?vid=fabf5cac-d94b-4612-8753-6269ff151366"},"vehicle_type_id":"4","last_reported":1741187413,"current_range_meters":12400,"station_id":"ce4bh4p2rcd13ifvqe0g","pricing_plan_id":"cebpf4jnsgd1na2vs0mg"},{"bike_id":"330426bc-0af9-4c3e-8e4c-6ec10833df11","system_id":"levelo_inurba_marseille","lat":43.299049,"lon":5.4367,"is_reserved":false,"is_disabled":false,"rental_uris":{"android":"levelo://app?vid=330426bc-0af9-4c3e-8e4c-6ec10833df11","ios":"levelo://app?vid=330426bc-0af9-4c3e-8e4c-6ec10833df11"},"vehicle_type_id":"4","last_reported":1741187413,"current_range_meters":12400,"station_id":"ce4bhpp2rcd13ifvqhfg","pricing_plan_id":"cebpf4jnsgd1na2vs0mg"},{"bike_id":"3c02b14d-4d6f-4bc2-a50d-04af65ec09ef","system_id":"levelo_inurba_marseille","lat":43.29846,"lon":5.36284,"is_reserved":false,"is_disabled":false,"rental_uris":{"android":"levelo://app?vid=3c02b14d-4d6f-4bc2-a50d-04af65ec09ef","ios":"levelo://app?vid=3c02b14d-4d6f-4bc2-a50d-04af65ec09ef"},"vehicle_type_id":"4","last_reported":1741187413,"current_range_meters":12400,"station_id":"ce4bgpp2rcd13ifvqc3g","pricing_plan_id":"cebpf4jnsgd1na2vs0mg"},{"bike_id":"4c203276-5099-4e33-9f5b-eda15df018d7","system_id":"levelo_inurba_marseille","lat":43.29224,"lon":5.36089,"is_reserved":false,"is_disabled":false,"rental_uris":{"android":"levelo://app?vid=4c203276-5099-4e33-9f5b-eda15df018d7","ios":"levelo://app?vid=4c203276-5099-4e33-9f5b-eda15df018d7"},"vehicle_type_id":"4","last_reported":1741187413,"current_range_meters":12400,"station_id":"ce4bhbh2rcd13ifvqeqg","pricing_plan_id":"cebpf4jnsgd1na2vs0mg"},{"bike_id":"e187efc9-89a1-48f3-b3ef-e5dd9afa89d4","system_id":"levelo_inurba_marseille","lat":43.29217,"lon":5.35807,"is_reserved":false,"is_disabled":false,"rental_uris":{"android":"levelo://app?vid=e187efc9-89a1-48f3-b3ef-e5dd9afa89d4","ios":"levelo://app?vid=e187efc9-89a1-48f3-b3ef-e5dd9afa89d4"},"vehicle_type_id":"4","last_reported":1741187413,"current_range_meters":11200,"station_id":"ce4bhb12rcd13ifvqel0","pricing_plan_id":"cebpf4jnsgd1na2vs0mg"},{"bike_id":"32383aac-e9f5-42a8-95e4-cf6dce8cac85","system_id":"levelo_inurba_marseille","lat":43.28996,"lon":5.35616,"is_reserved":false,"is_disabled":false,"rental_uris":{"android":"levelo://app?vid=32383aac-e9f5-42a8-95e4-cf6dce8cac85","ios":"levelo://app?vid=32383aac-e9f5-42a8-95e4-cf6dce8cac85"},"vehicle_type_id":"4","last_reported":1741187413,"current_range_meters":12800,"station_id":"ce4bhb92rcd13ifvqen0","pricing_plan_id":"cebpf4jnsgd1na2vs0mg"},{"bike_id":"802cf1b2-dc55-4204-85a6-758a5a7bfd75","system_id":"levelo_inurba_marseille","lat":43.28933,"lon":5.36639,"is_reserved":false,"is_disabled":true,"rental_uris":{"android":"levelo://app?vid=802cf1b2-dc55-4204-85a6-758a5a7bfd75","ios":"levelo://app?vid=802cf1b2-dc55-4204-85a6-758a5a7bfd75"},"vehicle_type_id":"4","last_reported":1741187413,"current_range_meters":12400,"station_id":"ce4bhap2rcd13ifvqek0","pricing_plan_id":"cebpf4jnsgd1na2vs0mg"},{"bike_id":"95a7f661-84a3-41c8-b322-371de73d76ec","system_id":"levelo_inurba_marseille","lat":43.25925,"lon":5.40896,"is_reserved":false,"is_disabled":false,"rental_uris":{"android":"levelo://app?vid=95a7f661-84a3-41c8-b322-371de73d76ec","ios":"levelo://app?vid=95a7f661-84a3-41c8-b322-371de73d76ec"},"vehicle_type_id":"4","last_reported":1741187413,"current_range_meters":12800,"station_id":"ce4bhm92rcd13ifvqglg","pricing_plan_id":"cebpf4jnsgd1na2vs0mg"},{"bike_id":"5c8e0133-40c6-4337-be21-c72630a62a34","system_id":"levelo_inurba_marseille","lat":43.23189,"lon":5.35581,"is_reserved":false,"is_disabled":false,"rental_uris":{"android":"levelo://app?vid=5c8e0133-40c6-4337-be21-c72630a62a34","ios":"levelo://app?vid=5c8e0133-40c6-4337-be21-c72630a62a34"},"vehicle_type_id":"4","last_reported":1741187413,"current_range_meters":12800,"station_id":"ce4bhu92rcd13ifvqi70","pricing_plan_id":"cebpf4jnsgd1na2vs0mg"},{"bike_id":"7bc56f0c-f6ea-47f8-bd62-5e6e8d8f6271","system_id":"levelo_inurba_marseille","lat":43.30097,"lon":5.39091,"is_reserved":false,"is_disabled":false,"rental_uris":{"android":"levelo://app?vid=7bc56f0c-f6ea-47f8-bd62-5e6e8d8f6271","ios":"levelo://app?vid=7bc56f0c-f6ea-47f8-bd62-5e6e8d8f6271"},"vehicle_type_id":"4","last_reported":1741187413,"current_range_meters":12400,"station_id":"ce4bh192rcd13ifvqdb0","pricing_plan_id":"cebpf4jnsgd1na2vs0mg"},{"bike_id":"13ad65d1-9480-4388-bea9-80b92b227e67","system_id":"levelo_inurba_marseille","lat":43.32482,"lon":5.36566,"is_reserved":false,"is_disabled":false,"rental_uris":{"android":"levelo://app?vid=13ad65d1-9480-4388-bea9-80b92b227e67","ios":"levelo://app?vid=13ad65d1-9480-4388-bea9-80b92b227e67"},"vehicle_type_id":"4","last_reported":1741187413,"current_range_meters":12800,"station_id":"ce4bhs12rcd13ifvqhvg","pricing_plan_id":"cebpf4jnsgd1na2vs0mg"},{"bike_id":"46109157-9c21-4fe5-ade5-4c2626d8cd05","system_id":"levelo_inurba_marseille","lat":43.26803,"lon":5.40276,"is_reserved":false,"is_disabled":false,"rental_uris":{"android":"levelo://app?vid=46109157-9c21-4fe5-ade5-4c2626d8cd05","ios":"levelo://app?vid=46109157-9c21-4fe5-ade5-4c2626d8cd05"},"vehicle_type_id":"4","last_reported":1741187413,"current_range_meters":13600,"station_id":"ce501612rcd8frsf0b60","pricing_plan_id":"cebpf4jnsgd1na2vs0mg"},{"bike_id":"d0b388b3-1d32-4763-9245-525e3c3d61c8","system_id":"levelo_inurba_marseille","lat":43.28845,"lon":5.35887,"is_reserved":false,"is_disabled":false,"rental_uris":{"android":"levelo://app?vid=d0b388b3-1d32-4763-9245-525e3c3d61c8","ios":"levelo://app?vid=d0b388b3-1d32-4763-9245-525e3c3d61c8"},"vehicle_type_id":"4","last_reported":1741187413,"current_range_meters":13600,"station_id":"ce4bhb12rcd13ifvqem0","pricing_plan_id":"cebpf4jnsgd1na2vs0mg"},{"bike_id":"11fe9f17-96bb-4c3e-a194-89b161d7eded","system_id":"levelo_inurba_marseille","lat":43.26566,"lon":5.37292,"is_reserved":false,"is_disabled":false,"rental_uris":{"android":"levelo://app?vid=11fe9f17-96bb-4c3e-a194-89b161d7eded","ios":"levelo://app?vid=11fe9f17-96bb-4c3e-a194-89b161d7eded"},"vehicle_type_id":"4","last_reported":1741187413,"current_range_meters":13600,"station_id":"ce4bhg12rcd13ifvqf70","pricing_plan_id":"cebpf4jnsgd1na2vs0mg"},{"bike_id":"fa98af60-ad58-4ccc-a5a0-6ebd1ae22394","system_id":"levelo_inurba_marseille","lat":43.28108,"lon":5.37841,"is_reserved":false,"is_disabled":false,"rental_uris":{"android":"levelo://app?vid=fa98af60-ad58-4ccc-a5a0-6ebd1ae22394","ios":"levelo://app?vid=fa98af60-ad58-4ccc-a5a0-6ebd1ae22394"},"vehicle_type_id":"4","last_reported":1741187413,"current_range_meters":13600,"station_id":"ce4bha12rcd13ifvqee0","pricing_plan_id":"cebpf4jnsgd1na2vs0mg"},{"bike_id":"baf37027-a823-4946-a35c-ef3a6d116b0b","system_id":"levelo_inurba_marseille","lat":43.28265,"lon":5.35078,"is_reserved":false,"is_disabled":false,"rental_uris":{"android":"levelo://app?vid=baf37027-a823-4946-a35c-ef3a6d116b0b","ios":"levelo://app?vid=baf37027-a823-4946-a35c-ef3a6d116b0b"},"vehicle_type_id":"4","last_reported":1741187413,"current_range_meters":13600,"station_id":"ce4bhbp2rcd13ifvqerg","pricing_plan_id":"cebpf4jnsgd1na2vs0mg"},{"bike_id":"5cb3e475-d1c3-4bea-bb58-71ceaca27c06","system_id":"levelo_inurba_marseille","lat":43.2842,"lon":5.3499,"is_reserved":false,"is_disabled":false,"rental_uris":{"android":"levelo://app?vid=5cb3e475-d1c3-4bea-bb58-71ceaca27c06","ios":"levelo://app?vid=5cb3e475-d1c3-4bea-bb58-71ceaca27c06"},"vehicle_type_id":"4","last_reported":1741187413,"current_range_meters":14000,"station_id":"ce4bhbh2rcd13ifvqepg","pricing_plan_id":"cebpf4jnsgd1na2vs0mg"},{"bike_id":"87e734ab-3494-4550-9988-36cd89eb61b2","system_id":"levelo_inurba_marseille","lat":43.30141,"lon":5.37423,"is_reserved":false,"is_disabled":false,"rental_uris":{"android":"levelo://app?vid=87e734ab-3494-4550-9988-36cd89eb61b2","ios":"levelo://app?vid=87e734ab-3494-4550-9988-36cd89eb61b2"},"vehicle_type_id":"4","last_reported":1741187413,"current_range_meters":14000,"station_id":"ce4bgs92rcd13ifvqcc0","pricing_plan_id":"cebpf4jnsgd1na2vs0mg"},{"bike_id":"28423a58-f2e5-4826-accc-bf0af1fcf4d6","system_id":"levelo_inurba_marseille","lat":43.30267,"lon":5.40069,"is_reserved":false,"is_disabled":false,"rental_uris":{"android":"levelo://app?vid=28423a58-f2e5-4826-accc-bf0af1fcf4d6","ios":"levelo://app?vid=28423a58-f2e5-4826-accc-bf0af1fcf4d6"},"vehicle_type_id":"4","last_reported":1741187413,"current_range_meters":14000,"station_id":"ce4bgvh2rcd13ifvqcs0","pricing_plan_id":"cebpf4jnsgd1na2vs0mg"},{"bike_id":"1c5abfe2-759c-4969-9272-ab9b7ad0d7df","system_id":"levelo_inurba_marseille","lat":43.27212,"lon":5.39192,"is_reserved":false,"is_disabled":false,"rental_uris":{"android":"levelo://app?vid=1c5abfe2-759c-4969-9272-ab9b7ad0d7df","ios":"levelo://app?vid=1c5abfe2-759c-4969-9272-ab9b7ad0d7df"},"vehicle_type_id":"4","last_reported":1741187413,"current_range_meters":14000,"station_id":"ce4bhhp2rcd13ifvqfm0","pricing_plan_id":"cebpf4jnsgd1na2vs0mg"},{"bike_id":"d1a039fe-c75c-4f51-8b31-ef96bba420a5","system_id":"levelo_inurba_marseille","lat":43.28672,"lon":5.36365,"is_reserved":false,"is_disabled":false,"rental_uris":{"android":"levelo://app?vid=d1a039fe-c75c-4f51-8b31-ef96bba420a5","ios":"levelo://app?vid=d1a039fe-c75c-4f51-8b31-ef96bba420a5"},"vehicle_type_id":"4","last_reported":1741187413,"current_range_meters":14400,"station_id":"ce4bhah2rcd13ifvqej0","pricing_plan_id":"cebpf4jnsgd1na2vs0mg"},{"bike_id":"1983b3f7-7629-4d00-8892-6029c2ae23d2","system_id":"levelo_inurba_marseille","lat":43.28003,"lon":5.400195,"is_reserved":false,"is_disabled":false,"rental_uris":{"android":"levelo://app?vid=1983b3f7-7629-4d00-8892-6029c2ae23d2","ios":"levelo://app?vid=1983b3f7-7629-4d00-8892-6029c2ae23d2"},"vehicle_type_id":"4","last_reported":1741187413,"current_range_meters":12400,"station_id":"ce4bho92rcd13ifvqh4g","pricing_plan_id":"cebpf4jnsgd1na2vs0mg"},{"bike_id":"0dbad763-3a14-4b0c-8cd0-7cb3ab196e97","system_id":"levelo_inurba_marseille","lat":43.26225,"lon":5.4047,"is_reserved":false,"is_disabled":false,"rental_uris":{"android":"levelo://app?vid=0dbad763-3a14-4b0c-8cd0-7cb3ab196e97","ios":"levelo://app?vid=0dbad763-3a14-4b0c-8cd0-7cb3ab196e97"},"vehicle_type_id":"4","last_reported":1741187413,"current_range_meters":14400,"station_id":"ce4bhmh2rcd13ifvqgmg","pricing_plan_id":"cebpf4jnsgd1na2vs0mg"},{"bike_id":"1cfc9c5f-54af-40e6-8245-4f580f3f70f1","system_id":"levelo_inurba_marseille","lat":43.33023,"lon":5.39044,"is_reserved":false,"is_disabled":false,"rental_uris":{"android":"levelo://app?vid=1cfc9c5f-54af-40e6-8245-4f580f3f70f1","ios":"levelo://app?vid=1cfc9c5f-54af-40e6-8245-4f580f3f70f1"},"vehicle_type_id":"4","last_reported":1741187413,"current_range_meters":14400,"station_id":"ce4bhr92rcd13ifvqhrg","pricing_plan_id":"cebpf4jnsgd1na2vs0mg"},{"bike_id":"19707f4e-57a0-487d-a0fd-b6e158a12fa5","system_id":"levelo_inurba_marseille","lat":43.28106,"lon":5.37845,"is_reserved":false,"is_disabled":false,"rental_uris":{"android":"levelo://app?vid=19707f4e-57a0-487d-a0fd-b6e158a12fa5","ios":"levelo://app?vid=19707f4e-57a0-487d-a0fd-b6e158a12fa5"},"vehicle_type_id":"4","last_reported":1741187413,"current_range_meters":14400,"station_id":"ce4bha12rcd13ifvqee0","pricing_plan_id":"cebpf4jnsgd1na2vs0mg"},{"bike_id":"06bf8994-6acc-4fd2-8b0a-86f06c65da24","system_id":"levelo_inurba_marseille","lat":43.29843,"lon":5.36263,"is_reserved":false,"is_disabled":false,"rental_uris":{"android":"levelo://app?vid=06bf8994-6acc-4fd2-8b0a-86f06c65da24","ios":"levelo://app?vid=06bf8994-6acc-4fd2-8b0a-86f06c65da24"},"vehicle_type_id":"4","last_reported":1741187413,"current_range_meters":14400,"station_id":"ce4bgj92rcd13ifvqbe0","pricing_plan_id":"cebpf4jnsgd1na2vs0mg"},{"bike_id":"c297f3e1-86e0-4f43-8d90-827f404a1ecb","system_id":"levelo_inurba_marseille","lat":43.29438,"lon":5.39761,"is_reserved":false,"is_disabled":false,"rental_uris":{"android":"levelo://app?vid=c297f3e1-86e0-4f43-8d90-827f404a1ecb","ios":"levelo://app?vid=c297f3e1-86e0-4f43-8d90-827f404a1ecb"},"vehicle_type_id":"4","last_reported":1741187413,"current_range_meters":11200,"station_id":"ce4bh3h2rcd13ifvqdo0","pricing_plan_id":"cebpf4jnsgd1na2vs0mg"},{"bike_id":"5cccd927-e86b-4020-9894-5f1ad718832a","system_id":"levelo_inurba_marseille","lat":43.28422,"lon":5.34985,"is_reserved":false,"is_disabled":false,"rental_uris":{"android":"levelo://app?vid=5cccd927-e86b-4020-9894-5f1ad718832a","ios":"levelo://app?vid=5cccd927-e86b-4020-9894-5f1ad718832a"},"vehicle_type_id":"4","last_reported":1741187413,"current_range_meters":14800,"station_id":"ce4bhbh2rcd13ifvqepg","pricing_plan_id":"cebpf4jnsgd1na2vs0mg"},{"bike_id":"003b0d00-f6ae-4d0e-ac63-6d1c58e0c065","system_id":"levelo_inurba_marseille","lat":43.28365,"lon":5.38624,"is_reserved":false,"is_disabled":false,"rental_uris":{"android":"levelo://app?vid=003b0d00-f6ae-4d0e-ac63-6d1c58e0c065","ios":"levelo://app?vid=003b0d00-f6ae-4d0e-ac63-6d1c58e0c065"},"vehicle_type_id":"4","last_reported":1741187413,"current_range_meters":14800,"station_id":"ce4bh492rcd13ifvqdvg","pricing_plan_id":"cebpf4jnsgd1na2vs0mg"},{"bike_id":"79181f77-a23e-42f3-9d15-cbde281544fc","system_id":"levelo_inurba_marseille","lat":43.27371,"lon":5.36256,"is_reserved":false,"is_disabled":false,"rental_uris":{"android":"levelo://app?vid=79181f77-a23e-42f3-9d15-cbde281544fc","ios":"levelo://app?vid=79181f77-a23e-42f3-9d15-cbde281544fc"},"vehicle_type_id":"4","last_reported":1741187413,"current_range_meters":14800,"station_id":"ce4bhbh2rcd13ifvqeo0","pricing_plan_id":"cebpf4jnsgd1na2vs0mg"},{"bike_id":"070f0b28-933a-491f-9593-eed632e613d2","system_id":"levelo_inurba_marseille","lat":43.33734,"lon":5.39196,"is_reserved":false,"is_disabled":false,"rental_uris":{"android":"levelo://app?vid=070f0b28-933a-491f-9593-eed632e613d2","ios":"levelo://app?vid=070f0b28-933a-491f-9593-eed632e613d2"},"vehicle_type_id":"4","last_reported":1741187413,"current_range_meters":15200,"station_id":"ce4bhr92rcd13ifvqhsg","pricing_plan_id":"cebpf4jnsgd1na2vs0mg"},{"bike_id":"8c13b638-f777-4c1f-9565-5f03698141cb","system_id":"levelo_inurba_marseille","lat":43.30106,"lon":5.37447,"is_reserved":false,"is_disabled":false,"rental_uris":{"android":"levelo://app?vid=8c13b638-f777-4c1f-9565-5f03698141cb","ios":"levelo://app?vid=8c13b638-f777-4c1f-9565-5f03698141cb"},"vehicle_type_id":"4","last_reported":1741187413,"current_range_meters":15200,"station_id":"ce4bgs92rcd13ifvqcc0","pricing_plan_id":"cebpf4jnsgd1na2vs0mg"},{"bike_id":"7f1905bf-da4d-4f13-af14-c5d46804e585","system_id":"levelo_inurba_marseille","lat":43.2319,"lon":5.35545,"is_reserved":false,"is_disabled":false,"rental_uris":{"android":"levelo://app?vid=7f1905bf-da4d-4f13-af14-c5d46804e585","ios":"levelo://app?vid=7f1905bf-da4d-4f13-af14-c5d46804e585"},"vehicle_type_id":"4","last_reported":1741187413,"current_range_meters":15200,"station_id":"ce4bhu92rcd13ifvqi70","pricing_plan_id":"cebpf4jnsgd1na2vs0mg"},{"bike_id":"0b3cb245-c1ab-4265-9e03-36f6b9bfa685","system_id":"levelo_inurba_marseille","lat":43.23058,"lon":5.35496,"is_reserved":false,"is_disabled":false,"rental_uris":{"android":"levelo://app?vid=0b3cb245-c1ab-4265-9e03-36f6b9bfa685","ios":"levelo://app?vid=0b3cb245-c1ab-4265-9e03-36f6b9bfa685"},"vehicle_type_id":"4","last_reported":1741187413,"current_range_meters":15200,"station_id":"cpo3342slgdg3j2ifvpg","pricing_plan_id":"cebpf4jnsgd1na2vs0mg"},{"bike_id":"654c41e3-6bc1-44b2-bbc8-9175276856fe","system_id":"levelo_inurba_marseille","lat":43.29222,"lon":5.36086,"is_reserved":false,"is_disabled":false,"rental_uris":{"android":"levelo://app?vid=654c41e3-6bc1-44b2-bbc8-9175276856fe","ios":"levelo://app?vid=654c41e3-6bc1-44b2-bbc8-9175276856fe"},"vehicle_type_id":"4","last_reported":1741187413,"current_range_meters":15200,"station_id":"ce4bhbh2rcd13ifvqeqg","pricing_plan_id":"cebpf4jnsgd1na2vs0mg"},{"bike_id":"b7d46c19-8fbd-4d11-994c-f336dd0acbae","system_id":"levelo_inurba_marseille","lat":43.24999,"lon":5.38937,"is_reserved":false,"is_disabled":false,"rental_uris":{"android":"levelo://app?vid=b7d46c19-8fbd-4d11-994c-f336dd0acbae","ios":"levelo://app?vid=b7d46c19-8fbd-4d11-994c-f336dd0acbae"},"vehicle_type_id":"4","last_reported":1741187413,"current_range_meters":16000,"station_id":"ce4bhgp2rcd13ifvqfd0","pricing_plan_id":"cebpf4jnsgd1na2vs0mg"},{"bike_id":"4bb42552-cd04-45db-9eaf-6c621aac111a","system_id":"levelo_inurba_marseille","lat":43.26507,"lon":5.39537,"is_reserved":false,"is_disabled":false,"rental_uris":{"android":"levelo://app?vid=4bb42552-cd04-45db-9eaf-6c621aac111a","ios":"levelo://app?vid=4bb42552-cd04-45db-9eaf-6c621aac111a"},"vehicle_type_id":"4","last_reported":1741187413,"current_range_meters":16000,"station_id":"ce4bhi12rcd13ifvqfq0","pricing_plan_id":"cebpf4jnsgd1na2vs0mg"},{"bike_id":"ba9d4a82-0ce6-487f-bc4b-86c56883a8c8","system_id":"levelo_inurba_marseille","lat":43.31223,"lon":5.36897,"is_reserved":false,"is_disabled":false,"rental_uris":{"android":"levelo://app?vid=ba9d4a82-0ce6-487f-bc4b-86c56883a8c8","ios":"levelo://app?vid=ba9d4a82-0ce6-487f-bc4b-86c56883a8c8"},"vehicle_type_id":"4","last_reported":1741187413,"current_range_meters":16000,"station_id":"ce4bgl92rcd13ifvqbq0","pricing_plan_id":"cebpf4jnsgd1na2vs0mg"},{"bike_id":"56fcd40d-750c-416a-a422-8823a84cdae6","system_id":"levelo_inurba_marseille","lat":43.23153,"lon":5.43749,"is_reserved":false,"is_disabled":false,"rental_uris":{"android":"levelo://app?vid=56fcd40d-750c-416a-a422-8823a84cdae6","ios":"levelo://app?vid=56fcd40d-750c-416a-a422-8823a84cdae6"},"vehicle_type_id":"4","last_reported":1741187413,"current_range_meters":16000,"station_id":"ce4bhmp2rcd13ifvqgog","pricing_plan_id":"cebpf4jnsgd1na2vs0mg"},{"bike_id":"42f3fd83-d5cd-45ba-afcf-0a822294d812","system_id":"levelo_inurba_marseille","lat":43.28575,"lon":5.43,"is_reserved":false,"is_disabled":true,"rental_uris":{"android":"levelo://app?vid=42f3fd83-d5cd-45ba-afcf-0a822294d812","ios":"levelo://app?vid=42f3fd83-d5cd-45ba-afcf-0a822294d812"},"vehicle_type_id":"4","last_reported":1741187413,"current_range_meters":16000,"station_id":"","pricing_plan_id":"cebpf4jnsgd1na2vs0mg"},{"bike_id":"5981e5fd-8ca3-4e17-921d-10437ee17d35","system_id":"levelo_inurba_marseille","lat":43.24169,"lon":5.36382,"is_reserved":false,"is_disabled":false,"rental_uris":{"android":"levelo://app?vid=5981e5fd-8ca3-4e17-921d-10437ee17d35","ios":"levelo://app?vid=5981e5fd-8ca3-4e17-921d-10437ee17d35"},"vehicle_type_id":"4","last_reported":1741187413,"current_range_meters":16000,"station_id":"cpo36qri1sfpv3e86is0","pricing_plan_id":"cebpf4jnsgd1na2vs0mg"},{"bike_id":"b4dbc2f8-3715-4259-a1ce-8afae83e3cdc","system_id":"levelo_inurba_marseille","lat":43.30477,"lon":5.37908,"is_reserved":false,"is_disabled":false,"rental_uris":{"android":"levelo://app?vid=b4dbc2f8-3715-4259-a1ce-8afae83e3cdc","ios":"levelo://app?vid=b4dbc2f8-3715-4259-a1ce-8afae83e3cdc"},"vehicle_type_id":"4","last_reported":1741187413,"current_range_meters":16000,"station_id":"ce4bgup2rcd13ifvqcn0","pricing_plan_id":"cebpf4jnsgd1na2vs0mg"},{"bike_id":"c5e46d82-d9a0-452c-a125-bbbee3eb847e","system_id":"levelo_inurba_marseille","lat":43.28257,"lon":5.35068,"is_reserved":false,"is_disabled":false,"rental_uris":{"android":"levelo://app?vid=c5e46d82-d9a0-452c-a125-bbbee3eb847e","ios":"levelo://app?vid=c5e46d82-d9a0-452c-a125-bbbee3eb847e"},"vehicle_type_id":"4","last_reported":1741187413,"current_range_meters":16000,"station_id":"ce4bhbp2rcd13ifvqerg","pricing_plan_id":"cebpf4jnsgd1na2vs0mg"},{"bike_id":"9239e917-7944-4cc1-9a54-faeffd453d87","system_id":"levelo_inurba_marseille","lat":43.3081,"lon":5.38146,"is_reserved":false,"is_disabled":false,"rental_uris":{"android":"levelo://app?vid=9239e917-7944-4cc1-9a54-faeffd453d87","ios":"levelo://app?vid=9239e917-7944-4cc1-9a54-faeffd453d87"},"vehicle_type_id":"4","last_reported":1741187413,"current_range_meters":15200,"station_id":"ce4bgt12rcd13ifvqce0","pricing_plan_id":"cebpf4jnsgd1na2vs0mg"},{"bike_id":"b6978f21-4b11-4458-acc7-6a1e9986315d","system_id":"levelo_inurba_marseille","lat":43.31758,"lon":5.39032,"is_reserved":false,"is_disabled":false,"rental_uris":{"android":"levelo://app?vid=b6978f21-4b11-4458-acc7-6a1e9986315d","ios":"levelo://app?vid=b6978f21-4b11-4458-acc7-6a1e9986315d"},"vehicle_type_id":"4","last_reported":1741187413,"current_range_meters":16000,"station_id":"ce4bhqp2rcd13ifvqhng","pricing_plan_id":"cebpf4jnsgd1na2vs0mg"},{"bike_id":"d97f14b8-2d2a-4a64-ba01-18ddfaf814ad","system_id":"levelo_inurba_marseille","lat":43.29611,"lon":5.38122,"is_reserved":false,"is_disabled":false,"rental_uris":{"android":"levelo://app?vid=d97f14b8-2d2a-4a64-ba01-18ddfaf814ad","ios":"levelo://app?vid=d97f14b8-2d2a-4a64-ba01-18ddfaf814ad"},"vehicle_type_id":"4","last_reported":1741187413,"current_range_meters":16000,"station_id":"ce4bgl12rcd13ifvqbo0","pricing_plan_id":"cebpf4jnsgd1na2vs0mg"},{"bike_id":"4592643b-7a1c-4915-84d8-1a69d6644d03","system_id":"levelo_inurba_marseille","lat":43.2846,"lon":5.35887,"is_reserved":false,"is_disabled":false,"rental_uris":{"android":"levelo://app?vid=4592643b-7a1c-4915-84d8-1a69d6644d03","ios":"levelo://app?vid=4592643b-7a1c-4915-84d8-1a69d6644d03"},"vehicle_type_id":"4","last_reported":1741187413,"current_range_meters":16000,"station_id":"ce4bhah2rcd13ifvqei0","pricing_plan_id":"cebpf4jnsgd1na2vs0mg"},{"bike_id":"991702ae-b5da-4d98-8dd1-584e3b749add","system_id":"levelo_inurba_marseille","lat":43.27371,"lon":5.36262,"is_reserved":false,"is_disabled":false,"rental_uris":{"android":"levelo://app?vid=991702ae-b5da-4d98-8dd1-584e3b749add","ios":"levelo://app?vid=991702ae-b5da-4d98-8dd1-584e3b749add"},"vehicle_type_id":"4","last_reported":1741187413,"current_range_meters":16400,"station_id":"ce4bhbh2rcd13ifvqeo0","pricing_plan_id":"cebpf4jnsgd1na2vs0mg"},{"bike_id":"81844f9a-17f3-4d59-a953-83eabae10c97","system_id":"levelo_inurba_marseille","lat":43.30551,"lon":5.36539,"is_reserved":false,"is_disabled":false,"rental_uris":{"android":"levelo://app?vid=81844f9a-17f3-4d59-a953-83eabae10c97","ios":"levelo://app?vid=81844f9a-17f3-4d59-a953-83eabae10c97"},"vehicle_type_id":"4","last_reported":1741187413,"current_range_meters":16400,"station_id":"ce4bgs12rcd13ifvqcag","pricing_plan_id":"cebpf4jnsgd1na2vs0mg"},{"bike_id":"71fb48e4-ded9-426f-b698-a9bea73cfef5","system_id":"levelo_inurba_marseille","lat":43.28264,"lon":5.35058,"is_reserved":false,"is_disabled":false,"rental_uris":{"android":"levelo://app?vid=71fb48e4-ded9-426f-b698-a9bea73cfef5","ios":"levelo://app?vid=71fb48e4-ded9-426f-b698-a9bea73cfef5"},"vehicle_type_id":"4","last_reported":1741187413,"current_range_meters":16400,"station_id":"ce4bhbp2rcd13ifvqerg","pricing_plan_id":"cebpf4jnsgd1na2vs0mg"},{"bike_id":"48dd4a66-c4e0-4334-8dbe-e71a1ce9eb4d","system_id":"levelo_inurba_marseille","lat":43.28101,"lon":5.37817,"is_reserved":false,"is_disabled":false,"rental_uris":{"android":"levelo://app?vid=48dd4a66-c4e0-4334-8dbe-e71a1ce9eb4d","ios":"levelo://app?vid=48dd4a66-c4e0-4334-8dbe-e71a1ce9eb4d"},"vehicle_type_id":"4","last_reported":1741187413,"current_range_meters":16400,"station_id":"ce4bha12rcd13ifvqee0","pricing_plan_id":"cebpf4jnsgd1na2vs0mg"},{"bike_id":"978b13d4-980e-49e6-9bb8-17826957319b","system_id":"levelo_inurba_marseille","lat":43.28935,"lon":5.39645,"is_reserved":false,"is_disabled":false,"rental_uris":{"android":"levelo://app?vid=978b13d4-980e-49e6-9bb8-17826957319b","ios":"levelo://app?vid=978b13d4-980e-49e6-9bb8-17826957319b"},"vehicle_type_id":"4","last_reported":1741187413,"current_range_meters":16400,"station_id":"ce4bh3h2rcd13ifvqdn0","pricing_plan_id":"cebpf4jnsgd1na2vs0mg"},{"bike_id":"9285d202-c844-4801-be94-ca8011f1a499","system_id":"levelo_inurba_marseille","lat":43.28665,"lon":5.36351,"is_reserved":false,"is_disabled":false,"rental_uris":{"android":"levelo://app?vid=9285d202-c844-4801-be94-ca8011f1a499","ios":"levelo://app?vid=9285d202-c844-4801-be94-ca8011f1a499"},"vehicle_type_id":"4","last_reported":1741187413,"current_range_meters":16400,"station_id":"ce4bhah2rcd13ifvqej0","pricing_plan_id":"cebpf4jnsgd1na2vs0mg"},{"bike_id":"52567f95-9aa8-40c9-b380-10dde0243b3d","system_id":"levelo_inurba_marseille","lat":43.3204,"lon":5.41556,"is_reserved":false,"is_disabled":false,"rental_uris":{"android":"levelo://app?vid=52567f95-9aa8-40c9-b380-10dde0243b3d","ios":"levelo://app?vid=52567f95-9aa8-40c9-b380-10dde0243b3d"},"vehicle_type_id":"4","last_reported":1741187413,"current_range_meters":16400,"station_id":"ce4bhq92rcd13ifvqhkg","pricing_plan_id":"cebpf4jnsgd1na2vs0mg"},{"bike_id":"764d29c0-acc6-4b3d-94e6-686cf2b240dc","system_id":"levelo_inurba_marseille","lat":43.24177,"lon":5.39728,"is_reserved":false,"is_disabled":false,"rental_uris":{"android":"levelo://app?vid=764d29c0-acc6-4b3d-94e6-686cf2b240dc","ios":"levelo://app?vid=764d29c0-acc6-4b3d-94e6-686cf2b240dc"},"vehicle_type_id":"4","last_reported":1741187413,"current_range_meters":16400,"station_id":"ce4bhn12rcd13ifvqgpg","pricing_plan_id":"cebpf4jnsgd1na2vs0mg"},{"bike_id":"67697e82-e77c-40ad-88be-2627f0ebc05d","system_id":"levelo_inurba_marseille","lat":43.29968,"lon":5.37171,"is_reserved":false,"is_disabled":false,"rental_uris":{"android":"levelo://app?vid=67697e82-e77c-40ad-88be-2627f0ebc05d","ios":"levelo://app?vid=67697e82-e77c-40ad-88be-2627f0ebc05d"},"vehicle_type_id":"4","last_reported":1741187413,"current_range_meters":16400,"station_id":"ce4bgr92rcd13ifvqc7g","pricing_plan_id":"cebpf4jnsgd1na2vs0mg"},{"bike_id":"ff7d0048-50ee-45d1-b2bf-4dee74129e9f","system_id":"levelo_inurba_marseille","lat":43.28257,"lon":5.35071,"is_reserved":false,"is_disabled":false,"rental_uris":{"android":"levelo://app?vid=ff7d0048-50ee-45d1-b2bf-4dee74129e9f","ios":"levelo://app?vid=ff7d0048-50ee-45d1-b2bf-4dee74129e9f"},"vehicle_type_id":"4","last_reported":1741187413,"current_range_meters":16400,"station_id":"ce4bhbp2rcd13ifvqerg","pricing_plan_id":"cebpf4jnsgd1na2vs0mg"},{"bike_id":"42a4231a-dbb6-4162-9144-cc047eae9952","system_id":"levelo_inurba_marseille","lat":43.30298,"lon":5.39213,"is_reserved":false,"is_disabled":false,"rental_uris":{"android":"levelo://app?vid=42a4231a-dbb6-4162-9144-cc047eae9952","ios":"levelo://app?vid=42a4231a-dbb6-4162-9144-cc047eae9952"},"vehicle_type_id":"4","last_reported":1741187413,"current_range_meters":16800,"station_id":"ce4bgkh2rcd13ifvqbk0","pricing_plan_id":"cebpf4jnsgd1na2vs0mg"},{"bike_id":"b08260d8-66de-4f9a-a010-a543cfbb8c80","system_id":"levelo_inurba_marseille","lat":43.32546,"lon":5.41429,"is_reserved":false,"is_disabled":false,"rental_uris":{"android":"levelo://app?vid=b08260d8-66de-4f9a-a010-a543cfbb8c80","ios":"levelo://app?vid=b08260d8-66de-4f9a-a010-a543cfbb8c80"},"vehicle_type_id":"4","last_reported":1741187413,"current_range_meters":16800,"station_id":"ce4bhq12rcd13ifvqhhg","pricing_plan_id":"cebpf4jnsgd1na2vs0mg"},{"bike_id":"5165c282-8d33-421b-83b7-a03128bc265a","system_id":"levelo_inurba_marseille","lat":43.258376,"lon":5.39431,"is_reserved":false,"is_disabled":false,"rental_uris":{"android":"levelo://app?vid=5165c282-8d33-421b-83b7-a03128bc265a","ios":"levelo://app?vid=5165c282-8d33-421b-83b7-a03128bc265a"},"vehicle_type_id":"4","last_reported":1741187413,"current_range_meters":16800,"station_id":"ce4bhip2rcd13ifvqft0","pricing_plan_id":"cebpf4jnsgd1na2vs0mg"},{"bike_id":"0f114fdb-9c5d-49d2-899d-12028997b369","system_id":"levelo_inurba_marseille","lat":43.25583,"lon":5.38245,"is_reserved":false,"is_disabled":false,"rental_uris":{"android":"levelo://app?vid=0f114fdb-9c5d-49d2-899d-12028997b369","ios":"levelo://app?vid=0f114fdb-9c5d-49d2-899d-12028997b369"},"vehicle_type_id":"4","last_reported":1741187413,"current_range_meters":16800,"station_id":"ce4bhih2rcd13ifvqfs0","pricing_plan_id":"cebpf4jnsgd1na2vs0mg"},{"bike_id":"655a49f8-02d1-4030-87ea-8826db6ca1de","system_id":"levelo_inurba_marseille","lat":43.24075,"lon":5.37767,"is_reserved":false,"is_disabled":false,"rental_uris":{"android":"levelo://app?vid=655a49f8-02d1-4030-87ea-8826db6ca1de","ios":"levelo://app?vid=655a49f8-02d1-4030-87ea-8826db6ca1de"},"vehicle_type_id":"4","last_reported":1741187413,"current_range_meters":17200,"station_id":"ce4bhnp2rcd13ifvqgvg","pricing_plan_id":"cebpf4jnsgd1na2vs0mg"},{"bike_id":"10c4fdc1-57cc-4428-afd3-4b74c20d0075","system_id":"levelo_inurba_marseille","lat":43.27373,"lon":5.36262,"is_reserved":false,"is_disabled":false,"rental_uris":{"android":"levelo://app?vid=10c4fdc1-57cc-4428-afd3-4b74c20d0075","ios":"levelo://app?vid=10c4fdc1-57cc-4428-afd3-4b74c20d0075"},"vehicle_type_id":"4","last_reported":1741187413,"current_range_meters":17200,"station_id":"ce4bhbh2rcd13ifvqeo0","pricing_plan_id":"cebpf4jnsgd1na2vs0mg"},{"bike_id":"2b2c49b9-e623-48be-b04b-2def6bdaea35","system_id":"levelo_inurba_marseille","lat":43.28265,"lon":5.35064,"is_reserved":false,"is_disabled":false,"rental_uris":{"android":"levelo://app?vid=2b2c49b9-e623-48be-b04b-2def6bdaea35","ios":"levelo://app?vid=2b2c49b9-e623-48be-b04b-2def6bdaea35"},"vehicle_type_id":"4","last_reported":1741187413,"current_range_meters":17200,"station_id":"ce4bhbp2rcd13ifvqerg","pricing_plan_id":"cebpf4jnsgd1na2vs0mg"},{"bike_id":"666ce691-c1f8-4cc8-b009-85bbcb5f4011","system_id":"levelo_inurba_marseille","lat":43.296186,"lon":5.371634,"is_reserved":false,"is_disabled":false,"rental_uris":{"android":"levelo://app?vid=666ce691-c1f8-4cc8-b009-85bbcb5f4011","ios":"levelo://app?vid=666ce691-c1f8-4cc8-b009-85bbcb5f4011"},"vehicle_type_id":"4","last_reported":1741187413,"current_range_meters":17200,"station_id":"ce4bgnh2rcd13ifvqc0g","pricing_plan_id":"cebpf4jnsgd1na2vs0mg"},{"bike_id":"17234848-99d6-4e0b-8e2f-fb24056a43f3","system_id":"levelo_inurba_marseille","lat":43.29929,"lon":5.36519,"is_reserved":false,"is_disabled":false,"rental_uris":{"android":"levelo://app?vid=17234848-99d6-4e0b-8e2f-fb24056a43f3","ios":"levelo://app?vid=17234848-99d6-4e0b-8e2f-fb24056a43f3"},"vehicle_type_id":"4","last_reported":1741187413,"current_range_meters":17200,"station_id":"ce4bgm92rcd13ifvqbr0","pricing_plan_id":"cebpf4jnsgd1na2vs0mg"},{"bike_id":"c61c7642-c45b-406c-8d87-5c99c023d3aa","system_id":"levelo_inurba_marseille","lat":43.27892,"lon":5.37996,"is_reserved":false,"is_disabled":false,"rental_uris":{"android":"levelo://app?vid=c61c7642-c45b-406c-8d87-5c99c023d3aa","ios":"levelo://app?vid=c61c7642-c45b-406c-8d87-5c99c023d3aa"},"vehicle_type_id":"4","last_reported":1741187413,"current_range_meters":17200,"station_id":"ce4bhf92rcd13ifvqf50","pricing_plan_id":"cebpf4jnsgd1na2vs0mg"},{"bike_id":"61631f3e-8349-4ca2-9e9f-bf291304017a","system_id":"levelo_inurba_marseille","lat":43.31263,"lon":5.36837,"is_reserved":false,"is_disabled":false,"rental_uris":{"android":"levelo://app?vid=61631f3e-8349-4ca2-9e9f-bf291304017a","ios":"levelo://app?vid=61631f3e-8349-4ca2-9e9f-bf291304017a"},"vehicle_type_id":"4","last_reported":1741187413,"current_range_meters":17200,"station_id":"ce4bgl92rcd13ifvqbq0","pricing_plan_id":"cebpf4jnsgd1na2vs0mg"},{"bike_id":"4e45e371-a278-4780-b0b3-6acbfa1ca813","system_id":"levelo_inurba_marseille","lat":43.26936,"lon":5.40273,"is_reserved":false,"is_disabled":false,"rental_uris":{"android":"levelo://app?vid=4e45e371-a278-4780-b0b3-6acbfa1ca813","ios":"levelo://app?vid=4e45e371-a278-4780-b0b3-6acbfa1ca813"},"vehicle_type_id":"4","last_reported":1741187413,"current_range_meters":17200,"station_id":"cjm6bp8fraef2m0cb0m0","pricing_plan_id":"cebpf4jnsgd1na2vs0mg"},{"bike_id":"98a1abc3-601b-4576-b2df-57cfbfeb024d","system_id":"levelo_inurba_marseille","lat":43.28105,"lon":5.3784,"is_reserved":false,"is_disabled":false,"rental_uris":{"android":"levelo://app?vid=98a1abc3-601b-4576-b2df-57cfbfeb024d","ios":"levelo://app?vid=98a1abc3-601b-4576-b2df-57cfbfeb024d"},"vehicle_type_id":"4","last_reported":1741187413,"current_range_meters":17200,"station_id":"ce4bha12rcd13ifvqee0","pricing_plan_id":"cebpf4jnsgd1na2vs0mg"},{"bike_id":"fe1a7341-2fc5-4ea7-bf24-f405a6417599","system_id":"levelo_inurba_marseille","lat":43.29983,"lon":5.37097,"is_reserved":false,"is_disabled":false,"rental_uris":{"android":"levelo://app?vid=fe1a7341-2fc5-4ea7-bf24-f405a6417599","ios":"levelo://app?vid=fe1a7341-2fc5-4ea7-bf24-f405a6417599"},"vehicle_type_id":"4","last_reported":1741187413,"current_range_meters":17200,"station_id":"","pricing_plan_id":"cebpf4jnsgd1na2vs0mg"},{"bike_id":"dcaf439e-bb66-4af1-af61-3eb9cfdae167","system_id":"levelo_inurba_marseille","lat":43.30513,"lon":5.3654,"is_reserved":false,"is_disabled":false,"rental_uris":{"android":"levelo://app?vid=dcaf439e-bb66-4af1-af61-3eb9cfdae167","ios":"levelo://app?vid=dcaf439e-bb66-4af1-af61-3eb9cfdae167"},"vehicle_type_id":"4","last_reported":1741187413,"current_range_meters":18000,"station_id":"ce4bgs12rcd13ifvqcag","pricing_plan_id":"cebpf4jnsgd1na2vs0mg"},{"bike_id":"24f35e34-6df9-453e-84b6-79bcd3d6fed4","system_id":"levelo_inurba_marseille","lat":43.31176,"lon":5.38723,"is_reserved":false,"is_disabled":false,"rental_uris":{"android":"levelo://app?vid=24f35e34-6df9-453e-84b6-79bcd3d6fed4","ios":"levelo://app?vid=24f35e34-6df9-453e-84b6-79bcd3d6fed4"},"vehicle_type_id":"4","last_reported":1741187413,"current_range_meters":17600,"station_id":"ce4bgv12rcd13ifvqcp0","pricing_plan_id":"cebpf4jnsgd1na2vs0mg"},{"bike_id":"23dafe3d-e720-4d5c-b85a-3f10a163b4f0","system_id":"levelo_inurba_marseille","lat":43.26555,"lon":5.37291,"is_reserved":false,"is_disabled":false,"rental_uris":{"android":"levelo://app?vid=23dafe3d-e720-4d5c-b85a-3f10a163b4f0","ios":"levelo://app?vid=23dafe3d-e720-4d5c-b85a-3f10a163b4f0"},"vehicle_type_id":"4","last_reported":1741187413,"current_range_meters":17600,"station_id":"ce4bhg12rcd13ifvqf70","pricing_plan_id":"cebpf4jnsgd1na2vs0mg"},{"bike_id":"5c3ed66f-7620-412d-a698-d6bf1340a913","system_id":"levelo_inurba_marseille","lat":43.25011,"lon":5.38926,"is_reserved":false,"is_disabled":false,"rental_uris":{"android":"levelo://app?vid=5c3ed66f-7620-412d-a698-d6bf1340a913","ios":"levelo://app?vid=5c3ed66f-7620-412d-a698-d6bf1340a913"},"vehicle_type_id":"4","last_reported":1741187413,"current_range_meters":17600,"station_id":"ce4bhgp2rcd13ifvqfd0","pricing_plan_id":"cebpf4jnsgd1na2vs0mg"},{"bike_id":"6e710e0c-2d02-499b-b1e9-804dc56243ec","system_id":"levelo_inurba_marseille","lat":43.27816,"lon":5.4072,"is_reserved":false,"is_disabled":false,"rental_uris":{"android":"levelo://app?vid=6e710e0c-2d02-499b-b1e9-804dc56243ec","ios":"levelo://app?vid=6e710e0c-2d02-499b-b1e9-804dc56243ec"},"vehicle_type_id":"4","last_reported":1741187413,"current_range_meters":17600,"station_id":"ce4bhnh2rcd13ifvqgtg","pricing_plan_id":"cebpf4jnsgd1na2vs0mg"},{"bike_id":"ad20a21d-1b05-4400-bb20-a0e93e812ff9","system_id":"levelo_inurba_marseille","lat":43.26062,"lon":5.39396,"is_reserved":false,"is_disabled":false,"rental_uris":{"android":"levelo://app?vid=ad20a21d-1b05-4400-bb20-a0e93e812ff9","ios":"levelo://app?vid=ad20a21d-1b05-4400-bb20-a0e93e812ff9"},"vehicle_type_id":"4","last_reported":1741187413,"current_range_meters":17200,"station_id":"ce4bhh92rcd13ifvqfj0","pricing_plan_id":"cebpf4jnsgd1na2vs0mg"},{"bike_id":"c0b1e3a1-a8a3-46ef-a48d-2b0e4c6de36e","system_id":"levelo_inurba_marseille","lat":43.24661,"lon":5.38164,"is_reserved":false,"is_disabled":false,"rental_uris":{"android":"levelo://app?vid=c0b1e3a1-a8a3-46ef-a48d-2b0e4c6de36e","ios":"levelo://app?vid=c0b1e3a1-a8a3-46ef-a48d-2b0e4c6de36e"},"vehicle_type_id":"4","last_reported":1741187413,"current_range_meters":17600,"station_id":"ce4bhih2rcd13ifvqfr0","pricing_plan_id":"cebpf4jnsgd1na2vs0mg"},{"bike_id":"39829197-e7fa-4a7b-8457-54a193699155","system_id":"levelo_inurba_marseille","lat":43.27996,"lon":5.41664,"is_reserved":false,"is_disabled":false,"rental_uris":{"android":"levelo://app?vid=39829197-e7fa-4a7b-8457-54a193699155","ios":"levelo://app?vid=39829197-e7fa-4a7b-8457-54a193699155"},"vehicle_type_id":"4","last_reported":1741187413,"current_range_meters":16800,"station_id":"ce4bho12rcd13ifvqh1g","pricing_plan_id":"cebpf4jnsgd1na2vs0mg"},{"bike_id":"3cb5ea86-6a93-4c4e-b28e-6a5de00ceb0f","system_id":"levelo_inurba_marseille","lat":43.31337,"lon":5.36701,"is_reserved":false,"is_disabled":false,"rental_uris":{"android":"levelo://app?vid=3cb5ea86-6a93-4c4e-b28e-6a5de00ceb0f","ios":"levelo://app?vid=3cb5ea86-6a93-4c4e-b28e-6a5de00ceb0f"},"vehicle_type_id":"4","last_reported":1741187413,"current_range_meters":18000,"station_id":"ce4bgr92rcd13ifvqc6g","pricing_plan_id":"cebpf4jnsgd1na2vs0mg"},{"bike_id":"1e98662a-0739-40e9-84ff-da321615aaee","system_id":"levelo_inurba_marseille","lat":43.28678,"lon":5.38669,"is_reserved":false,"is_disabled":false,"rental_uris":{"android":"levelo://app?vid=1e98662a-0739-40e9-84ff-da321615aaee","ios":"levelo://app?vid=1e98662a-0739-40e9-84ff-da321615aaee"},"vehicle_type_id":"4","last_reported":1741187413,"current_range_meters":18000,"station_id":"ce4bh492rcd13ifvqdug","pricing_plan_id":"cebpf4jnsgd1na2vs0mg"},{"bike_id":"39b4b816-f862-4ea2-a386-1e041c43ef29","system_id":"levelo_inurba_marseille","lat":43.25938,"lon":5.40913,"is_reserved":false,"is_disabled":false,"rental_uris":{"android":"levelo://app?vid=39b4b816-f862-4ea2-a386-1e041c43ef29","ios":"levelo://app?vid=39b4b816-f862-4ea2-a386-1e041c43ef29"},"vehicle_type_id":"4","last_reported":1741187413,"current_range_meters":18000,"station_id":"ce4bhm92rcd13ifvqglg","pricing_plan_id":"cebpf4jnsgd1na2vs0mg"},{"bike_id":"e7e5715c-902e-40ee-b488-bf29fbf7adc6","system_id":"levelo_inurba_marseille","lat":43.30267,"lon":5.37766,"is_reserved":false,"is_disabled":false,"rental_uris":{"android":"levelo://app?vid=e7e5715c-902e-40ee-b488-bf29fbf7adc6","ios":"levelo://app?vid=e7e5715c-902e-40ee-b488-bf29fbf7adc6"},"vehicle_type_id":"4","last_reported":1741187413,"current_range_meters":18000,"station_id":"ce4bguh2rcd13ifvqcj0","pricing_plan_id":"cebpf4jnsgd1na2vs0mg"},