{"last_updated":1693947954,"ttl":30,"version":"2.2","data":{"bikes":[{"bike_id":"9980e5f8-ae20-4af0-b942-f01c410b13fe","system_id":"levelo_inurba_marseille","lat":43.312239,"lon":5.368562,"is_reserved":false,"is_disabled":false,"rental_uris":{"android":"levelo://app?vid=9980e5f8-ae20-4af0-b942-f01c410b13fe","ios":"levelo://app?vid=9980e5f8-ae20-4af0-b942-f01c410b13fe"},"vehicle_type_id":"4","last_reported":1693947954,"current_range_meters":27600,"station_id":"ce4bgl92rcd13ifvqbq0","pricing_plan_id":"free"},{"bike_id":"a789403e-6653-4a38-b02a-525b5c24b433","system_id":"levelo_inurba_marseille","lat":43.312239,"lon":5.368562,"is_reserved":false,"is_disabled":false,"rental_uris":{"android":"levelo://app?vid=a789403e-6653-4a38-b02a-525b5c24b433","ios":"levelo://app?vid=a789403e-6653-4a38-b02a-525b5c24b433"},"vehicle_type_id":"4","last_reported":1693947954,"current_range_meters":16800,"station_id":"ce4bgl92rcd13ifvqbq0","pricing_plan_id":"free"},{"bike_id":"0954d337-a64e-4fbf-bd3f-34d5355e1f0a","system_id":"levelo_inurba_marseille","lat":43.312239,"lon":5.368562,"is_reserved":false,"is_disabled":false,"rental_uris":{"android":"levelo://app?vid=0954d337-a64e-4fbf-bd3f-34d5355e1f0a","ios":"levelo://app?vid=0954d337-a64e-4fbf-bd3f-34d5355e1f0a"},"vehicle_type_id":"4","last_reported":1693947954,"current_range_meters":25200,"station_id":"ce4bgl92rcd13ifvqbq0","pricing_plan_id":"free"},{"bike_id":"2774f26f-46b3-494a-981a-ef9f83a9c1e3","system_id":"levelo_inurba_marseille","lat":43.312239,"lon":5.368562,"is_reserved":false,"is_disabled":false,"rental_uris":{"android":"levelo://app?vid=2774f26f-46b3-494a-981a-ef9f83a9c1e3","ios":"levelo://app?vid=2774f26f-46b3-494a-981a-ef9f83a9c1e3"},"vehicle_type_id":"4","last_reported":1693947954,"current_range_meters":30000,"station_id":"ce4bgl92rcd13ifvqbq0","pricing_plan_id":"free"},{"bike_id":"fb90efad-5bac-4aeb-b674-2ff39e160121","system_id":"levelo_inurba_marseille","lat":43.312239,"lon":5.368562,"is_reserved":false,"is_disabled":false,"rental_uris":{"android":"levelo://app?vid=fb90efad-5bac-4aeb-b674-2ff39e160121","ios":"levelo://app?vid=fb90efad-5bac-4aeb-b674-2ff39e160121"},"vehicle_type_id":"4","last_reported":1693947954,"current_range_meters":17600,"station_id":"ce4bgl92rcd13ifvqbq0","pricing_plan_id":"free"},{"bike_id":"a9c1569f-95e3-4c88-83aa-2fcfec3b15e4","system_id":"levelo_inurba_marseille","lat":43.312239,"lon":5.368562,"is_reserved":false,"is_disabled":false,"rental_uris":{"android":"levelo://app?vid=a9c1569f-95e3-4c88-83aa-2fcfec3b15e4","ios":"levelo://app?vid=a9c1569f-95e3-4c88-83aa-2fcfec3b15e4"},"vehicle_type_id":"4","last_reported":1693947954,"current_range_meters":28400,"station_id":"ce4bgl92rcd13ifvqbq0","pricing_plan_id":"free"},{"bike_id":"973f81e6-036c-4676-b6e6-bb869b0baadb","system_id":"levelo_inurba_marseille","lat":43.312162,"lon":5.36862,"is_reserved":false,"is_disabled":false,"rental_uris":{"android":"levelo://app?vid=973f81e6-036c-4676-b6e6-bb869b0baadb","ios":"levelo://app?vid=973f81e6-036c-4676-b6e6-bb869b0baadb"},"vehicle_type_id":"4","last_reported":1693947954,"current_range_meters":20400,"station_id":"ce4bgl92rcd13ifvqbq0","pricing_plan_id":"free"},{"bike_id":"4f46c2fb-3a65-4e92-b5e1-1bd2e63c7acc","system_id":"levelo_inurba_marseille","lat":43.312239,"lon":5.368562,"is_reserved":false,"is_disabled":false,"rental_uris":{"android":"levelo://app?vid=4f46c2fb-3a65-4e92-b5e1-1bd2e63c7acc","ios":"levelo://app?vid=4f46c2fb-3a65-4e92-b5e1-1bd2e63c7acc"},"vehicle_type_id":"4","last_reported":1693947954,"current_range_meters":11200,"station_id":"ce4bgl92rcd13ifvqbq0","pricing_plan_id":"free"},{"bike_id":"4501c413-39fe-4ea5-8f80-4cdb21ca73f1","system_id":"levelo_inurba_marseille","lat":43.312239,"lon":5.368562,"is_reserved":false,"is_disabled":false,"rental_uris":{"android":"levelo://app?vid=4501c413-39fe-4ea5-8f80-4cdb21ca73f1","ios":"levelo://app?vid=4501c413-39fe-4ea5-8f80-4cdb21ca73f1"},"vehicle_type_id":"4","last_reported":1693947954,"current_range_meters":30000,"station_id":"ce4bgl92rcd13ifvqbq0","pricing_plan_id":"free"},{"bike_id":"964b6068-433f-4f17-80fd-943141dffe8e","system_id":"levelo_inurba_marseille","lat":43.309076,"lon":5.368465,"is_reserved":false,"is_disabled":false,"rental_uris":{"android":"levelo://app?vid=964b6068-433f-4f17-80fd-943141dffe8e","ios":"levelo://app?vid=964b6068-433f-4f17-80fd-943141dffe8e"},"vehicle_type_id":"4","last_reported":1693947954,"current_range_meters":31200,"station_id":"ce4bgn92rcd13ifvqbvg","pricing_plan_id":"free"},{"bike_id":"4a14c39b-4be2-47a6-aa46-86f73ddba2cf","system_id":"levelo_inurba_marseille","lat":43.30956,"lon":5.37137,"is_reserved":false,"is_disabled":false,"rental_uris":{"android":"levelo://app?vid=4a14c39b-4be2-47a6-aa46-86f73ddba2cf","ios":"levelo://app?vid=4a14c39b-4be2-47a6-aa46-86f73ddba2cf"},"vehicle_type_id":"4","last_reported":1693947954,"current_range_meters":11600,"station_id":"","pricing_plan_id":"free"},{"bike_id":"e49e2078-9de6-421f-a60d-09a36cb59a75","system_id":"levelo_inurba_marseille","lat":43.314811,"lon":5.373103,"is_reserved":false,"is_disabled":false,"rental_uris":{"android":"levelo://app?vid=e49e2078-9de6-421f-a60d-09a36cb59a75","ios":"levelo://app?vid=e49e2078-9de6-421f-a60d-09a36cb59a75"},"vehicle_type_id":"4","last_reported":1693947954,"current_range_meters":27200,"station_id":"ce4bgt12rcd13ifvqcd0","pricing_plan_id":"free"},{"bike_id":"c3dc0f52-683c-4f62-97e6-717a94171529","system_id":"levelo_inurba_marseille","lat":43.314811,"lon":5.373103,"is_reserved":false,"is_disabled":false,"rental_uris":{"android":"levelo://app?vid=c3dc0f52-683c-4f62-97e6-717a94171529","ios":"levelo://app?vid=c3dc0f52-683c-4f62-97e6-717a94171529"},"vehicle_type_id":"4","last_reported":1693947954,"current_range_meters":20000,"station_id":"ce4bgt12rcd13ifvqcd0","pricing_plan_id":"free"},{"bike_id":"d2be997d-44d2-40a5-bb20-02aeaaf65fa5","system_id":"levelo_inurba_marseille","lat":43.314811,"lon":5.373104,"is_reserved":false,"is_disabled":false,"rental_uris":{"android":"levelo://app?vid=d2be997d-44d2-40a5-bb20-02aeaaf65fa5","ios":"levelo://app?vid=d2be997d-44d2-40a5-bb20-02aeaaf65fa5"},"vehicle_type_id":"4","last_reported":1693947954,"current_range_meters":28400,"station_id":"ce4bgt12rcd13ifvqcd0","pricing_plan_id":"free"},{"bike_id":"448034dd-eec0-4e6c-8c74-0cee5194427c","system_id":"levelo_inurba_marseille","lat":43.31489,"lon":5.37308,"is_reserved":false,"is_disabled":false,"rental_uris":{"android":"levelo://app?vid=448034dd-eec0-4e6c-8c74-0cee5194427c","ios":"levelo://app?vid=448034dd-eec0-4e6c-8c74-0cee5194427c"},"vehicle_type_id":"4","last_reported":1693947954,"current_range_meters":7200,"station_id":"ce4bgt12rcd13ifvqcd0","pricing_plan_id":"free"},{"bike_id":"b2842fb3-8db0-4387-afce-37e5addbbefb","system_id":"levelo_inurba_marseille","lat":43.314811,"lon":5.373104,"is_reserved":false,"is_disabled":false,"rental_uris":{"android":"levelo://app?vid=b2842fb3-8db0-4387-afce-37e5addbbefb","ios":"levelo://app?vid=b2842fb3-8db0-4387-afce-37e5addbbefb"},"vehicle_type_id":"4","last_reported":1693947954,"current_range_meters":12800,"station_id":"ce4bgt12rcd13ifvqcd0","pricing_plan_id":"free"},{"bike_id":"8dc7fee2-c0bd-46e9-b39d-4a968b89f96a","system_id":"levelo_inurba_marseille","lat":43.30899,"lon":5.37191,"is_reserved":false,"is_disabled":false,"rental_uris":{"android":"levelo://app?vid=8dc7fee2-c0bd-46e9-b39d-4a968b89f96a","ios":"levelo://app?vid=8dc7fee2-c0bd-46e9-b39d-4a968b89f96a"},"vehicle_type_id":"4","last_reported":1693947954,"current_range_meters":16800,"station_id":"ce4bguh2rcd13ifvqckg","pricing_plan_id":"free"},{"bike_id":"b367bcc3-2056-4fb6-8d5e-d6c7abd8ce02","system_id":"levelo_inurba_marseille","lat":43.309039,"lon":5.371797,"is_reserved":false,"is_disabled":false,"rental_uris":{"android":"levelo://app?vid=b367bcc3-2056-4fb6-8d5e-d6c7abd8ce02","ios":"levelo://app?vid=b367bcc3-2056-4fb6-8d5e-d6c7abd8ce02"},"vehicle_type_id":"4","last_reported":1693947954,"current_range_meters":23600,"station_id":"ce4bguh2rcd13ifvqckg","pricing_plan_id":"free"},{"bike_id":"517b9595-b912-4e67-8531-dceedd2f881f","system_id":"levelo_inurba_marseille","lat":43.309039,"lon":5.371797,"is_reserved":false,"is_disabled":false,"rental_uris":{"android":"levelo://app?vid=517b9595-b912-4e67-8531-dceedd2f881f","ios":"levelo://app?vid=517b9595-b912-4e67-8531-dceedd2f881f"},"vehicle_type_id":"4","last_reported":1693947954,"current_range_meters":6000,"station_id":"ce4bguh2rcd13ifvqckg","pricing_plan_id":"free"},{"bike_id":"dbdfb9f1-27ea-41a9-8aaa-8528b50c591b","system_id":"levelo_inurba_marseille","lat":43.30884,"lon":5.37201,"is_reserved":false,"is_disabled":false,"rental_uris":{"android":"levelo://app?vid=dbdfb9f1-27ea-41a9-8aaa-8528b50c591b","ios":"levelo://app?vid=dbdfb9f1-27ea-41a9-8aaa-8528b50c591b"},"vehicle_type_id":"4","last_reported":1693947954,"current_range_meters":30400,"station_id":"ce4bguh2rcd13ifvqckg","pricing_plan_id":"free"},{"bike_id":"277f378f-494e-4822-ba98-2b040bbb0038","system_id":"levelo_inurba_marseille","lat":43.30621,"lon":5.36721,"is_reserved":false,"is_disabled":false,"rental_uris":{"android":"levelo://app?vid=277f378f-494e-4822-ba98-2b040bbb0038","ios":"levelo://app?vid=277f378f-494e-4822-ba98-2b040bbb0038"},"vehicle_type_id":"4","last_reported":1693947954,"current_range_meters":22800,"station_id":"","pricing_plan_id":"free"},{"bike_id":"64f2de59-9459-4106-af86-4a0abb41b8e9","system_id":"levelo_inurba_marseille","lat":43.30538,"lon":5.36708,"is_reserved":false,"is_disabled":false,"rental_uris":{"android":"levelo://app?vid=64f2de59-9459-4106-af86-4a0abb41b8e9","ios":"levelo://app?vid=64f2de59-9459-4106-af86-4a0abb41b8e9"},"vehicle_type_id":"4","last_reported":1693947954,"current_range_meters":0,"station_id":"ce4bgrp2rcd13ifvqc9g","pricing_plan_id":"free"},{"bike_id":"875ef486-e8c2-49a5-a294-190c8774e877","system_id":"levelo_inurba_marseille","lat":43.305989,"lon":5.37225,"is_reserved":false,"is_disabled":false,"rental_uris":{"android":"levelo://app?vid=875ef486-e8c2-49a5-a294-190c8774e877","ios":"levelo://app?vid=875ef486-e8c2-49a5-a294-190c8774e877"},"vehicle_type_id":"4","last_reported":1693947954,"current_range_meters":31200,"station_id":"ce4bgqh2rcd13ifvqc4g","pricing_plan_id":"free"},{"bike_id":"c30d7451-6650-4a28-9359-ba0234ed4322","system_id":"levelo_inurba_marseille","lat":43.30788,"lon":5.37645,"is_reserved":false,"is_disabled":false,"rental_uris":{"android":"levelo://app?vid=c30d7451-6650-4a28-9359-ba0234ed4322","ios":"levelo://app?vid=c30d7451-6650-4a28-9359-ba0234ed4322"},"vehicle_type_id":"4","last_reported":1693947954,"current_range_meters":3600,"station_id":"ce4bgv92rcd13ifvqcq0","pricing_plan_id":"free"},{"bike_id":"35906ec6-b3f9-428f-a61e-be379b53d02f","system_id":"levelo_inurba_marseille","lat":43.30786,"lon":5.37651,"is_reserved":false,"is_disabled":false,"rental_uris":{"android":"levelo://app?vid=35906ec6-b3f9-428f-a61e-be379b53d02f","ios":"levelo://app?vid=35906ec6-b3f9-428f-a61e-be379b53d02f"},"vehicle_type_id":"4","last_reported":1693947954,"current_range_meters":9600,"station_id":"ce4bgv92rcd13ifvqcq0","pricing_plan_id":"free"},{"bike_id":"9f625290-d597-4895-9578-7fe8e665e9f5","system_id":"levelo_inurba_marseille","lat":43.30776,"lon":5.37659,"is_reserved":false,"is_disabled":false,"rental_uris":{"android":"levelo://app?vid=9f625290-d597-4895-9578-7fe8e665e9f5","ios":"levelo://app?vid=9f625290-d597-4895-9578-7fe8e665e9f5"},"vehicle_type_id":"4","last_reported":1693947954,"current_range_meters":10400,"station_id":"ce4bgv92rcd13ifvqcq0","pricing_plan_id":"free"},{"bike_id":"ade7316b-41fe-4680-8584-dd4aa59ff4c6","system_id":"levelo_inurba_marseille","lat":43.32066,"lon":5.37172,"is_reserved":false,"is_disabled":false,"rental_uris":{"android":"levelo://app?vid=ade7316b-41fe-4680-8584-dd4aa59ff4c6","ios":"levelo://app?vid=ade7316b-41fe-4680-8584-dd4aa59ff4c6"},"vehicle_type_id":"4","last_reported":1693947954,"current_range_meters":25600,"station_id":"","pricing_plan_id":"free"},{"bike_id":"b5ea45cf-09a9-4192-9920-f603e587ba37","system_id":"levelo_inurba_marseille","lat":43.317075,"lon":5.377367,"is_reserved":false,"is_disabled":false,"rental_uris":{"android":"levelo://app?vid=b5ea45cf-09a9-4192-9920-f603e587ba37","ios":"levelo://app?vid=b5ea45cf-09a9-4192-9920-f603e587ba37"},"vehicle_type_id":"4","last_reported":1693947954,"current_range_meters":10800,"station_id":"ce4bgth2rcd13ifvqch0","pricing_plan_id":"free"},{"bike_id":"290a754f-baf3-4190-aa90-01ec559fe509","system_id":"levelo_inurba_marseille","lat":43.30946,"lon":5.37926,"is_reserved":false,"is_disabled":false,"rental_uris":{"android":"levelo://app?vid=290a754f-baf3-4190-aa90-01ec559fe509","ios":"levelo://app?vid=290a754f-baf3-4190-aa90-01ec559fe509"},"vehicle_type_id":"4","last_reported":1693947954,"current_range_meters":24000,"station_id":"","pricing_plan_id":"free"},{"bike_id":"12e98509-c3a5-461a-acb9-eab3081c62f4","system_id":"levelo_inurba_marseille","lat":43.303076,"lon":5.368897,"is_reserved":false,"is_disabled":false,"rental_uris":{"android":"levelo://app?vid=12e98509-c3a5-461a-acb9-eab3081c62f4","ios":"levelo://app?vid=12e98509-c3a5-461a-acb9-eab3081c62f4"},"vehicle_type_id":"4","last_reported":1693947954,"current_range_meters":1600,"station_id":"","pricing_plan_id":"free"},{"bike_id":"ff479914-554d-4da3-aa9c-1c27d4393910","system_id":"levelo_inurba_marseille","lat":43.30284,"lon":5.36591,"is_reserved":false,"is_disabled":false,"rental_uris":{"android":"levelo://app?vid=ff479914-554d-4da3-aa9c-1c27d4393910","ios":"levelo://app?vid=ff479914-554d-4da3-aa9c-1c27d4393910"},"vehicle_type_id":"4","last_reported":1693947954,"current_range_meters":27600,"station_id":"","pricing_plan_id":"free"},{"bike_id":"8487136f-efcc-466c-a706-1144e86f182f","system_id":"levelo_inurba_marseille","lat":43.315293,"lon":5.380349,"is_reserved":false,"is_disabled":false,"rental_uris":{"android":"levelo://app?vid=8487136f-efcc-466c-a706-1144e86f182f","ios":"levelo://app?vid=8487136f-efcc-466c-a706-1144e86f182f"},"vehicle_type_id":"4","last_reported":1693947954,"current_range_meters":28800,"station_id":"ce4bhsp2rcd13ifvqi50","pricing_plan_id":"free"},{"bike_id":"b7194415-03b7-4eb8-bab7-a4288a8e91c0","system_id":"levelo_inurba_marseille","lat":43.315293,"lon":5.380349,"is_reserved":false,"is_disabled":false,"rental_uris":{"android":"levelo://app?vid=b7194415-03b7-4eb8-bab7-a4288a8e91c0","ios":"levelo://app?vid=b7194415-03b7-4eb8-bab7-a4288a8e91c0"},"vehicle_type_id":"4","last_reported":1693947954,"current_range_meters":31200,"station_id":"ce4bhsp2rcd13ifvqi50","pricing_plan_id":"free"},{"bike_id":"5c9e7c1b-56cf-47ba-a8b1-ef1fc38af9af","system_id":"levelo_inurba_marseille","lat":43.315293,"lon":5.380349,"is_reserved":false,"is_disabled":false,"rental_uris":{"android":"levelo://app?vid=5c9e7c1b-56cf-47ba-a8b1-ef1fc38af9af","ios":"levelo://app?vid=5c9e7c1b-56cf-47ba-a8b1-ef1fc38af9af"},"vehicle_type_id":"4","last_reported":1693947954,"current_range_meters":31200,"station_id":"ce4bhsp2rcd13ifvqi50","pricing_plan_id":"free"},{"bike_id":"80dc91bf-4c61-4330-8c79-1d7bb7505f38","system_id":"levelo_inurba_marseille","lat":43.315293,"lon":5.380349,"is_reserved":false,"is_disabled":false,"rental_uris":{"android":"levelo://app?vid=80dc91bf-4c61-4330-8c79-1d7bb7505f38","ios":"levelo://app?vid=80dc91bf-4c61-4330-8c79-1d7bb7505f38"},"vehicle_type_id":"4","last_reported":1693947954,"current_range_meters":11200,"station_id":"ce4bhsp2rcd13ifvqi50","pricing_plan_id":"free"},{"bike_id":"1fc11e75-0232-4c30-ac1a-7b141f61eeaf","system_id":"levelo_inurba_marseille","lat":43.315293,"lon":5.380349,"is_reserved":false,"is_disabled":false,"rental_uris":{"android":"levelo://app?vid=1fc11e75-0232-4c30-ac1a-7b141f61eeaf","ios":"levelo://app?vid=1fc11e75-0232-4c30-ac1a-7b141f61eeaf"},"vehicle_type_id":"4","last_reported":1693947954,"current_range_meters":31200,"station_id":"ce4bhsp2rcd13ifvqi50","pricing_plan_id":"free"},{"bike_id":"2773b501-217c-4f8e-a46c-0b4ca0a0655e","system_id":"levelo_inurba_marseille","lat":43.31529,"lon":5.3804,"is_reserved":false,"is_disabled":false,"rental_uris":{"android":"levelo://app?vid=2773b501-217c-4f8e-a46c-0b4ca0a0655e","ios":"levelo://app?vid=2773b501-217c-4f8e-a46c-0b4ca0a0655e"},"vehicle_type_id":"4","last_reported":1693947954,"current_range_meters":26000,"station_id":"ce4bhsp2rcd13ifvqi50","pricing_plan_id":"free"},{"bike_id":"79756bfb-0d8e-41df-909e-084bd7144d2b","system_id":"levelo_inurba_marseille","lat":43.30216,"lon":5.36614,"is_reserved":false,"is_disabled":false,"rental_uris":{"android":"levelo://app?vid=79756bfb-0d8e-41df-909e-084bd7144d2b","ios":"levelo://app?vid=79756bfb-0d8e-41df-909e-084bd7144d2b"},"vehicle_type_id":"4","last_reported":1693947954,"current_range_meters":800,"station_id":"ce4bgrh2rcd13ifvqc8g","pricing_plan_id":"free"},{"bike_id":"29b98f4a-d352-4416-a6a1-9bcac72dd823","system_id":"levelo_inurba_marseille","lat":43.301939,"lon":5.366286,"is_reserved":false,"is_disabled":false,"rental_uris":{"android":"levelo://app?vid=29b98f4a-d352-4416-a6a1-9bcac72dd823","ios":"levelo://app?vid=29b98f4a-d352-4416-a6a1-9bcac72dd823"},"vehicle_type_id":"4","last_reported":1693947954,"current_range_meters":28400,"station_id":"ce4bgrh2rcd13ifvqc8g","pricing_plan_id":"free"},{"bike_id":"fab21159-081e-4f91-a606-57d455cc2f6a","system_id":"levelo_inurba_marseille","lat":43.301939,"lon":5.366286,"is_reserved":false,"is_disabled":false,"rental_uris":{"android":"levelo://app?vid=fab21159-081e-4f91-a606-57d455cc2f6a","ios":"levelo://app?vid=fab21159-081e-4f91-a606-57d455cc2f6a"},"vehicle_type_id":"4","last_reported":1693947954,"current_range_meters":18800,"station_id":"ce4bgrh2rcd13ifvqc8g","pricing_plan_id":"free"},{"bike_id":"cf98ba5c-ccd0-4d21-aa56-b7395d01ab31","system_id":"levelo_inurba_marseille","lat":43.31562,"lon":5.38212,"is_reserved":false,"is_disabled":false,"rental_uris":{"android":"levelo://app?vid=cf98ba5c-ccd0-4d21-aa56-b7395d01ab31","ios":"levelo://app?vid=cf98ba5c-ccd0-4d21-aa56-b7395d01ab31"},"vehicle_type_id":"4","last_reported":1693947954,"current_range_meters":18800,"station_id":"","pricing_plan_id":"free"},{"bike_id":"5541953c-62e3-4e00-88f0-c444a3ca91d1","system_id":"levelo_inurba_marseille","lat":43.30712,"lon":5.38066,"is_reserved":false,"is_disabled":false,"rental_uris":{"android":"levelo://app?vid=5541953c-62e3-4e00-88f0-c444a3ca91d1","ios":"levelo://app?vid=5541953c-62e3-4e00-88f0-c444a3ca91d1"},"vehicle_type_id":"4","last_reported":1693947954,"current_range_meters":10800,"station_id":"","pricing_plan_id":"free"},{"bike_id":"aa8d09f4-b4b6-4769-b3fd-fbc027b68eb8","system_id":"levelo_inurba_marseille","lat":43.30801,"lon":5.38132,"is_reserved":false,"is_disabled":false,"rental_uris":{"android":"levelo://app?vid=aa8d09f4-b4b6-4769-b3fd-fbc027b68eb8","ios":"levelo://app?vid=aa8d09f4-b4b6-4769-b3fd-fbc027b68eb8"},"vehicle_type_id":"4","last_reported":1693947954,"current_range_meters":10400,"station_id":"ce4bgt12rcd13ifvqce0","pricing_plan_id":"free"},{"bike_id":"73e1e208-a018-46c1-a259-9501c45d13c5","system_id":"levelo_inurba_marseille","lat":43.30806,"lon":5.381513,"is_reserved":false,"is_disabled":false,"rental_uris":{"android":"levelo://app?vid=73e1e208-a018-46c1-a259-9501c45d13c5","ios":"levelo://app?vid=73e1e208-a018-46c1-a259-9501c45d13c5"},"vehicle_type_id":"4","last_reported":1693947954,"current_range_meters":4400,"station_id":"ce4bgg92rcd13ifvqb30","pricing_plan_id":"free"},{"bike_id":"7fec8a20-d488-438e-b12a-6ae6cd7224b8","system_id":"levelo_inurba_marseille","lat":43.304606,"lon":5.379026,"is_reserved":false,"is_disabled":false,"rental_uris":{"android":"levelo://app?vid=7fec8a20-d488-438e-b12a-6ae6cd7224b8","ios":"levelo://app?vid=7fec8a20-d488-438e-b12a-6ae6cd7224b8"},"vehicle_type_id":"4","last_reported":1693947954,"current_range_meters":28000,"station_id":"ce4bgup2rcd13ifvqcn0","pricing_plan_id":"free"},{"bike_id":"f5883cf3-29dd-4114-8632-aba59309f472","system_id":"levelo_inurba_marseille","lat":43.304606,"lon":5.379026,"is_reserved":false,"is_disabled":false,"rental_uris":{"android":"levelo://app?vid=f5883cf3-29dd-4114-8632-aba59309f472","ios":"levelo://app?vid=f5883cf3-29dd-4114-8632-aba59309f472"},"vehicle_type_id":"4","last_reported":1693947954,"current_range_meters":31600,"station_id":"ce4bgup2rcd13ifvqcn0","pricing_plan_id":"free"},{"bike_id":"d199a1b0-48d8-45cc-a8be-993bb948d272","system_id":"levelo_inurba_marseille","lat":43.30462,"lon":5.379,"is_reserved":false,"is_disabled":false,"rental_uris":{"android":"levelo://app?vid=d199a1b0-48d8-45cc-a8be-993bb948d272","ios":"levelo://app?vid=d199a1b0-48d8-45cc-a8be-993bb948d272"},"vehicle_type_id":"4","last_reported":1693947954,"current_range_meters":5600,"station_id":"ce4bgup2rcd13ifvqcn0","pricing_plan_id":"free"},{"bike_id":"6491aa68-0dc9-4807-ac1a-ec55077ee5e0","system_id":"levelo_inurba_marseille","lat":43.30462,"lon":5.37902,"is_reserved":false,"is_disabled":false,"rental_uris":{"android":"levelo://app?vid=6491aa68-0dc9-4807-ac1a-ec55077ee5e0","ios":"levelo://app?vid=6491aa68-0dc9-4807-ac1a-ec55077ee5e0"},"vehicle_type_id":"4","last_reported":1693947954,"current_range_meters":31600,"station_id":"ce4bgup2rcd13ifvqcn0","pricing_plan_id":"free"},{"bike_id":"f3736c69-7eac-47b0-8c83-d7954f776ced","system_id":"levelo_inurba_marseille","lat":43.29529,"lon":5.385581,"is_reserved":false,"is_disabled":false,"rental_uris":{"android":"levelo://app?vid=f3736c69-7eac-47b0-8c83-d7954f776ced","ios":"levelo://app?vid=f3736c69-7eac-47b0-8c83-d7954f776ced"},"vehicle_type_id":"4","last_reported":1693947954,"current_range_meters":14800,"station_id":"ce4bgih2rcd13ifvqba0","pricing_plan_id":"free"},{"bike_id":"9d4b4c13-f4e0-4906-b502-744a047ceeb9","system_id":"levelo_inurba_marseille","lat":43.302767,"lon":5.377306,"is_reserved":false,"is_disabled":false,"rental_uris":{"android":"levelo://app?vid=9d4b4c13-f4e0-4906-b502-744a047ceeb9","ios":"levelo://app?vid=9d4b4c13-f4e0-4906-b502-744a047ceeb9"},"vehicle_type_id":"4","last_reported":1693947954,"current_range_meters":4000,"station_id":"","pricing_plan_id":"free"},{"bike_id":"bf28b802-7859-4e0e-9266-691b97759918","system_id":"levelo_inurba_marseille","lat":43.31999,"lon":5.38155,"is_reserved":false,"is_disabled":false,"rental_uris":{"android":"levelo://app?vid=bf28b802-7859-4e0e-9266-691b97759918","ios":"levelo://app?vid=bf28b802-7859-4e0e-9266-691b97759918"},"vehicle_type_id":"4","last_reported":1693947954,"current_range_meters":4400,"station_id":"ce4bhr12rcd13ifvqhpg","pricing_plan_id":"free"},{"bike_id":"19f214fc-98ac-46f6-aafb-e2b58eba3e6f","system_id":"levelo_inurba_marseille","lat":43.319935,"lon":5.381699,"is_reserved":false,"is_disabled":false,"rental_uris":{"android":"levelo://app?vid=19f214fc-98ac-46f6-aafb-e2b58eba3e6f","ios":"levelo://app?vid=19f214fc-98ac-46f6-aafb-e2b58eba3e6f"},"vehicle_type_id":"4","last_reported":1693947954,"current_range_meters":14000,"station_id":"ce4bhr12rcd13ifvqhpg","pricing_plan_id":"free"},{"bike_id":"2885ba2d-f744-4df3-9ea6-e413aa7381fd","system_id":"levelo_inurba_marseille","lat":43.31999,"lon":5.38168,"is_reserved":false,"is_disabled":false,"rental_uris":{"android":"levelo://app?vid=2885ba2d-f744-4df3-9ea6-e413aa7381fd","ios":"levelo://app?vid=2885ba2d-f744-4df3-9ea6-e413aa7381fd"},"vehicle_type_id":"4","last_reported":1693947954,"current_range_meters":7200,"station_id":"ce4bhr12rcd13ifvqhpg","pricing_plan_id":"free"},{"bike_id":"33fca0e5-9159-4a14-93ff-87c541700d58","system_id":"levelo_inurba_marseille","lat":43.313571,"lon":5.384829,"is_reserved":false,"is_disabled":false,"rental_uris":{"android":"levelo://app?vid=33fca0e5-9159-4a14-93ff-87c541700d58","ios":"levelo://app?vid=33fca0e5-9159-4a14-93ff-87c541700d58"},"vehicle_type_id":"4","last_reported":1693947954,"current_range_meters":18400,"station_id":"ce4bgt92rcd13ifvqcf0","pricing_plan_id":"free"},{"bike_id":"50a98ec7-84cf-4031-9ede-bf367fdae68c","system_id":"levelo_inurba_marseille","lat":43.29933,"lon":5.365607,"is_reserved":false,"is_disabled":false,"rental_uris":{"android":"levelo://app?vid=50a98ec7-84cf-4031-9ede-bf367fdae68c","ios":"levelo://app?vid=50a98ec7-84cf-4031-9ede-bf367fdae68c"},"vehicle_type_id":"4","last_reported":1693947954,"current_range_meters":16400,"station_id":"ce4bha92rcd13ifvqeh0","pricing_plan_id":"free"},{"bike_id":"6041b615-2d0a-4b13-a839-7691321e66cb","system_id":"levelo_inurba_marseille","lat":43.29933,"lon":5.36549,"is_reserved":false,"is_disabled":false,"rental_uris":{"android":"levelo://app?vid=6041b615-2d0a-4b13-a839-7691321e66cb","ios":"levelo://app?vid=6041b615-2d0a-4b13-a839-7691321e66cb"},"vehicle_type_id":"4","last_reported":1693947954,"current_range_meters":24000,"station_id":"ce4bgm92rcd13ifvqbr0","pricing_plan_id":"free"},{"bike_id":"09a4314e-2700-4911-852b-70456604e201","system_id":"levelo_inurba_marseille","lat":43.29971,"lon":5.37179,"is_reserved":false,"is_disabled":false,"rental_uris":{"android":"levelo://app?vid=09a4314e-2700-4911-852b-70456604e201","ios":"levelo://app?vid=09a4314e-2700-4911-852b-70456604e201"},"vehicle_type_id":"4","last_reported":1693947954,"current_range_meters":22800,"station_id":"ce4bgr92rcd13ifvqc7g","pricing_plan_id":"free"},{"bike_id":"1819615d-4e33-4e4e-91f7-36365718a804","system_id":"levelo_inurba_marseille","lat":43.298433,"lon":5.362774,"is_reserved":false,"is_disabled":false,"rental_uris":{"android":"levelo://app?vid=1819615d-4e33-4e4e-91f7-36365718a804","ios":"levelo://app?vid=1819615d-4e33-4e4e-91f7-36365718a804"},"vehicle_type_id":"4","last_reported":1693947954,"current_range_meters":8400,"station_id":"ce4bgpp2rcd13ifvqc3g","pricing_plan_id":"free"},{"bike_id":"dee4c3b5-18ee-4e23-b2b3-c52305a6a30f","system_id":"levelo_inurba_marseille","lat":43.31169,"lon":5.38705,"is_reserved":false,"is_disabled":false,"rental_uris":{"android":"levelo://app?vid=dee4c3b5-18ee-4e23-b2b3-c52305a6a30f","ios":"levelo://app?vid=dee4c3b5-18ee-4e23-b2b3-c52305a6a30f"},"vehicle_type_id":"4","last_reported":1693947954,"current_range_meters":0,"station_id":"","pricing_plan_id":"free"},{"bike_id":"cb9cb4da-29a9-4a4a-9b47-79d59932241c","system_id":"levelo_inurba_marseille","lat":43.311722,"lon":5.387247,"is_reserved":false,"is_disabled":false,"rental_uris":{"android":"levelo://app?vid=cb9cb4da-29a9-4a4a-9b47-79d59932241c","ios":"levelo://app?vid=cb9cb4da-29a9-4a4a-9b47-79d59932241c"},"vehicle_type_id":"4","last_reported":1693947954,"current_range_meters":30000,"station_id":"ce4bgv12rcd13ifvqcp0","pricing_plan_id":"free"},{"bike_id":"ab119c63-17fc-4e4d-b12e-e9b1830ecf71","system_id":"levelo_inurba_marseille","lat":43.31179,"lon":5.3872,"is_reserved":false,"is_disabled":false,"rental_uris":{"android":"levelo://app?vid=ab119c63-17fc-4e4d-b12e-e9b1830ecf71","ios":"levelo://app?vid=ab119c63-17fc-4e4d-b12e-e9b1830ecf71"},"vehicle_type_id":"4","last_reported":1693947954,"current_range_meters":2800,"station_id":"ce4bgv12rcd13ifvqcp0","pricing_plan_id":"free"},{"bike_id":"e69d0702-4909-42b3-804e-76ed2d5050f5","system_id":"levelo_inurba_marseille","lat":43.311722,"lon":5.387247,"is_reserved":false,"is_disabled":false,"rental_uris":{"android":"levelo://app?vid=e69d0702-4909-42b3-804e-76ed2d5050f5","ios":"levelo://app?vid=e69d0702-4909-42b3-804e-76ed2d5050f5"},"vehicle_type_id":"4","last_reported":1693947954,"current_range_meters":31600,"station_id":"ce4bgv12rcd13ifvqcp0","pricing_plan_id":"free"},{"bike_id":"21d35fed-185b-401f-b9e4-79af95492896","system_id":"levelo_inurba_marseille","lat":43.311722,"lon":5.387247,"is_reserved":false,"is_disabled":false,"rental_uris":{"android":"levelo://app?vid=21d35fed-185b-401f-b9e4-79af95492896","ios":"levelo://app?vid=21d35fed-185b-401f-b9e4-79af95492896"},"vehicle_type_id":"4","last_reported":1693947954,"current_range_meters":28400,"station_id":"ce4bgv12rcd13ifvqcp0","pricing_plan_id":"free"},{"bike_id":"24c57c16-6922-4f96-af0f-1d9911f89b50","system_id":"levelo_inurba_marseille","lat":43.311722,"lon":5.387247,"is_reserved":false,"is_disabled":false,"rental_uris":{"android":"levelo://app?vid=24c57c16-6922-4f96-af0f-1d9911f89b50","ios":"levelo://app?vid=24c57c16-6922-4f96-af0f-1d9911f89b50"},"vehicle_type_id":"4","last_reported":1693947954,"current_range_meters":20400,"station_id":"ce4bgv12rcd13ifvqcp0","pricing_plan_id":"free"},{"bike_id":"e91cd3ca-b900-48d4-80d4-2fbfc99a2828","system_id":"levelo_inurba_marseille","lat":43.311722,"lon":5.387247,"is_reserved":false,"is_disabled":false,"rental_uris":{"android":"levelo://app?vid=e91cd3ca-b900-48d4-80d4-2fbfc99a2828","ios":"levelo://app?vid=e91cd3ca-b900-48d4-80d4-2fbfc99a2828"},"vehicle_type_id":"4","last_reported":1693947954,"current_range_meters":20000,"station_id":"ce4bgv12rcd13ifvqcp0","pricing_plan_id":"free"},{"bike_id":"d7a221c7-baa2-405c-abf5-32123c118c57","system_id":"levelo_inurba_marseille","lat":43.299243,"lon":5.37481,"is_reserved":false,"is_disabled":false,"rental_uris":{"android":"levelo://app?vid=d7a221c7-baa2-405c-abf5-32123c118c57","ios":"levelo://app?vid=d7a221c7-baa2-405c-abf5-32123c118c57"},"vehicle_type_id":"4","last_reported":1693947954,"current_range_meters":18000,"station_id":"ce4bgjh2rcd13ifvqbg0","pricing_plan_id":"free"},{"bike_id":"a443e671-5cec-481a-8771-f38d8d106965","system_id":"levelo_inurba_marseille","lat":43.311722,"lon":5.387247,"is_reserved":false,"is_disabled":false,"rental_uris":{"android":"levelo://app?vid=a443e671-5cec-481a-8771-f38d8d106965","ios":"levelo://app?vid=a443e671-5cec-481a-8771-f38d8d106965"},"vehicle_type_id":"4","last_reported":1693947954,"current_range_meters":29600,"station_id":"ce4bgv12rcd13ifvqcp0","pricing_plan_id":"free"},{"bike_id":"8143ebd5-c5c5-467f-a353-1c0066f90341","system_id":"levelo_inurba_marseille","lat":43.297774,"lon":5.370875,"is_reserved":false,"is_disabled":false,"rental_uris":{"android":"levelo://app?vid=8143ebd5-c5c5-467f-a353-1c0066f90341","ios":"levelo://app?vid=8143ebd5-c5c5-467f-a353-1c0066f90341"},"vehicle_type_id":"4","last_reported":1693947954,"current_range_meters":31200,"station_id":"ce4bgop2rcd13ifvqc1g","pricing_plan_id":"free"},{"bike_id":"924d6452-f7f7-4baa-af9a-49926af70474","system_id":"levelo_inurba_marseille","lat":43.297774,"lon":5.370875,"is_reserved":false,"is_disabled":false,"rental_uris":{"android":"levelo://app?vid=924d6452-f7f7-4baa-af9a-49926af70474","ios":"levelo://app?vid=924d6452-f7f7-4baa-af9a-49926af70474"},"vehicle_type_id":"4","last_reported":1693947954,"current_range_meters":27600,"station_id":"ce4bgop2rcd13ifvqc1g","pricing_plan_id":"free"},{"bike_id":"191b5561-2730-43f8-b0f2-7ee9fcfe0233","system_id":"levelo_inurba_marseille","lat":43.32348,"lon":5.38191,"is_reserved":false,"is_disabled":false,"rental_uris":{"android":"levelo://app?vid=191b5561-2730-43f8-b0f2-7ee9fcfe0233","ios":"levelo://app?vid=191b5561-2730-43f8-b0f2-7ee9fcfe0233"},"vehicle_type_id":"4","last_reported":1693947954,"current_range_meters":12400,"station_id":"","pricing_plan_id":"free"},{"bike_id":"765cea18-3c97-434d-8a68-2761b7e8d747","system_id":"levelo_inurba_marseille","lat":43.297794,"lon":5.370888,"is_reserved":false,"is_disabled":false,"rental_uris":{"android":"levelo://app?vid=765cea18-3c97-434d-8a68-2761b7e8d747","ios":"levelo://app?vid=765cea18-3c97-434d-8a68-2761b7e8d747"},"vehicle_type_id":"4","last_reported":1693947954,"current_range_meters":8800,"station_id":"ce4bgop2rcd13ifvqc1g","pricing_plan_id":"free"},{"bike_id":"21ac3ab1-28b7-4f80-99b1-08c14be7f47c","system_id":"levelo_inurba_marseille","lat":43.3229,"lon":5.38269,"is_reserved":false,"is_disabled":false,"rental_uris":{"android":"levelo://app?vid=21ac3ab1-28b7-4f80-99b1-08c14be7f47c","ios":"levelo://app?vid=21ac3ab1-28b7-4f80-99b1-08c14be7f47c"},"vehicle_type_id":"4","last_reported":1693947954,"current_range_meters":12800,"station_id":"ce4bhr12rcd13ifvqhqg","pricing_plan_id":"free"},{"bike_id":"fe3fdaf5-e98d-41bf-a59e-13221e278bcd","system_id":"levelo_inurba_marseille","lat":43.32286,"lon":5.38274,"is_reserved":false,"is_disabled":false,"rental_uris":{"android":"levelo://app?vid=fe3fdaf5-e98d-41bf-a59e-13221e278bcd","ios":"levelo://app?vid=fe3fdaf5-e98d-41bf-a59e-13221e278bcd"},"vehicle_type_id":"4","last_reported":1693947954,"current_range_meters":0,"station_id":"ce4bhr12rcd13ifvqhqg","pricing_plan_id":"free"},{"bike_id":"f886016f-4a6e-4182-9f19-1c29bddcb63d","system_id":"levelo_inurba_marseille","lat":43.32356,"lon":5.38184,"is_reserved":false,"is_disabled":false,"rental_uris":{"android":"levelo://app?vid=f886016f-4a6e-4182-9f19-1c29bddcb63d","ios":"levelo://app?vid=f886016f-4a6e-4182-9f19-1c29bddcb63d"},"vehicle_type_id":"4","last_reported":1693947954,"current_range_meters":26000,"station_id":"","pricing_plan_id":"free"},{"bike_id":"e392bcc3-4e7e-4b25-b201-0976e28f7394","system_id":"levelo_inurba_marseille","lat":43.32287,"lon":5.38275,"is_reserved":false,"is_disabled":false,"rental_uris":{"android":"levelo://app?vid=e392bcc3-4e7e-4b25-b201-0976e28f7394","ios":"levelo://app?vid=e392bcc3-4e7e-4b25-b201-0976e28f7394"},"vehicle_type_id":"4","last_reported":1693947954,"current_range_meters":25600,"station_id":"ce4bhr12rcd13ifvqhqg","pricing_plan_id":"free"},{"bike_id":"00d58d23-2405-48d2-9d08-7cc5228c7e99","system_id":"levelo_inurba_marseille","lat":43.322872,"lon":5.382756,"is_reserved":false,"is_disabled":false,"rental_uris":{"android":"levelo://app?vid=00d58d23-2405-48d2-9d08-7cc5228c7e99","ios":"levelo://app?vid=00d58d23-2405-48d2-9d08-7cc5228c7e99"},"vehicle_type_id":"4","last_reported":1693947954,"current_range_meters":24000,"station_id":"ce4bhr12rcd13ifvqhqg","pricing_plan_id":"free"},{"bike_id":"7f512ec6-fe3f-40a1-bb9f-398cdf6c2aae","system_id":"levelo_inurba_marseille","lat":43.3282,"lon":5.36681,"is_reserved":false,"is_disabled":false,"rental_uris":{"android":"levelo://app?vid=7f512ec6-fe3f-40a1-bb9f-398cdf6c2aae","ios":"levelo://app?vid=7f512ec6-fe3f-40a1-bb9f-398cdf6c2aae"},"vehicle_type_id":"4","last_reported":1693947954,"current_range_meters":19600,"station_id":"ce4bhs92rcd13ifvqi0g","pricing_plan_id":"free"},{"bike_id":"d2591425-cda4-4df3-ba52-08a35cac5123","system_id":"levelo_inurba_marseille","lat":43.29864,"lon":5.37565,"is_reserved":false,"is_disabled":false,"rental_uris":{"android":"levelo://app?vid=d2591425-cda4-4df3-ba52-08a35cac5123","ios":"levelo://app?vid=d2591425-cda4-4df3-ba52-08a35cac5123"},"vehicle_type_id":"4","last_reported":1693947954,"current_range_meters":18400,"station_id":"","pricing_plan_id":"free"},{"bike_id":"3b9b6374-0eef-4b66-b8d9-34e5deb2d155","system_id":"levelo_inurba_marseille","lat":43.32821,"lon":5.36683,"is_reserved":false,"is_disabled":false,"rental_uris":{"android":"levelo://app?vid=3b9b6374-0eef-4b66-b8d9-34e5deb2d155","ios":"levelo://app?vid=3b9b6374-0eef-4b66-b8d9-34e5deb2d155"},"vehicle_type_id":"4","last_reported":1693947954,"current_range_meters":28800,"station_id":"ce4bhs92rcd13ifvqi0g","pricing_plan_id":"free"},{"bike_id":"4389cb7c-879a-4ba0-8c5d-b530ea545266","system_id":"levelo_inurba_marseille","lat":43.32822,"lon":5.3668,"is_reserved":false,"is_disabled":false,"rental_uris":{"android":"levelo://app?vid=4389cb7c-879a-4ba0-8c5d-b530ea545266","ios":"levelo://app?vid=4389cb7c-879a-4ba0-8c5d-b530ea545266"},"vehicle_type_id":"4","last_reported":1693947954,"current_range_meters":22000,"station_id":"ce4bhs92rcd13ifvqi0g","pricing_plan_id":"free"},{"bike_id":"ee130564-255e-4388-a4b5-94dc9c4bebb1","system_id":"levelo_inurba_marseille","lat":43.301,"lon":5.3808,"is_reserved":false,"is_disabled":false,"rental_uris":{"android":"levelo://app?vid=ee130564-255e-4388-a4b5-94dc9c4bebb1","ios":"levelo://app?vid=ee130564-255e-4388-a4b5-94dc9c4bebb1"},"vehicle_type_id":"4","last_reported":1693947954,"current_range_meters":26400,"station_id":"","pricing_plan_id":"free"},{"bike_id":"44de35bf-4e65-4c6f-b87d-df306d06c1dd","system_id":"levelo_inurba_marseille","lat":43.32826,"lon":5.36689,"is_reserved":false,"is_disabled":false,"rental_uris":{"android":"levelo://app?vid=44de35bf-4e65-4c6f-b87d-df306d06c1dd","ios":"levelo://app?vid=44de35bf-4e65-4c6f-b87d-df306d06c1dd"},"vehicle_type_id":"4","last_reported":1693947954,"current_range_meters":23600,"station_id":"ce4bhs92rcd13ifvqi0g","pricing_plan_id":"free"},{"bike_id":"8b672865-08e7-4b50-975a-8dbaf19315e0","system_id":"levelo_inurba_marseille","lat":43.328371,"lon":5.366909,"is_reserved":false,"is_disabled":false,"rental_uris":{"android":"levelo://app?vid=8b672865-08e7-4b50-975a-8dbaf19315e0","ios":"levelo://app?vid=8b672865-08e7-4b50-975a-8dbaf19315e0"},"vehicle_type_id":"4","last_reported":1693947954,"current_range_meters":13200,"station_id":"ce4bhs92rcd13ifvqi0g","pricing_plan_id":"free"},{"bike_id":"4fbeb91b-fad2-46cc-8757-2cf8ce2262b3","system_id":"levelo_inurba_marseille","lat":43.32826,"lon":5.36678,"is_reserved":false,"is_disabled":false,"rental_uris":{"android":"levelo://app?vid=4fbeb91b-fad2-46cc-8757-2cf8ce2262b3","ios":"levelo://app?vid=4fbeb91b-fad2-46cc-8757-2cf8ce2262b3"},"vehicle_type_id":"4","last_reported":1693947954,"current_range_meters":5200,"station_id":"ce4bhs92rcd13ifvqi0g","pricing_plan_id":"free"},{"bike_id":"fd403bfc-2700-4fb0-81c1-00242894eda0","system_id":"levelo_inurba_marseille","lat":43.32827,"lon":5.36681,"is_reserved":false,"is_disabled":false,"rental_uris":{"android":"levelo://app?vid=fd403bfc-2700-4fb0-81c1-00242894eda0","ios":"levelo://app?vid=fd403bfc-2700-4fb0-81c1-00242894eda0"},"vehicle_type_id":"4","last_reported":1693947954,"current_range_meters":20000,"station_id":"ce4bhs92rcd13ifvqi0g","pricing_plan_id":"free"},{"bike_id":"9d476c06-318d-48a5-814e-254dbe92cd00","system_id":"levelo_inurba_marseille","lat":43.32827,"lon":5.36676,"is_reserved":false,"is_disabled":false,"rental_uris":{"android":"levelo://app?vid=9d476c06-318d-48a5-814e-254dbe92cd00","ios":"levelo://app?vid=9d476c06-318d-48a5-814e-254dbe92cd00"},"vehicle_type_id":"4","last_reported":1693947954,"current_range_meters":15200,"station_id":"ce4bhs92rcd13ifvqi0g","pricing_plan_id":"free"},{"bike_id":"475c0d77-a6c9-49b2-830f-2b642e3ab68b","system_id":"levelo_inurba_marseille","lat":43.3283,"lon":5.36688,"is_reserved":false,"is_disabled":false,"rental_uris":{"android":"levelo://app?vid=475c0d77-a6c9-49b2-830f-2b642e3ab68b","ios":"levelo://app?vid=475c0d77-a6c9-49b2-830f-2b642e3ab68b"},"vehicle_type_id":"4","last_reported":1693947954,"current_range_meters":12400,"station_id":"ce4bhs92rcd13ifvqi0g","pricing_plan_id":"free"},{"bike_id":"bd0bd295-6ecc-40c4-a4d0-89f645593756","system_id":"levelo_inurba_marseille","lat":43.297163,"lon":5.365866,"is_reserved":false,"is_disabled":false,"rental_uris":{"android":"levelo://app?vid=bd0bd295-6ecc-40c4-a4d0-89f645593756","ios":"levelo://app?vid=bd0bd295-6ecc-40c4-a4d0-89f645593756"},"vehicle_type_id":"4","last_reported":1693947954,"current_range_meters":20800,"station_id":"ce4bgn12rcd13ifvqbt0","pricing_plan_id":"free"},{"bike_id":"dd789220-e7b5-42c1-b9dc-dc4243148021","system_id":"levelo_inurba_marseille","lat":43.29703,"lon":5.36606,"is_reserved":false,"is_disabled":false,"rental_uris":{"android":"levelo://app?vid=dd789220-e7b5-42c1-b9dc-dc4243148021","ios":"levelo://app?vid=dd789220-e7b5-42c1-b9dc-dc4243148021"},"vehicle_type_id":"4","last_reported":1693947954,"current_range_meters":19200,"station_id":"ce4bgn12rcd13ifvqbt0","pricing_plan_id":"free"},{"bike_id":"ac46162e-b126-40ea-b8fe-8013ce1ece45","system_id":"levelo_inurba_marseille","lat":43.297,"lon":5.371,"is_reserved":false,"is_disabled":false,"rental_uris":{"android":"levelo://app?vid=ac46162e-b126-40ea-b8fe-8013ce1ece45","ios":"levelo://app?vid=ac46162e-b126-40ea-b8fe-8013ce1ece45"},"vehicle_type_id":"4","last_reported":1693947954,"current_range_meters":9200,"station_id":"","pricing_plan_id":"free"},{"bike_id":"d3139180-8ba9-4c91-b6e4-8baae3c22113","system_id":"levelo_inurba_marseille","lat":43.296131,"lon":5.370773,"is_reserved":false,"is_disabled":false,"rental_uris":{"android":"levelo://app?vid=d3139180-8ba9-4c91-b6e4-8baae3c22113","ios":"levelo://app?vid=d3139180-8ba9-4c91-b6e4-8baae3c22113"},"vehicle_type_id":"4","last_reported":1693947954,"current_range_meters":31600,"station_id":"ce4bgnh2rcd13ifvqc0g","pricing_plan_id":"free"},{"bike_id":"a6bde7eb-f3a3-47b1-b7f7-22c3058c70fb","system_id":"levelo_inurba_marseille","lat":43.2964,"lon":5.37297,"is_reserved":false,"is_disabled":false,"rental_uris":{"android":"levelo://app?vid=a6bde7eb-f3a3-47b1-b7f7-22c3058c70fb","ios":"levelo://app?vid=a6bde7eb-f3a3-47b1-b7f7-22c3058c70fb"},"vehicle_type_id":"4","last_reported":1693947954,"current_range_meters":14400,"station_id":"ce4bgk12rcd13ifvqbj0","pricing_plan_id":"free"},{"bike_id":"6bb517d9-cdca-4b85-b27e-37e651b6b9b6","system_id":"levelo_inurba_marseille","lat":43.29577,"lon":5.36739,"is_reserved":false,"is_disabled":false,"rental_uris":{"android":"levelo://app?vid=6bb517d9-cdca-4b85-b27e-37e651b6b9b6","ios":"levelo://app?vid=6bb517d9-cdca-4b85-b27e-37e651b6b9b6"},"vehicle_type_id":"4","last_reported":1693947954,"current_range_meters":16000,"station_id":"","pricing_plan_id":"free"},{"bike_id":"9bd32893-81e2-4cc8-a0c2-9029c6ac5ac9","system_id":"levelo_inurba_marseille","lat":43.32118,"lon":5.38744,"is_reserved":false,"is_disabled":false,"rental_uris":{"android":"levelo://app?vid=9bd32893-81e2-4cc8-a0c2-9029c6ac5ac9","ios":"levelo://app?vid=9bd32893-81e2-4cc8-a0c2-9029c6ac5ac9"},"vehicle_type_id":"4","last_reported":1693947954,"current_range_meters":0,"station_id":"","pricing_plan_id":"free"},{"bike_id":"746fbe24-277d-453c-8432-a4f7ec5472a1","system_id":"levelo_inurba_marseille","lat":43.32289,"lon":5.38617,"is_reserved":false,"is_disabled":false,"rental_uris":{"android":"levelo://app?vid=746fbe24-277d-453c-8432-a4f7ec5472a1","ios":"levelo://app?vid=746fbe24-277d-453c-8432-a4f7ec5472a1"},"vehicle_type_id":"4","last_reported":1693947954,"current_range_meters":22400,"station_id":"","pricing_plan_id":"free"},{"bike_id":"2c93ce6f-c5e1-4ec9-9941-ebb7469bb8f2","system_id":"levelo_inurba_marseille","lat":43.31763,"lon":5.39005,"is_reserved":false,"is_disabled":false,"rental_uris":{"android":"levelo://app?vid=2c93ce6f-c5e1-4ec9-9941-ebb7469bb8f2","ios":"levelo://app?vid=2c93ce6f-c5e1-4ec9-9941-ebb7469bb8f2"},"vehicle_type_id":"4","last_reported":1693947954,"current_range_meters":3600,"station_id":"ce4bhqp2rcd13ifvqhng","pricing_plan_id":"free"},{"bike_id":"520f27a3-4eb6-47d7-9c88-ac2d43b74815","system_id":"levelo_inurba_marseille","lat":43.317557,"lon":5.390173,"is_reserved":false,"is_disabled":false,"rental_uris":{"android":"levelo://app?vid=520f27a3-4eb6-47d7-9c88-ac2d43b74815","ios":"levelo://app?vid=520f27a3-4eb6-47d7-9c88-ac2d43b74815"},"vehicle_type_id":"4","last_reported":1693947954,"current_range_meters":30400,"station_id":"ce4bhqp2rcd13ifvqhng","pricing_plan_id":"free"},{"bike_id":"433931d5-9283-42c8-81a7-d3cfa86acb40","system_id":"levelo_inurba_marseille","lat":43.317557,"lon":5.390173,"is_reserved":false,"is_disabled":false,"rental_uris":{"android":"levelo://app?vid=433931d5-9283-42c8-81a7-d3cfa86acb40","ios":"levelo://app?vid=433931d5-9283-42c8-81a7-d3cfa86acb40"},"vehicle_type_id":"4","last_reported":1693947954,"current_range_meters":29600,"station_id":"ce4bhqp2rcd13ifvqhng","pricing_plan_id":"free"},{"bike_id":"62699e2a-e6f9-48ff-9537-7f703af693c5","system_id":"levelo_inurba_marseille","lat":43.29736,"lon":5.37878,"is_reserved":false,"is_disabled":false,"rental_uris":{"android":"levelo://app?vid=62699e2a-e6f9-48ff-9537-7f703af693c5","ios":"levelo://app?vid=62699e2a-e6f9-48ff-9537-7f703af693c5"},"vehicle_type_id":"4","last_reported":1693947954,"current_range_meters":28400,"station_id":"","pricing_plan_id":"free"},{"bike_id":"aaca0f06-5d4e-4553-a348-ead7f9116936","system_id":"levelo_inurba_marseille","lat":43.32164,"lon":5.38831,"is_reserved":false,"is_disabled":false,"rental_uris":{"android":"levelo://app?vid=aaca0f06-5d4e-4553-a348-ead7f9116936","ios":"levelo://app?vid=aaca0f06-5d4e-4553-a348-ead7f9116936"},"vehicle_type_id":"4","last_reported":1693947954,"current_range_meters":3200,"station_id":"","pricing_plan_id":"free"},{"bike_id":"5d93c229-827f-4100-905e-21bbf4e43f52","system_id":"levelo_inurba_marseille","lat":43.296263,"lon":5.377094,"is_reserved":false,"is_disabled":false,"rental_uris":{"android":"levelo://app?vid=5d93c229-827f-4100-905e-21bbf4e43f52","ios":"levelo://app?vid=5d93c229-827f-4100-905e-21bbf4e43f52"},"vehicle_type_id":"4","last_reported":1693947954,"current_range_meters":800,"station_id":"ce4bgi92rcd13ifvqb90","pricing_plan_id":"free"},{"bike_id":"0d406717-1403-41a9-bef2-701d1fb7bd32","system_id":"levelo_inurba_marseille","lat":43.30441,"lon":5.38902,"is_reserved":false,"is_disabled":false,"rental_uris":{"android":"levelo://app?vid=0d406717-1403-41a9-bef2-701d1fb7bd32","ios":"levelo://app?vid=0d406717-1403-41a9-bef2-701d1fb7bd32"},"vehicle_type_id":"4","last_reported":1693947954,"current_range_meters":31200,"station_id":"ce4bgk12rcd13ifvqbi0","pricing_plan_id":"free"},{"bike_id":"7f5fa9ed-e773-4c21-8f67-e22822140887","system_id":"levelo_inurba_marseille","lat":43.2978,"lon":5.38114,"is_reserved":false,"is_disabled":false,"rental_uris":{"android":"levelo://app?vid=7f5fa9ed-e773-4c21-8f67-e22822140887","ios":"levelo://app?vid=7f5fa9ed-e773-4c21-8f67-e22822140887"},"vehicle_type_id":"4","last_reported":1693947954,"current_range_meters":0,"station_id":"ce4bgip2rcd13ifvqbb0","pricing_plan_id":"free"},{"bike_id":"64d0c1b9-9152-4a60-a076-1a1574b81584","system_id":"levelo_inurba_marseille","lat":43.299717,"lon":5.384845,"is_reserved":false,"is_disabled":false,"rental_uris":{"android":"levelo://app?vid=64d0c1b9-9152-4a60-a076-1a1574b81584","ios":"levelo://app?vid=64d0c1b9-9152-4a60-a076-1a1574b81584"},"vehicle_type_id":"4","last_reported":1693947954,"current_range_meters":10000,"station_id":"ce4bgj92rcd13ifvqbd0","pricing_plan_id":"free"},{"bike_id":"6ec22e17-f179-449d-bcae-c9f927c982cd","system_id":"levelo_inurba_marseille","lat":43.278128,"lon":5.407195,"is_reserved":false,"is_disabled":false,"rental_uris":{"android":"levelo://app?vid=6ec22e17-f179-449d-bcae-c9f927c982cd","ios":"levelo://app?vid=6ec22e17-f179-449d-bcae-c9f927c982cd"},"vehicle_type_id":"4","last_reported":1693947954,"current_range_meters":2800,"station_id":"ce4bhnh2rcd13ifvqgtg","pricing_plan_id":"free"},{"bike_id":"28d9ca67-c88d-45e3-b0e5-70f99f83dceb","system_id":"levelo_inurba_marseille","lat":43.299707,"lon":5.384859,"is_reserved":false,"is_disabled":false,"rental_uris":{"android":"levelo://app?vid=28d9ca67-c88d-45e3-b0e5-70f99f83dceb","ios":"levelo://app?vid=28d9ca67-c88d-45e3-b0e5-70f99f83dceb"},"vehicle_type_id":"4","last_reported":1693947954,"current_range_meters":400,"station_id":"ce4bgj92rcd13ifvqbd0","pricing_plan_id":"free"},{"bike_id":"8bef68f7-23c8-4a1b-b4e6-7a78964612ea","system_id":"levelo_inurba_marseille","lat":43.33096,"lon":5.36218,"is_reserved":false,"is_disabled":false,"rental_uris":{"android":"levelo://app?vid=8bef68f7-23c8-4a1b-b4e6-7a78964612ea","ios":"levelo://app?vid=8bef68f7-23c8-4a1b-b4e6-7a78964612ea"},"vehicle_type_id":"4","last_reported":1693947954,"current_range_meters":0,"station_id":"","pricing_plan_id":"free"},{"bike_id":"45c9fdea-e30d-41d5-b4f4-412485d00a19","system_id":"levelo_inurba_marseille","lat":43.32359,"lon":5.38878,"is_reserved":false,"is_disabled":false,"rental_uris":{"android":"levelo://app?vid=45c9fdea-e30d-41d5-b4f4-412485d00a19","ios":"levelo://app?vid=45c9fdea-e30d-41d5-b4f4-412485d00a19"},"vehicle_type_id":"4","last_reported":1693947954,"current_range_meters":17600,"station_id":"ce4bhqp2rcd13ifvqhog","pricing_plan_id":"free"},{"bike_id":"7097dffe-3380-4906-8d59-15ee4533ddb0","system_id":"levelo_inurba_marseille","lat":43.32367,"lon":5.38876,"is_reserved":false,"is_disabled":false,"rental_uris":{"android":"levelo://app?vid=7097dffe-3380-4906-8d59-15ee4533ddb0","ios":"levelo://app?vid=7097dffe-3380-4906-8d59-15ee4533ddb0"},"vehicle_type_id":"4","last_reported":1693947954,"current_range_meters":27600,"station_id":"ce4bhqp2rcd13ifvqhog","pricing_plan_id":"free"},{"bike_id":"00e8521b-07a0-4f19-9841-98964ab8bda2","system_id":"levelo_inurba_marseille","lat":43.32367,"lon":5.388836,"is_reserved":false,"is_disabled":false,"rental_uris":{"android":"levelo://app?vid=00e8521b-07a0-4f19-9841-98964ab8bda2","ios":"levelo://app?vid=00e8521b-07a0-4f19-9841-98964ab8bda2"},"vehicle_type_id":"4","last_reported":1693947954,"current_range_meters":5600,"station_id":"ce4bhqp2rcd13ifvqhog","pricing_plan_id":"free"},{"bike_id":"94773ab3-ff59-4c27-8b40-dfb184749a1c","system_id":"levelo_inurba_marseille","lat":43.32365,"lon":5.38881,"is_reserved":false,"is_disabled":false,"rental_uris":{"android":"levelo://app?vid=94773ab3-ff59-4c27-8b40-dfb184749a1c","ios":"levelo://app?vid=94773ab3-ff59-4c27-8b40-dfb184749a1c"},"vehicle_type_id":"4","last_reported":1693947954,"current_range_meters":8400,"station_id":"ce4bhqp2rcd13ifvqhog","pricing_plan_id":"free"},{"bike_id":"16724ce4-6de5-4bc4-8104-909cf7726958","system_id":"levelo_inurba_marseille","lat":43.32364,"lon":5.38882,"is_reserved":false,"is_disabled":false,"rental_uris":{"android":"levelo://app?vid=16724ce4-6de5-4bc4-8104-909cf7726958","ios":"levelo://app?vid=16724ce4-6de5-4bc4-8104-909cf7726958"},"vehicle_type_id":"4","last_reported":1693947954,"current_range_meters":2800,"station_id":"ce4bhqp2rcd13ifvqhog","pricing_plan_id":"free"},{"bike_id":"928dfc7f-1832-4028-a89e-2b44689d5c2f","system_id":"levelo_inurba_marseille","lat":43.32363,"lon":5.38883,"is_reserved":false,"is_disabled":false,"rental_uris":{"android":"levelo://app?vid=928dfc7f-1832-4028-a89e-2b44689d5c2f","ios":"levelo://app?vid=928dfc7f-1832-4028-a89e-2b44689d5c2f"},"vehicle_type_id":"4","last_reported":1693947954,"current_range_meters":22800,"station_id":"ce4bhqp2rcd13ifvqhog","pricing_plan_id":"free"},{"bike_id":"9b06e047-034a-4edd-9680-8fbe0e0cd281","system_id":"levelo_inurba_marseille","lat":43.32362,"lon":5.38885,"is_reserved":false,"is_disabled":false,"rental_uris":{"android":"levelo://app?vid=9b06e047-034a-4edd-9680-8fbe0e0cd281","ios":"levelo://app?vid=9b06e047-034a-4edd-9680-8fbe0e0cd281"},"vehicle_type_id":"4","last_reported":1693947954,"current_range_meters":6000,"station_id":"ce4bhqp2rcd13ifvqhog","pricing_plan_id":"free"},{"bike_id":"d6f73236-bcb4-4dcb-8944-723d308c5b51","system_id":"levelo_inurba_marseille","lat":43.32366,"lon":5.38882,"is_reserved":false,"is_disabled":false,"rental_uris":{"android":"levelo://app?vid=d6f73236-bcb4-4dcb-8944-723d308c5b51","ios":"levelo://app?vid=d6f73236-bcb4-4dcb-8944-723d308c5b51"},"vehicle_type_id":"4","last_reported":1693947954,"current_range_meters":13200,"station_id":"ce4bhqp2rcd13ifvqhog","pricing_plan_id":"free"},{"bike_id":"73af4e05-250a-4849-8b19-e6ff6f89a692","system_id":"levelo_inurba_marseille","lat":43.32366,"lon":5.38883,"is_reserved":false,"is_disabled":false,"rental_uris":{"android":"levelo://app?vid=73af4e05-250a-4849-8b19-e6ff6f89a692","ios":"levelo://app?vid=73af4e05-250a-4849-8b19-e6ff6f89a692"},"vehicle_type_id":"4","last_reported":1693947954,"current_range_meters":24800,"station_id":"ce4bhqp2rcd13ifvqhog","pricing_plan_id":"free"},{"bike_id":"d29ed770-070d-4df8-a75c-5f6ef8ee054b","system_id":"levelo_inurba_marseille","lat":43.32365,"lon":5.38884,"is_reserved":false,"is_disabled":false,"rental_uris":{"android":"levelo://app?vid=d29ed770-070d-4df8-a75c-5f6ef8ee054b","ios":"levelo://app?vid=d29ed770-070d-4df8-a75c-5f6ef8ee054b"},"vehicle_type_id":"4","last_reported":1693947954,"current_range_meters":14000,"station_id":"ce4bhqp2rcd13ifvqhog","pricing_plan_id":"free"},{"bike_id":"e4395ea4-f9a5-485f-ac63-125661b5be0e","system_id":"levelo_inurba_marseille","lat":43.32363,"lon":5.38887,"is_reserved":false,"is_disabled":false,"rental_uris":{"android":"levelo://app?vid=e4395ea4-f9a5-485f-ac63-125661b5be0e","ios":"levelo://app?vid=e4395ea4-f9a5-485f-ac63-125661b5be0e"},"vehicle_type_id":"4","last_reported":1693947954,"current_range_meters":26400,"station_id":"ce4bhqp2rcd13ifvqhog","pricing_plan_id":"free"},{"bike_id":"9152f0ca-9341-48dc-bec9-873e0b1f2aba","system_id":"levelo_inurba_marseille","lat":43.32364,"lon":5.38888,"is_reserved":false,"is_disabled":false,"rental_uris":{"android":"levelo://app?vid=9152f0ca-9341-48dc-bec9-873e0b1f2aba","ios":"levelo://app?vid=9152f0ca-9341-48dc-bec9-873e0b1f2aba"},"vehicle_type_id":"4","last_reported":1693947954,"current_range_meters":23200,"station_id":"ce4bhqp2rcd13ifvqhog","pricing_plan_id":"free"},{"bike_id":"818de732-806e-49dc-8c86-fa91d29c378c","system_id":"levelo_inurba_marseille","lat":43.32366,"lon":5.38887,"is_reserved":false,"is_disabled":false,"rental_uris":{"android":"levelo://app?vid=818de732-806e-49dc-8c86-fa91d29c378c","ios":"levelo://app?vid=818de732-806e-49dc-8c86-fa91d29c378c"},"vehicle_type_id":"4","last_reported":1693947954,"current_range_meters":17200,"station_id":"ce4bhqp2rcd13ifvqhog","pricing_plan_id":"free"},{"bike_id":"c9c23b60-4928-406c-9b92-70bb5f386779","system_id":"levelo_inurba_marseille","lat":43.32361,"lon":5.38892,"is_reserved":false,"is_disabled":false,"rental_uris":{"android":"levelo://app?vid=c9c23b60-4928-406c-9b92-70bb5f386779","ios":"levelo://app?vid=c9c23b60-4928-406c-9b92-70bb5f386779"},"vehicle_type_id":"4","last_reported":1693947954,"current_range_meters":13200,"station_id":"ce4bhqp2rcd13ifvqhog","pricing_plan_id":"free"},{"bike_id":"19993dd1-0237-4d8c-9ff1-10f8d4b479b6","system_id":"levelo_inurba_marseille","lat":43.32367,"lon":5.388836,"is_reserved":false,"is_disabled":false,"rental_uris":{"android":"levelo://app?vid=19993dd1-0237-4d8c-9ff1-10f8d4b479b6","ios":"levelo://app?vid=19993dd1-0237-4d8c-9ff1-10f8d4b479b6"},"vehicle_type_id":"4","last_reported":1693947954,"current_range_meters":8400,"station_id":"ce4bhqp2rcd13ifvqhog","pricing_plan_id":"free"},{"bike_id":"b7b5d100-61cb-4e5a-8c19-69bf008c82ff","system_id":"levelo_inurba_marseille","lat":43.32367,"lon":5.388836,"is_reserved":false,"is_disabled":false,"rental_uris":{"android":"levelo://app?vid=b7b5d100-61cb-4e5a-8c19-69bf008c82ff","ios":"levelo://app?vid=b7b5d100-61cb-4e5a-8c19-69bf008c82ff"},"vehicle_type_id":"4","last_reported":1693947954,"current_range_meters":28400,"station_id":"ce4bhqp2rcd13ifvqhog","pricing_plan_id":"free"},{"bike_id":"f31f26fa-e5db-43b0-9dd3-9cce9465a765","system_id":"levelo_inurba_marseille","lat":43.32368,"lon":5.38895,"is_reserved":false,"is_disabled":false,"rental_uris":{"android":"levelo://app?vid=f31f26fa-e5db-43b0-9dd3-9cce9465a765","ios":"levelo://app?vid=f31f26fa-e5db-43b0-9dd3-9cce9465a765"},"vehicle_type_id":"4","last_reported":1693947954,"current_range_meters":26000,"station_id":"ce4bhqp2rcd13ifvqhog","pricing_plan_id":"free"},{"bike_id":"eb802a1b-307f-4055-881b-00340b80dfa0","system_id":"levelo_inurba_marseille","lat":43.32373,"lon":5.38925,"is_reserved":false,"is_disabled":false,"rental_uris":{"android":"levelo://app?vid=eb802a1b-307f-4055-881b-00340b80dfa0","ios":"levelo://app?vid=eb802a1b-307f-4055-881b-00340b80dfa0"},"vehicle_type_id":"4","last_reported":1693947954,"current_range_meters":14400,"station_id":"ce4bhqp2rcd13ifvqhog","pricing_plan_id":"free"},{"bike_id":"a8f28bc8-479e-4ff8-b078-d1969c3d2fdc","system_id":"levelo_inurba_marseille","lat":43.29601,"lon":5.381084,"is_reserved":false,"is_disabled":false,"rental_uris":{"android":"levelo://app?vid=a8f28bc8-479e-4ff8-b078-d1969c3d2fdc","ios":"levelo://app?vid=a8f28bc8-479e-4ff8-b078-d1969c3d2fdc"},"vehicle_type_id":"4","last_reported":1693947954,"current_range_meters":2400,"station_id":"ce4bgl12rcd13ifvqbo0","pricing_plan_id":"free"},{"bike_id":"e6421d04-fa56-456b-9e33-899afab1a330","system_id":"levelo_inurba_marseille","lat":43.32451,"lon":5.38951,"is_reserved":false,"is_disabled":false,"rental_uris":{"android":"levelo://app?vid=e6421d04-fa56-456b-9e33-899afab1a330","ios":"levelo://app?vid=e6421d04-fa56-456b-9e33-899afab1a330"},"vehicle_type_id":"4","last_reported":1693947954,"current_range_meters":25600,"station_id":"","pricing_plan_id":"free"},{"bike_id":"319f30db-281c-4480-8fa7-f3057934d44c","system_id":"levelo_inurba_marseille","lat":43.305994,"lon":5.393687,"is_reserved":false,"is_disabled":false,"rental_uris":{"android":"levelo://app?vid=319f30db-281c-4480-8fa7-f3057934d44c","ios":"levelo://app?vid=319f30db-281c-4480-8fa7-f3057934d44c"},"vehicle_type_id":"4","last_reported":1693947954,"current_range_meters":4800,"station_id":"ce4bh0p2rcd13ifvqd80","pricing_plan_id":"free"},{"bike_id":"ecad864c-4659-40e2-9240-ed2df8367f93","system_id":"levelo_inurba_marseille","lat":43.30582,"lon":5.39365,"is_reserved":false,"is_disabled":false,"rental_uris":{"android":"levelo://app?vid=ecad864c-4659-40e2-9240-ed2df8367f93","ios":"levelo://app?vid=ecad864c-4659-40e2-9240-ed2df8367f93"},"vehicle_type_id":"4","last_reported":1693947954,"current_range_meters":29200,"station_id":"ce4bh0p2rcd13ifvqd80","pricing_plan_id":"free"},{"bike_id":"ca65b4ec-39a9-446d-abd2-8cadbcee6c1f","system_id":"levelo_inurba_marseille","lat":43.30299,"lon":5.39206,"is_reserved":false,"is_disabled":false,"rental_uris":{"android":"levelo://app?vid=ca65b4ec-39a9-446d-abd2-8cadbcee6c1f","ios":"levelo://app?vid=ca65b4ec-39a9-446d-abd2-8cadbcee6c1f"},"vehicle_type_id":"4","last_reported":1693947954,"current_range_meters":14000,"station_id":"ce4bgkh2rcd13ifvqbk0","pricing_plan_id":"free"},{"bike_id":"59d4a7cc-c4d8-47e1-a63f-2e26b5d209c3","system_id":"levelo_inurba_marseille","lat":43.2936,"lon":5.37835,"is_reserved":false,"is_disabled":false,"rental_uris":{"android":"levelo://app?vid=59d4a7cc-c4d8-47e1-a63f-2e26b5d209c3","ios":"levelo://app?vid=59d4a7cc-c4d8-47e1-a63f-2e26b5d209c3"},"vehicle_type_id":"4","last_reported":1693947954,"current_range_meters":31200,"station_id":"ce4bgjh2rcd13ifvqbf0","pricing_plan_id":"free"},{"bike_id":"38fef587-7cc5-4800-b069-87b8f296a10a","system_id":"levelo_inurba_marseille","lat":43.30303,"lon":5.39218,"is_reserved":false,"is_disabled":false,"rental_uris":{"android":"levelo://app?vid=38fef587-7cc5-4800-b069-87b8f296a10a","ios":"levelo://app?vid=38fef587-7cc5-4800-b069-87b8f296a10a"},"vehicle_type_id":"4","last_reported":1693947954,"current_range_meters":27200,"station_id":"ce4bgkh2rcd13ifvqbk0","pricing_plan_id":"free"},{"bike_id":"b3e68800-189b-4c75-bc99-3a8b2760c546","system_id":"levelo_inurba_marseille","lat":43.303,"lon":5.39216,"is_reserved":false,"is_disabled":false,"rental_uris":{"android":"levelo://app?vid=b3e68800-189b-4c75-bc99-3a8b2760c546","ios":"levelo://app?vid=b3e68800-189b-4c75-bc99-3a8b2760c546"},"vehicle_type_id":"4","last_reported":1693947954,"current_range_meters":30800,"station_id":"ce4bgkh2rcd13ifvqbk0","pricing_plan_id":"free"},{"bike_id":"e589ea50-bacb-426c-a0a4-d1cf36c22221","system_id":"levelo_inurba_marseille","lat":43.30301,"lon":5.39218,"is_reserved":false,"is_disabled":false,"rental_uris":{"android":"levelo://app?vid=e589ea50-bacb-426c-a0a4-d1cf36c22221","ios":"levelo://app?vid=e589ea50-bacb-426c-a0a4-d1cf36c22221"},"vehicle_type_id":"4","last_reported":1693947954,"current_range_meters":9600,"station_id":"ce4bgkh2rcd13ifvqbk0","pricing_plan_id":"free"},{"bike_id":"7daecf50-af1f-4af1-b63c-120fad8b33f6","system_id":"levelo_inurba_marseille","lat":43.303084,"lon":5.392239,"is_reserved":false,"is_disabled":false,"rental_uris":{"android":"levelo://app?vid=7daecf50-af1f-4af1-b63c-120fad8b33f6","ios":"levelo://app?vid=7daecf50-af1f-4af1-b63c-120fad8b33f6"},"vehicle_type_id":"4","last_reported":1693947954,"current_range_meters":3200,"station_id":"","pricing_plan_id":"free"},{"bike_id":"4b569fc6-b320-4ef6-8228-0ce49763334f","system_id":"levelo_inurba_marseille","lat":43.30299,"lon":5.39235,"is_reserved":false,"is_disabled":false,"rental_uris":{"android":"levelo://app?vid=4b569fc6-b320-4ef6-8228-0ce49763334f","ios":"levelo://app?vid=4b569fc6-b320-4ef6-8228-0ce49763334f"},"vehicle_type_id":"4","last_reported":1693947954,"current_range_meters":20400,"station_id":"ce4bgkh2rcd13ifvqbk0","pricing_plan_id":"free"},{"bike_id":"e8a79641-9f32-4b21-a3ec-91b397933e35","system_id":"levelo_inurba_marseille","lat":43.30104,"lon":5.39085,"is_reserved":false,"is_disabled":false,"rental_uris":{"android":"levelo://app?vid=e8a79641-9f32-4b21-a3ec-91b397933e35","ios":"levelo://app?vid=e8a79641-9f32-4b21-a3ec-91b397933e35"},"vehicle_type_id":"4","last_reported":1693947954,"current_range_meters":0,"station_id":"ce4bh192rcd13ifvqdb0","pricing_plan_id":"free"},{"bike_id":"fe0d56bc-3a79-4445-9632-e9819de6f156","system_id":"levelo_inurba_marseille","lat":43.300852,"lon":5.390859,"is_reserved":false,"is_disabled":false,"rental_uris":{"android":"levelo://app?vid=fe0d56bc-3a79-4445-9632-e9819de6f156","ios":"levelo://app?vid=fe0d56bc-3a79-4445-9632-e9819de6f156"},"vehicle_type_id":"4","last_reported":1693947954,"current_range_meters":19600,"station_id":"ce4bh192rcd13ifvqdb0","pricing_plan_id":"free"},{"bike_id":"95273788-ec1e-4f83-b5b0-18f8fef12d6b","system_id":"levelo_inurba_marseille","lat":43.300852,"lon":5.390859,"is_reserved":false,"is_disabled":false,"rental_uris":{"android":"levelo://app?vid=95273788-ec1e-4f83-b5b0-18f8fef12d6b","ios":"levelo://app?vid=95273788-ec1e-4f83-b5b0-18f8fef12d6b"},"vehicle_type_id":"4","last_reported":1693947954,"current_range_meters":29600,"station_id":"ce4bh192rcd13ifvqdb0","pricing_plan_id":"free"},{"bike_id":"fcf1ec60-aa0d-4011-83a8-a1e6fefc71ac","system_id":"levelo_inurba_marseille","lat":43.300852,"lon":5.390859,"is_reserved":false,"is_disabled":false,"rental_uris":{"android":"levelo://app?vid=fcf1ec60-aa0d-4011-83a8-a1e6fefc71ac","ios":"levelo://app?vid=fcf1ec60-aa0d-4011-83a8-a1e6fefc71ac"},"vehicle_type_id":"4","last_reported":1693947954,"current_range_meters":32000,"station_id":"ce4bh192rcd13ifvqdb0","pricing_plan_id":"free"},{"bike_id":"8f7417ac-b231-406a-b0fa-b474fd202efa","system_id":"levelo_inurba_marseille","lat":43.300852,"lon":5.390859,"is_reserved":false,"is_disabled":false,"rental_uris":{"android":"levelo://app?vid=8f7417ac-b231-406a-b0fa-b474fd202efa","ios":"levelo://app?vid=8f7417ac-b231-406a-b0fa-b474fd202efa"},"vehicle_type_id":"4","last_reported":1693947954,"current_range_meters":21600,"station_id":"ce4bh192rcd13ifvqdb0","pricing_plan_id":"free"},{"bike_id":"e758d8ac-b5da-419a-a9c4-a2a3da88e380","system_id":"levelo_inurba_marseille","lat":43.30085,"lon":5.390856,"is_reserved":false,"is_disabled":false,"rental_uris":{"android":"levelo://app?vid=e758d8ac-b5da-419a-a9c4-a2a3da88e380","ios":"levelo://app?vid=e758d8ac-b5da-419a-a9c4-a2a3da88e380"},"vehicle_type_id":"4","last_reported":1693947954,"current_range_meters":29600,"station_id":"ce4bh192rcd13ifvqdb0","pricing_plan_id":"free"},{"bike_id":"61447436-d2b2-4f3e-a231-69a77d0ceedc","system_id":"levelo_inurba_marseille","lat":43.30085,"lon":5.390856,"is_reserved":false,"is_disabled":false,"rental_uris":{"android":"levelo://app?vid=61447436-d2b2-4f3e-a231-69a77d0ceedc","ios":"levelo://app?vid=61447436-d2b2-4f3e-a231-69a77d0ceedc"},"vehicle_type_id":"4","last_reported":1693947954,"current_range_meters":0,"station_id":"ce4bh192rcd13ifvqdb0","pricing_plan_id":"free"},{"bike_id":"974beff6-62bf-422f-96c4-cd5afee3d6c2","system_id":"levelo_inurba_marseille","lat":43.298764,"lon":5.388973,"is_reserved":false,"is_disabled":false,"rental_uris":{"android":"levelo://app?vid=974beff6-62bf-422f-96c4-cd5afee3d6c2","ios":"levelo://app?vid=974beff6-62bf-422f-96c4-cd5afee3d6c2"},"vehicle_type_id":"4","last_reported":1693947954,"current_range_meters":24400,"station_id":"ce4bh392rcd13ifvqdl0","pricing_plan_id":"free"},{"bike_id":"be2a5a6d-28d8-4a1b-9b3a-7ceaeac0819f","system_id":"levelo_inurba_marseille","lat":43.298613,"lon":5.388926,"is_reserved":false,"is_disabled":false,"rental_uris":{"android":"levelo://app?vid=be2a5a6d-28d8-4a1b-9b3a-7ceaeac0819f","ios":"levelo://app?vid=be2a5a6d-28d8-4a1b-9b3a-7ceaeac0819f"},"vehicle_type_id":"4","last_reported":1693947954,"current_range_meters":7600,"station_id":"","pricing_plan_id":"free"},{"bike_id":"06255bcf-2538-46da-9eae-cb04975cf8ed","system_id":"levelo_inurba_marseille","lat":43.291889,"lon":5.358443,"is_reserved":false,"is_disabled":false,"rental_uris":{"android":"levelo://app?vid=06255bcf-2538-46da-9eae-cb04975cf8ed","ios":"levelo://app?vid=06255bcf-2538-46da-9eae-cb04975cf8ed"},"vehicle_type_id":"4","last_reported":1693947954,"current_range_meters":29600,"station_id":"ce4bhb12rcd13ifvqel0","pricing_plan_id":"free"},{"bike_id":"d1078727-66b1-4a24-b755-2d87aba2f5c9","system_id":"levelo_inurba_marseille","lat":43.3088,"lon":5.39635,"is_reserved":false,"is_disabled":false,"rental_uris":{"android":"levelo://app?vid=d1078727-66b1-4a24-b755-2d87aba2f5c9","ios":"levelo://app?vid=d1078727-66b1-4a24-b755-2d87aba2f5c9"},"vehicle_type_id":"4","last_reported":1693947954,"current_range_meters":6000,"station_id":"ce4bh012rcd13ifvqcv0","pricing_plan_id":"free"},{"bike_id":"3c8f9b05-f1c8-4f2f-a300-3c12925cea39","system_id":"levelo_inurba_marseille","lat":43.30881,"lon":5.39637,"is_reserved":false,"is_disabled":false,"rental_uris":{"android":"levelo://app?vid=3c8f9b05-f1c8-4f2f-a300-3c12925cea39","ios":"levelo://app?vid=3c8f9b05-f1c8-4f2f-a300-3c12925cea39"},"vehicle_type_id":"4","last_reported":1693947954,"current_range_meters":0,"station_id":"ce4bh012rcd13ifvqcv0","pricing_plan_id":"free"},{"bike_id":"297b1550-f152-42ff-94b8-ffbfdf24849f","system_id":"levelo_inurba_marseille","lat":43.30882,"lon":5.39639,"is_reserved":false,"is_disabled":false,"rental_uris":{"android":"levelo://app?vid=297b1550-f152-42ff-94b8-ffbfdf24849f","ios":"levelo://app?vid=297b1550-f152-42ff-94b8-ffbfdf24849f"},"vehicle_type_id":"4","last_reported":1693947954,"current_range_meters":1200,"station_id":"ce4bh012rcd13ifvqcv0","pricing_plan_id":"free"},{"bike_id":"7d847e65-b456-4375-8104-2b89f520fd1f","system_id":"levelo_inurba_marseille","lat":43.31325,"lon":5.39688,"is_reserved":false,"is_disabled":false,"rental_uris":{"android":"levelo://app?vid=7d847e65-b456-4375-8104-2b89f520fd1f","ios":"levelo://app?vid=7d847e65-b456-4375-8104-2b89f520fd1f"},"vehicle_type_id":"4","last_reported":1693947954,"current_range_meters":400,"station_id":"ce4bgvp2rcd13ifvqcu0","pricing_plan_id":"free"},{"bike_id":"504eb388-e1b9-4f93-88ee-135289cfebf7","system_id":"levelo_inurba_marseille","lat":43.30877,"lon":5.39639,"is_reserved":false,"is_disabled":false,"rental_uris":{"android":"levelo://app?vid=504eb388-e1b9-4f93-88ee-135289cfebf7","ios":"levelo://app?vid=504eb388-e1b9-4f93-88ee-135289cfebf7"},"vehicle_type_id":"4","last_reported":1693947954,"current_range_meters":2400,"station_id":"ce4bh012rcd13ifvqcv0","pricing_plan_id":"free"},{"bike_id":"5483b6cc-9535-4cb7-aabc-84e2b3c4ff3c","system_id":"levelo_inurba_marseille","lat":43.309038,"lon":5.396546,"is_reserved":false,"is_disabled":false,"rental_uris":{"android":"levelo://app?vid=5483b6cc-9535-4cb7-aabc-84e2b3c4ff3c","ios":"levelo://app?vid=5483b6cc-9535-4cb7-aabc-84e2b3c4ff3c"},"vehicle_type_id":"4","last_reported":1693947954,"current_range_meters":0,"station_id":"ce4bh012rcd13ifvqcv0","pricing_plan_id":"free"},{"bike_id":"09c59529-94b0-48e1-b148-10c99344c021","system_id":"levelo_inurba_marseille","lat":43.309038,"lon":5.396546,"is_reserved":false,"is_disabled":false,"rental_uris":{"android":"levelo://app?vid=09c59529-94b0-48e1-b148-10c99344c021","ios":"levelo://app?vid=09c59529-94b0-48e1-b148-10c99344c021"},"vehicle_type_id":"4","last_reported":1693947954,"current_range_meters":8000,"station_id":"ce4bh012rcd13ifvqcv0","pricing_plan_id":"free"},{"bike_id":"304e2c4e-bc03-4b20-9ebf-2fb305ea6b57","system_id":"levelo_inurba_marseille","lat":43.30886,"lon":5.39643,"is_reserved":false,"is_disabled":false,"rental_uris":{"android":"levelo://app?vid=304e2c4e-bc03-4b20-9ebf-2fb305ea6b57","ios":"levelo://app?vid=304e2c4e-bc03-4b20-9ebf-2fb305ea6b57"},"vehicle_type_id":"4","last_reported":1693947954,"current_range_meters":29600,"station_id":"ce4bh012rcd13ifvqcv0","pricing_plan_id":"free"},{"bike_id":"0cc9e682-f0d3-4395-9a92-703dcc9ab31c","system_id":"levelo_inurba_marseille","lat":43.30885,"lon":5.39643,"is_reserved":false,"is_disabled":false,"rental_uris":{"android":"levelo://app?vid=0cc9e682-f0d3-4395-9a92-703dcc9ab31c","ios":"levelo://app?vid=0cc9e682-f0d3-4395-9a92-703dcc9ab31c"},"vehicle_type_id":"4","last_reported":1693947954,"current_range_meters":10800,"station_id":"ce4bh012rcd13ifvqcv0","pricing_plan_id":"free"},{"bike_id":"9fa0541c-3d05-4073-91c5-d4b0874c6ea5","system_id":"levelo_inurba_marseille","lat":43.31328,"lon":5.39691,"is_reserved":false,"is_disabled":false,"rental_uris":{"android":"levelo://app?vid=9fa0541c-3d05-4073-91c5-d4b0874c6ea5","ios":"levelo://app?vid=9fa0541c-3d05-4073-91c5-d4b0874c6ea5"},"vehicle_type_id":"4","last_reported":1693947954,"current_range_meters":16800,"station_id":"ce4bgvp2rcd13ifvqcu0","pricing_plan_id":"free"},{"bike_id":"a0f34bd8-aa3b-4ac2-b465-12c1e7ddc901","system_id":"levelo_inurba_marseille","lat":43.30883,"lon":5.39644,"is_reserved":false,"is_disabled":false,"rental_uris":{"android":"levelo://app?vid=a0f34bd8-aa3b-4ac2-b465-12c1e7ddc901","ios":"levelo://app?vid=a0f34bd8-aa3b-4ac2-b465-12c1e7ddc901"},"vehicle_type_id":"4","last_reported":1693947954,"current_range_meters":0,"station_id":"ce4bh012rcd13ifvqcv0","pricing_plan_id":"free"},{"bike_id":"95af306b-6b4d-4c80-9d1a-b0803f06775c","system_id":"levelo_inurba_marseille","lat":43.309038,"lon":5.396546,"is_reserved":false,"is_disabled":false,"rental_uris":{"android":"levelo://app?vid=95af306b-6b4d-4c80-9d1a-b0803f06775c","ios":"levelo://app?vid=95af306b-6b4d-4c80-9d1a-b0803f06775c"},"vehicle_type_id":"4","last_reported":1693947954,"current_range_meters":17600,"station_id":"ce4bh012rcd13ifvqcv0","pricing_plan_id":"free"},{"bike_id":"289c22e1-4129-4039-b5f0-4b54461ffd00","system_id":"levelo_inurba_marseille","lat":43.31325,"lon":5.39692,"is_reserved":false,"is_disabled":false,"rental_uris":{"android":"levelo://app?vid=289c22e1-4129-4039-b5f0-4b54461ffd00","ios":"levelo://app?vid=289c22e1-4129-4039-b5f0-4b54461ffd00"},"vehicle_type_id":"4","last_reported":1693947954,"current_range_meters":7200,"station_id":"ce4bgvp2rcd13ifvqcu0","pricing_plan_id":"free"},{"bike_id":"7f3aacc6-9ed1-44ab-a44d-b203f26dc70a","system_id":"levelo_inurba_marseille","lat":43.30885,"lon":5.39645,"is_reserved":false,"is_disabled":false,"rental_uris":{"android":"levelo://app?vid=7f3aacc6-9ed1-44ab-a44d-b203f26dc70a","ios":"levelo://app?vid=7f3aacc6-9ed1-44ab-a44d-b203f26dc70a"},"vehicle_type_id":"4","last_reported":1693947954,"current_range_meters":10400,"station_id":"ce4bh012rcd13ifvqcv0","pricing_plan_id":"free"},{"bike_id":"5019175d-489e-4a58-a0fa-6e33ae7a9b38","system_id":"levelo_inurba_marseille","lat":43.30879,"lon":5.39644,"is_reserved":false,"is_disabled":false,"rental_uris":{"android":"levelo://app?vid=5019175d-489e-4a58-a0fa-6e33ae7a9b38","ios":"levelo://app?vid=5019175d-489e-4a58-a0fa-6e33ae7a9b38"},"vehicle_type_id":"4","last_reported":1693947954,"current_range_meters":23200,"station_id":"ce4bh012rcd13ifvqcv0","pricing_plan_id":"free"},{"bike_id":"7d0d8c52-cfd5-4fca-9a21-8cc2fee74e25","system_id":"levelo_inurba_marseille","lat":43.313291,"lon":5.396838,"is_reserved":false,"is_disabled":false,"rental_uris":{"android":"levelo://app?vid=7d0d8c52-cfd5-4fca-9a21-8cc2fee74e25","ios":"levelo://app?vid=7d0d8c52-cfd5-4fca-9a21-8cc2fee74e25"},"vehicle_type_id":"4","last_reported":1693947954,"current_range_meters":31200,"station_id":"ce4bgvp2rcd13ifvqcu0","pricing_plan_id":"free"},{"bike_id":"3476ee66-b013-4b50-a28b-d6b9f217c285","system_id":"levelo_inurba_marseille","lat":43.31331,"lon":5.39693,"is_reserved":false,"is_disabled":false,"rental_uris":{"android":"levelo://app?vid=3476ee66-b013-4b50-a28b-d6b9f217c285","ios":"levelo://app?vid=3476ee66-b013-4b50-a28b-d6b9f217c285"},"vehicle_type_id":"4","last_reported":1693947954,"current_range_meters":16800,"station_id":"ce4bgvp2rcd13ifvqcu0","pricing_plan_id":"free"},{"bike_id":"383a1cfe-23f8-4ac6-a562-843cb1d34d9b","system_id":"levelo_inurba_marseille","lat":43.309038,"lon":5.396546,"is_reserved":false,"is_disabled":false,"rental_uris":{"android":"levelo://app?vid=383a1cfe-23f8-4ac6-a562-843cb1d34d9b","ios":"levelo://app?vid=383a1cfe-23f8-4ac6-a562-843cb1d34d9b"},"vehicle_type_id":"4","last_reported":1693947954,"current_range_meters":1600,"station_id":"ce4bh012rcd13ifvqcv0","pricing_plan_id":"free"},{"bike_id":"e9d1a786-a87e-41f4-add3-4892e6f1dc23","system_id":"levelo_inurba_marseille","lat":43.31326,"lon":5.39694,"is_reserved":false,"is_disabled":false,"rental_uris":{"android":"levelo://app?vid=e9d1a786-a87e-41f4-add3-4892e6f1dc23","ios":"levelo://app?vid=e9d1a786-a87e-41f4-add3-4892e6f1dc23"},"vehicle_type_id":"4","last_reported":1693947954,"current_range_meters":3600,"station_id":"ce4bgvp2rcd13ifvqcu0","pricing_plan_id":"free"},{"bike_id":"b953fa9a-485d-4e8b-acc6-c6b3970397ed","system_id":"levelo_inurba_marseille","lat":43.31326,"lon":5.39694,"is_reserved":false,"is_disabled":false,"rental_uris":{"android":"levelo://app?vid=b953fa9a-485d-4e8b-acc6-c6b3970397ed","ios":"levelo://app?vid=b953fa9a-485d-4e8b-acc6-c6b3970397ed"},"vehicle_type_id":"4","last_reported":1693947954,"current_range_meters":22000,"station_id":"ce4bgvp2rcd13ifvqcu0","pricing_plan_id":"free"},{"bike_id":"513ef9db-4266-494b-a10b-b70b4b2ccb9f","system_id":"levelo_inurba_marseille","lat":43.3088,"lon":5.39646,"is_reserved":false,"is_disabled":false,"rental_uris":{"android":"levelo://app?vid=513ef9db-4266-494b-a10b-b70b4b2ccb9f","ios":"levelo://app?vid=513ef9db-4266-494b-a10b-b70b4b2ccb9f"},"vehicle_type_id":"4","last_reported":1693947954,"current_range_meters":3200,"station_id":"ce4bh012rcd13ifvqcv0","pricing_plan_id":"free"},{"bike_id":"01782c38-14f6-4bbf-9cf5-48bfec604f68","system_id":"levelo_inurba_marseille","lat":43.30881,"lon":5.39647,"is_reserved":false,"is_disabled":false,"rental_uris":{"android":"levelo://app?vid=01782c38-14f6-4bbf-9cf5-48bfec604f68","ios":"levelo://app?vid=01782c38-14f6-4bbf-9cf5-48bfec604f68"},"vehicle_type_id":"4","last_reported":1693947954,"current_range_meters":27600,"station_id":"ce4bh012rcd13ifvqcv0","pricing_plan_id":"free"},{"bike_id":"7a6e0113-b0d0-4a2e-a050-6b44e7ae4ce6","system_id":"levelo_inurba_marseille","lat":43.30884,"lon":5.39649,"is_reserved":false,"is_disabled":false,"rental_uris":{"android":"levelo://app?vid=7a6e0113-b0d0-4a2e-a050-6b44e7ae4ce6","ios":"levelo://app?vid=7a6e0113-b0d0-4a2e-a050-6b44e7ae4ce6"},"vehicle_type_id":"4","last_reported":1693947954,"current_range_meters":22400,"station_id":"ce4bh012rcd13ifvqcv0","pricing_plan_id":"free"},{"bike_id":"0d743ac3-31c3-4db9-a985-66c3a927f974","system_id":"levelo_inurba_marseille","lat":43.309038,"lon":5.396546,"is_reserved":false,"is_disabled":false,"rental_uris":{"android":"levelo://app?vid=0d743ac3-31c3-4db9-a985-66c3a927f974","ios":"levelo://app?vid=0d743ac3-31c3-4db9-a985-66c3a927f974"},"vehicle_type_id":"4","last_reported":1693947954,"current_range_meters":0,"station_id":"ce4bh012rcd13ifvqcv0","pricing_plan_id":"free"},{"bike_id":"d4bc23c4-bccd-44f9-acf2-4c821b648da0","system_id":"levelo_inurba_marseille","lat":43.3088,"lon":5.39649,"is_reserved":false,"is_disabled":false,"rental_uris":{"android":"levelo://app?vid=d4bc23c4-bccd-44f9-acf2-4c821b648da0","ios":"levelo://app?vid=d4bc23c4-bccd-44f9-acf2-4c821b648da0"},"vehicle_type_id":"4","last_reported":1693947954,"current_range_meters":0,"station_id":"ce4bh012rcd13ifvqcv0","pricing_plan_id":"free"},{"bike_id":"9b8e4a1b-66b3-49e5-8c3b-d91bb80b4d59","system_id":"levelo_inurba_marseille","lat":43.30882,"lon":5.3965,"is_reserved":false,"is_disabled":false,"rental_uris":{"android":"levelo://app?vid=9b8e4a1b-66b3-49e5-8c3b-d91bb80b4d59","ios":"levelo://app?vid=9b8e4a1b-66b3-49e5-8c3b-d91bb80b4d59"},"vehicle_type_id":"4","last_reported":1693947954,"current_range_meters":12800,"station_id":"ce4bh012rcd13ifvqcv0","pricing_plan_id":"free"},{"bike_id":"cab138ca-67e7-4e7f-9509-ae7c7076ca6a","system_id":"levelo_inurba_marseille","lat":43.30874,"lon":5.39648,"is_reserved":false,"is_disabled":false,"rental_uris":{"android":"levelo://app?vid=cab138ca-67e7-4e7f-9509-ae7c7076ca6a","ios":"levelo://app?vid=cab138ca-67e7-4e7f-9509-ae7c7076ca6a"},"vehicle_type_id":"4","last_reported":1693947954,"current_range_meters":8800,"station_id":"ce4bh012rcd13ifvqcv0","pricing_plan_id":"free"},{"bike_id":"bddd4dce-45d6-40cc-aff5-c884ffc8f356","system_id":"levelo_inurba_marseille","lat":43.31321,"lon":5.39699,"is_reserved":false,"is_disabled":false,"rental_uris":{"android":"levelo://app?vid=bddd4dce-45d6-40cc-aff5-c884ffc8f356","ios":"levelo://app?vid=bddd4dce-45d6-40cc-aff5-c884ffc8f356"},"vehicle_type_id":"4","last_reported":1693947954,"current_range_meters":10800,"station_id":"ce4bgvp2rcd13ifvqcu0","pricing_plan_id":"free"},{"bike_id":"d1525357-ca82-425b-b0af-d55a9283e43a","system_id":"levelo_inurba_marseille","lat":43.309038,"lon":5.396546,"is_reserved":false,"is_disabled":false,"rental_uris":{"android":"levelo://app?vid=d1525357-ca82-425b-b0af-d55a9283e43a","ios":"levelo://app?vid=d1525357-ca82-425b-b0af-d55a9283e43a"},"vehicle_type_id":"4","last_reported":1693947954,"current_range_meters":3200,"station_id":"ce4bh012rcd13ifvqcv0","pricing_plan_id":"free"},{"bike_id":"a03f41d9-9db6-46e6-9cc2-2c0a9a142275","system_id":"levelo_inurba_marseille","lat":43.31328,"lon":5.39699,"is_reserved":false,"is_disabled":false,"rental_uris":{"android":"levelo://app?vid=a03f41d9-9db6-46e6-9cc2-2c0a9a142275","ios":"levelo://app?vid=a03f41d9-9db6-46e6-9cc2-2c0a9a142275"},"vehicle_type_id":"4","last_reported":1693947954,"current_range_meters":31200,"station_id":"ce4bgvp2rcd13ifvqcu0","pricing_plan_id":"free"},{"bike_id":"a5cdaf98-1794-4e92-ac5f-3b4ee74687e2","system_id":"levelo_inurba_marseille","lat":43.309038,"lon":5.396546,"is_reserved":false,"is_disabled":false,"rental_uris":{"android":"levelo://app?vid=a5cdaf98-1794-4e92-ac5f-3b4ee74687e2","ios":"levelo://app?vid=a5cdaf98-1794-4e92-ac5f-3b4ee74687e2"},"vehicle_type_id":"4","last_reported":1693947954,"current_range_meters":3200,"station_id":"ce4bh012rcd13ifvqcv0","pricing_plan_id":"free"},{"bike_id":"55138b9e-cc39-4893-ae66-0aa0b15f5f54","system_id":"levelo_inurba_marseille","lat":43.30878,"lon":5.39652,"is_reserved":false,"is_disabled":false,"rental_uris":{"android":"levelo://app?vid=55138b9e-cc39-4893-ae66-0aa0b15f5f54","ios":"levelo://app?vid=55138b9e-cc39-4893-ae66-0aa0b15f5f54"},"vehicle_type_id":"4","last_reported":1693947954,"current_range_meters":27600,"station_id":"ce4bh012rcd13ifvqcv0","pricing_plan_id":"free"},{"bike_id":"9624ae2a-d718-4c9f-b9ac-44675a28d96a","system_id":"levelo_inurba_marseille","lat":43.309038,"lon":5.396546,"is_reserved":false,"is_disabled":false,"rental_uris":{"android":"levelo://app?vid=9624ae2a-d718-4c9f-b9ac-44675a28d96a","ios":"levelo://app?vid=9624ae2a-d718-4c9f-b9ac-44675a28d96a"},"vehicle_type_id":"4","last_reported":1693947954,"current_range_meters":15600,"station_id":"ce4bh012rcd13ifvqcv0","pricing_plan_id":"free"},{"bike_id":"74838308-28c3-46ce-a7f1-e13e0d3d8d6c","system_id":"levelo_inurba_marseille","lat":43.30883,"lon":5.39658,"is_reserved":false,"is_disabled":false,"rental_uris":{"android":"levelo://app?vid=74838308-28c3-46ce-a7f1-e13e0d3d8d6c","ios":"levelo://app?vid=74838308-28c3-46ce-a7f1-e13e0d3d8d6c"},"vehicle_type_id":"4","last_reported":1693947954,"current_range_meters":15600,"station_id":"ce4bh012rcd13ifvqcv0","pricing_plan_id":"free"},{"bike_id":"b39f18cd-487c-4af3-9b38-74cd1dc2051f","system_id":"levelo_inurba_marseille","lat":43.30877,"lon":5.39657,"is_reserved":false,"is_disabled":false,"rental_uris":{"android":"levelo://app?vid=b39f18cd-487c-4af3-9b38-74cd1dc2051f","ios":"levelo://app?vid=b39f18cd-487c-4af3-9b38-74cd1dc2051f"},"vehicle_type_id":"4","last_reported":1693947954,"current_range_meters":30400,"station_id":"ce4bh012rcd13ifvqcv0","pricing_plan_id":"free"},{"bike_id":"a1d2d3ae-f941-4b53-bc84-a1e63ada3ba4","system_id":"levelo_inurba_marseille","lat":43.308891,"lon":5.396655,"is_reserved":false,"is_disabled":false,"rental_uris":{"android":"levelo://app?vid=a1d2d3ae-f941-4b53-bc84-a1e63ada3ba4","ios":"levelo://app?vid=a1d2d3ae-f941-4b53-bc84-a1e63ada3ba4"},"vehicle_type_id":"4","last_reported":1693947954,"current_range_meters":26400,"station_id":"","pricing_plan_id":"free"},{"bike_id":"1b7c2d5f-deaa-47a3-9e0b-a9c0c4b339bb","system_id":"levelo_inurba_marseille","lat":43.290779,"lon":5.371482,"is_reserved":false,"is_disabled":false,"rental_uris":{"android":"levelo://app?vid=1b7c2d5f-deaa-47a3-9e0b-a9c0c4b339bb","ios":"levelo://app?vid=1b7c2d5f-deaa-47a3-9e0b-a9c0c4b339bb"},"vehicle_type_id":"4","last_reported":1693947954,"current_range_meters":1600,"station_id":"ce4bh5p2rcd13ifvqe4g","pricing_plan_id":"free"},{"bike_id":"05acc49b-5c2b-433c-b2dd-4184df452c94","system_id":"levelo_inurba_marseille","lat":43.290779,"lon":5.371482,"is_reserved":false,"is_disabled":false,"rental_uris":{"android":"levelo://app?vid=05acc49b-5c2b-433c-b2dd-4184df452c94","ios":"levelo://app?vid=05acc49b-5c2b-433c-b2dd-4184df452c94"},"vehicle_type_id":"4","last_reported":1693947954,"current_range_meters":31600,"station_id":"ce4bh5p2rcd13ifvqe4g","pricing_plan_id":"free"},{"bike_id":"3edbd887-a685-4cb0-b785-6aaa67b27e0f","system_id":"levelo_inurba_marseille","lat":43.32867,"lon":5.389,"is_reserved":false,"is_disabled":false,"rental_uris":{"android":"levelo://app?vid=3edbd887-a685-4cb0-b785-6aaa67b27e0f","ios":"levelo://app?vid=3edbd887-a685-4cb0-b785-6aaa67b27e0f"},"vehicle_type_id":"4","last_reported":1693947954,"current_range_meters":0,"station_id":"","pricing_plan_id":"free"},{"bike_id":"d90bbcb3-a0e7-4c17-a046-9b2e4e38e2b4","system_id":"levelo_inurba_marseille","lat":43.30208,"lon":5.39462,"is_reserved":false,"is_disabled":false,"rental_uris":{"android":"levelo://app?vid=d90bbcb3-a0e7-4c17-a046-9b2e4e38e2b4","ios":"levelo://app?vid=d90bbcb3-a0e7-4c17-a046-9b2e4e38e2b4"},"vehicle_type_id":"4","last_reported":1693947954,"current_range_meters":12400,"station_id":"ce4bh0p2rcd13ifvqd70","pricing_plan_id":"free"},{"bike_id":"8dab74bf-6f73-4890-8bb3-5362f4e30ae6","system_id":"levelo_inurba_marseille","lat":43.302008,"lon":5.394694,"is_reserved":false,"is_disabled":false,"rental_uris":{"android":"levelo://app?vid=8dab74bf-6f73-4890-8bb3-5362f4e30ae6","ios":"levelo://app?vid=8dab74bf-6f73-4890-8bb3-5362f4e30ae6"},"vehicle_type_id":"4","last_reported":1693947954,"current_range_meters":13600,"station_id":"ce4bh0p2rcd13ifvqd70","pricing_plan_id":"free"},{"bike_id":"e344b662-9273-4ebf-969e-5c4a3909bb3b","system_id":"levelo_inurba_marseille","lat":43.30206,"lon":5.3947,"is_reserved":false,"is_disabled":false,"rental_uris":{"android":"levelo://app?vid=e344b662-9273-4ebf-969e-5c4a3909bb3b","ios":"levelo://app?vid=e344b662-9273-4ebf-969e-5c4a3909bb3b"},"vehicle_type_id":"4","last_reported":1693947954,"current_range_meters":0,"station_id":"ce4bh0p2rcd13ifvqd70","pricing_plan_id":"free"},{"bike_id":"2b46ea60-6e2f-4486-b7da-47d4368adafc","system_id":"levelo_inurba_marseille","lat":43.302008,"lon":5.394694,"is_reserved":false,"is_disabled":false,"rental_uris":{"android":"levelo://app?vid=2b46ea60-6e2f-4486-b7da-47d4368adafc","ios":"levelo://app?vid=2b46ea60-6e2f-4486-b7da-47d4368adafc"},"vehicle_type_id":"4","last_reported":1693947954,"current_range_meters":0,"station_id":"ce4bh0p2rcd13ifvqd70","pricing_plan_id":"free"},{"bike_id":"37d3042c-0a6e-498a-ae66-4297b879bc5a","system_id":"levelo_inurba_marseille","lat":43.302008,"lon":5.394694,"is_reserved":false,"is_disabled":false,"rental_uris":{"android":"levelo://app?vid=37d3042c-0a6e-498a-ae66-4297b879bc5a","ios":"levelo://app?vid=37d3042c-0a6e-498a-ae66-4297b879bc5a"},"vehicle_type_id":"4","last_reported":1693947954,"current_range_meters":10800,"station_id":"ce4bh0p2rcd13ifvqd70","pricing_plan_id":"free"},{"bike_id":"d711aeb9-351d-45fb-88b8-eb8e21806ce6","system_id":"levelo_inurba_marseille","lat":43.275028,"lon":5.424534,"is_reserved":false,"is_disabled":false,"rental_uris":{"android":"levelo://app?vid=d711aeb9-351d-45fb-88b8-eb8e21806ce6","ios":"levelo://app?vid=d711aeb9-351d-45fb-88b8-eb8e21806ce6"},"vehicle_type_id":"4","last_reported":1693947954,"current_range_meters":24800,"station_id":"ce4bhn92rcd13ifvqgrg","pricing_plan_id":"free"},{"bike_id":"f3537461-3e5c-4bd1-8b7e-6fe44a67fc53","system_id":"levelo_inurba_marseille","lat":43.29025,"lon":5.37572,"is_reserved":false,"is_disabled":false,"rental_uris":{"android":"levelo://app?vid=f3537461-3e5c-4bd1-8b7e-6fe44a67fc53","ios":"levelo://app?vid=f3537461-3e5c-4bd1-8b7e-6fe44a67fc53"},"vehicle_type_id":"4","last_reported":1693947954,"current_range_meters":1600,"station_id":"ce4bh692rcd13ifvqe90","pricing_plan_id":"free"},{"bike_id":"2f93318d-a393-4e93-88c9-60d3ec241b0e","system_id":"levelo_inurba_marseille","lat":43.289184,"lon":5.366408,"is_reserved":false,"is_disabled":false,"rental_uris":{"android":"levelo://app?vid=2f93318d-a393-4e93-88c9-60d3ec241b0e","ios":"levelo://app?vid=2f93318d-a393-4e93-88c9-60d3ec241b0e"},"vehicle_type_id":"4","last_reported":1693947954,"current_range_meters":30800,"station_id":"ce4bhap2rcd13ifvqek0","pricing_plan_id":"free"},{"bike_id":"69f770b8-b31c-4782-aa55-e6f0218e8f94","system_id":"levelo_inurba_marseille","lat":43.289468,"lon":5.363719,"is_reserved":false,"is_disabled":false,"rental_uris":{"android":"levelo://app?vid=69f770b8-b31c-4782-aa55-e6f0218e8f94","ios":"levelo://app?vid=69f770b8-b31c-4782-aa55-e6f0218e8f94"},"vehicle_type_id":"4","last_reported":1693947954,"current_range_meters":0,"station_id":"ce4bhc92rcd13ifvqetg","pricing_plan_id":"free"},{"bike_id":"f0a9f27b-4df1-4b10-98a5-4039476a2cd1","system_id":"levelo_inurba_marseille","lat":43.28925,"lon":5.36373,"is_reserved":false,"is_disabled":false,"rental_uris":{"android":"levelo://app?vid=f0a9f27b-4df1-4b10-98a5-4039476a2cd1","ios":"levelo://app?vid=f0a9f27b-4df1-4b10-98a5-4039476a2cd1"},"vehicle_type_id":"4","last_reported":1693947954,"current_range_meters":4400,"station_id":"ce4bhc92rcd13ifvqetg","pricing_plan_id":"free"},{"bike_id":"ee45bb09-1dcd-4876-b991-24364c73db77","system_id":"levelo_inurba_marseille","lat":43.304274,"lon":5.397513,"is_reserved":false,"is_disabled":false,"rental_uris":{"android":"levelo://app?vid=ee45bb09-1dcd-4876-b991-24364c73db77","ios":"levelo://app?vid=ee45bb09-1dcd-4876-b991-24364c73db77"},"vehicle_type_id":"4","last_reported":1693947954,"current_range_meters":8000,"station_id":"ce4bh092rcd13ifvqd20","pricing_plan_id":"free"},{"bike_id":"f0e4e173-b59d-4449-aa8a-06f0ed85a6d1","system_id":"levelo_inurba_marseille","lat":43.304274,"lon":5.397513,"is_reserved":false,"is_disabled":false,"rental_uris":{"android":"levelo://app?vid=f0e4e173-b59d-4449-aa8a-06f0ed85a6d1","ios":"levelo://app?vid=f0e4e173-b59d-4449-aa8a-06f0ed85a6d1"},"vehicle_type_id":"4","last_reported":1693947954,"current_range_meters":16000,"station_id":"ce4bh092rcd13ifvqd20","pricing_plan_id":"free"},{"bike_id":"54d13f8a-64a4-46c3-8e9a-ed58c7ba2531","system_id":"levelo_inurba_marseille","lat":43.304274,"lon":5.397513,"is_reserved":false,"is_disabled":false,"rental_uris":{"android":"levelo://app?vid=54d13f8a-64a4-46c3-8e9a-ed58c7ba2531","ios":"levelo://app?vid=54d13f8a-64a4-46c3-8e9a-ed58c7ba2531"},"vehicle_type_id":"4","last_reported":1693947954,"current_range_meters":12800,"station_id":"ce4bh092rcd13ifvqd20","pricing_plan_id":"free"},{"bike_id":"ed418c06-9fe8-40a5-a552-54a5154ec1e1","system_id":"levelo_inurba_marseille","lat":43.30415,"lon":5.39749,"is_reserved":false,"is_disabled":false,"rental_uris":{"android":"levelo://app?vid=ed418c06-9fe8-40a5-a552-54a5154ec1e1","ios":"levelo://app?vid=ed418c06-9fe8-40a5-a552-54a5154ec1e1"},"vehicle_type_id":"4","last_reported":1693947954,"current_range_meters":31200,"station_id":"ce4bh092rcd13ifvqd20","pricing_plan_id":"free"},{"bike_id":"66822c79-c8b0-4162-bf87-2451bb1e0d4e","system_id":"levelo_inurba_marseille","lat":43.304296,"lon":5.397513,"is_reserved":false,"is_disabled":false,"rental_uris":{"android":"levelo://app?vid=66822c79-c8b0-4162-bf87-2451bb1e0d4e","ios":"levelo://app?vid=66822c79-c8b0-4162-bf87-2451bb1e0d4e"},"vehicle_type_id":"4","last_reported":1693947954,"current_range_meters":7200,"station_id":"ce4bh092rcd13ifvqd20","pricing_plan_id":"free"},{"bike_id":"78e09a1c-c35d-4db3-9c2f-59a3a630b39d","system_id":"levelo_inurba_marseille","lat":43.3304,"lon":5.38914,"is_reserved":false,"is_disabled":false,"rental_uris":{"android":"levelo://app?vid=78e09a1c-c35d-4db3-9c2f-59a3a630b39d","ios":"levelo://app?vid=78e09a1c-c35d-4db3-9c2f-59a3a630b39d"},"vehicle_type_id":"4","last_reported":1693947954,"current_range_meters":22400,"station_id":"ce4bhr92rcd13ifvqhrg","pricing_plan_id":"free"},{"bike_id":"35a75735-9207-4088-b2ea-63450cb07d38","system_id":"levelo_inurba_marseille","lat":43.3304,"lon":5.38921,"is_reserved":false,"is_disabled":false,"rental_uris":{"android":"levelo://app?vid=35a75735-9207-4088-b2ea-63450cb07d38","ios":"levelo://app?vid=35a75735-9207-4088-b2ea-63450cb07d38"},"vehicle_type_id":"4","last_reported":1693947954,"current_range_meters":28800,"station_id":"ce4bhr92rcd13ifvqhrg","pricing_plan_id":"free"},{"bike_id":"c4d7b472-c523-4266-8b45-4073f28d3989","system_id":"levelo_inurba_marseille","lat":43.33046,"lon":5.38913,"is_reserved":false,"is_disabled":false,"rental_uris":{"android":"levelo://app?vid=c4d7b472-c523-4266-8b45-4073f28d3989","ios":"levelo://app?vid=c4d7b472-c523-4266-8b45-4073f28d3989"},"vehicle_type_id":"4","last_reported":1693947954,"current_range_meters":22800,"station_id":"ce4bhr92rcd13ifvqhrg","pricing_plan_id":"free"},{"bike_id":"dbb59e24-74a6-47a8-b8d4-3e20000d3586","system_id":"levelo_inurba_marseille","lat":43.33048,"lon":5.3891,"is_reserved":false,"is_disabled":false,"rental_uris":{"android":"levelo://app?vid=dbb59e24-74a6-47a8-b8d4-3e20000d3586","ios":"levelo://app?vid=dbb59e24-74a6-47a8-b8d4-3e20000d3586"},"vehicle_type_id":"4","last_reported":1693947954,"current_range_meters":19200,"station_id":"ce4bhr92rcd13ifvqhrg","pricing_plan_id":"free"},{"bike_id":"8cc1942e-8e2a-4726-ada6-35ccb5b59552","system_id":"levelo_inurba_marseille","lat":43.33044,"lon":5.38917,"is_reserved":false,"is_disabled":false,"rental_uris":{"android":"levelo://app?vid=8cc1942e-8e2a-4726-ada6-35ccb5b59552","ios":"levelo://app?vid=8cc1942e-8e2a-4726-ada6-35ccb5b59552"},"vehicle_type_id":"4","last_reported":1693947954,"current_range_meters":20400,"station_id":"ce4bhr92rcd13ifvqhrg","pricing_plan_id":"free"},{"bike_id":"e2ee94af-9bb6-44dd-b24f-b694e35ce615","system_id":"levelo_inurba_marseille","lat":43.33047,"lon":5.38915,"is_reserved":false,"is_disabled":false,"rental_uris":{"android":"levelo://app?vid=e2ee94af-9bb6-44dd-b24f-b694e35ce615","ios":"levelo://app?vid=e2ee94af-9bb6-44dd-b24f-b694e35ce615"},"vehicle_type_id":"4","last_reported":1693947954,"current_range_meters":30400,"station_id":"ce4bhr92rcd13ifvqhrg","pricing_plan_id":"free"},{"bike_id":"b88ae1a6-a8e3-4f1d-8485-b2f47046417b","system_id":"levelo_inurba_marseille","lat":43.29005,"lon":5.35618,"is_reserved":false,"is_disabled":false,"rental_uris":{"android":"levelo://app?vid=b88ae1a6-a8e3-4f1d-8485-b2f47046417b","ios":"levelo://app?vid=b88ae1a6-a8e3-4f1d-8485-b2f47046417b"},"vehicle_type_id":"4","last_reported":1693947954,"current_range_meters":28400,"station_id":"ce4bhb92rcd13ifvqen0","pricing_plan_id":"free"},{"bike_id":"028b16b4-c861-455c-93e2-214442c48086","system_id":"levelo_inurba_marseille","lat":43.290103,"lon":5.356114,"is_reserved":false,"is_disabled":false,"rental_uris":{"android":"levelo://app?vid=028b16b4-c861-455c-93e2-214442c48086","ios":"levelo://app?vid=028b16b4-c861-455c-93e2-214442c48086"},"vehicle_type_id":"4","last_reported":1693947954,"current_range_meters":29200,"station_id":"ce4bhb92rcd13ifvqen0","pricing_plan_id":"free"},{"bike_id":"d88ace4f-5e31-492f-a5e3-7d58c1296654","system_id":"levelo_inurba_marseille","lat":43.33046,"lon":5.38923,"is_reserved":false,"is_disabled":false,"rental_uris":{"android":"levelo://app?vid=d88ace4f-5e31-492f-a5e3-7d58c1296654","ios":"levelo://app?vid=d88ace4f-5e31-492f-a5e3-7d58c1296654"},"vehicle_type_id":"4","last_reported":1693947954,"current_range_meters":25200,"station_id":"ce4bhr92rcd13ifvqhrg","pricing_plan_id":"free"},{"bike_id":"d7932d52-0b99-415c-88dc-561d5faa16a4","system_id":"levelo_inurba_marseille","lat":43.290104,"lon":5.356111,"is_reserved":false,"is_disabled":false,"rental_uris":{"android":"levelo://app?vid=d7932d52-0b99-415c-88dc-561d5faa16a4","ios":"levelo://app?vid=d7932d52-0b99-415c-88dc-561d5faa16a4"},"vehicle_type_id":"4","last_reported":1693947954,"current_range_meters":31200,"station_id":"ce4bhb92rcd13ifvqen0","pricing_plan_id":"free"},{"bike_id":"cf122d00-4750-4fc9-911f-e0032b0980a5","system_id":"levelo_inurba_marseille","lat":43.290995,"lon":5.381361,"is_reserved":false,"is_disabled":false,"rental_uris":{"android":"levelo://app?vid=cf122d00-4750-4fc9-911f-e0032b0980a5","ios":"levelo://app?vid=cf122d00-4750-4fc9-911f-e0032b0980a5"},"vehicle_type_id":"4","last_reported":1693947954,"current_range_meters":26800,"station_id":"ce4bh512rcd13ifvqe2g","pricing_plan_id":"free"},{"bike_id":"f9db13da-3208-4583-916a-76911c9b8083","system_id":"levelo_inurba_marseille","lat":43.289741,"lon":5.378306,"is_reserved":false,"is_disabled":false,"rental_uris":{"android":"levelo://app?vid=f9db13da-3208-4583-916a-76911c9b8083","ios":"levelo://app?vid=f9db13da-3208-4583-916a-76911c9b8083"},"vehicle_type_id":"4","last_reported":1693947954,"current_range_meters":4400,"station_id":"ce4bh9p2rcd13ifvqed0","pricing_plan_id":"free"},{"bike_id":"2c95daf2-be7c-4194-a30f-43bfd6935079","system_id":"levelo_inurba_marseille","lat":43.295169,"lon":5.390426,"is_reserved":false,"is_disabled":false,"rental_uris":{"android":"levelo://app?vid=2c95daf2-be7c-4194-a30f-43bfd6935079","ios":"levelo://app?vid=2c95daf2-be7c-4194-a30f-43bfd6935079"},"vehicle_type_id":"4","last_reported":1693947954,"current_range_meters":10400,"station_id":"ce4bh3p2rcd13ifvqdp0","pricing_plan_id":"free"},{"bike_id":"f3224fe7-d5a0-44cd-a5c4-6db7d1bcae28","system_id":"levelo_inurba_marseille","lat":43.295169,"lon":5.390426,"is_reserved":false,"is_disabled":false,"rental_uris":{"android":"levelo://app?vid=f3224fe7-d5a0-44cd-a5c4-6db7d1bcae28","ios":"levelo://app?vid=f3224fe7-d5a0-44cd-a5c4-6db7d1bcae28"},"vehicle_type_id":"4","last_reported":1693947954,"current_range_meters":6400,"station_id":"ce4bh3p2rcd13ifvqdp0","pricing_plan_id":"free"},{"bike_id":"5ece27ef-973d-4217-ac23-563a3999c7e9","system_id":"levelo_inurba_marseille","lat":43.297815,"lon":5.393548,"is_reserved":false,"is_disabled":false,"rental_uris":{"android":"levelo://app?vid=5ece27ef-973d-4217-ac23-563a3999c7e9","ios":"levelo://app?vid=5ece27ef-973d-4217-ac23-563a3999c7e9"},"vehicle_type_id":"4","last_reported":1693947954,"current_range_meters":11200,"station_id":"chh1huq6cuj3fo74tm60","pricing_plan_id":"free"},{"bike_id":"34bdd706-6bcc-4659-9f50-36bf672d0a1e","system_id":"levelo_inurba_marseille","lat":43.29784,"lon":5.39349,"is_reserved":false,"is_disabled":false,"rental_uris":{"android":"levelo://app?vid=34bdd706-6bcc-4659-9f50-36bf672d0a1e","ios":"levelo://app?vid=34bdd706-6bcc-4659-9f50-36bf672d0a1e"},"vehicle_type_id":"4","last_reported":1693947954,"current_range_meters":6000,"station_id":"chh1huq6cuj3fo74tm60","pricing_plan_id":"free"},{"bike_id":"4cc0cb28-c274-4259-9130-97dbc78a1696","system_id":"levelo_inurba_marseille","lat":43.29775,"lon":5.3934,"is_reserved":false,"is_disabled":false,"rental_uris":{"android":"levelo://app?vid=4cc0cb28-c274-4259-9130-97dbc78a1696","ios":"levelo://app?vid=4cc0cb28-c274-4259-9130-97dbc78a1696"},"vehicle_type_id":"4","last_reported":1693947954,"current_range_meters":23200,"station_id":"chh1huq6cuj3fo74tm60","pricing_plan_id":"free"},{"bike_id":"f47c2506-891f-4e76-9ac9-fa31d3e09bf4","system_id":"levelo_inurba_marseille","lat":43.297821,"lon":5.393514,"is_reserved":false,"is_disabled":false,"rental_uris":{"android":"levelo://app?vid=f47c2506-891f-4e76-9ac9-fa31d3e09bf4","ios":"levelo://app?vid=f47c2506-891f-4e76-9ac9-fa31d3e09bf4"},"vehicle_type_id":"4","last_reported":1693947954,"current_range_meters":19600,"station_id":"","pricing_plan_id":"free"},{"bike_id":"9dbd18f0-60a2-4e77-b756-fee11617c38e","system_id":"levelo_inurba_marseille","lat":43.29776,"lon":5.39348,"is_reserved":false,"is_disabled":false,"rental_uris":{"android":"levelo://app?vid=9dbd18f0-60a2-4e77-b756-fee11617c38e","ios":"levelo://app?vid=9dbd18f0-60a2-4e77-b756-fee11617c38e"},"vehicle_type_id":"4","last_reported":1693947954,"current_range_meters":10400,"station_id":"chh1huq6cuj3fo74tm60","pricing_plan_id":"free"},{"bike_id":"18a99637-a4da-4d5b-821e-9b0e5cae381e","system_id":"levelo_inurba_marseille","lat":43.31029,"lon":5.40066,"is_reserved":false,"is_disabled":false,"rental_uris":{"android":"levelo://app?vid=18a99637-a4da-4d5b-821e-9b0e5cae381e","ios":"levelo://app?vid=18a99637-a4da-4d5b-821e-9b0e5cae381e"},"vehicle_type_id":"4","last_reported":1693947954,"current_range_meters":9200,"station_id":"ce4bgvp2rcd13ifvqct0","pricing_plan_id":"free"},{"bike_id":"37bd07de-162e-4c50-ac0e-5c9db1f50db3","system_id":"levelo_inurba_marseille","lat":43.2901,"lon":5.381269,"is_reserved":false,"is_disabled":false,"rental_uris":{"android":"levelo://app?vid=37bd07de-162e-4c50-ac0e-5c9db1f50db3","ios":"levelo://app?vid=37bd07de-162e-4c50-ac0e-5c9db1f50db3"},"vehicle_type_id":"4","last_reported":1693947954,"current_range_meters":5200,"station_id":"ce4bh4p2rcd13ifvqe1g","pricing_plan_id":"free"},{"bike_id":"98e5de1e-69be-4229-a4ba-296219216924","system_id":"levelo_inurba_marseille","lat":43.290094,"lon":5.381264,"is_reserved":false,"is_disabled":false,"rental_uris":{"android":"levelo://app?vid=98e5de1e-69be-4229-a4ba-296219216924","ios":"levelo://app?vid=98e5de1e-69be-4229-a4ba-296219216924"},"vehicle_type_id":"4","last_reported":1693947954,"current_range_meters":0,"station_id":"ce4bh4p2rcd13ifvqe1g","pricing_plan_id":"free"},{"bike_id":"854fef93-d21a-4b01-97de-5c6ecbecbd99","system_id":"levelo_inurba_marseille","lat":43.2901,"lon":5.381269,"is_reserved":false,"is_disabled":false,"rental_uris":{"android":"levelo://app?vid=854fef93-d21a-4b01-97de-5c6ecbecbd99","ios":"levelo://app?vid=854fef93-d21a-4b01-97de-5c6ecbecbd99"},"vehicle_type_id":"4","last_reported":1693947954,"current_range_meters":15600,"station_id":"ce4bh4p2rcd13ifvqe1g","pricing_plan_id":"free"},{"bike_id":"e46d970b-bc60-4d67-9d77-e97996f6a9b8","system_id":"levelo_inurba_marseille","lat":43.28856,"lon":5.35877,"is_reserved":false,"is_disabled":false,"rental_uris":{"android":"levelo://app?vid=e46d970b-bc60-4d67-9d77-e97996f6a9b8","ios":"levelo://app?vid=e46d970b-bc60-4d67-9d77-e97996f6a9b8"},"vehicle_type_id":"4","last_reported":1693947954,"current_range_meters":25600,"station_id":"","pricing_plan_id":"free"},{"bike_id":"1d303ef4-1291-411a-8c76-1868de0844d4","system_id":"levelo_inurba_marseille","lat":43.28856,"lon":5.358371,"is_reserved":false,"is_disabled":false,"rental_uris":{"android":"levelo://app?vid=1d303ef4-1291-411a-8c76-1868de0844d4","ios":"levelo://app?vid=1d303ef4-1291-411a-8c76-1868de0844d4"},"vehicle_type_id":"4","last_reported":1693947954,"current_range_meters":18800,"station_id":"ce4bhb12rcd13ifvqem0","pricing_plan_id":"free"},{"bike_id":"56d716e7-cbf0-4e24-8892-0fa11e608b71","system_id":"levelo_inurba_marseille","lat":43.31265,"lon":5.40167,"is_reserved":false,"is_disabled":false,"rental_uris":{"android":"levelo://app?vid=56d716e7-cbf0-4e24-8892-0fa11e608b71","ios":"levelo://app?vid=56d716e7-cbf0-4e24-8892-0fa11e608b71"},"vehicle_type_id":"4","last_reported":1693947954,"current_range_meters":14800,"station_id":"ce4bh092rcd13ifvqd30","pricing_plan_id":"free"},{"bike_id":"bbe40f5d-a0b3-4e38-8589-acc9993166df","system_id":"levelo_inurba_marseille","lat":43.31265,"lon":5.40175,"is_reserved":false,"is_disabled":false,"rental_uris":{"android":"levelo://app?vid=bbe40f5d-a0b3-4e38-8589-acc9993166df","ios":"levelo://app?vid=bbe40f5d-a0b3-4e38-8589-acc9993166df"},"vehicle_type_id":"4","last_reported":1693947954,"current_range_meters":8000,"station_id":"ce4bh092rcd13ifvqd30","pricing_plan_id":"free"},{"bike_id":"82eae48d-a803-4cd6-8a54-e73ffacc3e2c","system_id":"levelo_inurba_marseille","lat":43.30929,"lon":5.40146,"is_reserved":false,"is_disabled":false,"rental_uris":{"android":"levelo://app?vid=82eae48d-a803-4cd6-8a54-e73ffacc3e2c","ios":"levelo://app?vid=82eae48d-a803-4cd6-8a54-e73ffacc3e2c"},