{"last_updated":1686078240,"ttl":30,"version":"2.2","data":{"bikes":[{"bike_id":"c5b8fcb5-b1b5-4fab-bbe3-039e1b459cc2","system_id":"levelo_inurba_marseille","lat":43.31132,"lon":5.37041,"is_reserved":false,"is_disabled":false,"rental_uris":{"android":"levelo://app?vid=c5b8fcb5-b1b5-4fab-bbe3-039e1b459cc2","ios":"levelo://app?vid=c5b8fcb5-b1b5-4fab-bbe3-039e1b459cc2"},"vehicle_type_id":"4","last_reported":1686078240,"current_range_meters":18400,"station_id":"","pricing_plan_id":"free"},{"bike_id":"beaef3ec-e2a8-43c9-8d52-a7887e9810f0","system_id":"levelo_inurba_marseille","lat":43.31504,"lon":5.37111,"is_reserved":false,"is_disabled":false,"rental_uris":{"android":"levelo://app?vid=beaef3ec-e2a8-43c9-8d52-a7887e9810f0","ios":"levelo://app?vid=beaef3ec-e2a8-43c9-8d52-a7887e9810f0"},"vehicle_type_id":"4","last_reported":1686078240,"current_range_meters":22000,"station_id":"","pricing_plan_id":"free"},{"bike_id":"e1087022-6a18-425a-a6f8-413c19637877","system_id":"levelo_inurba_marseille","lat":43.308606,"lon":5.372099,"is_reserved":false,"is_disabled":false,"rental_uris":{"android":"levelo://app?vid=e1087022-6a18-425a-a6f8-413c19637877","ios":"levelo://app?vid=e1087022-6a18-425a-a6f8-413c19637877"},"vehicle_type_id":"4","last_reported":1686078240,"current_range_meters":9600,"station_id":"ce4bguh2rcd13ifvqckg","pricing_plan_id":"free"},{"bike_id":"76fe1345-39bb-444d-bacd-d2ba76734b61","system_id":"levelo_inurba_marseille","lat":43.305706,"lon":5.365654,"is_reserved":false,"is_disabled":false,"rental_uris":{"android":"levelo://app?vid=76fe1345-39bb-444d-bacd-d2ba76734b61","ios":"levelo://app?vid=76fe1345-39bb-444d-bacd-d2ba76734b61"},"vehicle_type_id":"4","last_reported":1686078240,"current_range_meters":30400,"station_id":"ce4bgs12rcd13ifvqcag","pricing_plan_id":"free"},{"bike_id":"95a8e731-330f-47fc-93c3-d00dd31d0076","system_id":"levelo_inurba_marseille","lat":43.305368,"lon":5.367343,"is_reserved":false,"is_disabled":false,"rental_uris":{"android":"levelo://app?vid=95a8e731-330f-47fc-93c3-d00dd31d0076","ios":"levelo://app?vid=95a8e731-330f-47fc-93c3-d00dd31d0076"},"vehicle_type_id":"4","last_reported":1686078240,"current_range_meters":0,"station_id":"ce4bgrp2rcd13ifvqc9g","pricing_plan_id":"free"},{"bike_id":"a5fb2d2f-1a69-4434-a233-49e6a7d2ea28","system_id":"levelo_inurba_marseille","lat":43.305989,"lon":5.37225,"is_reserved":false,"is_disabled":false,"rental_uris":{"android":"levelo://app?vid=a5fb2d2f-1a69-4434-a233-49e6a7d2ea28","ios":"levelo://app?vid=a5fb2d2f-1a69-4434-a233-49e6a7d2ea28"},"vehicle_type_id":"4","last_reported":1686078240,"current_range_meters":22400,"station_id":"ce4bgqh2rcd13ifvqc4g","pricing_plan_id":"free"},{"bike_id":"367ce0d0-a32a-4d0a-b24e-ba5790a2c46d","system_id":"levelo_inurba_marseille","lat":43.305989,"lon":5.37225,"is_reserved":false,"is_disabled":false,"rental_uris":{"android":"levelo://app?vid=367ce0d0-a32a-4d0a-b24e-ba5790a2c46d","ios":"levelo://app?vid=367ce0d0-a32a-4d0a-b24e-ba5790a2c46d"},"vehicle_type_id":"4","last_reported":1686078240,"current_range_meters":27600,"station_id":"ce4bgqh2rcd13ifvqc4g","pricing_plan_id":"free"},{"bike_id":"1ae2d011-a6c8-48c0-b2f2-b61d226706c9","system_id":"levelo_inurba_marseille","lat":43.305989,"lon":5.37225,"is_reserved":false,"is_disabled":false,"rental_uris":{"android":"levelo://app?vid=1ae2d011-a6c8-48c0-b2f2-b61d226706c9","ios":"levelo://app?vid=1ae2d011-a6c8-48c0-b2f2-b61d226706c9"},"vehicle_type_id":"4","last_reported":1686078240,"current_range_meters":30400,"station_id":"ce4bgqh2rcd13ifvqc4g","pricing_plan_id":"free"},{"bike_id":"7bc64281-c575-4502-baf8-28698132b16d","system_id":"levelo_inurba_marseille","lat":43.305989,"lon":5.37225,"is_reserved":false,"is_disabled":false,"rental_uris":{"android":"levelo://app?vid=7bc64281-c575-4502-baf8-28698132b16d","ios":"levelo://app?vid=7bc64281-c575-4502-baf8-28698132b16d"},"vehicle_type_id":"4","last_reported":1686078240,"current_range_meters":10400,"station_id":"ce4bgqh2rcd13ifvqc4g","pricing_plan_id":"free"},{"bike_id":"dc74fed1-b353-4bdb-9b5a-0099c5c8e7e9","system_id":"levelo_inurba_marseille","lat":43.32053,"lon":5.36615,"is_reserved":false,"is_disabled":false,"rental_uris":{"android":"levelo://app?vid=dc74fed1-b353-4bdb-9b5a-0099c5c8e7e9","ios":"levelo://app?vid=dc74fed1-b353-4bdb-9b5a-0099c5c8e7e9"},"vehicle_type_id":"4","last_reported":1686078240,"current_range_meters":800,"station_id":"","pricing_plan_id":"free"},{"bike_id":"89d59e7b-caa7-4862-ab88-1bbf04435741","system_id":"levelo_inurba_marseille","lat":43.305989,"lon":5.37225,"is_reserved":false,"is_disabled":false,"rental_uris":{"android":"levelo://app?vid=89d59e7b-caa7-4862-ab88-1bbf04435741","ios":"levelo://app?vid=89d59e7b-caa7-4862-ab88-1bbf04435741"},"vehicle_type_id":"4","last_reported":1686078240,"current_range_meters":23200,"station_id":"ce4bgqh2rcd13ifvqc4g","pricing_plan_id":"free"},{"bike_id":"697b6f36-2623-4d28-9a33-5f3cb2d659b7","system_id":"levelo_inurba_marseille","lat":43.31122,"lon":5.37768,"is_reserved":false,"is_disabled":false,"rental_uris":{"android":"levelo://app?vid=697b6f36-2623-4d28-9a33-5f3cb2d659b7","ios":"levelo://app?vid=697b6f36-2623-4d28-9a33-5f3cb2d659b7"},"vehicle_type_id":"4","last_reported":1686078240,"current_range_meters":29600,"station_id":"ce4bgt92rcd13ifvqcg0","pricing_plan_id":"free"},{"bike_id":"01e541e1-6a53-4c8e-b398-0e8540fbfb2d","system_id":"levelo_inurba_marseille","lat":43.3095,"lon":5.37996,"is_reserved":false,"is_disabled":false,"rental_uris":{"android":"levelo://app?vid=01e541e1-6a53-4c8e-b398-0e8540fbfb2d","ios":"levelo://app?vid=01e541e1-6a53-4c8e-b398-0e8540fbfb2d"},"vehicle_type_id":"4","last_reported":1686078240,"current_range_meters":21600,"station_id":"","pricing_plan_id":"free"},{"bike_id":"14e2d1e8-4726-456c-bef6-50939a50a357","system_id":"levelo_inurba_marseille","lat":43.31868,"lon":5.3784,"is_reserved":false,"is_disabled":false,"rental_uris":{"android":"levelo://app?vid=14e2d1e8-4726-456c-bef6-50939a50a357","ios":"levelo://app?vid=14e2d1e8-4726-456c-bef6-50939a50a357"},"vehicle_type_id":"4","last_reported":1686078240,"current_range_meters":20000,"station_id":"","pricing_plan_id":"free"},{"bike_id":"3d5c2ee6-675d-41f8-81c5-16f1ada6e8b3","system_id":"levelo_inurba_marseille","lat":43.30186,"lon":5.36614,"is_reserved":false,"is_disabled":false,"rental_uris":{"android":"levelo://app?vid=3d5c2ee6-675d-41f8-81c5-16f1ada6e8b3","ios":"levelo://app?vid=3d5c2ee6-675d-41f8-81c5-16f1ada6e8b3"},"vehicle_type_id":"4","last_reported":1686078240,"current_range_meters":30400,"station_id":"ce4bgrh2rcd13ifvqc8g","pricing_plan_id":"free"},{"bike_id":"a3df4068-0ac5-4d9b-b42f-82d991edffc1","system_id":"levelo_inurba_marseille","lat":43.30179,"lon":5.36629,"is_reserved":false,"is_disabled":false,"rental_uris":{"android":"levelo://app?vid=a3df4068-0ac5-4d9b-b42f-82d991edffc1","ios":"levelo://app?vid=a3df4068-0ac5-4d9b-b42f-82d991edffc1"},"vehicle_type_id":"4","last_reported":1686078240,"current_range_meters":4800,"station_id":"ce4bgrh2rcd13ifvqc8g","pricing_plan_id":"free"},{"bike_id":"4aa33e11-2677-4828-9d08-1ef7e81c8638","system_id":"levelo_inurba_marseille","lat":43.30179,"lon":5.36614,"is_reserved":false,"is_disabled":false,"rental_uris":{"android":"levelo://app?vid=4aa33e11-2677-4828-9d08-1ef7e81c8638","ios":"levelo://app?vid=4aa33e11-2677-4828-9d08-1ef7e81c8638"},"vehicle_type_id":"4","last_reported":1686078240,"current_range_meters":28400,"station_id":"ce4bgrh2rcd13ifvqc8g","pricing_plan_id":"free"},{"bike_id":"4475f676-d965-4d22-9f6d-3a34e0f51233","system_id":"levelo_inurba_marseille","lat":43.30174,"lon":5.36631,"is_reserved":false,"is_disabled":false,"rental_uris":{"android":"levelo://app?vid=4475f676-d965-4d22-9f6d-3a34e0f51233","ios":"levelo://app?vid=4475f676-d965-4d22-9f6d-3a34e0f51233"},"vehicle_type_id":"4","last_reported":1686078240,"current_range_meters":26800,"station_id":"ce4bgrh2rcd13ifvqc8g","pricing_plan_id":"free"},{"bike_id":"f39e6617-6a5f-4ba5-98d5-788f15d20117","system_id":"levelo_inurba_marseille","lat":43.32274,"lon":5.37448,"is_reserved":false,"is_disabled":false,"rental_uris":{"android":"levelo://app?vid=f39e6617-6a5f-4ba5-98d5-788f15d20117","ios":"levelo://app?vid=f39e6617-6a5f-4ba5-98d5-788f15d20117"},"vehicle_type_id":"4","last_reported":1686078240,"current_range_meters":29600,"station_id":"","pricing_plan_id":"free"},{"bike_id":"6042544e-777e-4214-ac8d-c84fe8dc863a","system_id":"levelo_inurba_marseille","lat":43.31627,"lon":5.38203,"is_reserved":false,"is_disabled":false,"rental_uris":{"android":"levelo://app?vid=6042544e-777e-4214-ac8d-c84fe8dc863a","ios":"levelo://app?vid=6042544e-777e-4214-ac8d-c84fe8dc863a"},"vehicle_type_id":"4","last_reported":1686078240,"current_range_meters":1600,"station_id":"","pricing_plan_id":"free"},{"bike_id":"d83c9748-38c3-42a2-b686-015a93d2dcf5","system_id":"levelo_inurba_marseille","lat":43.30143,"lon":5.37416,"is_reserved":false,"is_disabled":false,"rental_uris":{"android":"levelo://app?vid=d83c9748-38c3-42a2-b686-015a93d2dcf5","ios":"levelo://app?vid=d83c9748-38c3-42a2-b686-015a93d2dcf5"},"vehicle_type_id":"4","last_reported":1686078240,"current_range_meters":24800,"station_id":"","pricing_plan_id":"free"},{"bike_id":"ba6b4a9e-f927-4d0e-bf58-daad93e27c63","system_id":"levelo_inurba_marseille","lat":43.30136,"lon":5.37417,"is_reserved":false,"is_disabled":false,"rental_uris":{"android":"levelo://app?vid=ba6b4a9e-f927-4d0e-bf58-daad93e27c63","ios":"levelo://app?vid=ba6b4a9e-f927-4d0e-bf58-daad93e27c63"},"vehicle_type_id":"4","last_reported":1686078240,"current_range_meters":21600,"station_id":"","pricing_plan_id":"free"},{"bike_id":"07dc24b8-097a-43c5-bb4e-ca6760ef82be","system_id":"levelo_inurba_marseille","lat":43.319935,"lon":5.381699,"is_reserved":false,"is_disabled":false,"rental_uris":{"android":"levelo://app?vid=07dc24b8-097a-43c5-bb4e-ca6760ef82be","ios":"levelo://app?vid=07dc24b8-097a-43c5-bb4e-ca6760ef82be"},"vehicle_type_id":"4","last_reported":1686078240,"current_range_meters":27200,"station_id":"ce4bhr12rcd13ifvqhpg","pricing_plan_id":"free"},{"bike_id":"62b5dcac-953d-4749-9689-b8e8bb29805b","system_id":"levelo_inurba_marseille","lat":43.319935,"lon":5.381699,"is_reserved":false,"is_disabled":false,"rental_uris":{"android":"levelo://app?vid=62b5dcac-953d-4749-9689-b8e8bb29805b","ios":"levelo://app?vid=62b5dcac-953d-4749-9689-b8e8bb29805b"},"vehicle_type_id":"4","last_reported":1686078240,"current_range_meters":2800,"station_id":"ce4bhr12rcd13ifvqhpg","pricing_plan_id":"free"},{"bike_id":"cc13c44d-6a0d-4fad-888e-b89b59d02a7b","system_id":"levelo_inurba_marseille","lat":43.319935,"lon":5.381699,"is_reserved":false,"is_disabled":false,"rental_uris":{"android":"levelo://app?vid=cc13c44d-6a0d-4fad-888e-b89b59d02a7b","ios":"levelo://app?vid=cc13c44d-6a0d-4fad-888e-b89b59d02a7b"},"vehicle_type_id":"4","last_reported":1686078240,"current_range_meters":21600,"station_id":"ce4bhr12rcd13ifvqhpg","pricing_plan_id":"free"},{"bike_id":"cb19eddb-ca69-4dc7-824f-abb934150f2b","system_id":"levelo_inurba_marseille","lat":43.31361,"lon":5.38485,"is_reserved":false,"is_disabled":false,"rental_uris":{"android":"levelo://app?vid=cb19eddb-ca69-4dc7-824f-abb934150f2b","ios":"levelo://app?vid=cb19eddb-ca69-4dc7-824f-abb934150f2b"},"vehicle_type_id":"4","last_reported":1686078240,"current_range_meters":7200,"station_id":"ce4bgt92rcd13ifvqcf0","pricing_plan_id":"free"},{"bike_id":"39a049a0-92e3-44ed-81a4-e6dec0b97e3f","system_id":"levelo_inurba_marseille","lat":43.313571,"lon":5.384829,"is_reserved":false,"is_disabled":false,"rental_uris":{"android":"levelo://app?vid=39a049a0-92e3-44ed-81a4-e6dec0b97e3f","ios":"levelo://app?vid=39a049a0-92e3-44ed-81a4-e6dec0b97e3f"},"vehicle_type_id":"4","last_reported":1686078240,"current_range_meters":1200,"station_id":"ce4bgt92rcd13ifvqcf0","pricing_plan_id":"free"},{"bike_id":"d65f788f-2272-4e36-89a8-fa46e30ce716","system_id":"levelo_inurba_marseille","lat":43.313571,"lon":5.384829,"is_reserved":false,"is_disabled":false,"rental_uris":{"android":"levelo://app?vid=d65f788f-2272-4e36-89a8-fa46e30ce716","ios":"levelo://app?vid=d65f788f-2272-4e36-89a8-fa46e30ce716"},"vehicle_type_id":"4","last_reported":1686078240,"current_range_meters":9200,"station_id":"ce4bgt92rcd13ifvqcf0","pricing_plan_id":"free"},{"bike_id":"d52bfa9c-2492-4898-b187-db55c9ee49f3","system_id":"levelo_inurba_marseille","lat":43.32664,"lon":5.36109,"is_reserved":false,"is_disabled":false,"rental_uris":{"android":"levelo://app?vid=d52bfa9c-2492-4898-b187-db55c9ee49f3","ios":"levelo://app?vid=d52bfa9c-2492-4898-b187-db55c9ee49f3"},"vehicle_type_id":"4","last_reported":1686078240,"current_range_meters":2400,"station_id":"","pricing_plan_id":"free"},{"bike_id":"c19c0adc-9c02-4be1-8ffc-650070355ccc","system_id":"levelo_inurba_marseille","lat":43.298433,"lon":5.362774,"is_reserved":false,"is_disabled":false,"rental_uris":{"android":"levelo://app?vid=c19c0adc-9c02-4be1-8ffc-650070355ccc","ios":"levelo://app?vid=c19c0adc-9c02-4be1-8ffc-650070355ccc"},"vehicle_type_id":"4","last_reported":1686078240,"current_range_meters":2400,"station_id":"ce4bgpp2rcd13ifvqc3g","pricing_plan_id":"free"},{"bike_id":"d12ba50c-1005-4ca8-8343-f1651aa694a2","system_id":"levelo_inurba_marseille","lat":43.299243,"lon":5.37481,"is_reserved":false,"is_disabled":false,"rental_uris":{"android":"levelo://app?vid=d12ba50c-1005-4ca8-8343-f1651aa694a2","ios":"levelo://app?vid=d12ba50c-1005-4ca8-8343-f1651aa694a2"},"vehicle_type_id":"4","last_reported":1686078240,"current_range_meters":12800,"station_id":"ce4bgjh2rcd13ifvqbg0","pricing_plan_id":"free"},{"bike_id":"39257d59-7e8a-4529-8855-9ec06e7c0171","system_id":"levelo_inurba_marseille","lat":43.32793,"lon":5.36684,"is_reserved":false,"is_disabled":false,"rental_uris":{"android":"levelo://app?vid=39257d59-7e8a-4529-8855-9ec06e7c0171","ios":"levelo://app?vid=39257d59-7e8a-4529-8855-9ec06e7c0171"},"vehicle_type_id":"4","last_reported":1686078240,"current_range_meters":12800,"station_id":"","pricing_plan_id":"free"},{"bike_id":"6a9d5dbc-ca52-4b67-b22f-cbfc202ce3d5","system_id":"levelo_inurba_marseille","lat":43.328371,"lon":5.366909,"is_reserved":false,"is_disabled":false,"rental_uris":{"android":"levelo://app?vid=6a9d5dbc-ca52-4b67-b22f-cbfc202ce3d5","ios":"levelo://app?vid=6a9d5dbc-ca52-4b67-b22f-cbfc202ce3d5"},"vehicle_type_id":"4","last_reported":1686078240,"current_range_meters":28800,"station_id":"ce4bhs92rcd13ifvqi0g","pricing_plan_id":"free"},{"bike_id":"d14e0e79-5888-4ea7-8a57-bef7c87f3b1c","system_id":"levelo_inurba_marseille","lat":43.328371,"lon":5.366909,"is_reserved":false,"is_disabled":false,"rental_uris":{"android":"levelo://app?vid=d14e0e79-5888-4ea7-8a57-bef7c87f3b1c","ios":"levelo://app?vid=d14e0e79-5888-4ea7-8a57-bef7c87f3b1c"},"vehicle_type_id":"4","last_reported":1686078240,"current_range_meters":3600,"station_id":"ce4bhs92rcd13ifvqi0g","pricing_plan_id":"free"},{"bike_id":"ba3a981f-0453-4c22-a027-78db9d99972b","system_id":"levelo_inurba_marseille","lat":43.296131,"lon":5.370773,"is_reserved":false,"is_disabled":false,"rental_uris":{"android":"levelo://app?vid=ba3a981f-0453-4c22-a027-78db9d99972b","ios":"levelo://app?vid=ba3a981f-0453-4c22-a027-78db9d99972b"},"vehicle_type_id":"4","last_reported":1686078240,"current_range_meters":400,"station_id":"ce4bgnh2rcd13ifvqc0g","pricing_plan_id":"free"},{"bike_id":"100be238-045b-4969-92f4-85d584c73f6c","system_id":"levelo_inurba_marseille","lat":43.29703,"lon":5.36606,"is_reserved":false,"is_disabled":false,"rental_uris":{"android":"levelo://app?vid=100be238-045b-4969-92f4-85d584c73f6c","ios":"levelo://app?vid=100be238-045b-4969-92f4-85d584c73f6c"},"vehicle_type_id":"4","last_reported":1686078240,"current_range_meters":0,"station_id":"","pricing_plan_id":"free"},{"bike_id":"143615d0-3534-435b-b471-928bf8253d09","system_id":"levelo_inurba_marseille","lat":43.29855,"lon":5.37651,"is_reserved":false,"is_disabled":false,"rental_uris":{"android":"levelo://app?vid=143615d0-3534-435b-b471-928bf8253d09","ios":"levelo://app?vid=143615d0-3534-435b-b471-928bf8253d09"},"vehicle_type_id":"4","last_reported":1686078240,"current_range_meters":0,"station_id":"","pricing_plan_id":"free"},{"bike_id":"e31dc9aa-41ab-4d5e-8bcb-3454473c6fab","system_id":"levelo_inurba_marseille","lat":43.32762,"lon":5.37489,"is_reserved":false,"is_disabled":false,"rental_uris":{"android":"levelo://app?vid=e31dc9aa-41ab-4d5e-8bcb-3454473c6fab","ios":"levelo://app?vid=e31dc9aa-41ab-4d5e-8bcb-3454473c6fab"},"vehicle_type_id":"4","last_reported":1686078240,"current_range_meters":26800,"station_id":"","pricing_plan_id":"free"},{"bike_id":"b7783833-365d-4a37-bdb8-816ff7698b0f","system_id":"levelo_inurba_marseille","lat":43.2968,"lon":5.37291,"is_reserved":false,"is_disabled":false,"rental_uris":{"android":"levelo://app?vid=b7783833-365d-4a37-bdb8-816ff7698b0f","ios":"levelo://app?vid=b7783833-365d-4a37-bdb8-816ff7698b0f"},"vehicle_type_id":"4","last_reported":1686078240,"current_range_meters":400,"station_id":"ce4bgk12rcd13ifvqbj0","pricing_plan_id":"free"},{"bike_id":"107e244d-3d85-4ce4-bc2b-3a75d744302f","system_id":"levelo_inurba_marseille","lat":43.29595,"lon":5.37086,"is_reserved":false,"is_disabled":false,"rental_uris":{"android":"levelo://app?vid=107e244d-3d85-4ce4-bc2b-3a75d744302f","ios":"levelo://app?vid=107e244d-3d85-4ce4-bc2b-3a75d744302f"},"vehicle_type_id":"4","last_reported":1686078240,"current_range_meters":7600,"station_id":"","pricing_plan_id":"free"},{"bike_id":"f2a04999-433f-43b6-902d-ce3e342ea429","system_id":"levelo_inurba_marseille","lat":43.295279,"lon":5.375048,"is_reserved":false,"is_disabled":false,"rental_uris":{"android":"levelo://app?vid=f2a04999-433f-43b6-902d-ce3e342ea429","ios":"levelo://app?vid=f2a04999-433f-43b6-902d-ce3e342ea429"},"vehicle_type_id":"4","last_reported":1686078240,"current_range_meters":21600,"station_id":"ce4bgkp2rcd13ifvqbmg","pricing_plan_id":"free"},{"bike_id":"39aea9ef-2d9e-4fb4-b9a7-53897c16af59","system_id":"levelo_inurba_marseille","lat":43.33077,"lon":5.37623,"is_reserved":false,"is_disabled":false,"rental_uris":{"android":"levelo://app?vid=39aea9ef-2d9e-4fb4-b9a7-53897c16af59","ios":"levelo://app?vid=39aea9ef-2d9e-4fb4-b9a7-53897c16af59"},"vehicle_type_id":"4","last_reported":1686078240,"current_range_meters":6000,"station_id":"","pricing_plan_id":"free"},{"bike_id":"f4564053-b67c-491a-b405-941d4e477c30","system_id":"levelo_inurba_marseille","lat":43.32367,"lon":5.388836,"is_reserved":false,"is_disabled":false,"rental_uris":{"android":"levelo://app?vid=f4564053-b67c-491a-b405-941d4e477c30","ios":"levelo://app?vid=f4564053-b67c-491a-b405-941d4e477c30"},"vehicle_type_id":"4","last_reported":1686078240,"current_range_meters":0,"station_id":"ce4bhqp2rcd13ifvqhog","pricing_plan_id":"free"},{"bike_id":"e287b697-8d66-48e0-96d2-d190aff2569f","system_id":"levelo_inurba_marseille","lat":43.29893,"lon":5.38775,"is_reserved":false,"is_disabled":false,"rental_uris":{"android":"levelo://app?vid=e287b697-8d66-48e0-96d2-d190aff2569f","ios":"levelo://app?vid=e287b697-8d66-48e0-96d2-d190aff2569f"},"vehicle_type_id":"4","last_reported":1686078240,"current_range_meters":0,"station_id":"","pricing_plan_id":"free"},{"bike_id":"636812fa-acf2-4d15-be6f-8ef9e824debc","system_id":"levelo_inurba_marseille","lat":43.31391,"lon":5.39522,"is_reserved":false,"is_disabled":false,"rental_uris":{"android":"levelo://app?vid=636812fa-acf2-4d15-be6f-8ef9e824debc","ios":"levelo://app?vid=636812fa-acf2-4d15-be6f-8ef9e824debc"},"vehicle_type_id":"4","last_reported":1686078240,"current_range_meters":3200,"station_id":"","pricing_plan_id":"free"},{"bike_id":"f3224e2f-b5d0-4256-ac82-ef8a472e4174","system_id":"levelo_inurba_marseille","lat":43.298768,"lon":5.43643,"is_reserved":false,"is_disabled":false,"rental_uris":{"android":"levelo://app?vid=f3224e2f-b5d0-4256-ac82-ef8a472e4174","ios":"levelo://app?vid=f3224e2f-b5d0-4256-ac82-ef8a472e4174"},"vehicle_type_id":"4","last_reported":1686078240,"current_range_meters":800,"station_id":"ce4bhpp2rcd13ifvqhfg","pricing_plan_id":"free"},{"bike_id":"91af0d3e-2f5e-4b62-b7da-f102a684eeb4","system_id":"levelo_inurba_marseille","lat":43.293009,"lon":5.374584,"is_reserved":false,"is_disabled":false,"rental_uris":{"android":"levelo://app?vid=91af0d3e-2f5e-4b62-b7da-f102a684eeb4","ios":"levelo://app?vid=91af0d3e-2f5e-4b62-b7da-f102a684eeb4"},"vehicle_type_id":"4","last_reported":1686078240,"current_range_meters":7600,"station_id":"ce4bgi12rcd13ifvqb70","pricing_plan_id":"free"},{"bike_id":"61e4ccfd-dc98-4837-8123-2dfa5e087f42","system_id":"levelo_inurba_marseille","lat":43.293723,"lon":5.378443,"is_reserved":false,"is_disabled":false,"rental_uris":{"android":"levelo://app?vid=61e4ccfd-dc98-4837-8123-2dfa5e087f42","ios":"levelo://app?vid=61e4ccfd-dc98-4837-8123-2dfa5e087f42"},"vehicle_type_id":"4","last_reported":1686078240,"current_range_meters":18000,"station_id":"","pricing_plan_id":"free"},{"bike_id":"6c5da9e3-7ed8-45f9-997e-3a66cf35eb9e","system_id":"levelo_inurba_marseille","lat":43.29263,"lon":5.3597,"is_reserved":false,"is_disabled":false,"rental_uris":{"android":"levelo://app?vid=6c5da9e3-7ed8-45f9-997e-3a66cf35eb9e","ios":"levelo://app?vid=6c5da9e3-7ed8-45f9-997e-3a66cf35eb9e"},"vehicle_type_id":"4","last_reported":1686078240,"current_range_meters":27600,"station_id":"","pricing_plan_id":"free"},{"bike_id":"fdfc11d8-06f4-4978-bc52-d0e451cbfa75","system_id":"levelo_inurba_marseille","lat":43.29231,"lon":5.36078,"is_reserved":false,"is_disabled":false,"rental_uris":{"android":"levelo://app?vid=fdfc11d8-06f4-4978-bc52-d0e451cbfa75","ios":"levelo://app?vid=fdfc11d8-06f4-4978-bc52-d0e451cbfa75"},"vehicle_type_id":"4","last_reported":1686078240,"current_range_meters":29200,"station_id":"ce4bhbh2rcd13ifvqeqg","pricing_plan_id":"free"},{"bike_id":"a9965447-2ba2-460b-9f20-17751eb2fede","system_id":"levelo_inurba_marseille","lat":43.309038,"lon":5.396546,"is_reserved":false,"is_disabled":false,"rental_uris":{"android":"levelo://app?vid=a9965447-2ba2-460b-9f20-17751eb2fede","ios":"levelo://app?vid=a9965447-2ba2-460b-9f20-17751eb2fede"},"vehicle_type_id":"4","last_reported":1686078240,"current_range_meters":400,"station_id":"ce4bh012rcd13ifvqcv0","pricing_plan_id":"free"},{"bike_id":"e162e40d-1227-4355-8ed8-b05516834132","system_id":"levelo_inurba_marseille","lat":43.29529,"lon":5.385581,"is_reserved":false,"is_disabled":false,"rental_uris":{"android":"levelo://app?vid=e162e40d-1227-4355-8ed8-b05516834132","ios":"levelo://app?vid=e162e40d-1227-4355-8ed8-b05516834132"},"vehicle_type_id":"4","last_reported":1686078240,"current_range_meters":3600,"station_id":"ce4bgih2rcd13ifvqba0","pricing_plan_id":"free"},{"bike_id":"ca75b85c-e4c5-43ea-9d85-47f7efed2a9f","system_id":"levelo_inurba_marseille","lat":43.290631,"lon":5.359244,"is_reserved":false,"is_disabled":false,"rental_uris":{"android":"levelo://app?vid=ca75b85c-e4c5-43ea-9d85-47f7efed2a9f","ios":"levelo://app?vid=ca75b85c-e4c5-43ea-9d85-47f7efed2a9f"},"vehicle_type_id":"4","last_reported":1686078240,"current_range_meters":12400,"station_id":"ce4bha92rcd13ifvqeg0","pricing_plan_id":"free"},{"bike_id":"b3e38555-ea7c-4148-bdc9-8f5450e566cb","system_id":"levelo_inurba_marseille","lat":43.28932,"lon":5.36637,"is_reserved":false,"is_disabled":false,"rental_uris":{"android":"levelo://app?vid=b3e38555-ea7c-4148-bdc9-8f5450e566cb","ios":"levelo://app?vid=b3e38555-ea7c-4148-bdc9-8f5450e566cb"},"vehicle_type_id":"4","last_reported":1686078240,"current_range_meters":2000,"station_id":"ce4bhap2rcd13ifvqek0","pricing_plan_id":"free"},{"bike_id":"6752c224-facd-4cf1-93fa-51d4a8cbf289","system_id":"levelo_inurba_marseille","lat":43.289468,"lon":5.363719,"is_reserved":false,"is_disabled":false,"rental_uris":{"android":"levelo://app?vid=6752c224-facd-4cf1-93fa-51d4a8cbf289","ios":"levelo://app?vid=6752c224-facd-4cf1-93fa-51d4a8cbf289"},"vehicle_type_id":"4","last_reported":1686078240,"current_range_meters":15600,"station_id":"ce4bhc92rcd13ifvqetg","pricing_plan_id":"free"},{"bike_id":"dd9f6ba8-58b0-4b73-8f46-582343cf3adb","system_id":"levelo_inurba_marseille","lat":43.289184,"lon":5.366408,"is_reserved":false,"is_disabled":false,"rental_uris":{"android":"levelo://app?vid=dd9f6ba8-58b0-4b73-8f46-582343cf3adb","ios":"levelo://app?vid=dd9f6ba8-58b0-4b73-8f46-582343cf3adb"},"vehicle_type_id":"4","last_reported":1686078240,"current_range_meters":8000,"station_id":"ce4bhap2rcd13ifvqek0","pricing_plan_id":"free"},{"bike_id":"36bda732-6cae-40e8-a193-c86fe54f7a0b","system_id":"levelo_inurba_marseille","lat":43.292642,"lon":5.384254,"is_reserved":false,"is_disabled":false,"rental_uris":{"android":"levelo://app?vid=36bda732-6cae-40e8-a193-c86fe54f7a0b","ios":"levelo://app?vid=36bda732-6cae-40e8-a193-c86fe54f7a0b"},"vehicle_type_id":"4","last_reported":1686078240,"current_range_meters":2800,"station_id":"ce4bh692rcd13ifvqea0","pricing_plan_id":"free"},{"bike_id":"63eaada3-b793-4bcd-abae-15bc86866f4d","system_id":"levelo_inurba_marseille","lat":43.33045,"lon":5.38914,"is_reserved":false,"is_disabled":false,"rental_uris":{"android":"levelo://app?vid=63eaada3-b793-4bcd-abae-15bc86866f4d","ios":"levelo://app?vid=63eaada3-b793-4bcd-abae-15bc86866f4d"},"vehicle_type_id":"4","last_reported":1686078240,"current_range_meters":30000,"station_id":"ce4bhr92rcd13ifvqhrg","pricing_plan_id":"free"},{"bike_id":"c3e9bd7b-3dd1-45a0-8bdc-e1bdc7c8413e","system_id":"levelo_inurba_marseille","lat":43.290104,"lon":5.356111,"is_reserved":false,"is_disabled":false,"rental_uris":{"android":"levelo://app?vid=c3e9bd7b-3dd1-45a0-8bdc-e1bdc7c8413e","ios":"levelo://app?vid=c3e9bd7b-3dd1-45a0-8bdc-e1bdc7c8413e"},"vehicle_type_id":"4","last_reported":1686078240,"current_range_meters":27200,"station_id":"ce4bhb92rcd13ifvqen0","pricing_plan_id":"free"},{"bike_id":"8f868d09-512d-42ae-b740-97f96791fc5f","system_id":"levelo_inurba_marseille","lat":43.2901,"lon":5.381269,"is_reserved":false,"is_disabled":false,"rental_uris":{"android":"levelo://app?vid=8f868d09-512d-42ae-b740-97f96791fc5f","ios":"levelo://app?vid=8f868d09-512d-42ae-b740-97f96791fc5f"},"vehicle_type_id":"4","last_reported":1686078240,"current_range_meters":20800,"station_id":"ce4bh4p2rcd13ifvqe1g","pricing_plan_id":"free"},{"bike_id":"7b3a778d-0feb-4257-b8fd-731f13722618","system_id":"levelo_inurba_marseille","lat":43.289741,"lon":5.378306,"is_reserved":false,"is_disabled":false,"rental_uris":{"android":"levelo://app?vid=7b3a778d-0feb-4257-b8fd-731f13722618","ios":"levelo://app?vid=7b3a778d-0feb-4257-b8fd-731f13722618"},"vehicle_type_id":"4","last_reported":1686078240,"current_range_meters":2000,"station_id":"ce4bh9p2rcd13ifvqed0","pricing_plan_id":"free"},{"bike_id":"7d8ded58-25fe-441d-b555-105296e94933","system_id":"levelo_inurba_marseille","lat":43.33748,"lon":5.37432,"is_reserved":false,"is_disabled":false,"rental_uris":{"android":"levelo://app?vid=7d8ded58-25fe-441d-b555-105296e94933","ios":"levelo://app?vid=7d8ded58-25fe-441d-b555-105296e94933"},"vehicle_type_id":"4","last_reported":1686078240,"current_range_meters":10800,"station_id":"","pricing_plan_id":"free"},{"bike_id":"a2bc5c31-776b-4272-bf0f-fa8197dc8835","system_id":"levelo_inurba_marseille","lat":43.33746,"lon":5.37452,"is_reserved":false,"is_disabled":false,"rental_uris":{"android":"levelo://app?vid=a2bc5c31-776b-4272-bf0f-fa8197dc8835","ios":"levelo://app?vid=a2bc5c31-776b-4272-bf0f-fa8197dc8835"},"vehicle_type_id":"4","last_reported":1686078240,"current_range_meters":13600,"station_id":"","pricing_plan_id":"free"},{"bike_id":"8e0ebf5a-a725-467b-84b9-7e9779cf0b76","system_id":"levelo_inurba_marseille","lat":43.33766,"lon":5.37439,"is_reserved":false,"is_disabled":false,"rental_uris":{"android":"levelo://app?vid=8e0ebf5a-a725-467b-84b9-7e9779cf0b76","ios":"levelo://app?vid=8e0ebf5a-a725-467b-84b9-7e9779cf0b76"},"vehicle_type_id":"4","last_reported":1686078240,"current_range_meters":18000,"station_id":"","pricing_plan_id":"free"},{"bike_id":"220cf297-fcbe-4dbd-ab2c-473bd6f62941","system_id":"levelo_inurba_marseille","lat":43.29017,"lon":5.38347,"is_reserved":false,"is_disabled":false,"rental_uris":{"android":"levelo://app?vid=220cf297-fcbe-4dbd-ab2c-473bd6f62941","ios":"levelo://app?vid=220cf297-fcbe-4dbd-ab2c-473bd6f62941"},"vehicle_type_id":"4","last_reported":1686078240,"current_range_meters":12000,"station_id":"","pricing_plan_id":"free"},{"bike_id":"578f795c-592b-45d0-b9ac-532ad5ae750d","system_id":"levelo_inurba_marseille","lat":43.286593,"lon":5.363346,"is_reserved":false,"is_disabled":false,"rental_uris":{"android":"levelo://app?vid=578f795c-592b-45d0-b9ac-532ad5ae750d","ios":"levelo://app?vid=578f795c-592b-45d0-b9ac-532ad5ae750d"},"vehicle_type_id":"4","last_reported":1686078240,"current_range_meters":3200,"station_id":"ce4bhah2rcd13ifvqej0","pricing_plan_id":"free"},{"bike_id":"a89371f0-7e65-49d7-b946-ccea857f903a","system_id":"levelo_inurba_marseille","lat":43.286591,"lon":5.363346,"is_reserved":false,"is_disabled":false,"rental_uris":{"android":"levelo://app?vid=a89371f0-7e65-49d7-b946-ccea857f903a","ios":"levelo://app?vid=a89371f0-7e65-49d7-b946-ccea857f903a"},"vehicle_type_id":"4","last_reported":1686078240,"current_range_meters":4000,"station_id":"ce4bhah2rcd13ifvqej0","pricing_plan_id":"free"},{"bike_id":"3366df19-247b-4962-9890-999b64952dc1","system_id":"levelo_inurba_marseille","lat":43.298681,"lon":5.397225,"is_reserved":false,"is_disabled":false,"rental_uris":{"android":"levelo://app?vid=3366df19-247b-4962-9890-999b64952dc1","ios":"levelo://app?vid=3366df19-247b-4962-9890-999b64952dc1"},"vehicle_type_id":"4","last_reported":1686078240,"current_range_meters":3200,"station_id":"ce4bh0h2rcd13ifvqd50","pricing_plan_id":"free"},{"bike_id":"80a56c0c-0834-46e1-98f6-d2a6b4a89e37","system_id":"levelo_inurba_marseille","lat":43.286039,"lon":5.370679,"is_reserved":false,"is_disabled":false,"rental_uris":{"android":"levelo://app?vid=80a56c0c-0834-46e1-98f6-d2a6b4a89e37","ios":"levelo://app?vid=80a56c0c-0834-46e1-98f6-d2a6b4a89e37"},"vehicle_type_id":"4","last_reported":1686078240,"current_range_meters":6400,"station_id":"ce4bht12rcd13ifvqi60","pricing_plan_id":"free"},{"bike_id":"61eeb38d-4d43-48f5-92cf-995a69bff00c","system_id":"levelo_inurba_marseille","lat":43.28611,"lon":5.37063,"is_reserved":false,"is_disabled":false,"rental_uris":{"android":"levelo://app?vid=61eeb38d-4d43-48f5-92cf-995a69bff00c","ios":"levelo://app?vid=61eeb38d-4d43-48f5-92cf-995a69bff00c"},"vehicle_type_id":"4","last_reported":1686078240,"current_range_meters":24000,"station_id":"","pricing_plan_id":"free"},{"bike_id":"9ea23348-8f03-4b05-8379-bd812ad8e4df","system_id":"levelo_inurba_marseille","lat":43.286039,"lon":5.370681,"is_reserved":false,"is_disabled":false,"rental_uris":{"android":"levelo://app?vid=9ea23348-8f03-4b05-8379-bd812ad8e4df","ios":"levelo://app?vid=9ea23348-8f03-4b05-8379-bd812ad8e4df"},"vehicle_type_id":"4","last_reported":1686078240,"current_range_meters":4800,"station_id":"ce4bht12rcd13ifvqi60","pricing_plan_id":"free"},{"bike_id":"e1c1876d-afab-46cd-9ca8-539b6cf8f197","system_id":"levelo_inurba_marseille","lat":43.28606,"lon":5.37059,"is_reserved":false,"is_disabled":false,"rental_uris":{"android":"levelo://app?vid=e1c1876d-afab-46cd-9ca8-539b6cf8f197","ios":"levelo://app?vid=e1c1876d-afab-46cd-9ca8-539b6cf8f197"},"vehicle_type_id":"4","last_reported":1686078240,"current_range_meters":9600,"station_id":"","pricing_plan_id":"free"},{"bike_id":"1d878ae5-749a-4d37-b97d-576d3697cfb4","system_id":"levelo_inurba_marseille","lat":43.317104,"lon":5.436818,"is_reserved":false,"is_disabled":false,"rental_uris":{"android":"levelo://app?vid=1d878ae5-749a-4d37-b97d-576d3697cfb4","ios":"levelo://app?vid=1d878ae5-749a-4d37-b97d-576d3697cfb4"},"vehicle_type_id":"4","last_reported":1686078240,"current_range_meters":7600,"station_id":"ce4bhp92rcd13ifvqhcg","pricing_plan_id":"free"},{"bike_id":"fe4e72f4-5356-4e99-86d4-ded333a70ca9","system_id":"levelo_inurba_marseille","lat":43.286039,"lon":5.370681,"is_reserved":false,"is_disabled":false,"rental_uris":{"android":"levelo://app?vid=fe4e72f4-5356-4e99-86d4-ded333a70ca9","ios":"levelo://app?vid=fe4e72f4-5356-4e99-86d4-ded333a70ca9"},"vehicle_type_id":"4","last_reported":1686078240,"current_range_meters":8800,"station_id":"ce4bht12rcd13ifvqi60","pricing_plan_id":"free"},{"bike_id":"bbc6ed9c-d7b0-4496-90f8-e96be2498ff6","system_id":"levelo_inurba_marseille","lat":43.31337,"lon":5.40488,"is_reserved":false,"is_disabled":false,"rental_uris":{"android":"levelo://app?vid=bbc6ed9c-d7b0-4496-90f8-e96be2498ff6","ios":"levelo://app?vid=bbc6ed9c-d7b0-4496-90f8-e96be2498ff6"},"vehicle_type_id":"4","last_reported":1686078240,"current_range_meters":13600,"station_id":"","pricing_plan_id":"free"},{"bike_id":"21adfa26-d3b5-441e-a9ce-3b7ff72596dd","system_id":"levelo_inurba_marseille","lat":43.34023,"lon":5.36256,"is_reserved":false,"is_disabled":false,"rental_uris":{"android":"levelo://app?vid=21adfa26-d3b5-441e-a9ce-3b7ff72596dd","ios":"levelo://app?vid=21adfa26-d3b5-441e-a9ce-3b7ff72596dd"},"vehicle_type_id":"4","last_reported":1686078240,"current_range_meters":4000,"station_id":"","pricing_plan_id":"free"},{"bike_id":"73eace82-3218-4ef1-bf5d-71d74dbbeb2a","system_id":"levelo_inurba_marseille","lat":43.291994,"lon":5.392907,"is_reserved":false,"is_disabled":false,"rental_uris":{"android":"levelo://app?vid=73eace82-3218-4ef1-bf5d-71d74dbbeb2a","ios":"levelo://app?vid=73eace82-3218-4ef1-bf5d-71d74dbbeb2a"},"vehicle_type_id":"4","last_reported":1686078240,"current_range_meters":13200,"station_id":"ce4bh192rcd13ifvqdd0","pricing_plan_id":"free"},{"bike_id":"ada63a35-502c-44cc-add3-2a5b6e4faf01","system_id":"levelo_inurba_marseille","lat":43.291994,"lon":5.392907,"is_reserved":false,"is_disabled":false,"rental_uris":{"android":"levelo://app?vid=ada63a35-502c-44cc-add3-2a5b6e4faf01","ios":"levelo://app?vid=ada63a35-502c-44cc-add3-2a5b6e4faf01"},"vehicle_type_id":"4","last_reported":1686078240,"current_range_meters":30800,"station_id":"ce4bh192rcd13ifvqdd0","pricing_plan_id":"free"},{"bike_id":"ff6fecfc-f59e-4fa8-821b-77f11914c76e","system_id":"levelo_inurba_marseille","lat":43.285848,"lon":5.350787,"is_reserved":false,"is_disabled":false,"rental_uris":{"android":"levelo://app?vid=ff6fecfc-f59e-4fa8-821b-77f11914c76e","ios":"levelo://app?vid=ff6fecfc-f59e-4fa8-821b-77f11914c76e"},"vehicle_type_id":"4","last_reported":1686078240,"current_range_meters":20400,"station_id":"ce4bhch2rcd13ifvqeug","pricing_plan_id":"free"},{"bike_id":"b31e4549-185a-4b34-b93e-23718b7b927f","system_id":"levelo_inurba_marseille","lat":43.28375,"lon":5.37549,"is_reserved":false,"is_disabled":false,"rental_uris":{"android":"levelo://app?vid=b31e4549-185a-4b34-b93e-23718b7b927f","ios":"levelo://app?vid=b31e4549-185a-4b34-b93e-23718b7b927f"},"vehicle_type_id":"4","last_reported":1686078240,"current_range_meters":16000,"station_id":"","pricing_plan_id":"free"},{"bike_id":"ed0d4a6e-7f6c-4784-92d9-af9b7efb9eca","system_id":"levelo_inurba_marseille","lat":43.323464,"lon":5.406297,"is_reserved":false,"is_disabled":false,"rental_uris":{"android":"levelo://app?vid=ed0d4a6e-7f6c-4784-92d9-af9b7efb9eca","ios":"levelo://app?vid=ed0d4a6e-7f6c-4784-92d9-af9b7efb9eca"},"vehicle_type_id":"4","last_reported":1686078240,"current_range_meters":28000,"station_id":"ce4bhq92rcd13ifvqhjg","pricing_plan_id":"free"},{"bike_id":"8e87ed7e-177b-4a80-946a-a893673e8c76","system_id":"levelo_inurba_marseille","lat":43.28257,"lon":5.37408,"is_reserved":false,"is_disabled":false,"rental_uris":{"android":"levelo://app?vid=8e87ed7e-177b-4a80-946a-a893673e8c76","ios":"levelo://app?vid=8e87ed7e-177b-4a80-946a-a893673e8c76"},"vehicle_type_id":"4","last_reported":1686078240,"current_range_meters":6000,"station_id":"","pricing_plan_id":"free"},{"bike_id":"e3586551-45c7-43e4-a1c3-ac0d458e37a3","system_id":"levelo_inurba_marseille","lat":43.288497,"lon":5.393089,"is_reserved":false,"is_disabled":false,"rental_uris":{"android":"levelo://app?vid=e3586551-45c7-43e4-a1c3-ac0d458e37a3","ios":"levelo://app?vid=e3586551-45c7-43e4-a1c3-ac0d458e37a3"},"vehicle_type_id":"4","last_reported":1686078240,"current_range_meters":400,"station_id":"ce4bh2p2rcd13ifvqdi0","pricing_plan_id":"free"},{"bike_id":"c7b53d48-92cd-41c3-a5f5-cd21e201d7c5","system_id":"levelo_inurba_marseille","lat":43.28418,"lon":5.34997,"is_reserved":false,"is_disabled":false,"rental_uris":{"android":"levelo://app?vid=c7b53d48-92cd-41c3-a5f5-cd21e201d7c5","ios":"levelo://app?vid=c7b53d48-92cd-41c3-a5f5-cd21e201d7c5"},"vehicle_type_id":"4","last_reported":1686078240,"current_range_meters":28000,"station_id":"ce4bhbh2rcd13ifvqepg","pricing_plan_id":"free"},{"bike_id":"89d28271-4883-49e1-9ca8-ee9437d07c64","system_id":"levelo_inurba_marseille","lat":43.284217,"lon":5.349697,"is_reserved":false,"is_disabled":false,"rental_uris":{"android":"levelo://app?vid=89d28271-4883-49e1-9ca8-ee9437d07c64","ios":"levelo://app?vid=89d28271-4883-49e1-9ca8-ee9437d07c64"},"vehicle_type_id":"4","last_reported":1686078240,"current_range_meters":1600,"station_id":"ce4bhbh2rcd13ifvqepg","pricing_plan_id":"free"},{"bike_id":"d4d115bc-bc2e-43d8-8959-475815c24e32","system_id":"levelo_inurba_marseille","lat":43.28418,"lon":5.3499,"is_reserved":false,"is_disabled":false,"rental_uris":{"android":"levelo://app?vid=d4d115bc-bc2e-43d8-8959-475815c24e32","ios":"levelo://app?vid=d4d115bc-bc2e-43d8-8959-475815c24e32"},"vehicle_type_id":"4","last_reported":1686078240,"current_range_meters":20800,"station_id":"ce4bhbh2rcd13ifvqepg","pricing_plan_id":"free"},{"bike_id":"2669db02-524f-473a-86b6-4a747e299c4a","system_id":"levelo_inurba_marseille","lat":43.32661,"lon":5.4053,"is_reserved":false,"is_disabled":false,"rental_uris":{"android":"levelo://app?vid=2669db02-524f-473a-86b6-4a747e299c4a","ios":"levelo://app?vid=2669db02-524f-473a-86b6-4a747e299c4a"},"vehicle_type_id":"4","last_reported":1686078240,"current_range_meters":4400,"station_id":"","pricing_plan_id":"free"},{"bike_id":"e1e14763-206d-460f-b1b8-c877e45c3020","system_id":"levelo_inurba_marseille","lat":43.289363,"lon":5.396322,"is_reserved":false,"is_disabled":false,"rental_uris":{"android":"levelo://app?vid=e1e14763-206d-460f-b1b8-c877e45c3020","ios":"levelo://app?vid=e1e14763-206d-460f-b1b8-c877e45c3020"},"vehicle_type_id":"4","last_reported":1686078240,"current_range_meters":18400,"station_id":"ce4bh3h2rcd13ifvqdn0","pricing_plan_id":"free"},{"bike_id":"993b4678-b47b-48e3-8a8f-6a92a6010731","system_id":"levelo_inurba_marseille","lat":43.283502,"lon":5.386471,"is_reserved":false,"is_disabled":false,"rental_uris":{"android":"levelo://app?vid=993b4678-b47b-48e3-8a8f-6a92a6010731","ios":"levelo://app?vid=993b4678-b47b-48e3-8a8f-6a92a6010731"},"vehicle_type_id":"4","last_reported":1686078240,"current_range_meters":0,"station_id":"ce4bh492rcd13ifvqdvg","pricing_plan_id":"free"},{"bike_id":"5ac312dc-7245-4d82-be06-5b3a82741cd0","system_id":"levelo_inurba_marseille","lat":43.282754,"lon":5.350519,"is_reserved":false,"is_disabled":false,"rental_uris":{"android":"levelo://app?vid=5ac312dc-7245-4d82-be06-5b3a82741cd0","ios":"levelo://app?vid=5ac312dc-7245-4d82-be06-5b3a82741cd0"},"vehicle_type_id":"4","last_reported":1686078240,"current_range_meters":0,"station_id":"ce4bhbp2rcd13ifvqerg","pricing_plan_id":"free"},{"bike_id":"b93de216-7ce1-4272-8956-d70054e4bae7","system_id":"levelo_inurba_marseille","lat":43.28267,"lon":5.35063,"is_reserved":false,"is_disabled":false,"rental_uris":{"android":"levelo://app?vid=b93de216-7ce1-4272-8956-d70054e4bae7","ios":"levelo://app?vid=b93de216-7ce1-4272-8956-d70054e4bae7"},"vehicle_type_id":"4","last_reported":1686078240,"current_range_meters":23200,"station_id":"ce4bhbp2rcd13ifvqerg","pricing_plan_id":"free"},{"bike_id":"53762c9a-4db0-453b-9b0c-0bb8bbe29664","system_id":"levelo_inurba_marseille","lat":43.283502,"lon":5.386471,"is_reserved":false,"is_disabled":false,"rental_uris":{"android":"levelo://app?vid=53762c9a-4db0-453b-9b0c-0bb8bbe29664","ios":"levelo://app?vid=53762c9a-4db0-453b-9b0c-0bb8bbe29664"},"vehicle_type_id":"4","last_reported":1686078240,"current_range_meters":0,"station_id":"ce4bh492rcd13ifvqdvg","pricing_plan_id":"free"},{"bike_id":"3cef8496-60c3-4e95-8391-6cf7f8c6a5c7","system_id":"levelo_inurba_marseille","lat":43.28039,"lon":5.369297,"is_reserved":false,"is_disabled":false,"rental_uris":{"android":"levelo://app?vid=3cef8496-60c3-4e95-8391-6cf7f8c6a5c7","ios":"levelo://app?vid=3cef8496-60c3-4e95-8391-6cf7f8c6a5c7"},"vehicle_type_id":"4","last_reported":1686078240,"current_range_meters":1600,"station_id":"ce4bha12rcd13ifvqef0","pricing_plan_id":"free"},{"bike_id":"75ddd6ff-8fba-4d5f-90a2-b37facd0c560","system_id":"levelo_inurba_marseille","lat":43.29041,"lon":5.399634,"is_reserved":false,"is_disabled":false,"rental_uris":{"android":"levelo://app?vid=75ddd6ff-8fba-4d5f-90a2-b37facd0c560","ios":"levelo://app?vid=75ddd6ff-8fba-4d5f-90a2-b37facd0c560"},"vehicle_type_id":"4","last_reported":1686078240,"current_range_meters":2400,"station_id":"ce4bh392rcd13ifvqdm0","pricing_plan_id":"free"},{"bike_id":"3fb299cc-f861-4201-8f5b-ba409df1a7b5","system_id":"levelo_inurba_marseille","lat":43.279742,"lon":5.38744,"is_reserved":false,"is_disabled":false,"rental_uris":{"android":"levelo://app?vid=3fb299cc-f861-4201-8f5b-ba409df1a7b5","ios":"levelo://app?vid=3fb299cc-f861-4201-8f5b-ba409df1a7b5"},"vehicle_type_id":"4","last_reported":1686078240,"current_range_meters":0,"station_id":"ce4bhg12rcd13ifvqf80","pricing_plan_id":"free"},{"bike_id":"2c42af1a-a47f-499d-bb1a-0277858735d0","system_id":"levelo_inurba_marseille","lat":43.325243,"lon":5.414326,"is_reserved":false,"is_disabled":false,"rental_uris":{"android":"levelo://app?vid=2c42af1a-a47f-499d-bb1a-0277858735d0","ios":"levelo://app?vid=2c42af1a-a47f-499d-bb1a-0277858735d0"},"vehicle_type_id":"4","last_reported":1686078240,"current_range_meters":18000,"station_id":"ce4bhq12rcd13ifvqhhg","pricing_plan_id":"free"},{"bike_id":"1ee137eb-0fff-48a8-97ee-6a14f1ca432f","system_id":"levelo_inurba_marseille","lat":43.292569,"lon":5.409107,"is_reserved":false,"is_disabled":false,"rental_uris":{"android":"levelo://app?vid=1ee137eb-0fff-48a8-97ee-6a14f1ca432f","ios":"levelo://app?vid=1ee137eb-0fff-48a8-97ee-6a14f1ca432f"},"vehicle_type_id":"4","last_reported":1686078240,"current_range_meters":3200,"station_id":"ce4bh192rcd13ifvqdc0","pricing_plan_id":"free"},{"bike_id":"9055c40b-8fe1-4078-98c6-9270426a93de","system_id":"levelo_inurba_marseille","lat":43.280784,"lon":5.396622,"is_reserved":false,"is_disabled":false,"rental_uris":{"android":"levelo://app?vid=9055c40b-8fe1-4078-98c6-9270426a93de","ios":"levelo://app?vid=9055c40b-8fe1-4078-98c6-9270426a93de"},"vehicle_type_id":"4","last_reported":1686078240,"current_range_meters":0,"station_id":"ce4bho12rcd13ifvqh2g","pricing_plan_id":"free"},{"bike_id":"9b560a0c-201c-464e-84b5-0766c666929c","system_id":"levelo_inurba_marseille","lat":43.280784,"lon":5.396622,"is_reserved":false,"is_disabled":false,"rental_uris":{"android":"levelo://app?vid=9b560a0c-201c-464e-84b5-0766c666929c","ios":"levelo://app?vid=9b560a0c-201c-464e-84b5-0766c666929c"},"vehicle_type_id":"4","last_reported":1686078240,"current_range_meters":22800,"station_id":"ce4bho12rcd13ifvqh2g","pricing_plan_id":"free"},{"bike_id":"2be22cd7-b609-4f56-bd1b-dae8acdcad21","system_id":"levelo_inurba_marseille","lat":43.280784,"lon":5.396622,"is_reserved":false,"is_disabled":false,"rental_uris":{"android":"levelo://app?vid=2be22cd7-b609-4f56-bd1b-dae8acdcad21","ios":"levelo://app?vid=2be22cd7-b609-4f56-bd1b-dae8acdcad21"},"vehicle_type_id":"4","last_reported":1686078240,"current_range_meters":1600,"station_id":"ce4bho12rcd13ifvqh2g","pricing_plan_id":"free"},{"bike_id":"78c650aa-1229-4727-afd5-b24a15018973","system_id":"levelo_inurba_marseille","lat":43.280784,"lon":5.396622,"is_reserved":false,"is_disabled":false,"rental_uris":{"android":"levelo://app?vid=78c650aa-1229-4727-afd5-b24a15018973","ios":"levelo://app?vid=78c650aa-1229-4727-afd5-b24a15018973"},"vehicle_type_id":"4","last_reported":1686078240,"current_range_meters":0,"station_id":"ce4bho12rcd13ifvqh2g","pricing_plan_id":"free"},{"bike_id":"5818ba98-d41a-41e3-9c04-3ce20509a651","system_id":"levelo_inurba_marseille","lat":43.2761,"lon":5.39482,"is_reserved":false,"is_disabled":false,"rental_uris":{"android":"levelo://app?vid=5818ba98-d41a-41e3-9c04-3ce20509a651","ios":"levelo://app?vid=5818ba98-d41a-41e3-9c04-3ce20509a651"},"vehicle_type_id":"4","last_reported":1686078240,"current_range_meters":12400,"station_id":"","pricing_plan_id":"free"},{"bike_id":"586c5235-67a8-46ec-9d65-bb3fab536433","system_id":"levelo_inurba_marseille","lat":43.33521,"lon":5.41648,"is_reserved":false,"is_disabled":false,"rental_uris":{"android":"levelo://app?vid=586c5235-67a8-46ec-9d65-bb3fab536433","ios":"levelo://app?vid=586c5235-67a8-46ec-9d65-bb3fab536433"},"vehicle_type_id":"4","last_reported":1686078240,"current_range_meters":17600,"station_id":"","pricing_plan_id":"free"},{"bike_id":"47798519-9d31-4294-95cf-983aa58565ab","system_id":"levelo_inurba_marseille","lat":43.30417,"lon":5.42542,"is_reserved":false,"is_disabled":false,"rental_uris":{"android":"levelo://app?vid=47798519-9d31-4294-95cf-983aa58565ab","ios":"levelo://app?vid=47798519-9d31-4294-95cf-983aa58565ab"},"vehicle_type_id":"4","last_reported":1686078240,"current_range_meters":8800,"station_id":"ce4bhoh2rcd13ifvqh6g","pricing_plan_id":"free"},{"bike_id":"435703a2-f274-476a-ac13-0b4bd1de523e","system_id":"levelo_inurba_marseille","lat":43.295556,"lon":5.422937,"is_reserved":false,"is_disabled":false,"rental_uris":{"android":"levelo://app?vid=435703a2-f274-476a-ac13-0b4bd1de523e","ios":"levelo://app?vid=435703a2-f274-476a-ac13-0b4bd1de523e"},"vehicle_type_id":"4","last_reported":1686078240,"current_range_meters":31200,"station_id":"ce4bhph2rcd13ifvqhdg","pricing_plan_id":"free"},{"bike_id":"07bd3a97-212e-44f7-8b6d-a6f4d4125ac7","system_id":"levelo_inurba_marseille","lat":43.295407,"lon":5.423019,"is_reserved":false,"is_disabled":false,"rental_uris":{"android":"levelo://app?vid=07bd3a97-212e-44f7-8b6d-a6f4d4125ac7","ios":"levelo://app?vid=07bd3a97-212e-44f7-8b6d-a6f4d4125ac7"},"vehicle_type_id":"4","last_reported":1686078240,"current_range_meters":12000,"station_id":"ce4bhph2rcd13ifvqhdg","pricing_plan_id":"free"},{"bike_id":"5a4508d7-8f13-424c-a88d-34d973bc86bf","system_id":"levelo_inurba_marseille","lat":43.272124,"lon":5.391768,"is_reserved":false,"is_disabled":false,"rental_uris":{"android":"levelo://app?vid=5a4508d7-8f13-424c-a88d-34d973bc86bf","ios":"levelo://app?vid=5a4508d7-8f13-424c-a88d-34d973bc86bf"},"vehicle_type_id":"4","last_reported":1686078240,"current_range_meters":400,"station_id":"ce4bhhp2rcd13ifvqfm0","pricing_plan_id":"free"},{"bike_id":"e1819995-e031-40bb-9a77-4d3a823e0447","system_id":"levelo_inurba_marseille","lat":43.272069,"lon":5.391841,"is_reserved":false,"is_disabled":false,"rental_uris":{"android":"levelo://app?vid=e1819995-e031-40bb-9a77-4d3a823e0447","ios":"levelo://app?vid=e1819995-e031-40bb-9a77-4d3a823e0447"},"vehicle_type_id":"4","last_reported":1686078240,"current_range_meters":26800,"station_id":"","pricing_plan_id":"free"},{"bike_id":"52bd3f90-bd90-43eb-a6e9-251523840e3f","system_id":"levelo_inurba_marseille","lat":43.278128,"lon":5.407195,"is_reserved":false,"is_disabled":false,"rental_uris":{"android":"levelo://app?vid=52bd3f90-bd90-43eb-a6e9-251523840e3f","ios":"levelo://app?vid=52bd3f90-bd90-43eb-a6e9-251523840e3f"},"vehicle_type_id":"4","last_reported":1686078240,"current_range_meters":9600,"station_id":"ce4bhnh2rcd13ifvqgtg","pricing_plan_id":"free"},{"bike_id":"0cc22231-317b-4af5-8d00-87cbffc19744","system_id":"levelo_inurba_marseille","lat":43.278128,"lon":5.407195,"is_reserved":false,"is_disabled":false,"rental_uris":{"android":"levelo://app?vid=0cc22231-317b-4af5-8d00-87cbffc19744","ios":"levelo://app?vid=0cc22231-317b-4af5-8d00-87cbffc19744"},"vehicle_type_id":"4","last_reported":1686078240,"current_range_meters":4400,"station_id":"ce4bhnh2rcd13ifvqgtg","pricing_plan_id":"free"},{"bike_id":"9a266d83-1e16-4859-b87c-3b7175f70d3e","system_id":"levelo_inurba_marseille","lat":43.26948,"lon":5.38638,"is_reserved":false,"is_disabled":false,"rental_uris":{"android":"levelo://app?vid=9a266d83-1e16-4859-b87c-3b7175f70d3e","ios":"levelo://app?vid=9a266d83-1e16-4859-b87c-3b7175f70d3e"},"vehicle_type_id":"4","last_reported":1686078240,"current_range_meters":0,"station_id":"ce4bhh92rcd13ifvqfh0","pricing_plan_id":"free"},{"bike_id":"dbc107bb-b17d-42fa-acda-e4dbd7e823d9","system_id":"levelo_inurba_marseille","lat":43.26681,"lon":5.382694,"is_reserved":false,"is_disabled":false,"rental_uris":{"android":"levelo://app?vid=dbc107bb-b17d-42fa-acda-e4dbd7e823d9","ios":"levelo://app?vid=dbc107bb-b17d-42fa-acda-e4dbd7e823d9"},"vehicle_type_id":"4","last_reported":1686078240,"current_range_meters":0,"station_id":"ce4bhg92rcd13ifvqf90","pricing_plan_id":"free"},{"bike_id":"7b782b7b-6aa6-45cc-b692-50064be82d98","system_id":"levelo_inurba_marseille","lat":43.31709,"lon":5.43316,"is_reserved":false,"is_disabled":false,"rental_uris":{"android":"levelo://app?vid=7b782b7b-6aa6-45cc-b692-50064be82d98","ios":"levelo://app?vid=7b782b7b-6aa6-45cc-b692-50064be82d98"},"vehicle_type_id":"4","last_reported":1686078240,"current_range_meters":0,"station_id":"","pricing_plan_id":"free"},{"bike_id":"41a72f93-ffe0-4276-a93a-80129b0c1f43","system_id":"levelo_inurba_marseille","lat":43.27996,"lon":5.416624,"is_reserved":false,"is_disabled":false,"rental_uris":{"android":"levelo://app?vid=41a72f93-ffe0-4276-a93a-80129b0c1f43","ios":"levelo://app?vid=41a72f93-ffe0-4276-a93a-80129b0c1f43"},"vehicle_type_id":"4","last_reported":1686078240,"current_range_meters":8800,"station_id":"ce4bho12rcd13ifvqh1g","pricing_plan_id":"free"},{"bike_id":"c554fef8-9492-4487-9462-b78f892919cc","system_id":"levelo_inurba_marseille","lat":43.317104,"lon":5.436818,"is_reserved":false,"is_disabled":false,"rental_uris":{"android":"levelo://app?vid=c554fef8-9492-4487-9462-b78f892919cc","ios":"levelo://app?vid=c554fef8-9492-4487-9462-b78f892919cc"},"vehicle_type_id":"4","last_reported":1686078240,"current_range_meters":9200,"station_id":"ce4bhp92rcd13ifvqhcg","pricing_plan_id":"free"},{"bike_id":"caa65489-917c-4a6e-ab2c-24f752c39d5d","system_id":"levelo_inurba_marseille","lat":43.271368,"lon":5.40928,"is_reserved":false,"is_disabled":false,"rental_uris":{"android":"levelo://app?vid=caa65489-917c-4a6e-ab2c-24f752c39d5d","ios":"levelo://app?vid=caa65489-917c-4a6e-ab2c-24f752c39d5d"},"vehicle_type_id":"4","last_reported":1686078240,"current_range_meters":23200,"station_id":"ce4bhl12rcd13ifvqgf0","pricing_plan_id":"free"},{"bike_id":"3e6c26d8-b549-4e02-807f-452e6a655b5a","system_id":"levelo_inurba_marseille","lat":43.26805,"lon":5.40263,"is_reserved":false,"is_disabled":false,"rental_uris":{"android":"levelo://app?vid=3e6c26d8-b549-4e02-807f-452e6a655b5a","ios":"levelo://app?vid=3e6c26d8-b549-4e02-807f-452e6a655b5a"},"vehicle_type_id":"4","last_reported":1686078240,"current_range_meters":0,"station_id":"ce501612rcd8frsf0b60","pricing_plan_id":"free"},{"bike_id":"eaaec4f7-7641-4b85-b165-0d0c125ba5c7","system_id":"levelo_inurba_marseille","lat":43.298768,"lon":5.43643,"is_reserved":false,"is_disabled":false,"rental_uris":{"android":"levelo://app?vid=eaaec4f7-7641-4b85-b165-0d0c125ba5c7","ios":"levelo://app?vid=eaaec4f7-7641-4b85-b165-0d0c125ba5c7"},"vehicle_type_id":"4","last_reported":1686078240,"current_range_meters":5200,"station_id":"ce4bhpp2rcd13ifvqhfg","pricing_plan_id":"free"},{"bike_id":"0abd466f-ae7a-4789-a218-e3b2c168a2b3","system_id":"levelo_inurba_marseille","lat":43.25961,"lon":5.3755,"is_reserved":false,"is_disabled":false,"rental_uris":{"android":"levelo://app?vid=0abd466f-ae7a-4789-a218-e3b2c168a2b3","ios":"levelo://app?vid=0abd466f-ae7a-4789-a218-e3b2c168a2b3"},"vehicle_type_id":"4","last_reported":1686078240,"current_range_meters":16800,"station_id":"","pricing_plan_id":"free"},{"bike_id":"1d34637b-a82a-4638-876a-d2fee8476a35","system_id":"levelo_inurba_marseille","lat":43.309076,"lon":5.368465,"is_reserved":false,"is_disabled":false,"rental_uris":{"android":"levelo://app?vid=1d34637b-a82a-4638-876a-d2fee8476a35","ios":"levelo://app?vid=1d34637b-a82a-4638-876a-d2fee8476a35"},"vehicle_type_id":"4","last_reported":1686078240,"current_range_meters":15600,"station_id":"ce4bgn92rcd13ifvqbvg","pricing_plan_id":"free"},{"bike_id":"29de8da2-ec53-4ee1-8d72-ff99ba96c29d","system_id":"levelo_inurba_marseille","lat":43.2608,"lon":5.39761,"is_reserved":false,"is_disabled":false,"rental_uris":{"android":"levelo://app?vid=29de8da2-ec53-4ee1-8d72-ff99ba96c29d","ios":"levelo://app?vid=29de8da2-ec53-4ee1-8d72-ff99ba96c29d"},"vehicle_type_id":"4","last_reported":1686078240,"current_range_meters":31600,"station_id":"ce4bhi12rcd13ifvqfq0","pricing_plan_id":"free"},{"bike_id":"a781a343-b241-4f95-ab3c-8b2df648c6cb","system_id":"levelo_inurba_marseille","lat":43.33312,"lon":5.44167,"is_reserved":false,"is_disabled":false,"rental_uris":{"android":"levelo://app?vid=a781a343-b241-4f95-ab3c-8b2df648c6cb","ios":"levelo://app?vid=a781a343-b241-4f95-ab3c-8b2df648c6cb"},"vehicle_type_id":"4","last_reported":1686078240,"current_range_meters":20000,"station_id":"","pricing_plan_id":"free"},{"bike_id":"3833509d-2c9c-4401-9965-db6368e33dc5","system_id":"levelo_inurba_marseille","lat":43.270721,"lon":5.422764,"is_reserved":false,"is_disabled":false,"rental_uris":{"android":"levelo://app?vid=3833509d-2c9c-4401-9965-db6368e33dc5","ios":"levelo://app?vid=3833509d-2c9c-4401-9965-db6368e33dc5"},"vehicle_type_id":"4","last_reported":1686078240,"current_range_meters":5600,"station_id":"ce4bhk92rcd13ifvqgb0","pricing_plan_id":"free"},{"bike_id":"6a9a31ca-22fe-491c-9ded-a4a7a4b99f3a","system_id":"levelo_inurba_marseille","lat":43.258658,"lon":5.398935,"is_reserved":false,"is_disabled":false,"rental_uris":{"android":"levelo://app?vid=6a9a31ca-22fe-491c-9ded-a4a7a4b99f3a","ios":"levelo://app?vid=6a9a31ca-22fe-491c-9ded-a4a7a4b99f3a"},"vehicle_type_id":"4","last_reported":1686078240,"current_range_meters":1600,"station_id":"ce4bhl92rcd13ifvqghg","pricing_plan_id":"free"},{"bike_id":"3d7a94c2-40b6-431b-b6bc-605edc316ef2","system_id":"levelo_inurba_marseille","lat":43.25869,"lon":5.399,"is_reserved":false,"is_disabled":false,"rental_uris":{"android":"levelo://app?vid=3d7a94c2-40b6-431b-b6bc-605edc316ef2","ios":"levelo://app?vid=3d7a94c2-40b6-431b-b6bc-605edc316ef2"},"vehicle_type_id":"4","last_reported":1686078240,"current_range_meters":6400,"station_id":"ce4bhl92rcd13ifvqghg","pricing_plan_id":"free"},{"bike_id":"7684ab60-e56e-4dd9-8200-fd922f722d65","system_id":"levelo_inurba_marseille","lat":43.2814,"lon":5.43839,"is_reserved":false,"is_disabled":false,"rental_uris":{"android":"levelo://app?vid=7684ab60-e56e-4dd9-8200-fd922f722d65","ios":"levelo://app?vid=7684ab60-e56e-4dd9-8200-fd922f722d65"},"vehicle_type_id":"4","last_reported":1686078240,"current_range_meters":0,"station_id":"","pricing_plan_id":"free"},{"bike_id":"c8bbc208-8f51-4d10-84d2-5cc690baa642","system_id":"levelo_inurba_marseille","lat":43.25257,"lon":5.37988,"is_reserved":false,"is_disabled":false,"rental_uris":{"android":"levelo://app?vid=c8bbc208-8f51-4d10-84d2-5cc690baa642","ios":"levelo://app?vid=c8bbc208-8f51-4d10-84d2-5cc690baa642"},"vehicle_type_id":"4","last_reported":1686078240,"current_range_meters":30000,"station_id":"","pricing_plan_id":"free"},{"bike_id":"69756b64-7bc4-41e8-9ea0-cb29e9bc612b","system_id":"levelo_inurba_marseille","lat":43.24841,"lon":5.375,"is_reserved":false,"is_disabled":false,"rental_uris":{"android":"levelo://app?vid=69756b64-7bc4-41e8-9ea0-cb29e9bc612b","ios":"levelo://app?vid=69756b64-7bc4-41e8-9ea0-cb29e9bc612b"},"vehicle_type_id":"4","last_reported":1686078240,"current_range_meters":26800,"station_id":"","pricing_plan_id":"free"},{"bike_id":"b46d5d25-e67f-49fd-91e8-9c7802da8ecd","system_id":"levelo_inurba_marseille","lat":43.250023,"lon":5.38919,"is_reserved":false,"is_disabled":false,"rental_uris":{"android":"levelo://app?vid=b46d5d25-e67f-49fd-91e8-9c7802da8ecd","ios":"levelo://app?vid=b46d5d25-e67f-49fd-91e8-9c7802da8ecd"},"vehicle_type_id":"4","last_reported":1686078240,"current_range_meters":24800,"station_id":"ce4bhgp2rcd13ifvqfd0","pricing_plan_id":"free"},{"bike_id":"fef1d844-3b58-4a3f-9bdb-12d71f27a591","system_id":"levelo_inurba_marseille","lat":43.250023,"lon":5.38919,"is_reserved":false,"is_disabled":false,"rental_uris":{"android":"levelo://app?vid=fef1d844-3b58-4a3f-9bdb-12d71f27a591","ios":"levelo://app?vid=fef1d844-3b58-4a3f-9bdb-12d71f27a591"},"vehicle_type_id":"4","last_reported":1686078240,"current_range_meters":7600,"station_id":"ce4bhgp2rcd13ifvqfd0","pricing_plan_id":"free"},{"bike_id":"ad3fae7c-2fba-4a4d-87cb-11668f9e48ff","system_id":"levelo_inurba_marseille","lat":43.2479,"lon":5.374457,"is_reserved":false,"is_disabled":false,"rental_uris":{"android":"levelo://app?vid=ad3fae7c-2fba-4a4d-87cb-11668f9e48ff","ios":"levelo://app?vid=ad3fae7c-2fba-4a4d-87cb-11668f9e48ff"},"vehicle_type_id":"4","last_reported":1686078240,"current_range_meters":2000,"station_id":"ce4bhgh2rcd13ifvqfb0","pricing_plan_id":"free"},{"bike_id":"57ec1bb4-f4ee-4b21-a5af-00659fd11f8f","system_id":"levelo_inurba_marseille","lat":43.2479,"lon":5.374457,"is_reserved":false,"is_disabled":false,"rental_uris":{"android":"levelo://app?vid=57ec1bb4-f4ee-4b21-a5af-00659fd11f8f","ios":"levelo://app?vid=57ec1bb4-f4ee-4b21-a5af-00659fd11f8f"},"vehicle_type_id":"4","last_reported":1686078240,"current_range_meters":1600,"station_id":"ce4bhgh2rcd13ifvqfb0","pricing_plan_id":"free"},{"bike_id":"f3c9cc5e-9170-4d4a-a03f-90bdeb73c7b7","system_id":"levelo_inurba_marseille","lat":43.2479,"lon":5.374457,"is_reserved":false,"is_disabled":false,"rental_uris":{"android":"levelo://app?vid=f3c9cc5e-9170-4d4a-a03f-90bdeb73c7b7","ios":"levelo://app?vid=f3c9cc5e-9170-4d4a-a03f-90bdeb73c7b7"},"vehicle_type_id":"4","last_reported":1686078240,"current_range_meters":30000,"station_id":"ce4bhgh2rcd13ifvqfb0","pricing_plan_id":"free"},{"bike_id":"b77817da-71b9-45b2-861c-c023bdb302b2","system_id":"levelo_inurba_marseille","lat":43.2479,"lon":5.374457,"is_reserved":false,"is_disabled":false,"rental_uris":{"android":"levelo://app?vid=b77817da-71b9-45b2-861c-c023bdb302b2","ios":"levelo://app?vid=b77817da-71b9-45b2-861c-c023bdb302b2"},"vehicle_type_id":"4","last_reported":1686078240,"current_range_meters":10400,"station_id":"ce4bhgh2rcd13ifvqfb0","pricing_plan_id":"free"},{"bike_id":"09e9e1be-7304-4d18-a34a-7104ca0a8112","system_id":"levelo_inurba_marseille","lat":43.251199,"lon":5.403136,"is_reserved":false,"is_disabled":false,"rental_uris":{"android":"levelo://app?vid=09e9e1be-7304-4d18-a34a-7104ca0a8112","ios":"levelo://app?vid=09e9e1be-7304-4d18-a34a-7104ca0a8112"},"vehicle_type_id":"4","last_reported":1686078240,"current_range_meters":8800,"station_id":"","pricing_plan_id":"free"},{"bike_id":"548222e3-295a-4a23-99ae-09040e9ccc13","system_id":"levelo_inurba_marseille","lat":43.24693,"lon":5.382096,"is_reserved":false,"is_disabled":false,"rental_uris":{"android":"levelo://app?vid=548222e3-295a-4a23-99ae-09040e9ccc13","ios":"levelo://app?vid=548222e3-295a-4a23-99ae-09040e9ccc13"},"vehicle_type_id":"4","last_reported":1686078240,"current_range_meters":8400,"station_id":"ce4bhih2rcd13ifvqfr0","pricing_plan_id":"free"},{"bike_id":"434ff2be-c490-484c-b1ea-1a60ff53c303","system_id":"levelo_inurba_marseille","lat":43.25102,"lon":5.403214,"is_reserved":false,"is_disabled":false,"rental_uris":{"android":"levelo://app?vid=434ff2be-c490-484c-b1ea-1a60ff53c303","ios":"levelo://app?vid=434ff2be-c490-484c-b1ea-1a60ff53c303"},"vehicle_type_id":"4","last_reported":1686078240,"current_range_meters":16800,"station_id":"ce4bhlh2rcd13ifvqgig","pricing_plan_id":"free"},{"bike_id":"893f6265-34df-42f6-a10e-66c34576a3aa","system_id":"levelo_inurba_marseille","lat":43.24509,"lon":5.36711,"is_reserved":false,"is_disabled":false,"rental_uris":{"android":"levelo://app?vid=893f6265-34df-42f6-a10e-66c34576a3aa","ios":"levelo://app?vid=893f6265-34df-42f6-a10e-66c34576a3aa"},"vehicle_type_id":"4","last_reported":1686078240,"current_range_meters":23600,"station_id":"","pricing_plan_id":"free"},{"bike_id":"0651c71b-e64c-417e-b8ce-949ebc786360","system_id":"levelo_inurba_marseille","lat":43.246467,"lon":5.388984,"is_reserved":false,"is_disabled":false,"rental_uris":{"android":"levelo://app?vid=0651c71b-e64c-417e-b8ce-949ebc786360","ios":"levelo://app?vid=0651c71b-e64c-417e-b8ce-949ebc786360"},"vehicle_type_id":"4","last_reported":1686078240,"current_range_meters":20400,"station_id":"ce4bhg12rcd13ifvqf60","pricing_plan_id":"free"},{"bike_id":"4c40b01d-a739-4281-9f58-adc4eb9d048c","system_id":"levelo_inurba_marseille","lat":43.246461,"lon":5.389014,"is_reserved":false,"is_disabled":false,"rental_uris":{"android":"levelo://app?vid=4c40b01d-a739-4281-9f58-adc4eb9d048c","ios":"levelo://app?vid=4c40b01d-a739-4281-9f58-adc4eb9d048c"},"vehicle_type_id":"4","last_reported":1686078240,"current_range_meters":20400,"station_id":"ce4bhg12rcd13ifvqf60","pricing_plan_id":"free"},{"bike_id":"9537f6ea-811e-4929-92be-d2916ad7fdd6","system_id":"levelo_inurba_marseille","lat":43.24576,"lon":5.39068,"is_reserved":false,"is_disabled":false,"rental_uris":{"android":"levelo://app?vid=9537f6ea-811e-4929-92be-d2916ad7fdd6","ios":"levelo://app?vid=9537f6ea-811e-4929-92be-d2916ad7fdd6"},"vehicle_type_id":"4","last_reported":1686078240,"current_range_meters":4000,"station_id":"","pricing_plan_id":"free"},{"bike_id":"57e523df-651c-4254-a06d-c2d2696e6d39","system_id":"levelo_inurba_marseille","lat":43.24082,"lon":5.37752,"is_reserved":false,"is_disabled":false,"rental_uris":{"android":"levelo://app?vid=57e523df-651c-4254-a06d-c2d2696e6d39","ios":"levelo://app?vid=57e523df-651c-4254-a06d-c2d2696e6d39"},"vehicle_type_id":"4","last_reported":1686078240,"current_range_meters":4000,"station_id":"","pricing_plan_id":"free"},{"bike_id":"7a7550be-1ebb-441d-b024-a48d35530498","system_id":"levelo_inurba_marseille","lat":43.24079,"lon":5.37756,"is_reserved":false,"is_disabled":false,"rental_uris":{"android":"levelo://app?vid=7a7550be-1ebb-441d-b024-a48d35530498","ios":"levelo://app?vid=7a7550be-1ebb-441d-b024-a48d35530498"},"vehicle_type_id":"4","last_reported":1686078240,"current_range_meters":2000,"station_id":"","pricing_plan_id":"free"},{"bike_id":"b6995489-b6a5-4a25-ad92-5ab424b2f100","system_id":"levelo_inurba_marseille","lat":43.241782,"lon":5.397264,"is_reserved":false,"is_disabled":false,"rental_uris":{"android":"levelo://app?vid=b6995489-b6a5-4a25-ad92-5ab424b2f100","ios":"levelo://app?vid=b6995489-b6a5-4a25-ad92-5ab424b2f100"},"vehicle_type_id":"4","last_reported":1686078240,"current_range_meters":11600,"station_id":"ce4bhn12rcd13ifvqgpg","pricing_plan_id":"free"},{"bike_id":"8cae3d93-7e26-4500-9be4-9cf3a8ecbc76","system_id":"levelo_inurba_marseille","lat":43.23203,"lon":5.35541,"is_reserved":false,"is_disabled":false,"rental_uris":{"android":"levelo://app?vid=8cae3d93-7e26-4500-9be4-9cf3a8ecbc76","ios":"levelo://app?vid=8cae3d93-7e26-4500-9be4-9cf3a8ecbc76"},"vehicle_type_id":"4","last_reported":1686078240,"current_range_meters":27200,"station_id":"ce4bhu92rcd13ifvqi70","pricing_plan_id":"free"},{"bike_id":"0db5b38c-129e-4993-9ecd-3a3671ab1c86","system_id":"levelo_inurba_marseille","lat":43.231923,"lon":5.355545,"is_reserved":false,"is_disabled":false,"rental_uris":{"android":"levelo://app?vid=0db5b38c-129e-4993-9ecd-3a3671ab1c86","ios":"levelo://app?vid=0db5b38c-129e-4993-9ecd-3a3671ab1c86"},"vehicle_type_id":"4","last_reported":1686078240,"current_range_meters":28800,"station_id":"ce4bhu92rcd13ifvqi70","pricing_plan_id":"free"},{"bike_id":"f62e5ffc-0fcf-4e80-9760-ca2bfbab6e04","system_id":"levelo_inurba_marseille","lat":43.23194,"lon":5.35554,"is_reserved":false,"is_disabled":false,"rental_uris":{"android":"levelo://app?vid=f62e5ffc-0fcf-4e80-9760-ca2bfbab6e04","ios":"levelo://app?vid=f62e5ffc-0fcf-4e80-9760-ca2bfbab6e04"},"vehicle_type_id":"4","last_reported":1686078240,"current_range_meters":16000,"station_id":"ce4bhu92rcd13ifvqi70","pricing_plan_id":"free"},{"bike_id":"8c440dc5-e554-43df-8f09-c1313d529552","system_id":"levelo_inurba_marseille","lat":43.23191,"lon":5.35558,"is_reserved":false,"is_disabled":false,"rental_uris":{"android":"levelo://app?vid=8c440dc5-e554-43df-8f09-c1313d529552","ios":"levelo://app?vid=8c440dc5-e554-43df-8f09-c1313d529552"},"vehicle_type_id":"4","last_reported":1686078240,"current_range_meters":3200,"station_id":"ce4bhu92rcd13ifvqi70","pricing_plan_id":"free"},{"bike_id":"8f4e4544-dd41-408d-98f0-e5661691edf9","system_id":"levelo_inurba_marseille","lat":43.2319,"lon":5.35555,"is_reserved":false,"is_disabled":false,"rental_uris":{"android":"levelo://app?vid=8f4e4544-dd41-408d-98f0-e5661691edf9","ios":"levelo://app?vid=8f4e4544-dd41-408d-98f0-e5661691edf9"},"vehicle_type_id":"4","last_reported":1686078240,"current_range_meters":22800,"station_id":"ce4bhu92rcd13ifvqi70","pricing_plan_id":"free"},{"bike_id":"fdab7f46-a87f-4b1c-b97f-9d41a342b2ab","system_id":"levelo_inurba_marseille","lat":43.231793,"lon":5.400044,"is_reserved":false,"is_disabled":false,"rental_uris":{"android":"levelo://app?vid=fdab7f46-a87f-4b1c-b97f-9d41a342b2ab","ios":"levelo://app?vid=fdab7f46-a87f-4b1c-b97f-9d41a342b2ab"},"vehicle_type_id":"4","last_reported":1686078240,"current_range_meters":10000,"station_id":"ce4bhn12rcd13ifvqgqg","pricing_plan_id":"free"},{"bike_id":"312f349f-c2ec-4acc-a5f3-0438b43ff79d","system_id":"levelo_inurba_marseille","lat":43.231793,"lon":5.400044,"is_reserved":false,"is_disabled":false,"rental_uris":{"android":"levelo://app?vid=312f349f-c2ec-4acc-a5f3-0438b43ff79d","ios":"levelo://app?vid=312f349f-c2ec-4acc-a5f3-0438b43ff79d"},"vehicle_type_id":"4","last_reported":1686078240,"current_range_meters":800,"station_id":"ce4bhn12rcd13ifvqgqg","pricing_plan_id":"free"},{"bike_id":"2349544d-499a-4811-8bc5-d5a1a8edfc07","system_id":"levelo_inurba_marseille","lat":43.231794,"lon":5.400052,"is_reserved":false,"is_disabled":false,"rental_uris":{"android":"levelo://app?vid=2349544d-499a-4811-8bc5-d5a1a8edfc07","ios":"levelo://app?vid=2349544d-499a-4811-8bc5-d5a1a8edfc07"},"vehicle_type_id":"4","last_reported":1686078240,"current_range_meters":15200,"station_id":"ce4bhn12rcd13ifvqgqg","pricing_plan_id":"free"},{"bike_id":"b91d2a15-19a3-4cf5-a257-4433403f0a19","system_id":"levelo_inurba_marseille","lat":43.231793,"lon":5.400044,"is_reserved":false,"is_disabled":false,"rental_uris":{"android":"levelo://app?vid=b91d2a15-19a3-4cf5-a257-4433403f0a19","ios":"levelo://app?vid=b91d2a15-19a3-4cf5-a257-4433403f0a19"},"vehicle_type_id":"4","last_reported":1686078240,"current_range_meters":5600,"station_id":"ce4bhn12rcd13ifvqgqg","pricing_plan_id":"free"},{"bike_id":"027196da-6610-4c27-8936-f745c789ccaf","system_id":"levelo_inurba_marseille","lat":43.32457,"lon":5.49484,"is_reserved":false,"is_disabled":false,"rental_uris":{"android":"levelo://app?vid=027196da-6610-4c27-8936-f745c789ccaf","ios":"levelo://app?vid=027196da-6610-4c27-8936-f745c789ccaf"},"vehicle_type_id":"4","last_reported":1686078240,"current_range_meters":4800,"station_id":"","pricing_plan_id":"free"}]}}