{"last_updated":1692806897,"ttl":30,"version":"2.2","data":{"bikes":[{"bike_id":"f22ca441-4e4e-4660-b824-b2f46943e54d","system_id":"levelo_inurba_marseille","lat":43.312239,"lon":5.368562,"is_reserved":false,"is_disabled":false,"rental_uris":{"android":"levelo://app?vid=f22ca441-4e4e-4660-b824-b2f46943e54d","ios":"levelo://app?vid=f22ca441-4e4e-4660-b824-b2f46943e54d"},"vehicle_type_id":"4","last_reported":1692806900,"current_range_meters":31200,"station_id":"ce4bgl92rcd13ifvqbq0","pricing_plan_id":"free"},{"bike_id":"25c58526-0816-496f-a1c5-231f4c28cf80","system_id":"levelo_inurba_marseille","lat":43.231794,"lon":5.400052,"is_reserved":false,"is_disabled":false,"rental_uris":{"android":"levelo://app?vid=25c58526-0816-496f-a1c5-231f4c28cf80","ios":"levelo://app?vid=25c58526-0816-496f-a1c5-231f4c28cf80"},"vehicle_type_id":"4","last_reported":1692806900,"current_range_meters":5200,"station_id":"ce4bhn12rcd13ifvqgqg","pricing_plan_id":"free"},{"bike_id":"d2be997d-44d2-40a5-bb20-02aeaaf65fa5","system_id":"levelo_inurba_marseille","lat":43.314811,"lon":5.373103,"is_reserved":false,"is_disabled":false,"rental_uris":{"android":"levelo://app?vid=d2be997d-44d2-40a5-bb20-02aeaaf65fa5","ios":"levelo://app?vid=d2be997d-44d2-40a5-bb20-02aeaaf65fa5"},"vehicle_type_id":"4","last_reported":1692806900,"current_range_meters":31200,"station_id":"ce4bgt12rcd13ifvqcd0","pricing_plan_id":"free"},{"bike_id":"34baf2b2-7832-4f90-9491-53bb814ec4c5","system_id":"levelo_inurba_marseille","lat":43.309039,"lon":5.371797,"is_reserved":false,"is_disabled":false,"rental_uris":{"android":"levelo://app?vid=34baf2b2-7832-4f90-9491-53bb814ec4c5","ios":"levelo://app?vid=34baf2b2-7832-4f90-9491-53bb814ec4c5"},"vehicle_type_id":"4","last_reported":1692806900,"current_range_meters":9600,"station_id":"ce4bguh2rcd13ifvqckg","pricing_plan_id":"free"},{"bike_id":"9fbe6e18-d192-44c2-98b5-cafb68b41aa4","system_id":"levelo_inurba_marseille","lat":43.30532,"lon":5.36522,"is_reserved":false,"is_disabled":false,"rental_uris":{"android":"levelo://app?vid=9fbe6e18-d192-44c2-98b5-cafb68b41aa4","ios":"levelo://app?vid=9fbe6e18-d192-44c2-98b5-cafb68b41aa4"},"vehicle_type_id":"4","last_reported":1692806900,"current_range_meters":22000,"station_id":"ce4bgs12rcd13ifvqcag","pricing_plan_id":"free"},{"bike_id":"1a892100-7f3d-4fef-9efa-ac5d69e6b8a1","system_id":"levelo_inurba_marseille","lat":43.305989,"lon":5.37225,"is_reserved":false,"is_disabled":false,"rental_uris":{"android":"levelo://app?vid=1a892100-7f3d-4fef-9efa-ac5d69e6b8a1","ios":"levelo://app?vid=1a892100-7f3d-4fef-9efa-ac5d69e6b8a1"},"vehicle_type_id":"4","last_reported":1692806900,"current_range_meters":30800,"station_id":"ce4bgqh2rcd13ifvqc4g","pricing_plan_id":"free"},{"bike_id":"9edddd20-8bb8-417c-8c0f-4fa2eb9e1fde","system_id":"levelo_inurba_marseille","lat":43.305989,"lon":5.37225,"is_reserved":false,"is_disabled":false,"rental_uris":{"android":"levelo://app?vid=9edddd20-8bb8-417c-8c0f-4fa2eb9e1fde","ios":"levelo://app?vid=9edddd20-8bb8-417c-8c0f-4fa2eb9e1fde"},"vehicle_type_id":"4","last_reported":1692806900,"current_range_meters":22400,"station_id":"ce4bgqh2rcd13ifvqc4g","pricing_plan_id":"free"},{"bike_id":"75b9ad15-5b0b-4818-a01e-313a70018695","system_id":"levelo_inurba_marseille","lat":43.305989,"lon":5.37225,"is_reserved":false,"is_disabled":false,"rental_uris":{"android":"levelo://app?vid=75b9ad15-5b0b-4818-a01e-313a70018695","ios":"levelo://app?vid=75b9ad15-5b0b-4818-a01e-313a70018695"},"vehicle_type_id":"4","last_reported":1692806900,"current_range_meters":31200,"station_id":"ce4bgqh2rcd13ifvqc4g","pricing_plan_id":"free"},{"bike_id":"072509bb-ad6d-4cb8-ae10-1a5bdb9bf030","system_id":"levelo_inurba_marseille","lat":43.305989,"lon":5.37225,"is_reserved":false,"is_disabled":false,"rental_uris":{"android":"levelo://app?vid=072509bb-ad6d-4cb8-ae10-1a5bdb9bf030","ios":"levelo://app?vid=072509bb-ad6d-4cb8-ae10-1a5bdb9bf030"},"vehicle_type_id":"4","last_reported":1692806900,"current_range_meters":29200,"station_id":"ce4bgqh2rcd13ifvqc4g","pricing_plan_id":"free"},{"bike_id":"a049746f-d835-4b27-ada6-bac894bfb181","system_id":"levelo_inurba_marseille","lat":43.305989,"lon":5.37225,"is_reserved":false,"is_disabled":false,"rental_uris":{"android":"levelo://app?vid=a049746f-d835-4b27-ada6-bac894bfb181","ios":"levelo://app?vid=a049746f-d835-4b27-ada6-bac894bfb181"},"vehicle_type_id":"4","last_reported":1692806900,"current_range_meters":30800,"station_id":"ce4bgqh2rcd13ifvqc4g","pricing_plan_id":"free"},{"bike_id":"27e727ed-e4eb-4b15-9957-18ff2eae52c2","system_id":"levelo_inurba_marseille","lat":43.305989,"lon":5.37225,"is_reserved":false,"is_disabled":false,"rental_uris":{"android":"levelo://app?vid=27e727ed-e4eb-4b15-9957-18ff2eae52c2","ios":"levelo://app?vid=27e727ed-e4eb-4b15-9957-18ff2eae52c2"},"vehicle_type_id":"4","last_reported":1692806900,"current_range_meters":31200,"station_id":"ce4bgqh2rcd13ifvqc4g","pricing_plan_id":"free"},{"bike_id":"8e40787c-6c0c-4f8d-8ab7-72328a7c8429","system_id":"levelo_inurba_marseille","lat":43.305989,"lon":5.37225,"is_reserved":false,"is_disabled":false,"rental_uris":{"android":"levelo://app?vid=8e40787c-6c0c-4f8d-8ab7-72328a7c8429","ios":"levelo://app?vid=8e40787c-6c0c-4f8d-8ab7-72328a7c8429"},"vehicle_type_id":"4","last_reported":1692806900,"current_range_meters":29200,"station_id":"ce4bgqh2rcd13ifvqc4g","pricing_plan_id":"free"},{"bike_id":"f1c53faf-ea0f-4ea5-9091-8156e973b6d3","system_id":"levelo_inurba_marseille","lat":43.305989,"lon":5.37225,"is_reserved":false,"is_disabled":false,"rental_uris":{"android":"levelo://app?vid=f1c53faf-ea0f-4ea5-9091-8156e973b6d3","ios":"levelo://app?vid=f1c53faf-ea0f-4ea5-9091-8156e973b6d3"},"vehicle_type_id":"4","last_reported":1692806900,"current_range_meters":30800,"station_id":"ce4bgqh2rcd13ifvqc4g","pricing_plan_id":"free"},{"bike_id":"daa51adb-f98e-4382-87b5-33fd6d250c12","system_id":"levelo_inurba_marseille","lat":43.305989,"lon":5.37225,"is_reserved":false,"is_disabled":false,"rental_uris":{"android":"levelo://app?vid=daa51adb-f98e-4382-87b5-33fd6d250c12","ios":"levelo://app?vid=daa51adb-f98e-4382-87b5-33fd6d250c12"},"vehicle_type_id":"4","last_reported":1692806900,"current_range_meters":31200,"station_id":"ce4bgqh2rcd13ifvqc4g","pricing_plan_id":"free"},{"bike_id":"2d730759-8070-46d7-9246-4f09e722bf06","system_id":"levelo_inurba_marseille","lat":43.305989,"lon":5.37225,"is_reserved":false,"is_disabled":false,"rental_uris":{"android":"levelo://app?vid=2d730759-8070-46d7-9246-4f09e722bf06","ios":"levelo://app?vid=2d730759-8070-46d7-9246-4f09e722bf06"},"vehicle_type_id":"4","last_reported":1692806900,"current_range_meters":31200,"station_id":"ce4bgqh2rcd13ifvqc4g","pricing_plan_id":"free"},{"bike_id":"874e34a8-80c1-4d79-8e18-aa1bd38adad4","system_id":"levelo_inurba_marseille","lat":43.317065,"lon":5.377313,"is_reserved":false,"is_disabled":false,"rental_uris":{"android":"levelo://app?vid=874e34a8-80c1-4d79-8e18-aa1bd38adad4","ios":"levelo://app?vid=874e34a8-80c1-4d79-8e18-aa1bd38adad4"},"vehicle_type_id":"4","last_reported":1692806900,"current_range_meters":0,"station_id":"ce4bgth2rcd13ifvqch0","pricing_plan_id":"free"},{"bike_id":"a7df247f-f5e6-42dd-8230-56f4c30a4a1e","system_id":"levelo_inurba_marseille","lat":43.30222,"lon":5.36541,"is_reserved":false,"is_disabled":false,"rental_uris":{"android":"levelo://app?vid=a7df247f-f5e6-42dd-8230-56f4c30a4a1e","ios":"levelo://app?vid=a7df247f-f5e6-42dd-8230-56f4c30a4a1e"},"vehicle_type_id":"4","last_reported":1692806900,"current_range_meters":28000,"station_id":"","pricing_plan_id":"free"},{"bike_id":"237c1187-0b1e-4a6a-83f3-89fcb0ea5cea","system_id":"levelo_inurba_marseille","lat":43.307967,"lon":5.381529,"is_reserved":false,"is_disabled":false,"rental_uris":{"android":"levelo://app?vid=237c1187-0b1e-4a6a-83f3-89fcb0ea5cea","ios":"levelo://app?vid=237c1187-0b1e-4a6a-83f3-89fcb0ea5cea"},"vehicle_type_id":"4","last_reported":1692806900,"current_range_meters":0,"station_id":"ce4bgt92rcd13ifvqcg0","pricing_plan_id":"free"},{"bike_id":"150ddd03-8f33-4dfe-be4a-4f19431331c1","system_id":"levelo_inurba_marseille","lat":43.31118,"lon":5.38344,"is_reserved":false,"is_disabled":false,"rental_uris":{"android":"levelo://app?vid=150ddd03-8f33-4dfe-be4a-4f19431331c1","ios":"levelo://app?vid=150ddd03-8f33-4dfe-be4a-4f19431331c1"},"vehicle_type_id":"4","last_reported":1692806900,"current_range_meters":25200,"station_id":"","pricing_plan_id":"free"},{"bike_id":"d28a168e-3d7a-4014-9c3f-e3ef7055d58f","system_id":"levelo_inurba_marseille","lat":43.282744,"lon":5.350533,"is_reserved":false,"is_disabled":false,"rental_uris":{"android":"levelo://app?vid=d28a168e-3d7a-4014-9c3f-e3ef7055d58f","ios":"levelo://app?vid=d28a168e-3d7a-4014-9c3f-e3ef7055d58f"},"vehicle_type_id":"4","last_reported":1692806900,"current_range_meters":12000,"station_id":"ce4bhbp2rcd13ifvqerg","pricing_plan_id":"free"},{"bike_id":"5be708f1-9aa7-489a-b1f6-f4b2c5e6f6d5","system_id":"levelo_inurba_marseille","lat":43.31993,"lon":5.38161,"is_reserved":false,"is_disabled":false,"rental_uris":{"android":"levelo://app?vid=5be708f1-9aa7-489a-b1f6-f4b2c5e6f6d5","ios":"levelo://app?vid=5be708f1-9aa7-489a-b1f6-f4b2c5e6f6d5"},"vehicle_type_id":"4","last_reported":1692806900,"current_range_meters":22000,"station_id":"ce4bhr12rcd13ifvqhpg","pricing_plan_id":"free"},{"bike_id":"547efd34-645f-4524-be6c-5acf963c9744","system_id":"levelo_inurba_marseille","lat":43.313571,"lon":5.384829,"is_reserved":false,"is_disabled":false,"rental_uris":{"android":"levelo://app?vid=547efd34-645f-4524-be6c-5acf963c9744","ios":"levelo://app?vid=547efd34-645f-4524-be6c-5acf963c9744"},"vehicle_type_id":"4","last_reported":1692806900,"current_range_meters":29200,"station_id":"ce4bgt92rcd13ifvqcf0","pricing_plan_id":"free"},{"bike_id":"e0df5a76-8958-4c9d-a950-7617f47ade20","system_id":"levelo_inurba_marseille","lat":43.299724,"lon":5.371829,"is_reserved":false,"is_disabled":false,"rental_uris":{"android":"levelo://app?vid=e0df5a76-8958-4c9d-a950-7617f47ade20","ios":"levelo://app?vid=e0df5a76-8958-4c9d-a950-7617f47ade20"},"vehicle_type_id":"4","last_reported":1692806900,"current_range_meters":28400,"station_id":"ce4bgr92rcd13ifvqc7g","pricing_plan_id":"free"},{"bike_id":"2e36b885-02f8-4115-bf25-e743802aff95","system_id":"levelo_inurba_marseille","lat":43.29939,"lon":5.37158,"is_reserved":false,"is_disabled":false,"rental_uris":{"android":"levelo://app?vid=2e36b885-02f8-4115-bf25-e743802aff95","ios":"levelo://app?vid=2e36b885-02f8-4115-bf25-e743802aff95"},"vehicle_type_id":"4","last_reported":1692806900,"current_range_meters":6800,"station_id":"","pricing_plan_id":"free"},{"bike_id":"95dc9ecf-047e-4c3a-bb12-a5676cb36ad4","system_id":"levelo_inurba_marseille","lat":43.3216,"lon":5.38166,"is_reserved":false,"is_disabled":false,"rental_uris":{"android":"levelo://app?vid=95dc9ecf-047e-4c3a-bb12-a5676cb36ad4","ios":"levelo://app?vid=95dc9ecf-047e-4c3a-bb12-a5676cb36ad4"},"vehicle_type_id":"4","last_reported":1692806900,"current_range_meters":2800,"station_id":"","pricing_plan_id":"free"},{"bike_id":"bcc0932f-7ae2-47ba-a7d3-6b81bc0fa315","system_id":"levelo_inurba_marseille","lat":43.29852,"lon":5.3628,"is_reserved":false,"is_disabled":false,"rental_uris":{"android":"levelo://app?vid=bcc0932f-7ae2-47ba-a7d3-6b81bc0fa315","ios":"levelo://app?vid=bcc0932f-7ae2-47ba-a7d3-6b81bc0fa315"},"vehicle_type_id":"4","last_reported":1692806900,"current_range_meters":20800,"station_id":"ce4bgpp2rcd13ifvqc3g","pricing_plan_id":"free"},{"bike_id":"2f9e2def-2173-4eb4-a460-9a385f59debe","system_id":"levelo_inurba_marseille","lat":43.299243,"lon":5.374807,"is_reserved":false,"is_disabled":false,"rental_uris":{"android":"levelo://app?vid=2f9e2def-2173-4eb4-a460-9a385f59debe","ios":"levelo://app?vid=2f9e2def-2173-4eb4-a460-9a385f59debe"},"vehicle_type_id":"4","last_reported":1692806900,"current_range_meters":31200,"station_id":"ce4bgjh2rcd13ifvqbg0","pricing_plan_id":"free"},{"bike_id":"35eec3a1-aa54-4990-8eb4-78e6c0dd24d0","system_id":"levelo_inurba_marseille","lat":43.299243,"lon":5.374807,"is_reserved":false,"is_disabled":false,"rental_uris":{"android":"levelo://app?vid=35eec3a1-aa54-4990-8eb4-78e6c0dd24d0","ios":"levelo://app?vid=35eec3a1-aa54-4990-8eb4-78e6c0dd24d0"},"vehicle_type_id":"4","last_reported":1692806900,"current_range_meters":20400,"station_id":"ce4bgjh2rcd13ifvqbg0","pricing_plan_id":"free"},{"bike_id":"b885f463-e8c5-42cc-902f-7152167ce1c7","system_id":"levelo_inurba_marseille","lat":43.299243,"lon":5.37481,"is_reserved":false,"is_disabled":false,"rental_uris":{"android":"levelo://app?vid=b885f463-e8c5-42cc-902f-7152167ce1c7","ios":"levelo://app?vid=b885f463-e8c5-42cc-902f-7152167ce1c7"},"vehicle_type_id":"4","last_reported":1692806900,"current_range_meters":31200,"station_id":"ce4bgjh2rcd13ifvqbg0","pricing_plan_id":"free"},{"bike_id":"fa9a0c46-5f70-44fa-a97a-399caacc053f","system_id":"levelo_inurba_marseille","lat":43.311722,"lon":5.387247,"is_reserved":false,"is_disabled":false,"rental_uris":{"android":"levelo://app?vid=fa9a0c46-5f70-44fa-a97a-399caacc053f","ios":"levelo://app?vid=fa9a0c46-5f70-44fa-a97a-399caacc053f"},"vehicle_type_id":"4","last_reported":1692806900,"current_range_meters":21200,"station_id":"ce4bgv12rcd13ifvqcp0","pricing_plan_id":"free"},{"bike_id":"9bcdcc7c-9f6b-4ee8-8c5b-d572edb74f72","system_id":"levelo_inurba_marseille","lat":43.311722,"lon":5.387247,"is_reserved":false,"is_disabled":false,"rental_uris":{"android":"levelo://app?vid=9bcdcc7c-9f6b-4ee8-8c5b-d572edb74f72","ios":"levelo://app?vid=9bcdcc7c-9f6b-4ee8-8c5b-d572edb74f72"},"vehicle_type_id":"4","last_reported":1692806900,"current_range_meters":4800,"station_id":"ce4bgv12rcd13ifvqcp0","pricing_plan_id":"free"},{"bike_id":"78c213ab-8114-4bb3-a4de-2c71e84047b8","system_id":"levelo_inurba_marseille","lat":43.297794,"lon":5.370888,"is_reserved":false,"is_disabled":false,"rental_uris":{"android":"levelo://app?vid=78c213ab-8114-4bb3-a4de-2c71e84047b8","ios":"levelo://app?vid=78c213ab-8114-4bb3-a4de-2c71e84047b8"},"vehicle_type_id":"4","last_reported":1692806900,"current_range_meters":8800,"station_id":"ce4bgop2rcd13ifvqc1g","pricing_plan_id":"free"},{"bike_id":"7c14a9ce-0e8c-41a7-8b8e-5fd17185ca64","system_id":"levelo_inurba_marseille","lat":43.328371,"lon":5.366909,"is_reserved":false,"is_disabled":false,"rental_uris":{"android":"levelo://app?vid=7c14a9ce-0e8c-41a7-8b8e-5fd17185ca64","ios":"levelo://app?vid=7c14a9ce-0e8c-41a7-8b8e-5fd17185ca64"},"vehicle_type_id":"4","last_reported":1692806900,"current_range_meters":24400,"station_id":"ce4bhs92rcd13ifvqi0g","pricing_plan_id":"free"},{"bike_id":"30b50c15-c563-4e17-a5d3-c3aadc823af3","system_id":"levelo_inurba_marseille","lat":43.328371,"lon":5.366909,"is_reserved":false,"is_disabled":false,"rental_uris":{"android":"levelo://app?vid=30b50c15-c563-4e17-a5d3-c3aadc823af3","ios":"levelo://app?vid=30b50c15-c563-4e17-a5d3-c3aadc823af3"},"vehicle_type_id":"4","last_reported":1692806900,"current_range_meters":30000,"station_id":"ce4bhs92rcd13ifvqi0g","pricing_plan_id":"free"},{"bike_id":"9e60c384-80d1-4d92-9651-b81e4ea4629b","system_id":"levelo_inurba_marseille","lat":43.32827,"lon":5.36673,"is_reserved":false,"is_disabled":false,"rental_uris":{"android":"levelo://app?vid=9e60c384-80d1-4d92-9651-b81e4ea4629b","ios":"levelo://app?vid=9e60c384-80d1-4d92-9651-b81e4ea4629b"},"vehicle_type_id":"4","last_reported":1692806900,"current_range_meters":22000,"station_id":"ce4bhs92rcd13ifvqi0g","pricing_plan_id":"free"},{"bike_id":"dd789220-e7b5-42c1-b9dc-dc4243148021","system_id":"levelo_inurba_marseille","lat":43.29717,"lon":5.36609,"is_reserved":false,"is_disabled":false,"rental_uris":{"android":"levelo://app?vid=dd789220-e7b5-42c1-b9dc-dc4243148021","ios":"levelo://app?vid=dd789220-e7b5-42c1-b9dc-dc4243148021"},"vehicle_type_id":"4","last_reported":1692806900,"current_range_meters":31200,"station_id":"ce4bgn12rcd13ifvqbt0","pricing_plan_id":"free"},{"bike_id":"435a3706-3dbd-4c33-942a-739ec967eecf","system_id":"levelo_inurba_marseille","lat":43.32833,"lon":5.36679,"is_reserved":false,"is_disabled":false,"rental_uris":{"android":"levelo://app?vid=435a3706-3dbd-4c33-942a-739ec967eecf","ios":"levelo://app?vid=435a3706-3dbd-4c33-942a-739ec967eecf"},"vehicle_type_id":"4","last_reported":1692806900,"current_range_meters":4000,"station_id":"ce4bhs92rcd13ifvqi0g","pricing_plan_id":"free"},{"bike_id":"144dabd3-5e43-4f2e-9b81-476ac44b4d0d","system_id":"levelo_inurba_marseille","lat":43.297163,"lon":5.365866,"is_reserved":false,"is_disabled":false,"rental_uris":{"android":"levelo://app?vid=144dabd3-5e43-4f2e-9b81-476ac44b4d0d","ios":"levelo://app?vid=144dabd3-5e43-4f2e-9b81-476ac44b4d0d"},"vehicle_type_id":"4","last_reported":1692806900,"current_range_meters":18400,"station_id":"ce4bgn12rcd13ifvqbt0","pricing_plan_id":"free"},{"bike_id":"6c475ac0-2630-479c-8b13-c342130a9151","system_id":"levelo_inurba_marseille","lat":43.297163,"lon":5.365866,"is_reserved":false,"is_disabled":false,"rental_uris":{"android":"levelo://app?vid=6c475ac0-2630-479c-8b13-c342130a9151","ios":"levelo://app?vid=6c475ac0-2630-479c-8b13-c342130a9151"},"vehicle_type_id":"4","last_reported":1692806900,"current_range_meters":2800,"station_id":"ce4bgn12rcd13ifvqbt0","pricing_plan_id":"free"},{"bike_id":"24370613-cef2-4aa7-98f2-149b6fc4d988","system_id":"levelo_inurba_marseille","lat":43.296131,"lon":5.370791,"is_reserved":false,"is_disabled":false,"rental_uris":{"android":"levelo://app?vid=24370613-cef2-4aa7-98f2-149b6fc4d988","ios":"levelo://app?vid=24370613-cef2-4aa7-98f2-149b6fc4d988"},"vehicle_type_id":"4","last_reported":1692806900,"current_range_meters":22000,"station_id":"ce4bgnh2rcd13ifvqc0g","pricing_plan_id":"free"},{"bike_id":"d3139180-8ba9-4c91-b6e4-8baae3c22113","system_id":"levelo_inurba_marseille","lat":43.29625,"lon":5.37152,"is_reserved":false,"is_disabled":false,"rental_uris":{"android":"levelo://app?vid=d3139180-8ba9-4c91-b6e4-8baae3c22113","ios":"levelo://app?vid=d3139180-8ba9-4c91-b6e4-8baae3c22113"},"vehicle_type_id":"4","last_reported":1692806900,"current_range_meters":26400,"station_id":"","pricing_plan_id":"free"},{"bike_id":"bb155e93-116e-494a-9911-2df351c7dae8","system_id":"levelo_inurba_marseille","lat":43.29625,"lon":5.37196,"is_reserved":false,"is_disabled":false,"rental_uris":{"android":"levelo://app?vid=bb155e93-116e-494a-9911-2df351c7dae8","ios":"levelo://app?vid=bb155e93-116e-494a-9911-2df351c7dae8"},"vehicle_type_id":"4","last_reported":1692806900,"current_range_meters":24400,"station_id":"","pricing_plan_id":"free"},{"bike_id":"57fadba7-ebe1-402b-bcbb-8264bad86cb7","system_id":"levelo_inurba_marseille","lat":43.29584,"lon":5.36742,"is_reserved":false,"is_disabled":false,"rental_uris":{"android":"levelo://app?vid=57fadba7-ebe1-402b-bcbb-8264bad86cb7","ios":"levelo://app?vid=57fadba7-ebe1-402b-bcbb-8264bad86cb7"},"vehicle_type_id":"4","last_reported":1692806900,"current_range_meters":31200,"station_id":"ce4bgph2rcd13ifvqc2g","pricing_plan_id":"free"},{"bike_id":"87effd3e-c6cc-4cfb-86d1-fb1466e3475c","system_id":"levelo_inurba_marseille","lat":43.2958,"lon":5.36736,"is_reserved":false,"is_disabled":false,"rental_uris":{"android":"levelo://app?vid=87effd3e-c6cc-4cfb-86d1-fb1466e3475c","ios":"levelo://app?vid=87effd3e-c6cc-4cfb-86d1-fb1466e3475c"},"vehicle_type_id":"4","last_reported":1692806900,"current_range_meters":13600,"station_id":"ce4bgph2rcd13ifvqc2g","pricing_plan_id":"free"},{"bike_id":"2c93ce6f-c5e1-4ec9-9941-ebb7469bb8f2","system_id":"levelo_inurba_marseille","lat":43.317557,"lon":5.390173,"is_reserved":false,"is_disabled":false,"rental_uris":{"android":"levelo://app?vid=2c93ce6f-c5e1-4ec9-9941-ebb7469bb8f2","ios":"levelo://app?vid=2c93ce6f-c5e1-4ec9-9941-ebb7469bb8f2"},"vehicle_type_id":"4","last_reported":1692806900,"current_range_meters":31200,"station_id":"ce4bhqp2rcd13ifvqhng","pricing_plan_id":"free"},{"bike_id":"b83385f9-8517-457e-983a-34f67230a503","system_id":"levelo_inurba_marseille","lat":43.30446,"lon":5.38888,"is_reserved":false,"is_disabled":false,"rental_uris":{"android":"levelo://app?vid=b83385f9-8517-457e-983a-34f67230a503","ios":"levelo://app?vid=b83385f9-8517-457e-983a-34f67230a503"},"vehicle_type_id":"4","last_reported":1692806900,"current_range_meters":19600,"station_id":"ce4bgk12rcd13ifvqbi0","pricing_plan_id":"free"},{"bike_id":"a4df99ce-0488-49dd-a888-94686f562e88","system_id":"levelo_inurba_marseille","lat":43.295748,"lon":5.37522,"is_reserved":false,"is_disabled":false,"rental_uris":{"android":"levelo://app?vid=a4df99ce-0488-49dd-a888-94686f562e88","ios":"levelo://app?vid=a4df99ce-0488-49dd-a888-94686f562e88"},"vehicle_type_id":"4","last_reported":1692806900,"current_range_meters":27600,"station_id":"ce4bgh92rcd13ifvqb50","pricing_plan_id":"free"},{"bike_id":"59c7bc3b-cabe-4f48-9889-7686e4b80221","system_id":"levelo_inurba_marseille","lat":43.296167,"lon":5.37727,"is_reserved":false,"is_disabled":false,"rental_uris":{"android":"levelo://app?vid=59c7bc3b-cabe-4f48-9889-7686e4b80221","ios":"levelo://app?vid=59c7bc3b-cabe-4f48-9889-7686e4b80221"},"vehicle_type_id":"4","last_reported":1692806900,"current_range_meters":0,"station_id":"","pricing_plan_id":"free"},{"bike_id":"952a19e7-6602-41c3-942f-79cfb514366f","system_id":"levelo_inurba_marseille","lat":43.2976,"lon":5.38095,"is_reserved":false,"is_disabled":false,"rental_uris":{"android":"levelo://app?vid=952a19e7-6602-41c3-942f-79cfb514366f","ios":"levelo://app?vid=952a19e7-6602-41c3-942f-79cfb514366f"},"vehicle_type_id":"4","last_reported":1692806900,"current_range_meters":28000,"station_id":"ce4bgip2rcd13ifvqbb0","pricing_plan_id":"free"},{"bike_id":"300e6135-48db-42bd-a206-d52716eb58ac","system_id":"levelo_inurba_marseille","lat":43.299729,"lon":5.384849,"is_reserved":false,"is_disabled":false,"rental_uris":{"android":"levelo://app?vid=300e6135-48db-42bd-a206-d52716eb58ac","ios":"levelo://app?vid=300e6135-48db-42bd-a206-d52716eb58ac"},"vehicle_type_id":"4","last_reported":1692806900,"current_range_meters":30000,"station_id":"ce4bgj92rcd13ifvqbd0","pricing_plan_id":"free"},{"bike_id":"329b52da-6179-4119-8885-76b50cbdc2a9","system_id":"levelo_inurba_marseille","lat":43.299724,"lon":5.384848,"is_reserved":false,"is_disabled":false,"rental_uris":{"android":"levelo://app?vid=329b52da-6179-4119-8885-76b50cbdc2a9","ios":"levelo://app?vid=329b52da-6179-4119-8885-76b50cbdc2a9"},"vehicle_type_id":"4","last_reported":1692806900,"current_range_meters":15200,"station_id":"ce4bgj92rcd13ifvqbd0","pricing_plan_id":"free"},{"bike_id":"a9f730c7-301f-4d9c-8cbc-3cd966f4a7b2","system_id":"levelo_inurba_marseille","lat":43.301252,"lon":5.387877,"is_reserved":false,"is_disabled":false,"rental_uris":{"android":"levelo://app?vid=a9f730c7-301f-4d9c-8cbc-3cd966f4a7b2","ios":"levelo://app?vid=a9f730c7-301f-4d9c-8cbc-3cd966f4a7b2"},"vehicle_type_id":"4","last_reported":1692806900,"current_range_meters":26400,"station_id":"","pricing_plan_id":"free"},{"bike_id":"00883cd9-a56a-4720-bb55-237d0136a4a1","system_id":"levelo_inurba_marseille","lat":43.32367,"lon":5.388836,"is_reserved":false,"is_disabled":false,"rental_uris":{"android":"levelo://app?vid=00883cd9-a56a-4720-bb55-237d0136a4a1","ios":"levelo://app?vid=00883cd9-a56a-4720-bb55-237d0136a4a1"},"vehicle_type_id":"4","last_reported":1692806900,"current_range_meters":30000,"station_id":"ce4bhqp2rcd13ifvqhog","pricing_plan_id":"free"},{"bike_id":"38fef587-7cc5-4800-b069-87b8f296a10a","system_id":"levelo_inurba_marseille","lat":43.293009,"lon":5.374584,"is_reserved":false,"is_disabled":false,"rental_uris":{"android":"levelo://app?vid=38fef587-7cc5-4800-b069-87b8f296a10a","ios":"levelo://app?vid=38fef587-7cc5-4800-b069-87b8f296a10a"},"vehicle_type_id":"4","last_reported":1692806900,"current_range_meters":31200,"station_id":"ce4bgi12rcd13ifvqb70","pricing_plan_id":"free"},{"bike_id":"0724f352-a262-45b7-9b71-9a09ff17d945","system_id":"levelo_inurba_marseille","lat":43.303002,"lon":5.392142,"is_reserved":false,"is_disabled":false,"rental_uris":{"android":"levelo://app?vid=0724f352-a262-45b7-9b71-9a09ff17d945","ios":"levelo://app?vid=0724f352-a262-45b7-9b71-9a09ff17d945"},"vehicle_type_id":"4","last_reported":1692806900,"current_range_meters":26400,"station_id":"ce4bgkh2rcd13ifvqbk0","pricing_plan_id":"free"},{"bike_id":"59d4a7cc-c4d8-47e1-a63f-2e26b5d209c3","system_id":"levelo_inurba_marseille","lat":43.2936,"lon":5.37835,"is_reserved":false,"is_disabled":false,"rental_uris":{"android":"levelo://app?vid=59d4a7cc-c4d8-47e1-a63f-2e26b5d209c3","ios":"levelo://app?vid=59d4a7cc-c4d8-47e1-a63f-2e26b5d209c3"},"vehicle_type_id":"4","last_reported":1692806900,"current_range_meters":31200,"station_id":"ce4bgjh2rcd13ifvqbf0","pricing_plan_id":"free"},{"bike_id":"e52a6e65-cb9d-48bb-9325-4e05a5e91385","system_id":"levelo_inurba_marseille","lat":43.29222,"lon":5.36074,"is_reserved":false,"is_disabled":false,"rental_uris":{"android":"levelo://app?vid=e52a6e65-cb9d-48bb-9325-4e05a5e91385","ios":"levelo://app?vid=e52a6e65-cb9d-48bb-9325-4e05a5e91385"},"vehicle_type_id":"4","last_reported":1692806900,"current_range_meters":0,"station_id":"","pricing_plan_id":"free"},{"bike_id":"edf7b1f3-f2df-415d-b4e8-8edcd8299df4","system_id":"levelo_inurba_marseille","lat":43.299,"lon":5.38892,"is_reserved":false,"is_disabled":false,"rental_uris":{"android":"levelo://app?vid=edf7b1f3-f2df-415d-b4e8-8edcd8299df4","ios":"levelo://app?vid=edf7b1f3-f2df-415d-b4e8-8edcd8299df4"},"vehicle_type_id":"4","last_reported":1692806900,"current_range_meters":30000,"station_id":"ce4bh392rcd13ifvqdl0","pricing_plan_id":"free"},{"bike_id":"ef89e292-681b-4c62-83a9-e199ab0a4919","system_id":"levelo_inurba_marseille","lat":43.29885,"lon":5.3891,"is_reserved":false,"is_disabled":false,"rental_uris":{"android":"levelo://app?vid=ef89e292-681b-4c62-83a9-e199ab0a4919","ios":"levelo://app?vid=ef89e292-681b-4c62-83a9-e199ab0a4919"},"vehicle_type_id":"4","last_reported":1692806900,"current_range_meters":6000,"station_id":"ce4bh392rcd13ifvqdl0","pricing_plan_id":"free"},{"bike_id":"1f2ac847-e17d-414f-a408-fa0c3b3e4f06","system_id":"levelo_inurba_marseille","lat":43.291994,"lon":5.357886,"is_reserved":false,"is_disabled":false,"rental_uris":{"android":"levelo://app?vid=1f2ac847-e17d-414f-a408-fa0c3b3e4f06","ios":"levelo://app?vid=1f2ac847-e17d-414f-a408-fa0c3b3e4f06"},"vehicle_type_id":"4","last_reported":1692806900,"current_range_meters":10800,"station_id":"ce4bhb12rcd13ifvqel0","pricing_plan_id":"free"},{"bike_id":"37563471-bbff-4739-bbb3-43c2f192d9c7","system_id":"levelo_inurba_marseille","lat":43.29529,"lon":5.385581,"is_reserved":false,"is_disabled":false,"rental_uris":{"android":"levelo://app?vid=37563471-bbff-4739-bbb3-43c2f192d9c7","ios":"levelo://app?vid=37563471-bbff-4739-bbb3-43c2f192d9c7"},"vehicle_type_id":"4","last_reported":1692806900,"current_range_meters":0,"station_id":"ce4bgih2rcd13ifvqba0","pricing_plan_id":"free"},{"bike_id":"e25387ad-ac77-43f5-b712-077b75b79443","system_id":"levelo_inurba_marseille","lat":43.2906,"lon":5.37158,"is_reserved":false,"is_disabled":false,"rental_uris":{"android":"levelo://app?vid=e25387ad-ac77-43f5-b712-077b75b79443","ios":"levelo://app?vid=e25387ad-ac77-43f5-b712-077b75b79443"},"vehicle_type_id":"4","last_reported":1692806900,"current_range_meters":11200,"station_id":"ce4bh5p2rcd13ifvqe4g","pricing_plan_id":"free"},{"bike_id":"39b5b5cf-86ef-48ea-a176-58e554756417","system_id":"levelo_inurba_marseille","lat":43.302008,"lon":5.394694,"is_reserved":false,"is_disabled":false,"rental_uris":{"android":"levelo://app?vid=39b5b5cf-86ef-48ea-a176-58e554756417","ios":"levelo://app?vid=39b5b5cf-86ef-48ea-a176-58e554756417"},"vehicle_type_id":"4","last_reported":1692806900,"current_range_meters":31200,"station_id":"ce4bh0p2rcd13ifvqd70","pricing_plan_id":"free"},{"bike_id":"8242bb46-fc48-48ce-ac30-1a3ee571ba78","system_id":"levelo_inurba_marseille","lat":43.29092,"lon":5.35617,"is_reserved":false,"is_disabled":false,"rental_uris":{"android":"levelo://app?vid=8242bb46-fc48-48ce-ac30-1a3ee571ba78","ios":"levelo://app?vid=8242bb46-fc48-48ce-ac30-1a3ee571ba78"},"vehicle_type_id":"4","last_reported":1692806900,"current_range_meters":13600,"station_id":"","pricing_plan_id":"free"},{"bike_id":"c5b64c5f-9f66-4fdd-95b0-8dbce08a3e5e","system_id":"levelo_inurba_marseille","lat":43.289184,"lon":5.366408,"is_reserved":false,"is_disabled":false,"rental_uris":{"android":"levelo://app?vid=c5b64c5f-9f66-4fdd-95b0-8dbce08a3e5e","ios":"levelo://app?vid=c5b64c5f-9f66-4fdd-95b0-8dbce08a3e5e"},"vehicle_type_id":"4","last_reported":1692806900,"current_range_meters":12800,"station_id":"ce4bhap2rcd13ifvqek0","pricing_plan_id":"free"},{"bike_id":"a90e90e0-5cdc-4263-bed5-21fbae03d7f6","system_id":"levelo_inurba_marseille","lat":43.289184,"lon":5.366408,"is_reserved":false,"is_disabled":false,"rental_uris":{"android":"levelo://app?vid=a90e90e0-5cdc-4263-bed5-21fbae03d7f6","ios":"levelo://app?vid=a90e90e0-5cdc-4263-bed5-21fbae03d7f6"},"vehicle_type_id":"4","last_reported":1692806900,"current_range_meters":11600,"station_id":"ce4bhap2rcd13ifvqek0","pricing_plan_id":"free"},{"bike_id":"dd76b683-89e0-4564-849e-7cbd017c49f6","system_id":"levelo_inurba_marseille","lat":43.304274,"lon":5.397513,"is_reserved":false,"is_disabled":false,"rental_uris":{"android":"levelo://app?vid=dd76b683-89e0-4564-849e-7cbd017c49f6","ios":"levelo://app?vid=dd76b683-89e0-4564-849e-7cbd017c49f6"},"vehicle_type_id":"4","last_reported":1692806900,"current_range_meters":2400,"station_id":"ce4bh092rcd13ifvqd20","pricing_plan_id":"free"},{"bike_id":"4059d0bf-8a0c-4d61-8928-aad2e57dc6b6","system_id":"levelo_inurba_marseille","lat":43.304296,"lon":5.397513,"is_reserved":false,"is_disabled":false,"rental_uris":{"android":"levelo://app?vid=4059d0bf-8a0c-4d61-8928-aad2e57dc6b6","ios":"levelo://app?vid=4059d0bf-8a0c-4d61-8928-aad2e57dc6b6"},"vehicle_type_id":"4","last_reported":1692806900,"current_range_meters":20800,"station_id":"ce4bh092rcd13ifvqd20","pricing_plan_id":"free"},{"bike_id":"cde08171-d87e-45a5-a8d0-c519ab926fc6","system_id":"levelo_inurba_marseille","lat":43.33026,"lon":5.38923,"is_reserved":false,"is_disabled":false,"rental_uris":{"android":"levelo://app?vid=cde08171-d87e-45a5-a8d0-c519ab926fc6","ios":"levelo://app?vid=cde08171-d87e-45a5-a8d0-c519ab926fc6"},"vehicle_type_id":"4","last_reported":1692806900,"current_range_meters":1600,"station_id":"ce4bhr92rcd13ifvqhrg","pricing_plan_id":"free"},{"bike_id":"41d75ac6-143b-4c72-b479-3e8777c38077","system_id":"levelo_inurba_marseille","lat":43.33041,"lon":5.38915,"is_reserved":false,"is_disabled":false,"rental_uris":{"android":"levelo://app?vid=41d75ac6-143b-4c72-b479-3e8777c38077","ios":"levelo://app?vid=41d75ac6-143b-4c72-b479-3e8777c38077"},"vehicle_type_id":"4","last_reported":1692806900,"current_range_meters":10800,"station_id":"ce4bhr92rcd13ifvqhrg","pricing_plan_id":"free"},{"bike_id":"416832a5-c1d4-423b-90c0-e0470dfb3aa6","system_id":"levelo_inurba_marseille","lat":43.3304,"lon":5.38918,"is_reserved":false,"is_disabled":false,"rental_uris":{"android":"levelo://app?vid=416832a5-c1d4-423b-90c0-e0470dfb3aa6","ios":"levelo://app?vid=416832a5-c1d4-423b-90c0-e0470dfb3aa6"},"vehicle_type_id":"4","last_reported":1692806900,"current_range_meters":20400,"station_id":"ce4bhr92rcd13ifvqhrg","pricing_plan_id":"free"},{"bike_id":"7691d65d-d321-467f-86e8-b26ac6013c5b","system_id":"levelo_inurba_marseille","lat":43.33044,"lon":5.38916,"is_reserved":false,"is_disabled":false,"rental_uris":{"android":"levelo://app?vid=7691d65d-d321-467f-86e8-b26ac6013c5b","ios":"levelo://app?vid=7691d65d-d321-467f-86e8-b26ac6013c5b"},"vehicle_type_id":"4","last_reported":1692806900,"current_range_meters":24000,"station_id":"ce4bhr92rcd13ifvqhrg","pricing_plan_id":"free"},{"bike_id":"fb0db41e-62a1-448b-ab29-9e8df205c26d","system_id":"levelo_inurba_marseille","lat":43.33784,"lon":5.37406,"is_reserved":false,"is_disabled":false,"rental_uris":{"android":"levelo://app?vid=fb0db41e-62a1-448b-ab29-9e8df205c26d","ios":"levelo://app?vid=fb0db41e-62a1-448b-ab29-9e8df205c26d"},"vehicle_type_id":"4","last_reported":1692806900,"current_range_meters":26000,"station_id":"","pricing_plan_id":"free"},{"bike_id":"4d9e3ac8-e43a-42af-9d4c-7e59ae4d6ce9","system_id":"levelo_inurba_marseille","lat":43.301117,"lon":5.398795,"is_reserved":false,"is_disabled":false,"rental_uris":{"android":"levelo://app?vid=4d9e3ac8-e43a-42af-9d4c-7e59ae4d6ce9","ios":"levelo://app?vid=4d9e3ac8-e43a-42af-9d4c-7e59ae4d6ce9"},"vehicle_type_id":"4","last_reported":1692806900,"current_range_meters":18000,"station_id":"ce4bh0h2rcd13ifvqd40","pricing_plan_id":"free"},{"bike_id":"0c0a9901-54ff-4e9b-86bc-e3d75cc38099","system_id":"levelo_inurba_marseille","lat":43.304188,"lon":5.412904,"is_reserved":false,"is_disabled":false,"rental_uris":{"android":"levelo://app?vid=0c0a9901-54ff-4e9b-86bc-e3d75cc38099","ios":"levelo://app?vid=0c0a9901-54ff-4e9b-86bc-e3d75cc38099"},"vehicle_type_id":"4","last_reported":1692806900,"current_range_meters":13600,"station_id":"ce4bhop2rcd13ifvqh8g","pricing_plan_id":"free"},{"bike_id":"58764734-0773-4bf3-b3e0-6b9e0d06461e","system_id":"levelo_inurba_marseille","lat":43.2867,"lon":5.36343,"is_reserved":false,"is_disabled":false,"rental_uris":{"android":"levelo://app?vid=58764734-0773-4bf3-b3e0-6b9e0d06461e","ios":"levelo://app?vid=58764734-0773-4bf3-b3e0-6b9e0d06461e"},"vehicle_type_id":"4","last_reported":1692806900,"current_range_meters":6000,"station_id":"ce4bhah2rcd13ifvqej0","pricing_plan_id":"free"},{"bike_id":"75199276-b705-4ad7-b6a9-49aeaa84628a","system_id":"levelo_inurba_marseille","lat":43.286591,"lon":5.363346,"is_reserved":false,"is_disabled":false,"rental_uris":{"android":"levelo://app?vid=75199276-b705-4ad7-b6a9-49aeaa84628a","ios":"levelo://app?vid=75199276-b705-4ad7-b6a9-49aeaa84628a"},"vehicle_type_id":"4","last_reported":1692806900,"current_range_meters":30000,"station_id":"ce4bhah2rcd13ifvqej0","pricing_plan_id":"free"},{"bike_id":"11c23f52-7244-4c49-ae7b-39b3c5e7ac06","system_id":"levelo_inurba_marseille","lat":43.290345,"lon":5.38646,"is_reserved":false,"is_disabled":false,"rental_uris":{"android":"levelo://app?vid=11c23f52-7244-4c49-ae7b-39b3c5e7ac06","ios":"levelo://app?vid=11c23f52-7244-4c49-ae7b-39b3c5e7ac06"},"vehicle_type_id":"4","last_reported":1692806900,"current_range_meters":30400,"station_id":"ce4bh4p2rcd13ifvqe0g","pricing_plan_id":"free"},{"bike_id":"e1a2db8e-608f-4401-bbb5-39144aad0c55","system_id":"levelo_inurba_marseille","lat":43.290336,"lon":5.386425,"is_reserved":false,"is_disabled":false,"rental_uris":{"android":"levelo://app?vid=e1a2db8e-608f-4401-bbb5-39144aad0c55","ios":"levelo://app?vid=e1a2db8e-608f-4401-bbb5-39144aad0c55"},"vehicle_type_id":"4","last_reported":1692806900,"current_range_meters":15200,"station_id":"ce4bh4p2rcd13ifvqe0g","pricing_plan_id":"free"},{"bike_id":"7da9e437-1e79-4b5f-9ab0-65254ac17dd7","system_id":"levelo_inurba_marseille","lat":43.31645,"lon":5.40435,"is_reserved":false,"is_disabled":false,"rental_uris":{"android":"levelo://app?vid=7da9e437-1e79-4b5f-9ab0-65254ac17dd7","ios":"levelo://app?vid=7da9e437-1e79-4b5f-9ab0-65254ac17dd7"},"vehicle_type_id":"4","last_reported":1692806900,"current_range_meters":26800,"station_id":"ce4bh012rcd13ifvqd00","pricing_plan_id":"free"},{"bike_id":"ac5ee655-797f-416c-85f3-4493887547be","system_id":"levelo_inurba_marseille","lat":43.284534,"lon":5.358662,"is_reserved":false,"is_disabled":false,"rental_uris":{"android":"levelo://app?vid=ac5ee655-797f-416c-85f3-4493887547be","ios":"levelo://app?vid=ac5ee655-797f-416c-85f3-4493887547be"},"vehicle_type_id":"4","last_reported":1692806900,"current_range_meters":7200,"station_id":"ce4bhah2rcd13ifvqei0","pricing_plan_id":"free"},{"bike_id":"2af9ff07-4f27-4560-92ae-1b128438689d","system_id":"levelo_inurba_marseille","lat":43.284575,"lon":5.374899,"is_reserved":false,"is_disabled":false,"rental_uris":{"android":"levelo://app?vid=2af9ff07-4f27-4560-92ae-1b128438689d","ios":"levelo://app?vid=2af9ff07-4f27-4560-92ae-1b128438689d"},"vehicle_type_id":"4","last_reported":1692806900,"current_range_meters":28400,"station_id":"","pricing_plan_id":"free"},{"bike_id":"28f805f1-6505-4043-beff-a2183ebe6a87","system_id":"levelo_inurba_marseille","lat":43.285856,"lon":5.350771,"is_reserved":false,"is_disabled":false,"rental_uris":{"android":"levelo://app?vid=28f805f1-6505-4043-beff-a2183ebe6a87","ios":"levelo://app?vid=28f805f1-6505-4043-beff-a2183ebe6a87"},"vehicle_type_id":"4","last_reported":1692806900,"current_range_meters":31200,"station_id":"ce4bhch2rcd13ifvqeug","pricing_plan_id":"free"},{"bike_id":"473b83e7-5ec1-48b4-b742-9ebb327161f4","system_id":"levelo_inurba_marseille","lat":43.285856,"lon":5.350771,"is_reserved":false,"is_disabled":false,"rental_uris":{"android":"levelo://app?vid=473b83e7-5ec1-48b4-b742-9ebb327161f4","ios":"levelo://app?vid=473b83e7-5ec1-48b4-b742-9ebb327161f4"},"vehicle_type_id":"4","last_reported":1692806900,"current_range_meters":31200,"station_id":"ce4bhch2rcd13ifvqeug","pricing_plan_id":"free"},{"bike_id":"052f150c-d665-4b27-a9ae-2d25ada57dfc","system_id":"levelo_inurba_marseille","lat":43.28619,"lon":5.351,"is_reserved":false,"is_disabled":false,"rental_uris":{"android":"levelo://app?vid=052f150c-d665-4b27-a9ae-2d25ada57dfc","ios":"levelo://app?vid=052f150c-d665-4b27-a9ae-2d25ada57dfc"},"vehicle_type_id":"4","last_reported":1692806900,"current_range_meters":15600,"station_id":"ce4bhch2rcd13ifvqeug","pricing_plan_id":"free"},{"bike_id":"ad029d1a-656c-4d55-b4e4-01c7980d13ac","system_id":"levelo_inurba_marseille","lat":43.28615,"lon":5.35103,"is_reserved":false,"is_disabled":false,"rental_uris":{"android":"levelo://app?vid=ad029d1a-656c-4d55-b4e4-01c7980d13ac","ios":"levelo://app?vid=ad029d1a-656c-4d55-b4e4-01c7980d13ac"},"vehicle_type_id":"4","last_reported":1692806900,"current_range_meters":29600,"station_id":"ce4bhch2rcd13ifvqeug","pricing_plan_id":"free"},{"bike_id":"86413dc1-3de2-487d-ad7a-fb08f2add8a2","system_id":"levelo_inurba_marseille","lat":43.285856,"lon":5.350771,"is_reserved":false,"is_disabled":false,"rental_uris":{"android":"levelo://app?vid=86413dc1-3de2-487d-ad7a-fb08f2add8a2","ios":"levelo://app?vid=86413dc1-3de2-487d-ad7a-fb08f2add8a2"},"vehicle_type_id":"4","last_reported":1692806900,"current_range_meters":31200,"station_id":"ce4bhch2rcd13ifvqeug","pricing_plan_id":"free"},{"bike_id":"bfc3a2e6-ecd1-4655-9d75-0269367338f3","system_id":"levelo_inurba_marseille","lat":43.28615,"lon":5.35101,"is_reserved":false,"is_disabled":false,"rental_uris":{"android":"levelo://app?vid=bfc3a2e6-ecd1-4655-9d75-0269367338f3","ios":"levelo://app?vid=bfc3a2e6-ecd1-4655-9d75-0269367338f3"},"vehicle_type_id":"4","last_reported":1692806900,"current_range_meters":0,"station_id":"ce4bhch2rcd13ifvqeug","pricing_plan_id":"free"},{"bike_id":"23b46c96-b11c-470d-9af8-72dd19b56c59","system_id":"levelo_inurba_marseille","lat":43.286132,"lon":5.351061,"is_reserved":false,"is_disabled":false,"rental_uris":{"android":"levelo://app?vid=23b46c96-b11c-470d-9af8-72dd19b56c59","ios":"levelo://app?vid=23b46c96-b11c-470d-9af8-72dd19b56c59"},"vehicle_type_id":"4","last_reported":1692806900,"current_range_meters":20400,"station_id":"ce4bhch2rcd13ifvqeug","pricing_plan_id":"free"},{"bike_id":"a21cec92-087a-453b-ae06-13fd239a31fc","system_id":"levelo_inurba_marseille","lat":43.28613,"lon":5.35106,"is_reserved":false,"is_disabled":false,"rental_uris":{"android":"levelo://app?vid=a21cec92-087a-453b-ae06-13fd239a31fc","ios":"levelo://app?vid=a21cec92-087a-453b-ae06-13fd239a31fc"},"vehicle_type_id":"4","last_reported":1692806900,"current_range_meters":8400,"station_id":"ce4bhch2rcd13ifvqeug","pricing_plan_id":"free"},{"bike_id":"15a47a55-79c4-4327-ba1b-c8b4848de501","system_id":"levelo_inurba_marseille","lat":43.286123,"lon":5.35105,"is_reserved":false,"is_disabled":false,"rental_uris":{"android":"levelo://app?vid=15a47a55-79c4-4327-ba1b-c8b4848de501","ios":"levelo://app?vid=15a47a55-79c4-4327-ba1b-c8b4848de501"},"vehicle_type_id":"4","last_reported":1692806900,"current_range_meters":30400,"station_id":"","pricing_plan_id":"free"},{"bike_id":"4c6b8e56-7209-42d3-ab83-916583960921","system_id":"levelo_inurba_marseille","lat":43.285856,"lon":5.350771,"is_reserved":false,"is_disabled":false,"rental_uris":{"android":"levelo://app?vid=4c6b8e56-7209-42d3-ab83-916583960921","ios":"levelo://app?vid=4c6b8e56-7209-42d3-ab83-916583960921"},"vehicle_type_id":"4","last_reported":1692806900,"current_range_meters":31200,"station_id":"ce4bhch2rcd13ifvqeug","pricing_plan_id":"free"},{"bike_id":"342a2905-8dc1-45fe-8f4c-ec315385152c","system_id":"levelo_inurba_marseille","lat":43.2861,"lon":5.35107,"is_reserved":false,"is_disabled":false,"rental_uris":{"android":"levelo://app?vid=342a2905-8dc1-45fe-8f4c-ec315385152c","ios":"levelo://app?vid=342a2905-8dc1-45fe-8f4c-ec315385152c"},"vehicle_type_id":"4","last_reported":1692806900,"current_range_meters":28800,"station_id":"ce4bhch2rcd13ifvqeug","pricing_plan_id":"free"},{"bike_id":"a3ed7390-1a18-4d4e-8f6c-4aa650d81b2a","system_id":"levelo_inurba_marseille","lat":43.28609,"lon":5.35106,"is_reserved":false,"is_disabled":false,"rental_uris":{"android":"levelo://app?vid=a3ed7390-1a18-4d4e-8f6c-4aa650d81b2a","ios":"levelo://app?vid=a3ed7390-1a18-4d4e-8f6c-4aa650d81b2a"},"vehicle_type_id":"4","last_reported":1692806900,"current_range_meters":28000,"station_id":"ce4bhch2rcd13ifvqeug","pricing_plan_id":"free"},{"bike_id":"3ad00b4f-8613-4a4e-86bf-0a89fd428159","system_id":"levelo_inurba_marseille","lat":43.28608,"lon":5.351,"is_reserved":false,"is_disabled":false,"rental_uris":{"android":"levelo://app?vid=3ad00b4f-8613-4a4e-86bf-0a89fd428159","ios":"levelo://app?vid=3ad00b4f-8613-4a4e-86bf-0a89fd428159"},"vehicle_type_id":"4","last_reported":1692806900,"current_range_meters":29200,"station_id":"ce4bhch2rcd13ifvqeug","pricing_plan_id":"free"},{"bike_id":"cccc4568-06b5-4539-9acf-5a47a8fd05d4","system_id":"levelo_inurba_marseille","lat":43.28423,"lon":5.37504,"is_reserved":false,"is_disabled":false,"rental_uris":{"android":"levelo://app?vid=cccc4568-06b5-4539-9acf-5a47a8fd05d4","ios":"levelo://app?vid=cccc4568-06b5-4539-9acf-5a47a8fd05d4"},"vehicle_type_id":"4","last_reported":1692806900,"current_range_meters":4000,"station_id":"ce4bh412rcd13ifvqds0","pricing_plan_id":"free"},{"bike_id":"2363d3b5-6c15-401a-a59c-ee80bd4af927","system_id":"levelo_inurba_marseille","lat":43.28415,"lon":5.37522,"is_reserved":false,"is_disabled":false,"rental_uris":{"android":"levelo://app?vid=2363d3b5-6c15-401a-a59c-ee80bd4af927","ios":"levelo://app?vid=2363d3b5-6c15-401a-a59c-ee80bd4af927"},"vehicle_type_id":"4","last_reported":1692806900,"current_range_meters":4800,"station_id":"ce4bh412rcd13ifvqds0","pricing_plan_id":"free"},{"bike_id":"7d3b773f-1b9e-4728-912c-7a987da5a730","system_id":"levelo_inurba_marseille","lat":43.284116,"lon":5.375049,"is_reserved":false,"is_disabled":false,"rental_uris":{"android":"levelo://app?vid=7d3b773f-1b9e-4728-912c-7a987da5a730","ios":"levelo://app?vid=7d3b773f-1b9e-4728-912c-7a987da5a730"},"vehicle_type_id":"4","last_reported":1692806900,"current_range_meters":25200,"station_id":"ce4bh412rcd13ifvqds0","pricing_plan_id":"free"},{"bike_id":"9d5cc729-31e9-41fc-9931-a2a65f4bb4ff","system_id":"levelo_inurba_marseille","lat":43.284111,"lon":5.375129,"is_reserved":false,"is_disabled":false,"rental_uris":{"android":"levelo://app?vid=9d5cc729-31e9-41fc-9931-a2a65f4bb4ff","ios":"levelo://app?vid=9d5cc729-31e9-41fc-9931-a2a65f4bb4ff"},"vehicle_type_id":"4","last_reported":1692806900,"current_range_meters":1600,"station_id":"","pricing_plan_id":"free"},{"bike_id":"73407d5d-ae91-461c-8582-bbf0e6e1ffea","system_id":"levelo_inurba_marseille","lat":43.3372,"lon":5.39183,"is_reserved":false,"is_disabled":false,"rental_uris":{"android":"levelo://app?vid=73407d5d-ae91-461c-8582-bbf0e6e1ffea","ios":"levelo://app?vid=73407d5d-ae91-461c-8582-bbf0e6e1ffea"},"vehicle_type_id":"4","last_reported":1692806900,"current_range_meters":0,"station_id":"ce4bhr92rcd13ifvqhsg","pricing_plan_id":"free"},{"bike_id":"ac1cfd0b-31fe-4e02-963e-b6b38c688b66","system_id":"levelo_inurba_marseille","lat":43.295713,"lon":5.399639,"is_reserved":false,"is_disabled":false,"rental_uris":{"android":"levelo://app?vid=ac1cfd0b-31fe-4e02-963e-b6b38c688b66","ios":"levelo://app?vid=ac1cfd0b-31fe-4e02-963e-b6b38c688b66"},"vehicle_type_id":"4","last_reported":1692806900,"current_range_meters":7600,"station_id":"ce4bh312rcd13ifvqdj0","pricing_plan_id":"free"},{"bike_id":"81207e02-e329-4cea-9b6c-33ba9c0267d2","system_id":"levelo_inurba_marseille","lat":43.284793,"lon":5.384119,"is_reserved":false,"is_disabled":false,"rental_uris":{"android":"levelo://app?vid=81207e02-e329-4cea-9b6c-33ba9c0267d2","ios":"levelo://app?vid=81207e02-e329-4cea-9b6c-33ba9c0267d2"},"vehicle_type_id":"4","last_reported":1692806900,"current_range_meters":31200,"station_id":"ce4bh512rcd13ifvqe3g","pricing_plan_id":"free"},{"bike_id":"4a1f5123-7b9b-4549-a369-7d2d29b3fc46","system_id":"levelo_inurba_marseille","lat":43.288501,"lon":5.393087,"is_reserved":false,"is_disabled":false,"rental_uris":{"android":"levelo://app?vid=4a1f5123-7b9b-4549-a369-7d2d29b3fc46","ios":"levelo://app?vid=4a1f5123-7b9b-4549-a369-7d2d29b3fc46"},"vehicle_type_id":"4","last_reported":1692806900,"current_range_meters":11600,"station_id":"ce4bh2p2rcd13ifvqdi0","pricing_plan_id":"free"},{"bike_id":"2ea73967-988f-4f1a-aa76-7f33a11c4098","system_id":"levelo_inurba_marseille","lat":43.30675,"lon":5.40869,"is_reserved":false,"is_disabled":false,"rental_uris":{"android":"levelo://app?vid=2ea73967-988f-4f1a-aa76-7f33a11c4098","ios":"levelo://app?vid=2ea73967-988f-4f1a-aa76-7f33a11c4098"},"vehicle_type_id":"4","last_reported":1692806900,"current_range_meters":14000,"station_id":"","pricing_plan_id":"free"},{"bike_id":"d74e8d7d-cfff-44e1-8625-06cd963a3a7c","system_id":"levelo_inurba_marseille","lat":43.284217,"lon":5.349697,"is_reserved":false,"is_disabled":false,"rental_uris":{"android":"levelo://app?vid=d74e8d7d-cfff-44e1-8625-06cd963a3a7c","ios":"levelo://app?vid=d74e8d7d-cfff-44e1-8625-06cd963a3a7c"},"vehicle_type_id":"4","last_reported":1692806900,"current_range_meters":31200,"station_id":"ce4bhbh2rcd13ifvqepg","pricing_plan_id":"free"},{"bike_id":"951e9e49-d8d2-4f37-bfbb-46522e11b95f","system_id":"levelo_inurba_marseille","lat":43.28422,"lon":5.34995,"is_reserved":false,"is_disabled":false,"rental_uris":{"android":"levelo://app?vid=951e9e49-d8d2-4f37-bfbb-46522e11b95f","ios":"levelo://app?vid=951e9e49-d8d2-4f37-bfbb-46522e11b95f"},"vehicle_type_id":"4","last_reported":1692806900,"current_range_meters":28000,"station_id":"ce4bhbh2rcd13ifvqepg","pricing_plan_id":"free"},{"bike_id":"145b6026-3106-43ea-880b-90dbaa7ff01a","system_id":"levelo_inurba_marseille","lat":43.28425,"lon":5.34984,"is_reserved":false,"is_disabled":false,"rental_uris":{"android":"levelo://app?vid=145b6026-3106-43ea-880b-90dbaa7ff01a","ios":"levelo://app?vid=145b6026-3106-43ea-880b-90dbaa7ff01a"},"vehicle_type_id":"4","last_reported":1692806900,"current_range_meters":31200,"station_id":"ce4bhbh2rcd13ifvqepg","pricing_plan_id":"free"},{"bike_id":"b0efa0e7-7c7d-456c-9e71-707671aba0da","system_id":"levelo_inurba_marseille","lat":43.28428,"lon":5.34971,"is_reserved":false,"is_disabled":false,"rental_uris":{"android":"levelo://app?vid=b0efa0e7-7c7d-456c-9e71-707671aba0da","ios":"levelo://app?vid=b0efa0e7-7c7d-456c-9e71-707671aba0da"},"vehicle_type_id":"4","last_reported":1692806900,"current_range_meters":28800,"station_id":"ce4bhbh2rcd13ifvqepg","pricing_plan_id":"free"},{"bike_id":"a2f7c480-b9cf-47c9-82e6-dd3eeab212a4","system_id":"levelo_inurba_marseille","lat":43.28425,"lon":5.3498,"is_reserved":false,"is_disabled":false,"rental_uris":{"android":"levelo://app?vid=a2f7c480-b9cf-47c9-82e6-dd3eeab212a4","ios":"levelo://app?vid=a2f7c480-b9cf-47c9-82e6-dd3eeab212a4"},"vehicle_type_id":"4","last_reported":1692806900,"current_range_meters":30800,"station_id":"ce4bhbh2rcd13ifvqepg","pricing_plan_id":"free"},{"bike_id":"2c74c7c6-4f75-4b9c-b211-133060494a3d","system_id":"levelo_inurba_marseille","lat":43.284217,"lon":5.349697,"is_reserved":false,"is_disabled":false,"rental_uris":{"android":"levelo://app?vid=2c74c7c6-4f75-4b9c-b211-133060494a3d","ios":"levelo://app?vid=2c74c7c6-4f75-4b9c-b211-133060494a3d"},"vehicle_type_id":"4","last_reported":1692806900,"current_range_meters":31200,"station_id":"ce4bhbh2rcd13ifvqepg","pricing_plan_id":"free"},{"bike_id":"fc2aba3e-86dd-413f-be81-86d05ede06a4","system_id":"levelo_inurba_marseille","lat":43.28425,"lon":5.34977,"is_reserved":false,"is_disabled":false,"rental_uris":{"android":"levelo://app?vid=fc2aba3e-86dd-413f-be81-86d05ede06a4","ios":"levelo://app?vid=fc2aba3e-86dd-413f-be81-86d05ede06a4"},"vehicle_type_id":"4","last_reported":1692806900,"current_range_meters":800,"station_id":"ce4bhbh2rcd13ifvqepg","pricing_plan_id":"free"},{"bike_id":"db0f6064-a218-4bf0-8099-6e268ac73066","system_id":"levelo_inurba_marseille","lat":43.28418,"lon":5.34998,"is_reserved":false,"is_disabled":false,"rental_uris":{"android":"levelo://app?vid=db0f6064-a218-4bf0-8099-6e268ac73066","ios":"levelo://app?vid=db0f6064-a218-4bf0-8099-6e268ac73066"},"vehicle_type_id":"4","last_reported":1692806900,"current_range_meters":20800,"station_id":"ce4bhbh2rcd13ifvqepg","pricing_plan_id":"free"},{"bike_id":"08b1d9f2-447c-4aa6-8dd5-013e44a295f3","system_id":"levelo_inurba_marseille","lat":43.28423,"lon":5.3498,"is_reserved":false,"is_disabled":false,"rental_uris":{"android":"levelo://app?vid=08b1d9f2-447c-4aa6-8dd5-013e44a295f3","ios":"levelo://app?vid=08b1d9f2-447c-4aa6-8dd5-013e44a295f3"},"vehicle_type_id":"4","last_reported":1692806900,"current_range_meters":21600,"station_id":"ce4bhbh2rcd13ifvqepg","pricing_plan_id":"free"},{"bike_id":"93a57a01-79ed-4035-a3eb-01f316b22d42","system_id":"levelo_inurba_marseille","lat":43.2842,"lon":5.34987,"is_reserved":false,"is_disabled":false,"rental_uris":{"android":"levelo://app?vid=93a57a01-79ed-4035-a3eb-01f316b22d42","ios":"levelo://app?vid=93a57a01-79ed-4035-a3eb-01f316b22d42"},"vehicle_type_id":"4","last_reported":1692806900,"current_range_meters":31200,"station_id":"ce4bhbh2rcd13ifvqepg","pricing_plan_id":"free"},{"bike_id":"ace3f21c-a1c6-4821-9f09-87051b307a14","system_id":"levelo_inurba_marseille","lat":43.284217,"lon":5.349697,"is_reserved":false,"is_disabled":false,"rental_uris":{"android":"levelo://app?vid=ace3f21c-a1c6-4821-9f09-87051b307a14","ios":"levelo://app?vid=ace3f21c-a1c6-4821-9f09-87051b307a14"},"vehicle_type_id":"4","last_reported":1692806900,"current_range_meters":31200,"station_id":"ce4bhbh2rcd13ifvqepg","pricing_plan_id":"free"},{"bike_id":"dda7d4db-f272-4860-b488-6c9fe687fb95","system_id":"levelo_inurba_marseille","lat":43.28421,"lon":5.34982,"is_reserved":false,"is_disabled":false,"rental_uris":{"android":"levelo://app?vid=dda7d4db-f272-4860-b488-6c9fe687fb95","ios":"levelo://app?vid=dda7d4db-f272-4860-b488-6c9fe687fb95"},"vehicle_type_id":"4","last_reported":1692806900,"current_range_meters":30400,"station_id":"ce4bhbh2rcd13ifvqepg","pricing_plan_id":"free"},{"bike_id":"3ec9ab0e-1376-4c3c-9b15-3ccea82c8aeb","system_id":"levelo_inurba_marseille","lat":43.284219,"lon":5.3497,"is_reserved":false,"is_disabled":false,"rental_uris":{"android":"levelo://app?vid=3ec9ab0e-1376-4c3c-9b15-3ccea82c8aeb","ios":"levelo://app?vid=3ec9ab0e-1376-4c3c-9b15-3ccea82c8aeb"},"vehicle_type_id":"4","last_reported":1692806900,"current_range_meters":31200,"station_id":"ce4bhbh2rcd13ifvqepg","pricing_plan_id":"free"},{"bike_id":"b39a7299-a779-47ff-b72a-5b8b1e4ce4f4","system_id":"levelo_inurba_marseille","lat":43.28419,"lon":5.34986,"is_reserved":false,"is_disabled":false,"rental_uris":{"android":"levelo://app?vid=b39a7299-a779-47ff-b72a-5b8b1e4ce4f4","ios":"levelo://app?vid=b39a7299-a779-47ff-b72a-5b8b1e4ce4f4"},"vehicle_type_id":"4","last_reported":1692806900,"current_range_meters":12400,"station_id":"ce4bhbh2rcd13ifvqepg","pricing_plan_id":"free"},{"bike_id":"1f21480a-1585-4a21-9e20-8904d3a96816","system_id":"levelo_inurba_marseille","lat":43.284217,"lon":5.349697,"is_reserved":false,"is_disabled":false,"rental_uris":{"android":"levelo://app?vid=1f21480a-1585-4a21-9e20-8904d3a96816","ios":"levelo://app?vid=1f21480a-1585-4a21-9e20-8904d3a96816"},"vehicle_type_id":"4","last_reported":1692806900,"current_range_meters":30000,"station_id":"ce4bhbh2rcd13ifvqepg","pricing_plan_id":"free"},{"bike_id":"3a22444b-5264-4240-9292-140d2dd00dcd","system_id":"levelo_inurba_marseille","lat":43.2842,"lon":5.34979,"is_reserved":false,"is_disabled":false,"rental_uris":{"android":"levelo://app?vid=3a22444b-5264-4240-9292-140d2dd00dcd","ios":"levelo://app?vid=3a22444b-5264-4240-9292-140d2dd00dcd"},"vehicle_type_id":"4","last_reported":1692806900,"current_range_meters":10400,"station_id":"ce4bhbh2rcd13ifvqepg","pricing_plan_id":"free"},{"bike_id":"35b2dba1-d057-4405-9f21-1cf8bb3fa084","system_id":"levelo_inurba_marseille","lat":43.28416,"lon":5.34991,"is_reserved":false,"is_disabled":false,"rental_uris":{"android":"levelo://app?vid=35b2dba1-d057-4405-9f21-1cf8bb3fa084","ios":"levelo://app?vid=35b2dba1-d057-4405-9f21-1cf8bb3fa084"},"vehicle_type_id":"4","last_reported":1692806900,"current_range_meters":4000,"station_id":"ce4bhbh2rcd13ifvqepg","pricing_plan_id":"free"},{"bike_id":"4cc9f55f-a9ff-4fb2-b965-2455a65880a7","system_id":"levelo_inurba_marseille","lat":43.2842,"lon":5.34978,"is_reserved":false,"is_disabled":false,"rental_uris":{"android":"levelo://app?vid=4cc9f55f-a9ff-4fb2-b965-2455a65880a7","ios":"levelo://app?vid=4cc9f55f-a9ff-4fb2-b965-2455a65880a7"},"vehicle_type_id":"4","last_reported":1692806900,"current_range_meters":25600,"station_id":"ce4bhbh2rcd13ifvqepg","pricing_plan_id":"free"},{"bike_id":"d8d9a5c9-956f-44e4-98b1-1d4e7be66831","system_id":"levelo_inurba_marseille","lat":43.28418,"lon":5.34983,"is_reserved":false,"is_disabled":false,"rental_uris":{"android":"levelo://app?vid=d8d9a5c9-956f-44e4-98b1-1d4e7be66831","ios":"levelo://app?vid=d8d9a5c9-956f-44e4-98b1-1d4e7be66831"},"vehicle_type_id":"4","last_reported":1692806900,"current_range_meters":14000,"station_id":"ce4bhbh2rcd13ifvqepg","pricing_plan_id":"free"},{"bike_id":"4e8ec2f0-442d-4533-b220-d9efbe5932ce","system_id":"levelo_inurba_marseille","lat":43.28419,"lon":5.34975,"is_reserved":false,"is_disabled":false,"rental_uris":{"android":"levelo://app?vid=4e8ec2f0-442d-4533-b220-d9efbe5932ce","ios":"levelo://app?vid=4e8ec2f0-442d-4533-b220-d9efbe5932ce"},"vehicle_type_id":"4","last_reported":1692806900,"current_range_meters":23200,"station_id":"ce4bhbh2rcd13ifvqepg","pricing_plan_id":"free"},{"bike_id":"116fc1fd-15dc-46c5-a1ce-1a36aa759ee1","system_id":"levelo_inurba_marseille","lat":43.28419,"lon":5.34975,"is_reserved":false,"is_disabled":false,"rental_uris":{"android":"levelo://app?vid=116fc1fd-15dc-46c5-a1ce-1a36aa759ee1","ios":"levelo://app?vid=116fc1fd-15dc-46c5-a1ce-1a36aa759ee1"},"vehicle_type_id":"4","last_reported":1692806900,"current_range_meters":18800,"station_id":"ce4bhbh2rcd13ifvqepg","pricing_plan_id":"free"},{"bike_id":"469e7020-7cc6-40c3-90bb-6cc1d543c163","system_id":"levelo_inurba_marseille","lat":43.284217,"lon":5.349697,"is_reserved":false,"is_disabled":false,"rental_uris":{"android":"levelo://app?vid=469e7020-7cc6-40c3-90bb-6cc1d543c163","ios":"levelo://app?vid=469e7020-7cc6-40c3-90bb-6cc1d543c163"},"vehicle_type_id":"4","last_reported":1692806900,"current_range_meters":31200,"station_id":"ce4bhbh2rcd13ifvqepg","pricing_plan_id":"free"},{"bike_id":"8b1ad8e9-fb9f-4265-b00a-dce584480bd4","system_id":"levelo_inurba_marseille","lat":43.28412,"lon":5.34988,"is_reserved":false,"is_disabled":false,"rental_uris":{"android":"levelo://app?vid=8b1ad8e9-fb9f-4265-b00a-dce584480bd4","ios":"levelo://app?vid=8b1ad8e9-fb9f-4265-b00a-dce584480bd4"},"vehicle_type_id":"4","last_reported":1692806900,"current_range_meters":9200,"station_id":"ce4bhbh2rcd13ifvqepg","pricing_plan_id":"free"},{"bike_id":"f50aca5f-cf5b-4020-925f-826a2e34874f","system_id":"levelo_inurba_marseille","lat":43.2894,"lon":5.39615,"is_reserved":false,"is_disabled":false,"rental_uris":{"android":"levelo://app?vid=f50aca5f-cf5b-4020-925f-826a2e34874f","ios":"levelo://app?vid=f50aca5f-cf5b-4020-925f-826a2e34874f"},"vehicle_type_id":"4","last_reported":1692806900,"current_range_meters":31200,"station_id":"ce4bh3h2rcd13ifvqdn0","pricing_plan_id":"free"},{"bike_id":"79ae07f7-3d9b-456b-927e-8e880eafedba","system_id":"levelo_inurba_marseille","lat":43.32572,"lon":5.40673,"is_reserved":false,"is_disabled":false,"rental_uris":{"android":"levelo://app?vid=79ae07f7-3d9b-456b-927e-8e880eafedba","ios":"levelo://app?vid=79ae07f7-3d9b-456b-927e-8e880eafedba"},"vehicle_type_id":"4","last_reported":1692806900,"current_range_meters":800,"station_id":"","pricing_plan_id":"free"},{"bike_id":"1821b8f8-4403-488e-ad78-4c274de9ba21","system_id":"levelo_inurba_marseille","lat":43.29277,"lon":5.40114,"is_reserved":false,"is_disabled":false,"rental_uris":{"android":"levelo://app?vid=1821b8f8-4403-488e-ad78-4c274de9ba21","ios":"levelo://app?vid=1821b8f8-4403-488e-ad78-4c274de9ba21"},"vehicle_type_id":"4","last_reported":1692806900,"current_range_meters":17200,"station_id":"","pricing_plan_id":"free"},{"bike_id":"02aff7f8-4e6a-4cfa-b147-67064396d634","system_id":"levelo_inurba_marseille","lat":43.29284,"lon":5.40127,"is_reserved":false,"is_disabled":false,"rental_uris":{"android":"levelo://app?vid=02aff7f8-4e6a-4cfa-b147-67064396d634","ios":"levelo://app?vid=02aff7f8-4e6a-4cfa-b147-67064396d634"},"vehicle_type_id":"4","last_reported":1692806900,"current_range_meters":13600,"station_id":"ce4bh312rcd13ifvqdk0","pricing_plan_id":"free"},{"bike_id":"88940920-727e-47f8-bee6-24feedff1167","system_id":"levelo_inurba_marseille","lat":43.282754,"lon":5.350519,"is_reserved":false,"is_disabled":false,"rental_uris":{"android":"levelo://app?vid=88940920-727e-47f8-bee6-24feedff1167","ios":"levelo://app?vid=88940920-727e-47f8-bee6-24feedff1167"},"vehicle_type_id":"4","last_reported":1692806900,"current_range_meters":29600,"station_id":"ce4bhbp2rcd13ifvqerg","pricing_plan_id":"free"},{"bike_id":"4b272141-a988-4846-96a5-bcbc32c8d9eb","system_id":"levelo_inurba_marseille","lat":43.282754,"lon":5.350519,"is_reserved":false,"is_disabled":false,"rental_uris":{"android":"levelo://app?vid=4b272141-a988-4846-96a5-bcbc32c8d9eb","ios":"levelo://app?vid=4b272141-a988-4846-96a5-bcbc32c8d9eb"},"vehicle_type_id":"4","last_reported":1692806900,"current_range_meters":12000,"station_id":"ce4bhbp2rcd13ifvqerg","pricing_plan_id":"free"},{"bike_id":"56ae6326-3b8e-4b54-bf2f-68db53fe6a93","system_id":"levelo_inurba_marseille","lat":43.2827,"lon":5.35071,"is_reserved":false,"is_disabled":false,"rental_uris":{"android":"levelo://app?vid=56ae6326-3b8e-4b54-bf2f-68db53fe6a93","ios":"levelo://app?vid=56ae6326-3b8e-4b54-bf2f-68db53fe6a93"},"vehicle_type_id":"4","last_reported":1692806900,"current_range_meters":31200,"station_id":"ce4bhbp2rcd13ifvqerg","pricing_plan_id":"free"},{"bike_id":"e94730a5-e75c-48e1-8547-1dd1c2da0439","system_id":"levelo_inurba_marseille","lat":43.282754,"lon":5.350519,"is_reserved":false,"is_disabled":false,"rental_uris":{"android":"levelo://app?vid=e94730a5-e75c-48e1-8547-1dd1c2da0439","ios":"levelo://app?vid=e94730a5-e75c-48e1-8547-1dd1c2da0439"},"vehicle_type_id":"4","last_reported":1692806900,"current_range_meters":17600,"station_id":"ce4bhbp2rcd13ifvqerg","pricing_plan_id":"free"},{"bike_id":"2c4e639d-dfd5-47ec-9df5-c78a316ca55c","system_id":"levelo_inurba_marseille","lat":43.282754,"lon":5.350519,"is_reserved":false,"is_disabled":false,"rental_uris":{"android":"levelo://app?vid=2c4e639d-dfd5-47ec-9df5-c78a316ca55c","ios":"levelo://app?vid=2c4e639d-dfd5-47ec-9df5-c78a316ca55c"},"vehicle_type_id":"4","last_reported":1692806900,"current_range_meters":20000,"station_id":"ce4bhbp2rcd13ifvqerg","pricing_plan_id":"free"},{"bike_id":"4ab2434e-0244-41bf-8a31-56d053a6b08e","system_id":"levelo_inurba_marseille","lat":43.282754,"lon":5.350519,"is_reserved":false,"is_disabled":false,"rental_uris":{"android":"levelo://app?vid=4ab2434e-0244-41bf-8a31-56d053a6b08e","ios":"levelo://app?vid=4ab2434e-0244-41bf-8a31-56d053a6b08e"},"vehicle_type_id":"4","last_reported":1692806900,"current_range_meters":6800,"station_id":"ce4bhbp2rcd13ifvqerg","pricing_plan_id":"free"},{"bike_id":"9f46cfde-4f76-4076-bade-5765c2d3d473","system_id":"levelo_inurba_marseille","lat":43.28039,"lon":5.369297,"is_reserved":false,"is_disabled":false,"rental_uris":{"android":"levelo://app?vid=9f46cfde-4f76-4076-bade-5765c2d3d473","ios":"levelo://app?vid=9f46cfde-4f76-4076-bade-5765c2d3d473"},"vehicle_type_id":"4","last_reported":1692806900,"current_range_meters":31200,"station_id":"ce4bha12rcd13ifvqef0","pricing_plan_id":"free"},{"bike_id":"ac972da7-1a3a-4aa3-bf37-1beb75d32b7a","system_id":"levelo_inurba_marseille","lat":43.28281,"lon":5.34879,"is_reserved":false,"is_disabled":false,"rental_uris":{"android":"levelo://app?vid=ac972da7-1a3a-4aa3-bf37-1beb75d32b7a","ios":"levelo://app?vid=ac972da7-1a3a-4aa3-bf37-1beb75d32b7a"},"vehicle_type_id":"4","last_reported":1692806900,"current_range_meters":23200,"station_id":"","pricing_plan_id":"free"},{"bike_id":"b540b6e8-a992-45c3-ad47-9548697906a1","system_id":"levelo_inurba_marseille","lat":43.290412,"lon":5.399633,"is_reserved":false,"is_disabled":false,"rental_uris":{"android":"levelo://app?vid=b540b6e8-a992-45c3-ad47-9548697906a1","ios":"levelo://app?vid=b540b6e8-a992-45c3-ad47-9548697906a1"},"vehicle_type_id":"4","last_reported":1692806900,"current_range_meters":19200,"station_id":"ce4bh392rcd13ifvqdm0","pricing_plan_id":"free"},{"bike_id":"7ee44854-c375-45b7-a3f5-8e1471feaa0c","system_id":"levelo_inurba_marseille","lat":43.29041,"lon":5.399634,"is_reserved":false,"is_disabled":false,"rental_uris":{"android":"levelo://app?vid=7ee44854-c375-45b7-a3f5-8e1471feaa0c","ios":"levelo://app?vid=7ee44854-c375-45b7-a3f5-8e1471feaa0c"},"vehicle_type_id":"4","last_reported":1692806900,"current_range_meters":25200,"station_id":"ce4bh392rcd13ifvqdm0","pricing_plan_id":"free"},{"bike_id":"7d8cd17a-fc9a-4d00-b092-cf449b1be6ea","system_id":"levelo_inurba_marseille","lat":43.284462,"lon":5.392121,"is_reserved":false,"is_disabled":false,"rental_uris":{"android":"levelo://app?vid=7d8cd17a-fc9a-4d00-b092-cf449b1be6ea","ios":"levelo://app?vid=7d8cd17a-fc9a-4d00-b092-cf449b1be6ea"},"vehicle_type_id":"4","last_reported":1692806900,"current_range_meters":6800,"station_id":"ce4bhoh2rcd13ifvqh5g","pricing_plan_id":"free"},{"bike_id":"58ca0b5b-37ed-4c41-aaa0-35c032562f2c","system_id":"levelo_inurba_marseille","lat":43.285742,"lon":5.395004,"is_reserved":false,"is_disabled":false,"rental_uris":{"android":"levelo://app?vid=58ca0b5b-37ed-4c41-aaa0-35c032562f2c","ios":"levelo://app?vid=58ca0b5b-37ed-4c41-aaa0-35c032562f2c"},"vehicle_type_id":"4","last_reported":1692806900,"current_range_meters":29600,"station_id":"ce4bh292rcd13ifvqdg0","pricing_plan_id":"free"},{"bike_id":"0b0e5c89-a4e1-4d56-b716-d7d758d30b52","system_id":"levelo_inurba_marseille","lat":43.32654,"lon":5.40995,"is_reserved":false,"is_disabled":false,"rental_uris":{"android":"levelo://app?vid=0b0e5c89-a4e1-4d56-b716-d7d758d30b52","ios":"levelo://app?vid=0b0e5c89-a4e1-4d56-b716-d7d758d30b52"},"vehicle_type_id":"4","last_reported":1692806900,"current_range_meters":14400,"station_id":"ce4bhpp2rcd13ifvqhgg","pricing_plan_id":"free"},{"bike_id":"3f4207df-3a64-4181-8680-330ed3621535","system_id":"levelo_inurba_marseille","lat":43.279087,"lon":5.380114,"is_reserved":false,"is_disabled":false,"rental_uris":{"android":"levelo://app?vid=3f4207df-3a64-4181-8680-330ed3621535","ios":"levelo://app?vid=3f4207df-3a64-4181-8680-330ed3621535"},"vehicle_type_id":"4","last_reported":1692806900,"current_range_meters":0,"station_id":"ce4bhf92rcd13ifvqf50","pricing_plan_id":"free"},{"bike_id":"0f74b236-e2a2-439a-afe7-e50b79767d56","system_id":"levelo_inurba_marseille","lat":43.287154,"lon":5.399979,"is_reserved":false,"is_disabled":false,"rental_uris":{"android":"levelo://app?vid=0f74b236-e2a2-439a-afe7-e50b79767d56","ios":"levelo://app?vid=0f74b236-e2a2-439a-afe7-e50b79767d56"},"vehicle_type_id":"4","last_reported":1692806900,"current_range_meters":4400,"station_id":"ce4bho92rcd13ifvqh3g","pricing_plan_id":"free"},{"bike_id":"b16a00b6-91f5-4d2a-a5a8-07500577ced1","system_id":"levelo_inurba_marseille","lat":43.287091,"lon":5.400047,"is_reserved":false,"is_disabled":false,"rental_uris":{"android":"levelo://app?vid=b16a00b6-91f5-4d2a-a5a8-07500577ced1","ios":"levelo://app?vid=b16a00b6-91f5-4d2a-a5a8-07500577ced1"},"vehicle_type_id":"4","last_reported":1692806900,"current_range_meters":19600,"station_id":"","pricing_plan_id":"free"},{"bike_id":"a0a0fc11-0993-4b38-9635-10fee00c1b23","system_id":"levelo_inurba_marseille","lat":43.320045,"lon":5.415046,"is_reserved":false,"is_disabled":false,"rental_uris":{"android":"levelo://app?vid=a0a0fc11-0993-4b38-9635-10fee00c1b23","ios":"levelo://app?vid=a0a0fc11-0993-4b38-9635-10fee00c1b23"},"vehicle_type_id":"4","last_reported":1692806900,"current_range_meters":31200,"station_id":"ce4bhq92rcd13ifvqhkg","pricing_plan_id":"free"},{"bike_id":"4b126a55-abe4-44b7-8e34-6d2a05d3687d","system_id":"levelo_inurba_marseille","lat":43.320045,"lon":5.415048,"is_reserved":false,"is_disabled":false,"rental_uris":{"android":"levelo://app?vid=4b126a55-abe4-44b7-8e34-6d2a05d3687d","ios":"levelo://app?vid=4b126a55-abe4-44b7-8e34-6d2a05d3687d"},"vehicle_type_id":"4","last_reported":1692806900,"current_range_meters":26000,"station_id":"ce4bhq92rcd13ifvqhkg","pricing_plan_id":"free"},{"bike_id":"b6c8fc88-61ab-4e23-b0b7-8f9f0c8bf683","system_id":"levelo_inurba_marseille","lat":43.320045,"lon":5.415046,"is_reserved":false,"is_disabled":false,"rental_uris":{"android":"levelo://app?vid=b6c8fc88-61ab-4e23-b0b7-8f9f0c8bf683","ios":"levelo://app?vid=b6c8fc88-61ab-4e23-b0b7-8f9f0c8bf683"},"vehicle_type_id":"4","last_reported":1692806900,"current_range_meters":10400,"station_id":"ce4bhq92rcd13ifvqhkg","pricing_plan_id":"free"},{"bike_id":"059a4e39-2819-4197-9694-04131dddb4b4","system_id":"levelo_inurba_marseille","lat":43.320045,"lon":5.415048,"is_reserved":false,"is_disabled":false,"rental_uris":{"android":"levelo://app?vid=059a4e39-2819-4197-9694-04131dddb4b4","ios":"levelo://app?vid=059a4e39-2819-4197-9694-04131dddb4b4"},"vehicle_type_id":"4","last_reported":1692806900,"current_range_meters":26400,"station_id":"ce4bhq92rcd13ifvqhkg","pricing_plan_id":"free"},{"bike_id":"e85807de-5e0e-463d-a9f0-c8a8f6a61d70","system_id":"levelo_inurba_marseille","lat":43.320045,"lon":5.415048,"is_reserved":false,"is_disabled":false,"rental_uris":{"android":"levelo://app?vid=e85807de-5e0e-463d-a9f0-c8a8f6a61d70","ios":"levelo://app?vid=e85807de-5e0e-463d-a9f0-c8a8f6a61d70"},"vehicle_type_id":"4","last_reported":1692806900,"current_range_meters":18000,"station_id":"ce4bhq92rcd13ifvqhkg","pricing_plan_id":"free"},{"bike_id":"c327718a-8fe6-4791-a349-aba0f8f94e82","system_id":"levelo_inurba_marseille","lat":43.279742,"lon":5.38744,"is_reserved":false,"is_disabled":false,"rental_uris":{"android":"levelo://app?vid=c327718a-8fe6-4791-a349-aba0f8f94e82","ios":"levelo://app?vid=c327718a-8fe6-4791-a349-aba0f8f94e82"},"vehicle_type_id":"4","last_reported":1692806900,"current_range_meters":25600,"station_id":"ce4bhg12rcd13ifvqf80","pricing_plan_id":"free"},{"bike_id":"4753502f-3868-4b19-9875-d3e533b02670","system_id":"levelo_inurba_marseille","lat":43.320045,"lon":5.415048,"is_reserved":false,"is_disabled":false,"rental_uris":{"android":"levelo://app?vid=4753502f-3868-4b19-9875-d3e533b02670","ios":"levelo://app?vid=4753502f-3868-4b19-9875-d3e533b02670"},"vehicle_type_id":"4","last_reported":1692806900,"current_range_meters":31200,"station_id":"ce4bhq92rcd13ifvqhkg","pricing_plan_id":"free"},{"bike_id":"45c38ac2-099d-44b2-a973-f8411dc0591c","system_id":"levelo_inurba_marseille","lat":43.320045,"lon":5.415048,"is_reserved":false,"is_disabled":false,"rental_uris":{"android":"levelo://app?vid=45c38ac2-099d-44b2-a973-f8411dc0591c","ios":"levelo://app?vid=45c38ac2-099d-44b2-a973-f8411dc0591c"},"vehicle_type_id":"4","last_reported":1692806900,"current_range_meters":30400,"station_id":"ce4bhq92rcd13ifvqhkg","pricing_plan_id":"free"},{"bike_id":"4fd1dd7c-6da4-4214-8083-3ae983f17297","system_id":"levelo_inurba_marseille","lat":43.320045,"lon":5.415048,"is_reserved":false,"is_disabled":false,"rental_uris":{"android":"levelo://app?vid=4fd1dd7c-6da4-4214-8083-3ae983f17297","ios":"levelo://app?vid=4fd1dd7c-6da4-4214-8083-3ae983f17297"},"vehicle_type_id":"4","last_reported":1692806900,"current_range_meters":9600,"station_id":"ce4bhq92rcd13ifvqhkg","pricing_plan_id":"free"},{"bike_id":"1f5e3677-0282-4548-848b-20a341456899","system_id":"levelo_inurba_marseille","lat":43.32051,"lon":5.41563,"is_reserved":false,"is_disabled":false,"rental_uris":{"android":"levelo://app?vid=1f5e3677-0282-4548-848b-20a341456899","ios":"levelo://app?vid=1f5e3677-0282-4548-848b-20a341456899"},"vehicle_type_id":"4","last_reported":1692806900,"current_range_meters":15200,"station_id":"ce4bhq92rcd13ifvqhkg","pricing_plan_id":"free"},{"bike_id":"c82d4a65-c59d-49c1-b20d-aa0c90d8320e","system_id":"levelo_inurba_marseille","lat":43.320045,"lon":5.415046,"is_reserved":false,"is_disabled":false,"rental_uris":{"android":"levelo://app?vid=c82d4a65-c59d-49c1-b20d-aa0c90d8320e","ios":"levelo://app?vid=c82d4a65-c59d-49c1-b20d-aa0c90d8320e"},"vehicle_type_id":"4","last_reported":1692806900,"current_range_meters":12800,"station_id":"ce4bhq92rcd13ifvqhkg","pricing_plan_id":"free"},{"bike_id":"b523a7a8-614c-4d39-8f1b-fd5e354feb32","system_id":"levelo_inurba_marseille","lat":43.320045,"lon":5.415048,"is_reserved":false,"is_disabled":false,"rental_uris":{"android":"levelo://app?vid=b523a7a8-614c-4d39-8f1b-fd5e354feb32","ios":"levelo://app?vid=b523a7a8-614c-4d39-8f1b-fd5e354feb32"},"vehicle_type_id":"4","last_reported":1692806900,"current_range_meters":8000,"station_id":"ce4bhq92rcd13ifvqhkg","pricing_plan_id":"free"},{"bike_id":"35f67a6c-ea14-4757-8b08-9ca870c214d4","system_id":"levelo_inurba_marseille","lat":43.320045,"lon":5.415046,"is_reserved":false,"is_disabled":false,"rental_uris":{"android":"levelo://app?vid=35f67a6c-ea14-4757-8b08-9ca870c214d4","ios":"levelo://app?vid=35f67a6c-ea14-4757-8b08-9ca870c214d4"},"vehicle_type_id":"4","last_reported":1692806900,"current_range_meters":31200,"station_id":"ce4bhq92rcd13ifvqhkg","pricing_plan_id":"free"},{"bike_id":"583332fd-3e9f-4dd2-b94b-9678881493cf","system_id":"levelo_inurba_marseille","lat":43.32553,"lon":5.41433,"is_reserved":false,"is_disabled":false,"rental_uris":{"android":"levelo://app?vid=583332fd-3e9f-4dd2-b94b-9678881493cf","ios":"levelo://app?vid=583332fd-3e9f-4dd2-b94b-9678881493cf"},"vehicle_type_id":"4","last_reported":1692806900,"current_range_meters":22000,"station_id":"ce4bhq12rcd13ifvqhhg","pricing_plan_id":"free"},{"bike_id":"045850f6-c2c8-4cdc-a661-c08d43503440","system_id":"levelo_inurba_marseille","lat":43.27618,"lon":5.361009,"is_reserved":false,"is_disabled":false,"rental_uris":{"android":"levelo://app?vid=045850f6-c2c8-4cdc-a661-c08d43503440","ios":"levelo://app?vid=045850f6-c2c8-4cdc-a661-c08d43503440"},"vehicle_type_id":"4","last_reported":1692806900,"current_range_meters":31200,"station_id":"ce4bgj92rcd13ifvqbe0","pricing_plan_id":"free"},{"bike_id":"91bcd023-ed5f-4c9b-9a3e-0ddc21f39e52","system_id":"levelo_inurba_marseille","lat":43.32544,"lon":5.41439,"is_reserved":false,"is_disabled":false,"rental_uris":{"android":"levelo://app?vid=91bcd023-ed5f-4c9b-9a3e-0ddc21f39e52","ios":"levelo://app?vid=91bcd023-ed5f-4c9b-9a3e-0ddc21f39e52"},"vehicle_type_id":"4","last_reported":1692806900,"current_range_meters":30000,"station_id":"ce4bhq12rcd13ifvqhhg","pricing_plan_id":"free"},{"bike_id":"e1fcaa30-118e-4cb0-9744-aafde072f780","system_id":"levelo_inurba_marseille","lat":43.27617,"lon":5.36123,"is_reserved":false,"is_disabled":false,"rental_uris":{"android":"levelo://app?vid=e1fcaa30-118e-4cb0-9744-aafde072f780","ios":"levelo://app?vid=e1fcaa30-118e-4cb0-9744-aafde072f780"},"vehicle_type_id":"4","last_reported":1692806900,"current_range_meters":27600,"station_id":"ce4bgj92rcd13ifvqbe0","pricing_plan_id":"free"},{"bike_id":"71d67fb6-ced4-4fef-9336-3169371b42b2","system_id":"levelo_inurba_marseille","lat":43.27615,"lon":5.36106,"is_reserved":false,"is_disabled":false,"rental_uris":{"android":"levelo://app?vid=71d67fb6-ced4-4fef-9336-3169371b42b2","ios":"levelo://app?vid=71d67fb6-ced4-4fef-9336-3169371b42b2"},"vehicle_type_id":"4","last_reported":1692806900,"current_range_meters":20800,"station_id":"ce4bgj92rcd13ifvqbe0","pricing_plan_id":"free"},{"bike_id":"2dda6de4-c276-49e7-979c-f9a7bfa55536","system_id":"levelo_inurba_marseille","lat":43.280784,"lon":5.396622,"is_reserved":false,"is_disabled":false,"rental_uris":{"android":"levelo://app?vid=2dda6de4-c276-49e7-979c-f9a7bfa55536","ios":"levelo://app?vid=2dda6de4-c276-49e7-979c-f9a7bfa55536"},"vehicle_type_id":"4","last_reported":1692806900,"current_range_meters":0,"station_id":"ce4bho12rcd13ifvqh2g","pricing_plan_id":"free"},{"bike_id":"0674a6f6-a8fd-4b9c-a6de-be172390cfba","system_id":"levelo_inurba_marseille","lat":43.27844,"lon":5.39196,"is_reserved":false,"is_disabled":false,"rental_uris":{"android":"levelo://app?vid=0674a6f6-a8fd-4b9c-a6de-be172390cfba","ios":"levelo://app?vid=0674a6f6-a8fd-4b9c-a6de-be172390cfba"},"vehicle_type_id":"4","last_reported":1692806900,"current_range_meters":16800,"station_id":"ce4bhjp2rcd13ifvqga0","pricing_plan_id":"free"},{"bike_id":"2fbc9243-0878-407d-933f-1cabe4584f41","system_id":"levelo_inurba_marseille","lat":43.27835,"lon":5.39196,"is_reserved":false,"is_disabled":false,"rental_uris":{"android":"levelo://app?vid=2fbc9243-0878-407d-933f-1cabe4584f41","ios":"levelo://app?vid=2fbc9243-0878-407d-933f-1cabe4584f41"},"vehicle_type_id":"4","last_reported":1692806900,"current_range_meters":5600,"station_id":"ce4bhjp2rcd13ifvqga0","pricing_plan_id":"free"},{"bike_id":"244fc95e-7c76-4a62-97e2-5b4032ec3a3c","system_id":"levelo_inurba_marseille","lat":43.27838,"lon":5.39209,"is_reserved":false,"is_disabled":false,"rental_uris":{"android":"levelo://app?vid=244fc95e-7c76-4a62-97e2-5b4032ec3a3c","ios":"levelo://app?vid=244fc95e-7c76-4a62-97e2-5b4032ec3a3c"},"vehicle_type_id":"4","last_reported":1692806900,"current_range_meters":14800,"station_id":"ce4bhjp2rcd13ifvqga0","pricing_plan_id":"free"},{"bike_id":"74c3e239-2c36-4bad-8163-5ff81df46de3","system_id":"levelo_inurba_marseille","lat":43.27831,"lon":5.39205,"is_reserved":false,"is_disabled":false,"rental_uris":{"android":"levelo://app?vid=74c3e239-2c36-4bad-8163-5ff81df46de3","ios":"levelo://app?vid=74c3e239-2c36-4bad-8163-5ff81df46de3"},"vehicle_type_id":"4","last_reported":1692806900,"current_range_meters":15600,"station_id":"ce4bhjp2rcd13ifvqga0","pricing_plan_id":"free"},{"bike_id":"7435dc6b-d8fd-4eea-bfd7-1653a188c663","system_id":"levelo_inurba_marseille","lat":43.27385,"lon":5.36249,"is_reserved":false,"is_disabled":false,"rental_uris":{"android":"levelo://app?vid=7435dc6b-d8fd-4eea-bfd7-1653a188c663","ios":"levelo://app?vid=7435dc6b-d8fd-4eea-bfd7-1653a188c663"},"vehicle_type_id":"4","last_reported":1692806900,"current_range_meters":29200,"station_id":"ce4bhbh2rcd13ifvqeo0","pricing_plan_id":"free"},{"bike_id":"51f0bd0d-fc09-4b14-882d-402aab5943a0","system_id":"levelo_inurba_marseille","lat":43.27383,"lon":5.36263,"is_reserved":false,"is_disabled":false,"rental_uris":{"android":"levelo://app?vid=51f0bd0d-fc09-4b14-882d-402aab5943a0","ios":"levelo://app?vid=51f0bd0d-fc09-4b14-882d-402aab5943a0"},"vehicle_type_id":"4","last_reported":1692806900,"current_range_meters":1200,"station_id":"ce4bhbh2rcd13ifvqeo0","pricing_plan_id":"free"},{"bike_id":"9143ffdd-c1f4-40a9-b6ed-5e4de3132e83","system_id":"levelo_inurba_marseille","lat":43.27382,"lon":5.36249,"is_reserved":false,"is_disabled":false,"rental_uris":{"android":"levelo://app?vid=9143ffdd-c1f4-40a9-b6ed-5e4de3132e83","ios":"levelo://app?vid=9143ffdd-c1f4-40a9-b6ed-5e4de3132e83"},"vehicle_type_id":"4","last_reported":1692806900,"current_range_meters":18800,"station_id":"ce4bhbh2rcd13ifvqeo0","pricing_plan_id":"free"},{"bike_id":"f47efe41-01fc-441f-bbb5-1e0ce4ffe13a","system_id":"levelo_inurba_marseille","lat":43.2738,"lon":5.36271,"is_reserved":false,"is_disabled":false,"rental_uris":{"android":"levelo://app?vid=f47efe41-01fc-441f-bbb5-1e0ce4ffe13a","ios":"levelo://app?vid=f47efe41-01fc-441f-bbb5-1e0ce4ffe13a"},"vehicle_type_id":"4","last_reported":1692806900,"current_range_meters":12400,"station_id":"ce4bhbh2rcd13ifvqeo0","pricing_plan_id":"free"},{"bike_id":"84f9039e-7b90-40dc-bd86-c120fd1a1055","system_id":"levelo_inurba_marseille","lat":43.273613,"lon":5.362705,"is_reserved":false,"is_disabled":false,"rental_uris":{"android":"levelo://app?vid=84f9039e-7b90-40dc-bd86-c120fd1a1055","ios":"levelo://app?vid=84f9039e-7b90-40dc-bd86-c120fd1a1055"},"vehicle_type_id":"4","last_reported":1692806900,"current_range_meters":4000,"station_id":"ce4bhbh2rcd13ifvqeo0","pricing_plan_id":"free"},{"bike_id":"be5c2a62-c135-4f30-9622-5ede996f92cd","system_id":"levelo_inurba_marseille","lat":43.273613,"lon":5.362705,"is_reserved":false,"is_disabled":false,"rental_uris":{"android":"levelo://app?vid=be5c2a62-c135-4f30-9622-5ede996f92cd","ios":"levelo://app?vid=be5c2a62-c135-4f30-9622-5ede996f92cd"},"vehicle_type_id":"4","last_reported":1692806900,"current_range_meters":22000,"station_id":"ce4bhbh2rcd13ifvqeo0","pricing_plan_id":"free"},{"bike_id":"0d40f31a-9c90-4def-8ed0-5d6ade35717a","system_id":"levelo_inurba_marseille","lat":43.273613,"lon":5.362705,"is_reserved":false,"is_disabled":false,"rental_uris":{"android":"levelo://app?vid=0d40f31a-9c90-4def-8ed0-5d6ade35717a","ios":"levelo://app?vid=0d40f31a-9c90-4def-8ed0-5d6ade35717a"},"vehicle_type_id":"4","last_reported":1692806900,"current_range_meters":23600,"station_id":"ce4bhbh2rcd13ifvqeo0","pricing_plan_id":"free"},{"bike_id":"faccabb7-5259-4a63-b8fd-668038163ce5","system_id":"levelo_inurba_marseille","lat":43.27378,"lon":5.36257,"is_reserved":false,"is_disabled":false,"rental_uris":{"android":"levelo://app?vid=faccabb7-5259-4a63-b8fd-668038163ce5","ios":"levelo://app?vid=faccabb7-5259-4a63-b8fd-668038163ce5"},"vehicle_type_id":"4","last_reported":1692806900,"current_range_meters":31200,"station_id":"ce4bhbh2rcd13ifvqeo0","pricing_plan_id":"free"},{"bike_id":"c7f09c85-f43f-439f-a990-ecf06164ad87","system_id":"levelo_inurba_marseille","lat":43.273613,"lon":5.362705,"is_reserved":false,"is_disabled":false,"rental_uris":{"android":"levelo://app?vid=c7f09c85-f43f-439f-a990-ecf06164ad87","ios":"levelo://app?vid=c7f09c85-f43f-439f-a990-ecf06164ad87"},"vehicle_type_id":"4","last_reported":1692806900,"current_range_meters":31200,"station_id":"ce4bhbh2rcd13ifvqeo0","pricing_plan_id":"free"},{"bike_id":"14350f0c-21d0-4964-b7f8-81fb85ad7ea0","system_id":"levelo_inurba_marseille","lat":43.27378,"lon":5.36255,"is_reserved":false,"is_disabled":false,"rental_uris":{"android":"levelo://app?vid=14350f0c-21d0-4964-b7f8-81fb85ad7ea0","ios":"levelo://app?vid=14350f0c-21d0-4964-b7f8-81fb85ad7ea0"},"vehicle_type_id":"4","last_reported":1692806900,"current_range_meters":8400,"station_id":"ce4bhbh2rcd13ifvqeo0","pricing_plan_id":"free"},{"bike_id":"15da2705-a676-402c-aac0-c6a5fe536b98","system_id":"levelo_inurba_marseille","lat":43.27377,"lon":5.36256,"is_reserved":false,"is_disabled":false,"rental_uris":{"android":"levelo://app?vid=15da2705-a676-402c-aac0-c6a5fe536b98","ios":"levelo://app?vid=15da2705-a676-402c-aac0-c6a5fe536b98"},"vehicle_type_id":"4","last_reported":1692806900,"current_range_meters":17600,"station_id":"ce4bhbh2rcd13ifvqeo0","pricing_plan_id":"free"},{"bike_id":"d1c1368c-be2c-42dd-9362-d1730a2a133b","system_id":"levelo_inurba_marseille","lat":43.273613,"lon":5.362705,"is_reserved":false,"is_disabled":false,"rental_uris":{"android":"levelo://app?vid=d1c1368c-be2c-42dd-9362-d1730a2a133b","ios":"levelo://app?vid=d1c1368c-be2c-42dd-9362-d1730a2a133b"},"vehicle_type_id":"4","last_reported":1692806900,"current_range_meters":5200,"station_id":"ce4bhbh2rcd13ifvqeo0","pricing_plan_id":"free"},{"bike_id":"bb9c3961-4d1d-4483-8ec6-c5657c2353cc","system_id":"levelo_inurba_marseille","lat":43.273609,"lon":5.362708,"is_reserved":false,"is_disabled":false,"rental_uris":{"android":"levelo://app?vid=bb9c3961-4d1d-4483-8ec6-c5657c2353cc","ios":"levelo://app?vid=bb9c3961-4d1d-4483-8ec6-c5657c2353cc"},"vehicle_type_id":"4","last_reported":1692806900,"current_range_meters":31200,"station_id":"ce4bhbh2rcd13ifvqeo0","pricing_plan_id":"free"},{"bike_id":"e04e57fe-e902-49bf-813e-9c1b478c53d3","system_id":"levelo_inurba_marseille","lat":43.273613,"lon":5.362705,"is_reserved":false,"is_disabled":false,"rental_uris":{"android":"levelo://app?vid=e04e57fe-e902-49bf-813e-9c1b478c53d3","ios":"levelo://app?vid=e04e57fe-e902-49bf-813e-9c1b478c53d3"},"vehicle_type_id":"4","last_reported":1692806900,"current_range_meters":16000,"station_id":"ce4bhbh2rcd13ifvqeo0","pricing_plan_id":"free"},{"bike_id":"a8effd03-d396-44e7-9fb8-9ea96c9bb95c","system_id":"levelo_inurba_marseille","lat":43.273609,"lon":5.362708,"is_reserved":false,"is_disabled":false,"rental_uris":{"android":"levelo://app?vid=a8effd03-d396-44e7-9fb8-9ea96c9bb95c","ios":"levelo://app?vid=a8effd03-d396-44e7-9fb8-9ea96c9bb95c"},"vehicle_type_id":"4","last_reported":1692806900,"current_range_meters":31200,"station_id":"ce4bhbh2rcd13ifvqeo0","pricing_plan_id":"free"},{"bike_id":"04fcafce-9c5b-4eb9-b0da-724404ffaff7","system_id":"levelo_inurba_marseille","lat":43.273613,"lon":5.362705,"is_reserved":false,"is_disabled":false,"rental_uris":{"android":"levelo://app?vid=04fcafce-9c5b-4eb9-b0da-724404ffaff7","ios":"levelo://app?vid=04fcafce-9c5b-4eb9-b0da-724404ffaff7"},"vehicle_type_id":"4","last_reported":1692806900,"current_range_meters":21600,"station_id":"ce4bhbh2rcd13ifvqeo0","pricing_plan_id":"free"},{"bike_id":"c30d0f86-7231-49dd-851a-42c177328daa","system_id":"levelo_inurba_marseille","lat":43.273613,"lon":5.362705,"is_reserved":false,"is_disabled":false,"rental_uris":{"android":"levelo://app?vid=c30d0f86-7231-49dd-851a-42c177328daa","ios":"levelo://app?vid=c30d0f86-7231-49dd-851a-42c177328daa"},"vehicle_type_id":"4","last_reported":1692806900,"current_range_meters":24000,"station_id":"ce4bhbh2rcd13ifvqeo0","pricing_plan_id":"free"},{"bike_id":"9f5da2e2-c719-4733-bdcf-d99b78513745","system_id":"levelo_inurba_marseille","lat":43.273613,"lon":5.362705,"is_reserved":false,"is_disabled":false,"rental_uris":{"android":"levelo://app?vid=9f5da2e2-c719-4733-bdcf-d99b78513745","ios":"levelo://app?vid=9f5da2e2-c719-4733-bdcf-d99b78513745"},"vehicle_type_id":"4","last_reported":1692806900,"current_range_meters":31200,"station_id":"ce4bhbh2rcd13ifvqeo0","pricing_plan_id":"free"},{"bike_id":"14bfb947-c88b-4340-b440-565cc4541e11","system_id":"levelo_inurba_marseille","lat":43.275625,"lon":5.384392,"is_reserved":false,"is_disabled":false,"rental_uris":{"android":"levelo://app?vid=14bfb947-c88b-4340-b440-565cc4541e11","ios":"levelo://app?vid=14bfb947-c88b-4340-b440-565cc4541e11"},"vehicle_type_id":"4","last_reported":1692806900,"current_range_meters":9200,"station_id":"ce4bhh92rcd13ifvqfi0","pricing_plan_id":"free"},{"bike_id":"13c7d405-7f1b-4ce4-976a-923da53bf372","system_id":"levelo_inurba_marseille","lat":43.273613,"lon":5.362705,"is_reserved":false,"is_disabled":false,"rental_uris":{"android":"levelo://app?vid=13c7d405-7f1b-4ce4-976a-923da53bf372","ios":"levelo://app?vid=13c7d405-7f1b-4ce4-976a-923da53bf372"},"vehicle_type_id":"4","last_reported":1692806900,"current_range_meters":27600,"station_id":"ce4bhbh2rcd13ifvqeo0","pricing_plan_id":"free"},{"bike_id":"2f2cf754-4a6e-49e8-b018-938d1b758ae4","system_id":"levelo_inurba_marseille","lat":43.273609,"lon":5.362708,"is_reserved":false,"is_disabled":false,"rental_uris":{"android":"levelo://app?vid=2f2cf754-4a6e-49e8-b018-938d1b758ae4","ios":"levelo://app?vid=2f2cf754-4a6e-49e8-b018-938d1b758ae4"},"vehicle_type_id":"4","last_reported":1692806900,"current_range_meters":31200,"station_id":"ce4bhbh2rcd13ifvqeo0","pricing_plan_id":"free"},{"bike_id":"85965bc5-f192-484e-b148-cdd2bb4b3a14","system_id":"levelo_inurba_marseille","lat":43.273609,"lon":5.362708,"is_reserved":false,"is_disabled":false,"rental_uris":{"android":"levelo://app?vid=85965bc5-f192-484e-b148-cdd2bb4b3a14","ios":"levelo://app?vid=85965bc5-f192-484e-b148-cdd2bb4b3a14"},"vehicle_type_id":"4","last_reported":1692806900,"current_range_meters":30000,"station_id":"ce4bhbh2rcd13ifvqeo0","pricing_plan_id":"free"},{"bike_id":"96adaaa3-9a15-43fc-91e4-a0710fd4659c","system_id":"levelo_inurba_marseille","lat":43.33612,"lon":5.410321,"is_reserved":false,"is_disabled":false,"rental_uris":{"android":"levelo://app?vid=96adaaa3-9a15-43fc-91e4-a0710fd4659c","ios":"levelo://app?vid=96adaaa3-9a15-43fc-91e4-a0710fd4659c"},"vehicle_type_id":"4","last_reported":1692806900,"current_range_meters":28000,"station_id":"ce4bhqh2rcd13ifvqhmg","pricing_plan_id":"free"},{"bike_id":"c9151984-89c0-41e3-81fa-4c2ff4274775","system_id":"levelo_inurba_marseille","lat":43.33612,"lon":5.410321,"is_reserved":false,"is_disabled":false,"rental_uris":{"android":"levelo://app?vid=c9151984-89c0-41e3-81fa-4c2ff4274775","ios":"levelo://app?vid=c9151984-89c0-41e3-81fa-4c2ff4274775"},"vehicle_type_id":"4","last_reported":1692806900,"current_range_meters":31200,"station_id":"ce4bhqh2rcd13ifvqhmg","pricing_plan_id":"free"},{"bike_id":"9278726e-fbb6-4d1c-afd8-9bbbcc5e3810","system_id":"levelo_inurba_marseille","lat":43.33609,"lon":5.41024,"is_reserved":false,"is_disabled":false,"rental_uris":{"android":"levelo://app?vid=9278726e-fbb6-4d1c-afd8-9bbbcc5e3810","ios":"levelo://app?vid=9278726e-fbb6-4d1c-afd8-9bbbcc5e3810"},"vehicle_type_id":"4","last_reported":1692806900,"current_range_meters":18400,"station_id":"ce4bhqh2rcd13ifvqhmg","pricing_plan_id":"free"},{"bike_id":"03308133-b1eb-4fc0-94db-25e05c589fc0","system_id":"levelo_inurba_marseille","lat":43.336134,"lon":5.410341,"is_reserved":false,"is_disabled":false,"rental_uris":{"android":"levelo://app?vid=03308133-b1eb-4fc0-94db-25e05c589fc0","ios":"levelo://app?vid=03308133-b1eb-4fc0-94db-25e05c589fc0"},"vehicle_type_id":"4","last_reported":1692806900,"current_range_meters":25200,"station_id":"ce4bhqh2rcd13ifvqhmg","pricing_plan_id":"free"},{"bike_id":"072c5e51-a9da-4540-9dd6-13dec6d29972","system_id":"levelo_inurba_marseille","lat":43.33612,"lon":5.410321,"is_reserved":false,"is_disabled":false,"rental_uris":{"android":"levelo://app?vid=072c5e51-a9da-4540-9dd6-13dec6d29972","ios":"levelo://app?vid=072c5e51-a9da-4540-9dd6-13dec6d29972"},"vehicle_type_id":"4","last_reported":1692806900,"current_range_meters":31200,"station_id":"ce4bhqh2rcd13ifvqhmg","pricing_plan_id":"free"},{"bike_id":"b7fb383e-afaf-4474-b252-33ca9e2b8fcb","system_id":"levelo_inurba_marseille","lat":43.336134,"lon":5.410341,"is_reserved":false,"is_disabled":false,"rental_uris":{"android":"levelo://app?vid=b7fb383e-afaf-4474-b252-33ca9e2b8fcb","ios":"levelo://app?vid=b7fb383e-afaf-4474-b252-33ca9e2b8fcb"},"vehicle_type_id":"4","last_reported":1692806900,"current_range_meters":20000,"station_id":"ce4bhqh2rcd13ifvqhmg","pricing_plan_id":"free"},{"bike_id":"f5393c1d-9aa0-4e0e-9633-17c60c2e872c","system_id":"levelo_inurba_marseille","lat":43.336134,"lon":5.410341,"is_reserved":false,"is_disabled":false,"rental_uris":{"android":"levelo://app?vid=f5393c1d-9aa0-4e0e-9633-17c60c2e872c","ios":"levelo://app?vid=f5393c1d-9aa0-4e0e-9633-17c60c2e872c"},"vehicle_type_id":"4","last_reported":1692806900,"current_range_meters":25600,"station_id":"ce4bhqh2rcd13ifvqhmg","pricing_plan_id":"free"},{"bike_id":"f55de9bf-ccfd-4900-b18d-eab08d7a15f0","system_id":"levelo_inurba_marseille","lat":43.33612,"lon":5.410321,"is_reserved":false,"is_disabled":false,"rental_uris":{"android":"levelo://app?vid=f55de9bf-ccfd-4900-b18d-eab08d7a15f0","ios":"levelo://app?vid=f55de9bf-ccfd-4900-b18d-eab08d7a15f0"},"vehicle_type_id":"4","last_reported":1692806900,"current_range_meters":31200,"station_id":"ce4bhqh2rcd13ifvqhmg","pricing_plan_id":"free"},{"bike_id":"9b3ac32f-e835-40eb-a2da-b8cbeafa49bc","system_id":"levelo_inurba_marseille","lat":43.336134,"lon":5.410341,"is_reserved":false,"is_disabled":false,"rental_uris":{"android":"levelo://app?vid=9b3ac32f-e835-40eb-a2da-b8cbeafa49bc","ios":"levelo://app?vid=9b3ac32f-e835-40eb-a2da-b8cbeafa49bc"},"vehicle_type_id":"4","last_reported":1692806900,"current_range_meters":30000,"station_id":"ce4bhqh2rcd13ifvqhmg","pricing_plan_id":"free"},{"bike_id":"acedd96b-7758-441b-9f4d-e6f090178a13","system_id":"levelo_inurba_marseille","lat":43.336134,"lon":5.410341,"is_reserved":false,"is_disabled":false,"rental_uris":{"android":"levelo://app?vid=acedd96b-7758-441b-9f4d-e6f090178a13","ios":"levelo://app?vid=acedd96b-7758-441b-9f4d-e6f090178a13"},"vehicle_type_id":"4","last_reported":1692806900,"current_range_meters":16400,"station_id":"ce4bhqh2rcd13ifvqhmg","pricing_plan_id":"free"},{"bike_id":"42dfb555-3382-40ab-aaee-5c485efea39a","system_id":"levelo_inurba_marseille","lat":43.336134,"lon":5.410341,"is_reserved":false,"is_disabled":false,"rental_uris":{"android":"levelo://app?vid=42dfb555-3382-40ab-aaee-5c485efea39a","ios":"levelo://app?vid=42dfb555-3382-40ab-aaee-5c485efea39a"},"vehicle_type_id":"4","last_reported":1692806900,"current_range_meters":31200,"station_id":"ce4bhqh2rcd13ifvqhmg","pricing_plan_id":"free"},{"bike_id":"a18dbc8f-e4eb-472a-8f66-b908f86177bb","system_id":"levelo_inurba_marseille","lat":43.336134,"lon":5.410341,"is_reserved":false,"is_disabled":false,"rental_uris":{"android":"levelo://app?vid=a18dbc8f-e4eb-472a-8f66-b908f86177bb","ios":"levelo://app?vid=a18dbc8f-e4eb-472a-8f66-b908f86177bb"},"vehicle_type_id":"4","last_reported":1692806900,"current_range_meters":26000,"station_id":"ce4bhqh2rcd13ifvqhmg","pricing_plan_id":"free"},{"bike_id":"31360179-4419-497e-a3f9-822207f2dc49","system_id":"levelo_inurba_marseille","lat":43.33612,"lon":5.410321,"is_reserved":false,"is_disabled":false,"rental_uris":{"android":"levelo://app?vid=31360179-4419-497e-a3f9-822207f2dc49","ios":"levelo://app?vid=31360179-4419-497e-a3f9-822207f2dc49"},"vehicle_type_id":"4","last_reported":1692806900,"current_range_meters":14000,"station_id":"ce4bhqh2rcd13ifvqhmg","pricing_plan_id":"free"},{"bike_id":"2c002134-e4d2-41d1-b436-28e8e2ea24ca","system_id":"levelo_inurba_marseille","lat":43.276771,"lon":5.388799,"is_reserved":false,"is_disabled":false,"rental_uris":{"android":"levelo://app?vid=2c002134-e4d2-41d1-b436-28e8e2ea24ca","ios":"levelo://app?vid=2c002134-e4d2-41d1-b436-28e8e2ea24ca"},"vehicle_type_id":"4","last_reported":1692806900,"current_range_meters":28800,"station_id":"ce4bhi12rcd13ifvqfo0","pricing_plan_id":"free"},{"bike_id":"d53415c5-c8a5-4594-9a0d-79106882a428","system_id":"levelo_inurba_marseille","lat":43.27778,"lon":5.39952,"is_reserved":false,"is_disabled":false,"rental_uris":{"android":"levelo://app?vid=d53415c5-c8a5-4594-9a0d-79106882a428","ios":"levelo://app?vid=d53415c5-c8a5-4594-9a0d-79106882a428"},"vehicle_type_id":"4","last_reported":1692806900,"current_range_meters":25200,"station_id":"","pricing_plan_id":"free"},{"bike_id":"b031d409-17a7-4ca3-b015-ae3dc75956df","system_id":"levelo_inurba_marseille","lat":43.27312,"lon":5.39061,"is_reserved":false,"is_disabled":false,"rental_uris":{"android":"levelo://app?vid=b031d409-17a7-4ca3-b015-ae3dc75956df","ios":"levelo://app?vid=b031d409-17a7-4ca3-b015-ae3dc75956df"},"vehicle_type_id":"4","last_reported":1692806900,"current_range_meters":8800,"station_id":"","pricing_plan_id":"free"},{"bike_id":"90beefdd-2121-44f9-8f44-532d5a69f030","system_id":"levelo_inurba_marseille","lat":43.274099,"lon":5.394019,"is_reserved":false,"is_disabled":false,"rental_uris":{"android":"levelo://app?vid=90beefdd-2121-44f9-8f44-532d5a69f030","ios":"levelo://app?vid=90beefdd-2121-44f9-8f44-532d5a69f030"},"vehicle_type_id":"4","last_reported":1692806900,"current_range_meters":7200,"station_id":"ce4bhdp2rcd13ifvqf20","pricing_plan_id":"free"},{"bike_id":"9e3092de-cb30-4c97-96a4-c26552645611","system_id":"levelo_inurba_marseille","lat":43.295511,"lon":5.422926,"is_reserved":false,"is_disabled":false,"rental_uris":{"android":"levelo://app?vid=9e3092de-cb30-4c97-96a4-c26552645611","ios":"levelo://app?vid=9e3092de-cb30-4c97-96a4-c26552645611"},"vehicle_type_id":"4","last_reported":1692806900,"current_range_meters":21200,"station_id":"ce4bhph2rcd13ifvqhdg","pricing_plan_id":"free"},{"bike_id":"5c5d9781-5a0f-4c4a-a037-96bcf432fc75","system_id":"levelo_inurba_marseille","lat":43.295511,"lon":5.422926,"is_reserved":false,"is_disabled":false,"rental_uris":{"android":"levelo://app?vid=5c5d9781-5a0f-4c4a-a037-96bcf432fc75","ios":"levelo://app?vid=5c5d9781-5a0f-4c4a-a037-96bcf432fc75"},"vehicle_type_id":"4","last_reported":1692806900,"current_range_meters":12000,"station_id":"ce4bhph2rcd13ifvqhdg","pricing_plan_id":"free"},{"bike_id":"11a1e1fa-cdf7-48b4-a709-6540ee9c9d8c","system_id":"levelo_inurba_marseille","lat":43.278128,"lon":5.407195,"is_reserved":false,"is_disabled":false,"rental_uris":{"android":"levelo://app?vid=11a1e1fa-cdf7-48b4-a709-6540ee9c9d8c","ios":"levelo://app?vid=11a1e1fa-cdf7-48b4-a709-6540ee9c9d8c"},"vehicle_type_id":"4","last_reported":1692806900,"current_range_meters":19200,"station_id":"ce4bhnh2rcd13ifvqgtg","pricing_plan_id":"free"},{"bike_id":"42a211fa-9ea7-4852-871a-8e5cbf995705","system_id":"levelo_inurba_marseille","lat":43.27946,"lon":5.41047,"is_reserved":false,"is_disabled":false,"rental_uris":{"android":"levelo://app?vid=42a211fa-9ea7-4852-871a-8e5cbf995705","ios":"levelo://app?vid=42a211fa-9ea7-4852-871a-8e5cbf995705"},"vehicle_type_id":"4","last_reported":1692806900,"current_range_meters":0,"station_id":"ce4bhnp2rcd13ifvqh0g","pricing_plan_id":"free"},{"bike_id":"bbe59809-a5e2-4e55-bb53-dff283073c42","system_id":"levelo_inurba_marseille","lat":43.279465,"lon":5.410561,"is_reserved":false,"is_disabled":false,"rental_uris":{"android":"levelo://app?vid=bbe59809-a5e2-4e55-bb53-dff283073c42","ios":"levelo://app?vid=bbe59809-a5e2-4e55-bb53-dff283073c42"},"vehicle_type_id":"4","last_reported":1692806900,"current_range_meters":12400,"station_id":"ce4bhnp2rcd13ifvqh0g","pricing_plan_id":"free"},{"bike_id":"fcf3fb74-f9df-4973-966d-04b99df65790","system_id":"levelo_inurba_marseille","lat":43.26934,"lon":5.38921,"is_reserved":false,"is_disabled":false,"rental_uris":{"android":"levelo://app?vid=fcf3fb74-f9df-4973-966d-04b99df65790","ios":"levelo://app?vid=fcf3fb74-f9df-4973-966d-04b99df65790"},"vehicle_type_id":"4","last_reported":1692806900,"current_range_meters":22800,"station_id":"ce4bhhh2rcd13ifvqfl0","pricing_plan_id":"free"},{"bike_id":"6db092db-36a6-47b1-a718-426f0b4a6cfd","system_id":"levelo_inurba_marseille","lat":43.269319,"lon":5.389397,"is_reserved":false,"is_disabled":false,"rental_uris":{"android":"levelo://app?vid=6db092db-36a6-47b1-a718-426f0b4a6cfd","ios":"levelo://app?vid=6db092db-36a6-47b1-a718-426f0b4a6cfd"},"vehicle_type_id":"4","last_reported":1692806900,"current_range_meters":19600,"station_id":"ce4bhhh2rcd13ifvqfl0","pricing_plan_id":"free"},{"bike_id":"7bdd046d-aff9-4606-849e-4bbcdbc35203","system_id":"levelo_inurba_marseille","lat":43.269319,"lon":5.389397,"is_reserved":false,"is_disabled":false,"rental_uris":{"android":"levelo://app?vid=7bdd046d-aff9-4606-849e-4bbcdbc35203","ios":"levelo://app?vid=7bdd046d-aff9-4606-849e-4bbcdbc35203"},"vehicle_type_id":"4","last_reported":1692806900,"current_range_meters":1200,"station_id":"ce4bhhh2rcd13ifvqfl0","pricing_plan_id":"free"},{"bike_id":"78053fde-00e2-4d75-afcb-7ef9f514fd54","system_id":"levelo_inurba_marseille","lat":43.269319,"lon":5.389397,"is_reserved":false,"is_disabled":false,"rental_uris":{"android":"levelo://app?vid=78053fde-00e2-4d75-afcb-7ef9f514fd54","ios":"levelo://app?vid=78053fde-00e2-4d75-afcb-7ef9f514fd54"},"vehicle_type_id":"4","last_reported":1692806900,"current_range_meters":6800,"station_id":"ce4bhhh2rcd13ifvqfl0","pricing_plan_id":"free"},{"bike_id":"398a72bd-275a-4bb4-ac4c-4a5de7a6293d","system_id":"levelo_inurba_marseille","lat":43.269319,"lon":5.389397,"is_reserved":false,"is_disabled":false,"rental_uris":{"android":"levelo://app?vid=398a72bd-275a-4bb4-ac4c-4a5de7a6293d","ios":"levelo://app?vid=398a72bd-275a-4bb4-ac4c-4a5de7a6293d"},"vehicle_type_id":"4","last_reported":1692806900,"current_range_meters":0,"station_id":"ce4bhhh2rcd13ifvqfl0","pricing_plan_id":"free"},{"bike_id":"7b05505e-647a-47d5-9861-ca5eaed1f01d","system_id":"levelo_inurba_marseille","lat":43.26689,"lon":5.38274,"is_reserved":false,"is_disabled":false,"rental_uris":{"android":"levelo://app?vid=7b05505e-647a-47d5-9861-ca5eaed1f01d","ios":"levelo://app?vid=7b05505e-647a-47d5-9861-ca5eaed1f01d"},"vehicle_type_id":"4","last_reported":1692806900,"current_range_meters":1600,"station_id":"ce4bhg92rcd13ifvqf90","pricing_plan_id":"free"},{"bike_id":"ece56900-7537-4882-8912-4d298322f983","system_id":"levelo_inurba_marseille","lat":43.26681,"lon":5.382694,"is_reserved":false,"is_disabled":false,"rental_uris":{"android":"levelo://app?vid=ece56900-7537-4882-8912-4d298322f983","ios":"levelo://app?vid=ece56900-7537-4882-8912-4d298322f983"},"vehicle_type_id":"4","last_reported":1692806900,"current_range_meters":31600,"station_id":"ce4bhg92rcd13ifvqf90","pricing_plan_id":"free"},{"bike_id":"0ce71ddc-37ff-42e8-a126-a91458b8b733","system_id":"levelo_inurba_marseille","lat":43.26681,"lon":5.382694,"is_reserved":false,"is_disabled":false,"rental_uris":{"android":"levelo://app?vid=0ce71ddc-37ff-42e8-a126-a91458b8b733","ios":"levelo://app?vid=0ce71ddc-37ff-42e8-a126-a91458b8b733"},"vehicle_type_id":"4","last_reported":1692806900,"current_range_meters":11200,"station_id":"ce4bhg92rcd13ifvqf90","pricing_plan_id":"free"},{"bike_id":"b75f8042-09a9-44ee-9a31-4064fbf3b4e9","system_id":"levelo_inurba_marseille","lat":43.26681,"lon":5.382694,"is_reserved":false,"is_disabled":false,"rental_uris":{"android":"levelo://app?vid=b75f8042-09a9-44ee-9a31-4064fbf3b4e9","ios":"levelo://app?vid=b75f8042-09a9-44ee-9a31-4064fbf3b4e9"},"vehicle_type_id":"4","last_reported":1692806900,"current_range_meters":24000,"station_id":"ce4bhg92rcd13ifvqf90","pricing_plan_id":"free"},{"bike_id":"1515b2ef-e0f8-40f7-8cc2-882aa99d7664","system_id":"levelo_inurba_marseille","lat":43.26681,"lon":5.382694,"is_reserved":false,"is_disabled":false,"rental_uris":{"android":"levelo://app?vid=1515b2ef-e0f8-40f7-8cc2-882aa99d7664","ios":"levelo://app?vid=1515b2ef-e0f8-40f7-8cc2-882aa99d7664"},"vehicle_type_id":"4","last_reported":1692806900,"current_range_meters":12800,"station_id":"ce4bhg92rcd13ifvqf90","pricing_plan_id":"free"},{"bike_id":"6e3ab586-a51c-4e6f-80fa-0b2ff07afb5e","system_id":"levelo_inurba_marseille","lat":43.2709,"lon":5.40031,"is_reserved":false,"is_disabled":false,"rental_uris":{"android":"levelo://app?vid=6e3ab586-a51c-4e6f-80fa-0b2ff07afb5e","ios":"levelo://app?vid=6e3ab586-a51c-4e6f-80fa-0b2ff07afb5e"},"vehicle_type_id":"4","last_reported":1692806900,"current_range_meters":18400,"station_id":"","pricing_plan_id":"free"},{"bike_id":"1e66fc15-b5e2-481e-9298-ea920f992a4c","system_id":"levelo_inurba_marseille","lat":43.27993,"lon":5.41664,"is_reserved":false,"is_disabled":false,"rental_uris":{"android":"levelo://app?vid=1e66fc15-b5e2-481e-9298-ea920f992a4c","ios":"levelo://app?vid=1e66fc15-b5e2-481e-9298-ea920f992a4c"},"vehicle_type_id":"4","last_reported":1692806900,"current_range_meters":14400,"station_id":"ce4bho12rcd13ifvqh1g","pricing_plan_id":"free"},{"bike_id":"8be56ac7-ada7-44f6-9946-62cc68c8343c","system_id":"levelo_inurba_marseille","lat":43.262,"lon":5.37438,"is_reserved":false,"is_disabled":false,"rental_uris":{"android":"levelo://app?vid=8be56ac7-ada7-44f6-9946-62cc68c8343c","ios":"levelo://app?vid=8be56ac7-ada7-44f6-9946-62cc68c8343c"},"vehicle_type_id":"4","last_reported":1692806900,"current_range_meters":4000,"station_id":"","pricing_plan_id":"free"},