{"last_updated":1730812605,"ttl":60,"version":"2.2","data":{"bikes":[{"bike_id":"6bfde551-d017-47aa-9e48-b6668d378cc8","system_id":"levelo_inurba_marseille","lat":43.341375,"lon":5.40909,"is_reserved":false,"is_disabled":false,"rental_uris":{"android":"levelo://app?vid=6bfde551-d017-47aa-9e48-b6668d378cc8","ios":"levelo://app?vid=6bfde551-d017-47aa-9e48-b6668d378cc8"},"vehicle_type_id":"4","last_reported":1730812605,"current_range_meters":17200,"station_id":"ce4bhqh2rcd13ifvqhlg","pricing_plan_id":"cebpf4jnsgd1na2vs0mg"},{"bike_id":"14c797e5-2a2f-4c7a-8f33-d4c0c39c0a1f","system_id":"levelo_inurba_marseille","lat":43.28613,"lon":5.35099,"is_reserved":false,"is_disabled":false,"rental_uris":{"android":"levelo://app?vid=14c797e5-2a2f-4c7a-8f33-d4c0c39c0a1f","ios":"levelo://app?vid=14c797e5-2a2f-4c7a-8f33-d4c0c39c0a1f"},"vehicle_type_id":"4","last_reported":1730812605,"current_range_meters":36400,"station_id":"ce4bhch2rcd13ifvqeug","pricing_plan_id":"cebpf4jnsgd1na2vs0mg"},{"bike_id":"481943d8-728f-424e-9f8c-0e68a1156393","system_id":"levelo_inurba_marseille","lat":43.28347,"lon":5.38114,"is_reserved":false,"is_disabled":false,"rental_uris":{"android":"levelo://app?vid=481943d8-728f-424e-9f8c-0e68a1156393","ios":"levelo://app?vid=481943d8-728f-424e-9f8c-0e68a1156393"},"vehicle_type_id":"4","last_reported":1730812605,"current_range_meters":11200,"station_id":"ce4bh412rcd13ifvqdr0","pricing_plan_id":"cebpf4jnsgd1na2vs0mg"},{"bike_id":"e922e259-d2df-48c9-bc0c-c482eab01fa2","system_id":"levelo_inurba_marseille","lat":43.29373,"lon":5.37859,"is_reserved":false,"is_disabled":false,"rental_uris":{"android":"levelo://app?vid=e922e259-d2df-48c9-bc0c-c482eab01fa2","ios":"levelo://app?vid=e922e259-d2df-48c9-bc0c-c482eab01fa2"},"vehicle_type_id":"4","last_reported":1730812605,"current_range_meters":37600,"station_id":"ce4bgjh2rcd13ifvqbf0","pricing_plan_id":"cebpf4jnsgd1na2vs0mg"},{"bike_id":"3675d184-4550-4970-9661-d3d7f50009e5","system_id":"levelo_inurba_marseille","lat":43.31359,"lon":5.3669,"is_reserved":false,"is_disabled":false,"rental_uris":{"android":"levelo://app?vid=3675d184-4550-4970-9661-d3d7f50009e5","ios":"levelo://app?vid=3675d184-4550-4970-9661-d3d7f50009e5"},"vehicle_type_id":"4","last_reported":1730812605,"current_range_meters":22400,"station_id":"ce4bgr92rcd13ifvqc6g","pricing_plan_id":"cebpf4jnsgd1na2vs0mg"},{"bike_id":"94b6eb88-62d9-418f-b0ee-b398dbe6dc12","system_id":"levelo_inurba_marseille","lat":43.27621,"lon":5.36116,"is_reserved":false,"is_disabled":false,"rental_uris":{"android":"levelo://app?vid=94b6eb88-62d9-418f-b0ee-b398dbe6dc12","ios":"levelo://app?vid=94b6eb88-62d9-418f-b0ee-b398dbe6dc12"},"vehicle_type_id":"4","last_reported":1730812605,"current_range_meters":2800,"station_id":"ce4bgj92rcd13ifvqbe0","pricing_plan_id":"cebpf4jnsgd1na2vs0mg"},{"bike_id":"2f421261-a528-4395-8a49-c894b9963f0b","system_id":"levelo_inurba_marseille","lat":43.30129,"lon":5.39875,"is_reserved":false,"is_disabled":false,"rental_uris":{"android":"levelo://app?vid=2f421261-a528-4395-8a49-c894b9963f0b","ios":"levelo://app?vid=2f421261-a528-4395-8a49-c894b9963f0b"},"vehicle_type_id":"4","last_reported":1730812605,"current_range_meters":27200,"station_id":"ce4bh0h2rcd13ifvqd40","pricing_plan_id":"cebpf4jnsgd1na2vs0mg"},{"bike_id":"ea8255c7-ce8a-49f5-8b8c-c713720b8c00","system_id":"levelo_inurba_marseille","lat":43.29928,"lon":5.37471,"is_reserved":false,"is_disabled":false,"rental_uris":{"android":"levelo://app?vid=ea8255c7-ce8a-49f5-8b8c-c713720b8c00","ios":"levelo://app?vid=ea8255c7-ce8a-49f5-8b8c-c713720b8c00"},"vehicle_type_id":"4","last_reported":1730812605,"current_range_meters":28800,"station_id":"ce4bgjh2rcd13ifvqbg0","pricing_plan_id":"cebpf4jnsgd1na2vs0mg"},{"bike_id":"39845523-e4e0-46ef-9c5e-9cac0835f6ae","system_id":"levelo_inurba_marseille","lat":43.29071,"lon":5.37166,"is_reserved":false,"is_disabled":false,"rental_uris":{"android":"levelo://app?vid=39845523-e4e0-46ef-9c5e-9cac0835f6ae","ios":"levelo://app?vid=39845523-e4e0-46ef-9c5e-9cac0835f6ae"},"vehicle_type_id":"4","last_reported":1730812605,"current_range_meters":12800,"station_id":"ce4bh5p2rcd13ifvqe4g","pricing_plan_id":"cebpf4jnsgd1na2vs0mg"},{"bike_id":"d2e1ed5f-7842-424f-a5e8-75a9df0949fd","system_id":"levelo_inurba_marseille","lat":43.27997,"lon":5.41661,"is_reserved":false,"is_disabled":false,"rental_uris":{"android":"levelo://app?vid=d2e1ed5f-7842-424f-a5e8-75a9df0949fd","ios":"levelo://app?vid=d2e1ed5f-7842-424f-a5e8-75a9df0949fd"},"vehicle_type_id":"4","last_reported":1730812605,"current_range_meters":13600,"station_id":"ce4bho12rcd13ifvqh1g","pricing_plan_id":"cebpf4jnsgd1na2vs0mg"},{"bike_id":"47188366-9ba1-4e2e-907e-c2a5c3fd8c31","system_id":"levelo_inurba_marseille","lat":43.31344,"lon":5.367213,"is_reserved":false,"is_disabled":false,"rental_uris":{"android":"levelo://app?vid=47188366-9ba1-4e2e-907e-c2a5c3fd8c31","ios":"levelo://app?vid=47188366-9ba1-4e2e-907e-c2a5c3fd8c31"},"vehicle_type_id":"4","last_reported":1730812605,"current_range_meters":5600,"station_id":"ce4bgr92rcd13ifvqc6g","pricing_plan_id":"cebpf4jnsgd1na2vs0mg"},{"bike_id":"81f6b4c0-466f-469e-9440-cacd811d84f3","system_id":"levelo_inurba_marseille","lat":43.24079,"lon":5.37752,"is_reserved":false,"is_disabled":false,"rental_uris":{"android":"levelo://app?vid=81f6b4c0-466f-469e-9440-cacd811d84f3","ios":"levelo://app?vid=81f6b4c0-466f-469e-9440-cacd811d84f3"},"vehicle_type_id":"4","last_reported":1730812605,"current_range_meters":22400,"station_id":"ce4bhnp2rcd13ifvqgvg","pricing_plan_id":"cebpf4jnsgd1na2vs0mg"},{"bike_id":"f559752c-b67e-4d42-803c-8776fc1a119a","system_id":"levelo_inurba_marseille","lat":43.29442,"lon":5.39742,"is_reserved":false,"is_disabled":false,"rental_uris":{"android":"levelo://app?vid=f559752c-b67e-4d42-803c-8776fc1a119a","ios":"levelo://app?vid=f559752c-b67e-4d42-803c-8776fc1a119a"},"vehicle_type_id":"4","last_reported":1730812605,"current_range_meters":16000,"station_id":"ce4bh3h2rcd13ifvqdo0","pricing_plan_id":"cebpf4jnsgd1na2vs0mg"},{"bike_id":"95c40018-7eca-4eaf-aa8f-17957e468643","system_id":"levelo_inurba_marseille","lat":43.26804,"lon":5.40259,"is_reserved":false,"is_disabled":false,"rental_uris":{"android":"levelo://app?vid=95c40018-7eca-4eaf-aa8f-17957e468643","ios":"levelo://app?vid=95c40018-7eca-4eaf-aa8f-17957e468643"},"vehicle_type_id":"4","last_reported":1730812605,"current_range_meters":23200,"station_id":"ce501612rcd8frsf0b60","pricing_plan_id":"cebpf4jnsgd1na2vs0mg"},{"bike_id":"5c48a14a-e8f1-4cbf-8772-11f776ebc97c","system_id":"levelo_inurba_marseille","lat":43.299101,"lon":5.397379,"is_reserved":false,"is_disabled":false,"rental_uris":{"android":"levelo://app?vid=5c48a14a-e8f1-4cbf-8772-11f776ebc97c","ios":"levelo://app?vid=5c48a14a-e8f1-4cbf-8772-11f776ebc97c"},"vehicle_type_id":"4","last_reported":1730812605,"current_range_meters":37600,"station_id":"ce4bh0h2rcd13ifvqd50","pricing_plan_id":"cebpf4jnsgd1na2vs0mg"},{"bike_id":"ca1433d3-02b8-4be3-92d9-ba7d9b879893","system_id":"levelo_inurba_marseille","lat":43.29288,"lon":5.40117,"is_reserved":false,"is_disabled":false,"rental_uris":{"android":"levelo://app?vid=ca1433d3-02b8-4be3-92d9-ba7d9b879893","ios":"levelo://app?vid=ca1433d3-02b8-4be3-92d9-ba7d9b879893"},"vehicle_type_id":"4","last_reported":1730812605,"current_range_meters":11200,"station_id":"ce4bh312rcd13ifvqdk0","pricing_plan_id":"cebpf4jnsgd1na2vs0mg"},{"bike_id":"d41662a8-dcd5-4521-8f96-a3722ad251c4","system_id":"levelo_inurba_marseille","lat":43.24076,"lon":5.37759,"is_reserved":false,"is_disabled":false,"rental_uris":{"android":"levelo://app?vid=d41662a8-dcd5-4521-8f96-a3722ad251c4","ios":"levelo://app?vid=d41662a8-dcd5-4521-8f96-a3722ad251c4"},"vehicle_type_id":"4","last_reported":1730812605,"current_range_meters":12400,"station_id":"ce4bhnp2rcd13ifvqgvg","pricing_plan_id":"cebpf4jnsgd1na2vs0mg"},{"bike_id":"4147bbfb-4b14-4aca-b782-8ec6c0473609","system_id":"levelo_inurba_marseille","lat":43.235973,"lon":5.403475,"is_reserved":false,"is_disabled":false,"rental_uris":{"android":"levelo://app?vid=4147bbfb-4b14-4aca-b782-8ec6c0473609","ios":"levelo://app?vid=4147bbfb-4b14-4aca-b782-8ec6c0473609"},"vehicle_type_id":"4","last_reported":1730812605,"current_range_meters":8400,"station_id":"","pricing_plan_id":"cebpf4jnsgd1na2vs0mg"},{"bike_id":"a2c1b332-8990-4aa9-b8ef-ce15405739e1","system_id":"levelo_inurba_marseille","lat":43.28495,"lon":5.38562,"is_reserved":false,"is_disabled":false,"rental_uris":{"android":"levelo://app?vid=a2c1b332-8990-4aa9-b8ef-ce15405739e1","ios":"levelo://app?vid=a2c1b332-8990-4aa9-b8ef-ce15405739e1"},"vehicle_type_id":"4","last_reported":1730812605,"current_range_meters":28800,"station_id":"ce4bh8p2rcd13ifvqeb0","pricing_plan_id":"cebpf4jnsgd1na2vs0mg"},{"bike_id":"fa66adb8-19da-4b56-aeb9-ccf1206b3e1e","system_id":"levelo_inurba_marseille","lat":43.32369,"lon":5.36756,"is_reserved":false,"is_disabled":false,"rental_uris":{"android":"levelo://app?vid=fa66adb8-19da-4b56-aeb9-ccf1206b3e1e","ios":"levelo://app?vid=fa66adb8-19da-4b56-aeb9-ccf1206b3e1e"},"vehicle_type_id":"4","last_reported":1730812605,"current_range_meters":34800,"station_id":"ce4bhsh2rcd13ifvqi2g","pricing_plan_id":"cebpf4jnsgd1na2vs0mg"},{"bike_id":"26524832-8824-4bc7-95ef-aedb1815c904","system_id":"levelo_inurba_marseille","lat":43.29841,"lon":5.36281,"is_reserved":false,"is_disabled":false,"rental_uris":{"android":"levelo://app?vid=26524832-8824-4bc7-95ef-aedb1815c904","ios":"levelo://app?vid=26524832-8824-4bc7-95ef-aedb1815c904"},"vehicle_type_id":"4","last_reported":1730812605,"current_range_meters":16400,"station_id":"ce4bgpp2rcd13ifvqc3g","pricing_plan_id":"cebpf4jnsgd1na2vs0mg"},{"bike_id":"5beae0d8-a118-423f-a6f6-a4807a087172","system_id":"levelo_inurba_marseille","lat":43.266785,"lon":5.382702,"is_reserved":false,"is_disabled":false,"rental_uris":{"android":"levelo://app?vid=5beae0d8-a118-423f-a6f6-a4807a087172","ios":"levelo://app?vid=5beae0d8-a118-423f-a6f6-a4807a087172"},"vehicle_type_id":"4","last_reported":1730812605,"current_range_meters":30800,"station_id":"ce4bhg92rcd13ifvqf90","pricing_plan_id":"cebpf4jnsgd1na2vs0mg"},{"bike_id":"9cffadc3-3073-49ab-ba37-08f8ba4649be","system_id":"levelo_inurba_marseille","lat":43.29284,"lon":5.40112,"is_reserved":false,"is_disabled":false,"rental_uris":{"android":"levelo://app?vid=9cffadc3-3073-49ab-ba37-08f8ba4649be","ios":"levelo://app?vid=9cffadc3-3073-49ab-ba37-08f8ba4649be"},"vehicle_type_id":"4","last_reported":1730812605,"current_range_meters":35600,"station_id":"ce4bh312rcd13ifvqdk0","pricing_plan_id":"cebpf4jnsgd1na2vs0mg"},{"bike_id":"5ad3f732-7e23-4ad9-b57d-10c8736d4e8f","system_id":"levelo_inurba_marseille","lat":43.32484,"lon":5.36561,"is_reserved":false,"is_disabled":false,"rental_uris":{"android":"levelo://app?vid=5ad3f732-7e23-4ad9-b57d-10c8736d4e8f","ios":"levelo://app?vid=5ad3f732-7e23-4ad9-b57d-10c8736d4e8f"},"vehicle_type_id":"4","last_reported":1730812605,"current_range_meters":19200,"station_id":"ce4bhs12rcd13ifvqhvg","pricing_plan_id":"cebpf4jnsgd1na2vs0mg"},{"bike_id":"81849ddd-5569-4074-96df-48d4d5dfe474","system_id":"levelo_inurba_marseille","lat":43.34134,"lon":5.40902,"is_reserved":false,"is_disabled":false,"rental_uris":{"android":"levelo://app?vid=81849ddd-5569-4074-96df-48d4d5dfe474","ios":"levelo://app?vid=81849ddd-5569-4074-96df-48d4d5dfe474"},"vehicle_type_id":"4","last_reported":1730812605,"current_range_meters":38800,"station_id":"ce4bhqh2rcd13ifvqhlg","pricing_plan_id":"cebpf4jnsgd1na2vs0mg"},{"bike_id":"fd776ccf-b3af-40af-bbe4-5ffe45cd9dc8","system_id":"levelo_inurba_marseille","lat":43.29808,"lon":5.38101,"is_reserved":false,"is_disabled":false,"rental_uris":{"android":"levelo://app?vid=fd776ccf-b3af-40af-bbe4-5ffe45cd9dc8","ios":"levelo://app?vid=fd776ccf-b3af-40af-bbe4-5ffe45cd9dc8"},"vehicle_type_id":"4","last_reported":1730812605,"current_range_meters":34800,"station_id":"ce4bgip2rcd13ifvqbb0","pricing_plan_id":"cebpf4jnsgd1na2vs0mg"},{"bike_id":"35d46972-faca-4525-a2d2-3f928f24f16c","system_id":"levelo_inurba_marseille","lat":43.24174,"lon":5.36394,"is_reserved":false,"is_disabled":false,"rental_uris":{"android":"levelo://app?vid=35d46972-faca-4525-a2d2-3f928f24f16c","ios":"levelo://app?vid=35d46972-faca-4525-a2d2-3f928f24f16c"},"vehicle_type_id":"4","last_reported":1730812605,"current_range_meters":37600,"station_id":"cpo36qri1sfpv3e86is0","pricing_plan_id":"cebpf4jnsgd1na2vs0mg"},{"bike_id":"40d94347-2957-457b-8aca-00db7145d9dd","system_id":"levelo_inurba_marseille","lat":43.29727,"lon":5.37696,"is_reserved":false,"is_disabled":false,"rental_uris":{"android":"levelo://app?vid=40d94347-2957-457b-8aca-00db7145d9dd","ios":"levelo://app?vid=40d94347-2957-457b-8aca-00db7145d9dd"},"vehicle_type_id":"4","last_reported":1730812605,"current_range_meters":28000,"station_id":"ce4bgkh2rcd13ifvqbl0","pricing_plan_id":"cebpf4jnsgd1na2vs0mg"},{"bike_id":"17a02ba0-aefc-4fab-83ec-830586dc1f77","system_id":"levelo_inurba_marseille","lat":43.30518,"lon":5.39342,"is_reserved":false,"is_disabled":false,"rental_uris":{"android":"levelo://app?vid=17a02ba0-aefc-4fab-83ec-830586dc1f77","ios":"levelo://app?vid=17a02ba0-aefc-4fab-83ec-830586dc1f77"},"vehicle_type_id":"4","last_reported":1730812605,"current_range_meters":24000,"station_id":"","pricing_plan_id":"cebpf4jnsgd1na2vs0mg"},{"bike_id":"3da4622c-c31c-40d3-8aab-c802043c4fb2","system_id":"levelo_inurba_marseille","lat":43.24078,"lon":5.37746,"is_reserved":false,"is_disabled":false,"rental_uris":{"android":"levelo://app?vid=3da4622c-c31c-40d3-8aab-c802043c4fb2","ios":"levelo://app?vid=3da4622c-c31c-40d3-8aab-c802043c4fb2"},"vehicle_type_id":"4","last_reported":1730812605,"current_range_meters":39200,"station_id":"ce4bhnp2rcd13ifvqgvg","pricing_plan_id":"cebpf4jnsgd1na2vs0mg"},{"bike_id":"8f83624b-bbea-4286-96c3-9752b6330508","system_id":"levelo_inurba_marseille","lat":43.29798,"lon":5.38098,"is_reserved":false,"is_disabled":false,"rental_uris":{"android":"levelo://app?vid=8f83624b-bbea-4286-96c3-9752b6330508","ios":"levelo://app?vid=8f83624b-bbea-4286-96c3-9752b6330508"},"vehicle_type_id":"4","last_reported":1730812605,"current_range_meters":37600,"station_id":"ce4bgip2rcd13ifvqbb0","pricing_plan_id":"cebpf4jnsgd1na2vs0mg"},{"bike_id":"182e91a9-0e4e-4788-9b82-32e72e41d2da","system_id":"levelo_inurba_marseille","lat":43.30273,"lon":5.37698,"is_reserved":false,"is_disabled":false,"rental_uris":{"android":"levelo://app?vid=182e91a9-0e4e-4788-9b82-32e72e41d2da","ios":"levelo://app?vid=182e91a9-0e4e-4788-9b82-32e72e41d2da"},"vehicle_type_id":"4","last_reported":1730812605,"current_range_meters":39200,"station_id":"ce4bguh2rcd13ifvqcj0","pricing_plan_id":"cebpf4jnsgd1na2vs0mg"},{"bike_id":"d1bbb106-c8f7-49a7-9fc4-9595de5723d0","system_id":"levelo_inurba_marseille","lat":43.27845,"lon":5.39208,"is_reserved":false,"is_disabled":false,"rental_uris":{"android":"levelo://app?vid=d1bbb106-c8f7-49a7-9fc4-9595de5723d0","ios":"levelo://app?vid=d1bbb106-c8f7-49a7-9fc4-9595de5723d0"},"vehicle_type_id":"4","last_reported":1730812605,"current_range_meters":4000,"station_id":"ce4bhjp2rcd13ifvqga0","pricing_plan_id":"cebpf4jnsgd1na2vs0mg"},{"bike_id":"c5959248-2858-4208-92c0-46ed9f836573","system_id":"levelo_inurba_marseille","lat":43.33601,"lon":5.41034,"is_reserved":false,"is_disabled":false,"rental_uris":{"android":"levelo://app?vid=c5959248-2858-4208-92c0-46ed9f836573","ios":"levelo://app?vid=c5959248-2858-4208-92c0-46ed9f836573"},"vehicle_type_id":"4","last_reported":1730812605,"current_range_meters":28000,"station_id":"ce4bhqh2rcd13ifvqhmg","pricing_plan_id":"cebpf4jnsgd1na2vs0mg"},{"bike_id":"8f9b1417-60dc-4e25-94ce-f05731a86005","system_id":"levelo_inurba_marseille","lat":43.30289,"lon":5.37698,"is_reserved":false,"is_disabled":false,"rental_uris":{"android":"levelo://app?vid=8f9b1417-60dc-4e25-94ce-f05731a86005","ios":"levelo://app?vid=8f9b1417-60dc-4e25-94ce-f05731a86005"},"vehicle_type_id":"4","last_reported":1730812605,"current_range_meters":30400,"station_id":"ce4bguh2rcd13ifvqcj0","pricing_plan_id":"cebpf4jnsgd1na2vs0mg"},{"bike_id":"12296a29-3a04-4ac9-8bcd-0bc401ecd050","system_id":"levelo_inurba_marseille","lat":43.30956,"lon":5.39028,"is_reserved":false,"is_disabled":false,"rental_uris":{"android":"levelo://app?vid=12296a29-3a04-4ac9-8bcd-0bc401ecd050","ios":"levelo://app?vid=12296a29-3a04-4ac9-8bcd-0bc401ecd050"},"vehicle_type_id":"4","last_reported":1730812605,"current_range_meters":22000,"station_id":"ce4bgup2rcd13ifvqco0","pricing_plan_id":"cebpf4jnsgd1na2vs0mg"},{"bike_id":"9503e392-6337-43fe-8523-9e7c5fa4e814","system_id":"levelo_inurba_marseille","lat":43.24069,"lon":5.37761,"is_reserved":false,"is_disabled":false,"rental_uris":{"android":"levelo://app?vid=9503e392-6337-43fe-8523-9e7c5fa4e814","ios":"levelo://app?vid=9503e392-6337-43fe-8523-9e7c5fa4e814"},"vehicle_type_id":"4","last_reported":1730812605,"current_range_meters":36800,"station_id":"ce4bhnp2rcd13ifvqgvg","pricing_plan_id":"cebpf4jnsgd1na2vs0mg"},{"bike_id":"62a3f5a2-bb37-4192-9a9e-5598662564ea","system_id":"levelo_inurba_marseille","lat":43.23149,"lon":5.43719,"is_reserved":false,"is_disabled":false,"rental_uris":{"android":"levelo://app?vid=62a3f5a2-bb37-4192-9a9e-5598662564ea","ios":"levelo://app?vid=62a3f5a2-bb37-4192-9a9e-5598662564ea"},"vehicle_type_id":"4","last_reported":1730812605,"current_range_meters":16800,"station_id":"ce4bhmp2rcd13ifvqgog","pricing_plan_id":"cebpf4jnsgd1na2vs0mg"},{"bike_id":"ddfa70a9-9d32-48ef-99b7-f4cb9b41791d","system_id":"levelo_inurba_marseille","lat":43.24075,"lon":5.37753,"is_reserved":false,"is_disabled":false,"rental_uris":{"android":"levelo://app?vid=ddfa70a9-9d32-48ef-99b7-f4cb9b41791d","ios":"levelo://app?vid=ddfa70a9-9d32-48ef-99b7-f4cb9b41791d"},"vehicle_type_id":"4","last_reported":1730812605,"current_range_meters":9600,"station_id":"ce4bhnp2rcd13ifvqgvg","pricing_plan_id":"cebpf4jnsgd1na2vs0mg"},{"bike_id":"51b0cc7e-772d-41e9-97a0-b689f0d0604e","system_id":"levelo_inurba_marseille","lat":43.31355,"lon":5.36707,"is_reserved":false,"is_disabled":false,"rental_uris":{"android":"levelo://app?vid=51b0cc7e-772d-41e9-97a0-b689f0d0604e","ios":"levelo://app?vid=51b0cc7e-772d-41e9-97a0-b689f0d0604e"},"vehicle_type_id":"4","last_reported":1730812605,"current_range_meters":38800,"station_id":"ce4bgr92rcd13ifvqc6g","pricing_plan_id":"cebpf4jnsgd1na2vs0mg"},{"bike_id":"b7714781-d668-438d-8d4e-7166167a7e37","system_id":"levelo_inurba_marseille","lat":43.23189,"lon":5.39975,"is_reserved":false,"is_disabled":false,"rental_uris":{"android":"levelo://app?vid=b7714781-d668-438d-8d4e-7166167a7e37","ios":"levelo://app?vid=b7714781-d668-438d-8d4e-7166167a7e37"},"vehicle_type_id":"4","last_reported":1730812605,"current_range_meters":26800,"station_id":"ce4bhn12rcd13ifvqgqg","pricing_plan_id":"cebpf4jnsgd1na2vs0mg"},{"bike_id":"d81f3793-f7a5-40e6-8221-7f69864807bf","system_id":"levelo_inurba_marseille","lat":43.27172,"lon":5.40995,"is_reserved":false,"is_disabled":false,"rental_uris":{"android":"levelo://app?vid=d81f3793-f7a5-40e6-8221-7f69864807bf","ios":"levelo://app?vid=d81f3793-f7a5-40e6-8221-7f69864807bf"},"vehicle_type_id":"4","last_reported":1730812605,"current_range_meters":30000,"station_id":"ce4bhl12rcd13ifvqgf0","pricing_plan_id":"cebpf4jnsgd1na2vs0mg"},{"bike_id":"f61fd100-a389-4a84-baba-b82329eb123a","system_id":"levelo_inurba_marseille","lat":43.30948,"lon":5.39039,"is_reserved":false,"is_disabled":false,"rental_uris":{"android":"levelo://app?vid=f61fd100-a389-4a84-baba-b82329eb123a","ios":"levelo://app?vid=f61fd100-a389-4a84-baba-b82329eb123a"},"vehicle_type_id":"4","last_reported":1730812605,"current_range_meters":20800,"station_id":"ce4bgup2rcd13ifvqco0","pricing_plan_id":"cebpf4jnsgd1na2vs0mg"},{"bike_id":"f12f8e28-db20-484f-852b-432023147ae9","system_id":"levelo_inurba_marseille","lat":43.316908,"lon":5.404808,"is_reserved":false,"is_disabled":false,"rental_uris":{"android":"levelo://app?vid=f12f8e28-db20-484f-852b-432023147ae9","ios":"levelo://app?vid=f12f8e28-db20-484f-852b-432023147ae9"},"vehicle_type_id":"4","last_reported":1730812605,"current_range_meters":38800,"station_id":"ce4bh012rcd13ifvqd00","pricing_plan_id":"cebpf4jnsgd1na2vs0mg"},{"bike_id":"6481116c-5f06-4549-814e-6cdb6e286322","system_id":"levelo_inurba_marseille","lat":43.28352,"lon":5.3811,"is_reserved":false,"is_disabled":false,"rental_uris":{"android":"levelo://app?vid=6481116c-5f06-4549-814e-6cdb6e286322","ios":"levelo://app?vid=6481116c-5f06-4549-814e-6cdb6e286322"},"vehicle_type_id":"4","last_reported":1730812605,"current_range_meters":16400,"station_id":"ce4bh412rcd13ifvqdr0","pricing_plan_id":"cebpf4jnsgd1na2vs0mg"},{"bike_id":"d77a0262-cad2-48d4-8a93-74976446a55d","system_id":"levelo_inurba_marseille","lat":43.34141,"lon":5.40906,"is_reserved":false,"is_disabled":false,"rental_uris":{"android":"levelo://app?vid=d77a0262-cad2-48d4-8a93-74976446a55d","ios":"levelo://app?vid=d77a0262-cad2-48d4-8a93-74976446a55d"},"vehicle_type_id":"4","last_reported":1730812605,"current_range_meters":23200,"station_id":"ce4bhqh2rcd13ifvqhlg","pricing_plan_id":"cebpf4jnsgd1na2vs0mg"},{"bike_id":"0fb9819f-f5ed-4bc1-9006-4b1ad7d9b36e","system_id":"levelo_inurba_marseille","lat":43.32474,"lon":5.36571,"is_reserved":false,"is_disabled":false,"rental_uris":{"android":"levelo://app?vid=0fb9819f-f5ed-4bc1-9006-4b1ad7d9b36e","ios":"levelo://app?vid=0fb9819f-f5ed-4bc1-9006-4b1ad7d9b36e"},"vehicle_type_id":"4","last_reported":1730812605,"current_range_meters":12800,"station_id":"ce4bhs12rcd13ifvqhvg","pricing_plan_id":"cebpf4jnsgd1na2vs0mg"},{"bike_id":"bc078f71-d4d2-4851-816f-3ba8cfad3e60","system_id":"levelo_inurba_marseille","lat":43.29715,"lon":5.37691,"is_reserved":false,"is_disabled":false,"rental_uris":{"android":"levelo://app?vid=bc078f71-d4d2-4851-816f-3ba8cfad3e60","ios":"levelo://app?vid=bc078f71-d4d2-4851-816f-3ba8cfad3e60"},"vehicle_type_id":"4","last_reported":1730812605,"current_range_meters":9200,"station_id":"ce4bgkh2rcd13ifvqbl0","pricing_plan_id":"cebpf4jnsgd1na2vs0mg"},{"bike_id":"32d460a5-1bb9-43f8-b4ba-b0253a979062","system_id":"levelo_inurba_marseille","lat":43.28255,"lon":5.39078,"is_reserved":false,"is_disabled":false,"rental_uris":{"android":"levelo://app?vid=32d460a5-1bb9-43f8-b4ba-b0253a979062","ios":"levelo://app?vid=32d460a5-1bb9-43f8-b4ba-b0253a979062"},"vehicle_type_id":"4","last_reported":1730812605,"current_range_meters":25600,"station_id":"","pricing_plan_id":"cebpf4jnsgd1na2vs0mg"},{"bike_id":"037eaf0f-9112-47d3-aa8d-7a0ef0d58625","system_id":"levelo_inurba_marseille","lat":43.24167,"lon":5.36388,"is_reserved":false,"is_disabled":false,"rental_uris":{"android":"levelo://app?vid=037eaf0f-9112-47d3-aa8d-7a0ef0d58625","ios":"levelo://app?vid=037eaf0f-9112-47d3-aa8d-7a0ef0d58625"},"vehicle_type_id":"4","last_reported":1730812605,"current_range_meters":38000,"station_id":"cpo36qri1sfpv3e86is0","pricing_plan_id":"cebpf4jnsgd1na2vs0mg"},{"bike_id":"897c072c-0d21-44b6-b843-663f492b8dc4","system_id":"levelo_inurba_marseille","lat":43.25105,"lon":5.4032,"is_reserved":false,"is_disabled":false,"rental_uris":{"android":"levelo://app?vid=897c072c-0d21-44b6-b843-663f492b8dc4","ios":"levelo://app?vid=897c072c-0d21-44b6-b843-663f492b8dc4"},"vehicle_type_id":"4","last_reported":1730812605,"current_range_meters":36000,"station_id":"ce4bhlh2rcd13ifvqgig","pricing_plan_id":"cebpf4jnsgd1na2vs0mg"},{"bike_id":"7c9725e3-547b-4981-8573-c116a67569dc","system_id":"levelo_inurba_marseille","lat":43.29039,"lon":5.37567,"is_reserved":false,"is_disabled":false,"rental_uris":{"android":"levelo://app?vid=7c9725e3-547b-4981-8573-c116a67569dc","ios":"levelo://app?vid=7c9725e3-547b-4981-8573-c116a67569dc"},"vehicle_type_id":"4","last_reported":1730812605,"current_range_meters":39200,"station_id":"ce4bh692rcd13ifvqe90","pricing_plan_id":"cebpf4jnsgd1na2vs0mg"},{"bike_id":"d21c28b2-c174-4e9f-ad7f-35fb94eae1cd","system_id":"levelo_inurba_marseille","lat":43.30528,"lon":5.36699,"is_reserved":false,"is_disabled":false,"rental_uris":{"android":"levelo://app?vid=d21c28b2-c174-4e9f-ad7f-35fb94eae1cd","ios":"levelo://app?vid=d21c28b2-c174-4e9f-ad7f-35fb94eae1cd"},"vehicle_type_id":"4","last_reported":1730812605,"current_range_meters":38800,"station_id":"ce4bgrp2rcd13ifvqc9g","pricing_plan_id":"cebpf4jnsgd1na2vs0mg"},{"bike_id":"f6710dec-ce15-4268-907f-f02fe306b1d5","system_id":"levelo_inurba_marseille","lat":43.27322,"lon":5.39077,"is_reserved":false,"is_disabled":false,"rental_uris":{"android":"levelo://app?vid=f6710dec-ce15-4268-907f-f02fe306b1d5","ios":"levelo://app?vid=f6710dec-ce15-4268-907f-f02fe306b1d5"},"vehicle_type_id":"4","last_reported":1730812605,"current_range_meters":28400,"station_id":"ce4bhgp2rcd13ifvqfe0","pricing_plan_id":"cebpf4jnsgd1na2vs0mg"},{"bike_id":"d3c97ab5-a437-41b2-b498-b5dfe0160ae1","system_id":"levelo_inurba_marseille","lat":43.28075,"lon":5.39655,"is_reserved":false,"is_disabled":false,"rental_uris":{"android":"levelo://app?vid=d3c97ab5-a437-41b2-b498-b5dfe0160ae1","ios":"levelo://app?vid=d3c97ab5-a437-41b2-b498-b5dfe0160ae1"},"vehicle_type_id":"4","last_reported":1730812605,"current_range_meters":38800,"station_id":"ce4bho12rcd13ifvqh2g","pricing_plan_id":"cebpf4jnsgd1na2vs0mg"},{"bike_id":"acdea68a-7783-4908-bf21-09a59a510c29","system_id":"levelo_inurba_marseille","lat":43.31355,"lon":5.36725,"is_reserved":false,"is_disabled":false,"rental_uris":{"android":"levelo://app?vid=acdea68a-7783-4908-bf21-09a59a510c29","ios":"levelo://app?vid=acdea68a-7783-4908-bf21-09a59a510c29"},"vehicle_type_id":"4","last_reported":1730812605,"current_range_meters":24800,"station_id":"ce4bgr92rcd13ifvqc6g","pricing_plan_id":"cebpf4jnsgd1na2vs0mg"},{"bike_id":"a43847c5-ae11-4411-a9f6-a129db23b82b","system_id":"levelo_inurba_marseille","lat":43.28344,"lon":5.38112,"is_reserved":false,"is_disabled":false,"rental_uris":{"android":"levelo://app?vid=a43847c5-ae11-4411-a9f6-a129db23b82b","ios":"levelo://app?vid=a43847c5-ae11-4411-a9f6-a129db23b82b"},"vehicle_type_id":"4","last_reported":1730812605,"current_range_meters":20400,"station_id":"ce4bh412rcd13ifvqdr0","pricing_plan_id":"cebpf4jnsgd1na2vs0mg"},{"bike_id":"2208cd18-b7e1-4d15-8a96-477d4e7ba53c","system_id":"levelo_inurba_marseille","lat":43.29896,"lon":5.43665,"is_reserved":false,"is_disabled":false,"rental_uris":{"android":"levelo://app?vid=2208cd18-b7e1-4d15-8a96-477d4e7ba53c","ios":"levelo://app?vid=2208cd18-b7e1-4d15-8a96-477d4e7ba53c"},"vehicle_type_id":"4","last_reported":1730812605,"current_range_meters":30000,"station_id":"ce4bhpp2rcd13ifvqhfg","pricing_plan_id":"cebpf4jnsgd1na2vs0mg"},{"bike_id":"1ee5295d-3136-45b8-85a0-ab1541623485","system_id":"levelo_inurba_marseille","lat":43.27918,"lon":5.39581,"is_reserved":false,"is_disabled":false,"rental_uris":{"android":"levelo://app?vid=1ee5295d-3136-45b8-85a0-ab1541623485","ios":"levelo://app?vid=1ee5295d-3136-45b8-85a0-ab1541623485"},"vehicle_type_id":"4","last_reported":1730812605,"current_range_meters":30000,"station_id":"ce4bhf92rcd13ifvqf40","pricing_plan_id":"cebpf4jnsgd1na2vs0mg"},{"bike_id":"7072ab42-89bc-4992-aa87-44ef0661eab3","system_id":"levelo_inurba_marseille","lat":43.30596,"lon":5.39357,"is_reserved":false,"is_disabled":false,"rental_uris":{"android":"levelo://app?vid=7072ab42-89bc-4992-aa87-44ef0661eab3","ios":"levelo://app?vid=7072ab42-89bc-4992-aa87-44ef0661eab3"},"vehicle_type_id":"4","last_reported":1730812605,"current_range_meters":17200,"station_id":"ce4bh0p2rcd13ifvqd80","pricing_plan_id":"cebpf4jnsgd1na2vs0mg"},{"bike_id":"d887f1b0-5d9d-4cd3-b79a-ba53a6fe0685","system_id":"levelo_inurba_marseille","lat":43.27374,"lon":5.36256,"is_reserved":false,"is_disabled":false,"rental_uris":{"android":"levelo://app?vid=d887f1b0-5d9d-4cd3-b79a-ba53a6fe0685","ios":"levelo://app?vid=d887f1b0-5d9d-4cd3-b79a-ba53a6fe0685"},"vehicle_type_id":"4","last_reported":1730812605,"current_range_meters":9200,"station_id":"ce4bhbh2rcd13ifvqeo0","pricing_plan_id":"cebpf4jnsgd1na2vs0mg"},{"bike_id":"55a7885c-0a00-4863-bbb9-d9440e7d1c36","system_id":"levelo_inurba_marseille","lat":43.26957,"lon":5.38635,"is_reserved":false,"is_disabled":false,"rental_uris":{"android":"levelo://app?vid=55a7885c-0a00-4863-bbb9-d9440e7d1c36","ios":"levelo://app?vid=55a7885c-0a00-4863-bbb9-d9440e7d1c36"},"vehicle_type_id":"4","last_reported":1730812605,"current_range_meters":27600,"station_id":"ce4bhh92rcd13ifvqfh0","pricing_plan_id":"cebpf4jnsgd1na2vs0mg"},{"bike_id":"fc370af9-4723-4589-bd34-43e0e367fb35","system_id":"levelo_inurba_marseille","lat":43.26797,"lon":5.40269,"is_reserved":false,"is_disabled":false,"rental_uris":{"android":"levelo://app?vid=fc370af9-4723-4589-bd34-43e0e367fb35","ios":"levelo://app?vid=fc370af9-4723-4589-bd34-43e0e367fb35"},"vehicle_type_id":"4","last_reported":1730812605,"current_range_meters":38800,"station_id":"ce501612rcd8frsf0b60","pricing_plan_id":"cebpf4jnsgd1na2vs0mg"},{"bike_id":"1e55de5e-0579-45ab-bc8c-c545e1c9aefe","system_id":"levelo_inurba_marseille","lat":43.30334,"lon":5.40436,"is_reserved":false,"is_disabled":false,"rental_uris":{"android":"levelo://app?vid=1e55de5e-0579-45ab-bc8c-c545e1c9aefe","ios":"levelo://app?vid=1e55de5e-0579-45ab-bc8c-c545e1c9aefe"},"vehicle_type_id":"4","last_reported":1730812605,"current_range_meters":1600,"station_id":"ce4bh012rcd13ifvqd10","pricing_plan_id":"cebpf4jnsgd1na2vs0mg"},{"bike_id":"9144c157-634d-4240-9c41-6d80b65ff913","system_id":"levelo_inurba_marseille","lat":43.30538,"lon":5.3653,"is_reserved":false,"is_disabled":false,"rental_uris":{"android":"levelo://app?vid=9144c157-634d-4240-9c41-6d80b65ff913","ios":"levelo://app?vid=9144c157-634d-4240-9c41-6d80b65ff913"},"vehicle_type_id":"4","last_reported":1730812605,"current_range_meters":30400,"station_id":"ce4bgs12rcd13ifvqcag","pricing_plan_id":"cebpf4jnsgd1na2vs0mg"},{"bike_id":"de9bc7da-0805-4f2e-a638-6f594e31fc19","system_id":"levelo_inurba_marseille","lat":43.23152,"lon":5.43703,"is_reserved":false,"is_disabled":false,"rental_uris":{"android":"levelo://app?vid=de9bc7da-0805-4f2e-a638-6f594e31fc19","ios":"levelo://app?vid=de9bc7da-0805-4f2e-a638-6f594e31fc19"},"vehicle_type_id":"4","last_reported":1730812605,"current_range_meters":21600,"station_id":"ce4bhmp2rcd13ifvqgog","pricing_plan_id":"cebpf4jnsgd1na2vs0mg"},{"bike_id":"5fb98fcb-8467-43bc-8f32-700a3dc876c9","system_id":"levelo_inurba_marseille","lat":43.23145,"lon":5.43709,"is_reserved":false,"is_disabled":false,"rental_uris":{"android":"levelo://app?vid=5fb98fcb-8467-43bc-8f32-700a3dc876c9","ios":"levelo://app?vid=5fb98fcb-8467-43bc-8f32-700a3dc876c9"},"vehicle_type_id":"4","last_reported":1730812605,"current_range_meters":23200,"station_id":"ce4bhmp2rcd13ifvqgog","pricing_plan_id":"cebpf4jnsgd1na2vs0mg"},{"bike_id":"f2c092a2-0134-4ce9-b755-7ee8d58ab87c","system_id":"levelo_inurba_marseille","lat":43.271,"lon":5.38184,"is_reserved":false,"is_disabled":false,"rental_uris":{"android":"levelo://app?vid=f2c092a2-0134-4ce9-b755-7ee8d58ab87c","ios":"levelo://app?vid=f2c092a2-0134-4ce9-b755-7ee8d58ab87c"},"vehicle_type_id":"4","last_reported":1730812605,"current_range_meters":21600,"station_id":"","pricing_plan_id":"cebpf4jnsgd1na2vs0mg"},{"bike_id":"d449d999-0f80-4dd7-bb83-44762177c145","system_id":"levelo_inurba_marseille","lat":43.29035,"lon":5.39965,"is_reserved":false,"is_disabled":false,"rental_uris":{"android":"levelo://app?vid=d449d999-0f80-4dd7-bb83-44762177c145","ios":"levelo://app?vid=d449d999-0f80-4dd7-bb83-44762177c145"},"vehicle_type_id":"4","last_reported":1730812605,"current_range_meters":24000,"station_id":"ce4bh392rcd13ifvqdm0","pricing_plan_id":"cebpf4jnsgd1na2vs0mg"},{"bike_id":"6edcb5d2-dbf0-49f4-9f8b-5d93ccae943e","system_id":"levelo_inurba_marseille","lat":43.27914,"lon":5.38015,"is_reserved":false,"is_disabled":false,"rental_uris":{"android":"levelo://app?vid=6edcb5d2-dbf0-49f4-9f8b-5d93ccae943e","ios":"levelo://app?vid=6edcb5d2-dbf0-49f4-9f8b-5d93ccae943e"},"vehicle_type_id":"4","last_reported":1730812605,"current_range_meters":28400,"station_id":"ce4bhf92rcd13ifvqf50","pricing_plan_id":"cebpf4jnsgd1na2vs0mg"},{"bike_id":"f38b74f1-091f-4a53-be86-f11ff6a2b03b","system_id":"levelo_inurba_marseille","lat":43.24075,"lon":5.37749,"is_reserved":false,"is_disabled":false,"rental_uris":{"android":"levelo://app?vid=f38b74f1-091f-4a53-be86-f11ff6a2b03b","ios":"levelo://app?vid=f38b74f1-091f-4a53-be86-f11ff6a2b03b"},"vehicle_type_id":"4","last_reported":1730812605,"current_range_meters":36400,"station_id":"ce4bhnp2rcd13ifvqgvg","pricing_plan_id":"cebpf4jnsgd1na2vs0mg"},{"bike_id":"b1fe64db-656d-4e90-9b40-b5b616d72f80","system_id":"levelo_inurba_marseille","lat":43.29959,"lon":5.41319,"is_reserved":false,"is_disabled":false,"rental_uris":{"android":"levelo://app?vid=b1fe64db-656d-4e90-9b40-b5b616d72f80","ios":"levelo://app?vid=b1fe64db-656d-4e90-9b40-b5b616d72f80"},"vehicle_type_id":"4","last_reported":1730812605,"current_range_meters":30400,"station_id":"ce4bhp12rcd13ifvqh9g","pricing_plan_id":"cebpf4jnsgd1na2vs0mg"},{"bike_id":"5eeefd11-649c-499f-9856-2a20cd33e6cb","system_id":"levelo_inurba_marseille","lat":43.30549,"lon":5.36691,"is_reserved":false,"is_disabled":false,"rental_uris":{"android":"levelo://app?vid=5eeefd11-649c-499f-9856-2a20cd33e6cb","ios":"levelo://app?vid=5eeefd11-649c-499f-9856-2a20cd33e6cb"},"vehicle_type_id":"4","last_reported":1730812605,"current_range_meters":10800,"station_id":"ce4bgrp2rcd13ifvqc9g","pricing_plan_id":"cebpf4jnsgd1na2vs0mg"},{"bike_id":"0603f34e-4973-4566-b4e8-23e4464b101d","system_id":"levelo_inurba_marseille","lat":43.31179,"lon":5.38718,"is_reserved":false,"is_disabled":false,"rental_uris":{"android":"levelo://app?vid=0603f34e-4973-4566-b4e8-23e4464b101d","ios":"levelo://app?vid=0603f34e-4973-4566-b4e8-23e4464b101d"},"vehicle_type_id":"4","last_reported":1730812605,"current_range_meters":38800,"station_id":"ce4bgv12rcd13ifvqcp0","pricing_plan_id":"cebpf4jnsgd1na2vs0mg"},{"bike_id":"70a38ce2-fa1e-48b9-b6d7-d2318aea833e","system_id":"levelo_inurba_marseille","lat":43.28943,"lon":5.36635,"is_reserved":false,"is_disabled":false,"rental_uris":{"android":"levelo://app?vid=70a38ce2-fa1e-48b9-b6d7-d2318aea833e","ios":"levelo://app?vid=70a38ce2-fa1e-48b9-b6d7-d2318aea833e"},"vehicle_type_id":"4","last_reported":1730812605,"current_range_meters":34000,"station_id":"ce4bhap2rcd13ifvqek0","pricing_plan_id":"cebpf4jnsgd1na2vs0mg"},{"bike_id":"efa85e75-b895-4ae4-8f7a-9a102a0159a4","system_id":"levelo_inurba_marseille","lat":43.30466,"lon":5.37911,"is_reserved":false,"is_disabled":false,"rental_uris":{"android":"levelo://app?vid=efa85e75-b895-4ae4-8f7a-9a102a0159a4","ios":"levelo://app?vid=efa85e75-b895-4ae4-8f7a-9a102a0159a4"},"vehicle_type_id":"4","last_reported":1730812605,"current_range_meters":38800,"station_id":"ce4bgup2rcd13ifvqcn0","pricing_plan_id":"cebpf4jnsgd1na2vs0mg"},{"bike_id":"7d3664b4-0626-4764-becb-c1d4188a8bfd","system_id":"levelo_inurba_marseille","lat":43.29169,"lon":5.37147,"is_reserved":false,"is_disabled":false,"rental_uris":{"android":"levelo://app?vid=7d3664b4-0626-4764-becb-c1d4188a8bfd","ios":"levelo://app?vid=7d3664b4-0626-4764-becb-c1d4188a8bfd"},"vehicle_type_id":"4","last_reported":1730812605,"current_range_meters":38800,"station_id":"ce4bha92rcd13ifvqeh0","pricing_plan_id":"cebpf4jnsgd1na2vs0mg"},{"bike_id":"490bda0d-525d-48fa-a681-6c1404c76d50","system_id":"levelo_inurba_marseille","lat":43.30143,"lon":5.37417,"is_reserved":false,"is_disabled":false,"rental_uris":{"android":"levelo://app?vid=490bda0d-525d-48fa-a681-6c1404c76d50","ios":"levelo://app?vid=490bda0d-525d-48fa-a681-6c1404c76d50"},"vehicle_type_id":"4","last_reported":1730812605,"current_range_meters":38000,"station_id":"ce4bgs92rcd13ifvqcc0","pricing_plan_id":"cebpf4jnsgd1na2vs0mg"},{"bike_id":"44df66ce-32ea-4361-a3f7-0e940052bf0e","system_id":"levelo_inurba_marseille","lat":43.30276,"lon":5.37703,"is_reserved":false,"is_disabled":false,"rental_uris":{"android":"levelo://app?vid=44df66ce-32ea-4361-a3f7-0e940052bf0e","ios":"levelo://app?vid=44df66ce-32ea-4361-a3f7-0e940052bf0e"},"vehicle_type_id":"4","last_reported":1730812605,"current_range_meters":27600,"station_id":"ce4bguh2rcd13ifvqcj0","pricing_plan_id":"cebpf4jnsgd1na2vs0mg"},{"bike_id":"c65b9f24-9a8d-4816-9e3a-0a637de85f08","system_id":"levelo_inurba_marseille","lat":43.25118,"lon":5.40316,"is_reserved":false,"is_disabled":false,"rental_uris":{"android":"levelo://app?vid=c65b9f24-9a8d-4816-9e3a-0a637de85f08","ios":"levelo://app?vid=c65b9f24-9a8d-4816-9e3a-0a637de85f08"},"vehicle_type_id":"4","last_reported":1730812605,"current_range_meters":17600,"station_id":"ce4bhlh2rcd13ifvqgig","pricing_plan_id":"cebpf4jnsgd1na2vs0mg"},{"bike_id":"948dce27-30d8-44fd-a97a-5e6c250d01a1","system_id":"levelo_inurba_marseille","lat":43.32285,"lon":5.38269,"is_reserved":false,"is_disabled":false,"rental_uris":{"android":"levelo://app?vid=948dce27-30d8-44fd-a97a-5e6c250d01a1","ios":"levelo://app?vid=948dce27-30d8-44fd-a97a-5e6c250d01a1"},"vehicle_type_id":"4","last_reported":1730812605,"current_range_meters":26800,"station_id":"ce4bhr12rcd13ifvqhqg","pricing_plan_id":"cebpf4jnsgd1na2vs0mg"},{"bike_id":"66e7fe27-5ee6-4852-826b-73f47ccaf138","system_id":"levelo_inurba_marseille","lat":43.30168,"lon":5.3808,"is_reserved":false,"is_disabled":false,"rental_uris":{"android":"levelo://app?vid=66e7fe27-5ee6-4852-826b-73f47ccaf138","ios":"levelo://app?vid=66e7fe27-5ee6-4852-826b-73f47ccaf138"},"vehicle_type_id":"4","last_reported":1730812605,"current_range_meters":20800,"station_id":"ce4bgjp2rcd13ifvqbh0","pricing_plan_id":"cebpf4jnsgd1na2vs0mg"},{"bike_id":"d112ef64-8345-40dc-a437-a0aa8c5bd57d","system_id":"levelo_inurba_marseille","lat":43.30541,"lon":5.36693,"is_reserved":false,"is_disabled":false,"rental_uris":{"android":"levelo://app?vid=d112ef64-8345-40dc-a437-a0aa8c5bd57d","ios":"levelo://app?vid=d112ef64-8345-40dc-a437-a0aa8c5bd57d"},"vehicle_type_id":"4","last_reported":1730812605,"current_range_meters":39200,"station_id":"ce4bgrp2rcd13ifvqc9g","pricing_plan_id":"cebpf4jnsgd1na2vs0mg"},{"bike_id":"00db643c-5868-4206-be55-7a08f1b86e96","system_id":"levelo_inurba_marseille","lat":43.23177,"lon":5.39984,"is_reserved":false,"is_disabled":false,"rental_uris":{"android":"levelo://app?vid=00db643c-5868-4206-be55-7a08f1b86e96","ios":"levelo://app?vid=00db643c-5868-4206-be55-7a08f1b86e96"},"vehicle_type_id":"4","last_reported":1730812605,"current_range_meters":19600,"station_id":"ce4bhn12rcd13ifvqgqg","pricing_plan_id":"cebpf4jnsgd1na2vs0mg"},{"bike_id":"08b2dda7-31f0-43cd-a581-85b80e9b27a5","system_id":"levelo_inurba_marseille","lat":43.24073,"lon":5.37757,"is_reserved":false,"is_disabled":false,"rental_uris":{"android":"levelo://app?vid=08b2dda7-31f0-43cd-a581-85b80e9b27a5","ios":"levelo://app?vid=08b2dda7-31f0-43cd-a581-85b80e9b27a5"},"vehicle_type_id":"4","last_reported":1730812605,"current_range_meters":11600,"station_id":"ce4bhnp2rcd13ifvqgvg","pricing_plan_id":"cebpf4jnsgd1na2vs0mg"},{"bike_id":"39c26ec3-7259-493d-931d-7992a49e0144","system_id":"levelo_inurba_marseille","lat":43.24076,"lon":5.37756,"is_reserved":false,"is_disabled":false,"rental_uris":{"android":"levelo://app?vid=39c26ec3-7259-493d-931d-7992a49e0144","ios":"levelo://app?vid=39c26ec3-7259-493d-931d-7992a49e0144"},"vehicle_type_id":"4","last_reported":1730812605,"current_range_meters":13600,"station_id":"ce4bhnp2rcd13ifvqgvg","pricing_plan_id":"cebpf4jnsgd1na2vs0mg"},{"bike_id":"adf94568-f560-4501-938c-780d1b506fa8","system_id":"levelo_inurba_marseille","lat":43.31358,"lon":5.36691,"is_reserved":false,"is_disabled":false,"rental_uris":{"android":"levelo://app?vid=adf94568-f560-4501-938c-780d1b506fa8","ios":"levelo://app?vid=adf94568-f560-4501-938c-780d1b506fa8"},"vehicle_type_id":"4","last_reported":1730812605,"current_range_meters":33600,"station_id":"ce4bgr92rcd13ifvqc6g","pricing_plan_id":"cebpf4jnsgd1na2vs0mg"},{"bike_id":"6a7af207-f55e-4960-8e9a-d89e54457ec4","system_id":"levelo_inurba_marseille","lat":43.29534,"lon":5.38541,"is_reserved":false,"is_disabled":false,"rental_uris":{"android":"levelo://app?vid=6a7af207-f55e-4960-8e9a-d89e54457ec4","ios":"levelo://app?vid=6a7af207-f55e-4960-8e9a-d89e54457ec4"},"vehicle_type_id":"4","last_reported":1730812605,"current_range_meters":38800,"station_id":"ce4bgih2rcd13ifvqba0","pricing_plan_id":"cebpf4jnsgd1na2vs0mg"},{"bike_id":"4e6332c0-3dde-44f5-a3e2-5bcb34855e85","system_id":"levelo_inurba_marseille","lat":43.24075,"lon":5.37757,"is_reserved":false,"is_disabled":false,"rental_uris":{"android":"levelo://app?vid=4e6332c0-3dde-44f5-a3e2-5bcb34855e85","ios":"levelo://app?vid=4e6332c0-3dde-44f5-a3e2-5bcb34855e85"},"vehicle_type_id":"4","last_reported":1730812605,"current_range_meters":38800,"station_id":"ce4bhnp2rcd13ifvqgvg","pricing_plan_id":"cebpf4jnsgd1na2vs0mg"},{"bike_id":"d3a2d74b-227b-43e0-a669-db2d440f7cc1","system_id":"levelo_inurba_marseille","lat":43.30532,"lon":5.36535,"is_reserved":false,"is_disabled":false,"rental_uris":{"android":"levelo://app?vid=d3a2d74b-227b-43e0-a669-db2d440f7cc1","ios":"levelo://app?vid=d3a2d74b-227b-43e0-a669-db2d440f7cc1"},"vehicle_type_id":"4","last_reported":1730812605,"current_range_meters":10000,"station_id":"ce4bgs12rcd13ifvqcag","pricing_plan_id":"cebpf4jnsgd1na2vs0mg"},{"bike_id":"f9920479-8f33-4910-9fdc-916ee657b2e2","system_id":"levelo_inurba_marseille","lat":43.28466,"lon":5.35888,"is_reserved":false,"is_disabled":false,"rental_uris":{"android":"levelo://app?vid=f9920479-8f33-4910-9fdc-916ee657b2e2","ios":"levelo://app?vid=f9920479-8f33-4910-9fdc-916ee657b2e2"},"vehicle_type_id":"4","last_reported":1730812605,"current_range_meters":24400,"station_id":"ce4bhah2rcd13ifvqei0","pricing_plan_id":"cebpf4jnsgd1na2vs0mg"},{"bike_id":"567bf66d-18ed-4541-8618-b3c8bce9669b","system_id":"levelo_inurba_marseille","lat":43.28453,"lon":5.3589,"is_reserved":false,"is_disabled":false,"rental_uris":{"android":"levelo://app?vid=567bf66d-18ed-4541-8618-b3c8bce9669b","ios":"levelo://app?vid=567bf66d-18ed-4541-8618-b3c8bce9669b"},"vehicle_type_id":"4","last_reported":1730812605,"current_range_meters":37600,"station_id":"ce4bhah2rcd13ifvqei0","pricing_plan_id":"cebpf4jnsgd1na2vs0mg"},{"bike_id":"8e36e7f3-5037-4ce3-a562-cbe704104a3f","system_id":"levelo_inurba_marseille","lat":43.30915,"lon":5.36856,"is_reserved":false,"is_disabled":false,"rental_uris":{"android":"levelo://app?vid=8e36e7f3-5037-4ce3-a562-cbe704104a3f","ios":"levelo://app?vid=8e36e7f3-5037-4ce3-a562-cbe704104a3f"},"vehicle_type_id":"4","last_reported":1730812605,"current_range_meters":24800,"station_id":"ce4bgn92rcd13ifvqbvg","pricing_plan_id":"cebpf4jnsgd1na2vs0mg"},{"bike_id":"03778af9-b180-4979-981d-60269a187d57","system_id":"levelo_inurba_marseille","lat":43.30472,"lon":5.3791,"is_reserved":false,"is_disabled":false,"rental_uris":{"android":"levelo://app?vid=03778af9-b180-4979-981d-60269a187d57","ios":"levelo://app?vid=03778af9-b180-4979-981d-60269a187d57"},"vehicle_type_id":"4","last_reported":1730812605,"current_range_meters":26800,"station_id":"ce4bgup2rcd13ifvqcn0","pricing_plan_id":"cebpf4jnsgd1na2vs0mg"},{"bike_id":"2dd40e8a-347a-4069-9f04-901c41b0a3c7","system_id":"levelo_inurba_marseille","lat":43.32097,"lon":5.36771,"is_reserved":false,"is_disabled":false,"rental_uris":{"android":"levelo://app?vid=2dd40e8a-347a-4069-9f04-901c41b0a3c7","ios":"levelo://app?vid=2dd40e8a-347a-4069-9f04-901c41b0a3c7"},"vehicle_type_id":"4","last_reported":1730812605,"current_range_meters":36800,"station_id":"ce4bhrh2rcd13ifvqhug","pricing_plan_id":"cebpf4jnsgd1na2vs0mg"},{"bike_id":"2e389483-7787-4149-b7f0-0165708a1590","system_id":"levelo_inurba_marseille","lat":43.29734,"lon":5.37685,"is_reserved":false,"is_disabled":false,"rental_uris":{"android":"levelo://app?vid=2e389483-7787-4149-b7f0-0165708a1590","ios":"levelo://app?vid=2e389483-7787-4149-b7f0-0165708a1590"},"vehicle_type_id":"4","last_reported":1730812605,"current_range_meters":30000,"station_id":"ce4bgkh2rcd13ifvqbl0","pricing_plan_id":"cebpf4jnsgd1na2vs0mg"},{"bike_id":"14aa2063-c49c-4eac-bba4-8d4ccbc1b3ef","system_id":"levelo_inurba_marseille","lat":43.30308,"lon":5.36906,"is_reserved":false,"is_disabled":false,"rental_uris":{"android":"levelo://app?vid=14aa2063-c49c-4eac-bba4-8d4ccbc1b3ef","ios":"levelo://app?vid=14aa2063-c49c-4eac-bba4-8d4ccbc1b3ef"},"vehicle_type_id":"4","last_reported":1730812605,"current_range_meters":22000,"station_id":"ce4bgqh2rcd13ifvqc5g","pricing_plan_id":"cebpf4jnsgd1na2vs0mg"},{"bike_id":"38526b2a-8697-4aef-a174-e0c1be19b7a7","system_id":"levelo_inurba_marseille","lat":43.2884,"lon":5.35876,"is_reserved":false,"is_disabled":false,"rental_uris":{"android":"levelo://app?vid=38526b2a-8697-4aef-a174-e0c1be19b7a7","ios":"levelo://app?vid=38526b2a-8697-4aef-a174-e0c1be19b7a7"},"vehicle_type_id":"4","last_reported":1730812605,"current_range_meters":16800,"station_id":"ce4bhb12rcd13ifvqem0","pricing_plan_id":"cebpf4jnsgd1na2vs0mg"},{"bike_id":"67dab935-1b71-438c-83ee-d4f8ffbef4c9","system_id":"levelo_inurba_marseille","lat":43.32478,"lon":5.365573,"is_reserved":false,"is_disabled":false,"rental_uris":{"android":"levelo://app?vid=67dab935-1b71-438c-83ee-d4f8ffbef4c9","ios":"levelo://app?vid=67dab935-1b71-438c-83ee-d4f8ffbef4c9"},"vehicle_type_id":"4","last_reported":1730812605,"current_range_meters":23200,"station_id":"ce4bhs12rcd13ifvqhvg","pricing_plan_id":"cebpf4jnsgd1na2vs0mg"},{"bike_id":"0f74818d-20d1-441e-99c3-0860b26793d6","system_id":"levelo_inurba_marseille","lat":43.27071,"lon":5.42285,"is_reserved":false,"is_disabled":false,"rental_uris":{"android":"levelo://app?vid=0f74818d-20d1-441e-99c3-0860b26793d6","ios":"levelo://app?vid=0f74818d-20d1-441e-99c3-0860b26793d6"},"vehicle_type_id":"4","last_reported":1730812605,"current_range_meters":24800,"station_id":"ce4bhk92rcd13ifvqgb0","pricing_plan_id":"cebpf4jnsgd1na2vs0mg"},{"bike_id":"c8a2d708-abe4-4e54-aedc-a081f8a474e1","system_id":"levelo_inurba_marseille","lat":43.24081,"lon":5.37754,"is_reserved":false,"is_disabled":false,"rental_uris":{"android":"levelo://app?vid=c8a2d708-abe4-4e54-aedc-a081f8a474e1","ios":"levelo://app?vid=c8a2d708-abe4-4e54-aedc-a081f8a474e1"},"vehicle_type_id":"4","last_reported":1730812605,"current_range_meters":28000,"station_id":"ce4bhnp2rcd13ifvqgvg","pricing_plan_id":"cebpf4jnsgd1na2vs0mg"},{"bike_id":"068ea267-bf0d-40d7-9af9-1d5b3589b2a2","system_id":"levelo_inurba_marseille","lat":43.3018,"lon":5.36602,"is_reserved":false,"is_disabled":false,"rental_uris":{"android":"levelo://app?vid=068ea267-bf0d-40d7-9af9-1d5b3589b2a2","ios":"levelo://app?vid=068ea267-bf0d-40d7-9af9-1d5b3589b2a2"},"vehicle_type_id":"4","last_reported":1730812605,"current_range_meters":36800,"station_id":"ce4bgrh2rcd13ifvqc8g","pricing_plan_id":"cebpf4jnsgd1na2vs0mg"},{"bike_id":"91250bf2-829d-44d4-9abc-97013f1fe234","system_id":"levelo_inurba_marseille","lat":43.23147,"lon":5.43706,"is_reserved":false,"is_disabled":false,"rental_uris":{"android":"levelo://app?vid=91250bf2-829d-44d4-9abc-97013f1fe234","ios":"levelo://app?vid=91250bf2-829d-44d4-9abc-97013f1fe234"},"vehicle_type_id":"4","last_reported":1730812605,"current_range_meters":14000,"station_id":"ce4bhmp2rcd13ifvqgog","pricing_plan_id":"cebpf4jnsgd1na2vs0mg"},{"bike_id":"3a79e6c4-3b30-4041-b795-1da091c71710","system_id":"levelo_inurba_marseille","lat":43.30144,"lon":5.39878,"is_reserved":false,"is_disabled":false,"rental_uris":{"android":"levelo://app?vid=3a79e6c4-3b30-4041-b795-1da091c71710","ios":"levelo://app?vid=3a79e6c4-3b30-4041-b795-1da091c71710"},"vehicle_type_id":"4","last_reported":1730812605,"current_range_meters":34800,"station_id":"ce4bh0h2rcd13ifvqd40","pricing_plan_id":"cebpf4jnsgd1na2vs0mg"},{"bike_id":"64034af2-67ea-4876-bcba-e9667f90eda7","system_id":"levelo_inurba_marseille","lat":43.33718,"lon":5.39188,"is_reserved":false,"is_disabled":false,"rental_uris":{"android":"levelo://app?vid=64034af2-67ea-4876-bcba-e9667f90eda7","ios":"levelo://app?vid=64034af2-67ea-4876-bcba-e9667f90eda7"},"vehicle_type_id":"4","last_reported":1730812605,"current_range_meters":20000,"station_id":"ce4bhr92rcd13ifvqhsg","pricing_plan_id":"cebpf4jnsgd1na2vs0mg"},{"bike_id":"fd3d7fc4-9de6-4a21-a0d2-8b3bae7b15c3","system_id":"levelo_inurba_marseille","lat":43.29981,"lon":5.38492,"is_reserved":false,"is_disabled":false,"rental_uris":{"android":"levelo://app?vid=fd3d7fc4-9de6-4a21-a0d2-8b3bae7b15c3","ios":"levelo://app?vid=fd3d7fc4-9de6-4a21-a0d2-8b3bae7b15c3"},"vehicle_type_id":"4","last_reported":1730812605,"current_range_meters":28800,"station_id":"ce4bgj92rcd13ifvqbd0","pricing_plan_id":"cebpf4jnsgd1na2vs0mg"},{"bike_id":"d0a0f3c0-34f6-4bea-9bb7-7ec1a9549e31","system_id":"levelo_inurba_marseille","lat":43.30913,"lon":5.36854,"is_reserved":false,"is_disabled":false,"rental_uris":{"android":"levelo://app?vid=d0a0f3c0-34f6-4bea-9bb7-7ec1a9549e31","ios":"levelo://app?vid=d0a0f3c0-34f6-4bea-9bb7-7ec1a9549e31"},"vehicle_type_id":"4","last_reported":1730812605,"current_range_meters":30400,"station_id":"ce4bgn92rcd13ifvqbvg","pricing_plan_id":"cebpf4jnsgd1na2vs0mg"},{"bike_id":"98ecf52e-74c6-45bc-a5b2-06c6ca5d158c","system_id":"levelo_inurba_marseille","lat":43.30908,"lon":5.36852,"is_reserved":false,"is_disabled":false,"rental_uris":{"android":"levelo://app?vid=98ecf52e-74c6-45bc-a5b2-06c6ca5d158c","ios":"levelo://app?vid=98ecf52e-74c6-45bc-a5b2-06c6ca5d158c"},"vehicle_type_id":"4","last_reported":1730812605,"current_range_meters":38800,"station_id":"ce4bgn92rcd13ifvqbvg","pricing_plan_id":"cebpf4jnsgd1na2vs0mg"},{"bike_id":"0d6389f7-bab8-4ebf-ad74-7e0fecb405b9","system_id":"levelo_inurba_marseille","lat":43.31351,"lon":5.36701,"is_reserved":false,"is_disabled":false,"rental_uris":{"android":"levelo://app?vid=0d6389f7-bab8-4ebf-ad74-7e0fecb405b9","ios":"levelo://app?vid=0d6389f7-bab8-4ebf-ad74-7e0fecb405b9"},"vehicle_type_id":"4","last_reported":1730812605,"current_range_meters":34000,"station_id":"ce4bgr92rcd13ifvqc6g","pricing_plan_id":"cebpf4jnsgd1na2vs0mg"},{"bike_id":"a75a6002-5ac3-48a0-9beb-b15582ad81ed","system_id":"levelo_inurba_marseille","lat":43.29276,"lon":5.36847,"is_reserved":false,"is_disabled":false,"rental_uris":{"android":"levelo://app?vid=a75a6002-5ac3-48a0-9beb-b15582ad81ed","ios":"levelo://app?vid=a75a6002-5ac3-48a0-9beb-b15582ad81ed"},"vehicle_type_id":"4","last_reported":1730812605,"current_range_meters":33600,"station_id":"ce4bhbp2rcd13ifvqesg","pricing_plan_id":"cebpf4jnsgd1na2vs0mg"},{"bike_id":"54da604b-0b15-4aee-a983-1d3e6ef5aa2b","system_id":"levelo_inurba_marseille","lat":43.29297,"lon":5.37448,"is_reserved":false,"is_disabled":false,"rental_uris":{"android":"levelo://app?vid=54da604b-0b15-4aee-a983-1d3e6ef5aa2b","ios":"levelo://app?vid=54da604b-0b15-4aee-a983-1d3e6ef5aa2b"},"vehicle_type_id":"4","last_reported":1730812605,"current_range_meters":19600,"station_id":"ce4bgi12rcd13ifvqb70","pricing_plan_id":"cebpf4jnsgd1na2vs0mg"},{"bike_id":"2eac1b37-6523-49bd-a9dd-e97d9d8f39c0","system_id":"levelo_inurba_marseille","lat":43.31079,"lon":5.38353,"is_reserved":false,"is_disabled":false,"rental_uris":{"android":"levelo://app?vid=2eac1b37-6523-49bd-a9dd-e97d9d8f39c0","ios":"levelo://app?vid=2eac1b37-6523-49bd-a9dd-e97d9d8f39c0"},"vehicle_type_id":"4","last_reported":1730812605,"current_range_meters":17200,"station_id":"ce4bgv92rcd13ifvqcr0","pricing_plan_id":"cebpf4jnsgd1na2vs0mg"},{"bike_id":"6a5d2571-5798-4443-9a93-e6977dca5df3","system_id":"levelo_inurba_marseille","lat":43.29302,"lon":5.3746,"is_reserved":false,"is_disabled":false,"rental_uris":{"android":"levelo://app?vid=6a5d2571-5798-4443-9a93-e6977dca5df3","ios":"levelo://app?vid=6a5d2571-5798-4443-9a93-e6977dca5df3"},"vehicle_type_id":"4","last_reported":1730812605,"current_range_meters":31200,"station_id":"ce4bgi12rcd13ifvqb70","pricing_plan_id":"cebpf4jnsgd1na2vs0mg"},{"bike_id":"164f4c72-3ac3-41ed-b9c1-c47c1d3f4d75","system_id":"levelo_inurba_marseille","lat":43.29529,"lon":5.39043,"is_reserved":false,"is_disabled":false,"rental_uris":{"android":"levelo://app?vid=164f4c72-3ac3-41ed-b9c1-c47c1d3f4d75","ios":"levelo://app?vid=164f4c72-3ac3-41ed-b9c1-c47c1d3f4d75"},"vehicle_type_id":"4","last_reported":1730812605,"current_range_meters":3200,"station_id":"ce4bh3p2rcd13ifvqdp0","pricing_plan_id":"cebpf4jnsgd1na2vs0mg"},{"bike_id":"ef72ff6d-b8ec-426d-9b01-2f7e11c354cc","system_id":"levelo_inurba_marseille","lat":43.2512,"lon":5.40319,"is_reserved":false,"is_disabled":false,"rental_uris":{"android":"levelo://app?vid=ef72ff6d-b8ec-426d-9b01-2f7e11c354cc","ios":"levelo://app?vid=ef72ff6d-b8ec-426d-9b01-2f7e11c354cc"},"vehicle_type_id":"4","last_reported":1730812605,"current_range_meters":9600,"station_id":"ce4bhlh2rcd13ifvqgig","pricing_plan_id":"cebpf4jnsgd1na2vs0mg"},{"bike_id":"167ef5f5-e3b7-421f-89dd-e83b295e2725","system_id":"levelo_inurba_marseille","lat":43.30468,"lon":5.37916,"is_reserved":false,"is_disabled":false,"rental_uris":{"android":"levelo://app?vid=167ef5f5-e3b7-421f-89dd-e83b295e2725","ios":"levelo://app?vid=167ef5f5-e3b7-421f-89dd-e83b295e2725"},"vehicle_type_id":"4","last_reported":1730812605,"current_range_meters":30000,"station_id":"ce4bgup2rcd13ifvqcn0","pricing_plan_id":"cebpf4jnsgd1na2vs0mg"},{"bike_id":"9a9da745-cf0b-4ae5-bddf-a48d7360d6b4","system_id":"levelo_inurba_marseille","lat":43.26061,"lon":5.39399,"is_reserved":false,"is_disabled":false,"rental_uris":{"android":"levelo://app?vid=9a9da745-cf0b-4ae5-bddf-a48d7360d6b4","ios":"levelo://app?vid=9a9da745-cf0b-4ae5-bddf-a48d7360d6b4"},"vehicle_type_id":"4","last_reported":1730812605,"current_range_meters":25600,"station_id":"ce4bhh92rcd13ifvqfj0","pricing_plan_id":"cebpf4jnsgd1na2vs0mg"},{"bike_id":"2873ea86-eb57-446c-aef6-73d80f4ea586","system_id":"levelo_inurba_marseille","lat":43.26939,"lon":5.38931,"is_reserved":false,"is_disabled":false,"rental_uris":{"android":"levelo://app?vid=2873ea86-eb57-446c-aef6-73d80f4ea586","ios":"levelo://app?vid=2873ea86-eb57-446c-aef6-73d80f4ea586"},"vehicle_type_id":"4","last_reported":1730812605,"current_range_meters":28400,"station_id":"ce4bhhh2rcd13ifvqfl0","pricing_plan_id":"cebpf4jnsgd1na2vs0mg"},{"bike_id":"8034380f-6d58-4b7a-9336-f21f0990bb40","system_id":"levelo_inurba_marseille","lat":43.2794,"lon":5.41047,"is_reserved":false,"is_disabled":false,"rental_uris":{"android":"levelo://app?vid=8034380f-6d58-4b7a-9336-f21f0990bb40","ios":"levelo://app?vid=8034380f-6d58-4b7a-9336-f21f0990bb40"},"vehicle_type_id":"4","last_reported":1730812605,"current_range_meters":27600,"station_id":"ce4bhnp2rcd13ifvqh0g","pricing_plan_id":"cebpf4jnsgd1na2vs0mg"},{"bike_id":"15de2ca6-28c5-4f21-a946-3c35db8b327d","system_id":"levelo_inurba_marseille","lat":43.24077,"lon":5.37752,"is_reserved":false,"is_disabled":false,"rental_uris":{"android":"levelo://app?vid=15de2ca6-28c5-4f21-a946-3c35db8b327d","ios":"levelo://app?vid=15de2ca6-28c5-4f21-a946-3c35db8b327d"},"vehicle_type_id":"4","last_reported":1730812605,"current_range_meters":31200,"station_id":"ce4bhnp2rcd13ifvqgvg","pricing_plan_id":"cebpf4jnsgd1na2vs0mg"},{"bike_id":"225c749a-6f56-4ff9-9ec7-1b609acad786","system_id":"levelo_inurba_marseille","lat":43.30318,"lon":5.36895,"is_reserved":false,"is_disabled":false,"rental_uris":{"android":"levelo://app?vid=225c749a-6f56-4ff9-9ec7-1b609acad786","ios":"levelo://app?vid=225c749a-6f56-4ff9-9ec7-1b609acad786"},"vehicle_type_id":"4","last_reported":1730812605,"current_range_meters":24400,"station_id":"ce4bgqh2rcd13ifvqc5g","pricing_plan_id":"cebpf4jnsgd1na2vs0mg"},{"bike_id":"16ae9290-db9a-4317-b34b-8b26fa9930fd","system_id":"levelo_inurba_marseille","lat":43.23154,"lon":5.43707,"is_reserved":false,"is_disabled":false,"rental_uris":{"android":"levelo://app?vid=16ae9290-db9a-4317-b34b-8b26fa9930fd","ios":"levelo://app?vid=16ae9290-db9a-4317-b34b-8b26fa9930fd"},"vehicle_type_id":"4","last_reported":1730812605,"current_range_meters":27600,"station_id":"ce4bhmp2rcd13ifvqgog","pricing_plan_id":"cebpf4jnsgd1na2vs0mg"},{"bike_id":"c268517c-964f-46f6-a31b-b02dc0b753e1","system_id":"levelo_inurba_marseille","lat":43.292755,"lon":5.368494,"is_reserved":false,"is_disabled":false,"rental_uris":{"android":"levelo://app?vid=c268517c-964f-46f6-a31b-b02dc0b753e1","ios":"levelo://app?vid=c268517c-964f-46f6-a31b-b02dc0b753e1"},"vehicle_type_id":"4","last_reported":1730812605,"current_range_meters":9600,"station_id":"ce4bhbp2rcd13ifvqesg","pricing_plan_id":"cebpf4jnsgd1na2vs0mg"},{"bike_id":"77f75c58-df77-4d1f-b372-5b5eed455101","system_id":"levelo_inurba_marseille","lat":43.3054,"lon":5.36538,"is_reserved":false,"is_disabled":false,"rental_uris":{"android":"levelo://app?vid=77f75c58-df77-4d1f-b372-5b5eed455101","ios":"levelo://app?vid=77f75c58-df77-4d1f-b372-5b5eed455101"},"vehicle_type_id":"4","last_reported":1730812605,"current_range_meters":39200,"station_id":"ce4bgs12rcd13ifvqcag","pricing_plan_id":"cebpf4jnsgd1na2vs0mg"},{"bike_id":"244cea1c-a273-484e-8f77-a4c20d66b9a1","system_id":"levelo_inurba_marseille","lat":43.32473,"lon":5.36564,"is_reserved":false,"is_disabled":false,"rental_uris":{"android":"levelo://app?vid=244cea1c-a273-484e-8f77-a4c20d66b9a1","ios":"levelo://app?vid=244cea1c-a273-484e-8f77-a4c20d66b9a1"},"vehicle_type_id":"4","last_reported":1730812605,"current_range_meters":25200,"station_id":"ce4bhs12rcd13ifvqhvg","pricing_plan_id":"cebpf4jnsgd1na2vs0mg"},{"bike_id":"fe2a7ca2-6bcd-4713-a568-8142f6ee8d6b","system_id":"levelo_inurba_marseille","lat":43.278116,"lon":5.407107,"is_reserved":false,"is_disabled":false,"rental_uris":{"android":"levelo://app?vid=fe2a7ca2-6bcd-4713-a568-8142f6ee8d6b","ios":"levelo://app?vid=fe2a7ca2-6bcd-4713-a568-8142f6ee8d6b"},"vehicle_type_id":"4","last_reported":1730812605,"current_range_meters":38800,"station_id":"ce4bhnh2rcd13ifvqgtg","pricing_plan_id":"cebpf4jnsgd1na2vs0mg"},{"bike_id":"d7eba0bc-553a-47d4-8bc6-a467f428147a","system_id":"levelo_inurba_marseille","lat":43.31355,"lon":5.36717,"is_reserved":false,"is_disabled":false,"rental_uris":{"android":"levelo://app?vid=d7eba0bc-553a-47d4-8bc6-a467f428147a","ios":"levelo://app?vid=d7eba0bc-553a-47d4-8bc6-a467f428147a"},"vehicle_type_id":"4","last_reported":1730812605,"current_range_meters":29600,"station_id":"ce4bgr92rcd13ifvqc6g","pricing_plan_id":"cebpf4jnsgd1na2vs0mg"},{"bike_id":"bdce9180-89d6-477b-90d2-848cb6200d2e","system_id":"levelo_inurba_marseille","lat":43.2407,"lon":5.37765,"is_reserved":false,"is_disabled":false,"rental_uris":{"android":"levelo://app?vid=bdce9180-89d6-477b-90d2-848cb6200d2e","ios":"levelo://app?vid=bdce9180-89d6-477b-90d2-848cb6200d2e"},"vehicle_type_id":"4","last_reported":1730812605,"current_range_meters":9200,"station_id":"ce4bhnp2rcd13ifvqgvg","pricing_plan_id":"cebpf4jnsgd1na2vs0mg"},{"bike_id":"da0d24fd-2313-4922-b0b2-d3ea01a9cc55","system_id":"levelo_inurba_marseille","lat":43.2988,"lon":5.38909,"is_reserved":false,"is_disabled":false,"rental_uris":{"android":"levelo://app?vid=da0d24fd-2313-4922-b0b2-d3ea01a9cc55","ios":"levelo://app?vid=da0d24fd-2313-4922-b0b2-d3ea01a9cc55"},"vehicle_type_id":"4","last_reported":1730812605,"current_range_meters":16000,"station_id":"ce4bh392rcd13ifvqdl0","pricing_plan_id":"cebpf4jnsgd1na2vs0mg"},{"bike_id":"8fd247f3-3523-45de-af8d-5d9d746a9ec8","system_id":"levelo_inurba_marseille","lat":43.26953,"lon":5.38622,"is_reserved":false,"is_disabled":false,"rental_uris":{"android":"levelo://app?vid=8fd247f3-3523-45de-af8d-5d9d746a9ec8","ios":"levelo://app?vid=8fd247f3-3523-45de-af8d-5d9d746a9ec8"},"vehicle_type_id":"4","last_reported":1730812605,"current_range_meters":30000,"station_id":"ce4bhh92rcd13ifvqfh0","pricing_plan_id":"cebpf4jnsgd1na2vs0mg"},{"bike_id":"bb254295-6b2f-47fa-b542-f768ed4879ee","system_id":"levelo_inurba_marseille","lat":43.23153,"lon":5.43708,"is_reserved":false,"is_disabled":false,"rental_uris":{"android":"levelo://app?vid=bb254295-6b2f-47fa-b542-f768ed4879ee","ios":"levelo://app?vid=bb254295-6b2f-47fa-b542-f768ed4879ee"},"vehicle_type_id":"4","last_reported":1730812605,"current_range_meters":17200,"station_id":"ce4bhmp2rcd13ifvqgog","pricing_plan_id":"cebpf4jnsgd1na2vs0mg"},{"bike_id":"9d77ffc3-1d32-4b8f-af13-c75dc39aee03","system_id":"levelo_inurba_marseille","lat":43.28355,"lon":5.3811,"is_reserved":false,"is_disabled":false,"rental_uris":{"android":"levelo://app?vid=9d77ffc3-1d32-4b8f-af13-c75dc39aee03","ios":"levelo://app?vid=9d77ffc3-1d32-4b8f-af13-c75dc39aee03"},"vehicle_type_id":"4","last_reported":1730812605,"current_range_meters":32400,"station_id":"ce4bh412rcd13ifvqdr0","pricing_plan_id":"cebpf4jnsgd1na2vs0mg"},{"bike_id":"ff667aa2-147a-4a47-b6ea-40549b50c928","system_id":"levelo_inurba_marseille","lat":43.23152,"lon":5.43717,"is_reserved":false,"is_disabled":false,"rental_uris":{"android":"levelo://app?vid=ff667aa2-147a-4a47-b6ea-40549b50c928","ios":"levelo://app?vid=ff667aa2-147a-4a47-b6ea-40549b50c928"},"vehicle_type_id":"4","last_reported":1730812605,"current_range_meters":32000,"station_id":"ce4bhmp2rcd13ifvqgog","pricing_plan_id":"cebpf4jnsgd1na2vs0mg"},{"bike_id":"3014b212-974c-466c-9aff-e44359b0d1ec","system_id":"levelo_inurba_marseille","lat":43.28937,"lon":5.36637,"is_reserved":false,"is_disabled":false,"rental_uris":{"android":"levelo://app?vid=3014b212-974c-466c-9aff-e44359b0d1ec","ios":"levelo://app?vid=3014b212-974c-466c-9aff-e44359b0d1ec"},"vehicle_type_id":"4","last_reported":1730812605,"current_range_meters":32800,"station_id":"ce4bhap2rcd13ifvqek0","pricing_plan_id":"cebpf4jnsgd1na2vs0mg"},{"bike_id":"3477c73d-62b8-4edf-adfe-25d6f1325f7f","system_id":"levelo_inurba_marseille","lat":43.26959,"lon":5.38636,"is_reserved":false,"is_disabled":false,"rental_uris":{"android":"levelo://app?vid=3477c73d-62b8-4edf-adfe-25d6f1325f7f","ios":"levelo://app?vid=3477c73d-62b8-4edf-adfe-25d6f1325f7f"},"vehicle_type_id":"4","last_reported":1730812605,"current_range_meters":23200,"station_id":"ce4bhh92rcd13ifvqfh0","pricing_plan_id":"cebpf4jnsgd1na2vs0mg"},{"bike_id":"af6a9964-8306-4961-997f-925e30d885a7","system_id":"levelo_inurba_marseille","lat":43.261749,"lon":5.374962,"is_reserved":false,"is_disabled":false,"rental_uris":{"android":"levelo://app?vid=af6a9964-8306-4961-997f-925e30d885a7","ios":"levelo://app?vid=af6a9964-8306-4961-997f-925e30d885a7"},"vehicle_type_id":"4","last_reported":1730812605,"current_range_meters":31200,"station_id":"ce4bhgp2rcd13ifvqfc0","pricing_plan_id":"cebpf4jnsgd1na2vs0mg"},{"bike_id":"84522275-f1b5-4710-88b3-826bfb25b843","system_id":"levelo_inurba_marseille","lat":43.3414,"lon":5.40901,"is_reserved":false,"is_disabled":false,"rental_uris":{"android":"levelo://app?vid=84522275-f1b5-4710-88b3-826bfb25b843","ios":"levelo://app?vid=84522275-f1b5-4710-88b3-826bfb25b843"},"vehicle_type_id":"4","last_reported":1730812605,"current_range_meters":17600,"station_id":"ce4bhqh2rcd13ifvqhlg","pricing_plan_id":"cebpf4jnsgd1na2vs0mg"},{"bike_id":"5832e14c-3b42-4c86-ac3f-f2e0b7767232","system_id":"levelo_inurba_marseille","lat":43.31713,"lon":5.37743,"is_reserved":false,"is_disabled":false,"rental_uris":{"android":"levelo://app?vid=5832e14c-3b42-4c86-ac3f-f2e0b7767232","ios":"levelo://app?vid=5832e14c-3b42-4c86-ac3f-f2e0b7767232"},"vehicle_type_id":"4","last_reported":1730812605,"current_range_meters":28800,"station_id":"ce4bgth2rcd13ifvqch0","pricing_plan_id":"cebpf4jnsgd1na2vs0mg"},{"bike_id":"0a3c1a6b-eadc-4e53-adb5-ce60bbc39060","system_id":"levelo_inurba_marseille","lat":43.3302,"lon":5.39035,"is_reserved":false,"is_disabled":false,"rental_uris":{"android":"levelo://app?vid=0a3c1a6b-eadc-4e53-adb5-ce60bbc39060","ios":"levelo://app?vid=0a3c1a6b-eadc-4e53-adb5-ce60bbc39060"},"vehicle_type_id":"4","last_reported":1730812605,"current_range_meters":4400,"station_id":"ce4bhr92rcd13ifvqhrg","pricing_plan_id":"cebpf4jnsgd1na2vs0mg"},{"bike_id":"68808481-52a6-4cb1-b2aa-ee04b0b4e21a","system_id":"levelo_inurba_marseille","lat":43.29567,"lon":5.39969,"is_reserved":false,"is_disabled":false,"rental_uris":{"android":"levelo://app?vid=68808481-52a6-4cb1-b2aa-ee04b0b4e21a","ios":"levelo://app?vid=68808481-52a6-4cb1-b2aa-ee04b0b4e21a"},"vehicle_type_id":"4","last_reported":1730812605,"current_range_meters":27600,"station_id":"ce4bh312rcd13ifvqdj0","pricing_plan_id":"cebpf4jnsgd1na2vs0mg"},{"bike_id":"f5c149b5-832a-422b-b4b4-f0c23dcc50b1","system_id":"levelo_inurba_marseille","lat":43.25719,"lon":5.41116,"is_reserved":false,"is_disabled":false,"rental_uris":{"android":"levelo://app?vid=f5c149b5-832a-422b-b4b4-f0c23dcc50b1","ios":"levelo://app?vid=f5c149b5-832a-422b-b4b4-f0c23dcc50b1"},"vehicle_type_id":"4","last_reported":1730812605,"current_range_meters":36800,"station_id":"ce4bhkp2rcd13ifvqgd0","pricing_plan_id":"cebpf4jnsgd1na2vs0mg"},{"bike_id":"c50677bd-2648-4b2c-a85d-fa9aec0be895","system_id":"levelo_inurba_marseille","lat":43.3055,"lon":5.36524,"is_reserved":false,"is_disabled":false,"rental_uris":{"android":"levelo://app?vid=c50677bd-2648-4b2c-a85d-fa9aec0be895","ios":"levelo://app?vid=c50677bd-2648-4b2c-a85d-fa9aec0be895"},"vehicle_type_id":"4","last_reported":1730812605,"current_range_meters":39200,"station_id":"ce4bgs12rcd13ifvqcag","pricing_plan_id":"cebpf4jnsgd1na2vs0mg"},{"bike_id":"e20042a3-679d-432e-bbad-615f69049412","system_id":"levelo_inurba_marseille","lat":43.2315,"lon":5.43708,"is_reserved":false,"is_disabled":false,"rental_uris":{"android":"levelo://app?vid=e20042a3-679d-432e-bbad-615f69049412","ios":"levelo://app?vid=e20042a3-679d-432e-bbad-615f69049412"},"vehicle_type_id":"4","last_reported":1730812605,"current_range_meters":27200,"station_id":"ce4bhmp2rcd13ifvqgog","pricing_plan_id":"cebpf4jnsgd1na2vs0mg"},{"bike_id":"47a64d21-5ac6-4cb0-9d7a-360d0b956e6c","system_id":"levelo_inurba_marseille","lat":43.30279,"lon":5.37702,"is_reserved":false,"is_disabled":false,"rental_uris":{"android":"levelo://app?vid=47a64d21-5ac6-4cb0-9d7a-360d0b956e6c","ios":"levelo://app?vid=47a64d21-5ac6-4cb0-9d7a-360d0b956e6c"},"vehicle_type_id":"4","last_reported":1730812605,"current_range_meters":6800,"station_id":"ce4bguh2rcd13ifvqcj0","pricing_plan_id":"cebpf4jnsgd1na2vs0mg"},{"bike_id":"0364ef51-c7bc-42b0-96db-5ed05474de36","system_id":"levelo_inurba_marseille","lat":43.268065,"lon":5.402606,"is_reserved":false,"is_disabled":false,"rental_uris":{"android":"levelo://app?vid=0364ef51-c7bc-42b0-96db-5ed05474de36","ios":"levelo://app?vid=0364ef51-c7bc-42b0-96db-5ed05474de36"},"vehicle_type_id":"4","last_reported":1730812605,"current_range_meters":37600,"station_id":"ce501612rcd8frsf0b60","pricing_plan_id":"cebpf4jnsgd1na2vs0mg"},{"bike_id":"5ece9b67-3645-4f7d-89c6-320b29abf0c8","system_id":"levelo_inurba_marseille","lat":43.31163,"lon":5.38724,"is_reserved":false,"is_disabled":false,"rental_uris":{"android":"levelo://app?vid=5ece9b67-3645-4f7d-89c6-320b29abf0c8","ios":"levelo://app?vid=5ece9b67-3645-4f7d-89c6-320b29abf0c8"},"vehicle_type_id":"4","last_reported":1730812605,"current_range_meters":22800,"station_id":"ce4bgv12rcd13ifvqcp0","pricing_plan_id":"cebpf4jnsgd1na2vs0mg"},{"bike_id":"f6fac252-bcfe-4359-8cd8-84ee90eebb7d","system_id":"levelo_inurba_marseille","lat":43.30526,"lon":5.36538,"is_reserved":false,"is_disabled":false,"rental_uris":{"android":"levelo://app?vid=f6fac252-bcfe-4359-8cd8-84ee90eebb7d","ios":"levelo://app?vid=f6fac252-bcfe-4359-8cd8-84ee90eebb7d"},"vehicle_type_id":"4","last_reported":1730812605,"current_range_meters":39200,"station_id":"ce4bgs12rcd13ifvqcag","pricing_plan_id":"cebpf4jnsgd1na2vs0mg"},{"bike_id":"660f9ab5-0ee6-45bd-9ba0-20f4579b8e99","system_id":"levelo_inurba_marseille","lat":43.33602,"lon":5.41026,"is_reserved":false,"is_disabled":false,"rental_uris":{"android":"levelo://app?vid=660f9ab5-0ee6-45bd-9ba0-20f4579b8e99","ios":"levelo://app?vid=660f9ab5-0ee6-45bd-9ba0-20f4579b8e99"},"vehicle_type_id":"4","last_reported":1730812605,"current_range_meters":38800,"station_id":"ce4bhqh2rcd13ifvqhmg","pricing_plan_id":"cebpf4jnsgd1na2vs0mg"},{"bike_id":"610b0d0c-3930-46a1-8d7c-dbfb496d05de","system_id":"levelo_inurba_marseille","lat":43.278115,"lon":5.407114,"is_reserved":false,"is_disabled":false,"rental_uris":{"android":"levelo://app?vid=610b0d0c-3930-46a1-8d7c-dbfb496d05de","ios":"levelo://app?vid=610b0d0c-3930-46a1-8d7c-dbfb496d05de"},"vehicle_type_id":"4","last_reported":1730812605,"current_range_meters":38800,"station_id":"ce4bhnh2rcd13ifvqgtg","pricing_plan_id":"cebpf4jnsgd1na2vs0mg"},{"bike_id":"ae041007-e592-4090-bb3e-17b320956fec","system_id":"levelo_inurba_marseille","lat":43.2407,"lon":5.3775,"is_reserved":false,"is_disabled":false,"rental_uris":{"android":"levelo://app?vid=ae041007-e592-4090-bb3e-17b320956fec","ios":"levelo://app?vid=ae041007-e592-4090-bb3e-17b320956fec"},"vehicle_type_id":"4","last_reported":1730812605,"current_range_meters":24800,"station_id":"ce4bhnp2rcd13ifvqgvg","pricing_plan_id":"cebpf4jnsgd1na2vs0mg"},{"bike_id":"c557a43f-c185-4421-a20d-08f384177812","system_id":"levelo_inurba_marseille","lat":43.30544,"lon":5.36554,"is_reserved":false,"is_disabled":false,"rental_uris":{"android":"levelo://app?vid=c557a43f-c185-4421-a20d-08f384177812","ios":"levelo://app?vid=c557a43f-c185-4421-a20d-08f384177812"},"vehicle_type_id":"4","last_reported":1730812605,"current_range_meters":17600,"station_id":"ce4bhah2rcd13ifvqej0","pricing_plan_id":"cebpf4jnsgd1na2vs0mg"},{"bike_id":"fc7e1c38-5ceb-4fb3-9afa-990ebfb95007","system_id":"levelo_inurba_marseille","lat":43.23147,"lon":5.43707,"is_reserved":false,"is_disabled":false,"rental_uris":{"android":"levelo://app?vid=fc7e1c38-5ceb-4fb3-9afa-990ebfb95007","ios":"levelo://app?vid=fc7e1c38-5ceb-4fb3-9afa-990ebfb95007"},"vehicle_type_id":"4","last_reported":1730812605,"current_range_meters":30800,"station_id":"ce4bhmp2rcd13ifvqgog","pricing_plan_id":"cebpf4jnsgd1na2vs0mg"},{"bike_id":"740e7a0f-3adc-4bb9-9944-e51bc6f053b9","system_id":"levelo_inurba_marseille","lat":43.28848,"lon":5.35847,"is_reserved":false,"is_disabled":false,"rental_uris":{"android":"levelo://app?vid=740e7a0f-3adc-4bb9-9944-e51bc6f053b9","ios":"levelo://app?vid=740e7a0f-3adc-4bb9-9944-e51bc6f053b9"},"vehicle_type_id":"4","last_reported":1730812605,"current_range_meters":20000,"station_id":"ce4bhb12rcd13ifvqem0","pricing_plan_id":"cebpf4jnsgd1na2vs0mg"},{"bike_id":"94767d64-6cce-4bdd-a274-3194a009e90b","system_id":"levelo_inurba_marseille","lat":43.29938,"lon":5.36538,"is_reserved":false,"is_disabled":false,"rental_uris":{"android":"levelo://app?vid=94767d64-6cce-4bdd-a274-3194a009e90b","ios":"levelo://app?vid=94767d64-6cce-4bdd-a274-3194a009e90b"},"vehicle_type_id":"4","last_reported":1730812605,"current_range_meters":31200,"station_id":"ce4bgm92rcd13ifvqbr0","pricing_plan_id":"cebpf4jnsgd1na2vs0mg"},{"bike_id":"6c040093-0dd7-42d7-9242-65b186048f12","system_id":"levelo_inurba_marseille","lat":43.30428,"lon":5.39744,"is_reserved":false,"is_disabled":false,"rental_uris":{"android":"levelo://app?vid=6c040093-0dd7-42d7-9242-65b186048f12","ios":"levelo://app?vid=6c040093-0dd7-42d7-9242-65b186048f12"},"vehicle_type_id":"4","last_reported":1730812605,"current_range_meters":38000,"station_id":"ce4bh092rcd13ifvqd20","pricing_plan_id":"cebpf4jnsgd1na2vs0mg"},{"bike_id":"823967de-5ba0-4689-8bf8-641b466fd8b1","system_id":"levelo_inurba_marseille","lat":43.23195,"lon":5.35556,"is_reserved":false,"is_disabled":false,"rental_uris":{"android":"levelo://app?vid=823967de-5ba0-4689-8bf8-641b466fd8b1","ios":"levelo://app?vid=823967de-5ba0-4689-8bf8-641b466fd8b1"},"vehicle_type_id":"4","last_reported":1730812605,"current_range_meters":38800,"station_id":"ce4bhu92rcd13ifvqi70","pricing_plan_id":"cebpf4jnsgd1na2vs0mg"},{"bike_id":"63ee36d0-4c90-4d76-9db3-a49c1c21ba84","system_id":"levelo_inurba_marseille","lat":43.28572,"lon":5.39489,"is_reserved":false,"is_disabled":false,"rental_uris":{"android":"levelo://app?vid=63ee36d0-4c90-4d76-9db3-a49c1c21ba84","ios":"levelo://app?vid=63ee36d0-4c90-4d76-9db3-a49c1c21ba84"},"vehicle_type_id":"4","last_reported":1730812605,"current_range_meters":16000,"station_id":"ce4bh292rcd13ifvqdg0","pricing_plan_id":"cebpf4jnsgd1na2vs0mg"},{"bike_id":"df2000e4-7ce1-46ba-980f-a90a63f2d7a2","system_id":"levelo_inurba_marseille","lat":43.29848,"lon":5.36283,"is_reserved":false,"is_disabled":false,"rental_uris":{"android":"levelo://app?vid=df2000e4-7ce1-46ba-980f-a90a63f2d7a2","ios":"levelo://app?vid=df2000e4-7ce1-46ba-980f-a90a63f2d7a2"},"vehicle_type_id":"4","last_reported":1730812605,"current_range_meters":36800,"station_id":"ce4bgpp2rcd13ifvqc3g","pricing_plan_id":"cebpf4jnsgd1na2vs0mg"},{"bike_id":"e4150d74-9ec4-4719-8e42-24f982d2f876","system_id":"levelo_inurba_marseille","lat":43.3021,"lon":5.39464,"is_reserved":false,"is_disabled":false,"rental_uris":{"android":"levelo://app?vid=e4150d74-9ec4-4719-8e42-24f982d2f876","ios":"levelo://app?vid=e4150d74-9ec4-4719-8e42-24f982d2f876"},"vehicle_type_id":"4","last_reported":1730812605,"current_range_meters":25600,"station_id":"ce4bh0p2rcd13ifvqd70","pricing_plan_id":"cebpf4jnsgd1na2vs0mg"},{"bike_id":"80321231-d2f0-42fa-8d09-af9526df13b5","system_id":"levelo_inurba_marseille","lat":43.26806,"lon":5.40258,"is_reserved":false,"is_disabled":false,"rental_uris":{"android":"levelo://app?vid=80321231-d2f0-42fa-8d09-af9526df13b5","ios":"levelo://app?vid=80321231-d2f0-42fa-8d09-af9526df13b5"},"vehicle_type_id":"4","last_reported":1730812605,"current_range_meters":28400,"station_id":"ce501612rcd8frsf0b60","pricing_plan_id":"cebpf4jnsgd1na2vs0mg"},{"bike_id":"10aaddce-952a-4d8b-ba57-bf0001759a8d","system_id":"levelo_inurba_marseille","lat":43.24067,"lon":5.37775,"is_reserved":false,"is_disabled":false,"rental_uris":{"android":"levelo://app?vid=10aaddce-952a-4d8b-ba57-bf0001759a8d","ios":"levelo://app?vid=10aaddce-952a-4d8b-ba57-bf0001759a8d"},"vehicle_type_id":"4","last_reported":1730812605,"current_range_meters":23200,"station_id":"ce4bhnp2rcd13ifvqgvg","pricing_plan_id":"cebpf4jnsgd1na2vs0mg"},{"bike_id":"6d3605b0-b78e-4d51-967e-394dfcc540d8","system_id":"levelo_inurba_marseille","lat":43.30917,"lon":5.36852,"is_reserved":false,"is_disabled":false,"rental_uris":{"android":"levelo://app?vid=6d3605b0-b78e-4d51-967e-394dfcc540d8","ios":"levelo://app?vid=6d3605b0-b78e-4d51-967e-394dfcc540d8"},"vehicle_type_id":"4","last_reported":1730812605,"current_range_meters":38800,"station_id":"ce4bgn92rcd13ifvqbvg","pricing_plan_id":"cebpf4jnsgd1na2vs0mg"},{"bike_id":"8e1dcca3-2df5-4c3a-a21e-49f99c301c9c","system_id":"levelo_inurba_marseille","lat":43.287,"lon":5.39978,"is_reserved":false,"is_disabled":false,"rental_uris":{"android":"levelo://app?vid=8e1dcca3-2df5-4c3a-a21e-49f99c301c9c","ios":"levelo://app?vid=8e1dcca3-2df5-4c3a-a21e-49f99c301c9c"},"vehicle_type_id":"4","last_reported":1730812605,"current_range_meters":28400,"station_id":"ce4bho92rcd13ifvqh3g","pricing_plan_id":"cebpf4jnsgd1na2vs0mg"},{"bike_id":"79b65e5d-d5af-4872-becc-b5819ccf6fdc","system_id":"levelo_inurba_marseille","lat":43.295504,"lon":5.385693,"is_reserved":false,"is_disabled":false,"rental_uris":{"android":"levelo://app?vid=79b65e5d-d5af-4872-becc-b5819ccf6fdc","ios":"levelo://app?vid=79b65e5d-d5af-4872-becc-b5819ccf6fdc"},"vehicle_type_id":"4","last_reported":1730812605,"current_range_meters":25200,"station_id":"ce4bgih2rcd13ifvqba0","pricing_plan_id":"cebpf4jnsgd1na2vs0mg"},{"bike_id":"c9bd347c-e298-42cd-a799-957af22e4f79","system_id":"levelo_inurba_marseille","lat":43.337444,"lon":5.374475,"is_reserved":false,"is_disabled":false,"rental_uris":{"android":"levelo://app?vid=c9bd347c-e298-42cd-a799-957af22e4f79","ios":"levelo://app?vid=c9bd347c-e298-42cd-a799-957af22e4f79"},"vehicle_type_id":"4","last_reported":1730812605,"current_range_meters":36800,"station_id":"ce4bh0h2rcd13ifvqd40","pricing_plan_id":"cebpf4jnsgd1na2vs0mg"},{"bike_id":"80b4c545-86e2-4157-a3db-38e0e80c9afe","system_id":"levelo_inurba_marseille","lat":43.33607,"lon":5.41023,"is_reserved":false,"is_disabled":false,"rental_uris":{"android":"levelo://app?vid=80b4c545-86e2-4157-a3db-38e0e80c9afe","ios":"levelo://app?vid=80b4c545-86e2-4157-a3db-38e0e80c9afe"},"vehicle_type_id":"4","last_reported":1730812605,"current_range_meters":36400,"station_id":"ce4bhqh2rcd13ifvqhmg","pricing_plan_id":"cebpf4jnsgd1na2vs0mg"},{"bike_id":"e7874ce2-f692-46c5-87b4-56890b100158","system_id":"levelo_inurba_marseille","lat":43.23069,"lon":5.35486,"is_reserved":false,"is_disabled":false,"rental_uris":{"android":"levelo://app?vid=e7874ce2-f692-46c5-87b4-56890b100158","ios":"levelo://app?vid=e7874ce2-f692-46c5-87b4-56890b100158"},"vehicle_type_id":"4","last_reported":1730812605,"current_range_meters":38800,"station_id":"cpo3342slgdg3j2ifvpg","pricing_plan_id":"cebpf4jnsgd1na2vs0mg"},{"bike_id":"89a0471b-f69b-4cec-bb93-8922779a3df6","system_id":"levelo_inurba_marseille","lat":43.27685,"lon":5.38873,"is_reserved":false,"is_disabled":false,"rental_uris":{"android":"levelo://app?vid=89a0471b-f69b-4cec-bb93-8922779a3df6","ios":"levelo://app?vid=89a0471b-f69b-4cec-bb93-8922779a3df6"},"vehicle_type_id":"4","last_reported":1730812605,"current_range_meters":9200,"station_id":"ce4bhi12rcd13ifvqfo0","pricing_plan_id":"cebpf4jnsgd1na2vs0mg"},{"bike_id":"8452a91d-c743-4c40-bda9-32ee02e68dee","system_id":"levelo_inurba_marseille","lat":43.2992,"lon":5.37472,"is_reserved":false,"is_disabled":false,"rental_uris":{"android":"levelo://app?vid=8452a91d-c743-4c40-bda9-32ee02e68dee","ios":"levelo://app?vid=8452a91d-c743-4c40-bda9-32ee02e68dee"},"vehicle_type_id":"4","last_reported":1730812605,"current_range_meters":38800,"station_id":"ce4bgjh2rcd13ifvqbg0","pricing_plan_id":"cebpf4jnsgd1na2vs0mg"},{"bike_id":"a6b470c9-d823-44bc-baa3-d9eb5e2efbd3","system_id":"levelo_inurba_marseille","lat":43.28153,"lon":5.42635,"is_reserved":false,"is_disabled":false,"rental_uris":{"android":"levelo://app?vid=a6b470c9-d823-44bc-baa3-d9eb5e2efbd3","ios":"levelo://app?vid=a6b470c9-d823-44bc-baa3-d9eb5e2efbd3"},"vehicle_type_id":"4","last_reported":1730812605,"current_range_meters":7200,"station_id":"ce4bhnh2rcd13ifvqgug","pricing_plan_id":"cebpf4jnsgd1na2vs0mg"},{"bike_id":"7a00effc-7e80-4f13-841c-e80640c6cd73","system_id":"levelo_inurba_marseille","lat":43.27314,"lon":5.39076,"is_reserved":false,"is_disabled":false,"rental_uris":{"android":"levelo://app?vid=7a00effc-7e80-4f13-841c-e80640c6cd73","ios":"levelo://app?vid=7a00effc-7e80-4f13-841c-e80640c6cd73"},"vehicle_type_id":"4","last_reported":1730812605,"current_range_meters":24400,"station_id":"ce4bhgp2rcd13ifvqfe0","pricing_plan_id":"cebpf4jnsgd1na2vs0mg"},{"bike_id":"3c750673-371a-4900-a67a-6cc1746c8e1c","system_id":"levelo_inurba_marseille","lat":43.28351,"lon":5.381127,"is_reserved":false,"is_disabled":false,"rental_uris":{"android":"levelo://app?vid=3c750673-371a-4900-a67a-6cc1746c8e1c","ios":"levelo://app?vid=3c750673-371a-4900-a67a-6cc1746c8e1c"},"vehicle_type_id":"4","last_reported":1730812605,"current_range_meters":15200,"station_id":"ce4bh412rcd13ifvqdr0","pricing_plan_id":"cebpf4jnsgd1na2vs0mg"},{"bike_id":"90a9da23-eb60-42b0-ba0a-88dc3a77ee40","system_id":"levelo_inurba_marseille","lat":43.2408,"lon":5.37752,"is_reserved":false,"is_disabled":false,"rental_uris":{"android":"levelo://app?vid=90a9da23-eb60-42b0-ba0a-88dc3a77ee40","ios":"levelo://app?vid=90a9da23-eb60-42b0-ba0a-88dc3a77ee40"},"vehicle_type_id":"4","last_reported":1730812605,"current_range_meters":25200,"station_id":"ce4bhnp2rcd13ifvqgvg","pricing_plan_id":"cebpf4jnsgd1na2vs0mg"},{"bike_id":"c864c025-b3b0-4077-aaf8-410eaac1ccba","system_id":"levelo_inurba_marseille","lat":43.29846,"lon":5.36281,"is_reserved":false,"is_disabled":false,"rental_uris":{"android":"levelo://app?vid=c864c025-b3b0-4077-aaf8-410eaac1ccba","ios":"levelo://app?vid=c864c025-b3b0-4077-aaf8-410eaac1ccba"},"vehicle_type_id":"4","last_reported":1730812605,"current_range_meters":11200,"station_id":"ce4bgpp2rcd13ifvqc3g","pricing_plan_id":"cebpf4jnsgd1na2vs0mg"},{"bike_id":"a2e82c11-865b-4d38-b6ec-37354976c512","system_id":"levelo_inurba_marseille","lat":43.29572,"lon":5.39973,"is_reserved":false,"is_disabled":false,"rental_uris":{"android":"levelo://app?vid=a2e82c11-865b-4d38-b6ec-37354976c512","ios":"levelo://app?vid=a2e82c11-865b-4d38-b6ec-37354976c512"},"vehicle_type_id":"4","last_reported":1730812605,"current_range_meters":4400,"station_id":"ce4bh312rcd13ifvqdj0","pricing_plan_id":"cebpf4jnsgd1na2vs0mg"},{"bike_id":"5d90ecf2-becd-4ff8-ac3b-b9734a78b537","system_id":"levelo_inurba_marseille","lat":43.30602,"lon":5.39365,"is_reserved":false,"is_disabled":false,"rental_uris":{"android":"levelo://app?vid=5d90ecf2-becd-4ff8-ac3b-b9734a78b537","ios":"levelo://app?vid=5d90ecf2-becd-4ff8-ac3b-b9734a78b537"},"vehicle_type_id":"4","last_reported":1730812605,"current_range_meters":21600,"station_id":"ce4bh0p2rcd13ifvqd80","pricing_plan_id":"cebpf4jnsgd1na2vs0mg"},{"bike_id":"c00bea07-7fca-48ff-b2cb-06a7ad838c9c","system_id":"levelo_inurba_marseille","lat":43.30539,"lon":5.36535,"is_reserved":false,"is_disabled":false,"rental_uris":{"android":"levelo://app?vid=c00bea07-7fca-48ff-b2cb-06a7ad838c9c","ios":"levelo://app?vid=c00bea07-7fca-48ff-b2cb-06a7ad838c9c"},"vehicle_type_id":"4","last_reported":1730812605,"current_range_meters":38800,"station_id":"ce4bgs12rcd13ifvqcag","pricing_plan_id":"cebpf4jnsgd1na2vs0mg"},{"bike_id":"8ec7a0f8-0810-4f63-a3ea-9187f3130e04","system_id":"levelo_inurba_marseille","lat":43.28082,"lon":5.3966,"is_reserved":false,"is_disabled":false,"rental_uris":{"android":"levelo://app?vid=8ec7a0f8-0810-4f63-a3ea-9187f3130e04","ios":"levelo://app?vid=8ec7a0f8-0810-4f63-a3ea-9187f3130e04"},"vehicle_type_id":"4","last_reported":1730812605,"current_range_meters":26000,"station_id":"ce4bho12rcd13ifvqh2g","pricing_plan_id":"cebpf4jnsgd1na2vs0mg"},{"bike_id":"a0940035-9bfd-4ab1-a8e3-713ba9141ed8","system_id":"levelo_inurba_marseille","lat":43.31384,"lon":5.36823,"is_reserved":false,"is_disabled":false,"rental_uris":{"android":"levelo://app?vid=a0940035-9bfd-4ab1-a8e3-713ba9141ed8","ios":"levelo://app?vid=a0940035-9bfd-4ab1-a8e3-713ba9141ed8"},"vehicle_type_id":"4","last_reported":1730812605,"current_range_meters":34000,"station_id":"","pricing_plan_id":"cebpf4jnsgd1na2vs0mg"},{"bike_id":"b592aa30-9f80-4f5b-a0ff-da2be38dcc1f","system_id":"levelo_inurba_marseille","lat":43.32107,"lon":5.36789,"is_reserved":false,"is_disabled":false,"rental_uris":{"android":"levelo://app?vid=b592aa30-9f80-4f5b-a0ff-da2be38dcc1f","ios":"levelo://app?vid=b592aa30-9f80-4f5b-a0ff-da2be38dcc1f"},"vehicle_type_id":"4","last_reported":1730812605,"current_range_meters":38000,"station_id":"ce4bhrh2rcd13ifvqhug","pricing_plan_id":"cebpf4jnsgd1na2vs0mg"},{"bike_id":"c2df6276-d0ea-475d-9ce8-c77644565570","system_id":"levelo_inurba_marseille","lat":43.33778,"lon":5.37442,"is_reserved":false,"is_disabled":false,"rental_uris":{"android":"levelo://app?vid=c2df6276-d0ea-475d-9ce8-c77644565570","ios":"levelo://app?vid=c2df6276-d0ea-475d-9ce8-c77644565570"},"vehicle_type_id":"4","last_reported":1730812605,"current_range_meters":38000,"station_id":"","pricing_plan_id":"cebpf4jnsgd1na2vs0mg"},{"bike_id":"28b1fd6c-3802-4a30-9942-cae0292068b7","system_id":"levelo_inurba_marseille","lat":43.29049,"lon":5.39946,"is_reserved":false,"is_disabled":false,"rental_uris":{"android":"levelo://app?vid=28b1fd6c-3802-4a30-9942-cae0292068b7","ios":"levelo://app?vid=28b1fd6c-3802-4a30-9942-cae0292068b7"},"vehicle_type_id":"4","last_reported":1730812605,"current_range_meters":34000,"station_id":"ce4bh392rcd13ifvqdm0","pricing_plan_id":"cebpf4jnsgd1na2vs0mg"},{"bike_id":"79dc6371-9f69-4ba8-abf4-03c6ad162c4f","system_id":"levelo_inurba_marseille","lat":43.29937,"lon":5.36541,"is_reserved":false,"is_disabled":false,"rental_uris":{"android":"levelo://app?vid=79dc6371-9f69-4ba8-abf4-03c6ad162c4f","ios":"levelo://app?vid=79dc6371-9f69-4ba8-abf4-03c6ad162c4f"},"vehicle_type_id":"4","last_reported":1730812605,"current_range_meters":30800,"station_id":"ce4bgm92rcd13ifvqbr0","pricing_plan_id":"cebpf4jnsgd1na2vs0mg"},{"bike_id":"eab47ed5-f83a-4939-80d1-ff052743bdd1","system_id":"levelo_inurba_marseille","lat":43.32107,"lon":5.36776,"is_reserved":false,"is_disabled":false,"rental_uris":{"android":"levelo://app?vid=eab47ed5-f83a-4939-80d1-ff052743bdd1","ios":"levelo://app?vid=eab47ed5-f83a-4939-80d1-ff052743bdd1"},"vehicle_type_id":"4","last_reported":1730812605,"current_range_meters":30800,"station_id":"ce4bhrh2rcd13ifvqhug","pricing_plan_id":"cebpf4jnsgd1na2vs0mg"},{"bike_id":"e2a7932e-d1b9-4dc4-a27d-07bf7f262184","system_id":"levelo_inurba_marseille","lat":43.29928,"lon":5.3655,"is_reserved":false,"is_disabled":false,"rental_uris":{"android":"levelo://app?vid=e2a7932e-d1b9-4dc4-a27d-07bf7f262184","ios":"levelo://app?vid=e2a7932e-d1b9-4dc4-a27d-07bf7f262184"},"vehicle_type_id":"4","last_reported":1730812605,"current_range_meters":23200,"station_id":"ce4bgm92rcd13ifvqbr0","pricing_plan_id":"cebpf4jnsgd1na2vs0mg"},{"bike_id":"d2979422-671c-4335-952d-4cbf20fc6976","system_id":"levelo_inurba_marseille","lat":43.30471,"lon":5.37906,"is_reserved":false,"is_disabled":false,"rental_uris":{"android":"levelo://app?vid=d2979422-671c-4335-952d-4cbf20fc6976","ios":"levelo://app?vid=d2979422-671c-4335-952d-4cbf20fc6976"},"vehicle_type_id":"4","last_reported":1730812605,"current_range_meters":38800,"station_id":"ce4bgup2rcd13ifvqcn0","pricing_plan_id":"cebpf4jnsgd1na2vs0mg"},{"bike_id":"98ea45bc-c51c-465d-ac20-5608e85dd197","system_id":"levelo_inurba_marseille","lat":43.29789,"lon":5.39341,"is_reserved":false,"is_disabled":false,"rental_uris":{"android":"levelo://app?vid=98ea45bc-c51c-465d-ac20-5608e85dd197","ios":"levelo://app?vid=98ea45bc-c51c-465d-ac20-5608e85dd197"},"vehicle_type_id":"4","last_reported":1730812605,"current_range_meters":28000,"station_id":"chh1huq6cuj3fo74tm60","pricing_plan_id":"cebpf4jnsgd1na2vs0mg"},{"bike_id":"d209b447-cbb8-4ee8-b360-9577dfaa222f","system_id":"levelo_inurba_marseille","lat":43.23145,"lon":5.43711,"is_reserved":false,"is_disabled":false,"rental_uris":{"android":"levelo://app?vid=d209b447-cbb8-4ee8-b360-9577dfaa222f","ios":"levelo://app?vid=d209b447-cbb8-4ee8-b360-9577dfaa222f"},"vehicle_type_id":"4","last_reported":1730812605,"current_range_meters":16800,"station_id":"ce4bhmp2rcd13ifvqgog","pricing_plan_id":"cebpf4jnsgd1na2vs0mg"},{"bike_id":"f3ec276e-9291-4f79-afb4-5112f30eb835","system_id":"levelo_inurba_marseille","lat":43.25117,"lon":5.40313,"is_reserved":false,"is_disabled":false,"rental_uris":{"android":"levelo://app?vid=f3ec276e-9291-4f79-afb4-5112f30eb835","ios":"levelo://app?vid=f3ec276e-9291-4f79-afb4-5112f30eb835"},"vehicle_type_id":"4","last_reported":1730812605,"current_range_meters":38800,"station_id":"ce4bhlh2rcd13ifvqgig","pricing_plan_id":"cebpf4jnsgd1na2vs0mg"},{"bike_id":"6ff4eb35-e037-4a26-90c4-e2a2ab31163d","system_id":"levelo_inurba_marseille","lat":43.28456,"lon":5.35895,"is_reserved":false,"is_disabled":false,"rental_uris":{"android":"levelo://app?vid=6ff4eb35-e037-4a26-90c4-e2a2ab31163d","ios":"levelo://app?vid=6ff4eb35-e037-4a26-90c4-e2a2ab31163d"},"vehicle_type_id":"4","last_reported":1730812605,"current_range_meters":38800,"station_id":"ce4bhah2rcd13ifvqei0","pricing_plan_id":"cebpf4jnsgd1na2vs0mg"},{"bike_id":"ea43565c-4dbb-442a-ac20-b496c2733246","system_id":"levelo_inurba_marseille","lat":43.29931,"lon":5.36542,"is_reserved":false,"is_disabled":false,"rental_uris":{"android":"levelo://app?vid=ea43565c-4dbb-442a-ac20-b496c2733246","ios":"levelo://app?vid=ea43565c-4dbb-442a-ac20-b496c2733246"},"vehicle_type_id":"4","last_reported":1730812605,"current_range_meters":14400,"station_id":"ce4bgm92rcd13ifvqbr0","pricing_plan_id":"cebpf4jnsgd1na2vs0mg"},{"bike_id":"cb841f1b-8ec2-434a-a03b-a03c49d20874","system_id":"levelo_inurba_marseille","lat":43.27317,"lon":5.39078,"is_reserved":false,"is_disabled":false,"rental_uris":{"android":"levelo://app?vid=cb841f1b-8ec2-434a-a03b-a03c49d20874","ios":"levelo://app?vid=cb841f1b-8ec2-434a-a03b-a03c49d20874"},"vehicle_type_id":"4","last_reported":1730812605,"current_range_meters":16400,"station_id":"ce4bhgp2rcd13ifvqfe0","pricing_plan_id":"cebpf4jnsgd1na2vs0mg"},{"bike_id":"3560c5ce-d02f-4630-8b3a-5ae2ad7fb9b3","system_id":"levelo_inurba_marseille","lat":43.24073,"lon":5.37761,"is_reserved":false,"is_disabled":false,"rental_uris":{"android":"levelo://app?vid=3560c5ce-d02f-4630-8b3a-5ae2ad7fb9b3","ios":"levelo://app?vid=3560c5ce-d02f-4630-8b3a-5ae2ad7fb9b3"},"vehicle_type_id":"4","last_reported":1730812605,"current_range_meters":24800,"station_id":"ce4bhnp2rcd13ifvqgvg","pricing_plan_id":"cebpf4jnsgd1na2vs0mg"},{"bike_id":"8bee51ce-2e07-4b28-a4c6-04213fdf5d10","system_id":"levelo_inurba_marseille","lat":43.2894,"lon":5.36637,"is_reserved":false,"is_disabled":false,"rental_uris":{"android":"levelo://app?vid=8bee51ce-2e07-4b28-a4c6-04213fdf5d10","ios":"levelo://app?vid=8bee51ce-2e07-4b28-a4c6-04213fdf5d10"},"vehicle_type_id":"4","last_reported":1730812605,"current_range_meters":16000,"station_id":"ce4bhap2rcd13ifvqek0","pricing_plan_id":"cebpf4jnsgd1na2vs0mg"},{"bike_id":"4ee840a8-4ead-42cc-8a8b-ee0e4ebba95d","system_id":"levelo_inurba_marseille","lat":43.29304,"lon":5.37461,"is_reserved":false,"is_disabled":false,"rental_uris":{"android":"levelo://app?vid=4ee840a8-4ead-42cc-8a8b-ee0e4ebba95d","ios":"levelo://app?vid=4ee840a8-4ead-42cc-8a8b-ee0e4ebba95d"},"vehicle_type_id":"4","last_reported":1730812605,"current_range_meters":19200,"station_id":"ce4bgi12rcd13ifvqb70","pricing_plan_id":"cebpf4jnsgd1na2vs0mg"},{"bike_id":"1cd126ee-628e-47eb-9b7d-b2f5e89e599c","system_id":"levelo_inurba_marseille","lat":43.29068,"lon":5.37165,"is_reserved":false,"is_disabled":false,"rental_uris":{"android":"levelo://app?vid=1cd126ee-628e-47eb-9b7d-b2f5e89e599c","ios":"levelo://app?vid=1cd126ee-628e-47eb-9b7d-b2f5e89e599c"},"vehicle_type_id":"4","last_reported":1730812605,"current_range_meters":31200,"station_id":"ce4bh5p2rcd13ifvqe4g","pricing_plan_id":"cebpf4jnsgd1na2vs0mg"},{"bike_id":"423d5629-60ea-46cc-8398-d31d7c9a3239","system_id":"levelo_inurba_marseille","lat":43.23964,"lon":5.36623,"is_reserved":false,"is_disabled":false,"rental_uris":{"android":"levelo://app?vid=423d5629-60ea-46cc-8398-d31d7c9a3239","ios":"levelo://app?vid=423d5629-60ea-46cc-8398-d31d7c9a3239"},"vehicle_type_id":"4","last_reported":1730812605,"current_range_meters":38800,"station_id":"ce4bhi12rcd13ifvqfp0","pricing_plan_id":"cebpf4jnsgd1na2vs0mg"},{"bike_id":"f7726949-f964-48ba-acf3-14399da191ef","system_id":"levelo_inurba_marseille","lat":43.26681,"lon":5.38267,"is_reserved":false,"is_disabled":false,"rental_uris":{"android":"levelo://app?vid=f7726949-f964-48ba-acf3-14399da191ef","ios":"levelo://app?vid=f7726949-f964-48ba-acf3-14399da191ef"},"vehicle_type_id":"4","last_reported":1730812605,"current_range_meters":27600,"station_id":"ce4bhg92rcd13ifvqf90","pricing_plan_id":"cebpf4jnsgd1na2vs0mg"},{"bike_id":"9e2e0b9b-3bb9-4dbe-b672-534a5e4d7877","system_id":"levelo_inurba_marseille","lat":43.25727,"lon":5.41105,"is_reserved":false,"is_disabled":false,"rental_uris":{"android":"levelo://app?vid=9e2e0b9b-3bb9-4dbe-b672-534a5e4d7877","ios":"levelo://app?vid=9e2e0b9b-3bb9-4dbe-b672-534a5e4d7877"},"vehicle_type_id":"4","last_reported":1730812605,"current_range_meters":24400,"station_id":"ce4bhkp2rcd13ifvqgd0","pricing_plan_id":"cebpf4jnsgd1na2vs0mg"},{"bike_id":"db31db70-cc20-4b5f-acb8-538f14a09b27","system_id":"levelo_inurba_marseille","lat":43.23187,"lon":5.39983,"is_reserved":false,"is_disabled":false,"rental_uris":{"android":"levelo://app?vid=db31db70-cc20-4b5f-acb8-538f14a09b27","ios":"levelo://app?vid=db31db70-cc20-4b5f-acb8-538f14a09b27"},"vehicle_type_id":"4","last_reported":1730812605,"current_range_meters":35600,"station_id":"ce4bhn12rcd13ifvqgqg","pricing_plan_id":"cebpf4jnsgd1na2vs0mg"},{"bike_id":"83202b92-ed63-498a-ac29-ab5c07f6150c","system_id":"levelo_inurba_marseille","lat":43.23152,"lon":5.43712,"is_reserved":false,"is_disabled":false,"rental_uris":{"android":"levelo://app?vid=83202b92-ed63-498a-ac29-ab5c07f6150c","ios":"levelo://app?vid=83202b92-ed63-498a-ac29-ab5c07f6150c"},"vehicle_type_id":"4","last_reported":1730812605,"current_range_meters":38000,"station_id":"ce4bhmp2rcd13ifvqgog","pricing_plan_id":"cebpf4jnsgd1na2vs0mg"},{"bike_id":"903a102e-8a75-40d7-b067-1c2f31b5bda3","system_id":"levelo_inurba_marseille","lat":43.28938,"lon":5.36625,"is_reserved":false,"is_disabled":false,"rental_uris":{"android":"levelo://app?vid=903a102e-8a75-40d7-b067-1c2f31b5bda3","ios":"levelo://app?vid=903a102e-8a75-40d7-b067-1c2f31b5bda3"},"vehicle_type_id":"4","last_reported":1730812605,"current_range_meters":9600,"station_id":"ce4bhap2rcd13ifvqek0","pricing_plan_id":"cebpf4jnsgd1na2vs0mg"},{"bike_id":"93a83a5c-0d3d-43a2-be24-e99a92c3575d","system_id":"levelo_inurba_marseille","lat":43.3091,"lon":5.36846,"is_reserved":false,"is_disabled":false,"rental_uris":{"android":"levelo://app?vid=93a83a5c-0d3d-43a2-be24-e99a92c3575d","ios":"levelo://app?vid=93a83a5c-0d3d-43a2-be24-e99a92c3575d"},"vehicle_type_id":"4","last_reported":1730812605,"current_range_meters":17200,"station_id":"ce4bgn92rcd13ifvqbvg","pricing_plan_id":"cebpf4jnsgd1na2vs0mg"},{"bike_id":"f3c99891-1b3f-48be-a55f-4239cdf39b9e","system_id":"levelo_inurba_marseille","lat":43.27071,"lon":5.42284,"is_reserved":false,"is_disabled":false,"rental_uris":{"android":"levelo://app?vid=f3c99891-1b3f-48be-a55f-4239cdf39b9e","ios":"levelo://app?vid=f3c99891-1b3f-48be-a55f-4239cdf39b9e"},"vehicle_type_id":"4","last_reported":1730812605,"current_range_meters":10800,"station_id":"ce4bhk92rcd13ifvqgb0","pricing_plan_id":"cebpf4jnsgd1na2vs0mg"},{"bike_id":"98da3ff2-1102-4e86-935a-36d01b4052a3","system_id":"levelo_inurba_marseille","lat":43.30932,"lon":5.40136,"is_reserved":false,"is_disabled":false,"rental_uris":{"android":"levelo://app?vid=98da3ff2-1102-4e86-935a-36d01b4052a3","ios":"levelo://app?vid=98da3ff2-1102-4e86-935a-36d01b4052a3"},"vehicle_type_id":"4","last_reported":1730812605,"current_range_meters":33200,"station_id":"ce4bgvp2rcd13ifvqct0","pricing_plan_id":"cebpf4jnsgd1na2vs0mg"},{"bike_id":"8282b425-1cb7-4eb9-a117-7e9315caf4bf","system_id":"levelo_inurba_marseille","lat":43.2732,"lon":5.39083,"is_reserved":false,"is_disabled":false,"rental_uris":{"android":"levelo://app?vid=8282b425-1cb7-4eb9-a117-7e9315caf4bf","ios":"levelo://app?vid=8282b425-1cb7-4eb9-a117-7e9315caf4bf"},"vehicle_type_id":"4","last_reported":1730812605,"current_range_meters":20800,"station_id":"ce4bhgp2rcd13ifvqfe0","pricing_plan_id":"cebpf4jnsgd1na2vs0mg"},{"bike_id":"04575049-e232-448b-97cc-f84df2aa6e6a","system_id":"levelo_inurba_marseille","lat":43.32485,"lon":5.36568,"is_reserved":false,"is_disabled":false,"rental_uris":{"android":"levelo://app?vid=04575049-e232-448b-97cc-f84df2aa6e6a","ios":"levelo://app?vid=04575049-e232-448b-97cc-f84df2aa6e6a"},"vehicle_type_id":"4","last_reported":1730812605,"current_range_meters":39200,"station_id":"ce4bhs12rcd13ifvqhvg","pricing_plan_id":"cebpf4jnsgd1na2vs0mg"},{"bike_id":"28df973b-2047-4bb2-9547-9f05e5b41f08","system_id":"levelo_inurba_marseille","lat":43.3053,"lon":5.36532,"is_reserved":false,"is_disabled":false,"rental_uris":{"android":"levelo://app?vid=28df973b-2047-4bb2-9547-9f05e5b41f08","ios":"levelo://app?vid=28df973b-2047-4bb2-9547-9f05e5b41f08"},"vehicle_type_id":"4","last_reported":1730812605,"current_range_meters":21600,"station_id":"ce4bgs12rcd13ifvqcag","pricing_plan_id":"cebpf4jnsgd1na2vs0mg"},{"bike_id":"db2f2792-d508-4e1c-875f-f9297c1d6984","system_id":"levelo_inurba_marseille","lat":43.30544,"lon":5.38424,"is_reserved":false,"is_disabled":false,"rental_uris":{"android":"levelo://app?vid=db2f2792-d508-4e1c-875f-f9297c1d6984","ios":"levelo://app?vid=db2f2792-d508-4e1c-875f-f9297c1d6984"},"vehicle_type_id":"4","last_reported":1730812605,"current_range_meters":27200,"station_id":"ce4bgg92rcd13ifvqb30","pricing_plan_id":"cebpf4jnsgd1na2vs0mg"},{"bike_id":"95bdcc73-7654-4e5b-8af6-8997b0a029d3","system_id":"levelo_inurba_marseille","lat":43.30645,"lon":5.40089,"is_reserved":false,"is_disabled":false,"rental_uris":{"android":"levelo://app?vid=95bdcc73-7654-4e5b-8af6-8997b0a029d3","ios":"levelo://app?vid=95bdcc73-7654-4e5b-8af6-8997b0a029d3"},"vehicle_type_id":"4","last_reported":1730812605,"current_range_meters":38800,"station_id":"ce4bh112rcd13ifvqda0","pricing_plan_id":"cebpf4jnsgd1na2vs0mg"},{"bike_id":"01358e6b-9e32-453f-b20a-de02e9945bfa","system_id":"levelo_inurba_marseille","lat":43.26803,"lon":5.402586,"is_reserved":false,"is_disabled":false,"rental_uris":{"android":"levelo://app?vid=01358e6b-9e32-453f-b20a-de02e9945bfa","ios":"levelo://app?vid=01358e6b-9e32-453f-b20a-de02e9945bfa"},"vehicle_type_id":"4","last_reported":1730812605,"current_range_meters":12000,"station_id":"ce501612rcd8frsf0b60","pricing_plan_id":"cebpf4jnsgd1na2vs0mg"},{"bike_id":"5c792531-e001-4eed-baa6-8612df3e5846","system_id":"levelo_inurba_marseille","lat":43.27431,"lon":5.39415,"is_reserved":false,"is_disabled":false,"rental_uris":{"android":"levelo://app?vid=5c792531-e001-4eed-baa6-8612df3e5846","ios":"levelo://app?vid=5c792531-e001-4eed-baa6-8612df3e5846"},"vehicle_type_id":"4","last_reported":1730812605,"current_range_meters":38800,"station_id":"ce4bhdp2rcd13ifvqf20","pricing_plan_id":"cebpf4jnsgd1na2vs0mg"},{"bike_id":"9745dda0-c93f-4922-8ea2-4e3198b3849b","system_id":"levelo_inurba_marseille","lat":43.27614,"lon":5.36105,"is_reserved":false,"is_disabled":false,"rental_uris":{"android":"levelo://app?vid=9745dda0-c93f-4922-8ea2-4e3198b3849b","ios":"levelo://app?vid=9745dda0-c93f-4922-8ea2-4e3198b3849b"},"vehicle_type_id":"4","last_reported":1730812605,"current_range_meters":8400,"station_id":"ce4bhgh2rcd13ifvqfb0","pricing_plan_id":"cebpf4jnsgd1na2vs0mg"},{"bike_id":"c25ac7f9-6d4b-4292-8786-b4f165c717f2","system_id":"levelo_inurba_marseille","lat":43.27841,"lon":5.39204,"is_reserved":false,"is_disabled":false,"rental_uris":{"android":"levelo://app?vid=c25ac7f9-6d4b-4292-8786-b4f165c717f2","ios":"levelo://app?vid=c25ac7f9-6d4b-4292-8786-b4f165c717f2"},"vehicle_type_id":"4","last_reported":1730812605,"current_range_meters":26000,"station_id":"ce4bhjp2rcd13ifvqga0","pricing_plan_id":"cebpf4jnsgd1na2vs0mg"},{"bike_id":"9d816df9-9182-496c-bf91-066a850422ee","system_id":"levelo_inurba_marseille","lat":43.31697,"lon":5.40466,"is_reserved":false,"is_disabled":false,"rental_uris":{"android":"levelo://app?vid=9d816df9-9182-496c-bf91-066a850422ee","ios":"levelo://app?vid=9d816df9-9182-496c-bf91-066a850422ee"},"vehicle_type_id":"4","last_reported":1730812605,"current_range_meters":30000,"station_id":"ce4bh012rcd13ifvqd00","pricing_plan_id":"cebpf4jnsgd1na2vs0mg"},{"bike_id":"6b0d0f7e-cbaa-4592-bcc6-bc9f2b73841c","system_id":"levelo_inurba_marseille","lat":43.27813,"lon":5.40713,"is_reserved":false,"is_disabled":false,"rental_uris":{"android":"levelo://app?vid=6b0d0f7e-cbaa-4592-bcc6-bc9f2b73841c","ios":"levelo://app?vid=6b0d0f7e-cbaa-4592-bcc6-bc9f2b73841c"},"vehicle_type_id":"4","last_reported":1730812605,"current_range_meters":27200,"station_id":"ce4bhnh2rcd13ifvqgtg","pricing_plan_id":"cebpf4jnsgd1na2vs0mg"},{"bike_id":"52636b92-d9ea-44ff-9c64-567863dff265","system_id":"levelo_inurba_marseille","lat":43.34146,"lon":5.40906,"is_reserved":false,"is_disabled":false,"rental_uris":{"android":"levelo://app?vid=52636b92-d9ea-44ff-9c64-567863dff265","ios":"levelo://app?vid=52636b92-d9ea-44ff-9c64-567863dff265"},"vehicle_type_id":"4","last_reported":1730812605,"current_range_meters":33600,"station_id":"ce4bhqh2rcd13ifvqhlg","pricing_plan_id":"cebpf4jnsgd1na2vs0mg"},{"bike_id":"314504e5-a39d-46f5-933a-e84e1e1a18cd","system_id":"levelo_inurba_marseille","lat":43.30913,"lon":5.36847,"is_reserved":false,"is_disabled":false,"rental_uris":{"android":"levelo://app?vid=314504e5-a39d-46f5-933a-e84e1e1a18cd","ios":"levelo://app?vid=314504e5-a39d-46f5-933a-e84e1e1a18cd"},"vehicle_type_id":"4","last_reported":1730812605,"current_range_meters":14800,"station_id":"ce4bgn92rcd13ifvqbvg","pricing_plan_id":"cebpf4jnsgd1na2vs0mg"},{"bike_id":"41e1ada3-ff84-4a16-97f5-afeecd0ae284","system_id":"levelo_inurba_marseille","lat":43.28936,"lon":5.36633,"is_reserved":false,"is_disabled":false,"rental_uris":{"android":"levelo://app?vid=41e1ada3-ff84-4a16-97f5-afeecd0ae284","ios":"levelo://app?vid=41e1ada3-ff84-4a16-97f5-afeecd0ae284"},