{"last_updated":1691262235,"ttl":30,"version":"2.2","data":{"bikes":[{"bike_id":"1dd45ed4-5dca-43bc-85cd-c7ab47147bda","system_id":"levelo_inurba_marseille","lat":43.31341,"lon":5.367098,"is_reserved":false,"is_disabled":false,"rental_uris":{"android":"levelo://app?vid=1dd45ed4-5dca-43bc-85cd-c7ab47147bda","ios":"levelo://app?vid=1dd45ed4-5dca-43bc-85cd-c7ab47147bda"},"vehicle_type_id":"4","last_reported":1691262235,"current_range_meters":28000,"station_id":"ce4bgr92rcd13ifvqc6g","pricing_plan_id":"free"},{"bike_id":"12329d05-4951-4d50-ac8c-4b64764f6bd8","system_id":"levelo_inurba_marseille","lat":43.31356,"lon":5.36716,"is_reserved":false,"is_disabled":false,"rental_uris":{"android":"levelo://app?vid=12329d05-4951-4d50-ac8c-4b64764f6bd8","ios":"levelo://app?vid=12329d05-4951-4d50-ac8c-4b64764f6bd8"},"vehicle_type_id":"4","last_reported":1691262235,"current_range_meters":8800,"station_id":"ce4bgr92rcd13ifvqc6g","pricing_plan_id":"free"},{"bike_id":"4ac6dfc1-c15e-4154-88ea-4902ecf20d90","system_id":"levelo_inurba_marseille","lat":43.312189,"lon":5.36862,"is_reserved":false,"is_disabled":false,"rental_uris":{"android":"levelo://app?vid=4ac6dfc1-c15e-4154-88ea-4902ecf20d90","ios":"levelo://app?vid=4ac6dfc1-c15e-4154-88ea-4902ecf20d90"},"vehicle_type_id":"4","last_reported":1691262235,"current_range_meters":17600,"station_id":"ce4bgl92rcd13ifvqbq0","pricing_plan_id":"free"},{"bike_id":"fadb3db9-a274-40d3-bd4f-7271133456b8","system_id":"levelo_inurba_marseille","lat":43.30763,"lon":5.36791,"is_reserved":false,"is_disabled":false,"rental_uris":{"android":"levelo://app?vid=fadb3db9-a274-40d3-bd4f-7271133456b8","ios":"levelo://app?vid=fadb3db9-a274-40d3-bd4f-7271133456b8"},"vehicle_type_id":"4","last_reported":1691262235,"current_range_meters":26000,"station_id":"","pricing_plan_id":"free"},{"bike_id":"7cfb81a3-fd7f-41d1-987d-c1037b7c6b4a","system_id":"levelo_inurba_marseille","lat":43.3143,"lon":5.37426,"is_reserved":false,"is_disabled":false,"rental_uris":{"android":"levelo://app?vid=7cfb81a3-fd7f-41d1-987d-c1037b7c6b4a","ios":"levelo://app?vid=7cfb81a3-fd7f-41d1-987d-c1037b7c6b4a"},"vehicle_type_id":"4","last_reported":1691262235,"current_range_meters":12000,"station_id":"","pricing_plan_id":"free"},{"bike_id":"c989c111-13d7-4e64-93fa-6463fdd21e7b","system_id":"levelo_inurba_marseille","lat":43.30544,"lon":5.36702,"is_reserved":false,"is_disabled":false,"rental_uris":{"android":"levelo://app?vid=c989c111-13d7-4e64-93fa-6463fdd21e7b","ios":"levelo://app?vid=c989c111-13d7-4e64-93fa-6463fdd21e7b"},"vehicle_type_id":"4","last_reported":1691262235,"current_range_meters":29200,"station_id":"ce4bgrp2rcd13ifvqc9g","pricing_plan_id":"free"},{"bike_id":"3cbae479-f88f-4b70-901c-645bcc6a4137","system_id":"levelo_inurba_marseille","lat":43.305706,"lon":5.365654,"is_reserved":false,"is_disabled":false,"rental_uris":{"android":"levelo://app?vid=3cbae479-f88f-4b70-901c-645bcc6a4137","ios":"levelo://app?vid=3cbae479-f88f-4b70-901c-645bcc6a4137"},"vehicle_type_id":"4","last_reported":1691262235,"current_range_meters":400,"station_id":"ce4bgs12rcd13ifvqcag","pricing_plan_id":"free"},{"bike_id":"f20ea888-8740-440b-bfeb-8eb2a7c1f652","system_id":"levelo_inurba_marseille","lat":43.305989,"lon":5.37225,"is_reserved":false,"is_disabled":false,"rental_uris":{"android":"levelo://app?vid=f20ea888-8740-440b-bfeb-8eb2a7c1f652","ios":"levelo://app?vid=f20ea888-8740-440b-bfeb-8eb2a7c1f652"},"vehicle_type_id":"4","last_reported":1691262235,"current_range_meters":31200,"station_id":"ce4bgqh2rcd13ifvqc4g","pricing_plan_id":"free"},{"bike_id":"9680ee6d-90c2-4e44-b69c-297481518622","system_id":"levelo_inurba_marseille","lat":43.30793,"lon":5.37647,"is_reserved":false,"is_disabled":false,"rental_uris":{"android":"levelo://app?vid=9680ee6d-90c2-4e44-b69c-297481518622","ios":"levelo://app?vid=9680ee6d-90c2-4e44-b69c-297481518622"},"vehicle_type_id":"4","last_reported":1691262235,"current_range_meters":0,"station_id":"ce4bgv92rcd13ifvqcq0","pricing_plan_id":"free"},{"bike_id":"f18ca8db-50bb-495d-b9de-fd49d6208e9c","system_id":"levelo_inurba_marseille","lat":43.30787,"lon":5.37649,"is_reserved":false,"is_disabled":false,"rental_uris":{"android":"levelo://app?vid=f18ca8db-50bb-495d-b9de-fd49d6208e9c","ios":"levelo://app?vid=f18ca8db-50bb-495d-b9de-fd49d6208e9c"},"vehicle_type_id":"4","last_reported":1691262235,"current_range_meters":14800,"station_id":"ce4bgv92rcd13ifvqcq0","pricing_plan_id":"free"},{"bike_id":"feb399b5-2817-4b32-8ab4-fc09e0682c77","system_id":"levelo_inurba_marseille","lat":43.307945,"lon":5.376487,"is_reserved":false,"is_disabled":false,"rental_uris":{"android":"levelo://app?vid=feb399b5-2817-4b32-8ab4-fc09e0682c77","ios":"levelo://app?vid=feb399b5-2817-4b32-8ab4-fc09e0682c77"},"vehicle_type_id":"4","last_reported":1691262235,"current_range_meters":15200,"station_id":"ce4bgv92rcd13ifvqcq0","pricing_plan_id":"free"},{"bike_id":"d0cda0df-b450-40b5-8ebf-842c2fc10716","system_id":"levelo_inurba_marseille","lat":43.31696,"lon":5.3773,"is_reserved":false,"is_disabled":false,"rental_uris":{"android":"levelo://app?vid=d0cda0df-b450-40b5-8ebf-842c2fc10716","ios":"levelo://app?vid=d0cda0df-b450-40b5-8ebf-842c2fc10716"},"vehicle_type_id":"4","last_reported":1691262235,"current_range_meters":20800,"station_id":"","pricing_plan_id":"free"},{"bike_id":"7cd2cfdc-c3d5-4161-8654-05e0945ffa2c","system_id":"levelo_inurba_marseille","lat":43.317075,"lon":5.377367,"is_reserved":false,"is_disabled":false,"rental_uris":{"android":"levelo://app?vid=7cd2cfdc-c3d5-4161-8654-05e0945ffa2c","ios":"levelo://app?vid=7cd2cfdc-c3d5-4161-8654-05e0945ffa2c"},"vehicle_type_id":"4","last_reported":1691262235,"current_range_meters":26000,"station_id":"ce4bgth2rcd13ifvqch0","pricing_plan_id":"free"},{"bike_id":"6aa9fb1c-c4ce-4810-9853-17222a623284","system_id":"levelo_inurba_marseille","lat":43.302784,"lon":5.377158,"is_reserved":false,"is_disabled":false,"rental_uris":{"android":"levelo://app?vid=6aa9fb1c-c4ce-4810-9853-17222a623284","ios":"levelo://app?vid=6aa9fb1c-c4ce-4810-9853-17222a623284"},"vehicle_type_id":"4","last_reported":1691262235,"current_range_meters":31200,"station_id":"ce4bguh2rcd13ifvqcj0","pricing_plan_id":"free"},{"bike_id":"91c1e68c-072c-41ed-ab7d-e40ec14976ba","system_id":"levelo_inurba_marseille","lat":43.31991,"lon":5.38154,"is_reserved":false,"is_disabled":false,"rental_uris":{"android":"levelo://app?vid=91c1e68c-072c-41ed-ab7d-e40ec14976ba","ios":"levelo://app?vid=91c1e68c-072c-41ed-ab7d-e40ec14976ba"},"vehicle_type_id":"4","last_reported":1691262235,"current_range_meters":3200,"station_id":"ce4bhr12rcd13ifvqhpg","pricing_plan_id":"free"},{"bike_id":"cb31e567-1f56-4c43-a0bd-9189e49b78a1","system_id":"levelo_inurba_marseille","lat":43.31997,"lon":5.38151,"is_reserved":false,"is_disabled":false,"rental_uris":{"android":"levelo://app?vid=cb31e567-1f56-4c43-a0bd-9189e49b78a1","ios":"levelo://app?vid=cb31e567-1f56-4c43-a0bd-9189e49b78a1"},"vehicle_type_id":"4","last_reported":1691262235,"current_range_meters":15600,"station_id":"ce4bhr12rcd13ifvqhpg","pricing_plan_id":"free"},{"bike_id":"2ee7e6f7-6cae-45ec-99ff-b4f2ad9ee201","system_id":"levelo_inurba_marseille","lat":43.313571,"lon":5.384829,"is_reserved":false,"is_disabled":false,"rental_uris":{"android":"levelo://app?vid=2ee7e6f7-6cae-45ec-99ff-b4f2ad9ee201","ios":"levelo://app?vid=2ee7e6f7-6cae-45ec-99ff-b4f2ad9ee201"},"vehicle_type_id":"4","last_reported":1691262235,"current_range_meters":26000,"station_id":"ce4bgt92rcd13ifvqcf0","pricing_plan_id":"free"},{"bike_id":"3e76ada0-5d72-4dd4-a406-81875221f849","system_id":"levelo_inurba_marseille","lat":43.3137,"lon":5.3849,"is_reserved":false,"is_disabled":false,"rental_uris":{"android":"levelo://app?vid=3e76ada0-5d72-4dd4-a406-81875221f849","ios":"levelo://app?vid=3e76ada0-5d72-4dd4-a406-81875221f849"},"vehicle_type_id":"4","last_reported":1691262235,"current_range_meters":8800,"station_id":"ce4bgt92rcd13ifvqcf0","pricing_plan_id":"free"},{"bike_id":"8a227b8b-c1ce-4208-a954-c7b5a6e684fe","system_id":"levelo_inurba_marseille","lat":43.31363,"lon":5.38498,"is_reserved":false,"is_disabled":false,"rental_uris":{"android":"levelo://app?vid=8a227b8b-c1ce-4208-a954-c7b5a6e684fe","ios":"levelo://app?vid=8a227b8b-c1ce-4208-a954-c7b5a6e684fe"},"vehicle_type_id":"4","last_reported":1691262235,"current_range_meters":17600,"station_id":"ce4bgt92rcd13ifvqcf0","pricing_plan_id":"free"},{"bike_id":"3cb7fd70-121e-4eb5-9a01-ecc8718aa1bb","system_id":"levelo_inurba_marseille","lat":43.2994,"lon":5.36535,"is_reserved":false,"is_disabled":false,"rental_uris":{"android":"levelo://app?vid=3cb7fd70-121e-4eb5-9a01-ecc8718aa1bb","ios":"levelo://app?vid=3cb7fd70-121e-4eb5-9a01-ecc8718aa1bb"},"vehicle_type_id":"4","last_reported":1691262235,"current_range_meters":28800,"station_id":"ce4bgm92rcd13ifvqbr0","pricing_plan_id":"free"},{"bike_id":"e1eaaaa7-5fb4-40d9-bc2b-3e816b908be9","system_id":"levelo_inurba_marseille","lat":43.299295,"lon":5.365436,"is_reserved":false,"is_disabled":false,"rental_uris":{"android":"levelo://app?vid=e1eaaaa7-5fb4-40d9-bc2b-3e816b908be9","ios":"levelo://app?vid=e1eaaaa7-5fb4-40d9-bc2b-3e816b908be9"},"vehicle_type_id":"4","last_reported":1691262235,"current_range_meters":18000,"station_id":"ce4bgm92rcd13ifvqbr0","pricing_plan_id":"free"},{"bike_id":"30537d43-af02-4a10-b928-7b9b8cf633d2","system_id":"levelo_inurba_marseille","lat":43.30541,"lon":5.38415,"is_reserved":false,"is_disabled":false,"rental_uris":{"android":"levelo://app?vid=30537d43-af02-4a10-b928-7b9b8cf633d2","ios":"levelo://app?vid=30537d43-af02-4a10-b928-7b9b8cf633d2"},"vehicle_type_id":"4","last_reported":1691262235,"current_range_meters":29200,"station_id":"ce4bgg92rcd13ifvqb30","pricing_plan_id":"free"},{"bike_id":"2d454583-be5f-4d25-9811-4dcb2adf5ecd","system_id":"levelo_inurba_marseille","lat":43.297774,"lon":5.370875,"is_reserved":false,"is_disabled":false,"rental_uris":{"android":"levelo://app?vid=2d454583-be5f-4d25-9811-4dcb2adf5ecd","ios":"levelo://app?vid=2d454583-be5f-4d25-9811-4dcb2adf5ecd"},"vehicle_type_id":"4","last_reported":1691262235,"current_range_meters":15200,"station_id":"ce4bgop2rcd13ifvqc1g","pricing_plan_id":"free"},{"bike_id":"f0f96c52-4d3b-430f-ba81-f5c2c86ddd0e","system_id":"levelo_inurba_marseille","lat":43.297774,"lon":5.370875,"is_reserved":false,"is_disabled":false,"rental_uris":{"android":"levelo://app?vid=f0f96c52-4d3b-430f-ba81-f5c2c86ddd0e","ios":"levelo://app?vid=f0f96c52-4d3b-430f-ba81-f5c2c86ddd0e"},"vehicle_type_id":"4","last_reported":1691262235,"current_range_meters":30400,"station_id":"ce4bgop2rcd13ifvqc1g","pricing_plan_id":"free"},{"bike_id":"3235488a-5abe-4f27-a56a-50e7b9989127","system_id":"levelo_inurba_marseille","lat":43.322872,"lon":5.382756,"is_reserved":false,"is_disabled":false,"rental_uris":{"android":"levelo://app?vid=3235488a-5abe-4f27-a56a-50e7b9989127","ios":"levelo://app?vid=3235488a-5abe-4f27-a56a-50e7b9989127"},"vehicle_type_id":"4","last_reported":1691262235,"current_range_meters":30400,"station_id":"ce4bhr12rcd13ifvqhqg","pricing_plan_id":"free"},{"bike_id":"54af0d74-1de2-450f-8445-78b5259f2d29","system_id":"levelo_inurba_marseille","lat":43.309589,"lon":5.390258,"is_reserved":false,"is_disabled":false,"rental_uris":{"android":"levelo://app?vid=54af0d74-1de2-450f-8445-78b5259f2d29","ios":"levelo://app?vid=54af0d74-1de2-450f-8445-78b5259f2d29"},"vehicle_type_id":"4","last_reported":1691262235,"current_range_meters":26400,"station_id":"ce4bgup2rcd13ifvqco0","pricing_plan_id":"free"},{"bike_id":"4711f823-9a36-491d-a201-28215b8e5924","system_id":"levelo_inurba_marseille","lat":43.32288,"lon":5.38275,"is_reserved":false,"is_disabled":false,"rental_uris":{"android":"levelo://app?vid=4711f823-9a36-491d-a201-28215b8e5924","ios":"levelo://app?vid=4711f823-9a36-491d-a201-28215b8e5924"},"vehicle_type_id":"4","last_reported":1691262235,"current_range_meters":16000,"station_id":"ce4bhr12rcd13ifvqhqg","pricing_plan_id":"free"},{"bike_id":"0963bae3-5b20-4e80-bff4-aafb7af6f51f","system_id":"levelo_inurba_marseille","lat":43.32822,"lon":5.36685,"is_reserved":false,"is_disabled":false,"rental_uris":{"android":"levelo://app?vid=0963bae3-5b20-4e80-bff4-aafb7af6f51f","ios":"levelo://app?vid=0963bae3-5b20-4e80-bff4-aafb7af6f51f"},"vehicle_type_id":"4","last_reported":1691262235,"current_range_meters":10800,"station_id":"ce4bhs92rcd13ifvqi0g","pricing_plan_id":"free"},{"bike_id":"1978f8e7-0ba9-4d32-8a0a-3849b4985817","system_id":"levelo_inurba_marseille","lat":43.32823,"lon":5.36672,"is_reserved":false,"is_disabled":false,"rental_uris":{"android":"levelo://app?vid=1978f8e7-0ba9-4d32-8a0a-3849b4985817","ios":"levelo://app?vid=1978f8e7-0ba9-4d32-8a0a-3849b4985817"},"vehicle_type_id":"4","last_reported":1691262235,"current_range_meters":8400,"station_id":"ce4bhs92rcd13ifvqi0g","pricing_plan_id":"free"},{"bike_id":"8ae2a292-4b68-4114-8267-e4d284ceb76e","system_id":"levelo_inurba_marseille","lat":43.32825,"lon":5.36677,"is_reserved":false,"is_disabled":false,"rental_uris":{"android":"levelo://app?vid=8ae2a292-4b68-4114-8267-e4d284ceb76e","ios":"levelo://app?vid=8ae2a292-4b68-4114-8267-e4d284ceb76e"},"vehicle_type_id":"4","last_reported":1691262235,"current_range_meters":22000,"station_id":"ce4bhs92rcd13ifvqi0g","pricing_plan_id":"free"},{"bike_id":"925d80fe-dd88-4a52-a938-71d3f7293e55","system_id":"levelo_inurba_marseille","lat":43.32825,"lon":5.36674,"is_reserved":false,"is_disabled":false,"rental_uris":{"android":"levelo://app?vid=925d80fe-dd88-4a52-a938-71d3f7293e55","ios":"levelo://app?vid=925d80fe-dd88-4a52-a938-71d3f7293e55"},"vehicle_type_id":"4","last_reported":1691262235,"current_range_meters":13600,"station_id":"ce4bhs92rcd13ifvqi0g","pricing_plan_id":"free"},{"bike_id":"268db224-141b-439d-90ff-927b3c861c0e","system_id":"levelo_inurba_marseille","lat":43.32826,"lon":5.36683,"is_reserved":false,"is_disabled":false,"rental_uris":{"android":"levelo://app?vid=268db224-141b-439d-90ff-927b3c861c0e","ios":"levelo://app?vid=268db224-141b-439d-90ff-927b3c861c0e"},"vehicle_type_id":"4","last_reported":1691262235,"current_range_meters":8800,"station_id":"ce4bhs92rcd13ifvqi0g","pricing_plan_id":"free"},{"bike_id":"b817d5ed-7bfc-4b4f-ab91-d197cc36525d","system_id":"levelo_inurba_marseille","lat":43.32827,"lon":5.36684,"is_reserved":false,"is_disabled":false,"rental_uris":{"android":"levelo://app?vid=b817d5ed-7bfc-4b4f-ab91-d197cc36525d","ios":"levelo://app?vid=b817d5ed-7bfc-4b4f-ab91-d197cc36525d"},"vehicle_type_id":"4","last_reported":1691262235,"current_range_meters":27600,"station_id":"ce4bhs92rcd13ifvqi0g","pricing_plan_id":"free"},{"bike_id":"f3a2ce3e-e2ec-4940-9eb3-9ecf5bedfd7e","system_id":"levelo_inurba_marseille","lat":43.3283,"lon":5.36693,"is_reserved":false,"is_disabled":false,"rental_uris":{"android":"levelo://app?vid=f3a2ce3e-e2ec-4940-9eb3-9ecf5bedfd7e","ios":"levelo://app?vid=f3a2ce3e-e2ec-4940-9eb3-9ecf5bedfd7e"},"vehicle_type_id":"4","last_reported":1691262235,"current_range_meters":16000,"station_id":"ce4bhs92rcd13ifvqi0g","pricing_plan_id":"free"},{"bike_id":"14a66f30-0781-4bf7-a2c2-0130210a48ee","system_id":"levelo_inurba_marseille","lat":43.297163,"lon":5.365866,"is_reserved":false,"is_disabled":false,"rental_uris":{"android":"levelo://app?vid=14a66f30-0781-4bf7-a2c2-0130210a48ee","ios":"levelo://app?vid=14a66f30-0781-4bf7-a2c2-0130210a48ee"},"vehicle_type_id":"4","last_reported":1691262235,"current_range_meters":18800,"station_id":"ce4bgn12rcd13ifvqbt0","pricing_plan_id":"free"},{"bike_id":"dd789220-e7b5-42c1-b9dc-dc4243148021","system_id":"levelo_inurba_marseille","lat":43.297163,"lon":5.365866,"is_reserved":false,"is_disabled":false,"rental_uris":{"android":"levelo://app?vid=dd789220-e7b5-42c1-b9dc-dc4243148021","ios":"levelo://app?vid=dd789220-e7b5-42c1-b9dc-dc4243148021"},"vehicle_type_id":"4","last_reported":1691262235,"current_range_meters":31200,"station_id":"ce4bgn12rcd13ifvqbt0","pricing_plan_id":"free"},{"bike_id":"60faaf8e-33ee-44fe-bf0c-0a50371b178d","system_id":"levelo_inurba_marseille","lat":43.296131,"lon":5.370791,"is_reserved":false,"is_disabled":false,"rental_uris":{"android":"levelo://app?vid=60faaf8e-33ee-44fe-bf0c-0a50371b178d","ios":"levelo://app?vid=60faaf8e-33ee-44fe-bf0c-0a50371b178d"},"vehicle_type_id":"4","last_reported":1691262235,"current_range_meters":6000,"station_id":"ce4bgnh2rcd13ifvqc0g","pricing_plan_id":"free"},{"bike_id":"a79d1788-65bd-4f84-8393-8a2e0e553722","system_id":"levelo_inurba_marseille","lat":43.296921,"lon":5.376579,"is_reserved":false,"is_disabled":false,"rental_uris":{"android":"levelo://app?vid=a79d1788-65bd-4f84-8393-8a2e0e553722","ios":"levelo://app?vid=a79d1788-65bd-4f84-8393-8a2e0e553722"},"vehicle_type_id":"4","last_reported":1691262235,"current_range_meters":9600,"station_id":"ce4bgkh2rcd13ifvqbl0","pricing_plan_id":"free"},{"bike_id":"1cc63d28-ba6b-4936-818a-1eb8276fb3da","system_id":"levelo_inurba_marseille","lat":43.296921,"lon":5.376579,"is_reserved":false,"is_disabled":false,"rental_uris":{"android":"levelo://app?vid=1cc63d28-ba6b-4936-818a-1eb8276fb3da","ios":"levelo://app?vid=1cc63d28-ba6b-4936-818a-1eb8276fb3da"},"vehicle_type_id":"4","last_reported":1691262235,"current_range_meters":12800,"station_id":"ce4bgkh2rcd13ifvqbl0","pricing_plan_id":"free"},{"bike_id":"1893b72f-916d-4463-8a09-608a814b6f63","system_id":"levelo_inurba_marseille","lat":43.29917,"lon":5.38135,"is_reserved":false,"is_disabled":false,"rental_uris":{"android":"levelo://app?vid=1893b72f-916d-4463-8a09-608a814b6f63","ios":"levelo://app?vid=1893b72f-916d-4463-8a09-608a814b6f63"},"vehicle_type_id":"4","last_reported":1691262235,"current_range_meters":30400,"station_id":"ce4bgj12rcd13ifvqbc0","pricing_plan_id":"free"},{"bike_id":"c6c78e4c-f529-40bd-859f-a33fa9457161","system_id":"levelo_inurba_marseille","lat":43.299028,"lon":5.381509,"is_reserved":false,"is_disabled":false,"rental_uris":{"android":"levelo://app?vid=c6c78e4c-f529-40bd-859f-a33fa9457161","ios":"levelo://app?vid=c6c78e4c-f529-40bd-859f-a33fa9457161"},"vehicle_type_id":"4","last_reported":1691262235,"current_range_meters":0,"station_id":"ce4bgj12rcd13ifvqbc0","pricing_plan_id":"free"},{"bike_id":"df7f3a45-687d-44f2-8731-b6f4dc5d6d4a","system_id":"levelo_inurba_marseille","lat":43.299028,"lon":5.381509,"is_reserved":false,"is_disabled":false,"rental_uris":{"android":"levelo://app?vid=df7f3a45-687d-44f2-8731-b6f4dc5d6d4a","ios":"levelo://app?vid=df7f3a45-687d-44f2-8731-b6f4dc5d6d4a"},"vehicle_type_id":"4","last_reported":1691262235,"current_range_meters":29600,"station_id":"ce4bgj12rcd13ifvqbc0","pricing_plan_id":"free"},{"bike_id":"f0b1921d-8fc5-42f6-8214-26455e772ce5","system_id":"levelo_inurba_marseille","lat":43.30954,"lon":5.39049,"is_reserved":false,"is_disabled":false,"rental_uris":{"android":"levelo://app?vid=f0b1921d-8fc5-42f6-8214-26455e772ce5","ios":"levelo://app?vid=f0b1921d-8fc5-42f6-8214-26455e772ce5"},"vehicle_type_id":"4","last_reported":1691262235,"current_range_meters":26000,"station_id":"ce4bgup2rcd13ifvqco0","pricing_plan_id":"free"},{"bike_id":"645d0574-4e9d-444e-a0ff-c864679faba6","system_id":"levelo_inurba_marseille","lat":43.31758,"lon":5.39001,"is_reserved":false,"is_disabled":false,"rental_uris":{"android":"levelo://app?vid=645d0574-4e9d-444e-a0ff-c864679faba6","ios":"levelo://app?vid=645d0574-4e9d-444e-a0ff-c864679faba6"},"vehicle_type_id":"4","last_reported":1691262235,"current_range_meters":25200,"station_id":"ce4bhqp2rcd13ifvqhng","pricing_plan_id":"free"},{"bike_id":"aeba4117-4324-492b-b05b-37bcc45b3f39","system_id":"levelo_inurba_marseille","lat":43.317557,"lon":5.390173,"is_reserved":false,"is_disabled":false,"rental_uris":{"android":"levelo://app?vid=aeba4117-4324-492b-b05b-37bcc45b3f39","ios":"levelo://app?vid=aeba4117-4324-492b-b05b-37bcc45b3f39"},"vehicle_type_id":"4","last_reported":1691262235,"current_range_meters":19600,"station_id":"ce4bhqp2rcd13ifvqhng","pricing_plan_id":"free"},{"bike_id":"c070a522-6c17-4333-a9ee-bbef4dc643ed","system_id":"levelo_inurba_marseille","lat":43.317557,"lon":5.390173,"is_reserved":false,"is_disabled":false,"rental_uris":{"android":"levelo://app?vid=c070a522-6c17-4333-a9ee-bbef4dc643ed","ios":"levelo://app?vid=c070a522-6c17-4333-a9ee-bbef4dc643ed"},"vehicle_type_id":"4","last_reported":1691262235,"current_range_meters":31200,"station_id":"ce4bhqp2rcd13ifvqhng","pricing_plan_id":"free"},{"bike_id":"ffe83563-fe7b-4abd-90a1-b737e09347c0","system_id":"levelo_inurba_marseille","lat":43.317557,"lon":5.390173,"is_reserved":false,"is_disabled":false,"rental_uris":{"android":"levelo://app?vid=ffe83563-fe7b-4abd-90a1-b737e09347c0","ios":"levelo://app?vid=ffe83563-fe7b-4abd-90a1-b737e09347c0"},"vehicle_type_id":"4","last_reported":1691262235,"current_range_meters":31200,"station_id":"ce4bhqp2rcd13ifvqhng","pricing_plan_id":"free"},{"bike_id":"4879b09e-5533-49cc-808c-be115b214b19","system_id":"levelo_inurba_marseille","lat":43.317557,"lon":5.390173,"is_reserved":false,"is_disabled":false,"rental_uris":{"android":"levelo://app?vid=4879b09e-5533-49cc-808c-be115b214b19","ios":"levelo://app?vid=4879b09e-5533-49cc-808c-be115b214b19"},"vehicle_type_id":"4","last_reported":1691262235,"current_range_meters":31200,"station_id":"ce4bhqp2rcd13ifvqhng","pricing_plan_id":"free"},{"bike_id":"fb5d1b63-b2f2-4d34-b700-b062bf6b4e69","system_id":"levelo_inurba_marseille","lat":43.317557,"lon":5.390173,"is_reserved":false,"is_disabled":false,"rental_uris":{"android":"levelo://app?vid=fb5d1b63-b2f2-4d34-b700-b062bf6b4e69","ios":"levelo://app?vid=fb5d1b63-b2f2-4d34-b700-b062bf6b4e69"},"vehicle_type_id":"4","last_reported":1691262235,"current_range_meters":31200,"station_id":"ce4bhqp2rcd13ifvqhng","pricing_plan_id":"free"},{"bike_id":"90569ba5-8bb9-4d2d-b876-dc35e42f9a0c","system_id":"levelo_inurba_marseille","lat":43.317557,"lon":5.390173,"is_reserved":false,"is_disabled":false,"rental_uris":{"android":"levelo://app?vid=90569ba5-8bb9-4d2d-b876-dc35e42f9a0c","ios":"levelo://app?vid=90569ba5-8bb9-4d2d-b876-dc35e42f9a0c"},"vehicle_type_id":"4","last_reported":1691262235,"current_range_meters":31200,"station_id":"ce4bhqp2rcd13ifvqhng","pricing_plan_id":"free"},{"bike_id":"37440da6-a52c-4d8b-bad8-8479cc4c329c","system_id":"levelo_inurba_marseille","lat":43.317557,"lon":5.390173,"is_reserved":false,"is_disabled":false,"rental_uris":{"android":"levelo://app?vid=37440da6-a52c-4d8b-bad8-8479cc4c329c","ios":"levelo://app?vid=37440da6-a52c-4d8b-bad8-8479cc4c329c"},"vehicle_type_id":"4","last_reported":1691262235,"current_range_meters":30000,"station_id":"ce4bhqp2rcd13ifvqhng","pricing_plan_id":"free"},{"bike_id":"33289ce5-1059-4419-aac6-0b635209ed94","system_id":"levelo_inurba_marseille","lat":43.317557,"lon":5.390173,"is_reserved":false,"is_disabled":false,"rental_uris":{"android":"levelo://app?vid=33289ce5-1059-4419-aac6-0b635209ed94","ios":"levelo://app?vid=33289ce5-1059-4419-aac6-0b635209ed94"},"vehicle_type_id":"4","last_reported":1691262235,"current_range_meters":21600,"station_id":"ce4bhqp2rcd13ifvqhng","pricing_plan_id":"free"},{"bike_id":"fa6bc584-cf09-4409-9009-8eb9b42b181d","system_id":"levelo_inurba_marseille","lat":43.317557,"lon":5.390173,"is_reserved":false,"is_disabled":false,"rental_uris":{"android":"levelo://app?vid=fa6bc584-cf09-4409-9009-8eb9b42b181d","ios":"levelo://app?vid=fa6bc584-cf09-4409-9009-8eb9b42b181d"},"vehicle_type_id":"4","last_reported":1691262235,"current_range_meters":12400,"station_id":"ce4bhqp2rcd13ifvqhng","pricing_plan_id":"free"},{"bike_id":"ea01d5ca-46b8-4e12-9d73-863370000a06","system_id":"levelo_inurba_marseille","lat":43.317557,"lon":5.390173,"is_reserved":false,"is_disabled":false,"rental_uris":{"android":"levelo://app?vid=ea01d5ca-46b8-4e12-9d73-863370000a06","ios":"levelo://app?vid=ea01d5ca-46b8-4e12-9d73-863370000a06"},"vehicle_type_id":"4","last_reported":1691262235,"current_range_meters":31200,"station_id":"ce4bhqp2rcd13ifvqhng","pricing_plan_id":"free"},{"bike_id":"0d80bf60-b88d-4fdb-a20d-fa4d59d498f8","system_id":"levelo_inurba_marseille","lat":43.29794,"lon":5.38091,"is_reserved":false,"is_disabled":false,"rental_uris":{"android":"levelo://app?vid=0d80bf60-b88d-4fdb-a20d-fa4d59d498f8","ios":"levelo://app?vid=0d80bf60-b88d-4fdb-a20d-fa4d59d498f8"},"vehicle_type_id":"4","last_reported":1691262235,"current_range_meters":24400,"station_id":"ce4bgip2rcd13ifvqbb0","pricing_plan_id":"free"},{"bike_id":"a4df99ce-0488-49dd-a888-94686f562e88","system_id":"levelo_inurba_marseille","lat":43.295748,"lon":5.37522,"is_reserved":false,"is_disabled":false,"rental_uris":{"android":"levelo://app?vid=a4df99ce-0488-49dd-a888-94686f562e88","ios":"levelo://app?vid=a4df99ce-0488-49dd-a888-94686f562e88"},"vehicle_type_id":"4","last_reported":1691262235,"current_range_meters":27200,"station_id":"ce4bgh92rcd13ifvqb50","pricing_plan_id":"free"},{"bike_id":"d2687a7f-ed26-4147-9035-a4a363e3db06","system_id":"levelo_inurba_marseille","lat":43.295748,"lon":5.37522,"is_reserved":false,"is_disabled":false,"rental_uris":{"android":"levelo://app?vid=d2687a7f-ed26-4147-9035-a4a363e3db06","ios":"levelo://app?vid=d2687a7f-ed26-4147-9035-a4a363e3db06"},"vehicle_type_id":"4","last_reported":1691262235,"current_range_meters":16000,"station_id":"ce4bgh92rcd13ifvqb50","pricing_plan_id":"free"},{"bike_id":"c82cdd8f-9e77-40a0-94e2-da960623f6d3","system_id":"levelo_inurba_marseille","lat":43.295748,"lon":5.37522,"is_reserved":false,"is_disabled":false,"rental_uris":{"android":"levelo://app?vid=c82cdd8f-9e77-40a0-94e2-da960623f6d3","ios":"levelo://app?vid=c82cdd8f-9e77-40a0-94e2-da960623f6d3"},"vehicle_type_id":"4","last_reported":1691262235,"current_range_meters":4000,"station_id":"ce4bgh92rcd13ifvqb50","pricing_plan_id":"free"},{"bike_id":"de45b157-f388-4bc2-9cde-b96f6d80fbbb","system_id":"levelo_inurba_marseille","lat":43.29614,"lon":5.37712,"is_reserved":false,"is_disabled":false,"rental_uris":{"android":"levelo://app?vid=de45b157-f388-4bc2-9cde-b96f6d80fbbb","ios":"levelo://app?vid=de45b157-f388-4bc2-9cde-b96f6d80fbbb"},"vehicle_type_id":"4","last_reported":1691262235,"current_range_meters":2000,"station_id":"ce4bgi92rcd13ifvqb90","pricing_plan_id":"free"},{"bike_id":"b25a556f-f7df-400c-8d88-bc5005c10d44","system_id":"levelo_inurba_marseille","lat":43.29617,"lon":5.37725,"is_reserved":false,"is_disabled":false,"rental_uris":{"android":"levelo://app?vid=b25a556f-f7df-400c-8d88-bc5005c10d44","ios":"levelo://app?vid=b25a556f-f7df-400c-8d88-bc5005c10d44"},"vehicle_type_id":"4","last_reported":1691262235,"current_range_meters":17600,"station_id":"ce4bgi92rcd13ifvqb90","pricing_plan_id":"free"},{"bike_id":"621215e7-dcee-4d4c-a50b-70c8b7abd250","system_id":"levelo_inurba_marseille","lat":43.299707,"lon":5.384859,"is_reserved":false,"is_disabled":false,"rental_uris":{"android":"levelo://app?vid=621215e7-dcee-4d4c-a50b-70c8b7abd250","ios":"levelo://app?vid=621215e7-dcee-4d4c-a50b-70c8b7abd250"},"vehicle_type_id":"4","last_reported":1691262235,"current_range_meters":23600,"station_id":"ce4bgj92rcd13ifvqbd0","pricing_plan_id":"free"},{"bike_id":"a6b86d8e-d3f3-46fe-b223-1593b4113296","system_id":"levelo_inurba_marseille","lat":43.295279,"lon":5.375048,"is_reserved":false,"is_disabled":false,"rental_uris":{"android":"levelo://app?vid=a6b86d8e-d3f3-46fe-b223-1593b4113296","ios":"levelo://app?vid=a6b86d8e-d3f3-46fe-b223-1593b4113296"},"vehicle_type_id":"4","last_reported":1691262235,"current_range_meters":1200,"station_id":"ce4bgkp2rcd13ifvqbmg","pricing_plan_id":"free"},{"bike_id":"4952e7f5-0385-4eb8-a4ab-bdcac39d1349","system_id":"levelo_inurba_marseille","lat":43.309589,"lon":5.390258,"is_reserved":false,"is_disabled":false,"rental_uris":{"android":"levelo://app?vid=4952e7f5-0385-4eb8-a4ab-bdcac39d1349","ios":"levelo://app?vid=4952e7f5-0385-4eb8-a4ab-bdcac39d1349"},"vehicle_type_id":"4","last_reported":1691262235,"current_range_meters":0,"station_id":"ce4bgup2rcd13ifvqco0","pricing_plan_id":"free"},{"bike_id":"696ed9b6-9beb-423c-9d06-defcf66f30b9","system_id":"levelo_inurba_marseille","lat":43.32364,"lon":5.38875,"is_reserved":false,"is_disabled":false,"rental_uris":{"android":"levelo://app?vid=696ed9b6-9beb-423c-9d06-defcf66f30b9","ios":"levelo://app?vid=696ed9b6-9beb-423c-9d06-defcf66f30b9"},"vehicle_type_id":"4","last_reported":1691262235,"current_range_meters":9600,"station_id":"ce4bhqp2rcd13ifvqhog","pricing_plan_id":"free"},{"bike_id":"51a94a8b-791c-4738-b220-ee8689f99230","system_id":"levelo_inurba_marseille","lat":43.32367,"lon":5.38873,"is_reserved":false,"is_disabled":false,"rental_uris":{"android":"levelo://app?vid=51a94a8b-791c-4738-b220-ee8689f99230","ios":"levelo://app?vid=51a94a8b-791c-4738-b220-ee8689f99230"},"vehicle_type_id":"4","last_reported":1691262235,"current_range_meters":1200,"station_id":"ce4bhqp2rcd13ifvqhog","pricing_plan_id":"free"},{"bike_id":"fbc3a92c-f948-48e9-a3fc-f0e8af1a9259","system_id":"levelo_inurba_marseille","lat":43.32367,"lon":5.388836,"is_reserved":false,"is_disabled":false,"rental_uris":{"android":"levelo://app?vid=fbc3a92c-f948-48e9-a3fc-f0e8af1a9259","ios":"levelo://app?vid=fbc3a92c-f948-48e9-a3fc-f0e8af1a9259"},"vehicle_type_id":"4","last_reported":1691262235,"current_range_meters":30000,"station_id":"ce4bhqp2rcd13ifvqhog","pricing_plan_id":"free"},{"bike_id":"b47ca02a-40ba-4dc8-abeb-b1a2c4b62cd0","system_id":"levelo_inurba_marseille","lat":43.32367,"lon":5.388836,"is_reserved":false,"is_disabled":false,"rental_uris":{"android":"levelo://app?vid=b47ca02a-40ba-4dc8-abeb-b1a2c4b62cd0","ios":"levelo://app?vid=b47ca02a-40ba-4dc8-abeb-b1a2c4b62cd0"},"vehicle_type_id":"4","last_reported":1691262235,"current_range_meters":28800,"station_id":"ce4bhqp2rcd13ifvqhog","pricing_plan_id":"free"},{"bike_id":"31c4ebe8-2a4f-41b7-966a-7ad502ff3d8a","system_id":"levelo_inurba_marseille","lat":43.32367,"lon":5.388836,"is_reserved":false,"is_disabled":false,"rental_uris":{"android":"levelo://app?vid=31c4ebe8-2a4f-41b7-966a-7ad502ff3d8a","ios":"levelo://app?vid=31c4ebe8-2a4f-41b7-966a-7ad502ff3d8a"},"vehicle_type_id":"4","last_reported":1691262235,"current_range_meters":18800,"station_id":"ce4bhqp2rcd13ifvqhog","pricing_plan_id":"free"},{"bike_id":"5f1c231d-5549-420b-a974-1b1406435a60","system_id":"levelo_inurba_marseille","lat":43.32364,"lon":5.3888,"is_reserved":false,"is_disabled":false,"rental_uris":{"android":"levelo://app?vid=5f1c231d-5549-420b-a974-1b1406435a60","ios":"levelo://app?vid=5f1c231d-5549-420b-a974-1b1406435a60"},"vehicle_type_id":"4","last_reported":1691262235,"current_range_meters":20400,"station_id":"ce4bhqp2rcd13ifvqhog","pricing_plan_id":"free"},{"bike_id":"5bdf8c20-9c72-47ab-afc6-2b84567e0617","system_id":"levelo_inurba_marseille","lat":43.32376,"lon":5.3887,"is_reserved":false,"is_disabled":false,"rental_uris":{"android":"levelo://app?vid=5bdf8c20-9c72-47ab-afc6-2b84567e0617","ios":"levelo://app?vid=5bdf8c20-9c72-47ab-afc6-2b84567e0617"},"vehicle_type_id":"4","last_reported":1691262235,"current_range_meters":18400,"station_id":"ce4bhqp2rcd13ifvqhog","pricing_plan_id":"free"},{"bike_id":"9b6a16b8-aadd-4228-97e2-a805773a8fa4","system_id":"levelo_inurba_marseille","lat":43.32365,"lon":5.38881,"is_reserved":false,"is_disabled":false,"rental_uris":{"android":"levelo://app?vid=9b6a16b8-aadd-4228-97e2-a805773a8fa4","ios":"levelo://app?vid=9b6a16b8-aadd-4228-97e2-a805773a8fa4"},"vehicle_type_id":"4","last_reported":1691262235,"current_range_meters":21200,"station_id":"","pricing_plan_id":"free"},{"bike_id":"34ef5601-8765-4b80-bdc1-e9818152ffab","system_id":"levelo_inurba_marseille","lat":43.32367,"lon":5.388836,"is_reserved":false,"is_disabled":false,"rental_uris":{"android":"levelo://app?vid=34ef5601-8765-4b80-bdc1-e9818152ffab","ios":"levelo://app?vid=34ef5601-8765-4b80-bdc1-e9818152ffab"},"vehicle_type_id":"4","last_reported":1691262235,"current_range_meters":24000,"station_id":"ce4bhqp2rcd13ifvqhog","pricing_plan_id":"free"},{"bike_id":"ed5b971a-2b8a-4f89-9487-7e8342d0b66b","system_id":"levelo_inurba_marseille","lat":43.32365,"lon":5.38882,"is_reserved":false,"is_disabled":false,"rental_uris":{"android":"levelo://app?vid=ed5b971a-2b8a-4f89-9487-7e8342d0b66b","ios":"levelo://app?vid=ed5b971a-2b8a-4f89-9487-7e8342d0b66b"},"vehicle_type_id":"4","last_reported":1691262235,"current_range_meters":20400,"station_id":"ce4bhqp2rcd13ifvqhog","pricing_plan_id":"free"},{"bike_id":"153806a9-c106-4acb-8efe-f81ba29b58d3","system_id":"levelo_inurba_marseille","lat":43.32367,"lon":5.388836,"is_reserved":false,"is_disabled":false,"rental_uris":{"android":"levelo://app?vid=153806a9-c106-4acb-8efe-f81ba29b58d3","ios":"levelo://app?vid=153806a9-c106-4acb-8efe-f81ba29b58d3"},"vehicle_type_id":"4","last_reported":1691262235,"current_range_meters":22800,"station_id":"ce4bhqp2rcd13ifvqhog","pricing_plan_id":"free"},{"bike_id":"22bed36d-b2d5-4351-a2a0-3bcc3d1e349e","system_id":"levelo_inurba_marseille","lat":43.32369,"lon":5.3888,"is_reserved":false,"is_disabled":false,"rental_uris":{"android":"levelo://app?vid=22bed36d-b2d5-4351-a2a0-3bcc3d1e349e","ios":"levelo://app?vid=22bed36d-b2d5-4351-a2a0-3bcc3d1e349e"},"vehicle_type_id":"4","last_reported":1691262235,"current_range_meters":1200,"station_id":"ce4bhqp2rcd13ifvqhog","pricing_plan_id":"free"},{"bike_id":"6be534a9-96c6-4989-b3bb-e9dea76376c4","system_id":"levelo_inurba_marseille","lat":43.32369,"lon":5.38883,"is_reserved":false,"is_disabled":false,"rental_uris":{"android":"levelo://app?vid=6be534a9-96c6-4989-b3bb-e9dea76376c4","ios":"levelo://app?vid=6be534a9-96c6-4989-b3bb-e9dea76376c4"},"vehicle_type_id":"4","last_reported":1691262235,"current_range_meters":30800,"station_id":"ce4bhqp2rcd13ifvqhog","pricing_plan_id":"free"},{"bike_id":"d31122e6-e65b-4e35-b9ad-0bae407fb5a5","system_id":"levelo_inurba_marseille","lat":43.32368,"lon":5.38884,"is_reserved":false,"is_disabled":false,"rental_uris":{"android":"levelo://app?vid=d31122e6-e65b-4e35-b9ad-0bae407fb5a5","ios":"levelo://app?vid=d31122e6-e65b-4e35-b9ad-0bae407fb5a5"},"vehicle_type_id":"4","last_reported":1691262235,"current_range_meters":16800,"station_id":"ce4bhqp2rcd13ifvqhog","pricing_plan_id":"free"},{"bike_id":"93f32081-a64e-46b7-a675-15b9e05c55c8","system_id":"levelo_inurba_marseille","lat":43.29601,"lon":5.381084,"is_reserved":false,"is_disabled":false,"rental_uris":{"android":"levelo://app?vid=93f32081-a64e-46b7-a675-15b9e05c55c8","ios":"levelo://app?vid=93f32081-a64e-46b7-a675-15b9e05c55c8"},"vehicle_type_id":"4","last_reported":1691262235,"current_range_meters":13600,"station_id":"ce4bgl12rcd13ifvqbo0","pricing_plan_id":"free"},{"bike_id":"2147ad9d-3e8e-4ca8-bea7-d7ad2c6e520b","system_id":"levelo_inurba_marseille","lat":43.29602,"lon":5.381084,"is_reserved":false,"is_disabled":false,"rental_uris":{"android":"levelo://app?vid=2147ad9d-3e8e-4ca8-bea7-d7ad2c6e520b","ios":"levelo://app?vid=2147ad9d-3e8e-4ca8-bea7-d7ad2c6e520b"},"vehicle_type_id":"4","last_reported":1691262235,"current_range_meters":30000,"station_id":"ce4bgl12rcd13ifvqbo0","pricing_plan_id":"free"},{"bike_id":"461c88ce-1aea-41bf-9ec5-a4ca2b495813","system_id":"levelo_inurba_marseille","lat":43.2928,"lon":5.3684,"is_reserved":false,"is_disabled":false,"rental_uris":{"android":"levelo://app?vid=461c88ce-1aea-41bf-9ec5-a4ca2b495813","ios":"levelo://app?vid=461c88ce-1aea-41bf-9ec5-a4ca2b495813"},"vehicle_type_id":"4","last_reported":1691262235,"current_range_meters":2000,"station_id":"ce4bhbp2rcd13ifvqesg","pricing_plan_id":"free"},{"bike_id":"4767cc12-922a-4c4a-bf93-a72c8cdafd9d","system_id":"levelo_inurba_marseille","lat":43.29276,"lon":5.36839,"is_reserved":false,"is_disabled":false,"rental_uris":{"android":"levelo://app?vid=4767cc12-922a-4c4a-bf93-a72c8cdafd9d","ios":"levelo://app?vid=4767cc12-922a-4c4a-bf93-a72c8cdafd9d"},"vehicle_type_id":"4","last_reported":1691262235,"current_range_meters":6800,"station_id":"ce4bhbp2rcd13ifvqesg","pricing_plan_id":"free"},{"bike_id":"116293ed-f70c-4d66-87c5-d9a546f0b6fe","system_id":"levelo_inurba_marseille","lat":43.29303,"lon":5.37179,"is_reserved":false,"is_disabled":false,"rental_uris":{"android":"levelo://app?vid=116293ed-f70c-4d66-87c5-d9a546f0b6fe","ios":"levelo://app?vid=116293ed-f70c-4d66-87c5-d9a546f0b6fe"},"vehicle_type_id":"4","last_reported":1691262235,"current_range_meters":0,"station_id":"ce4bgh92rcd13ifvqb40","pricing_plan_id":"free"},{"bike_id":"85867f4a-b44a-463f-a6b0-b9104510d888","system_id":"levelo_inurba_marseille","lat":43.29302,"lon":5.37173,"is_reserved":false,"is_disabled":false,"rental_uris":{"android":"levelo://app?vid=85867f4a-b44a-463f-a6b0-b9104510d888","ios":"levelo://app?vid=85867f4a-b44a-463f-a6b0-b9104510d888"},"vehicle_type_id":"4","last_reported":1691262235,"current_range_meters":9600,"station_id":"ce4bgh92rcd13ifvqb40","pricing_plan_id":"free"},{"bike_id":"ffe7122e-739e-4f69-96fe-3765999eef9a","system_id":"levelo_inurba_marseille","lat":43.29295,"lon":5.37158,"is_reserved":false,"is_disabled":false,"rental_uris":{"android":"levelo://app?vid=ffe7122e-739e-4f69-96fe-3765999eef9a","ios":"levelo://app?vid=ffe7122e-739e-4f69-96fe-3765999eef9a"},"vehicle_type_id":"4","last_reported":1691262235,"current_range_meters":6800,"station_id":"ce4bgh92rcd13ifvqb40","pricing_plan_id":"free"},{"bike_id":"782bb0ce-bbce-4677-a38d-494ceedcb2d7","system_id":"levelo_inurba_marseille","lat":43.292749,"lon":5.368398,"is_reserved":false,"is_disabled":false,"rental_uris":{"android":"levelo://app?vid=782bb0ce-bbce-4677-a38d-494ceedcb2d7","ios":"levelo://app?vid=782bb0ce-bbce-4677-a38d-494ceedcb2d7"},"vehicle_type_id":"4","last_reported":1691262235,"current_range_meters":29200,"station_id":"ce4bhbp2rcd13ifvqesg","pricing_plan_id":"free"},{"bike_id":"bd4230bd-a87f-4d6d-8be9-9032c466e75e","system_id":"levelo_inurba_marseille","lat":43.2936,"lon":5.37835,"is_reserved":false,"is_disabled":false,"rental_uris":{"android":"levelo://app?vid=bd4230bd-a87f-4d6d-8be9-9032c466e75e","ios":"levelo://app?vid=bd4230bd-a87f-4d6d-8be9-9032c466e75e"},"vehicle_type_id":"4","last_reported":1691262235,"current_range_meters":17600,"station_id":"ce4bgjh2rcd13ifvqbf0","pricing_plan_id":"free"},{"bike_id":"da274eda-e7c3-438c-b54e-4d62bff7f904","system_id":"levelo_inurba_marseille","lat":43.2936,"lon":5.37835,"is_reserved":false,"is_disabled":false,"rental_uris":{"android":"levelo://app?vid=da274eda-e7c3-438c-b54e-4d62bff7f904","ios":"levelo://app?vid=da274eda-e7c3-438c-b54e-4d62bff7f904"},"vehicle_type_id":"4","last_reported":1691262235,"current_range_meters":21600,"station_id":"ce4bgjh2rcd13ifvqbf0","pricing_plan_id":"free"},{"bike_id":"53471f4f-6f5f-424d-bb60-5e6f8af2c869","system_id":"levelo_inurba_marseille","lat":43.2936,"lon":5.37835,"is_reserved":false,"is_disabled":false,"rental_uris":{"android":"levelo://app?vid=53471f4f-6f5f-424d-bb60-5e6f8af2c869","ios":"levelo://app?vid=53471f4f-6f5f-424d-bb60-5e6f8af2c869"},"vehicle_type_id":"4","last_reported":1691262235,"current_range_meters":22000,"station_id":"ce4bgjh2rcd13ifvqbf0","pricing_plan_id":"free"},{"bike_id":"2ac2a79a-692d-4ef8-a40c-751569ae5fbf","system_id":"levelo_inurba_marseille","lat":43.2936,"lon":5.37835,"is_reserved":false,"is_disabled":false,"rental_uris":{"android":"levelo://app?vid=2ac2a79a-692d-4ef8-a40c-751569ae5fbf","ios":"levelo://app?vid=2ac2a79a-692d-4ef8-a40c-751569ae5fbf"},"vehicle_type_id":"4","last_reported":1691262235,"current_range_meters":28800,"station_id":"ce4bgjh2rcd13ifvqbf0","pricing_plan_id":"free"},{"bike_id":"0e140e4e-a03f-41ce-b72c-f575aab9ab33","system_id":"levelo_inurba_marseille","lat":43.2936,"lon":5.37835,"is_reserved":false,"is_disabled":false,"rental_uris":{"android":"levelo://app?vid=0e140e4e-a03f-41ce-b72c-f575aab9ab33","ios":"levelo://app?vid=0e140e4e-a03f-41ce-b72c-f575aab9ab33"},"vehicle_type_id":"4","last_reported":1691262235,"current_range_meters":6800,"station_id":"ce4bgjh2rcd13ifvqbf0","pricing_plan_id":"free"},{"bike_id":"7139a0a4-12a5-4aaf-9b7f-bde8856473c1","system_id":"levelo_inurba_marseille","lat":43.291675,"lon":5.371583,"is_reserved":false,"is_disabled":false,"rental_uris":{"android":"levelo://app?vid=7139a0a4-12a5-4aaf-9b7f-bde8856473c1","ios":"levelo://app?vid=7139a0a4-12a5-4aaf-9b7f-bde8856473c1"},"vehicle_type_id":"4","last_reported":1691262235,"current_range_meters":5600,"station_id":"ce4bha92rcd13ifvqeh0","pricing_plan_id":"free"},{"bike_id":"4b786e1d-4a77-484c-ae95-3dbcabfb11b5","system_id":"levelo_inurba_marseille","lat":43.291675,"lon":5.371583,"is_reserved":false,"is_disabled":false,"rental_uris":{"android":"levelo://app?vid=4b786e1d-4a77-484c-ae95-3dbcabfb11b5","ios":"levelo://app?vid=4b786e1d-4a77-484c-ae95-3dbcabfb11b5"},"vehicle_type_id":"4","last_reported":1691262235,"current_range_meters":31200,"station_id":"ce4bha92rcd13ifvqeh0","pricing_plan_id":"free"},{"bike_id":"bb62440e-d651-42b5-bd2d-7dfda56bf161","system_id":"levelo_inurba_marseille","lat":43.291675,"lon":5.371583,"is_reserved":false,"is_disabled":false,"rental_uris":{"android":"levelo://app?vid=bb62440e-d651-42b5-bd2d-7dfda56bf161","ios":"levelo://app?vid=bb62440e-d651-42b5-bd2d-7dfda56bf161"},"vehicle_type_id":"4","last_reported":1691262235,"current_range_meters":31600,"station_id":"ce4bha92rcd13ifvqeh0","pricing_plan_id":"free"},{"bike_id":"4554a703-dd3d-4230-96c8-674cc510c5bc","system_id":"levelo_inurba_marseille","lat":43.292663,"lon":5.376389,"is_reserved":false,"is_disabled":false,"rental_uris":{"android":"levelo://app?vid=4554a703-dd3d-4230-96c8-674cc510c5bc","ios":"levelo://app?vid=4554a703-dd3d-4230-96c8-674cc510c5bc"},"vehicle_type_id":"4","last_reported":1691262235,"current_range_meters":6800,"station_id":"ce4bgi12rcd13ifvqb80","pricing_plan_id":"free"},{"bike_id":"75064dd5-0866-4027-b921-8e2ff0c24689","system_id":"levelo_inurba_marseille","lat":43.291675,"lon":5.371583,"is_reserved":false,"is_disabled":false,"rental_uris":{"android":"levelo://app?vid=75064dd5-0866-4027-b921-8e2ff0c24689","ios":"levelo://app?vid=75064dd5-0866-4027-b921-8e2ff0c24689"},"vehicle_type_id":"4","last_reported":1691262235,"current_range_meters":10400,"station_id":"ce4bha92rcd13ifvqeh0","pricing_plan_id":"free"},{"bike_id":"89728be2-ed27-450b-9b86-4e12cd75f0b9","system_id":"levelo_inurba_marseille","lat":43.302008,"lon":5.394694,"is_reserved":false,"is_disabled":false,"rental_uris":{"android":"levelo://app?vid=89728be2-ed27-450b-9b86-4e12cd75f0b9","ios":"levelo://app?vid=89728be2-ed27-450b-9b86-4e12cd75f0b9"},"vehicle_type_id":"4","last_reported":1691262235,"current_range_meters":6400,"station_id":"ce4bh0p2rcd13ifvqd70","pricing_plan_id":"free"},{"bike_id":"ef8f8abb-2682-4bb7-893b-997b008c3a3c","system_id":"levelo_inurba_marseille","lat":43.30882,"lon":5.39619,"is_reserved":false,"is_disabled":false,"rental_uris":{"android":"levelo://app?vid=ef8f8abb-2682-4bb7-893b-997b008c3a3c","ios":"levelo://app?vid=ef8f8abb-2682-4bb7-893b-997b008c3a3c"},"vehicle_type_id":"4","last_reported":1691262235,"current_range_meters":24800,"station_id":"ce4bh012rcd13ifvqcv0","pricing_plan_id":"free"},{"bike_id":"5b02d5e5-d783-4ffa-ab35-29dd46c9323a","system_id":"levelo_inurba_marseille","lat":43.30885,"lon":5.39631,"is_reserved":false,"is_disabled":false,"rental_uris":{"android":"levelo://app?vid=5b02d5e5-d783-4ffa-ab35-29dd46c9323a","ios":"levelo://app?vid=5b02d5e5-d783-4ffa-ab35-29dd46c9323a"},"vehicle_type_id":"4","last_reported":1691262235,"current_range_meters":9200,"station_id":"ce4bh012rcd13ifvqcv0","pricing_plan_id":"free"},{"bike_id":"6bf6bfc6-351a-4103-82bc-0b9e0e553956","system_id":"levelo_inurba_marseille","lat":43.31328,"lon":5.39688,"is_reserved":false,"is_disabled":false,"rental_uris":{"android":"levelo://app?vid=6bf6bfc6-351a-4103-82bc-0b9e0e553956","ios":"levelo://app?vid=6bf6bfc6-351a-4103-82bc-0b9e0e553956"},"vehicle_type_id":"4","last_reported":1691262235,"current_range_meters":18000,"station_id":"ce4bgvp2rcd13ifvqcu0","pricing_plan_id":"free"},{"bike_id":"ea7a9fbd-79bf-4fc5-9cf5-600ce47a3c6f","system_id":"levelo_inurba_marseille","lat":43.313291,"lon":5.396838,"is_reserved":false,"is_disabled":false,"rental_uris":{"android":"levelo://app?vid=ea7a9fbd-79bf-4fc5-9cf5-600ce47a3c6f","ios":"levelo://app?vid=ea7a9fbd-79bf-4fc5-9cf5-600ce47a3c6f"},"vehicle_type_id":"4","last_reported":1691262235,"current_range_meters":6800,"station_id":"ce4bgvp2rcd13ifvqcu0","pricing_plan_id":"free"},{"bike_id":"af9ed230-1b46-455e-978a-bcb043082fdc","system_id":"levelo_inurba_marseille","lat":43.31332,"lon":5.39693,"is_reserved":false,"is_disabled":false,"rental_uris":{"android":"levelo://app?vid=af9ed230-1b46-455e-978a-bcb043082fdc","ios":"levelo://app?vid=af9ed230-1b46-455e-978a-bcb043082fdc"},"vehicle_type_id":"4","last_reported":1691262235,"current_range_meters":3600,"station_id":"ce4bgvp2rcd13ifvqcu0","pricing_plan_id":"free"},{"bike_id":"238b3634-f982-4047-8311-136c0e2287e8","system_id":"levelo_inurba_marseille","lat":43.29529,"lon":5.385581,"is_reserved":false,"is_disabled":false,"rental_uris":{"android":"levelo://app?vid=238b3634-f982-4047-8311-136c0e2287e8","ios":"levelo://app?vid=238b3634-f982-4047-8311-136c0e2287e8"},"vehicle_type_id":"4","last_reported":1691262235,"current_range_meters":15200,"station_id":"ce4bgih2rcd13ifvqba0","pricing_plan_id":"free"},{"bike_id":"d224958a-d589-4ced-8f11-f5c3aeb03ae2","system_id":"levelo_inurba_marseille","lat":43.29533,"lon":5.38536,"is_reserved":false,"is_disabled":false,"rental_uris":{"android":"levelo://app?vid=d224958a-d589-4ced-8f11-f5c3aeb03ae2","ios":"levelo://app?vid=d224958a-d589-4ced-8f11-f5c3aeb03ae2"},"vehicle_type_id":"4","last_reported":1691262235,"current_range_meters":30400,"station_id":"ce4bgih2rcd13ifvqba0","pricing_plan_id":"free"},{"bike_id":"92c669b8-e0bb-4a9d-b798-cb44990281b6","system_id":"levelo_inurba_marseille","lat":43.29529,"lon":5.385581,"is_reserved":false,"is_disabled":false,"rental_uris":{"android":"levelo://app?vid=92c669b8-e0bb-4a9d-b798-cb44990281b6","ios":"levelo://app?vid=92c669b8-e0bb-4a9d-b798-cb44990281b6"},"vehicle_type_id":"4","last_reported":1691262235,"current_range_meters":15600,"station_id":"ce4bgih2rcd13ifvqba0","pricing_plan_id":"free"},{"bike_id":"9e8d563d-132b-4136-8580-cca51542c898","system_id":"levelo_inurba_marseille","lat":43.29529,"lon":5.385581,"is_reserved":false,"is_disabled":false,"rental_uris":{"android":"levelo://app?vid=9e8d563d-132b-4136-8580-cca51542c898","ios":"levelo://app?vid=9e8d563d-132b-4136-8580-cca51542c898"},"vehicle_type_id":"4","last_reported":1691262235,"current_range_meters":5600,"station_id":"ce4bgih2rcd13ifvqba0","pricing_plan_id":"free"},{"bike_id":"4747f3b1-f333-4771-be6f-455881665793","system_id":"levelo_inurba_marseille","lat":43.29529,"lon":5.385581,"is_reserved":false,"is_disabled":false,"rental_uris":{"android":"levelo://app?vid=4747f3b1-f333-4771-be6f-455881665793","ios":"levelo://app?vid=4747f3b1-f333-4771-be6f-455881665793"},"vehicle_type_id":"4","last_reported":1691262235,"current_range_meters":14800,"station_id":"ce4bgih2rcd13ifvqba0","pricing_plan_id":"free"},{"bike_id":"3d14bc3e-eabc-44e1-b5c3-5da3969f1f31","system_id":"levelo_inurba_marseille","lat":43.29529,"lon":5.385581,"is_reserved":false,"is_disabled":false,"rental_uris":{"android":"levelo://app?vid=3d14bc3e-eabc-44e1-b5c3-5da3969f1f31","ios":"levelo://app?vid=3d14bc3e-eabc-44e1-b5c3-5da3969f1f31"},"vehicle_type_id":"4","last_reported":1691262235,"current_range_meters":31200,"station_id":"ce4bgih2rcd13ifvqba0","pricing_plan_id":"free"},{"bike_id":"a87b57e5-fd92-4593-bd21-9530483b8ef7","system_id":"levelo_inurba_marseille","lat":43.29529,"lon":5.385581,"is_reserved":false,"is_disabled":false,"rental_uris":{"android":"levelo://app?vid=a87b57e5-fd92-4593-bd21-9530483b8ef7","ios":"levelo://app?vid=a87b57e5-fd92-4593-bd21-9530483b8ef7"},"vehicle_type_id":"4","last_reported":1691262235,"current_range_meters":21200,"station_id":"ce4bgih2rcd13ifvqba0","pricing_plan_id":"free"},{"bike_id":"de4dc217-2b91-48f9-a0cf-28b71e8c13c3","system_id":"levelo_inurba_marseille","lat":43.29529,"lon":5.38542,"is_reserved":false,"is_disabled":false,"rental_uris":{"android":"levelo://app?vid=de4dc217-2b91-48f9-a0cf-28b71e8c13c3","ios":"levelo://app?vid=de4dc217-2b91-48f9-a0cf-28b71e8c13c3"},"vehicle_type_id":"4","last_reported":1691262235,"current_range_meters":28400,"station_id":"ce4bgih2rcd13ifvqba0","pricing_plan_id":"free"},{"bike_id":"374639b9-3778-4422-8e34-d63a80c3bbc4","system_id":"levelo_inurba_marseille","lat":43.29529,"lon":5.38546,"is_reserved":false,"is_disabled":false,"rental_uris":{"android":"levelo://app?vid=374639b9-3778-4422-8e34-d63a80c3bbc4","ios":"levelo://app?vid=374639b9-3778-4422-8e34-d63a80c3bbc4"},"vehicle_type_id":"4","last_reported":1691262235,"current_range_meters":23200,"station_id":"ce4bgih2rcd13ifvqba0","pricing_plan_id":"free"},{"bike_id":"7805d0ff-19a0-491f-ab3c-0b0c09c6781e","system_id":"levelo_inurba_marseille","lat":43.302008,"lon":5.394694,"is_reserved":false,"is_disabled":false,"rental_uris":{"android":"levelo://app?vid=7805d0ff-19a0-491f-ab3c-0b0c09c6781e","ios":"levelo://app?vid=7805d0ff-19a0-491f-ab3c-0b0c09c6781e"},"vehicle_type_id":"4","last_reported":1691262235,"current_range_meters":16000,"station_id":"ce4bh0p2rcd13ifvqd70","pricing_plan_id":"free"},{"bike_id":"ab3df9a2-362e-441c-92c5-ab6083b8fffa","system_id":"levelo_inurba_marseille","lat":43.302008,"lon":5.394694,"is_reserved":false,"is_disabled":false,"rental_uris":{"android":"levelo://app?vid=ab3df9a2-362e-441c-92c5-ab6083b8fffa","ios":"levelo://app?vid=ab3df9a2-362e-441c-92c5-ab6083b8fffa"},"vehicle_type_id":"4","last_reported":1691262235,"current_range_meters":0,"station_id":"ce4bh0p2rcd13ifvqd70","pricing_plan_id":"free"},{"bike_id":"c25a1a44-31cd-4ec5-ad9b-8bdfc8bea5c0","system_id":"levelo_inurba_marseille","lat":43.290631,"lon":5.359244,"is_reserved":false,"is_disabled":false,"rental_uris":{"android":"levelo://app?vid=c25a1a44-31cd-4ec5-ad9b-8bdfc8bea5c0","ios":"levelo://app?vid=c25a1a44-31cd-4ec5-ad9b-8bdfc8bea5c0"},"vehicle_type_id":"4","last_reported":1691262235,"current_range_meters":22000,"station_id":"ce4bha92rcd13ifvqeg0","pricing_plan_id":"free"},{"bike_id":"3d151a57-552f-4991-bba6-918323cf422b","system_id":"levelo_inurba_marseille","lat":43.294153,"lon":5.386305,"is_reserved":false,"is_disabled":false,"rental_uris":{"android":"levelo://app?vid=3d151a57-552f-4991-bba6-918323cf422b","ios":"levelo://app?vid=3d151a57-552f-4991-bba6-918323cf422b"},"vehicle_type_id":"4","last_reported":1691262235,"current_range_meters":14000,"station_id":"ce4bh2h2rcd13ifvqdh0","pricing_plan_id":"free"},{"bike_id":"1645c871-f155-4b9d-8b97-67f3f61e2930","system_id":"levelo_inurba_marseille","lat":43.29416,"lon":5.38612,"is_reserved":false,"is_disabled":false,"rental_uris":{"android":"levelo://app?vid=1645c871-f155-4b9d-8b97-67f3f61e2930","ios":"levelo://app?vid=1645c871-f155-4b9d-8b97-67f3f61e2930"},"vehicle_type_id":"4","last_reported":1691262235,"current_range_meters":16400,"station_id":"ce4bh2h2rcd13ifvqdh0","pricing_plan_id":"free"},{"bike_id":"fad05ad1-6b6e-4213-ae09-887a7f918585","system_id":"levelo_inurba_marseille","lat":43.29419,"lon":5.38619,"is_reserved":false,"is_disabled":false,"rental_uris":{"android":"levelo://app?vid=fad05ad1-6b6e-4213-ae09-887a7f918585","ios":"levelo://app?vid=fad05ad1-6b6e-4213-ae09-887a7f918585"},"vehicle_type_id":"4","last_reported":1691262235,"current_range_meters":5200,"station_id":"ce4bh2h2rcd13ifvqdh0","pricing_plan_id":"free"},{"bike_id":"19c92c3f-336c-4d59-81e9-e3a263371655","system_id":"levelo_inurba_marseille","lat":43.2942,"lon":5.38622,"is_reserved":false,"is_disabled":false,"rental_uris":{"android":"levelo://app?vid=19c92c3f-336c-4d59-81e9-e3a263371655","ios":"levelo://app?vid=19c92c3f-336c-4d59-81e9-e3a263371655"},"vehicle_type_id":"4","last_reported":1691262235,"current_range_meters":15600,"station_id":"ce4bh2h2rcd13ifvqdh0","pricing_plan_id":"free"},{"bike_id":"6f6e9984-4db8-4b67-9be9-fd268e9107c3","system_id":"levelo_inurba_marseille","lat":43.29419,"lon":5.38621,"is_reserved":false,"is_disabled":false,"rental_uris":{"android":"levelo://app?vid=6f6e9984-4db8-4b67-9be9-fd268e9107c3","ios":"levelo://app?vid=6f6e9984-4db8-4b67-9be9-fd268e9107c3"},"vehicle_type_id":"4","last_reported":1691262235,"current_range_meters":16800,"station_id":"ce4bh2h2rcd13ifvqdh0","pricing_plan_id":"free"},{"bike_id":"b347f626-56ff-4c00-8b50-890c5c4ea39c","system_id":"levelo_inurba_marseille","lat":43.29421,"lon":5.38625,"is_reserved":false,"is_disabled":false,"rental_uris":{"android":"levelo://app?vid=b347f626-56ff-4c00-8b50-890c5c4ea39c","ios":"levelo://app?vid=b347f626-56ff-4c00-8b50-890c5c4ea39c"},"vehicle_type_id":"4","last_reported":1691262235,"current_range_meters":12400,"station_id":"ce4bh2h2rcd13ifvqdh0","pricing_plan_id":"free"},{"bike_id":"c81e31a2-0e48-446f-b466-521faa0374ec","system_id":"levelo_inurba_marseille","lat":43.29417,"lon":5.38623,"is_reserved":false,"is_disabled":false,"rental_uris":{"android":"levelo://app?vid=c81e31a2-0e48-446f-b466-521faa0374ec","ios":"levelo://app?vid=c81e31a2-0e48-446f-b466-521faa0374ec"},"vehicle_type_id":"4","last_reported":1691262235,"current_range_meters":2000,"station_id":"ce4bh2h2rcd13ifvqdh0","pricing_plan_id":"free"},{"bike_id":"be049492-2de1-408a-88c5-b7c3afca5a49","system_id":"levelo_inurba_marseille","lat":43.29415,"lon":5.38625,"is_reserved":false,"is_disabled":false,"rental_uris":{"android":"levelo://app?vid=be049492-2de1-408a-88c5-b7c3afca5a49","ios":"levelo://app?vid=be049492-2de1-408a-88c5-b7c3afca5a49"},"vehicle_type_id":"4","last_reported":1691262235,"current_range_meters":2000,"station_id":"ce4bh2h2rcd13ifvqdh0","pricing_plan_id":"free"},{"bike_id":"9682d6aa-6cbf-4484-b525-5b4b633240ee","system_id":"levelo_inurba_marseille","lat":43.29416,"lon":5.38629,"is_reserved":false,"is_disabled":false,"rental_uris":{"android":"levelo://app?vid=9682d6aa-6cbf-4484-b525-5b4b633240ee","ios":"levelo://app?vid=9682d6aa-6cbf-4484-b525-5b4b633240ee"},"vehicle_type_id":"4","last_reported":1691262235,"current_range_meters":26400,"station_id":"ce4bh2h2rcd13ifvqdh0","pricing_plan_id":"free"},{"bike_id":"227726a2-da71-4066-86fb-e476f7ff9b1a","system_id":"levelo_inurba_marseille","lat":43.29416,"lon":5.38631,"is_reserved":false,"is_disabled":false,"rental_uris":{"android":"levelo://app?vid=227726a2-da71-4066-86fb-e476f7ff9b1a","ios":"levelo://app?vid=227726a2-da71-4066-86fb-e476f7ff9b1a"},"vehicle_type_id":"4","last_reported":1691262235,"current_range_meters":12800,"station_id":"ce4bh2h2rcd13ifvqdh0","pricing_plan_id":"free"},{"bike_id":"5b9fef50-c7fd-4d31-9ca2-bb53cc3af722","system_id":"levelo_inurba_marseille","lat":43.29412,"lon":5.38625,"is_reserved":false,"is_disabled":false,"rental_uris":{"android":"levelo://app?vid=5b9fef50-c7fd-4d31-9ca2-bb53cc3af722","ios":"levelo://app?vid=5b9fef50-c7fd-4d31-9ca2-bb53cc3af722"},"vehicle_type_id":"4","last_reported":1691262235,"current_range_meters":3600,"station_id":"ce4bh2h2rcd13ifvqdh0","pricing_plan_id":"free"},{"bike_id":"20f36f2d-125e-43c9-829a-e24fdd77815f","system_id":"levelo_inurba_marseille","lat":43.29414,"lon":5.38629,"is_reserved":false,"is_disabled":false,"rental_uris":{"android":"levelo://app?vid=20f36f2d-125e-43c9-829a-e24fdd77815f","ios":"levelo://app?vid=20f36f2d-125e-43c9-829a-e24fdd77815f"},"vehicle_type_id":"4","last_reported":1691262235,"current_range_meters":25600,"station_id":"ce4bh2h2rcd13ifvqdh0","pricing_plan_id":"free"},{"bike_id":"fe374ac0-092c-4399-878e-767bf7c488ca","system_id":"levelo_inurba_marseille","lat":43.2941,"lon":5.3863,"is_reserved":false,"is_disabled":false,"rental_uris":{"android":"levelo://app?vid=fe374ac0-092c-4399-878e-767bf7c488ca","ios":"levelo://app?vid=fe374ac0-092c-4399-878e-767bf7c488ca"},"vehicle_type_id":"4","last_reported":1691262235,"current_range_meters":20800,"station_id":"ce4bh2h2rcd13ifvqdh0","pricing_plan_id":"free"},{"bike_id":"47f34c3e-03c1-4045-8089-fda120ffb782","system_id":"levelo_inurba_marseille","lat":43.289184,"lon":5.366408,"is_reserved":false,"is_disabled":false,"rental_uris":{"android":"levelo://app?vid=47f34c3e-03c1-4045-8089-fda120ffb782","ios":"levelo://app?vid=47f34c3e-03c1-4045-8089-fda120ffb782"},"vehicle_type_id":"4","last_reported":1691262235,"current_range_meters":12000,"station_id":"ce4bhap2rcd13ifvqek0","pricing_plan_id":"free"},{"bike_id":"56401314-4ddf-401d-820f-0e3aad79a339","system_id":"levelo_inurba_marseille","lat":43.289184,"lon":5.366408,"is_reserved":false,"is_disabled":false,"rental_uris":{"android":"levelo://app?vid=56401314-4ddf-401d-820f-0e3aad79a339","ios":"levelo://app?vid=56401314-4ddf-401d-820f-0e3aad79a339"},"vehicle_type_id":"4","last_reported":1691262235,"current_range_meters":19200,"station_id":"ce4bhap2rcd13ifvqek0","pricing_plan_id":"free"},{"bike_id":"73399446-6bdb-49c3-a9ec-2e058cf26023","system_id":"levelo_inurba_marseille","lat":43.292644,"lon":5.384257,"is_reserved":false,"is_disabled":false,"rental_uris":{"android":"levelo://app?vid=73399446-6bdb-49c3-a9ec-2e058cf26023","ios":"levelo://app?vid=73399446-6bdb-49c3-a9ec-2e058cf26023"},"vehicle_type_id":"4","last_reported":1691262235,"current_range_meters":20000,"station_id":"ce4bh692rcd13ifvqea0","pricing_plan_id":"free"},{"bike_id":"ce9401fe-d88b-4f91-bcfb-37f8ba946bd5","system_id":"levelo_inurba_marseille","lat":43.292642,"lon":5.384254,"is_reserved":false,"is_disabled":false,"rental_uris":{"android":"levelo://app?vid=ce9401fe-d88b-4f91-bcfb-37f8ba946bd5","ios":"levelo://app?vid=ce9401fe-d88b-4f91-bcfb-37f8ba946bd5"},"vehicle_type_id":"4","last_reported":1691262235,"current_range_meters":20400,"station_id":"ce4bh692rcd13ifvqea0","pricing_plan_id":"free"},{"bike_id":"fb647d96-c019-426f-af16-d31d091d516a","system_id":"levelo_inurba_marseille","lat":43.292644,"lon":5.384257,"is_reserved":false,"is_disabled":false,"rental_uris":{"android":"levelo://app?vid=fb647d96-c019-426f-af16-d31d091d516a","ios":"levelo://app?vid=fb647d96-c019-426f-af16-d31d091d516a"},"vehicle_type_id":"4","last_reported":1691262235,"current_range_meters":31200,"station_id":"ce4bh692rcd13ifvqea0","pricing_plan_id":"free"},{"bike_id":"d1acc293-6a6c-4975-a118-c3a075361935","system_id":"levelo_inurba_marseille","lat":43.292644,"lon":5.384257,"is_reserved":false,"is_disabled":false,"rental_uris":{"android":"levelo://app?vid=d1acc293-6a6c-4975-a118-c3a075361935","ios":"levelo://app?vid=d1acc293-6a6c-4975-a118-c3a075361935"},"vehicle_type_id":"4","last_reported":1691262235,"current_range_meters":18800,"station_id":"ce4bh692rcd13ifvqea0","pricing_plan_id":"free"},{"bike_id":"bc546f93-586a-41eb-aefd-b3dc17c4d38c","system_id":"levelo_inurba_marseille","lat":43.292642,"lon":5.384254,"is_reserved":false,"is_disabled":false,"rental_uris":{"android":"levelo://app?vid=bc546f93-586a-41eb-aefd-b3dc17c4d38c","ios":"levelo://app?vid=bc546f93-586a-41eb-aefd-b3dc17c4d38c"},"vehicle_type_id":"4","last_reported":1691262235,"current_range_meters":6000,"station_id":"ce4bh692rcd13ifvqea0","pricing_plan_id":"free"},{"bike_id":"a102cf37-7cb6-47f3-8643-731f3cb0dc3c","system_id":"levelo_inurba_marseille","lat":43.292642,"lon":5.384254,"is_reserved":false,"is_disabled":false,"rental_uris":{"android":"levelo://app?vid=a102cf37-7cb6-47f3-8643-731f3cb0dc3c","ios":"levelo://app?vid=a102cf37-7cb6-47f3-8643-731f3cb0dc3c"},"vehicle_type_id":"4","last_reported":1691262235,"current_range_meters":6400,"station_id":"ce4bh692rcd13ifvqea0","pricing_plan_id":"free"},{"bike_id":"c5b4eeba-4cf5-445e-b68e-fab475a4da68","system_id":"levelo_inurba_marseille","lat":43.292642,"lon":5.384254,"is_reserved":false,"is_disabled":false,"rental_uris":{"android":"levelo://app?vid=c5b4eeba-4cf5-445e-b68e-fab475a4da68","ios":"levelo://app?vid=c5b4eeba-4cf5-445e-b68e-fab475a4da68"},"vehicle_type_id":"4","last_reported":1691262235,"current_range_meters":19600,"station_id":"ce4bh692rcd13ifvqea0","pricing_plan_id":"free"},{"bike_id":"d48d65e4-5e9d-4094-8745-1104c698e0ff","system_id":"levelo_inurba_marseille","lat":43.292642,"lon":5.384254,"is_reserved":false,"is_disabled":false,"rental_uris":{"android":"levelo://app?vid=d48d65e4-5e9d-4094-8745-1104c698e0ff","ios":"levelo://app?vid=d48d65e4-5e9d-4094-8745-1104c698e0ff"},"vehicle_type_id":"4","last_reported":1691262235,"current_range_meters":6000,"station_id":"ce4bh692rcd13ifvqea0","pricing_plan_id":"free"},{"bike_id":"5d339101-cd77-4677-a8eb-a398f62d54aa","system_id":"levelo_inurba_marseille","lat":43.292642,"lon":5.384254,"is_reserved":false,"is_disabled":false,"rental_uris":{"android":"levelo://app?vid=5d339101-cd77-4677-a8eb-a398f62d54aa","ios":"levelo://app?vid=5d339101-cd77-4677-a8eb-a398f62d54aa"},"vehicle_type_id":"4","last_reported":1691262235,"current_range_meters":3600,"station_id":"ce4bh692rcd13ifvqea0","pricing_plan_id":"free"},{"bike_id":"7a950cce-c6a9-45bd-b7b0-94b1bc42690f","system_id":"levelo_inurba_marseille","lat":43.292644,"lon":5.384257,"is_reserved":false,"is_disabled":false,"rental_uris":{"android":"levelo://app?vid=7a950cce-c6a9-45bd-b7b0-94b1bc42690f","ios":"levelo://app?vid=7a950cce-c6a9-45bd-b7b0-94b1bc42690f"},"vehicle_type_id":"4","last_reported":1691262235,"current_range_meters":12800,"station_id":"ce4bh692rcd13ifvqea0","pricing_plan_id":"free"},{"bike_id":"9c30aaa7-421b-4be3-ba5f-5bbe2cb6f4d2","system_id":"levelo_inurba_marseille","lat":43.292642,"lon":5.384254,"is_reserved":false,"is_disabled":false,"rental_uris":{"android":"levelo://app?vid=9c30aaa7-421b-4be3-ba5f-5bbe2cb6f4d2","ios":"levelo://app?vid=9c30aaa7-421b-4be3-ba5f-5bbe2cb6f4d2"},"vehicle_type_id":"4","last_reported":1691262235,"current_range_meters":2000,"station_id":"ce4bh692rcd13ifvqea0","pricing_plan_id":"free"},{"bike_id":"bdb59e64-f9de-4720-a729-2d78dc3868d1","system_id":"levelo_inurba_marseille","lat":43.292644,"lon":5.384257,"is_reserved":false,"is_disabled":false,"rental_uris":{"android":"levelo://app?vid=bdb59e64-f9de-4720-a729-2d78dc3868d1","ios":"levelo://app?vid=bdb59e64-f9de-4720-a729-2d78dc3868d1"},"vehicle_type_id":"4","last_reported":1691262235,"current_range_meters":22800,"station_id":"ce4bh692rcd13ifvqea0","pricing_plan_id":"free"},{"bike_id":"1d737908-eb83-47d9-add8-1f8e909f99a2","system_id":"levelo_inurba_marseille","lat":43.292644,"lon":5.384257,"is_reserved":false,"is_disabled":false,"rental_uris":{"android":"levelo://app?vid=1d737908-eb83-47d9-add8-1f8e909f99a2","ios":"levelo://app?vid=1d737908-eb83-47d9-add8-1f8e909f99a2"},"vehicle_type_id":"4","last_reported":1691262235,"current_range_meters":14400,"station_id":"ce4bh692rcd13ifvqea0","pricing_plan_id":"free"},{"bike_id":"1115cb4b-19b0-4a17-9bd1-fb4570c68d4e","system_id":"levelo_inurba_marseille","lat":43.292644,"lon":5.384257,"is_reserved":false,"is_disabled":false,"rental_uris":{"android":"levelo://app?vid=1115cb4b-19b0-4a17-9bd1-fb4570c68d4e","ios":"levelo://app?vid=1115cb4b-19b0-4a17-9bd1-fb4570c68d4e"},"vehicle_type_id":"4","last_reported":1691262235,"current_range_meters":31200,"station_id":"ce4bh692rcd13ifvqea0","pricing_plan_id":"free"},{"bike_id":"d3c27e98-82c6-4cd0-bfaa-68cec38e2795","system_id":"levelo_inurba_marseille","lat":43.292642,"lon":5.384254,"is_reserved":false,"is_disabled":false,"rental_uris":{"android":"levelo://app?vid=d3c27e98-82c6-4cd0-bfaa-68cec38e2795","ios":"levelo://app?vid=d3c27e98-82c6-4cd0-bfaa-68cec38e2795"},"vehicle_type_id":"4","last_reported":1691262235,"current_range_meters":28800,"station_id":"ce4bh692rcd13ifvqea0","pricing_plan_id":"free"},{"bike_id":"79a68400-afa6-48b2-bd4b-45482a6d1675","system_id":"levelo_inurba_marseille","lat":43.292642,"lon":5.384254,"is_reserved":false,"is_disabled":false,"rental_uris":{"android":"levelo://app?vid=79a68400-afa6-48b2-bd4b-45482a6d1675","ios":"levelo://app?vid=79a68400-afa6-48b2-bd4b-45482a6d1675"},"vehicle_type_id":"4","last_reported":1691262235,"current_range_meters":12400,"station_id":"ce4bh692rcd13ifvqea0","pricing_plan_id":"free"},{"bike_id":"f1b4110b-7959-46db-855e-f413b6fb5ad0","system_id":"levelo_inurba_marseille","lat":43.292642,"lon":5.384254,"is_reserved":false,"is_disabled":false,"rental_uris":{"android":"levelo://app?vid=f1b4110b-7959-46db-855e-f413b6fb5ad0","ios":"levelo://app?vid=f1b4110b-7959-46db-855e-f413b6fb5ad0"},"vehicle_type_id":"4","last_reported":1691262235,"current_range_meters":14000,"station_id":"ce4bh692rcd13ifvqea0","pricing_plan_id":"free"},{"bike_id":"0444cc78-b3cb-4566-a909-41cd125bc6c4","system_id":"levelo_inurba_marseille","lat":43.292644,"lon":5.384257,"is_reserved":false,"is_disabled":false,"rental_uris":{"android":"levelo://app?vid=0444cc78-b3cb-4566-a909-41cd125bc6c4","ios":"levelo://app?vid=0444cc78-b3cb-4566-a909-41cd125bc6c4"},"vehicle_type_id":"4","last_reported":1691262235,"current_range_meters":16400,"station_id":"ce4bh692rcd13ifvqea0","pricing_plan_id":"free"},{"bike_id":"00b2dcdc-2882-40a1-9132-89c3ec15cf18","system_id":"levelo_inurba_marseille","lat":43.33036,"lon":5.38912,"is_reserved":false,"is_disabled":false,"rental_uris":{"android":"levelo://app?vid=00b2dcdc-2882-40a1-9132-89c3ec15cf18","ios":"levelo://app?vid=00b2dcdc-2882-40a1-9132-89c3ec15cf18"},"vehicle_type_id":"4","last_reported":1691262235,"current_range_meters":13600,"station_id":"ce4bhr92rcd13ifvqhrg","pricing_plan_id":"free"},{"bike_id":"2f2d42a2-8de0-405f-9429-d3eae654394c","system_id":"levelo_inurba_marseille","lat":43.33037,"lon":5.38912,"is_reserved":false,"is_disabled":false,"rental_uris":{"android":"levelo://app?vid=2f2d42a2-8de0-405f-9429-d3eae654394c","ios":"levelo://app?vid=2f2d42a2-8de0-405f-9429-d3eae654394c"},"vehicle_type_id":"4","last_reported":1691262235,"current_range_meters":16000,"station_id":"ce4bhr92rcd13ifvqhrg","pricing_plan_id":"free"},{"bike_id":"3468d6ee-41ad-4796-b726-52055f3c03fd","system_id":"levelo_inurba_marseille","lat":43.33043,"lon":5.38903,"is_reserved":false,"is_disabled":false,"rental_uris":{"android":"levelo://app?vid=3468d6ee-41ad-4796-b726-52055f3c03fd","ios":"levelo://app?vid=3468d6ee-41ad-4796-b726-52055f3c03fd"},"vehicle_type_id":"4","last_reported":1691262235,"current_range_meters":26800,"station_id":"ce4bhr92rcd13ifvqhrg","pricing_plan_id":"free"},{"bike_id":"e6c6e4e8-edee-449e-8936-76c8ef3752c4","system_id":"levelo_inurba_marseille","lat":43.33034,"lon":5.38919,"is_reserved":false,"is_disabled":false,"rental_uris":{"android":"levelo://app?vid=e6c6e4e8-edee-449e-8936-76c8ef3752c4","ios":"levelo://app?vid=e6c6e4e8-edee-449e-8936-76c8ef3752c4"},"vehicle_type_id":"4","last_reported":1691262235,"current_range_meters":18800,"station_id":"ce4bhr92rcd13ifvqhrg","pricing_plan_id":"free"},{"bike_id":"2dba05d3-f7a4-4dcc-9133-7e306f42ddbb","system_id":"levelo_inurba_marseille","lat":43.3304,"lon":5.38912,"is_reserved":false,"is_disabled":false,"rental_uris":{"android":"levelo://app?vid=2dba05d3-f7a4-4dcc-9133-7e306f42ddbb","ios":"levelo://app?vid=2dba05d3-f7a4-4dcc-9133-7e306f42ddbb"},"vehicle_type_id":"4","last_reported":1691262235,"current_range_meters":29600,"station_id":"ce4bhr92rcd13ifvqhrg","pricing_plan_id":"free"},{"bike_id":"f67edc25-bcc7-41fb-8431-1add679b0933","system_id":"levelo_inurba_marseille","lat":43.33043,"lon":5.38909,"is_reserved":false,"is_disabled":false,"rental_uris":{"android":"levelo://app?vid=f67edc25-bcc7-41fb-8431-1add679b0933","ios":"levelo://app?vid=f67edc25-bcc7-41fb-8431-1add679b0933"},"vehicle_type_id":"4","last_reported":1691262235,"current_range_meters":14800,"station_id":"ce4bhr92rcd13ifvqhrg","pricing_plan_id":"free"},{"bike_id":"38c1adea-6867-4940-9699-a628b1958570","system_id":"levelo_inurba_marseille","lat":43.33044,"lon":5.38909,"is_reserved":false,"is_disabled":false,"rental_uris":{"android":"levelo://app?vid=38c1adea-6867-4940-9699-a628b1958570","ios":"levelo://app?vid=38c1adea-6867-4940-9699-a628b1958570"},"vehicle_type_id":"4","last_reported":1691262235,"current_range_meters":27200,"station_id":"ce4bhr92rcd13ifvqhrg","pricing_plan_id":"free"},{"bike_id":"976f718a-bfdb-4480-a757-e5b9a5d1a5d6","system_id":"levelo_inurba_marseille","lat":43.33043,"lon":5.38911,"is_reserved":false,"is_disabled":false,"rental_uris":{"android":"levelo://app?vid=976f718a-bfdb-4480-a757-e5b9a5d1a5d6","ios":"levelo://app?vid=976f718a-bfdb-4480-a757-e5b9a5d1a5d6"},"vehicle_type_id":"4","last_reported":1691262235,"current_range_meters":24000,"station_id":"ce4bhr92rcd13ifvqhrg","pricing_plan_id":"free"},{"bike_id":"20cf3f6d-acf4-4653-bf24-baa04253f77a","system_id":"levelo_inurba_marseille","lat":43.33041,"lon":5.38915,"is_reserved":false,"is_disabled":false,"rental_uris":{"android":"levelo://app?vid=20cf3f6d-acf4-4653-bf24-baa04253f77a","ios":"levelo://app?vid=20cf3f6d-acf4-4653-bf24-baa04253f77a"},"vehicle_type_id":"4","last_reported":1691262235,"current_range_meters":13200,"station_id":"ce4bhr92rcd13ifvqhrg","pricing_plan_id":"free"},{"bike_id":"98f910d2-52f4-4465-977e-10142d8cca43","system_id":"levelo_inurba_marseille","lat":43.3304,"lon":5.38918,"is_reserved":false,"is_disabled":false,"rental_uris":{"android":"levelo://app?vid=98f910d2-52f4-4465-977e-10142d8cca43","ios":"levelo://app?vid=98f910d2-52f4-4465-977e-10142d8cca43"},"vehicle_type_id":"4","last_reported":1691262235,"current_range_meters":15200,"station_id":"ce4bhr92rcd13ifvqhrg","pricing_plan_id":"free"},{"bike_id":"9ce62819-7d94-47c9-aff2-f56e39f0ba59","system_id":"levelo_inurba_marseille","lat":43.33042,"lon":5.38917,"is_reserved":false,"is_disabled":false,"rental_uris":{"android":"levelo://app?vid=9ce62819-7d94-47c9-aff2-f56e39f0ba59","ios":"levelo://app?vid=9ce62819-7d94-47c9-aff2-f56e39f0ba59"},"vehicle_type_id":"4","last_reported":1691262235,"current_range_meters":26800,"station_id":"ce4bhr92rcd13ifvqhrg","pricing_plan_id":"free"},{"bike_id":"c363268f-b8b8-458b-8625-a0bc82308953","system_id":"levelo_inurba_marseille","lat":43.3304,"lon":5.3892,"is_reserved":false,"is_disabled":false,"rental_uris":{"android":"levelo://app?vid=c363268f-b8b8-458b-8625-a0bc82308953","ios":"levelo://app?vid=c363268f-b8b8-458b-8625-a0bc82308953"},"vehicle_type_id":"4","last_reported":1691262235,"current_range_meters":18000,"station_id":"ce4bhr92rcd13ifvqhrg","pricing_plan_id":"free"},{"bike_id":"34fc0bae-b089-42d1-99d0-10d5b39f2b41","system_id":"levelo_inurba_marseille","lat":43.33041,"lon":5.38923,"is_reserved":false,"is_disabled":false,"rental_uris":{"android":"levelo://app?vid=34fc0bae-b089-42d1-99d0-10d5b39f2b41","ios":"levelo://app?vid=34fc0bae-b089-42d1-99d0-10d5b39f2b41"},"vehicle_type_id":"4","last_reported":1691262235,"current_range_meters":21200,"station_id":"ce4bhr92rcd13ifvqhrg","pricing_plan_id":"free"},{"bike_id":"37fde894-3336-4087-bf88-b0989bbc514a","system_id":"levelo_inurba_marseille","lat":43.33047,"lon":5.38917,"is_reserved":false,"is_disabled":false,"rental_uris":{"android":"levelo://app?vid=37fde894-3336-4087-bf88-b0989bbc514a","ios":"levelo://app?vid=37fde894-3336-4087-bf88-b0989bbc514a"},"vehicle_type_id":"4","last_reported":1691262235,"current_range_meters":30800,"station_id":"ce4bhr92rcd13ifvqhrg","pricing_plan_id":"free"},{"bike_id":"c469137c-8df8-4ccc-b9d2-e0902aad81df","system_id":"levelo_inurba_marseille","lat":43.290104,"lon":5.356111,"is_reserved":false,"is_disabled":false,"rental_uris":{"android":"levelo://app?vid=c469137c-8df8-4ccc-b9d2-e0902aad81df","ios":"levelo://app?vid=c469137c-8df8-4ccc-b9d2-e0902aad81df"},"vehicle_type_id":"4","last_reported":1691262235,"current_range_meters":19600,"station_id":"ce4bhb92rcd13ifvqen0","pricing_plan_id":"free"},{"bike_id":"5998795a-d8fb-4ced-816c-b7fb82469d3e","system_id":"levelo_inurba_marseille","lat":43.290104,"lon":5.356111,"is_reserved":false,"is_disabled":false,"rental_uris":{"android":"levelo://app?vid=5998795a-d8fb-4ced-816c-b7fb82469d3e","ios":"levelo://app?vid=5998795a-d8fb-4ced-816c-b7fb82469d3e"},"vehicle_type_id":"4","last_reported":1691262235,"current_range_meters":21200,"station_id":"ce4bhb92rcd13ifvqen0","pricing_plan_id":"free"},{"bike_id":"f0cc7e9a-3737-4aec-b58f-93035e07be9e","system_id":"levelo_inurba_marseille","lat":43.290995,"lon":5.381361,"is_reserved":false,"is_disabled":false,"rental_uris":{"android":"levelo://app?vid=f0cc7e9a-3737-4aec-b58f-93035e07be9e","ios":"levelo://app?vid=f0cc7e9a-3737-4aec-b58f-93035e07be9e"},"vehicle_type_id":"4","last_reported":1691262235,"current_range_meters":15600,"station_id":"ce4bh512rcd13ifvqe2g","pricing_plan_id":"free"},{"bike_id":"05bf2cc0-c80b-4d3b-9303-5cea93148e89","system_id":"levelo_inurba_marseille","lat":43.290995,"lon":5.381361,"is_reserved":false,"is_disabled":false,"rental_uris":{"android":"levelo://app?vid=05bf2cc0-c80b-4d3b-9303-5cea93148e89","ios":"levelo://app?vid=05bf2cc0-c80b-4d3b-9303-5cea93148e89"},"vehicle_type_id":"4","last_reported":1691262235,"current_range_meters":30000,"station_id":"ce4bh512rcd13ifvqe2g","pricing_plan_id":"free"},{"bike_id":"14228b96-524f-4e64-bc8f-0936852d38eb","system_id":"levelo_inurba_marseille","lat":43.295169,"lon":5.390426,"is_reserved":false,"is_disabled":false,"rental_uris":{"android":"levelo://app?vid=14228b96-524f-4e64-bc8f-0936852d38eb","ios":"levelo://app?vid=14228b96-524f-4e64-bc8f-0936852d38eb"},"vehicle_type_id":"4","last_reported":1691262235,"current_range_meters":30000,"station_id":"ce4bh3p2rcd13ifvqdp0","pricing_plan_id":"free"},{"bike_id":"33fa619f-fad1-4474-97ac-dd824d19bed8","system_id":"levelo_inurba_marseille","lat":43.29784,"lon":5.39338,"is_reserved":false,"is_disabled":false,"rental_uris":{"android":"levelo://app?vid=33fa619f-fad1-4474-97ac-dd824d19bed8","ios":"levelo://app?vid=33fa619f-fad1-4474-97ac-dd824d19bed8"},"vehicle_type_id":"4","last_reported":1691262235,"current_range_meters":29600,"station_id":"","pricing_plan_id":"free"},{"bike_id":"fb999472-3fc5-4c8c-83ed-813a7447dc94","system_id":"levelo_inurba_marseille","lat":43.297815,"lon":5.393548,"is_reserved":false,"is_disabled":false,"rental_uris":{"android":"levelo://app?vid=fb999472-3fc5-4c8c-83ed-813a7447dc94","ios":"levelo://app?vid=fb999472-3fc5-4c8c-83ed-813a7447dc94"},"vehicle_type_id":"4","last_reported":1691262235,"current_range_meters":28000,"station_id":"chh1huq6cuj3fo74tm60","pricing_plan_id":"free"},{"bike_id":"90198e68-51ee-449f-aae9-ee07dd376f7e","system_id":"levelo_inurba_marseille","lat":43.295169,"lon":5.390426,"is_reserved":false,"is_disabled":false,"rental_uris":{"android":"levelo://app?vid=90198e68-51ee-449f-aae9-ee07dd376f7e","ios":"levelo://app?vid=90198e68-51ee-449f-aae9-ee07dd376f7e"},"vehicle_type_id":"4","last_reported":1691262235,"current_range_meters":27200,"station_id":"ce4bh3p2rcd13ifvqdp0","pricing_plan_id":"free"},{"bike_id":"d5e97910-5d35-4f3b-8ab0-0c4782c1d009","system_id":"levelo_inurba_marseille","lat":43.295169,"lon":5.390426,"is_reserved":false,"is_disabled":false,"rental_uris":{"android":"levelo://app?vid=d5e97910-5d35-4f3b-8ab0-0c4782c1d009","ios":"levelo://app?vid=d5e97910-5d35-4f3b-8ab0-0c4782c1d009"},"vehicle_type_id":"4","last_reported":1691262235,"current_range_meters":30400,"station_id":"ce4bh3p2rcd13ifvqdp0","pricing_plan_id":"free"},{"bike_id":"49e0dfb0-0a14-4482-ba91-65973ed04b8b","system_id":"levelo_inurba_marseille","lat":43.29024,"lon":5.38133,"is_reserved":false,"is_disabled":false,"rental_uris":{"android":"levelo://app?vid=49e0dfb0-0a14-4482-ba91-65973ed04b8b","ios":"levelo://app?vid=49e0dfb0-0a14-4482-ba91-65973ed04b8b"},"vehicle_type_id":"4","last_reported":1691262235,"current_range_meters":2400,"station_id":"ce4bh4p2rcd13ifvqe1g","pricing_plan_id":"free"},{"bike_id":"73513267-d29e-4931-82aa-5f50ee3c7d76","system_id":"levelo_inurba_marseille","lat":43.2902,"lon":5.38137,"is_reserved":false,"is_disabled":false,"rental_uris":{"android":"levelo://app?vid=73513267-d29e-4931-82aa-5f50ee3c7d76","ios":"levelo://app?vid=73513267-d29e-4931-82aa-5f50ee3c7d76"},"vehicle_type_id":"4","last_reported":1691262235,"current_range_meters":7200,"station_id":"ce4bh4p2rcd13ifvqe1g","pricing_plan_id":"free"},{"bike_id":"c0b190af-52d9-4a3e-bc6d-0159388908a6","system_id":"levelo_inurba_marseille","lat":43.29012,"lon":5.38122,"is_reserved":false,"is_disabled":false,"rental_uris":{"android":"levelo://app?vid=c0b190af-52d9-4a3e-bc6d-0159388908a6","ios":"levelo://app?vid=c0b190af-52d9-4a3e-bc6d-0159388908a6"},"vehicle_type_id":"4","last_reported":1691262235,"current_range_meters":18400,"station_id":"ce4bh4p2rcd13ifvqe1g","pricing_plan_id":"free"},{"bike_id":"258725b8-a4c2-409e-8e4c-37c41eea3841","system_id":"levelo_inurba_marseille","lat":43.2901,"lon":5.381269,"is_reserved":false,"is_disabled":false,"rental_uris":{"android":"levelo://app?vid=258725b8-a4c2-409e-8e4c-37c41eea3841","ios":"levelo://app?vid=258725b8-a4c2-409e-8e4c-37c41eea3841"},"vehicle_type_id":"4","last_reported":1691262235,"current_range_meters":23200,"station_id":"ce4bh4p2rcd13ifvqe1g","pricing_plan_id":"free"},{"bike_id":"d623a422-5c36-4383-9275-7bdbe0941663","system_id":"levelo_inurba_marseille","lat":43.28856,"lon":5.358371,"is_reserved":false,"is_disabled":false,"rental_uris":{"android":"levelo://app?vid=d623a422-5c36-4383-9275-7bdbe0941663","ios":"levelo://app?vid=d623a422-5c36-4383-9275-7bdbe0941663"},"vehicle_type_id":"4","last_reported":1691262235,"current_range_meters":4000,"station_id":"ce4bhb12rcd13ifvqem0","pricing_plan_id":"free"},{"bike_id":"d6e8bcad-3310-4ebe-b81e-051d145a7b7f","system_id":"levelo_inurba_marseille","lat":43.30649,"lon":5.40073,"is_reserved":false,"is_disabled":false,"rental_uris":{"android":"levelo://app?vid=d6e8bcad-3310-4ebe-b81e-051d145a7b7f","ios":"levelo://app?vid=d6e8bcad-3310-4ebe-b81e-051d145a7b7f"},"vehicle_type_id":"4","last_reported":1691262235,"current_range_meters":12000,"station_id":"ce4bh112rcd13ifvqda0","pricing_plan_id":"free"},{"bike_id":"dbd04be6-7fce-45ad-b2b3-f4274f895128","system_id":"levelo_inurba_marseille","lat":43.30639,"lon":5.40071,"is_reserved":false,"is_disabled":false,"rental_uris":{"android":"levelo://app?vid=dbd04be6-7fce-45ad-b2b3-f4274f895128","ios":"levelo://app?vid=dbd04be6-7fce-45ad-b2b3-f4274f895128"},"vehicle_type_id":"4","last_reported":1691262235,"current_range_meters":15200,"station_id":"ce4bh112rcd13ifvqda0","pricing_plan_id":"free"},{"bike_id":"ce79db9c-4d9d-485a-8247-14c9f8271275","system_id":"levelo_inurba_marseille","lat":43.30642,"lon":5.401031,"is_reserved":false,"is_disabled":false,"rental_uris":{"android":"levelo://app?vid=ce79db9c-4d9d-485a-8247-14c9f8271275","ios":"levelo://app?vid=ce79db9c-4d9d-485a-8247-14c9f8271275"},"vehicle_type_id":"4","last_reported":1691262235,"current_range_meters":19600,"station_id":"ce4bh112rcd13ifvqda0","pricing_plan_id":"free"},{"bike_id":"cc415590-a4d2-4a04-9060-8c75fcf234a5","system_id":"levelo_inurba_marseille","lat":43.30127,"lon":5.39853,"is_reserved":false,"is_disabled":false,"rental_uris":{"android":"levelo://app?vid=cc415590-a4d2-4a04-9060-8c75fcf234a5","ios":"levelo://app?vid=cc415590-a4d2-4a04-9060-8c75fcf234a5"},"vehicle_type_id":"4","last_reported":1691262235,"current_range_meters":12800,"station_id":"","pricing_plan_id":"free"},{"bike_id":"5b931eb0-04ac-4378-bd86-0baa737d30e3","system_id":"levelo_inurba_marseille","lat":43.286961,"lon":5.373785,"is_reserved":false,"is_disabled":false,"rental_uris":{"android":"levelo://app?vid=5b931eb0-04ac-4378-bd86-0baa737d30e3","ios":"levelo://app?vid=5b931eb0-04ac-4378-bd86-0baa737d30e3"},"vehicle_type_id":"4","last_reported":1691262235,"current_range_meters":2800,"station_id":"ce4bh3p2rcd13ifvqdq0","pricing_plan_id":"free"},{"bike_id":"2e9d789a-1bbb-4bf9-892b-9bf93c983ae4","system_id":"levelo_inurba_marseille","lat":43.301117,"lon":5.398795,"is_reserved":false,"is_disabled":false,"rental_uris":{"android":"levelo://app?vid=2e9d789a-1bbb-4bf9-892b-9bf93c983ae4","ios":"levelo://app?vid=2e9d789a-1bbb-4bf9-892b-9bf93c983ae4"},"vehicle_type_id":"4","last_reported":1691262235,"current_range_meters":8000,"station_id":"ce4bh0h2rcd13ifvqd40","pricing_plan_id":"free"},{"bike_id":"75199276-b705-4ad7-b6a9-49aeaa84628a","system_id":"levelo_inurba_marseille","lat":43.286591,"lon":5.363346,"is_reserved":false,"is_disabled":false,"rental_uris":{"android":"levelo://app?vid=75199276-b705-4ad7-b6a9-49aeaa84628a","ios":"levelo://app?vid=75199276-b705-4ad7-b6a9-49aeaa84628a"},"vehicle_type_id":"4","last_reported":1691262235,"current_range_meters":31200,"station_id":"ce4bhah2rcd13ifvqej0","pricing_plan_id":"free"},{"bike_id":"2b730544-0c45-4ad8-9717-9d2c1a0abd57","system_id":"levelo_inurba_marseille","lat":43.286961,"lon":5.373785,"is_reserved":false,"is_disabled":false,"rental_uris":{"android":"levelo://app?vid=2b730544-0c45-4ad8-9717-9d2c1a0abd57","ios":"levelo://app?vid=2b730544-0c45-4ad8-9717-9d2c1a0abd57"},"vehicle_type_id":"4","last_reported":1691262235,"current_range_meters":1200,"station_id":"ce4bh3p2rcd13ifvqdq0","pricing_plan_id":"free"},{"bike_id":"6a42d196-d84e-407f-b526-2d6c52bbb631","system_id":"levelo_inurba_marseille","lat":43.286961,"lon":5.373785,"is_reserved":false,"is_disabled":false,"rental_uris":{"android":"levelo://app?vid=6a42d196-d84e-407f-b526-2d6c52bbb631","ios":"levelo://app?vid=6a42d196-d84e-407f-b526-2d6c52bbb631"},"vehicle_type_id":"4","last_reported":1691262235,"current_range_meters":20400,"station_id":"ce4bh3p2rcd13ifvqdq0","pricing_plan_id":"free"},{"bike_id":"41c294b2-f9e0-479d-a785-9d83084bd0e8","system_id":"levelo_inurba_marseille","lat":43.286591,"lon":5.363346,"is_reserved":false,"is_disabled":false,"rental_uris":{"android":"levelo://app?vid=41c294b2-f9e0-479d-a785-9d83084bd0e8","ios":"levelo://app?vid=41c294b2-f9e0-479d-a785-9d83084bd0e8"},"vehicle_type_id":"4","last_reported":1691262235,"current_range_meters":9200,"station_id":"ce4bhah2rcd13ifvqej0","pricing_plan_id":"free"},{"bike_id":"3afc3aa9-369a-488e-ab58-89cbf0b1ce1a","system_id":"levelo_inurba_marseille","lat":43.29033,"lon":5.38633,"is_reserved":false,"is_disabled":false,"rental_uris":{"android":"levelo://app?vid=3afc3aa9-369a-488e-ab58-89cbf0b1ce1a","ios":"levelo://app?vid=3afc3aa9-369a-488e-ab58-89cbf0b1ce1a"},"vehicle_type_id":"4","last_reported":1691262235,"current_range_meters":26800,"station_id":"ce4bh4p2rcd13ifvqe0g","pricing_plan_id":"free"},{"bike_id":"7b9e2d57-7c2f-4652-8ec0-ee4d147afe24","system_id":"levelo_inurba_marseille","lat":43.302548,"lon":5.400568,"is_reserved":false,"is_disabled":false,"rental_uris":{"android":"levelo://app?vid=7b9e2d57-7c2f-4652-8ec0-ee4d147afe24","ios":"levelo://app?vid=7b9e2d57-7c2f-4652-8ec0-ee4d147afe24"},"vehicle_type_id":"4","last_reported":1691262235,"current_range_meters":10000,"station_id":"","pricing_plan_id":"free"},{"bike_id":"0ad362ae-987b-42f9-a0cc-ef9be251340a","system_id":"levelo_inurba_marseille","lat":43.290345,"lon":5.38646,"is_reserved":false,"is_disabled":false,"rental_uris":{"android":"levelo://app?vid=0ad362ae-987b-42f9-a0cc-ef9be251340a","ios":"levelo://app?vid=0ad362ae-987b-42f9-a0cc-ef9be251340a"},"vehicle_type_id":"4","last_reported":1691262235,"current_range_meters":24000,"station_id":"ce4bh4p2rcd13ifvqe0g","pricing_plan_id":"free"},{"bike_id":"ac4856a5-663c-40ff-82c8-641ca269d65f","system_id":"levelo_inurba_marseille","lat":43.286039,"lon":5.370679,"is_reserved":false,"is_disabled":false,"rental_uris":{"android":"levelo://app?vid=ac4856a5-663c-40ff-82c8-641ca269d65f","ios":"levelo://app?vid=ac4856a5-663c-40ff-82c8-641ca269d65f"},"vehicle_type_id":"4","last_reported":1691262235,"current_range_meters":5200,"station_id":"ce4bht12rcd13ifvqi60","pricing_plan_id":"free"},{"bike_id":"c6ec8958-cc93-4a08-9e06-d0267102ee98","system_id":"levelo_inurba_marseille","lat":43.286039,"lon":5.370679,"is_reserved":false,"is_disabled":false,"rental_uris":{"android":"levelo://app?vid=c6ec8958-cc93-4a08-9e06-d0267102ee98","ios":"levelo://app?vid=c6ec8958-cc93-4a08-9e06-d0267102ee98"},"vehicle_type_id":"4","last_reported":1691262235,"current_range_meters":9600,"station_id":"ce4bht12rcd13ifvqi60","pricing_plan_id":"free"},{"bike_id":"6f55646d-c5a1-40ed-8c7b-27081eb80385","system_id":"levelo_inurba_marseille","lat":43.29372,"lon":5.3928,"is_reserved":false,"is_disabled":false,"rental_uris":{"android":"levelo://app?vid=6f55646d-c5a1-40ed-8c7b-27081eb80385","ios":"levelo://app?vid=6f55646d-c5a1-40ed-8c7b-27081eb80385"},"vehicle_type_id":"4","last_reported":1691262235,"current_range_meters":17200,"station_id":"","pricing_plan_id":"free"},{"bike_id":"ecbedee9-aa1a-44ba-be7d-1a44cbc183bb","system_id":"levelo_inurba_marseille","lat":43.286039,"lon":5.370679,"is_reserved":false,"is_disabled":false,"rental_uris":{"android":"levelo://app?vid=ecbedee9-aa1a-44ba-be7d-1a44cbc183bb","ios":"levelo://app?vid=ecbedee9-aa1a-44ba-be7d-1a44cbc183bb"},"vehicle_type_id":"4","last_reported":1691262235,"current_range_meters":28400,"station_id":"ce4bht12rcd13ifvqi60","pricing_plan_id":"free"},{"bike_id":"b6dee2db-02b6-4277-a3a8-5e6dee64cdf8","system_id":"levelo_inurba_marseille","lat":43.286039,"lon":5.370679,"is_reserved":false,"is_disabled":false,"rental_uris":{"android":"levelo://app?vid=b6dee2db-02b6-4277-a3a8-5e6dee64cdf8","ios":"levelo://app?vid=b6dee2db-02b6-4277-a3a8-5e6dee64cdf8"},"vehicle_type_id":"4","last_reported":1691262235,"current_range_meters":7600,"station_id":"ce4bht12rcd13ifvqi60","pricing_plan_id":"free"},{"bike_id":"21e11eb2-aab7-4ba5-a44c-2b9d62d52dfd","system_id":"levelo_inurba_marseille","lat":43.286039,"lon":5.370681,"is_reserved":false,"is_disabled":false,"rental_uris":{"android":"levelo://app?vid=21e11eb2-aab7-4ba5-a44c-2b9d62d52dfd","ios":"levelo://app?vid=21e11eb2-aab7-4ba5-a44c-2b9d62d52dfd"},"vehicle_type_id":"4","last_reported":1691262235,"current_range_meters":11200,"station_id":"ce4bht12rcd13ifvqi60","pricing_plan_id":"free"},{"bike_id":"8ffa7a4a-ee91-4471-bc22-0ea98cd90ff6","system_id":"levelo_inurba_marseille","lat":43.286039,"lon":5.370679,"is_reserved":false,"is_disabled":false,"rental_uris":{"android":"levelo://app?vid=8ffa7a4a-ee91-4471-bc22-0ea98cd90ff6","ios":"levelo://app?vid=8ffa7a4a-ee91-4471-bc22-0ea98cd90ff6"},"vehicle_type_id":"4","last_reported":1691262235,"current_range_meters":4000,"station_id":"ce4bht12rcd13ifvqi60","pricing_plan_id":"free"},{"bike_id":"42100a72-4e91-4453-a1f8-a05372468574","system_id":"levelo_inurba_marseille","lat":43.286039,"lon":5.370681,"is_reserved":false,"is_disabled":false,"rental_uris":{"android":"levelo://app?vid=42100a72-4e91-4453-a1f8-a05372468574","ios":"levelo://app?vid=42100a72-4e91-4453-a1f8-a05372468574"},"vehicle_type_id":"4","last_reported":1691262235,"current_range_meters":21200,"station_id":"ce4bht12rcd13ifvqi60","pricing_plan_id":"free"},{"bike_id":"aed04d9c-f2b3-4765-b9b1-c4f524afb114","system_id":"levelo_inurba_marseille","lat":43.286039,"lon":5.370681,"is_reserved":false,"is_disabled":false,"rental_uris":{"android":"levelo://app?vid=aed04d9c-f2b3-4765-b9b1-c4f524afb114","ios":"levelo://app?vid=aed04d9c-f2b3-4765-b9b1-c4f524afb114"},"vehicle_type_id":"4","last_reported":1691262235,"current_range_meters":8000,"station_id":"ce4bht12rcd13ifvqi60","pricing_plan_id":"free"},{"bike_id":"f859dbd4-a6d4-4495-a4c7-3b39a81a370b","system_id":"levelo_inurba_marseille","lat":43.28606,"lon":5.37061,"is_reserved":false,"is_disabled":false,"rental_uris":{"android":"levelo://app?vid=f859dbd4-a6d4-4495-a4c7-3b39a81a370b","ios":"levelo://app?vid=f859dbd4-a6d4-4495-a4c7-3b39a81a370b"},"vehicle_type_id":"4","last_reported":1691262235,"current_range_meters":0,"station_id":"ce4bht12rcd13ifvqi60","pricing_plan_id":"free"},{"bike_id":"59416073-ea3c-4ff0-8338-b007351a3a07","system_id":"levelo_inurba_marseille","lat":43.286039,"lon":5.370681,"is_reserved":false,"is_disabled":false,"rental_uris":{"android":"levelo://app?vid=59416073-ea3c-4ff0-8338-b007351a3a07","ios":"levelo://app?vid=59416073-ea3c-4ff0-8338-b007351a3a07"},"vehicle_type_id":"4","last_reported":1691262235,"current_range_meters":20000,"station_id":"ce4bht12rcd13ifvqi60","pricing_plan_id":"free"},{"bike_id":"b8f28d5d-f645-4847-9f00-bea75a22c446","system_id":"levelo_inurba_marseille","lat":43.287185,"lon":5.379373,"is_reserved":false,"is_disabled":false,"rental_uris":{"android":"levelo://app?vid=b8f28d5d-f645-4847-9f00-bea75a22c446","ios":"levelo://app?vid=b8f28d5d-f645-4847-9f00-bea75a22c446"},"vehicle_type_id":"4","last_reported":1691262235,"current_range_meters":20800,"station_id":"ce4bh9p2rcd13ifvqec0","pricing_plan_id":"free"},{"bike_id":"7fdc46fd-3139-490a-809f-cede1ec18d44","system_id":"levelo_inurba_marseille","lat":43.287184,"lon":5.37937,"is_reserved":false,"is_disabled":false,"rental_uris":{"android":"levelo://app?vid=7fdc46fd-3139-490a-809f-cede1ec18d44","ios":"levelo://app?vid=7fdc46fd-3139-490a-809f-cede1ec18d44"},"vehicle_type_id":"4","last_reported":1691262235,"current_range_meters":8800,"station_id":"ce4bh9p2rcd13ifvqec0","pricing_plan_id":"free"},{"bike_id":"6365e278-20c8-4d30-ae4f-9bec0957cff6","system_id":"levelo_inurba_marseille","lat":43.287184,"lon":5.37937,"is_reserved":false,"is_disabled":false,"rental_uris":{"android":"levelo://app?vid=6365e278-20c8-4d30-ae4f-9bec0957cff6","ios":"levelo://app?vid=6365e278-20c8-4d30-ae4f-9bec0957cff6"},"vehicle_type_id":"4","last_reported":1691262235,"current_range_meters":2000,"station_id":"ce4bh9p2rcd13ifvqec0","pricing_plan_id":"free"},{"bike_id":"c8ba8f85-1e05-43f0-8365-de848cde3f32","system_id":"levelo_inurba_marseille","lat":43.287185,"lon":5.379373,"is_reserved":false,"is_disabled":false,"rental_uris":{"android":"levelo://app?vid=c8ba8f85-1e05-43f0-8365-de848cde3f32","ios":"levelo://app?vid=c8ba8f85-1e05-43f0-8365-de848cde3f32"},"vehicle_type_id":"4","last_reported":1691262235,"current_range_meters":0,"station_id":"ce4bh9p2rcd13ifvqec0","pricing_plan_id":"free"},{"bike_id":"d0a0565a-8ba1-4570-acea-2f5266376318","system_id":"levelo_inurba_marseille","lat":43.287184,"lon":5.37937,"is_reserved":false,"is_disabled":false,"rental_uris":{"android":"levelo://app?vid=d0a0565a-8ba1-4570-acea-2f5266376318","ios":"levelo://app?vid=d0a0565a-8ba1-4570-acea-2f5266376318"},"vehicle_type_id":"4","last_reported":1691262235,"current_range_meters":4400,"station_id":"ce4bh9p2rcd13ifvqec0","pricing_plan_id":"free"},{"bike_id":"8345aec9-c355-4b8e-ac6d-ee9868ef7868","system_id":"levelo_inurba_marseille","lat":43.31646,"lon":5.40435,"is_reserved":false,"is_disabled":false,"rental_uris":{"android":"levelo://app?vid=8345aec9-c355-4b8e-ac6d-ee9868ef7868","ios":"levelo://app?vid=8345aec9-c355-4b8e-ac6d-ee9868ef7868"},"vehicle_type_id":"4","last_reported":1691262235,"current_range_meters":24800,"station_id":"ce4bh012rcd13ifvqd00","pricing_plan_id":"free"},{"bike_id":"60d4d096-46b5-4aa1-bd4d-738c46f02aea","system_id":"levelo_inurba_marseille","lat":43.284538,"lon":5.358657,"is_reserved":false,"is_disabled":false,"rental_uris":{"android":"levelo://app?vid=60d4d096-46b5-4aa1-bd4d-738c46f02aea","ios":"levelo://app?vid=60d4d096-46b5-4aa1-bd4d-738c46f02aea"},"vehicle_type_id":"4","last_reported":1691262235,"current_range_meters":26800,"station_id":"ce4bhah2rcd13ifvqei0","pricing_plan_id":"free"},{"bike_id":"7b78d55e-e99c-4fa7-968a-c672d6912f00","system_id":"levelo_inurba_marseille","lat":43.284534,"lon":5.358662,"is_reserved":false,"is_disabled":false,"rental_uris":{"android":"levelo://app?vid=7b78d55e-e99c-4fa7-968a-c672d6912f00","ios":"levelo://app?vid=7b78d55e-e99c-4fa7-968a-c672d6912f00"},"vehicle_type_id":"4","last_reported":1691262235,"current_range_meters":31200,"station_id":"ce4bhah2rcd13ifvqei0","pricing_plan_id":"free"},{"bike_id":"2747283b-6972-4604-83a2-1be8ac48e928","system_id":"levelo_inurba_marseille","lat":43.284538,"lon":5.358657,"is_reserved":false,"is_disabled":false,"rental_uris":{"android":"levelo://app?vid=2747283b-6972-4604-83a2-1be8ac48e928","ios":"levelo://app?vid=2747283b-6972-4604-83a2-1be8ac48e928"},"vehicle_type_id":"4","last_reported":1691262235,"current_range_meters":31200,"station_id":"ce4bhah2rcd13ifvqei0","pricing_plan_id":"free"},{"bike_id":"5c845889-ddaa-4b13-8fa9-2020117476ad","system_id":"levelo_inurba_marseille","lat":43.284538,"lon":5.358657,"is_reserved":false,"is_disabled":false,"rental_uris":{"android":"levelo://app?vid=5c845889-ddaa-4b13-8fa9-2020117476ad","ios":"levelo://app?vid=5c845889-ddaa-4b13-8fa9-2020117476ad"},"vehicle_type_id":"4","last_reported":1691262235,"current_range_meters":31200,"station_id":"ce4bhah2rcd13ifvqei0","pricing_plan_id":"free"},{"bike_id":"c803b5ed-f426-4335-b53a-088c7fcaab73","system_id":"levelo_inurba_marseille","lat":43.284538,"lon":5.358657,"is_reserved":false,"is_disabled":false,"rental_uris":{"android":"levelo://app?vid=c803b5ed-f426-4335-b53a-088c7fcaab73","ios":"levelo://app?vid=c803b5ed-f426-4335-b53a-088c7fcaab73"},"vehicle_type_id":"4","last_reported":1691262235,"current_range_meters":31200,"station_id":"ce4bhah2rcd13ifvqei0","pricing_plan_id":"free"},{"bike_id":"6eccddc7-cc72-4875-aae1-e9e0be49f9a2","system_id":"levelo_inurba_marseille","lat":43.284534,"lon":5.358662,"is_reserved":false,"is_disabled":false,"rental_uris":{"android":"levelo://app?vid=6eccddc7-cc72-4875-aae1-e9e0be49f9a2","ios":"levelo://app?vid=6eccddc7-cc72-4875-aae1-e9e0be49f9a2"},"vehicle_type_id":"4","last_reported":1691262235,"current_range_meters":30000,"station_id":"ce4bhah2rcd13ifvqei0","pricing_plan_id":"free"},{"bike_id":"f86711d8-ba98-4ce4-8c95-d29b6e4e9463","system_id":"levelo_inurba_marseille","lat":43.28618,"lon":5.35102,"is_reserved":false,"is_disabled":false,"rental_uris":{"android":"levelo://app?vid=f86711d8-ba98-4ce4-8c95-d29b6e4e9463","ios":"levelo://app?vid=f86711d8-ba98-4ce4-8c95-d29b6e4e9463"},"vehicle_type_id":"4","last_reported":1691262235,"current_range_meters":7600,"station_id":"ce4bhch2rcd13ifvqeug","pricing_plan_id":"free"},{"bike_id":"21a91f06-23fa-46ca-8bc5-a0b20dd580aa","system_id":"levelo_inurba_marseille","lat":43.28616,"lon":5.35106,"is_reserved":false,"is_disabled":false,"rental_uris":{"android":"levelo://app?vid=21a91f06-23fa-46ca-8bc5-a0b20dd580aa","ios":"levelo://app?vid=21a91f06-23fa-46ca-8bc5-a0b20dd580aa"},"vehicle_type_id":"4","last_reported":1691262235,"current_range_meters":30800,"station_id":"ce4bhch2rcd13ifvqeug","pricing_plan_id":"free"},{"bike_id":"39364c98-d3e6-4be3-86f2-0a55d17fb7d0","system_id":"levelo_inurba_marseille","lat":43.28614,"lon":5.35099,"is_reserved":false,"is_disabled":false,"rental_uris":{"android":"levelo://app?vid=39364c98-d3e6-4be3-86f2-0a55d17fb7d0","ios":"levelo://app?vid=39364c98-d3e6-4be3-86f2-0a55d17fb7d0"},"vehicle_type_id":"4","last_reported":1691262235,"current_range_meters":21600,"station_id":"ce4bhch2rcd13ifvqeug","pricing_plan_id":"free"},{"bike_id":"0dd6cd48-c9ad-4924-b4ff-44d4aa4e5529","system_id":"levelo_inurba_marseille","lat":43.28615,"lon":5.35094,"is_reserved":false,"is_disabled":false,"rental_uris":{"android":"levelo://app?vid=0dd6cd48-c9ad-4924-b4ff-44d4aa4e5529","ios":"levelo://app?vid=0dd6cd48-c9ad-4924-b4ff-44d4aa4e5529"},"vehicle_type_id":"4","last_reported":1691262235,"current_range_meters":22000,"station_id":"ce4bhch2rcd13ifvqeug","pricing_plan_id":"free"},{"bike_id":"2f2fd610-6c4f-45a3-8bff-703a68971184","system_id":"levelo_inurba_marseille","lat":43.28612,"lon":5.35103,"is_reserved":false,"is_disabled":false,"rental_uris":{"android":"levelo://app?vid=2f2fd610-6c4f-45a3-8bff-703a68971184","ios":"levelo://app?vid=2f2fd610-6c4f-45a3-8bff-703a68971184"},"vehicle_type_id":"4","last_reported":1691262235,"current_range_meters":23200,"station_id":"ce4bhch2rcd13ifvqeug","pricing_plan_id":"free"},{"bike_id":"bbd13f55-12c2-40b4-90d3-ce7dc7beb321","system_id":"levelo_inurba_marseille","lat":43.285856,"lon":5.350771,"is_reserved":false,"is_disabled":false,"rental_uris":{"android":"levelo://app?vid=bbd13f55-12c2-40b4-90d3-ce7dc7beb321","ios":"levelo://app?vid=bbd13f55-12c2-40b4-90d3-ce7dc7beb321"},"vehicle_type_id":"4","last_reported":1691262235,"current_range_meters":28800,"station_id":"ce4bhch2rcd13ifvqeug","pricing_plan_id":"free"},{"bike_id":"75ae4b47-97a2-4652-994d-398c5d7e8606","system_id":"levelo_inurba_marseille","lat":43.283998,"lon":5.375062,"is_reserved":false,"is_disabled":false,"rental_uris":{"android":"levelo://app?vid=75ae4b47-97a2-4652-994d-398c5d7e8606","ios":"levelo://app?vid=75ae4b47-97a2-4652-994d-398c5d7e8606"},"vehicle_type_id":"4","last_reported":1691262235,"current_range_meters":18800,"station_id":"ce4bh412rcd13ifvqds0","pricing_plan_id":"free"},{"bike_id":"a2989afd-34dc-47c7-8e05-80d48dccf8c6","system_id":"levelo_inurba_marseille","lat":43.28408,"lon":5.37493,"is_reserved":false,"is_disabled":false,"rental_uris":{"android":"levelo://app?vid=a2989afd-34dc-47c7-8e05-80d48dccf8c6","ios":"levelo://app?vid=a2989afd-34dc-47c7-8e05-80d48dccf8c6"},"vehicle_type_id":"4","last_reported":1691262235,"current_range_meters":16000,"station_id":"ce4bh412rcd13ifvqds0","pricing_plan_id":"free"},{"bike_id":"d334954a-0f54-498d-8591-f78f81ee7a5e","system_id":"levelo_inurba_marseille","lat":43.283998,"lon":5.375062,"is_reserved":false,"is_disabled":false,"rental_uris":{"android":"levelo://app?vid=d334954a-0f54-498d-8591-f78f81ee7a5e","ios":"levelo://app?vid=d334954a-0f54-498d-8591-f78f81ee7a5e"},"vehicle_type_id":"4","last_reported":1691262235,"current_range_meters":22800,"station_id":"ce4bh412rcd13ifvqds0","pricing_plan_id":"free"},{"bike_id":"a6f4820d-3db5-4db7-aeeb-d5b92fece3fa","system_id":"levelo_inurba_marseille","lat":43.28407,"lon":5.3751,"is_reserved":false,"is_disabled":false,"rental_uris":{"android":"levelo://app?vid=a6f4820d-3db5-4db7-aeeb-d5b92fece3fa","ios":"levelo://app?vid=a6f4820d-3db5-4db7-aeeb-d5b92fece3fa"},"vehicle_type_id":"4","last_reported":1691262235,"current_range_meters":22800,"station_id":"ce4bh412rcd13ifvqds0","pricing_plan_id":"free"},{"bike_id":"7257c1f2-431d-42c9-9cc0-702d1acdbf72","system_id":"levelo_inurba_marseille","lat":43.283998,"lon":5.375062,"is_reserved":false,"is_disabled":false,"rental_uris":{"android":"levelo://app?vid=7257c1f2-431d-42c9-9cc0-702d1acdbf72","ios":"levelo://app?vid=7257c1f2-431d-42c9-9cc0-702d1acdbf72"},"vehicle_type_id":"4","last_reported":1691262235,"current_range_meters":21200,"station_id":"ce4bh412rcd13ifvqds0","pricing_plan_id":"free"},{"bike_id":"a86c7cc7-2ac2-4962-ad12-29d80025f810","system_id":"levelo_inurba_marseille","lat":43.283998,"lon":5.375062,"is_reserved":false,"is_disabled":false,"rental_uris":{"android":"levelo://app?vid=a86c7cc7-2ac2-4962-ad12-29d80025f810","ios":"levelo://app?vid=a86c7cc7-2ac2-4962-ad12-29d80025f810"},"vehicle_type_id":"4","last_reported":1691262235,"current_range_meters":18400,"station_id":"ce4bh412rcd13ifvqds0","pricing_plan_id":"free"},{"bike_id":"6329e75b-cf24-4364-9412-98785e55fa7b","system_id":"levelo_inurba_marseille","lat":43.286595,"lon":5.386795,"is_reserved":false,"is_disabled":false,"rental_uris":{"android":"levelo://app?vid=6329e75b-cf24-4364-9412-98785e55fa7b","ios":"levelo://app?vid=6329e75b-cf24-4364-9412-98785e55fa7b"},"vehicle_type_id":"4","last_reported":1691262235,"current_range_meters":10400,"station_id":"ce4bh492rcd13ifvqdug","pricing_plan_id":"free"},{"bike_id":"b18923a1-deeb-42ec-969b-a47b0e158bbe","system_id":"levelo_inurba_marseille","lat":43.286595,"lon":5.386795,"is_reserved":false,"is_disabled":false,"rental_uris":{"android":"levelo://app?vid=b18923a1-deeb-42ec-969b-a47b0e158bbe","ios":"levelo://app?vid=b18923a1-deeb-42ec-969b-a47b0e158bbe"},"vehicle_type_id":"4","last_reported":1691262235,"current_range_meters":18800,"station_id":"ce4bh492rcd13ifvqdug","pricing_plan_id":"free"},{"bike_id":"969b56e4-a18b-43f4-aa89-ddc981e83e9d","system_id":"levelo_inurba_marseille","lat":43.286595,"lon":5.386795,"is_reserved":false,"is_disabled":false,"rental_uris":{"android":"levelo://app?vid=969b56e4-a18b-43f4-aa89-ddc981e83e9d","ios":"levelo://app?vid=969b56e4-a18b-43f4-aa89-ddc981e83e9d"},"vehicle_type_id":"4","last_reported":1691262235,"current_range_meters":0,"station_id":"ce4bh492rcd13ifvqdug","pricing_plan_id":"free"},{"bike_id":"8a68b422-727e-4822-aaae-cc830c57c7e3","system_id":"levelo_inurba_marseille","lat":43.319179,"lon":5.407725,"is_reserved":false,"is_disabled":false,"rental_uris":{"android":"levelo://app?vid=8a68b422-727e-4822-aaae-cc830c57c7e3","ios":"levelo://app?vid=8a68b422-727e-4822-aaae-cc830c57c7e3"},"vehicle_type_id":"4","last_reported":1691262235,"current_range_meters":11600,"station_id":"ce4bhq12rcd13ifvqhig","pricing_plan_id":"free"},{"bike_id":"1f5722b0-5667-43f6-9dad-3a3b818c5a69","system_id":"levelo_inurba_marseille","lat":43.337168,"lon":5.391825,"is_reserved":false,"is_disabled":false,"rental_uris":{"android":"levelo://app?vid=1f5722b0-5667-43f6-9dad-3a3b818c5a69","ios":"levelo://app?vid=1f5722b0-5667-43f6-9dad-3a3b818c5a69"},