{"last_updated":1732831700,"ttl":60,"version":"2.2","data":{"bikes":[{"bike_id":"32ab80bc-e625-46a0-8a89-d877000fa341","system_id":"levelo_inurba_marseille","lat":43.31328,"lon":5.39692,"is_reserved":false,"is_disabled":false,"rental_uris":{"android":"levelo://app?vid=32ab80bc-e625-46a0-8a89-d877000fa341","ios":"levelo://app?vid=32ab80bc-e625-46a0-8a89-d877000fa341"},"vehicle_type_id":"4","last_reported":1732831701,"current_range_meters":33600,"station_id":"ce4bgvp2rcd13ifvqcu0","pricing_plan_id":"cebpf4jnsgd1na2vs0mg"},{"bike_id":"b856c8b4-412d-4c25-bdd4-e6b29aed04cb","system_id":"levelo_inurba_marseille","lat":43.22928,"lon":5.35386,"is_reserved":false,"is_disabled":false,"rental_uris":{"android":"levelo://app?vid=b856c8b4-412d-4c25-bdd4-e6b29aed04cb","ios":"levelo://app?vid=b856c8b4-412d-4c25-bdd4-e6b29aed04cb"},"vehicle_type_id":"4","last_reported":1732831701,"current_range_meters":38800,"station_id":"cpo3532slgdg3j2ikp40","pricing_plan_id":"cebpf4jnsgd1na2vs0mg"},{"bike_id":"787ae4f5-fdfe-4df6-b036-ee75178e31fb","system_id":"levelo_inurba_marseille","lat":43.31498,"lon":5.37308,"is_reserved":false,"is_disabled":false,"rental_uris":{"android":"levelo://app?vid=787ae4f5-fdfe-4df6-b036-ee75178e31fb","ios":"levelo://app?vid=787ae4f5-fdfe-4df6-b036-ee75178e31fb"},"vehicle_type_id":"4","last_reported":1732831701,"current_range_meters":12800,"station_id":"ce4bgt12rcd13ifvqcd0","pricing_plan_id":"cebpf4jnsgd1na2vs0mg"},{"bike_id":"7227eb96-d386-412d-821f-5a72792a8416","system_id":"levelo_inurba_marseille","lat":43.28395,"lon":5.3751,"is_reserved":false,"is_disabled":false,"rental_uris":{"android":"levelo://app?vid=7227eb96-d386-412d-821f-5a72792a8416","ios":"levelo://app?vid=7227eb96-d386-412d-821f-5a72792a8416"},"vehicle_type_id":"4","last_reported":1732831701,"current_range_meters":36800,"station_id":"ce4bh412rcd13ifvqds0","pricing_plan_id":"cebpf4jnsgd1na2vs0mg"},{"bike_id":"46ca1eaf-32c6-430d-bca7-a5c9be311e9e","system_id":"levelo_inurba_marseille","lat":43.2952,"lon":5.39403,"is_reserved":false,"is_disabled":false,"rental_uris":{"android":"levelo://app?vid=46ca1eaf-32c6-430d-bca7-a5c9be311e9e","ios":"levelo://app?vid=46ca1eaf-32c6-430d-bca7-a5c9be311e9e"},"vehicle_type_id":"4","last_reported":1732831701,"current_range_meters":36800,"station_id":"ce4bh292rcd13ifvqdf0","pricing_plan_id":"cebpf4jnsgd1na2vs0mg"},{"bike_id":"fac63031-3de9-41dc-941a-a395646bc4e4","system_id":"levelo_inurba_marseille","lat":43.25576,"lon":5.38243,"is_reserved":false,"is_disabled":false,"rental_uris":{"android":"levelo://app?vid=fac63031-3de9-41dc-941a-a395646bc4e4","ios":"levelo://app?vid=fac63031-3de9-41dc-941a-a395646bc4e4"},"vehicle_type_id":"4","last_reported":1732831701,"current_range_meters":9200,"station_id":"ce4bhih2rcd13ifvqfs0","pricing_plan_id":"cebpf4jnsgd1na2vs0mg"},{"bike_id":"78228560-6fbf-4122-9d03-128a049c2bf9","system_id":"levelo_inurba_marseille","lat":43.23181,"lon":5.39989,"is_reserved":false,"is_disabled":false,"rental_uris":{"android":"levelo://app?vid=78228560-6fbf-4122-9d03-128a049c2bf9","ios":"levelo://app?vid=78228560-6fbf-4122-9d03-128a049c2bf9"},"vehicle_type_id":"4","last_reported":1732831701,"current_range_meters":38000,"station_id":"ce4bhn12rcd13ifvqgqg","pricing_plan_id":"cebpf4jnsgd1na2vs0mg"},{"bike_id":"28f77806-46f6-4369-a256-ae616cde0ccb","system_id":"levelo_inurba_marseille","lat":43.30461,"lon":5.37918,"is_reserved":false,"is_disabled":false,"rental_uris":{"android":"levelo://app?vid=28f77806-46f6-4369-a256-ae616cde0ccb","ios":"levelo://app?vid=28f77806-46f6-4369-a256-ae616cde0ccb"},"vehicle_type_id":"4","last_reported":1732831701,"current_range_meters":27200,"station_id":"ce4bgup2rcd13ifvqcn0","pricing_plan_id":"cebpf4jnsgd1na2vs0mg"},{"bike_id":"c35eaf00-fbf3-46d8-a54e-9d55b849e1e5","system_id":"levelo_inurba_marseille","lat":43.31445,"lon":5.37366,"is_reserved":false,"is_disabled":false,"rental_uris":{"android":"levelo://app?vid=c35eaf00-fbf3-46d8-a54e-9d55b849e1e5","ios":"levelo://app?vid=c35eaf00-fbf3-46d8-a54e-9d55b849e1e5"},"vehicle_type_id":"4","last_reported":1732831701,"current_range_meters":38000,"station_id":"","pricing_plan_id":"cebpf4jnsgd1na2vs0mg"},{"bike_id":"4b7d29bf-038d-4bed-b735-693a7ae5e93a","system_id":"levelo_inurba_marseille","lat":43.28458,"lon":5.35892,"is_reserved":false,"is_disabled":false,"rental_uris":{"android":"levelo://app?vid=4b7d29bf-038d-4bed-b735-693a7ae5e93a","ios":"levelo://app?vid=4b7d29bf-038d-4bed-b735-693a7ae5e93a"},"vehicle_type_id":"4","last_reported":1732831701,"current_range_meters":38400,"station_id":"ce4bhah2rcd13ifvqei0","pricing_plan_id":"cebpf4jnsgd1na2vs0mg"},{"bike_id":"5251a556-2e67-4701-8a47-0d845c92da66","system_id":"levelo_inurba_marseille","lat":43.26942,"lon":5.40258,"is_reserved":false,"is_disabled":false,"rental_uris":{"android":"levelo://app?vid=5251a556-2e67-4701-8a47-0d845c92da66","ios":"levelo://app?vid=5251a556-2e67-4701-8a47-0d845c92da66"},"vehicle_type_id":"4","last_reported":1732831701,"current_range_meters":37600,"station_id":"cjm6bp8fraef2m0cb0m0","pricing_plan_id":"cebpf4jnsgd1na2vs0mg"},{"bike_id":"c9fb6819-c048-4bb7-bb71-207e20cce37a","system_id":"levelo_inurba_marseille","lat":43.31327,"lon":5.39692,"is_reserved":false,"is_disabled":false,"rental_uris":{"android":"levelo://app?vid=c9fb6819-c048-4bb7-bb71-207e20cce37a","ios":"levelo://app?vid=c9fb6819-c048-4bb7-bb71-207e20cce37a"},"vehicle_type_id":"4","last_reported":1732831701,"current_range_meters":38000,"station_id":"ce4bgvp2rcd13ifvqcu0","pricing_plan_id":"cebpf4jnsgd1na2vs0mg"},{"bike_id":"247caaec-966c-4c99-9156-317327c27d5f","system_id":"levelo_inurba_marseille","lat":43.31534,"lon":5.38029,"is_reserved":false,"is_disabled":false,"rental_uris":{"android":"levelo://app?vid=247caaec-966c-4c99-9156-317327c27d5f","ios":"levelo://app?vid=247caaec-966c-4c99-9156-317327c27d5f"},"vehicle_type_id":"4","last_reported":1732831701,"current_range_meters":37600,"station_id":"ce4bhsp2rcd13ifvqi50","pricing_plan_id":"cebpf4jnsgd1na2vs0mg"},{"bike_id":"1f0f332c-d1fc-4038-96c6-4136db362caa","system_id":"levelo_inurba_marseille","lat":43.29175,"lon":5.37156,"is_reserved":false,"is_disabled":false,"rental_uris":{"android":"levelo://app?vid=1f0f332c-d1fc-4038-96c6-4136db362caa","ios":"levelo://app?vid=1f0f332c-d1fc-4038-96c6-4136db362caa"},"vehicle_type_id":"4","last_reported":1732831701,"current_range_meters":28400,"station_id":"ce4bha92rcd13ifvqeh0","pricing_plan_id":"cebpf4jnsgd1na2vs0mg"},{"bike_id":"7b5ae10d-9ccd-47c1-98be-f07866f88e17","system_id":"levelo_inurba_marseille","lat":43.30889,"lon":5.396627,"is_reserved":false,"is_disabled":false,"rental_uris":{"android":"levelo://app?vid=7b5ae10d-9ccd-47c1-98be-f07866f88e17","ios":"levelo://app?vid=7b5ae10d-9ccd-47c1-98be-f07866f88e17"},"vehicle_type_id":"4","last_reported":1732831701,"current_range_meters":5600,"station_id":"ce4bh012rcd13ifvqcv0","pricing_plan_id":"cebpf4jnsgd1na2vs0mg"},{"bike_id":"ce15a521-8a1d-47b7-92c8-091ca367d00e","system_id":"levelo_inurba_marseille","lat":43.33749,"lon":5.37439,"is_reserved":false,"is_disabled":false,"rental_uris":{"android":"levelo://app?vid=ce15a521-8a1d-47b7-92c8-091ca367d00e","ios":"levelo://app?vid=ce15a521-8a1d-47b7-92c8-091ca367d00e"},"vehicle_type_id":"4","last_reported":1732831701,"current_range_meters":36000,"station_id":"","pricing_plan_id":"cebpf4jnsgd1na2vs0mg"},{"bike_id":"a8cfb7c5-59c0-4772-a793-b840317f8234","system_id":"levelo_inurba_marseille","lat":43.292502,"lon":5.409034,"is_reserved":false,"is_disabled":true,"rental_uris":{"android":"levelo://app?vid=a8cfb7c5-59c0-4772-a793-b840317f8234","ios":"levelo://app?vid=a8cfb7c5-59c0-4772-a793-b840317f8234"},"vehicle_type_id":"4","last_reported":1732831701,"current_range_meters":39200,"station_id":"ce4bh192rcd13ifvqdc0","pricing_plan_id":"cebpf4jnsgd1na2vs0mg"},{"bike_id":"ba2d1a62-e632-4169-9a28-b83f6acba689","system_id":"levelo_inurba_marseille","lat":43.26332,"lon":5.4047,"is_reserved":false,"is_disabled":true,"rental_uris":{"android":"levelo://app?vid=ba2d1a62-e632-4169-9a28-b83f6acba689","ios":"levelo://app?vid=ba2d1a62-e632-4169-9a28-b83f6acba689"},"vehicle_type_id":"4","last_reported":1732831701,"current_range_meters":0,"station_id":"","pricing_plan_id":"cebpf4jnsgd1na2vs0mg"},{"bike_id":"106e461f-3874-428c-8522-21fc2ca5b5c8","system_id":"levelo_inurba_marseille","lat":43.28034,"lon":5.36932,"is_reserved":false,"is_disabled":false,"rental_uris":{"android":"levelo://app?vid=106e461f-3874-428c-8522-21fc2ca5b5c8","ios":"levelo://app?vid=106e461f-3874-428c-8522-21fc2ca5b5c8"},"vehicle_type_id":"4","last_reported":1732831701,"current_range_meters":38400,"station_id":"ce4bha12rcd13ifvqef0","pricing_plan_id":"cebpf4jnsgd1na2vs0mg"},{"bike_id":"5bc3f434-939d-4b3b-8c02-f1997fc4c3d7","system_id":"levelo_inurba_marseille","lat":43.31363,"lon":5.385,"is_reserved":false,"is_disabled":false,"rental_uris":{"android":"levelo://app?vid=5bc3f434-939d-4b3b-8c02-f1997fc4c3d7","ios":"levelo://app?vid=5bc3f434-939d-4b3b-8c02-f1997fc4c3d7"},"vehicle_type_id":"4","last_reported":1732831701,"current_range_meters":20800,"station_id":"ce4bgt92rcd13ifvqcf0","pricing_plan_id":"cebpf4jnsgd1na2vs0mg"},{"bike_id":"ff9a1ec5-be80-43ec-9b6e-d2bb637a4f30","system_id":"levelo_inurba_marseille","lat":43.287101,"lon":5.399878,"is_reserved":false,"is_disabled":true,"rental_uris":{"android":"levelo://app?vid=ff9a1ec5-be80-43ec-9b6e-d2bb637a4f30","ios":"levelo://app?vid=ff9a1ec5-be80-43ec-9b6e-d2bb637a4f30"},"vehicle_type_id":"4","last_reported":1732831701,"current_range_meters":33600,"station_id":"ce4bho92rcd13ifvqh3g","pricing_plan_id":"cebpf4jnsgd1na2vs0mg"},{"bike_id":"6f7949e1-de87-4a49-8620-fec27e04447f","system_id":"levelo_inurba_marseille","lat":43.3373,"lon":5.39188,"is_reserved":false,"is_disabled":false,"rental_uris":{"android":"levelo://app?vid=6f7949e1-de87-4a49-8620-fec27e04447f","ios":"levelo://app?vid=6f7949e1-de87-4a49-8620-fec27e04447f"},"vehicle_type_id":"4","last_reported":1732831701,"current_range_meters":33600,"station_id":"ce4bhr92rcd13ifvqhsg","pricing_plan_id":"cebpf4jnsgd1na2vs0mg"},{"bike_id":"caba6c4d-181d-4f07-9d14-4d76ad5bf1e6","system_id":"levelo_inurba_marseille","lat":43.31169,"lon":5.38722,"is_reserved":false,"is_disabled":false,"rental_uris":{"android":"levelo://app?vid=caba6c4d-181d-4f07-9d14-4d76ad5bf1e6","ios":"levelo://app?vid=caba6c4d-181d-4f07-9d14-4d76ad5bf1e6"},"vehicle_type_id":"4","last_reported":1732831701,"current_range_meters":32000,"station_id":"ce4bgv12rcd13ifvqcp0","pricing_plan_id":"cebpf4jnsgd1na2vs0mg"},{"bike_id":"d6af473c-317d-44a4-ba58-092abf84584f","system_id":"levelo_inurba_marseille","lat":43.22934,"lon":5.35382,"is_reserved":false,"is_disabled":false,"rental_uris":{"android":"levelo://app?vid=d6af473c-317d-44a4-ba58-092abf84584f","ios":"levelo://app?vid=d6af473c-317d-44a4-ba58-092abf84584f"},"vehicle_type_id":"4","last_reported":1732831701,"current_range_meters":38800,"station_id":"cpo3532slgdg3j2ikp40","pricing_plan_id":"cebpf4jnsgd1na2vs0mg"},{"bike_id":"8d247cac-4891-4369-b38c-1c424168bb0c","system_id":"levelo_inurba_marseille","lat":43.29227,"lon":5.36058,"is_reserved":false,"is_disabled":false,"rental_uris":{"android":"levelo://app?vid=8d247cac-4891-4369-b38c-1c424168bb0c","ios":"levelo://app?vid=8d247cac-4891-4369-b38c-1c424168bb0c"},"vehicle_type_id":"4","last_reported":1732831701,"current_range_meters":25200,"station_id":"ce4bhbh2rcd13ifvqeqg","pricing_plan_id":"cebpf4jnsgd1na2vs0mg"},{"bike_id":"619627b3-60d7-4ca5-bcf9-5f3b57a923f7","system_id":"levelo_inurba_marseille","lat":43.29881,"lon":5.38916,"is_reserved":false,"is_disabled":false,"rental_uris":{"android":"levelo://app?vid=619627b3-60d7-4ca5-bcf9-5f3b57a923f7","ios":"levelo://app?vid=619627b3-60d7-4ca5-bcf9-5f3b57a923f7"},"vehicle_type_id":"4","last_reported":1732831701,"current_range_meters":25200,"station_id":"ce4bh392rcd13ifvqdl0","pricing_plan_id":"cebpf4jnsgd1na2vs0mg"},{"bike_id":"d873b31d-bfeb-45ba-95cb-ddd4b051333e","system_id":"levelo_inurba_marseille","lat":43.30143,"lon":5.38096,"is_reserved":false,"is_disabled":true,"rental_uris":{"android":"levelo://app?vid=d873b31d-bfeb-45ba-95cb-ddd4b051333e","ios":"levelo://app?vid=d873b31d-bfeb-45ba-95cb-ddd4b051333e"},"vehicle_type_id":"4","last_reported":1732831701,"current_range_meters":38400,"station_id":"ce4bgjp2rcd13ifvqbh0","pricing_plan_id":"cebpf4jnsgd1na2vs0mg"},{"bike_id":"5649c94f-d611-4822-a905-a32b4dd1af05","system_id":"levelo_inurba_marseille","lat":43.31363,"lon":5.38493,"is_reserved":false,"is_disabled":false,"rental_uris":{"android":"levelo://app?vid=5649c94f-d611-4822-a905-a32b4dd1af05","ios":"levelo://app?vid=5649c94f-d611-4822-a905-a32b4dd1af05"},"vehicle_type_id":"4","last_reported":1732831701,"current_range_meters":6400,"station_id":"ce4bgt92rcd13ifvqcf0","pricing_plan_id":"cebpf4jnsgd1na2vs0mg"},{"bike_id":"50373bd1-bbac-4147-96bc-4143581bb13c","system_id":"levelo_inurba_marseille","lat":43.2994,"lon":5.3656,"is_reserved":false,"is_disabled":false,"rental_uris":{"android":"levelo://app?vid=50373bd1-bbac-4147-96bc-4143581bb13c","ios":"levelo://app?vid=50373bd1-bbac-4147-96bc-4143581bb13c"},"vehicle_type_id":"4","last_reported":1732831701,"current_range_meters":32800,"station_id":"ce4bgm92rcd13ifvqbr0","pricing_plan_id":"cebpf4jnsgd1na2vs0mg"},{"bike_id":"95bce0c8-7aac-4804-81c7-e4d0b22cb60c","system_id":"levelo_inurba_marseille","lat":43.23973,"lon":5.36608,"is_reserved":false,"is_disabled":false,"rental_uris":{"android":"levelo://app?vid=95bce0c8-7aac-4804-81c7-e4d0b22cb60c","ios":"levelo://app?vid=95bce0c8-7aac-4804-81c7-e4d0b22cb60c"},"vehicle_type_id":"4","last_reported":1732831701,"current_range_meters":37600,"station_id":"ce4bhi12rcd13ifvqfp0","pricing_plan_id":"cebpf4jnsgd1na2vs0mg"},{"bike_id":"559cc846-a8b8-436e-b692-0ac432ad09e1","system_id":"levelo_inurba_marseille","lat":43.29876,"lon":5.39732,"is_reserved":false,"is_disabled":false,"rental_uris":{"android":"levelo://app?vid=559cc846-a8b8-436e-b692-0ac432ad09e1","ios":"levelo://app?vid=559cc846-a8b8-436e-b692-0ac432ad09e1"},"vehicle_type_id":"4","last_reported":1732831701,"current_range_meters":20000,"station_id":"ce4bh0h2rcd13ifvqd50","pricing_plan_id":"cebpf4jnsgd1na2vs0mg"},{"bike_id":"8622cad2-1237-46d2-a962-ae34f847b1fd","system_id":"levelo_inurba_marseille","lat":43.25113,"lon":5.40331,"is_reserved":false,"is_disabled":false,"rental_uris":{"android":"levelo://app?vid=8622cad2-1237-46d2-a962-ae34f847b1fd","ios":"levelo://app?vid=8622cad2-1237-46d2-a962-ae34f847b1fd"},"vehicle_type_id":"4","last_reported":1732831701,"current_range_meters":24400,"station_id":"ce4bhlh2rcd13ifvqgig","pricing_plan_id":"cebpf4jnsgd1na2vs0mg"},{"bike_id":"c6b92bc4-9b0c-4205-be63-808e157ca80c","system_id":"levelo_inurba_marseille","lat":43.25727,"lon":5.41108,"is_reserved":false,"is_disabled":false,"rental_uris":{"android":"levelo://app?vid=c6b92bc4-9b0c-4205-be63-808e157ca80c","ios":"levelo://app?vid=c6b92bc4-9b0c-4205-be63-808e157ca80c"},"vehicle_type_id":"4","last_reported":1732831701,"current_range_meters":30800,"station_id":"ce4bhkp2rcd13ifvqgd0","pricing_plan_id":"cebpf4jnsgd1na2vs0mg"},{"bike_id":"78ee2711-b762-4325-a2f3-7c4ba340bbff","system_id":"levelo_inurba_marseille","lat":43.3149,"lon":5.37299,"is_reserved":false,"is_disabled":false,"rental_uris":{"android":"levelo://app?vid=78ee2711-b762-4325-a2f3-7c4ba340bbff","ios":"levelo://app?vid=78ee2711-b762-4325-a2f3-7c4ba340bbff"},"vehicle_type_id":"4","last_reported":1732831701,"current_range_meters":19600,"station_id":"ce4bgt12rcd13ifvqcd0","pricing_plan_id":"cebpf4jnsgd1na2vs0mg"},{"bike_id":"4709c438-f4af-415a-a919-d27302b75dca","system_id":"levelo_inurba_marseille","lat":43.231936,"lon":5.355614,"is_reserved":false,"is_disabled":false,"rental_uris":{"android":"levelo://app?vid=4709c438-f4af-415a-a919-d27302b75dca","ios":"levelo://app?vid=4709c438-f4af-415a-a919-d27302b75dca"},"vehicle_type_id":"4","last_reported":1732831701,"current_range_meters":38800,"station_id":"ce4bhu92rcd13ifvqi70","pricing_plan_id":"cebpf4jnsgd1na2vs0mg"},{"bike_id":"24fbed4a-ccdf-495e-9862-dade3be413cd","system_id":"levelo_inurba_marseille","lat":43.29618,"lon":5.37745,"is_reserved":false,"is_disabled":true,"rental_uris":{"android":"levelo://app?vid=24fbed4a-ccdf-495e-9862-dade3be413cd","ios":"levelo://app?vid=24fbed4a-ccdf-495e-9862-dade3be413cd"},"vehicle_type_id":"4","last_reported":1732831701,"current_range_meters":38400,"station_id":"ce4bgi92rcd13ifvqb90","pricing_plan_id":"cebpf4jnsgd1na2vs0mg"},{"bike_id":"a6dc4e35-fd04-42cd-b5e5-6111ed261c10","system_id":"levelo_inurba_marseille","lat":43.27373,"lon":5.36255,"is_reserved":false,"is_disabled":false,"rental_uris":{"android":"levelo://app?vid=a6dc4e35-fd04-42cd-b5e5-6111ed261c10","ios":"levelo://app?vid=a6dc4e35-fd04-42cd-b5e5-6111ed261c10"},"vehicle_type_id":"4","last_reported":1732831701,"current_range_meters":3600,"station_id":"ce4bhbh2rcd13ifvqeo0","pricing_plan_id":"cebpf4jnsgd1na2vs0mg"},{"bike_id":"00c99d65-5e27-4caa-bc3a-f4b0d1df6b9c","system_id":"levelo_inurba_marseille","lat":43.32911,"lon":5.41379,"is_reserved":false,"is_disabled":false,"rental_uris":{"android":"levelo://app?vid=00c99d65-5e27-4caa-bc3a-f4b0d1df6b9c","ios":"levelo://app?vid=00c99d65-5e27-4caa-bc3a-f4b0d1df6b9c"},"vehicle_type_id":"4","last_reported":1732831701,"current_range_meters":36400,"station_id":"ce4bhqh2rcd13ifvqhmg","pricing_plan_id":"cebpf4jnsgd1na2vs0mg"},{"bike_id":"5dc1af78-0e87-43de-b9f1-be3d3b90dab9","system_id":"levelo_inurba_marseille","lat":43.30426,"lon":5.38889,"is_reserved":false,"is_disabled":false,"rental_uris":{"android":"levelo://app?vid=5dc1af78-0e87-43de-b9f1-be3d3b90dab9","ios":"levelo://app?vid=5dc1af78-0e87-43de-b9f1-be3d3b90dab9"},"vehicle_type_id":"4","last_reported":1732831701,"current_range_meters":22000,"station_id":"ce4bgk12rcd13ifvqbi0","pricing_plan_id":"cebpf4jnsgd1na2vs0mg"},{"bike_id":"2d2250eb-d964-4d2f-bcd9-79afef4c3537","system_id":"levelo_inurba_marseille","lat":43.29264,"lon":5.40893,"is_reserved":false,"is_disabled":false,"rental_uris":{"android":"levelo://app?vid=2d2250eb-d964-4d2f-bcd9-79afef4c3537","ios":"levelo://app?vid=2d2250eb-d964-4d2f-bcd9-79afef4c3537"},"vehicle_type_id":"4","last_reported":1732831701,"current_range_meters":27200,"station_id":"ce4bh192rcd13ifvqdc0","pricing_plan_id":"cebpf4jnsgd1na2vs0mg"},{"bike_id":"2c2dbeed-d8b9-4443-8bc1-facb2c0b2be9","system_id":"levelo_inurba_marseille","lat":43.30448,"lon":5.36872,"is_reserved":false,"is_disabled":false,"rental_uris":{"android":"levelo://app?vid=2c2dbeed-d8b9-4443-8bc1-facb2c0b2be9","ios":"levelo://app?vid=2c2dbeed-d8b9-4443-8bc1-facb2c0b2be9"},"vehicle_type_id":"4","last_reported":1732831701,"current_range_meters":10800,"station_id":"","pricing_plan_id":"cebpf4jnsgd1na2vs0mg"},{"bike_id":"b5c09906-2419-449b-a255-06d2ae6bc1aa","system_id":"levelo_inurba_marseille","lat":43.24652,"lon":5.38896,"is_reserved":false,"is_disabled":false,"rental_uris":{"android":"levelo://app?vid=b5c09906-2419-449b-a255-06d2ae6bc1aa","ios":"levelo://app?vid=b5c09906-2419-449b-a255-06d2ae6bc1aa"},"vehicle_type_id":"4","last_reported":1732831701,"current_range_meters":6400,"station_id":"ce4bhg12rcd13ifvqf60","pricing_plan_id":"cebpf4jnsgd1na2vs0mg"},{"bike_id":"b053b308-df93-40ed-81b7-cc6347a6608e","system_id":"levelo_inurba_marseille","lat":43.28669,"lon":5.363546,"is_reserved":false,"is_disabled":true,"rental_uris":{"android":"levelo://app?vid=b053b308-df93-40ed-81b7-cc6347a6608e","ios":"levelo://app?vid=b053b308-df93-40ed-81b7-cc6347a6608e"},"vehicle_type_id":"4","last_reported":1732831701,"current_range_meters":38800,"station_id":"ce4bhah2rcd13ifvqej0","pricing_plan_id":"cebpf4jnsgd1na2vs0mg"},{"bike_id":"dbd8f055-15d1-4b81-82db-41291145e7b7","system_id":"levelo_inurba_marseille","lat":43.30891,"lon":5.39638,"is_reserved":false,"is_disabled":false,"rental_uris":{"android":"levelo://app?vid=dbd8f055-15d1-4b81-82db-41291145e7b7","ios":"levelo://app?vid=dbd8f055-15d1-4b81-82db-41291145e7b7"},"vehicle_type_id":"4","last_reported":1732831701,"current_range_meters":39200,"station_id":"ce4bh012rcd13ifvqcv0","pricing_plan_id":"cebpf4jnsgd1na2vs0mg"},{"bike_id":"d43bcf0d-16aa-4132-bee9-932c9bcef8f2","system_id":"levelo_inurba_marseille","lat":43.32363,"lon":5.38892,"is_reserved":false,"is_disabled":false,"rental_uris":{"android":"levelo://app?vid=d43bcf0d-16aa-4132-bee9-932c9bcef8f2","ios":"levelo://app?vid=d43bcf0d-16aa-4132-bee9-932c9bcef8f2"},"vehicle_type_id":"4","last_reported":1732831701,"current_range_meters":38800,"station_id":"ce4bhqp2rcd13ifvqhog","pricing_plan_id":"cebpf4jnsgd1na2vs0mg"},{"bike_id":"0596dfca-78fe-44d7-8d06-d1b655110d64","system_id":"levelo_inurba_marseille","lat":43.30954,"lon":5.3905,"is_reserved":false,"is_disabled":false,"rental_uris":{"android":"levelo://app?vid=0596dfca-78fe-44d7-8d06-d1b655110d64","ios":"levelo://app?vid=0596dfca-78fe-44d7-8d06-d1b655110d64"},"vehicle_type_id":"4","last_reported":1732831701,"current_range_meters":16800,"station_id":"ce4bgup2rcd13ifvqco0","pricing_plan_id":"cebpf4jnsgd1na2vs0mg"},{"bike_id":"26b5c406-3aca-4413-aab2-0a69ed2123c4","system_id":"levelo_inurba_marseille","lat":43.29962,"lon":5.41329,"is_reserved":false,"is_disabled":false,"rental_uris":{"android":"levelo://app?vid=26b5c406-3aca-4413-aab2-0a69ed2123c4","ios":"levelo://app?vid=26b5c406-3aca-4413-aab2-0a69ed2123c4"},"vehicle_type_id":"4","last_reported":1732831701,"current_range_meters":39200,"station_id":"ce4bhp12rcd13ifvqh9g","pricing_plan_id":"cebpf4jnsgd1na2vs0mg"},{"bike_id":"8e2041ad-6bf5-4186-becc-025de1939b87","system_id":"levelo_inurba_marseille","lat":43.28463,"lon":5.35891,"is_reserved":false,"is_disabled":true,"rental_uris":{"android":"levelo://app?vid=8e2041ad-6bf5-4186-becc-025de1939b87","ios":"levelo://app?vid=8e2041ad-6bf5-4186-becc-025de1939b87"},"vehicle_type_id":"4","last_reported":1732831701,"current_range_meters":12400,"station_id":"ce4bhah2rcd13ifvqei0","pricing_plan_id":"cebpf4jnsgd1na2vs0mg"},{"bike_id":"e1c76266-7d5c-49f3-b563-00be91d3a9f3","system_id":"levelo_inurba_marseille","lat":43.27812,"lon":5.40721,"is_reserved":false,"is_disabled":false,"rental_uris":{"android":"levelo://app?vid=e1c76266-7d5c-49f3-b563-00be91d3a9f3","ios":"levelo://app?vid=e1c76266-7d5c-49f3-b563-00be91d3a9f3"},"vehicle_type_id":"4","last_reported":1732831701,"current_range_meters":16000,"station_id":"ce4bhnh2rcd13ifvqgtg","pricing_plan_id":"cebpf4jnsgd1na2vs0mg"},{"bike_id":"422d452f-17cc-4565-afd8-833a3bc96a0e","system_id":"levelo_inurba_marseille","lat":43.30134,"lon":5.39882,"is_reserved":false,"is_disabled":true,"rental_uris":{"android":"levelo://app?vid=422d452f-17cc-4565-afd8-833a3bc96a0e","ios":"levelo://app?vid=422d452f-17cc-4565-afd8-833a3bc96a0e"},"vehicle_type_id":"4","last_reported":1732831701,"current_range_meters":25600,"station_id":"ce4bh0h2rcd13ifvqd40","pricing_plan_id":"cebpf4jnsgd1na2vs0mg"},{"bike_id":"dcee47ea-c950-4870-9c89-79b44232ba85","system_id":"levelo_inurba_marseille","lat":43.31721,"lon":5.42398,"is_reserved":false,"is_disabled":false,"rental_uris":{"android":"levelo://app?vid=dcee47ea-c950-4870-9c89-79b44232ba85","ios":"levelo://app?vid=dcee47ea-c950-4870-9c89-79b44232ba85"},"vehicle_type_id":"4","last_reported":1732831701,"current_range_meters":39200,"station_id":"ce4bhp92rcd13ifvqhbg","pricing_plan_id":"cebpf4jnsgd1na2vs0mg"},{"bike_id":"4d4c884f-6933-49c0-8899-f9856d90f44d","system_id":"levelo_inurba_marseille","lat":43.29748,"lon":5.37971,"is_reserved":false,"is_disabled":true,"rental_uris":{"android":"levelo://app?vid=4d4c884f-6933-49c0-8899-f9856d90f44d","ios":"levelo://app?vid=4d4c884f-6933-49c0-8899-f9856d90f44d"},"vehicle_type_id":"4","last_reported":1732831701,"current_range_meters":0,"station_id":"","pricing_plan_id":"cebpf4jnsgd1na2vs0mg"},{"bike_id":"0a6a01b8-ebc9-4549-9bc8-25449ed3a98c","system_id":"levelo_inurba_marseille","lat":43.32,"lon":5.38157,"is_reserved":false,"is_disabled":false,"rental_uris":{"android":"levelo://app?vid=0a6a01b8-ebc9-4549-9bc8-25449ed3a98c","ios":"levelo://app?vid=0a6a01b8-ebc9-4549-9bc8-25449ed3a98c"},"vehicle_type_id":"4","last_reported":1732831701,"current_range_meters":26800,"station_id":"ce4bhr12rcd13ifvqhpg","pricing_plan_id":"cebpf4jnsgd1na2vs0mg"},{"bike_id":"b6e48330-8212-4476-b4d2-8a1e3bec5ff6","system_id":"levelo_inurba_marseille","lat":43.28656,"lon":5.36356,"is_reserved":false,"is_disabled":true,"rental_uris":{"android":"levelo://app?vid=b6e48330-8212-4476-b4d2-8a1e3bec5ff6","ios":"levelo://app?vid=b6e48330-8212-4476-b4d2-8a1e3bec5ff6"},"vehicle_type_id":"4","last_reported":1732831701,"current_range_meters":10800,"station_id":"ce4bhah2rcd13ifvqej0","pricing_plan_id":"cebpf4jnsgd1na2vs0mg"},{"bike_id":"aa563293-8a2a-472f-b84f-0b97c8d34733","system_id":"levelo_inurba_marseille","lat":43.2903,"lon":5.3864,"is_reserved":false,"is_disabled":false,"rental_uris":{"android":"levelo://app?vid=aa563293-8a2a-472f-b84f-0b97c8d34733","ios":"levelo://app?vid=aa563293-8a2a-472f-b84f-0b97c8d34733"},"vehicle_type_id":"4","last_reported":1732831701,"current_range_meters":32800,"station_id":"ce4bh4p2rcd13ifvqe0g","pricing_plan_id":"cebpf4jnsgd1na2vs0mg"},{"bike_id":"74e95188-1907-451d-8b54-ee413415f459","system_id":"levelo_inurba_marseille","lat":43.28858,"lon":5.35854,"is_reserved":false,"is_disabled":false,"rental_uris":{"android":"levelo://app?vid=74e95188-1907-451d-8b54-ee413415f459","ios":"levelo://app?vid=74e95188-1907-451d-8b54-ee413415f459"},"vehicle_type_id":"4","last_reported":1732831701,"current_range_meters":32000,"station_id":"ce4bhb12rcd13ifvqem0","pricing_plan_id":"cebpf4jnsgd1na2vs0mg"},{"bike_id":"9009be37-c6b1-406b-b0a8-fbab355f715e","system_id":"levelo_inurba_marseille","lat":43.33767,"lon":5.37493,"is_reserved":false,"is_disabled":false,"rental_uris":{"android":"levelo://app?vid=9009be37-c6b1-406b-b0a8-fbab355f715e","ios":"levelo://app?vid=9009be37-c6b1-406b-b0a8-fbab355f715e"},"vehicle_type_id":"4","last_reported":1732831701,"current_range_meters":38400,"station_id":"","pricing_plan_id":"cebpf4jnsgd1na2vs0mg"},{"bike_id":"41b5e72e-6b19-45dc-a9ad-51ccbc0f0a20","system_id":"levelo_inurba_marseille","lat":43.26561,"lon":5.39007,"is_reserved":false,"is_disabled":false,"rental_uris":{"android":"levelo://app?vid=41b5e72e-6b19-45dc-a9ad-51ccbc0f0a20","ios":"levelo://app?vid=41b5e72e-6b19-45dc-a9ad-51ccbc0f0a20"},"vehicle_type_id":"4","last_reported":1732831701,"current_range_meters":31200,"station_id":"ce4bhe12rcd13ifvqf30","pricing_plan_id":"cebpf4jnsgd1na2vs0mg"},{"bike_id":"cfbb9735-0073-47e5-a7b0-871700092b34","system_id":"levelo_inurba_marseille","lat":43.27809,"lon":5.40711,"is_reserved":false,"is_disabled":false,"rental_uris":{"android":"levelo://app?vid=cfbb9735-0073-47e5-a7b0-871700092b34","ios":"levelo://app?vid=cfbb9735-0073-47e5-a7b0-871700092b34"},"vehicle_type_id":"4","last_reported":1732831701,"current_range_meters":31200,"station_id":"ce4bhnh2rcd13ifvqgtg","pricing_plan_id":"cebpf4jnsgd1na2vs0mg"},{"bike_id":"ad448571-bebb-4a8d-8d20-19092292da85","system_id":"levelo_inurba_marseille","lat":43.29166,"lon":5.37151,"is_reserved":false,"is_disabled":true,"rental_uris":{"android":"levelo://app?vid=ad448571-bebb-4a8d-8d20-19092292da85","ios":"levelo://app?vid=ad448571-bebb-4a8d-8d20-19092292da85"},"vehicle_type_id":"4","last_reported":1732831701,"current_range_meters":26000,"station_id":"ce4bha92rcd13ifvqeh0","pricing_plan_id":"cebpf4jnsgd1na2vs0mg"},{"bike_id":"5f433b1c-0e0f-43b4-a0b0-55b89bfd72f5","system_id":"levelo_inurba_marseille","lat":43.33603,"lon":5.41034,"is_reserved":false,"is_disabled":false,"rental_uris":{"android":"levelo://app?vid=5f433b1c-0e0f-43b4-a0b0-55b89bfd72f5","ios":"levelo://app?vid=5f433b1c-0e0f-43b4-a0b0-55b89bfd72f5"},"vehicle_type_id":"4","last_reported":1732831701,"current_range_meters":21600,"station_id":"ce4bhqh2rcd13ifvqhmg","pricing_plan_id":"cebpf4jnsgd1na2vs0mg"},{"bike_id":"1e09145b-f8b8-4d9f-84a8-523155ea47d2","system_id":"levelo_inurba_marseille","lat":43.30879,"lon":5.37189,"is_reserved":false,"is_disabled":true,"rental_uris":{"android":"levelo://app?vid=1e09145b-f8b8-4d9f-84a8-523155ea47d2","ios":"levelo://app?vid=1e09145b-f8b8-4d9f-84a8-523155ea47d2"},"vehicle_type_id":"4","last_reported":1732831701,"current_range_meters":0,"station_id":"ce4bguh2rcd13ifvqckg","pricing_plan_id":"cebpf4jnsgd1na2vs0mg"},{"bike_id":"9589002c-1bab-46c5-9d09-a7efb8d9d194","system_id":"levelo_inurba_marseille","lat":43.28478,"lon":5.34987,"is_reserved":false,"is_disabled":false,"rental_uris":{"android":"levelo://app?vid=9589002c-1bab-46c5-9d09-a7efb8d9d194","ios":"levelo://app?vid=9589002c-1bab-46c5-9d09-a7efb8d9d194"},"vehicle_type_id":"4","last_reported":1732831701,"current_range_meters":36800,"station_id":"","pricing_plan_id":"cebpf4jnsgd1na2vs0mg"},{"bike_id":"5d84ab37-b887-4cbc-90d8-c3fbc6154e0e","system_id":"levelo_inurba_marseille","lat":43.31686,"lon":5.40473,"is_reserved":false,"is_disabled":true,"rental_uris":{"android":"levelo://app?vid=5d84ab37-b887-4cbc-90d8-c3fbc6154e0e","ios":"levelo://app?vid=5d84ab37-b887-4cbc-90d8-c3fbc6154e0e"},"vehicle_type_id":"4","last_reported":1732831701,"current_range_meters":400,"station_id":"ce4bh012rcd13ifvqd00","pricing_plan_id":"cebpf4jnsgd1na2vs0mg"},{"bike_id":"840c2084-3872-4bb0-aad2-5ab80f87c1f6","system_id":"levelo_inurba_marseille","lat":43.30649,"lon":5.40101,"is_reserved":false,"is_disabled":true,"rental_uris":{"android":"levelo://app?vid=840c2084-3872-4bb0-aad2-5ab80f87c1f6","ios":"levelo://app?vid=840c2084-3872-4bb0-aad2-5ab80f87c1f6"},"vehicle_type_id":"4","last_reported":1732831701,"current_range_meters":38800,"station_id":"ce4bh112rcd13ifvqda0","pricing_plan_id":"cebpf4jnsgd1na2vs0mg"},{"bike_id":"c58aca8d-8ab7-4d29-becd-5e5c53522566","system_id":"levelo_inurba_marseille","lat":43.3169,"lon":5.40476,"is_reserved":false,"is_disabled":false,"rental_uris":{"android":"levelo://app?vid=c58aca8d-8ab7-4d29-becd-5e5c53522566","ios":"levelo://app?vid=c58aca8d-8ab7-4d29-becd-5e5c53522566"},"vehicle_type_id":"4","last_reported":1732831701,"current_range_meters":28800,"station_id":"ce4bh012rcd13ifvqd00","pricing_plan_id":"cebpf4jnsgd1na2vs0mg"},{"bike_id":"6770707a-d638-46db-ac11-17ca394f4eb5","system_id":"levelo_inurba_marseille","lat":43.23958,"lon":5.36639,"is_reserved":false,"is_disabled":false,"rental_uris":{"android":"levelo://app?vid=6770707a-d638-46db-ac11-17ca394f4eb5","ios":"levelo://app?vid=6770707a-d638-46db-ac11-17ca394f4eb5"},"vehicle_type_id":"4","last_reported":1732831701,"current_range_meters":19200,"station_id":"ce4bhi12rcd13ifvqfp0","pricing_plan_id":"cebpf4jnsgd1na2vs0mg"},{"bike_id":"cfd6704e-91db-4e9d-b039-c87511dda4e3","system_id":"levelo_inurba_marseille","lat":43.27184,"lon":5.4099,"is_reserved":false,"is_disabled":false,"rental_uris":{"android":"levelo://app?vid=cfd6704e-91db-4e9d-b039-c87511dda4e3","ios":"levelo://app?vid=cfd6704e-91db-4e9d-b039-c87511dda4e3"},"vehicle_type_id":"4","last_reported":1732831701,"current_range_meters":30000,"station_id":"ce4bhl12rcd13ifvqgf0","pricing_plan_id":"cebpf4jnsgd1na2vs0mg"},{"bike_id":"1457d317-748e-4d9a-89dd-9f4b153692f7","system_id":"levelo_inurba_marseille","lat":43.28103,"lon":5.37838,"is_reserved":false,"is_disabled":false,"rental_uris":{"android":"levelo://app?vid=1457d317-748e-4d9a-89dd-9f4b153692f7","ios":"levelo://app?vid=1457d317-748e-4d9a-89dd-9f4b153692f7"},"vehicle_type_id":"4","last_reported":1732831701,"current_range_meters":4000,"station_id":"ce4bha12rcd13ifvqee0","pricing_plan_id":"cebpf4jnsgd1na2vs0mg"},{"bike_id":"aa226446-391e-4936-ad4e-4dca6c8cbb57","system_id":"levelo_inurba_marseille","lat":43.27617,"lon":5.36111,"is_reserved":false,"is_disabled":false,"rental_uris":{"android":"levelo://app?vid=aa226446-391e-4936-ad4e-4dca6c8cbb57","ios":"levelo://app?vid=aa226446-391e-4936-ad4e-4dca6c8cbb57"},"vehicle_type_id":"4","last_reported":1732831701,"current_range_meters":34000,"station_id":"ce4bgj92rcd13ifvqbe0","pricing_plan_id":"cebpf4jnsgd1na2vs0mg"},{"bike_id":"1936c595-32cf-4097-a6cb-753cf309a951","system_id":"levelo_inurba_marseille","lat":43.31722,"lon":5.42404,"is_reserved":false,"is_disabled":false,"rental_uris":{"android":"levelo://app?vid=1936c595-32cf-4097-a6cb-753cf309a951","ios":"levelo://app?vid=1936c595-32cf-4097-a6cb-753cf309a951"},"vehicle_type_id":"4","last_reported":1732831701,"current_range_meters":38800,"station_id":"ce4bhp92rcd13ifvqhbg","pricing_plan_id":"cebpf4jnsgd1na2vs0mg"},{"bike_id":"f62a5fa2-9173-4ac1-b63a-4a63811fbef9","system_id":"levelo_inurba_marseille","lat":43.25928,"lon":5.40909,"is_reserved":false,"is_disabled":false,"rental_uris":{"android":"levelo://app?vid=f62a5fa2-9173-4ac1-b63a-4a63811fbef9","ios":"levelo://app?vid=f62a5fa2-9173-4ac1-b63a-4a63811fbef9"},"vehicle_type_id":"4","last_reported":1732831701,"current_range_meters":23200,"station_id":"ce4bhm92rcd13ifvqglg","pricing_plan_id":"cebpf4jnsgd1na2vs0mg"},{"bike_id":"4ef82adb-1398-4bed-bf34-1aa2370cf21d","system_id":"levelo_inurba_marseille","lat":43.31998,"lon":5.38156,"is_reserved":false,"is_disabled":false,"rental_uris":{"android":"levelo://app?vid=4ef82adb-1398-4bed-bf34-1aa2370cf21d","ios":"levelo://app?vid=4ef82adb-1398-4bed-bf34-1aa2370cf21d"},"vehicle_type_id":"4","last_reported":1732831701,"current_range_meters":8400,"station_id":"ce4bhr12rcd13ifvqhpg","pricing_plan_id":"cebpf4jnsgd1na2vs0mg"},{"bike_id":"e8fa7be1-2407-41a7-b843-e7c70f1917ef","system_id":"levelo_inurba_marseille","lat":43.27611,"lon":5.36119,"is_reserved":false,"is_disabled":true,"rental_uris":{"android":"levelo://app?vid=e8fa7be1-2407-41a7-b843-e7c70f1917ef","ios":"levelo://app?vid=e8fa7be1-2407-41a7-b843-e7c70f1917ef"},"vehicle_type_id":"4","last_reported":1732831701,"current_range_meters":0,"station_id":"ce4bgj92rcd13ifvqbe0","pricing_plan_id":"cebpf4jnsgd1na2vs0mg"},{"bike_id":"9ecc32de-994a-4dac-bf19-477b1a5bf98c","system_id":"levelo_inurba_marseille","lat":43.28068,"lon":5.39645,"is_reserved":false,"is_disabled":false,"rental_uris":{"android":"levelo://app?vid=9ecc32de-994a-4dac-bf19-477b1a5bf98c","ios":"levelo://app?vid=9ecc32de-994a-4dac-bf19-477b1a5bf98c"},"vehicle_type_id":"4","last_reported":1732831701,"current_range_meters":7200,"station_id":"ce4bho12rcd13ifvqh2g","pricing_plan_id":"cebpf4jnsgd1na2vs0mg"},{"bike_id":"289614bb-31f0-4f7a-a4f9-71dc95ecf9e2","system_id":"levelo_inurba_marseille","lat":43.29611,"lon":5.37704,"is_reserved":false,"is_disabled":true,"rental_uris":{"android":"levelo://app?vid=289614bb-31f0-4f7a-a4f9-71dc95ecf9e2","ios":"levelo://app?vid=289614bb-31f0-4f7a-a4f9-71dc95ecf9e2"},"vehicle_type_id":"4","last_reported":1732831701,"current_range_meters":0,"station_id":"ce4bgi92rcd13ifvqb90","pricing_plan_id":"cebpf4jnsgd1na2vs0mg"},{"bike_id":"9e89cae6-e63f-4269-8d47-3eade4057e0c","system_id":"levelo_inurba_marseille","lat":43.24649,"lon":5.38897,"is_reserved":false,"is_disabled":false,"rental_uris":{"android":"levelo://app?vid=9e89cae6-e63f-4269-8d47-3eade4057e0c","ios":"levelo://app?vid=9e89cae6-e63f-4269-8d47-3eade4057e0c"},"vehicle_type_id":"4","last_reported":1732831701,"current_range_meters":18000,"station_id":"ce4bhg12rcd13ifvqf60","pricing_plan_id":"cebpf4jnsgd1na2vs0mg"},{"bike_id":"178933b0-c4c1-4ac8-8224-6c6abe923d24","system_id":"levelo_inurba_marseille","lat":43.30133,"lon":5.38773,"is_reserved":false,"is_disabled":false,"rental_uris":{"android":"levelo://app?vid=178933b0-c4c1-4ac8-8224-6c6abe923d24","ios":"levelo://app?vid=178933b0-c4c1-4ac8-8224-6c6abe923d24"},"vehicle_type_id":"4","last_reported":1732831701,"current_range_meters":8400,"station_id":"ce4bghh2rcd13ifvqb60","pricing_plan_id":"cebpf4jnsgd1na2vs0mg"},{"bike_id":"e63455c5-5f55-4960-8084-8cbaf9be1b50","system_id":"levelo_inurba_marseille","lat":43.25581,"lon":5.38235,"is_reserved":false,"is_disabled":false,"rental_uris":{"android":"levelo://app?vid=e63455c5-5f55-4960-8084-8cbaf9be1b50","ios":"levelo://app?vid=e63455c5-5f55-4960-8084-8cbaf9be1b50"},"vehicle_type_id":"4","last_reported":1732831701,"current_range_meters":36400,"station_id":"ce4bhih2rcd13ifvqfs0","pricing_plan_id":"cebpf4jnsgd1na2vs0mg"},{"bike_id":"1dee5398-ece1-4217-b5b9-984f22c2ff59","system_id":"levelo_inurba_marseille","lat":43.29248,"lon":5.38441,"is_reserved":false,"is_disabled":true,"rental_uris":{"android":"levelo://app?vid=1dee5398-ece1-4217-b5b9-984f22c2ff59","ios":"levelo://app?vid=1dee5398-ece1-4217-b5b9-984f22c2ff59"},"vehicle_type_id":"4","last_reported":1732831701,"current_range_meters":0,"station_id":"ce4bh692rcd13ifvqea0","pricing_plan_id":"cebpf4jnsgd1na2vs0mg"},{"bike_id":"35cde48b-e232-4392-95d8-1d6118a2707a","system_id":"levelo_inurba_marseille","lat":43.28273,"lon":5.35072,"is_reserved":false,"is_disabled":true,"rental_uris":{"android":"levelo://app?vid=35cde48b-e232-4392-95d8-1d6118a2707a","ios":"levelo://app?vid=35cde48b-e232-4392-95d8-1d6118a2707a"},"vehicle_type_id":"4","last_reported":1732831701,"current_range_meters":14400,"station_id":"ce4bhbp2rcd13ifvqerg","pricing_plan_id":"cebpf4jnsgd1na2vs0mg"},{"bike_id":"1a1ad613-e33a-4722-b183-07da1e0aa14f","system_id":"levelo_inurba_marseille","lat":43.32296,"lon":5.38272,"is_reserved":false,"is_disabled":false,"rental_uris":{"android":"levelo://app?vid=1a1ad613-e33a-4722-b183-07da1e0aa14f","ios":"levelo://app?vid=1a1ad613-e33a-4722-b183-07da1e0aa14f"},"vehicle_type_id":"4","last_reported":1732831701,"current_range_meters":39200,"station_id":"ce4bhr12rcd13ifvqhqg","pricing_plan_id":"cebpf4jnsgd1na2vs0mg"},{"bike_id":"0af212de-fff9-4805-8247-5a9f9ab9bd90","system_id":"levelo_inurba_marseille","lat":43.26947,"lon":5.40256,"is_reserved":false,"is_disabled":false,"rental_uris":{"android":"levelo://app?vid=0af212de-fff9-4805-8247-5a9f9ab9bd90","ios":"levelo://app?vid=0af212de-fff9-4805-8247-5a9f9ab9bd90"},"vehicle_type_id":"4","last_reported":1732831701,"current_range_meters":6400,"station_id":"cjm6bp8fraef2m0cb0m0","pricing_plan_id":"cebpf4jnsgd1na2vs0mg"},{"bike_id":"3ca8d527-6c31-4160-8bc9-0dbae13780f9","system_id":"levelo_inurba_marseille","lat":43.28457,"lon":5.35894,"is_reserved":false,"is_disabled":true,"rental_uris":{"android":"levelo://app?vid=3ca8d527-6c31-4160-8bc9-0dbae13780f9","ios":"levelo://app?vid=3ca8d527-6c31-4160-8bc9-0dbae13780f9"},"vehicle_type_id":"4","last_reported":1732831701,"current_range_meters":25600,"station_id":"ce4bhah2rcd13ifvqei0","pricing_plan_id":"cebpf4jnsgd1na2vs0mg"},{"bike_id":"36a3f96e-478e-4879-a67a-ad06aea66f6d","system_id":"levelo_inurba_marseille","lat":43.30886,"lon":5.39647,"is_reserved":false,"is_disabled":false,"rental_uris":{"android":"levelo://app?vid=36a3f96e-478e-4879-a67a-ad06aea66f6d","ios":"levelo://app?vid=36a3f96e-478e-4879-a67a-ad06aea66f6d"},"vehicle_type_id":"4","last_reported":1732831701,"current_range_meters":38800,"station_id":"ce4bh012rcd13ifvqcv0","pricing_plan_id":"cebpf4jnsgd1na2vs0mg"},{"bike_id":"ba00654e-53a2-4532-9f95-136ca1396363","system_id":"levelo_inurba_marseille","lat":43.26203,"lon":5.37934,"is_reserved":false,"is_disabled":false,"rental_uris":{"android":"levelo://app?vid=ba00654e-53a2-4532-9f95-136ca1396363","ios":"levelo://app?vid=ba00654e-53a2-4532-9f95-136ca1396363"},"vehicle_type_id":"4","last_reported":1732831701,"current_range_meters":13600,"station_id":"ce4bhjp2rcd13ifvqg90","pricing_plan_id":"cebpf4jnsgd1na2vs0mg"},{"bike_id":"08eecff9-7445-4ae9-87ab-550174feeb1e","system_id":"levelo_inurba_marseille","lat":43.28571,"lon":5.39505,"is_reserved":false,"is_disabled":false,"rental_uris":{"android":"levelo://app?vid=08eecff9-7445-4ae9-87ab-550174feeb1e","ios":"levelo://app?vid=08eecff9-7445-4ae9-87ab-550174feeb1e"},"vehicle_type_id":"4","last_reported":1732831701,"current_range_meters":36800,"station_id":"ce4bh292rcd13ifvqdg0","pricing_plan_id":"cebpf4jnsgd1na2vs0mg"},{"bike_id":"16fb8e17-b179-4d5a-add7-fbd05efe76fb","system_id":"levelo_inurba_marseille","lat":43.25927,"lon":5.40912,"is_reserved":false,"is_disabled":true,"rental_uris":{"android":"levelo://app?vid=16fb8e17-b179-4d5a-add7-fbd05efe76fb","ios":"levelo://app?vid=16fb8e17-b179-4d5a-add7-fbd05efe76fb"},"vehicle_type_id":"4","last_reported":1732831701,"current_range_meters":36800,"station_id":"ce4bhm92rcd13ifvqglg","pricing_plan_id":"cebpf4jnsgd1na2vs0mg"},{"bike_id":"39b04c21-6a6a-40a7-a489-741c2b67c9bd","system_id":"levelo_inurba_marseille","lat":43.33721,"lon":5.39189,"is_reserved":false,"is_disabled":false,"rental_uris":{"android":"levelo://app?vid=39b04c21-6a6a-40a7-a489-741c2b67c9bd","ios":"levelo://app?vid=39b04c21-6a6a-40a7-a489-741c2b67c9bd"},"vehicle_type_id":"4","last_reported":1732831701,"current_range_meters":38000,"station_id":"ce4bhr92rcd13ifvqhsg","pricing_plan_id":"cebpf4jnsgd1na2vs0mg"},{"bike_id":"850dec2a-d561-44ab-91b6-e33dfc6c8c41","system_id":"levelo_inurba_marseille","lat":43.297746,"lon":5.370943,"is_reserved":false,"is_disabled":false,"rental_uris":{"android":"levelo://app?vid=850dec2a-d561-44ab-91b6-e33dfc6c8c41","ios":"levelo://app?vid=850dec2a-d561-44ab-91b6-e33dfc6c8c41"},"vehicle_type_id":"4","last_reported":1732831701,"current_range_meters":9600,"station_id":"ce4bgop2rcd13ifvqc1g","pricing_plan_id":"cebpf4jnsgd1na2vs0mg"},{"bike_id":"67295fa8-fa27-48f4-b6f6-b84e14b2e05c","system_id":"levelo_inurba_marseille","lat":43.25727,"lon":5.4111,"is_reserved":false,"is_disabled":false,"rental_uris":{"android":"levelo://app?vid=67295fa8-fa27-48f4-b6f6-b84e14b2e05c","ios":"levelo://app?vid=67295fa8-fa27-48f4-b6f6-b84e14b2e05c"},"vehicle_type_id":"4","last_reported":1732831701,"current_range_meters":18000,"station_id":"ce4bhkp2rcd13ifvqgd0","pricing_plan_id":"cebpf4jnsgd1na2vs0mg"},{"bike_id":"7c7cc416-eb41-4a4c-99ce-42558eaa1248","system_id":"levelo_inurba_marseille","lat":43.24668,"lon":5.3816,"is_reserved":false,"is_disabled":false,"rental_uris":{"android":"levelo://app?vid=7c7cc416-eb41-4a4c-99ce-42558eaa1248","ios":"levelo://app?vid=7c7cc416-eb41-4a4c-99ce-42558eaa1248"},"vehicle_type_id":"4","last_reported":1732831701,"current_range_meters":10000,"station_id":"","pricing_plan_id":"cebpf4jnsgd1na2vs0mg"},{"bike_id":"8f3f4a42-abb8-4c93-99bd-742eb22f23bc","system_id":"levelo_inurba_marseille","lat":43.27817,"lon":5.40724,"is_reserved":false,"is_disabled":false,"rental_uris":{"android":"levelo://app?vid=8f3f4a42-abb8-4c93-99bd-742eb22f23bc","ios":"levelo://app?vid=8f3f4a42-abb8-4c93-99bd-742eb22f23bc"},"vehicle_type_id":"4","last_reported":1732831701,"current_range_meters":38800,"station_id":"ce4bhnh2rcd13ifvqgtg","pricing_plan_id":"cebpf4jnsgd1na2vs0mg"},{"bike_id":"48c5f044-1538-452f-8fdd-5c88044e14b1","system_id":"levelo_inurba_marseille","lat":43.26937,"lon":5.38922,"is_reserved":false,"is_disabled":false,"rental_uris":{"android":"levelo://app?vid=48c5f044-1538-452f-8fdd-5c88044e14b1","ios":"levelo://app?vid=48c5f044-1538-452f-8fdd-5c88044e14b1"},"vehicle_type_id":"4","last_reported":1732831701,"current_range_meters":30800,"station_id":"ce4bhhh2rcd13ifvqfl0","pricing_plan_id":"cebpf4jnsgd1na2vs0mg"},{"bike_id":"4f416bbb-7a6b-4165-a3a6-7d70b74c4469","system_id":"levelo_inurba_marseille","lat":43.27063,"lon":5.40265,"is_reserved":false,"is_disabled":false,"rental_uris":{"android":"levelo://app?vid=4f416bbb-7a6b-4165-a3a6-7d70b74c4469","ios":"levelo://app?vid=4f416bbb-7a6b-4165-a3a6-7d70b74c4469"},"vehicle_type_id":"4","last_reported":1732831701,"current_range_meters":24800,"station_id":"ce4bhk92rcd13ifvqgc0","pricing_plan_id":"cebpf4jnsgd1na2vs0mg"},{"bike_id":"dd8abf73-0f11-4528-81c0-f7dfced5b75d","system_id":"levelo_inurba_marseille","lat":43.28043,"lon":5.36941,"is_reserved":false,"is_disabled":false,"rental_uris":{"android":"levelo://app?vid=dd8abf73-0f11-4528-81c0-f7dfced5b75d","ios":"levelo://app?vid=dd8abf73-0f11-4528-81c0-f7dfced5b75d"},"vehicle_type_id":"4","last_reported":1732831701,"current_range_meters":27200,"station_id":"ce4bha12rcd13ifvqef0","pricing_plan_id":"cebpf4jnsgd1na2vs0mg"},{"bike_id":"a4334e68-df66-47a8-81e3-023882891004","system_id":"levelo_inurba_marseille","lat":43.27811,"lon":5.40724,"is_reserved":false,"is_disabled":false,"rental_uris":{"android":"levelo://app?vid=a4334e68-df66-47a8-81e3-023882891004","ios":"levelo://app?vid=a4334e68-df66-47a8-81e3-023882891004"},"vehicle_type_id":"4","last_reported":1732831701,"current_range_meters":24000,"station_id":"ce4bhnh2rcd13ifvqgtg","pricing_plan_id":"cebpf4jnsgd1na2vs0mg"},{"bike_id":"ab9ea4d5-385f-4213-9207-9a6809ebbe18","system_id":"levelo_inurba_marseille","lat":43.31871,"lon":5.40752,"is_reserved":false,"is_disabled":false,"rental_uris":{"android":"levelo://app?vid=ab9ea4d5-385f-4213-9207-9a6809ebbe18","ios":"levelo://app?vid=ab9ea4d5-385f-4213-9207-9a6809ebbe18"},"vehicle_type_id":"4","last_reported":1732831701,"current_range_meters":26000,"station_id":"ce4bhq12rcd13ifvqhig","pricing_plan_id":"cebpf4jnsgd1na2vs0mg"},{"bike_id":"b28150e4-18cc-4d56-b749-abddac5e0ca1","system_id":"levelo_inurba_marseille","lat":43.24668,"lon":5.38169,"is_reserved":false,"is_disabled":false,"rental_uris":{"android":"levelo://app?vid=b28150e4-18cc-4d56-b749-abddac5e0ca1","ios":"levelo://app?vid=b28150e4-18cc-4d56-b749-abddac5e0ca1"},"vehicle_type_id":"4","last_reported":1732831701,"current_range_meters":37600,"station_id":"ce4bhih2rcd13ifvqfr0","pricing_plan_id":"cebpf4jnsgd1na2vs0mg"},{"bike_id":"81d9f7be-c3c6-4233-bf11-948e6f22debc","system_id":"levelo_inurba_marseille","lat":43.32364,"lon":5.38886,"is_reserved":false,"is_disabled":false,"rental_uris":{"android":"levelo://app?vid=81d9f7be-c3c6-4233-bf11-948e6f22debc","ios":"levelo://app?vid=81d9f7be-c3c6-4233-bf11-948e6f22debc"},"vehicle_type_id":"4","last_reported":1732831701,"current_range_meters":38800,"station_id":"ce4bhqp2rcd13ifvqhog","pricing_plan_id":"cebpf4jnsgd1na2vs0mg"},{"bike_id":"7fe8aae4-e2fd-45e8-ad84-418c66f3914f","system_id":"levelo_inurba_marseille","lat":43.28851,"lon":5.35847,"is_reserved":false,"is_disabled":true,"rental_uris":{"android":"levelo://app?vid=7fe8aae4-e2fd-45e8-ad84-418c66f3914f","ios":"levelo://app?vid=7fe8aae4-e2fd-45e8-ad84-418c66f3914f"},"vehicle_type_id":"4","last_reported":1732831701,"current_range_meters":9600,"station_id":"ce4bhb12rcd13ifvqem0","pricing_plan_id":"cebpf4jnsgd1na2vs0mg"},{"bike_id":"aa5872b5-79d8-405b-8aa8-c6236fbce319","system_id":"levelo_inurba_marseille","lat":43.23187,"lon":5.39988,"is_reserved":false,"is_disabled":false,"rental_uris":{"android":"levelo://app?vid=aa5872b5-79d8-405b-8aa8-c6236fbce319","ios":"levelo://app?vid=aa5872b5-79d8-405b-8aa8-c6236fbce319"},"vehicle_type_id":"4","last_reported":1732831701,"current_range_meters":6800,"station_id":"ce4bhn12rcd13ifvqgqg","pricing_plan_id":"cebpf4jnsgd1na2vs0mg"},{"bike_id":"4d9843d2-7dfc-4bc3-8e09-2208b04e3616","system_id":"levelo_inurba_marseille","lat":43.31361,"lon":5.38496,"is_reserved":false,"is_disabled":false,"rental_uris":{"android":"levelo://app?vid=4d9843d2-7dfc-4bc3-8e09-2208b04e3616","ios":"levelo://app?vid=4d9843d2-7dfc-4bc3-8e09-2208b04e3616"},"vehicle_type_id":"4","last_reported":1732831701,"current_range_meters":12800,"station_id":"ce4bgt92rcd13ifvqcf0","pricing_plan_id":"cebpf4jnsgd1na2vs0mg"},{"bike_id":"29a80c71-9648-4a26-b6c9-5f69092eaa01","system_id":"levelo_inurba_marseille","lat":43.280891,"lon":5.396391,"is_reserved":false,"is_disabled":true,"rental_uris":{"android":"levelo://app?vid=29a80c71-9648-4a26-b6c9-5f69092eaa01","ios":"levelo://app?vid=29a80c71-9648-4a26-b6c9-5f69092eaa01"},"vehicle_type_id":"4","last_reported":1732831701,"current_range_meters":0,"station_id":"ce4bho12rcd13ifvqh2g","pricing_plan_id":"cebpf4jnsgd1na2vs0mg"},{"bike_id":"4d089ae2-8d3d-4ba1-9519-c59633c846c6","system_id":"levelo_inurba_marseille","lat":43.28264,"lon":5.3508,"is_reserved":false,"is_disabled":false,"rental_uris":{"android":"levelo://app?vid=4d089ae2-8d3d-4ba1-9519-c59633c846c6","ios":"levelo://app?vid=4d089ae2-8d3d-4ba1-9519-c59633c846c6"},"vehicle_type_id":"4","last_reported":1732831701,"current_range_meters":38800,"station_id":"ce4bhbp2rcd13ifvqerg","pricing_plan_id":"cebpf4jnsgd1na2vs0mg"},{"bike_id":"2a60fd72-9cfa-415f-937e-d89edec4f374","system_id":"levelo_inurba_marseille","lat":43.25011,"lon":5.38916,"is_reserved":false,"is_disabled":false,"rental_uris":{"android":"levelo://app?vid=2a60fd72-9cfa-415f-937e-d89edec4f374","ios":"levelo://app?vid=2a60fd72-9cfa-415f-937e-d89edec4f374"},"vehicle_type_id":"4","last_reported":1732831701,"current_range_meters":33200,"station_id":"ce4bhgp2rcd13ifvqfd0","pricing_plan_id":"cebpf4jnsgd1na2vs0mg"},{"bike_id":"0995621e-0e5a-482e-8b5a-efe4989f97eb","system_id":"levelo_inurba_marseille","lat":43.31355,"lon":5.38506,"is_reserved":false,"is_disabled":false,"rental_uris":{"android":"levelo://app?vid=0995621e-0e5a-482e-8b5a-efe4989f97eb","ios":"levelo://app?vid=0995621e-0e5a-482e-8b5a-efe4989f97eb"},"vehicle_type_id":"4","last_reported":1732831701,"current_range_meters":8400,"station_id":"ce4bgt92rcd13ifvqcf0","pricing_plan_id":"cebpf4jnsgd1na2vs0mg"},{"bike_id":"5b6140a7-7f65-4ca3-a3f2-419ab04c93da","system_id":"levelo_inurba_marseille","lat":43.22919,"lon":5.35376,"is_reserved":false,"is_disabled":true,"rental_uris":{"android":"levelo://app?vid=5b6140a7-7f65-4ca3-a3f2-419ab04c93da","ios":"levelo://app?vid=5b6140a7-7f65-4ca3-a3f2-419ab04c93da"},"vehicle_type_id":"4","last_reported":1732831701,"current_range_meters":30400,"station_id":"cpo3532slgdg3j2ikp40","pricing_plan_id":"cebpf4jnsgd1na2vs0mg"},{"bike_id":"64f1d7ec-bb5c-4a72-87fb-74dfe1b8e50c","system_id":"levelo_inurba_marseille","lat":43.30937,"lon":5.40154,"is_reserved":false,"is_disabled":false,"rental_uris":{"android":"levelo://app?vid=64f1d7ec-bb5c-4a72-87fb-74dfe1b8e50c","ios":"levelo://app?vid=64f1d7ec-bb5c-4a72-87fb-74dfe1b8e50c"},"vehicle_type_id":"4","last_reported":1732831701,"current_range_meters":400,"station_id":"ce4bgvp2rcd13ifvqct0","pricing_plan_id":"cebpf4jnsgd1na2vs0mg"},{"bike_id":"f794b8fa-1f88-483b-a054-16f24b00c834","system_id":"levelo_inurba_marseille","lat":43.28274,"lon":5.35073,"is_reserved":false,"is_disabled":true,"rental_uris":{"android":"levelo://app?vid=f794b8fa-1f88-483b-a054-16f24b00c834","ios":"levelo://app?vid=f794b8fa-1f88-483b-a054-16f24b00c834"},"vehicle_type_id":"4","last_reported":1732831701,"current_range_meters":10800,"station_id":"ce4bhbp2rcd13ifvqerg","pricing_plan_id":"cebpf4jnsgd1na2vs0mg"},{"bike_id":"80940577-afe8-4613-b61c-57a7bd481a54","system_id":"levelo_inurba_marseille","lat":43.28465,"lon":5.35885,"is_reserved":false,"is_disabled":false,"rental_uris":{"android":"levelo://app?vid=80940577-afe8-4613-b61c-57a7bd481a54","ios":"levelo://app?vid=80940577-afe8-4613-b61c-57a7bd481a54"},"vehicle_type_id":"4","last_reported":1732831701,"current_range_meters":27600,"station_id":"ce4bhah2rcd13ifvqei0","pricing_plan_id":"cebpf4jnsgd1na2vs0mg"},{"bike_id":"de3fa110-9268-48bb-8c90-0e177616d2e3","system_id":"levelo_inurba_marseille","lat":43.31268,"lon":5.40172,"is_reserved":false,"is_disabled":false,"rental_uris":{"android":"levelo://app?vid=de3fa110-9268-48bb-8c90-0e177616d2e3","ios":"levelo://app?vid=de3fa110-9268-48bb-8c90-0e177616d2e3"},"vehicle_type_id":"4","last_reported":1732831701,"current_range_meters":18000,"station_id":"ce4bh092rcd13ifvqd30","pricing_plan_id":"cebpf4jnsgd1na2vs0mg"},{"bike_id":"969f8d15-92a4-4c5c-9b7f-8e499035236c","system_id":"levelo_inurba_marseille","lat":43.31274,"lon":5.40189,"is_reserved":false,"is_disabled":false,"rental_uris":{"android":"levelo://app?vid=969f8d15-92a4-4c5c-9b7f-8e499035236c","ios":"levelo://app?vid=969f8d15-92a4-4c5c-9b7f-8e499035236c"},"vehicle_type_id":"4","last_reported":1732831701,"current_range_meters":25600,"station_id":"ce4bh092rcd13ifvqd30","pricing_plan_id":"cebpf4jnsgd1na2vs0mg"},{"bike_id":"a4209cd4-70d3-458b-81a6-38d1ffca5925","system_id":"levelo_inurba_marseille","lat":43.28354,"lon":5.38114,"is_reserved":false,"is_disabled":false,"rental_uris":{"android":"levelo://app?vid=a4209cd4-70d3-458b-81a6-38d1ffca5925","ios":"levelo://app?vid=a4209cd4-70d3-458b-81a6-38d1ffca5925"},"vehicle_type_id":"4","last_reported":1732831701,"current_range_meters":39200,"station_id":"ce4bh412rcd13ifvqdr0","pricing_plan_id":"cebpf4jnsgd1na2vs0mg"},{"bike_id":"960e0ce8-4af8-4a7b-a1d9-99f150008994","system_id":"levelo_inurba_marseille","lat":43.33025,"lon":5.39041,"is_reserved":false,"is_disabled":false,"rental_uris":{"android":"levelo://app?vid=960e0ce8-4af8-4a7b-a1d9-99f150008994","ios":"levelo://app?vid=960e0ce8-4af8-4a7b-a1d9-99f150008994"},"vehicle_type_id":"4","last_reported":1732831701,"current_range_meters":38800,"station_id":"ce4bhr92rcd13ifvqhrg","pricing_plan_id":"cebpf4jnsgd1na2vs0mg"},{"bike_id":"2981d73e-e440-45f4-ab53-702cbb800250","system_id":"levelo_inurba_marseille","lat":43.24394,"lon":5.37069,"is_reserved":false,"is_disabled":false,"rental_uris":{"android":"levelo://app?vid=2981d73e-e440-45f4-ab53-702cbb800250","ios":"levelo://app?vid=2981d73e-e440-45f4-ab53-702cbb800250"},"vehicle_type_id":"4","last_reported":1732831701,"current_range_meters":11200,"station_id":"ce4bhhh2rcd13ifvqfk0","pricing_plan_id":"cebpf4jnsgd1na2vs0mg"},{"bike_id":"6aa7d263-c9db-4fc0-b9ea-e1517b0dfa32","system_id":"levelo_inurba_marseille","lat":43.28155,"lon":5.42645,"is_reserved":false,"is_disabled":false,"rental_uris":{"android":"levelo://app?vid=6aa7d263-c9db-4fc0-b9ea-e1517b0dfa32","ios":"levelo://app?vid=6aa7d263-c9db-4fc0-b9ea-e1517b0dfa32"},"vehicle_type_id":"4","last_reported":1732831701,"current_range_meters":38800,"station_id":"ce4bhnh2rcd13ifvqgug","pricing_plan_id":"cebpf4jnsgd1na2vs0mg"},{"bike_id":"9889b9b1-c1bd-4e56-a40a-7a710a32fe91","system_id":"levelo_inurba_marseille","lat":43.31225,"lon":5.36849,"is_reserved":false,"is_disabled":false,"rental_uris":{"android":"levelo://app?vid=9889b9b1-c1bd-4e56-a40a-7a710a32fe91","ios":"levelo://app?vid=9889b9b1-c1bd-4e56-a40a-7a710a32fe91"},"vehicle_type_id":"4","last_reported":1732831701,"current_range_meters":38800,"station_id":"ce4bgl92rcd13ifvqbq0","pricing_plan_id":"cebpf4jnsgd1na2vs0mg"},{"bike_id":"5688fac3-e87c-436a-b4e9-09631dd71f90","system_id":"levelo_inurba_marseille","lat":43.27913,"lon":5.38028,"is_reserved":false,"is_disabled":false,"rental_uris":{"android":"levelo://app?vid=5688fac3-e87c-436a-b4e9-09631dd71f90","ios":"levelo://app?vid=5688fac3-e87c-436a-b4e9-09631dd71f90"},"vehicle_type_id":"4","last_reported":1732831701,"current_range_meters":11200,"station_id":"ce4bhf92rcd13ifvqf50","pricing_plan_id":"cebpf4jnsgd1na2vs0mg"},{"bike_id":"b882d004-0272-4980-a769-f60e8ee6995c","system_id":"levelo_inurba_marseille","lat":43.28718,"lon":5.37942,"is_reserved":false,"is_disabled":false,"rental_uris":{"android":"levelo://app?vid=b882d004-0272-4980-a769-f60e8ee6995c","ios":"levelo://app?vid=b882d004-0272-4980-a769-f60e8ee6995c"},"vehicle_type_id":"4","last_reported":1732831701,"current_range_meters":36000,"station_id":"ce4bh9p2rcd13ifvqec0","pricing_plan_id":"cebpf4jnsgd1na2vs0mg"},{"bike_id":"2e95a691-d7d8-426b-8dba-47b6b56c6a41","system_id":"levelo_inurba_marseille","lat":43.28156,"lon":5.42642,"is_reserved":false,"is_disabled":true,"rental_uris":{"android":"levelo://app?vid=2e95a691-d7d8-426b-8dba-47b6b56c6a41","ios":"levelo://app?vid=2e95a691-d7d8-426b-8dba-47b6b56c6a41"},"vehicle_type_id":"4","last_reported":1732831701,"current_range_meters":0,"station_id":"ce4bhnh2rcd13ifvqgug","pricing_plan_id":"cebpf4jnsgd1na2vs0mg"},{"bike_id":"c2da9a32-11bc-4fe0-8a48-9b682c55e15f","system_id":"levelo_inurba_marseille","lat":43.28045,"lon":5.36952,"is_reserved":false,"is_disabled":false,"rental_uris":{"android":"levelo://app?vid=c2da9a32-11bc-4fe0-8a48-9b682c55e15f","ios":"levelo://app?vid=c2da9a32-11bc-4fe0-8a48-9b682c55e15f"},"vehicle_type_id":"4","last_reported":1732831701,"current_range_meters":40000,"station_id":"ce4bha12rcd13ifvqef0","pricing_plan_id":"cebpf4jnsgd1na2vs0mg"},{"bike_id":"17471949-be60-4330-83d9-2ab6367f30cf","system_id":"levelo_inurba_marseille","lat":43.26937,"lon":5.38932,"is_reserved":false,"is_disabled":false,"rental_uris":{"android":"levelo://app?vid=17471949-be60-4330-83d9-2ab6367f30cf","ios":"levelo://app?vid=17471949-be60-4330-83d9-2ab6367f30cf"},"vehicle_type_id":"4","last_reported":1732831701,"current_range_meters":34800,"station_id":"ce4bhhh2rcd13ifvqfl0","pricing_plan_id":"cebpf4jnsgd1na2vs0mg"},{"bike_id":"4aa958d1-c3c5-44e5-b08d-f97580abbed0","system_id":"levelo_inurba_marseille","lat":43.28852,"lon":5.35856,"is_reserved":false,"is_disabled":false,"rental_uris":{"android":"levelo://app?vid=4aa958d1-c3c5-44e5-b08d-f97580abbed0","ios":"levelo://app?vid=4aa958d1-c3c5-44e5-b08d-f97580abbed0"},"vehicle_type_id":"4","last_reported":1732831701,"current_range_meters":38000,"station_id":"ce4bhb12rcd13ifvqem0","pricing_plan_id":"cebpf4jnsgd1na2vs0mg"},{"bike_id":"4adfe8d8-96d7-4c88-ab44-7ef6a8f2bf9d","system_id":"levelo_inurba_marseille","lat":43.31333,"lon":5.39703,"is_reserved":false,"is_disabled":false,"rental_uris":{"android":"levelo://app?vid=4adfe8d8-96d7-4c88-ab44-7ef6a8f2bf9d","ios":"levelo://app?vid=4adfe8d8-96d7-4c88-ab44-7ef6a8f2bf9d"},"vehicle_type_id":"4","last_reported":1732831701,"current_range_meters":38400,"station_id":"ce4bgvp2rcd13ifvqcu0","pricing_plan_id":"cebpf4jnsgd1na2vs0mg"},{"bike_id":"082b7cd2-9ce0-4486-9a82-02cf1ca7a2c3","system_id":"levelo_inurba_marseille","lat":43.3117,"lon":5.38723,"is_reserved":false,"is_disabled":false,"rental_uris":{"android":"levelo://app?vid=082b7cd2-9ce0-4486-9a82-02cf1ca7a2c3","ios":"levelo://app?vid=082b7cd2-9ce0-4486-9a82-02cf1ca7a2c3"},"vehicle_type_id":"4","last_reported":1732831701,"current_range_meters":38800,"station_id":"ce4bgv12rcd13ifvqcp0","pricing_plan_id":"cebpf4jnsgd1na2vs0mg"},{"bike_id":"26b2c14d-3aff-4e9e-933d-91ae202dcf09","system_id":"levelo_inurba_marseille","lat":43.31073,"lon":5.3835,"is_reserved":false,"is_disabled":false,"rental_uris":{"android":"levelo://app?vid=26b2c14d-3aff-4e9e-933d-91ae202dcf09","ios":"levelo://app?vid=26b2c14d-3aff-4e9e-933d-91ae202dcf09"},"vehicle_type_id":"4","last_reported":1732831701,"current_range_meters":8000,"station_id":"ce4bgv92rcd13ifvqcr0","pricing_plan_id":"cebpf4jnsgd1na2vs0mg"},{"bike_id":"d31969a2-e036-460c-a7db-c18d1a5bec8f","system_id":"levelo_inurba_marseille","lat":43.27815,"lon":5.40723,"is_reserved":false,"is_disabled":false,"rental_uris":{"android":"levelo://app?vid=d31969a2-e036-460c-a7db-c18d1a5bec8f","ios":"levelo://app?vid=d31969a2-e036-460c-a7db-c18d1a5bec8f"},"vehicle_type_id":"4","last_reported":1732831701,"current_range_meters":37600,"station_id":"ce4bhnh2rcd13ifvqgtg","pricing_plan_id":"cebpf4jnsgd1na2vs0mg"},{"bike_id":"e51b2acb-d883-446b-9ce9-347608453ece","system_id":"levelo_inurba_marseille","lat":43.22928,"lon":5.35381,"is_reserved":false,"is_disabled":false,"rental_uris":{"android":"levelo://app?vid=e51b2acb-d883-446b-9ce9-347608453ece","ios":"levelo://app?vid=e51b2acb-d883-446b-9ce9-347608453ece"},"vehicle_type_id":"4","last_reported":1732831701,"current_range_meters":39200,"station_id":"cpo3532slgdg3j2ikp40","pricing_plan_id":"cebpf4jnsgd1na2vs0mg"},{"bike_id":"3086611e-2b5c-4be0-860a-c70d388b9380","system_id":"levelo_inurba_marseille","lat":43.28178,"lon":5.37909,"is_reserved":false,"is_disabled":false,"rental_uris":{"android":"levelo://app?vid=3086611e-2b5c-4be0-860a-c70d388b9380","ios":"levelo://app?vid=3086611e-2b5c-4be0-860a-c70d388b9380"},"vehicle_type_id":"4","last_reported":1732831701,"current_range_meters":33600,"station_id":"ce4bha12rcd13ifvqee0","pricing_plan_id":"cebpf4jnsgd1na2vs0mg"},{"bike_id":"93bf632f-9c2c-453f-931e-3a26e12fd5f1","system_id":"levelo_inurba_marseille","lat":43.30143,"lon":5.39882,"is_reserved":false,"is_disabled":true,"rental_uris":{"android":"levelo://app?vid=93bf632f-9c2c-453f-931e-3a26e12fd5f1","ios":"levelo://app?vid=93bf632f-9c2c-453f-931e-3a26e12fd5f1"},"vehicle_type_id":"4","last_reported":1732831701,"current_range_meters":36800,"station_id":"ce4bh0h2rcd13ifvqd40","pricing_plan_id":"cebpf4jnsgd1na2vs0mg"},{"bike_id":"7b9c3edf-11af-47c6-8ab6-e243f72b6d38","system_id":"levelo_inurba_marseille","lat":43.29891,"lon":5.39729,"is_reserved":false,"is_disabled":false,"rental_uris":{"android":"levelo://app?vid=7b9c3edf-11af-47c6-8ab6-e243f72b6d38","ios":"levelo://app?vid=7b9c3edf-11af-47c6-8ab6-e243f72b6d38"},"vehicle_type_id":"4","last_reported":1732831701,"current_range_meters":33600,"station_id":"ce4bh0h2rcd13ifvqd50","pricing_plan_id":"cebpf4jnsgd1na2vs0mg"},{"bike_id":"fe1c6c60-0f4f-4b5c-a7ea-9f2ff8347245","system_id":"levelo_inurba_marseille","lat":43.27619,"lon":5.36112,"is_reserved":false,"is_disabled":true,"rental_uris":{"android":"levelo://app?vid=fe1c6c60-0f4f-4b5c-a7ea-9f2ff8347245","ios":"levelo://app?vid=fe1c6c60-0f4f-4b5c-a7ea-9f2ff8347245"},"vehicle_type_id":"4","last_reported":1732831701,"current_range_meters":1200,"station_id":"ce4bgj92rcd13ifvqbe0","pricing_plan_id":"cebpf4jnsgd1na2vs0mg"},{"bike_id":"0b2767ab-05b3-4920-b729-040e574ddee7","system_id":"levelo_inurba_marseille","lat":43.26519,"lon":5.3955,"is_reserved":false,"is_disabled":false,"rental_uris":{"android":"levelo://app?vid=0b2767ab-05b3-4920-b729-040e574ddee7","ios":"levelo://app?vid=0b2767ab-05b3-4920-b729-040e574ddee7"},"vehicle_type_id":"4","last_reported":1732831701,"current_range_meters":32000,"station_id":"ce4bhi12rcd13ifvqfq0","pricing_plan_id":"cebpf4jnsgd1na2vs0mg"},{"bike_id":"371abac0-5dd0-42bb-a641-ca0cac7a118a","system_id":"levelo_inurba_marseille","lat":43.27678,"lon":5.38923,"is_reserved":false,"is_disabled":true,"rental_uris":{"android":"levelo://app?vid=371abac0-5dd0-42bb-a641-ca0cac7a118a","ios":"levelo://app?vid=371abac0-5dd0-42bb-a641-ca0cac7a118a"},"vehicle_type_id":"4","last_reported":1732831701,"current_range_meters":0,"station_id":"ce4bhi12rcd13ifvqfo0","pricing_plan_id":"cebpf4jnsgd1na2vs0mg"},{"bike_id":"36b8e559-af12-4230-9101-223ec590d7f3","system_id":"levelo_inurba_marseille","lat":43.32544,"lon":5.41423,"is_reserved":false,"is_disabled":false,"rental_uris":{"android":"levelo://app?vid=36b8e559-af12-4230-9101-223ec590d7f3","ios":"levelo://app?vid=36b8e559-af12-4230-9101-223ec590d7f3"},"vehicle_type_id":"4","last_reported":1732831701,"current_range_meters":27600,"station_id":"ce4bhq12rcd13ifvqhhg","pricing_plan_id":"cebpf4jnsgd1na2vs0mg"},{"bike_id":"44692518-f307-4d34-bde3-20456f8e1767","system_id":"levelo_inurba_marseille","lat":43.27438,"lon":5.39032,"is_reserved":false,"is_disabled":false,"rental_uris":{"android":"levelo://app?vid=44692518-f307-4d34-bde3-20456f8e1767","ios":"levelo://app?vid=44692518-f307-4d34-bde3-20456f8e1767"},"vehicle_type_id":"4","last_reported":1732831701,"current_range_meters":27600,"station_id":"","pricing_plan_id":"cebpf4jnsgd1na2vs0mg"},{"bike_id":"5c3f8400-4780-45e6-a7bb-4b23f8d5af2b","system_id":"levelo_inurba_marseille","lat":43.28112,"lon":5.42759,"is_reserved":false,"is_disabled":true,"rental_uris":{"android":"levelo://app?vid=5c3f8400-4780-45e6-a7bb-4b23f8d5af2b","ios":"levelo://app?vid=5c3f8400-4780-45e6-a7bb-4b23f8d5af2b"},"vehicle_type_id":"4","last_reported":1732831701,"current_range_meters":0,"station_id":"ce4bh192rcd13ifvqdc0","pricing_plan_id":"cebpf4jnsgd1na2vs0mg"},{"bike_id":"0ab9a5ea-e750-499a-a57a-6204ba05a6e1","system_id":"levelo_inurba_marseille","lat":43.28613,"lon":5.35099,"is_reserved":false,"is_disabled":false,"rental_uris":{"android":"levelo://app?vid=0ab9a5ea-e750-499a-a57a-6204ba05a6e1","ios":"levelo://app?vid=0ab9a5ea-e750-499a-a57a-6204ba05a6e1"},"vehicle_type_id":"4","last_reported":1732831701,"current_range_meters":19200,"station_id":"ce4bhch2rcd13ifvqeug","pricing_plan_id":"cebpf4jnsgd1na2vs0mg"},{"bike_id":"d504b970-16df-409f-bd2d-b399e212631e","system_id":"levelo_inurba_marseille","lat":43.23181,"lon":5.39993,"is_reserved":false,"is_disabled":false,"rental_uris":{"android":"levelo://app?vid=d504b970-16df-409f-bd2d-b399e212631e","ios":"levelo://app?vid=d504b970-16df-409f-bd2d-b399e212631e"},"vehicle_type_id":"4","last_reported":1732831701,"current_range_meters":31200,"station_id":"ce4bhn12rcd13ifvqgqg","pricing_plan_id":"cebpf4jnsgd1na2vs0mg"},{"bike_id":"528ee39b-142f-4cf2-a039-0b01428d9212","system_id":"levelo_inurba_marseille","lat":43.28618,"lon":5.35108,"is_reserved":false,"is_disabled":false,"rental_uris":{"android":"levelo://app?vid=528ee39b-142f-4cf2-a039-0b01428d9212","ios":"levelo://app?vid=528ee39b-142f-4cf2-a039-0b01428d9212"},"vehicle_type_id":"4","last_reported":1732831701,"current_range_meters":38400,"station_id":"ce4bhch2rcd13ifvqeug","pricing_plan_id":"cebpf4jnsgd1na2vs0mg"},{"bike_id":"e42c3730-6b48-4ecf-b483-e2c2e24c4f25","system_id":"levelo_inurba_marseille","lat":43.2782,"lon":5.40724,"is_reserved":false,"is_disabled":false,"rental_uris":{"android":"levelo://app?vid=e42c3730-6b48-4ecf-b483-e2c2e24c4f25","ios":"levelo://app?vid=e42c3730-6b48-4ecf-b483-e2c2e24c4f25"},"vehicle_type_id":"4","last_reported":1732831701,"current_range_meters":38400,"station_id":"ce4bhnh2rcd13ifvqgtg","pricing_plan_id":"cebpf4jnsgd1na2vs0mg"},{"bike_id":"3f6f4a2b-d15e-4ac3-9081-84f79781513d","system_id":"levelo_inurba_marseille","lat":43.28723,"lon":5.36093,"is_reserved":false,"is_disabled":false,"rental_uris":{"android":"levelo://app?vid=3f6f4a2b-d15e-4ac3-9081-84f79781513d","ios":"levelo://app?vid=3f6f4a2b-d15e-4ac3-9081-84f79781513d"},"vehicle_type_id":"4","last_reported":1732831701,"current_range_meters":14000,"station_id":"cki0cbj6b192h4jlfktg","pricing_plan_id":"cebpf4jnsgd1na2vs0mg"},{"bike_id":"f21afc80-3ec1-4dbd-ba0c-da243dc5e81e","system_id":"levelo_inurba_marseille","lat":43.31697,"lon":5.37745,"is_reserved":false,"is_disabled":false,"rental_uris":{"android":"levelo://app?vid=f21afc80-3ec1-4dbd-ba0c-da243dc5e81e","ios":"levelo://app?vid=f21afc80-3ec1-4dbd-ba0c-da243dc5e81e"},"vehicle_type_id":"4","last_reported":1732831701,"current_range_meters":36800,"station_id":"ce4bgth2rcd13ifvqch0","pricing_plan_id":"cebpf4jnsgd1na2vs0mg"},{"bike_id":"a11c87cd-c5ed-4a29-ba8a-78abe7a5d984","system_id":"levelo_inurba_marseille","lat":43.2783,"lon":5.39204,"is_reserved":false,"is_disabled":true,"rental_uris":{"android":"levelo://app?vid=a11c87cd-c5ed-4a29-ba8a-78abe7a5d984","ios":"levelo://app?vid=a11c87cd-c5ed-4a29-ba8a-78abe7a5d984"},"vehicle_type_id":"4","last_reported":1732831701,"current_range_meters":30400,"station_id":"ce4bhjp2rcd13ifvqga0","pricing_plan_id":"cebpf4jnsgd1na2vs0mg"},{"bike_id":"3e5a2e41-79f4-4430-a7cc-8ebc5970d02f","system_id":"levelo_inurba_marseille","lat":43.29023,"lon":5.38135,"is_reserved":false,"is_disabled":true,"rental_uris":{"android":"levelo://app?vid=3e5a2e41-79f4-4430-a7cc-8ebc5970d02f","ios":"levelo://app?vid=3e5a2e41-79f4-4430-a7cc-8ebc5970d02f"},"vehicle_type_id":"4","last_reported":1732831701,"current_range_meters":18000,"station_id":"ce4bh4p2rcd13ifvqe1g","pricing_plan_id":"cebpf4jnsgd1na2vs0mg"},{"bike_id":"9d95c138-91c4-40e0-a45c-c4e828158f44","system_id":"levelo_inurba_marseille","lat":43.31087,"lon":5.38361,"is_reserved":false,"is_disabled":false,"rental_uris":{"android":"levelo://app?vid=9d95c138-91c4-40e0-a45c-c4e828158f44","ios":"levelo://app?vid=9d95c138-91c4-40e0-a45c-c4e828158f44"},"vehicle_type_id":"4","last_reported":1732831701,"current_range_meters":28800,"station_id":"ce4bgv92rcd13ifvqcr0","pricing_plan_id":"cebpf4jnsgd1na2vs0mg"},{"bike_id":"75486131-8e85-4448-87a1-67a7e3096de4","system_id":"levelo_inurba_marseille","lat":43.30938,"lon":5.37901,"is_reserved":false,"is_disabled":true,"rental_uris":{"android":"levelo://app?vid=75486131-8e85-4448-87a1-67a7e3096de4","ios":"levelo://app?vid=75486131-8e85-4448-87a1-67a7e3096de4"},"vehicle_type_id":"4","last_reported":1732831701,"current_range_meters":400,"station_id":"","pricing_plan_id":"cebpf4jnsgd1na2vs0mg"},{"bike_id":"a5909545-3e09-4859-9fda-9ffe4e6e4883","system_id":"levelo_inurba_marseille","lat":43.23067,"lon":5.35499,"is_reserved":false,"is_disabled":false,"rental_uris":{"android":"levelo://app?vid=a5909545-3e09-4859-9fda-9ffe4e6e4883","ios":"levelo://app?vid=a5909545-3e09-4859-9fda-9ffe4e6e4883"},"vehicle_type_id":"4","last_reported":1732831701,"current_range_meters":21600,"station_id":"cpo3342slgdg3j2ifvpg","pricing_plan_id":"cebpf4jnsgd1na2vs0mg"},{"bike_id":"784030d3-5f25-464c-adae-5cf44ab50f7e","system_id":"levelo_inurba_marseille","lat":43.27942,"lon":5.41053,"is_reserved":false,"is_disabled":false,"rental_uris":{"android":"levelo://app?vid=784030d3-5f25-464c-adae-5cf44ab50f7e","ios":"levelo://app?vid=784030d3-5f25-464c-adae-5cf44ab50f7e"},"vehicle_type_id":"4","last_reported":1732831701,"current_range_meters":30800,"station_id":"ce4bhnp2rcd13ifvqh0g","pricing_plan_id":"cebpf4jnsgd1na2vs0mg"},{"bike_id":"b6b1f691-f5d4-4437-a273-f7c9759cc4c1","system_id":"levelo_inurba_marseille","lat":43.29201,"lon":5.39321,"is_reserved":false,"is_disabled":true,"rental_uris":{"android":"levelo://app?vid=b6b1f691-f5d4-4437-a273-f7c9759cc4c1","ios":"levelo://app?vid=b6b1f691-f5d4-4437-a273-f7c9759cc4c1"},"vehicle_type_id":"4","last_reported":1732831701,"current_range_meters":38800,"station_id":"ce4bh192rcd13ifvqdd0","pricing_plan_id":"cebpf4jnsgd1na2vs0mg"},{"bike_id":"1f3be82a-39fb-49be-9f70-2df7092d6f3c","system_id":"levelo_inurba_marseille","lat":43.32484,"lon":5.36589,"is_reserved":false,"is_disabled":false,"rental_uris":{"android":"levelo://app?vid=1f3be82a-39fb-49be-9f70-2df7092d6f3c","ios":"levelo://app?vid=1f3be82a-39fb-49be-9f70-2df7092d6f3c"},"vehicle_type_id":"4","last_reported":1732831701,"current_range_meters":16000,"station_id":"ce4bhs12rcd13ifvqhvg","pricing_plan_id":"cebpf4jnsgd1na2vs0mg"},{"bike_id":"84bda7a6-94ab-4fb2-af3e-8fdc74d42e94","system_id":"levelo_inurba_marseille","lat":43.32044,"lon":5.41552,"is_reserved":false,"is_disabled":false,"rental_uris":{"android":"levelo://app?vid=84bda7a6-94ab-4fb2-af3e-8fdc74d42e94","ios":"levelo://app?vid=84bda7a6-94ab-4fb2-af3e-8fdc74d42e94"},"vehicle_type_id":"4","last_reported":1732831701,"current_range_meters":25600,"station_id":"ce4bhq92rcd13ifvqhkg","pricing_plan_id":"cebpf4jnsgd1na2vs0mg"},{"bike_id":"2236d2a1-548b-4376-9b92-f83133b3c2af","system_id":"levelo_inurba_marseille","lat":43.29599,"lon":5.3811,"is_reserved":false,"is_disabled":false,"rental_uris":{"android":"levelo://app?vid=2236d2a1-548b-4376-9b92-f83133b3c2af","ios":"levelo://app?vid=2236d2a1-548b-4376-9b92-f83133b3c2af"},"vehicle_type_id":"4","last_reported":1732831701,"current_range_meters":12800,"station_id":"ce4bgl12rcd13ifvqbo0","pricing_plan_id":"cebpf4jnsgd1na2vs0mg"},{"bike_id":"3386ced5-0306-44cd-8554-861a220df651","system_id":"levelo_inurba_marseille","lat":43.27075,"lon":5.42282,"is_reserved":false,"is_disabled":false,"rental_uris":{"android":"levelo://app?vid=3386ced5-0306-44cd-8554-861a220df651","ios":"levelo://app?vid=3386ced5-0306-44cd-8554-861a220df651"},"vehicle_type_id":"4","last_reported":1732831701,"current_range_meters":30000,"station_id":"ce4bhk92rcd13ifvqgb0","pricing_plan_id":"cebpf4jnsgd1na2vs0mg"},{"bike_id":"e5951ee3-4a5a-4ebb-b469-096c5188dfa3","system_id":"levelo_inurba_marseille","lat":43.23191,"lon":5.35555,"is_reserved":false,"is_disabled":false,"rental_uris":{"android":"levelo://app?vid=e5951ee3-4a5a-4ebb-b469-096c5188dfa3","ios":"levelo://app?vid=e5951ee3-4a5a-4ebb-b469-096c5188dfa3"},"vehicle_type_id":"4","last_reported":1732831701,"current_range_meters":26800,"station_id":"ce4bhu92rcd13ifvqi70","pricing_plan_id":"cebpf4jnsgd1na2vs0mg"},{"bike_id":"fa752033-1174-43fb-8486-34191954878c","system_id":"levelo_inurba_marseille","lat":43.27941,"lon":5.41054,"is_reserved":false,"is_disabled":false,"rental_uris":{"android":"levelo://app?vid=fa752033-1174-43fb-8486-34191954878c","ios":"levelo://app?vid=fa752033-1174-43fb-8486-34191954878c"},"vehicle_type_id":"4","last_reported":1732831701,"current_range_meters":24800,"station_id":"ce4bhnp2rcd13ifvqh0g","pricing_plan_id":"cebpf4jnsgd1na2vs0mg"},{"bike_id":"25e723ed-795c-4cf9-a7dd-b8dedecd2a8c","system_id":"levelo_inurba_marseille","lat":43.30083,"lon":5.39073,"is_reserved":false,"is_disabled":false,"rental_uris":{"android":"levelo://app?vid=25e723ed-795c-4cf9-a7dd-b8dedecd2a8c","ios":"levelo://app?vid=25e723ed-795c-4cf9-a7dd-b8dedecd2a8c"},"vehicle_type_id":"4","last_reported":1732831701,"current_range_meters":32000,"station_id":"ce4bh192rcd13ifvqdb0","pricing_plan_id":"cebpf4jnsgd1na2vs0mg"},{"bike_id":"cc633f01-bdc8-430a-91b8-8b9dcc960bcd","system_id":"levelo_inurba_marseille","lat":43.32289,"lon":5.38291,"is_reserved":false,"is_disabled":false,"rental_uris":{"android":"levelo://app?vid=cc633f01-bdc8-430a-91b8-8b9dcc960bcd","ios":"levelo://app?vid=cc633f01-bdc8-430a-91b8-8b9dcc960bcd"},"vehicle_type_id":"4","last_reported":1732831701,"current_range_meters":39200,"station_id":"ce4bhr12rcd13ifvqhqg","pricing_plan_id":"cebpf4jnsgd1na2vs0mg"},{"bike_id":"2db022f4-90f1-4302-b6e8-8c6cdc0210a7","system_id":"levelo_inurba_marseille","lat":43.32543,"lon":5.41457,"is_reserved":false,"is_disabled":false,"rental_uris":{"android":"levelo://app?vid=2db022f4-90f1-4302-b6e8-8c6cdc0210a7","ios":"levelo://app?vid=2db022f4-90f1-4302-b6e8-8c6cdc0210a7"},"vehicle_type_id":"4","last_reported":1732831701,"current_range_meters":38000,"station_id":"ce4bhq12rcd13ifvqhhg","pricing_plan_id":"cebpf4jnsgd1na2vs0mg"},{"bike_id":"6af8456e-bf83-48d8-8c46-e2069ed79b1b","system_id":"levelo_inurba_marseille","lat":43.2717,"lon":5.40992,"is_reserved":false,"is_disabled":false,"rental_uris":{"android":"levelo://app?vid=6af8456e-bf83-48d8-8c46-e2069ed79b1b","ios":"levelo://app?vid=6af8456e-bf83-48d8-8c46-e2069ed79b1b"},"vehicle_type_id":"4","last_reported":1732831701,"current_range_meters":36800,"station_id":"ce4bhl12rcd13ifvqgf0","pricing_plan_id":"cebpf4jnsgd1na2vs0mg"},{"bike_id":"c0a660c5-61cb-4528-9d0d-4f4d7f62050a","system_id":"levelo_inurba_marseille","lat":43.29539,"lon":5.38555,"is_reserved":false,"is_disabled":false,"rental_uris":{"android":"levelo://app?vid=c0a660c5-61cb-4528-9d0d-4f4d7f62050a","ios":"levelo://app?vid=c0a660c5-61cb-4528-9d0d-4f4d7f62050a"},"vehicle_type_id":"4","last_reported":1732831701,"current_range_meters":38000,"station_id":"ce4bgih2rcd13ifvqba0","pricing_plan_id":"cebpf4jnsgd1na2vs0mg"},{"bike_id":"2a75dead-01eb-416b-bf7a-87fb5392efa0","system_id":"levelo_inurba_marseille","lat":43.24653,"lon":5.38894,"is_reserved":false,"is_disabled":false,"rental_uris":{"android":"levelo://app?vid=2a75dead-01eb-416b-bf7a-87fb5392efa0","ios":"levelo://app?vid=2a75dead-01eb-416b-bf7a-87fb5392efa0"},"vehicle_type_id":"4","last_reported":1732831701,"current_range_meters":38000,"station_id":"ce4bhg12rcd13ifvqf60","pricing_plan_id":"cebpf4jnsgd1na2vs0mg"},{"bike_id":"de8dedfd-c65e-4ce5-b8ec-b5ab34a22a6e","system_id":"levelo_inurba_marseille","lat":43.27072,"lon":5.42284,"is_reserved":false,"is_disabled":true,"rental_uris":{"android":"levelo://app?vid=de8dedfd-c65e-4ce5-b8ec-b5ab34a22a6e","ios":"levelo://app?vid=de8dedfd-c65e-4ce5-b8ec-b5ab34a22a6e"},"vehicle_type_id":"4","last_reported":1732831701,"current_range_meters":38800,"station_id":"ce4bhk92rcd13ifvqgb0","pricing_plan_id":"cebpf4jnsgd1na2vs0mg"},{"bike_id":"88017654-35c5-46a0-bf88-dad2fc7092a1","system_id":"levelo_inurba_marseille","lat":43.31542,"lon":5.38028,"is_reserved":false,"is_disabled":false,"rental_uris":{"android":"levelo://app?vid=88017654-35c5-46a0-bf88-dad2fc7092a1","ios":"levelo://app?vid=88017654-35c5-46a0-bf88-dad2fc7092a1"},"vehicle_type_id":"4","last_reported":1732831701,"current_range_meters":3200,"station_id":"ce4bhsp2rcd13ifvqi50","pricing_plan_id":"cebpf4jnsgd1na2vs0mg"},{"bike_id":"edd0c985-8684-4759-8848-5b0ccc1b8086","system_id":"levelo_inurba_marseille","lat":43.3137,"lon":5.38504,"is_reserved":false,"is_disabled":false,"rental_uris":{"android":"levelo://app?vid=edd0c985-8684-4759-8848-5b0ccc1b8086","ios":"levelo://app?vid=edd0c985-8684-4759-8848-5b0ccc1b8086"},"vehicle_type_id":"4","last_reported":1732831701,"current_range_meters":18800,"station_id":"ce4bgt92rcd13ifvqcf0","pricing_plan_id":"cebpf4jnsgd1na2vs0mg"},{"bike_id":"f784cf5a-dd3d-43f1-adad-be3c2fd0dc32","system_id":"levelo_inurba_marseille","lat":43.28702,"lon":5.374,"is_reserved":false,"is_disabled":false,"rental_uris":{"android":"levelo://app?vid=f784cf5a-dd3d-43f1-adad-be3c2fd0dc32","ios":"levelo://app?vid=f784cf5a-dd3d-43f1-adad-be3c2fd0dc32"},"vehicle_type_id":"4","last_reported":1732831701,"current_range_meters":16800,"station_id":"ce4bh3p2rcd13ifvqdq0","pricing_plan_id":"cebpf4jnsgd1na2vs0mg"},{"bike_id":"6fc223c7-5ccb-4bbf-b122-e543dd0cde6c","system_id":"levelo_inurba_marseille","lat":43.31271,"lon":5.40171,"is_reserved":false,"is_disabled":false,"rental_uris":{"android":"levelo://app?vid=6fc223c7-5ccb-4bbf-b122-e543dd0cde6c","ios":"levelo://app?vid=6fc223c7-5ccb-4bbf-b122-e543dd0cde6c"},"vehicle_type_id":"4","last_reported":1732831701,"current_range_meters":31200,"station_id":"ce4bh092rcd13ifvqd30","pricing_plan_id":"cebpf4jnsgd1na2vs0mg"},{"bike_id":"d2d01e23-35ca-407f-8292-f4fa070f2e36","system_id":"levelo_inurba_marseille","lat":43.28698,"lon":5.37398,"is_reserved":false,"is_disabled":false,"rental_uris":{"android":"levelo://app?vid=d2d01e23-35ca-407f-8292-f4fa070f2e36","ios":"levelo://app?vid=d2d01e23-35ca-407f-8292-f4fa070f2e36"},"vehicle_type_id":"4","last_reported":1732831701,"current_range_meters":38400,"station_id":"ce4bh3p2rcd13ifvqdq0","pricing_plan_id":"cebpf4jnsgd1na2vs0mg"},{"bike_id":"266f9964-f4ae-4929-8778-af4024a2fff6","system_id":"levelo_inurba_marseille","lat":43.28721,"lon":5.37947,"is_reserved":false,"is_disabled":false,"rental_uris":{"android":"levelo://app?vid=266f9964-f4ae-4929-8778-af4024a2fff6","ios":"levelo://app?vid=266f9964-f4ae-4929-8778-af4024a2fff6"},"vehicle_type_id":"4","last_reported":1732831701,"current_range_meters":30000,"station_id":"ce4bh9p2rcd13ifvqec0","pricing_plan_id":"cebpf4jnsgd1na2vs0mg"},{"bike_id":"578fdc00-705f-40b4-a428-4e42566d7852","system_id":"levelo_inurba_marseille","lat":43.29529,"lon":5.39055,"is_reserved":false,"is_disabled":false,"rental_uris":{"android":"levelo://app?vid=578fdc00-705f-40b4-a428-4e42566d7852","ios":"levelo://app?vid=578fdc00-705f-40b4-a428-4e42566d7852"},"vehicle_type_id":"4","last_reported":1732831701,"current_range_meters":32800,"station_id":"ce4bh3p2rcd13ifvqdp0","pricing_plan_id":"cebpf4jnsgd1na2vs0mg"},{"bike_id":"3a3b1b2b-9521-4bba-ba92-f3603821bdb4","system_id":"levelo_inurba_marseille","lat":43.25579,"lon":5.38236,"is_reserved":false,"is_disabled":false,"rental_uris":{"android":"levelo://app?vid=3a3b1b2b-9521-4bba-ba92-f3603821bdb4","ios":"levelo://app?vid=3a3b1b2b-9521-4bba-ba92-f3603821bdb4"},"vehicle_type_id":"4","last_reported":1732831701,"current_range_meters":27600,"station_id":"ce4bhih2rcd13ifvqfs0","pricing_plan_id":"cebpf4jnsgd1na2vs0mg"},{"bike_id":"6cdca301-a6f9-46d8-b774-ea570d50511a","system_id":"levelo_inurba_marseille","lat":43.25089,"lon":5.39524,"is_reserved":false,"is_disabled":false,"rental_uris":{"android":"levelo://app?vid=6cdca301-a6f9-46d8-b774-ea570d50511a","ios":"levelo://app?vid=6cdca301-a6f9-46d8-b774-ea570d50511a"},"vehicle_type_id":"4","last_reported":1732831701,"current_range_meters":31200,"station_id":"ce4bhm12rcd13ifvqgkg","pricing_plan_id":"cebpf4jnsgd1na2vs0mg"},{"bike_id":"33bf1025-74fc-459b-80d7-32d3fa18da7f","system_id":"levelo_inurba_marseille","lat":43.32335,"lon":5.40623,"is_reserved":false,"is_disabled":false,"rental_uris":{"android":"levelo://app?vid=33bf1025-74fc-459b-80d7-32d3fa18da7f","ios":"levelo://app?vid=33bf1025-74fc-459b-80d7-32d3fa18da7f"},"vehicle_type_id":"4","last_reported":1732831701,"current_range_meters":27600,"station_id":"ce4bhq92rcd13ifvqhjg","pricing_plan_id":"cebpf4jnsgd1na2vs0mg"},{"bike_id":"e666f953-78ae-4769-9367-523118478078","system_id":"levelo_inurba_marseille","lat":43.28106,"lon":5.37834,"is_reserved":false,"is_disabled":true,"rental_uris":{"android":"levelo://app?vid=e666f953-78ae-4769-9367-523118478078","ios":"levelo://app?vid=e666f953-78ae-4769-9367-523118478078"},"vehicle_type_id":"4","last_reported":1732831701,"current_range_meters":0,"station_id":"ce4bha12rcd13ifvqee0","pricing_plan_id":"cebpf4jnsgd1na2vs0mg"},{"bike_id":"6108fa7b-e921-434d-b33c-8c98fca98dfc","system_id":"levelo_inurba_marseille","lat":43.28109,"lon":5.37845,"is_reserved":false,"is_disabled":false,"rental_uris":{"android":"levelo://app?vid=6108fa7b-e921-434d-b33c-8c98fca98dfc","ios":"levelo://app?vid=6108fa7b-e921-434d-b33c-8c98fca98dfc"},"vehicle_type_id":"4","last_reported":1732831701,"current_range_meters":34800,"station_id":"ce4bha12rcd13ifvqee0","pricing_plan_id":"cebpf4jnsgd1na2vs0mg"},{"bike_id":"0b67c11a-7f61-471c-b133-c725ccafd423","system_id":"levelo_inurba_marseille","lat":43.28937,"lon":5.36408,"is_reserved":false,"is_disabled":false,"rental_uris":{"android":"levelo://app?vid=0b67c11a-7f61-471c-b133-c725ccafd423","ios":"levelo://app?vid=0b67c11a-7f61-471c-b133-c725ccafd423"},"vehicle_type_id":"4","last_reported":1732831701,"current_range_meters":37600,"station_id":"ce4bhc92rcd13ifvqetg","pricing_plan_id":"cebpf4jnsgd1na2vs0mg"},{"bike_id":"3de20e07-1cb2-4fe4-9dfd-3f7b198e784f","system_id":"levelo_inurba_marseille","lat":43.29587,"lon":5.36742,"is_reserved":false,"is_disabled":false,"rental_uris":{"android":"levelo://app?vid=3de20e07-1cb2-4fe4-9dfd-3f7b198e784f","ios":"levelo://app?vid=3de20e07-1cb2-4fe4-9dfd-3f7b198e784f"},"vehicle_type_id":"4","last_reported":1732831701,"current_range_meters":19600,"station_id":"ce4bgph2rcd13ifvqc2g","pricing_plan_id":"cebpf4jnsgd1na2vs0mg"},{"bike_id":"43746d86-8a13-4845-9faf-ae69b548d714","system_id":"levelo_inurba_marseille","lat":43.29459,"lon":5.37917,"is_reserved":false,"is_disabled":true,"rental_uris":{"android":"levelo://app?vid=43746d86-8a13-4845-9faf-ae69b548d714","ios":"levelo://app?vid=43746d86-8a13-4845-9faf-ae69b548d714"},"vehicle_type_id":"4","last_reported":1732831701,"current_range_meters":0,"station_id":"","pricing_plan_id":"cebpf4jnsgd1na2vs0mg"},{"bike_id":"36603975-a82a-4e80-bfd2-6b7269bf6b54","system_id":"levelo_inurba_marseille","lat":43.32658,"lon":5.40992,"is_reserved":false,"is_disabled":true,"rental_uris":{"android":"levelo://app?vid=36603975-a82a-4e80-bfd2-6b7269bf6b54","ios":"levelo://app?vid=36603975-a82a-4e80-bfd2-6b7269bf6b54"},"vehicle_type_id":"4","last_reported":1732831701,"current_range_meters":0,"station_id":"ce4bhpp2rcd13ifvqhgg","pricing_plan_id":"cebpf4jnsgd1na2vs0mg"},{"bike_id":"867f2eee-3850-4e4a-9654-c8d051c37d1c","system_id":"levelo_inurba_marseille","lat":43.30893,"lon":5.39664,"is_reserved":false,"is_disabled":false,"rental_uris":{"android":"levelo://app?vid=867f2eee-3850-4e4a-9654-c8d051c37d1c","ios":"levelo://app?vid=867f2eee-3850-4e4a-9654-c8d051c37d1c"},"vehicle_type_id":"4","last_reported":1732831701,"current_range_meters":3200,"station_id":"ce4bh012rcd13ifvqcv0","pricing_plan_id":"cebpf4jnsgd1na2vs0mg"},{"bike_id":"24475bbe-d591-422d-886b-4e03bfa37464","system_id":"levelo_inurba_marseille","lat":43.2319,"lon":5.39978,"is_reserved":false,"is_disabled":false,"rental_uris":{"android":"levelo://app?vid=24475bbe-d591-422d-886b-4e03bfa37464","ios":"levelo://app?vid=24475bbe-d591-422d-886b-4e03bfa37464"},"vehicle_type_id":"4","last_reported":1732831701,"current_range_meters":38800,"station_id":"ce4bhn12rcd13ifvqgqg","pricing_plan_id":"cebpf4jnsgd1na2vs0mg"},{"bike_id":"f21851d2-4b6a-4ef0-a92f-0a09916706ce","system_id":"levelo_inurba_marseille","lat":43.27187,"lon":5.41001,"is_reserved":false,"is_disabled":false,"rental_uris":{"android":"levelo://app?vid=f21851d2-4b6a-4ef0-a92f-0a09916706ce","ios":"levelo://app?vid=f21851d2-4b6a-4ef0-a92f-0a09916706ce"},"vehicle_type_id":"4","last_reported":1732831701,"current_range_meters":26000,"station_id":"ce4bhl12rcd13ifvqgf0","pricing_plan_id":"cebpf4jnsgd1na2vs0mg"},{"bike_id":"48b5ff29-f272-4faf-a81d-daa5ce069c5c","system_id":"levelo_inurba_marseille","lat":43.31285,"lon":5.38874,"is_reserved":false,"is_disabled":false,"rental_uris":{"android":"levelo://app?vid=48b5ff29-f272-4faf-a81d-daa5ce069c5c","ios":"levelo://app?vid=48b5ff29-f272-4faf-a81d-daa5ce069c5c"},"vehicle_type_id":"4","last_reported":1732831701,"current_range_meters":10000,"station_id":"","pricing_plan_id":"cebpf4jnsgd1na2vs0mg"},{"bike_id":"38f07019-7b2d-4ea4-8138-ab655e972192","system_id":"levelo_inurba_marseille","lat":43.28576,"lon":5.39505,"is_reserved":false,"is_disabled":false,"rental_uris":{"android":"levelo://app?vid=38f07019-7b2d-4ea4-8138-ab655e972192","ios":"levelo://app?vid=38f07019-7b2d-4ea4-8138-ab655e972192"},"vehicle_type_id":"4","last_reported":1732831701,"current_range_meters":38800,"station_id":"ce4bh292rcd13ifvqdg0","pricing_plan_id":"cebpf4jnsgd1na2vs0mg"},{"bike_id":"bb2d75fd-eb1e-47e2-8da6-ca4e05134df5","system_id":"levelo_inurba_marseille","lat":43.24673,"lon":5.38164,"is_reserved":false,"is_disabled":false,"rental_uris":{"android":"levelo://app?vid=bb2d75fd-eb1e-47e2-8da6-ca4e05134df5","ios":"levelo://app?vid=bb2d75fd-eb1e-47e2-8da6-ca4e05134df5"},"vehicle_type_id":"4","last_reported":1732831701,"current_range_meters":38800,"station_id":"ce4bhih2rcd13ifvqfr0","pricing_plan_id":"cebpf4jnsgd1na2vs0mg"},{"bike_id":"207ee563-28e6-4f18-b3f1-22fe6f5fb58f","system_id":"levelo_inurba_marseille","lat":43.31759,"lon":5.39022,"is_reserved":false,"is_disabled":false,"rental_uris":{"android":"levelo://app?vid=207ee563-28e6-4f18-b3f1-22fe6f5fb58f","ios":"levelo://app?vid=207ee563-28e6-4f18-b3f1-22fe6f5fb58f"},"vehicle_type_id":"4","last_reported":1732831701,"current_range_meters":30000,"station_id":"ce4bhqp2rcd13ifvqhng","pricing_plan_id":"cebpf4jnsgd1na2vs0mg"},{"bike_id":"25dafff2-f93f-4194-9f0d-2f004bae7f06","system_id":"levelo_inurba_marseille","lat":43.31227,"lon":5.36866,"is_reserved":false,"is_disabled":false,"rental_uris":{"android":"levelo://app?vid=25dafff2-f93f-4194-9f0d-2f004bae7f06","ios":"levelo://app?vid=25dafff2-f93f-4194-9f0d-2f004bae7f06"},"vehicle_type_id":"4","last_reported":1732831701,"current_range_meters":27600,"station_id":"ce4bgl92rcd13ifvqbq0","pricing_plan_id":"cebpf4jnsgd1na2vs0mg"},{"bike_id":"fc624297-e35e-4dbb-b061-c0bce6fc8715","system_id":"levelo_inurba_marseille","lat":43.28458,"lon":5.3589,"is_reserved":false,"is_disabled":false,"rental_uris":{"android":"levelo://app?vid=fc624297-e35e-4dbb-b061-c0bce6fc8715","ios":"levelo://app?vid=fc624297-e35e-4dbb-b061-c0bce6fc8715"},"vehicle_type_id":"4","last_reported":1732831701,"current_range_meters":34000,"station_id":"ce4bhah2rcd13ifvqei0","pricing_plan_id":"cebpf4jnsgd1na2vs0mg"},{"bike_id":"3b197e5a-c568-4760-aa41-5161a5428fdb","system_id":"levelo_inurba_marseille","lat":43.28002,"lon":5.40015,"is_reserved":false,"is_disabled":false,"rental_uris":{"android":"levelo://app?vid=3b197e5a-c568-4760-aa41-5161a5428fdb","ios":"levelo://app?vid=3b197e5a-c568-4760-aa41-5161a5428fdb"},"vehicle_type_id":"4","last_reported":1732831701,"current_range_meters":34000,"station_id":"ce4bho92rcd13ifvqh4g","pricing_plan_id":"cebpf4jnsgd1na2vs0mg"},{"bike_id":"9783b55c-a85e-4c32-9342-ae4463038363","system_id":"levelo_inurba_marseille","lat":43.27069,"lon":5.42285,"is_reserved":false,"is_disabled":false,"rental_uris":{"android":"levelo://app?vid=9783b55c-a85e-4c32-9342-ae4463038363","ios":"levelo://app?vid=9783b55c-a85e-4c32-9342-ae4463038363"},"vehicle_type_id":"4","last_reported":1732831701,"current_range_meters":39200,"station_id":"ce4bhk92rcd13ifvqgb0","pricing_plan_id":"cebpf4jnsgd1na2vs0mg"},{"bike_id":"73237246-d3c1-43bc-bad7-8e44028b6f2d","system_id":"levelo_inurba_marseille","lat":43.23186,"lon":5.39979,"is_reserved":false,"is_disabled":false,"rental_uris":{"android":"levelo://app?vid=73237246-d3c1-43bc-bad7-8e44028b6f2d","ios":"levelo://app?vid=73237246-d3c1-43bc-bad7-8e44028b6f2d"},"vehicle_type_id":"4","last_reported":1732831701,"current_range_meters":29600,"station_id":"ce4bhn12rcd13ifvqgqg","pricing_plan_id":"cebpf4jnsgd1na2vs0mg"},{"bike_id":"b61d80d7-b353-4771-8382-6558a9c16f91","system_id":"levelo_inurba_marseille","lat":43.31762,"lon":5.39015,"is_reserved":false,"is_disabled":false,"rental_uris":{"android":"levelo://app?vid=b61d80d7-b353-4771-8382-6558a9c16f91","ios":"levelo://app?vid=b61d80d7-b353-4771-8382-6558a9c16f91"},"vehicle_type_id":"4","last_reported":1732831701,"current_range_meters":18800,"station_id":"ce4bhqp2rcd13ifvqhng","pricing_plan_id":"cebpf4jnsgd1na2vs0mg"},{"bike_id":"fc4d15f5-6256-45a3-90d6-77bb4c676955","system_id":"levelo_inurba_marseille","lat":43.296284,"lon":5.377877,"is_reserved":false,"is_disabled":true,"rental_uris":{"android":"levelo://app?vid=fc4d15f5-6256-45a3-90d6-77bb4c676955","ios":"levelo://app?vid=fc4d15f5-6256-45a3-90d6-77bb4c676955"},"vehicle_type_id":"4","last_reported":1732831701,"current_range_meters":32000,"station_id":"","pricing_plan_id":"cebpf4jnsgd1na2vs0mg"},{"bike_id":"193ad7d0-bf6e-457d-a3b3-875844336316","system_id":"levelo_inurba_marseille","lat":43.303009,"lon":5.392082,"is_reserved":false,"is_disabled":false,"rental_uris":{"android":"levelo://app?vid=193ad7d0-bf6e-457d-a3b3-875844336316","ios":"levelo://app?vid=193ad7d0-bf6e-457d-a3b3-875844336316"},"vehicle_type_id":"4","last_reported":1732831701,"current_range_meters":36800,"station_id":"ce4bgkh2rcd13ifvqbk0","pricing_plan_id":"cebpf4jnsgd1na2vs0mg"},{"bike_id":"c88f8730-1176-4717-97e2-17c27b15274f","system_id":"levelo_inurba_marseille","lat":43.23196,"lon":5.35547,"is_reserved":false,"is_disabled":false,"rental_uris":{"android":"levelo://app?vid=c88f8730-1176-4717-97e2-17c27b15274f","ios":"levelo://app?vid=c88f8730-1176-4717-97e2-17c27b15274f"},"vehicle_type_id":"4","last_reported":1732831701,"current_range_meters":39200,"station_id":"ce4bhu92rcd13ifvqi70","pricing_plan_id":"cebpf4jnsgd1na2vs0mg"},{"bike_id":"a9e111f5-2597-4318-b5a6-43bcb08f5159","system_id":"levelo_inurba_marseille","lat":43.25737,"lon":5.41079,"is_reserved":false,"is_disabled":false,"rental_uris":{"android":"levelo://app?vid=a9e111f5-2597-4318-b5a6-43bcb08f5159","ios":"levelo://app?vid=a9e111f5-2597-4318-b5a6-43bcb08f5159"},"vehicle_type_id":"4","last_reported":1732831701,"current_range_meters":38400,"station_id":"ce4bhkp2rcd13ifvqgd0","pricing_plan_id":"cebpf4jnsgd1na2vs0mg"},{"bike_id":"7c562eba-fe26-44e4-b912-ea8d38d48658","system_id":"levelo_inurba_marseille","lat":43.29443,"lon":5.39743,"is_reserved":false,"is_disabled":false,"rental_uris":{"android":"levelo://app?vid=7c562eba-fe26-44e4-b912-ea8d38d48658","ios":"levelo://app?vid=7c562eba-fe26-44e4-b912-ea8d38d48658"},"vehicle_type_id":"4","last_reported":1732831701,"current_range_meters":35200,"station_id":"ce4bh3h2rcd13ifvqdo0","pricing_plan_id":"cebpf4jnsgd1na2vs0mg"},{"bike_id":"0ff37740-0169-4202-9147-c2c0033f6736","system_id":"levelo_inurba_marseille","lat":43.29203,"lon":5.39339,"is_reserved":false,"is_disabled":false,"rental_uris":{"android":"levelo://app?vid=0ff37740-0169-4202-9147-c2c0033f6736","ios":"levelo://app?vid=0ff37740-0169-4202-9147-c2c0033f6736"},"vehicle_type_id":"4","last_reported":1732831701,"current_range_meters":14400,"station_id":"ce4bh192rcd13ifvqdd0","pricing_plan_id":"cebpf4jnsgd1na2vs0mg"},{"bike_id":"b6ed1910-de57-401d-8b1d-af35755f9004","system_id":"levelo_inurba_marseille","lat":43.27954,"lon":5.41055,"is_reserved":false,"is_disabled":true,"rental_uris":{"android":"levelo://app?vid=b6ed1910-de57-401d-8b1d-af35755f9004","ios":"levelo://app?vid=b6ed1910-de57-401d-8b1d-af35755f9004"},"vehicle_type_id":"4","last_reported":1732831701,"current_range_meters":28000,"station_id":"ce4bhnp2rcd13ifvqh0g","pricing_plan_id":"cebpf4jnsgd1na2vs0mg"},{"bike_id":"b944efa8-8bfd-4cf3-9742-93239c780cac","system_id":"levelo_inurba_marseille","lat":43.29004,"lon":5.3562,"is_reserved":false,"is_disabled":true,"rental_uris":{"android":"levelo://app?vid=b944efa8-8bfd-4cf3-9742-93239c780cac","ios":"levelo://app?vid=b944efa8-8bfd-4cf3-9742-93239c780cac"},"vehicle_type_id":"4","last_reported":1732831701,"current_range_meters":30400,"station_id":"ce4bhb92rcd13ifvqen0","pricing_plan_id":"cebpf4jnsgd1na2vs0mg"},{"bike_id":"5d275722-e22e-48e2-8e49-a9ad07989e9d","system_id":"levelo_inurba_marseille","lat":43.25008,"lon":5.38927,"is_reserved":false,"is_disabled":false,"rental_uris":{"android":"levelo://app?vid=5d275722-e22e-48e2-8e49-a9ad07989e9d","ios":"levelo://app?vid=5d275722-e22e-48e2-8e49-a9ad07989e9d"},"vehicle_type_id":"4","last_reported":1732831701,"current_range_meters":27200,"station_id":"ce4bhgp2rcd13ifvqfd0","pricing_plan_id":"cebpf4jnsgd1na2vs0mg"},{"bike_id":"81f5e709-c4bd-4272-93cd-1096ff77da56","system_id":"levelo_inurba_marseille","lat":43.30884,"lon":5.39642,"is_reserved":false,"is_disabled":false,"rental_uris":{"android":"levelo://app?vid=81f5e709-c4bd-4272-93cd-1096ff77da56","ios":"levelo://app?vid=81f5e709-c4bd-4272-93cd-1096ff77da56"},"vehicle_type_id":"4","last_reported":1732831701,"current_range_meters":17600,"station_id":"ce4bh012rcd13ifvqcv0","pricing_plan_id":"cebpf4jnsgd1na2vs0mg"},{"bike_id":"5f5509f9-7fa8-49a0-93e1-d18e3ac4be10","system_id":"levelo_inurba_marseille","lat":43.2846,"lon":5.35892,"is_reserved":false,"is_disabled":false,"rental_uris":{"android":"levelo://app?vid=5f5509f9-7fa8-49a0-93e1-d18e3ac4be10","ios":"levelo://app?vid=5f5509f9-7fa8-49a0-93e1-d18e3ac4be10"},"vehicle_type_id":"4","last_reported":1732831701,"current_range_meters":33200,"station_id":"ce4bhah2rcd13ifvqei0","pricing_plan_id":"cebpf4jnsgd1na2vs0mg"},{"bike_id":"53832248-7ea6-4cc6-856c-2b60c3f17998","system_id":"levelo_inurba_marseille","lat":43.29551,"lon":5.42296,"is_reserved":false,"is_disabled":true,"rental_uris":{"android":"levelo://app?vid=53832248-7ea6-4cc6-856c-2b60c3f17998","ios":"levelo://app?vid=53832248-7ea6-4cc6-856c-2b60c3f17998"},"vehicle_type_id":"4","last_reported":1732831701,"current_range_meters":39200,"station_id":"ce4bhph2rcd13ifvqhdg","pricing_plan_id":"cebpf4jnsgd1na2vs0mg"},{"bike_id":"f485e964-b9fc-4810-9932-ea5bba788974","system_id":"levelo_inurba_marseille","lat":43.32058,"lon":5.41533,"is_reserved":false,"is_disabled":false,"rental_uris":{"android":"levelo://app?vid=f485e964-b9fc-4810-9932-ea5bba788974","ios":"levelo://app?vid=f485e964-b9fc-4810-9932-ea5bba788974"},"vehicle_type_id":"4","last_reported":1732831701,"current_range_meters":10800,"station_id":"ce4bhq92rcd13ifvqhkg","pricing_plan_id":"cebpf4jnsgd1na2vs0mg"},{"bike_id":"ed4dfe3b-c342-4528-90f6-e552938f730a","system_id":"levelo_inurba_marseille","lat":43.23187,"lon":5.39981,"is_reserved":false,"is_disabled":false,"rental_uris":{"android":"levelo://app?vid=ed4dfe3b-c342-4528-90f6-e552938f730a","ios":"levelo://app?vid=ed4dfe3b-c342-4528-90f6-e552938f730a"},"vehicle_type_id":"4","last_reported":1732831701,"current_range_meters":22800,"station_id":"ce4bhn12rcd13ifvqgqg","pricing_plan_id":"cebpf4jnsgd1na2vs0mg"},{"bike_id":"05fca2da-e918-43e4-933f-3a458f9f1ebc","system_id":"levelo_inurba_marseille","lat":43.24184,"lon":5.39735,"is_reserved":false,"is_disabled":false,"rental_uris":{"android":"levelo://app?vid=05fca2da-e918-43e4-933f-3a458f9f1ebc","ios":"levelo://app?vid=05fca2da-e918-43e4-933f-3a458f9f1ebc"},"vehicle_type_id":"4","last_reported":1732831701,"current_range_meters":6000,"station_id":"ce4bhn12rcd13ifvqgpg","pricing_plan_id":"cebpf4jnsgd1na2vs0mg"},{"bike_id":"85889959-6c77-467c-be82-b6482f8234d9","system_id":"levelo_inurba_marseille","lat":43.29192,"lon":5.39327,"is_reserved":false,"is_disabled":false,"rental_uris":{"android":"levelo://app?vid=85889959-6c77-467c-be82-b6482f8234d9","ios":"levelo://app?vid=85889959-6c77-467c-be82-b6482f8234d9"},"vehicle_type_id":"4","last_reported":1732831701,"current_range_meters":38800,"station_id":"ce4bh192rcd13ifvqdd0","pricing_plan_id":"cebpf4jnsgd1na2vs0mg"},{"bike_id":"2a944219-ceef-4dca-871f-26af2cec8f37","system_id":"levelo_inurba_marseille","lat":43.28666,"lon":5.3636,"is_reserved":false,"is_disabled":false,"rental_uris":{"android":"levelo://app?vid=2a944219-ceef-4dca-871f-26af2cec8f37","ios":"levelo://app?vid=2a944219-ceef-4dca-871f-26af2cec8f37"},"vehicle_type_id":"4","last_reported":1732831701,"current_range_meters":39200,"station_id":"ce4bhah2rcd13ifvqej0","pricing_plan_id":"cebpf4jnsgd1na2vs0mg"},{"bike_id":"138edc90-aefc-4ffb-b3ea-51fad3e81eeb","system_id":"levelo_inurba_marseille","lat":43.30921,"lon":5.40141,"is_reserved":false,"is_disabled":true,"rental_uris":{"android":"levelo://app?vid=138edc90-aefc-4ffb-b3ea-51fad3e81eeb","ios":"levelo://app?vid=138edc90-aefc-4ffb-b3ea-51fad3e81eeb"},"vehicle_type_id":"4","last_reported":1732831701,"current_range_meters":0,"station_id":"ce4bgvp2rcd13ifvqct0","pricing_plan_id":"cebpf4jnsgd1na2vs0mg"},{"bike_id":"d04754ec-7ab3-4c9a-b4e8-e42c62daaa5c","system_id":"levelo_inurba_marseille","lat":43.29206,"lon":5.39335,"is_reserved":false,"is_disabled":false,"rental_uris":{"android":"levelo://app?vid=d04754ec-7ab3-4c9a-b4e8-e42c62daaa5c","ios":"levelo://app?vid=d04754ec-7ab3-4c9a-b4e8-e42c62daaa5c"},"vehicle_type_id":"4","last_reported":1732831701,"current_range_meters":36000,"station_id":"ce4bh192rcd13ifvqdd0","pricing_plan_id":"cebpf4jnsgd1na2vs0mg"},{"bike_id":"0cc59f25-b2b1-4e3f-8467-49da6d5e030d","system_id":"levelo_inurba_marseille","lat":43.287,"lon":5.37387,"is_reserved":false,"is_disabled":false,"rental_uris":{"android":"levelo://app?vid=0cc59f25-b2b1-4e3f-8467-49da6d5e030d","ios":"levelo://app?vid=0cc59f25-b2b1-4e3f-8467-49da6d5e030d"},"vehicle_type_id":"4","last_reported":1732831701,"current_range_meters":17600,"station_id":"ce4bh3p2rcd13ifvqdq0","pricing_plan_id":"cebpf4jnsgd1na2vs0mg"},{"bike_id":"897bce05-14ba-4423-a366-cde37b569ec3","system_id":"levelo_inurba_marseille","lat":43.30907,"lon":5.36846,"is_reserved":false,"is_disabled":false,"rental_uris":{"android":"levelo://app?vid=897bce05-14ba-4423-a366-cde37b569ec3","ios":"levelo://app?vid=897bce05-14ba-4423-a366-cde37b569ec3"},"vehicle_type_id":"4","last_reported":1732831701,"current_range_meters":32400,"station_id":"ce4bgn92rcd13ifvqbvg","pricing_plan_id":"cebpf4jnsgd1na2vs0mg"},{"bike_id":"d7281c1c-4e11-43d3-9a5f-bd6f92531d14","system_id":"levelo_inurba_marseille","lat":43.29515,"lon":5.39398,"is_reserved":false,"is_disabled":true,"rental_uris":{"android":"levelo://app?vid=d7281c1c-4e11-43d3-9a5f-bd6f92531d14","ios":"levelo://app?vid=d7281c1c-4e11-43d3-9a5f-bd6f92531d14"},"vehicle_type_id":"4","last_reported":1732831701,"current_range_meters":36400,"station_id":"ce4bh292rcd13ifvqdf0","pricing_plan_id":"cebpf4jnsgd1na2vs0mg"},{"bike_id":"465839f2-6722-4ef8-8c92-f2263eb8bc82","system_id":"levelo_inurba_marseille","lat":43.32655,"lon":5.40982,"is_reserved":false,"is_disabled":true,"rental_uris":{"android":"levelo://app?vid=465839f2-6722-4ef8-8c92-f2263eb8bc82","ios":"levelo://app?vid=465839f2-6722-4ef8-8c92-f2263eb8bc82"},"vehicle_type_id":"4","last_reported":1732831701,"current_range_meters":0,"station_id":"ce4bhpp2rcd13ifvqhgg","pricing_plan_id":"cebpf4jnsgd1na2vs0mg"},{"bike_id":"5c5f2969-a58f-44b4-b927-346aa8bda72b","system_id":"levelo_inurba_marseille","lat":43.29789,"lon":5.38071,"is_reserved":false,"is_disabled":true,"rental_uris":{"android":"levelo://app?vid=5c5f2969-a58f-44b4-b927-346aa8bda72b","ios":"levelo://app?vid=5c5f2969-a58f-44b4-b927-346aa8bda72b"},"vehicle_type_id":"4","last_reported":1732831701,"current_range_meters":38800,"station_id":"ce4bgip2rcd13ifvqbb0","pricing_plan_id":"cebpf4jnsgd1na2vs0mg"},{"bike_id":"373b0ef2-2c12-4172-adc7-218fad8a345e","system_id":"levelo_inurba_marseille","lat":43.30324,"lon":5.4044,"is_reserved":false,"is_disabled":true,"rental_uris":{"android":"levelo://app?vid=373b0ef2-2c12-4172-adc7-218fad8a345e","ios":"levelo://app?vid=373b0ef2-2c12-4172-adc7-218fad8a345e"},"vehicle_type_id":"4","last_reported":1732831701,"current_range_meters":0,"station_id":"ce4bh012rcd13ifvqd10","pricing_plan_id":"cebpf4jnsgd1na2vs0mg"},{"bike_id":"4667c4d6-bd06-4cbf-bd77-f9a1ed7842d6","system_id":"levelo_inurba_marseille","lat":43.31071,"lon":5.3835,"is_reserved":false,"is_disabled":false,"rental_uris":{"android":"levelo://app?vid=4667c4d6-bd06-4cbf-bd77-f9a1ed7842d6","ios":"levelo://app?vid=4667c4d6-bd06-4cbf-bd77-f9a1ed7842d6"},"vehicle_type_id":"4","last_reported":1732831701,"current_range_meters":32400,"station_id":"ce4bgv92rcd13ifvqcr0","pricing_plan_id":"cebpf4jnsgd1na2vs0mg"},