{"last_updated":1773171017,"ttl":60,"version":"2.2","data":{"bikes":[{"bike_id":"d6553e86-cb6a-4294-9e0c-e5bdebf81594","system_id":"levelo_inurba_marseille","lat":43.24159,"lon":5.36446,"is_reserved":false,"is_disabled":false,"rental_uris":{"android":"levelo://app?vid=d6553e86-cb6a-4294-9e0c-e5bdebf81594","ios":"levelo://app?vid=d6553e86-cb6a-4294-9e0c-e5bdebf81594"},"vehicle_type_id":"4","last_reported":1773171018,"current_range_meters":9200,"station_id":"cpo36qri1sfpv3e86is0","pricing_plan_id":"cebpf4jnsgd1na2vs0mg"},{"bike_id":"954e3d63-fbe8-4cfb-bcb1-c21c3885454e","system_id":"levelo_inurba_marseille","lat":43.25958,"lon":5.40071,"is_reserved":false,"is_disabled":false,"rental_uris":{"android":"levelo://app?vid=954e3d63-fbe8-4cfb-bcb1-c21c3885454e","ios":"levelo://app?vid=954e3d63-fbe8-4cfb-bcb1-c21c3885454e"},"vehicle_type_id":"4","last_reported":1773171018,"current_range_meters":39200,"station_id":"","pricing_plan_id":"cebpf4jnsgd1na2vs0mg"},{"bike_id":"1b8cd471-6ea0-4357-8920-ce975eaf0540","system_id":"levelo_inurba_marseille","lat":43.30222,"lon":5.39479,"is_reserved":false,"is_disabled":false,"rental_uris":{"android":"levelo://app?vid=1b8cd471-6ea0-4357-8920-ce975eaf0540","ios":"levelo://app?vid=1b8cd471-6ea0-4357-8920-ce975eaf0540"},"vehicle_type_id":"4","last_reported":1773171018,"current_range_meters":13600,"station_id":"ce4bh0p2rcd13ifvqd70","pricing_plan_id":"cebpf4jnsgd1na2vs0mg"},{"bike_id":"d30e7788-6b43-4cf1-9bef-f362a4b7e34a","system_id":"levelo_inurba_marseille","lat":43.30889,"lon":5.39648,"is_reserved":false,"is_disabled":false,"rental_uris":{"android":"levelo://app?vid=d30e7788-6b43-4cf1-9bef-f362a4b7e34a","ios":"levelo://app?vid=d30e7788-6b43-4cf1-9bef-f362a4b7e34a"},"vehicle_type_id":"4","last_reported":1773171018,"current_range_meters":39200,"station_id":"ce4bh012rcd13ifvqcv0","pricing_plan_id":"cebpf4jnsgd1na2vs0mg"},{"bike_id":"d4ea563a-21c0-4778-a42a-84cfbcca1ce2","system_id":"levelo_inurba_marseille","lat":43.31331,"lon":5.397,"is_reserved":false,"is_disabled":false,"rental_uris":{"android":"levelo://app?vid=d4ea563a-21c0-4778-a42a-84cfbcca1ce2","ios":"levelo://app?vid=d4ea563a-21c0-4778-a42a-84cfbcca1ce2"},"vehicle_type_id":"4","last_reported":1773171018,"current_range_meters":20800,"station_id":"ce4bgvp2rcd13ifvqcu0","pricing_plan_id":"cebpf4jnsgd1na2vs0mg"},{"bike_id":"2443646e-135b-4a0e-a554-d79aac3db5b1","system_id":"levelo_inurba_marseille","lat":43.29273,"lon":5.40107,"is_reserved":false,"is_disabled":false,"rental_uris":{"android":"levelo://app?vid=2443646e-135b-4a0e-a554-d79aac3db5b1","ios":"levelo://app?vid=2443646e-135b-4a0e-a554-d79aac3db5b1"},"vehicle_type_id":"4","last_reported":1773171018,"current_range_meters":15200,"station_id":"ce4bh312rcd13ifvqdk0","pricing_plan_id":"cebpf4jnsgd1na2vs0mg"},{"bike_id":"5e812e81-b145-496b-8ea8-673eb091e961","system_id":"levelo_inurba_marseille","lat":43.3464,"lon":5.36722,"is_reserved":false,"is_disabled":false,"rental_uris":{"android":"levelo://app?vid=5e812e81-b145-496b-8ea8-673eb091e961","ios":"levelo://app?vid=5e812e81-b145-496b-8ea8-673eb091e961"},"vehicle_type_id":"4","last_reported":1773171018,"current_range_meters":32800,"station_id":"","pricing_plan_id":"cebpf4jnsgd1na2vs0mg"},{"bike_id":"614b03e1-53cb-4022-b28a-a3d44f60add9","system_id":"levelo_inurba_marseille","lat":43.27371,"lon":5.39352,"is_reserved":false,"is_disabled":false,"rental_uris":{"android":"levelo://app?vid=614b03e1-53cb-4022-b28a-a3d44f60add9","ios":"levelo://app?vid=614b03e1-53cb-4022-b28a-a3d44f60add9"},"vehicle_type_id":"4","last_reported":1773171018,"current_range_meters":33600,"station_id":"","pricing_plan_id":"cebpf4jnsgd1na2vs0mg"},{"bike_id":"672d6d86-c3d4-4bb8-ba20-23912b1ea879","system_id":"levelo_inurba_marseille","lat":43.28471,"lon":5.48393,"is_reserved":false,"is_disabled":false,"rental_uris":{"android":"levelo://app?vid=672d6d86-c3d4-4bb8-ba20-23912b1ea879","ios":"levelo://app?vid=672d6d86-c3d4-4bb8-ba20-23912b1ea879"},"vehicle_type_id":"4","last_reported":1773171018,"current_range_meters":37600,"station_id":"st_d3svhcjqgbts73a3dn0g","pricing_plan_id":"cebpf4jnsgd1na2vs0mg"},{"bike_id":"5f309f92-ce55-42d1-abdd-bc59c6e9175e","system_id":"levelo_inurba_marseille","lat":43.29929,"lon":5.36507,"is_reserved":false,"is_disabled":false,"rental_uris":{"android":"levelo://app?vid=5f309f92-ce55-42d1-abdd-bc59c6e9175e","ios":"levelo://app?vid=5f309f92-ce55-42d1-abdd-bc59c6e9175e"},"vehicle_type_id":"4","last_reported":1773171018,"current_range_meters":4400,"station_id":"ce4bgm92rcd13ifvqbr0","pricing_plan_id":"cebpf4jnsgd1na2vs0mg"},{"bike_id":"62232d2e-2128-47ca-a3a2-265d75eb7083","system_id":"levelo_inurba_marseille","lat":43.33157,"lon":5.37697,"is_reserved":false,"is_disabled":false,"rental_uris":{"android":"levelo://app?vid=62232d2e-2128-47ca-a3a2-265d75eb7083","ios":"levelo://app?vid=62232d2e-2128-47ca-a3a2-265d75eb7083"},"vehicle_type_id":"4","last_reported":1773171018,"current_range_meters":32800,"station_id":"st_d46cu089ee8s73dldbu0","pricing_plan_id":"cebpf4jnsgd1na2vs0mg"},{"bike_id":"bd5ff1fc-d531-437b-ae7f-216eb2fdd27a","system_id":"levelo_inurba_marseille","lat":43.30546,"lon":5.36728,"is_reserved":false,"is_disabled":false,"rental_uris":{"android":"levelo://app?vid=bd5ff1fc-d531-437b-ae7f-216eb2fdd27a","ios":"levelo://app?vid=bd5ff1fc-d531-437b-ae7f-216eb2fdd27a"},"vehicle_type_id":"4","last_reported":1773171018,"current_range_meters":37600,"station_id":"ce4bgrp2rcd13ifvqc9g","pricing_plan_id":"cebpf4jnsgd1na2vs0mg"},{"bike_id":"00e952ab-b782-4f3a-84a6-caa3b8f3e923","system_id":"levelo_inurba_marseille","lat":43.279905,"lon":5.4001,"is_reserved":false,"is_disabled":false,"rental_uris":{"android":"levelo://app?vid=00e952ab-b782-4f3a-84a6-caa3b8f3e923","ios":"levelo://app?vid=00e952ab-b782-4f3a-84a6-caa3b8f3e923"},"vehicle_type_id":"4","last_reported":1773171018,"current_range_meters":20400,"station_id":"ce4bho92rcd13ifvqh4g","pricing_plan_id":"cebpf4jnsgd1na2vs0mg"},{"bike_id":"185ce8f3-cbe5-409a-99f4-2c8c40a21fda","system_id":"levelo_inurba_marseille","lat":43.25829,"lon":5.3942,"is_reserved":false,"is_disabled":false,"rental_uris":{"android":"levelo://app?vid=185ce8f3-cbe5-409a-99f4-2c8c40a21fda","ios":"levelo://app?vid=185ce8f3-cbe5-409a-99f4-2c8c40a21fda"},"vehicle_type_id":"4","last_reported":1773171018,"current_range_meters":29600,"station_id":"ce4bhip2rcd13ifvqft0","pricing_plan_id":"cebpf4jnsgd1na2vs0mg"},{"bike_id":"528d196f-75da-45bf-882f-bc7171e25a73","system_id":"levelo_inurba_marseille","lat":43.29059,"lon":5.37183,"is_reserved":false,"is_disabled":false,"rental_uris":{"android":"levelo://app?vid=528d196f-75da-45bf-882f-bc7171e25a73","ios":"levelo://app?vid=528d196f-75da-45bf-882f-bc7171e25a73"},"vehicle_type_id":"4","last_reported":1773171018,"current_range_meters":39200,"station_id":"ce4bh5p2rcd13ifvqe4g","pricing_plan_id":"cebpf4jnsgd1na2vs0mg"},{"bike_id":"0f22bcd7-90d5-44df-821c-c32d672a2325","system_id":"levelo_inurba_marseille","lat":43.24835,"lon":5.37441,"is_reserved":false,"is_disabled":false,"rental_uris":{"android":"levelo://app?vid=0f22bcd7-90d5-44df-821c-c32d672a2325","ios":"levelo://app?vid=0f22bcd7-90d5-44df-821c-c32d672a2325"},"vehicle_type_id":"4","last_reported":1773171018,"current_range_meters":34800,"station_id":"","pricing_plan_id":"cebpf4jnsgd1na2vs0mg"},{"bike_id":"bc68abee-81ec-4213-9f4c-7a4d822e689a","system_id":"levelo_inurba_marseille","lat":43.30558,"lon":5.36753,"is_reserved":false,"is_disabled":false,"rental_uris":{"android":"levelo://app?vid=bc68abee-81ec-4213-9f4c-7a4d822e689a","ios":"levelo://app?vid=bc68abee-81ec-4213-9f4c-7a4d822e689a"},"vehicle_type_id":"4","last_reported":1773171018,"current_range_meters":21600,"station_id":"ce4bgrp2rcd13ifvqc9g","pricing_plan_id":"cebpf4jnsgd1na2vs0mg"},{"bike_id":"bee575a6-ded1-489e-b4fc-fde54acf65f4","system_id":"levelo_inurba_marseille","lat":43.28537,"lon":5.35933,"is_reserved":false,"is_disabled":false,"rental_uris":{"android":"levelo://app?vid=bee575a6-ded1-489e-b4fc-fde54acf65f4","ios":"levelo://app?vid=bee575a6-ded1-489e-b4fc-fde54acf65f4"},"vehicle_type_id":"4","last_reported":1773171018,"current_range_meters":24000,"station_id":"","pricing_plan_id":"cebpf4jnsgd1na2vs0mg"},{"bike_id":"d40c3f9f-01ae-4ba6-95bc-b6bde2e67e9d","system_id":"levelo_inurba_marseille","lat":43.28846,"lon":5.39315,"is_reserved":false,"is_disabled":false,"rental_uris":{"android":"levelo://app?vid=d40c3f9f-01ae-4ba6-95bc-b6bde2e67e9d","ios":"levelo://app?vid=d40c3f9f-01ae-4ba6-95bc-b6bde2e67e9d"},"vehicle_type_id":"4","last_reported":1773171018,"current_range_meters":27200,"station_id":"ce4bh2p2rcd13ifvqdi0","pricing_plan_id":"cebpf4jnsgd1na2vs0mg"},{"bike_id":"147b2e28-f373-4450-817f-ad883e1d786c","system_id":"levelo_inurba_marseille","lat":43.28076,"lon":5.39646,"is_reserved":false,"is_disabled":false,"rental_uris":{"android":"levelo://app?vid=147b2e28-f373-4450-817f-ad883e1d786c","ios":"levelo://app?vid=147b2e28-f373-4450-817f-ad883e1d786c"},"vehicle_type_id":"4","last_reported":1773171018,"current_range_meters":37600,"station_id":"ce4bho12rcd13ifvqh2g","pricing_plan_id":"cebpf4jnsgd1na2vs0mg"},{"bike_id":"8983558d-aa13-46f0-a5eb-b9ce97826cb4","system_id":"levelo_inurba_marseille","lat":43.31988,"lon":5.38146,"is_reserved":false,"is_disabled":false,"rental_uris":{"android":"levelo://app?vid=8983558d-aa13-46f0-a5eb-b9ce97826cb4","ios":"levelo://app?vid=8983558d-aa13-46f0-a5eb-b9ce97826cb4"},"vehicle_type_id":"4","last_reported":1773171018,"current_range_meters":35600,"station_id":"ce4bhr12rcd13ifvqhpg","pricing_plan_id":"cebpf4jnsgd1na2vs0mg"},{"bike_id":"03d71006-3b11-4838-afa7-88b3444dc032","system_id":"levelo_inurba_marseille","lat":43.28924,"lon":5.38419,"is_reserved":false,"is_disabled":false,"rental_uris":{"android":"levelo://app?vid=03d71006-3b11-4838-afa7-88b3444dc032","ios":"levelo://app?vid=03d71006-3b11-4838-afa7-88b3444dc032"},"vehicle_type_id":"4","last_reported":1773171018,"current_range_meters":32000,"station_id":"ce4bh612rcd13ifvqe6g","pricing_plan_id":"cebpf4jnsgd1na2vs0mg"},{"bike_id":"7e1ff8b2-a031-4e13-9294-ea7cb0267468","system_id":"levelo_inurba_marseille","lat":43.32115,"lon":5.36789,"is_reserved":false,"is_disabled":false,"rental_uris":{"android":"levelo://app?vid=7e1ff8b2-a031-4e13-9294-ea7cb0267468","ios":"levelo://app?vid=7e1ff8b2-a031-4e13-9294-ea7cb0267468"},"vehicle_type_id":"4","last_reported":1773171018,"current_range_meters":30800,"station_id":"ce4bhrh2rcd13ifvqhug","pricing_plan_id":"cebpf4jnsgd1na2vs0mg"},{"bike_id":"9da803e7-1100-4afd-a8ea-ea53ebdcf2cd","system_id":"levelo_inurba_marseille","lat":43.32275,"lon":5.38209,"is_reserved":false,"is_disabled":false,"rental_uris":{"android":"levelo://app?vid=9da803e7-1100-4afd-a8ea-ea53ebdcf2cd","ios":"levelo://app?vid=9da803e7-1100-4afd-a8ea-ea53ebdcf2cd"},"vehicle_type_id":"4","last_reported":1773171018,"current_range_meters":39200,"station_id":"ce4bhr12rcd13ifvqhqg","pricing_plan_id":"cebpf4jnsgd1na2vs0mg"},{"bike_id":"0bcaaa6c-e20d-46fa-9e65-9a7a2c8ea1d4","system_id":"levelo_inurba_marseille","lat":43.28716,"lon":5.36072,"is_reserved":false,"is_disabled":false,"rental_uris":{"android":"levelo://app?vid=0bcaaa6c-e20d-46fa-9e65-9a7a2c8ea1d4","ios":"levelo://app?vid=0bcaaa6c-e20d-46fa-9e65-9a7a2c8ea1d4"},"vehicle_type_id":"4","last_reported":1773171018,"current_range_meters":40000,"station_id":"cki0cbj6b192h4jlfktg","pricing_plan_id":"cebpf4jnsgd1na2vs0mg"},{"bike_id":"8f94e27a-f2e7-4e81-899b-b857fbd2c04d","system_id":"levelo_inurba_marseille","lat":43.32508,"lon":5.41426,"is_reserved":false,"is_disabled":false,"rental_uris":{"android":"levelo://app?vid=8f94e27a-f2e7-4e81-899b-b857fbd2c04d","ios":"levelo://app?vid=8f94e27a-f2e7-4e81-899b-b857fbd2c04d"},"vehicle_type_id":"4","last_reported":1773171018,"current_range_meters":4800,"station_id":"ce4bhq12rcd13ifvqhhg","pricing_plan_id":"cebpf4jnsgd1na2vs0mg"},{"bike_id":"798ea59c-f5e3-4935-8c1d-daf1d3674222","system_id":"levelo_inurba_marseille","lat":43.28916,"lon":5.384,"is_reserved":false,"is_disabled":false,"rental_uris":{"android":"levelo://app?vid=798ea59c-f5e3-4935-8c1d-daf1d3674222","ios":"levelo://app?vid=798ea59c-f5e3-4935-8c1d-daf1d3674222"},"vehicle_type_id":"4","last_reported":1773171018,"current_range_meters":39200,"station_id":"ce4bh612rcd13ifvqe6g","pricing_plan_id":"cebpf4jnsgd1na2vs0mg"},{"bike_id":"14682659-192a-47e7-9a0d-4d8e3fea044a","system_id":"levelo_inurba_marseille","lat":43.2256,"lon":5.41622,"is_reserved":false,"is_disabled":false,"rental_uris":{"android":"levelo://app?vid=14682659-192a-47e7-9a0d-4d8e3fea044a","ios":"levelo://app?vid=14682659-192a-47e7-9a0d-4d8e3fea044a"},"vehicle_type_id":"4","last_reported":1773171018,"current_range_meters":38800,"station_id":"st_d2o4gvlbi1j2169b742g","pricing_plan_id":"cebpf4jnsgd1na2vs0mg"},{"bike_id":"f73167e5-1d82-4afe-ac49-d5b6e28f762e","system_id":"levelo_inurba_marseille","lat":43.28417,"lon":5.34989,"is_reserved":false,"is_disabled":false,"rental_uris":{"android":"levelo://app?vid=f73167e5-1d82-4afe-ac49-d5b6e28f762e","ios":"levelo://app?vid=f73167e5-1d82-4afe-ac49-d5b6e28f762e"},"vehicle_type_id":"4","last_reported":1773171018,"current_range_meters":37600,"station_id":"ce4bhbh2rcd13ifvqepg","pricing_plan_id":"cebpf4jnsgd1na2vs0mg"},{"bike_id":"219b4647-9705-4801-bae4-13d64f31d679","system_id":"levelo_inurba_marseille","lat":43.25813,"lon":5.39421,"is_reserved":false,"is_disabled":false,"rental_uris":{"android":"levelo://app?vid=219b4647-9705-4801-bae4-13d64f31d679","ios":"levelo://app?vid=219b4647-9705-4801-bae4-13d64f31d679"},"vehicle_type_id":"4","last_reported":1773171018,"current_range_meters":10800,"station_id":"ce4bhip2rcd13ifvqft0","pricing_plan_id":"cebpf4jnsgd1na2vs0mg"},{"bike_id":"1da99f68-2ee5-4072-a701-da0fbb4b83fb","system_id":"levelo_inurba_marseille","lat":43.24176,"lon":5.39709,"is_reserved":false,"is_disabled":true,"rental_uris":{"android":"levelo://app?vid=1da99f68-2ee5-4072-a701-da0fbb4b83fb","ios":"levelo://app?vid=1da99f68-2ee5-4072-a701-da0fbb4b83fb"},"vehicle_type_id":"4","last_reported":1773171018,"current_range_meters":38000,"station_id":"ce4bhn12rcd13ifvqgpg","pricing_plan_id":"cebpf4jnsgd1na2vs0mg"},{"bike_id":"870fedf0-4361-4850-a607-6cb348be71f6","system_id":"levelo_inurba_marseille","lat":43.28837,"lon":5.35843,"is_reserved":false,"is_disabled":false,"rental_uris":{"android":"levelo://app?vid=870fedf0-4361-4850-a607-6cb348be71f6","ios":"levelo://app?vid=870fedf0-4361-4850-a607-6cb348be71f6"},"vehicle_type_id":"4","last_reported":1773171018,"current_range_meters":38000,"station_id":"ce4bhb12rcd13ifvqem0","pricing_plan_id":"cebpf4jnsgd1na2vs0mg"},{"bike_id":"17e7fb6d-f3fb-44f5-a1da-783f5516c809","system_id":"levelo_inurba_marseille","lat":43.28901,"lon":5.37992,"is_reserved":false,"is_disabled":false,"rental_uris":{"android":"levelo://app?vid=17e7fb6d-f3fb-44f5-a1da-783f5516c809","ios":"levelo://app?vid=17e7fb6d-f3fb-44f5-a1da-783f5516c809"},"vehicle_type_id":"4","last_reported":1773171018,"current_range_meters":36800,"station_id":"","pricing_plan_id":"cebpf4jnsgd1na2vs0mg"},{"bike_id":"8f78be13-1e49-4ead-b94a-474ee0eddbeb","system_id":"levelo_inurba_marseille","lat":43.24544,"lon":5.39532,"is_reserved":false,"is_disabled":true,"rental_uris":{"android":"levelo://app?vid=8f78be13-1e49-4ead-b94a-474ee0eddbeb","ios":"levelo://app?vid=8f78be13-1e49-4ead-b94a-474ee0eddbeb"},"vehicle_type_id":"4","last_reported":1773171018,"current_range_meters":0,"station_id":"ce4bhlp2rcd13ifvqgjg","pricing_plan_id":"cebpf4jnsgd1na2vs0mg"},{"bike_id":"a307fb33-7815-47b7-a680-d4ffb057925c","system_id":"levelo_inurba_marseille","lat":43.26196,"lon":5.37933,"is_reserved":false,"is_disabled":false,"rental_uris":{"android":"levelo://app?vid=a307fb33-7815-47b7-a680-d4ffb057925c","ios":"levelo://app?vid=a307fb33-7815-47b7-a680-d4ffb057925c"},"vehicle_type_id":"4","last_reported":1773171018,"current_range_meters":38000,"station_id":"ce4bhjp2rcd13ifvqg90","pricing_plan_id":"cebpf4jnsgd1na2vs0mg"},{"bike_id":"11a79b7e-f5f7-4092-b4d2-b3fc3d959610","system_id":"levelo_inurba_marseille","lat":43.29625,"lon":5.37767,"is_reserved":false,"is_disabled":false,"rental_uris":{"android":"levelo://app?vid=11a79b7e-f5f7-4092-b4d2-b3fc3d959610","ios":"levelo://app?vid=11a79b7e-f5f7-4092-b4d2-b3fc3d959610"},"vehicle_type_id":"4","last_reported":1773171018,"current_range_meters":38800,"station_id":"ce4bgi92rcd13ifvqb90","pricing_plan_id":"cebpf4jnsgd1na2vs0mg"},{"bike_id":"a7bed811-384c-4798-bec8-4dabedb4e381","system_id":"levelo_inurba_marseille","lat":43.24178,"lon":5.36414,"is_reserved":false,"is_disabled":false,"rental_uris":{"android":"levelo://app?vid=a7bed811-384c-4798-bec8-4dabedb4e381","ios":"levelo://app?vid=a7bed811-384c-4798-bec8-4dabedb4e381"},"vehicle_type_id":"4","last_reported":1773171018,"current_range_meters":14800,"station_id":"cpo36qri1sfpv3e86is0","pricing_plan_id":"cebpf4jnsgd1na2vs0mg"},{"bike_id":"c516cb64-1a5d-4057-bf94-2e4bf3284a3a","system_id":"levelo_inurba_marseille","lat":43.29946,"lon":5.37509,"is_reserved":false,"is_disabled":false,"rental_uris":{"android":"levelo://app?vid=c516cb64-1a5d-4057-bf94-2e4bf3284a3a","ios":"levelo://app?vid=c516cb64-1a5d-4057-bf94-2e4bf3284a3a"},"vehicle_type_id":"4","last_reported":1773171018,"current_range_meters":38800,"station_id":"ce4bgjh2rcd13ifvqbg0","pricing_plan_id":"cebpf4jnsgd1na2vs0mg"},{"bike_id":"53b4a40e-fa18-44a4-a282-a12407f4073d","system_id":"levelo_inurba_marseille","lat":43.30292,"lon":5.36882,"is_reserved":false,"is_disabled":false,"rental_uris":{"android":"levelo://app?vid=53b4a40e-fa18-44a4-a282-a12407f4073d","ios":"levelo://app?vid=53b4a40e-fa18-44a4-a282-a12407f4073d"},"vehicle_type_id":"4","last_reported":1773171018,"current_range_meters":31200,"station_id":"ce4bgqh2rcd13ifvqc5g","pricing_plan_id":"cebpf4jnsgd1na2vs0mg"},{"bike_id":"1fe643d4-bc24-492e-b4bb-64dd7d769dd2","system_id":"levelo_inurba_marseille","lat":43.30556,"lon":5.37169,"is_reserved":false,"is_disabled":false,"rental_uris":{"android":"levelo://app?vid=1fe643d4-bc24-492e-b4bb-64dd7d769dd2","ios":"levelo://app?vid=1fe643d4-bc24-492e-b4bb-64dd7d769dd2"},"vehicle_type_id":"4","last_reported":1773171018,"current_range_meters":26000,"station_id":"ce4bgqh2rcd13ifvqc4g","pricing_plan_id":"cebpf4jnsgd1na2vs0mg"},{"bike_id":"19649102-5086-4943-a64c-a994c816a64a","system_id":"levelo_inurba_marseille","lat":43.3112,"lon":5.36964,"is_reserved":false,"is_disabled":false,"rental_uris":{"android":"levelo://app?vid=19649102-5086-4943-a64c-a994c816a64a","ios":"levelo://app?vid=19649102-5086-4943-a64c-a994c816a64a"},"vehicle_type_id":"4","last_reported":1773171018,"current_range_meters":10000,"station_id":"","pricing_plan_id":"cebpf4jnsgd1na2vs0mg"},{"bike_id":"b57fdf26-2fd1-433f-b878-4b50a53a3220","system_id":"levelo_inurba_marseille","lat":43.29631,"lon":5.37608,"is_reserved":false,"is_disabled":false,"rental_uris":{"android":"levelo://app?vid=b57fdf26-2fd1-433f-b878-4b50a53a3220","ios":"levelo://app?vid=b57fdf26-2fd1-433f-b878-4b50a53a3220"},"vehicle_type_id":"4","last_reported":1773171018,"current_range_meters":8400,"station_id":"","pricing_plan_id":"cebpf4jnsgd1na2vs0mg"},{"bike_id":"7a552756-c061-46f4-b013-f2103dd5ac02","system_id":"levelo_inurba_marseille","lat":43.25871,"lon":5.39923,"is_reserved":false,"is_disabled":false,"rental_uris":{"android":"levelo://app?vid=7a552756-c061-46f4-b013-f2103dd5ac02","ios":"levelo://app?vid=7a552756-c061-46f4-b013-f2103dd5ac02"},"vehicle_type_id":"4","last_reported":1773171018,"current_range_meters":27200,"station_id":"ce4bhl92rcd13ifvqghg","pricing_plan_id":"cebpf4jnsgd1na2vs0mg"},{"bike_id":"93facf66-a762-4bc8-8438-d54a6594c40a","system_id":"levelo_inurba_marseille","lat":43.30759,"lon":5.37646,"is_reserved":false,"is_disabled":false,"rental_uris":{"android":"levelo://app?vid=93facf66-a762-4bc8-8438-d54a6594c40a","ios":"levelo://app?vid=93facf66-a762-4bc8-8438-d54a6594c40a"},"vehicle_type_id":"4","last_reported":1773171018,"current_range_meters":26800,"station_id":"ce4bgv92rcd13ifvqcq0","pricing_plan_id":"cebpf4jnsgd1na2vs0mg"},{"bike_id":"e33dd6c8-1094-4544-81bf-9d9c49a02a8e","system_id":"levelo_inurba_marseille","lat":43.24652,"lon":5.38912,"is_reserved":false,"is_disabled":false,"rental_uris":{"android":"levelo://app?vid=e33dd6c8-1094-4544-81bf-9d9c49a02a8e","ios":"levelo://app?vid=e33dd6c8-1094-4544-81bf-9d9c49a02a8e"},"vehicle_type_id":"4","last_reported":1773171018,"current_range_meters":38800,"station_id":"ce4bhg12rcd13ifvqf60","pricing_plan_id":"cebpf4jnsgd1na2vs0mg"},{"bike_id":"c26c2dd3-ca17-40b2-bea3-7ea29d5d84b9","system_id":"levelo_inurba_marseille","lat":43.26564,"lon":5.37312,"is_reserved":false,"is_disabled":false,"rental_uris":{"android":"levelo://app?vid=c26c2dd3-ca17-40b2-bea3-7ea29d5d84b9","ios":"levelo://app?vid=c26c2dd3-ca17-40b2-bea3-7ea29d5d84b9"},"vehicle_type_id":"4","last_reported":1773171018,"current_range_meters":16000,"station_id":"ce4bhg12rcd13ifvqf70","pricing_plan_id":"cebpf4jnsgd1na2vs0mg"},{"bike_id":"eea97ef6-2dae-442e-92e2-4df92aa4926f","system_id":"levelo_inurba_marseille","lat":43.29784,"lon":5.37108,"is_reserved":false,"is_disabled":false,"rental_uris":{"android":"levelo://app?vid=eea97ef6-2dae-442e-92e2-4df92aa4926f","ios":"levelo://app?vid=eea97ef6-2dae-442e-92e2-4df92aa4926f"},"vehicle_type_id":"4","last_reported":1773171018,"current_range_meters":27600,"station_id":"ce4bgop2rcd13ifvqc1g","pricing_plan_id":"cebpf4jnsgd1na2vs0mg"},{"bike_id":"4604fbd4-c210-4d8a-a5bb-3fa486eeb57e","system_id":"levelo_inurba_marseille","lat":43.23775,"lon":5.36612,"is_reserved":false,"is_disabled":false,"rental_uris":{"android":"levelo://app?vid=4604fbd4-c210-4d8a-a5bb-3fa486eeb57e","ios":"levelo://app?vid=4604fbd4-c210-4d8a-a5bb-3fa486eeb57e"},"vehicle_type_id":"4","last_reported":1773171018,"current_range_meters":16800,"station_id":"st_d3nk18o9ro0c73en2l3g","pricing_plan_id":"cebpf4jnsgd1na2vs0mg"},{"bike_id":"26e17841-9d47-4acc-ab0d-3602a08409a1","system_id":"levelo_inurba_marseille","lat":43.29528,"lon":5.38561,"is_reserved":false,"is_disabled":false,"rental_uris":{"android":"levelo://app?vid=26e17841-9d47-4acc-ab0d-3602a08409a1","ios":"levelo://app?vid=26e17841-9d47-4acc-ab0d-3602a08409a1"},"vehicle_type_id":"4","last_reported":1773171018,"current_range_meters":24400,"station_id":"ce4bgih2rcd13ifvqba0","pricing_plan_id":"cebpf4jnsgd1na2vs0mg"},{"bike_id":"5faaa346-30c1-434a-92f7-d44c22e0bd72","system_id":"levelo_inurba_marseille","lat":43.27806,"lon":5.40703,"is_reserved":false,"is_disabled":false,"rental_uris":{"android":"levelo://app?vid=5faaa346-30c1-434a-92f7-d44c22e0bd72","ios":"levelo://app?vid=5faaa346-30c1-434a-92f7-d44c22e0bd72"},"vehicle_type_id":"4","last_reported":1773171018,"current_range_meters":28000,"station_id":"ce4bhnh2rcd13ifvqgtg","pricing_plan_id":"cebpf4jnsgd1na2vs0mg"},{"bike_id":"394ca1dd-ef74-4313-8207-b1da1bcebdd8","system_id":"levelo_inurba_marseille","lat":43.28257,"lon":5.35049,"is_reserved":false,"is_disabled":false,"rental_uris":{"android":"levelo://app?vid=394ca1dd-ef74-4313-8207-b1da1bcebdd8","ios":"levelo://app?vid=394ca1dd-ef74-4313-8207-b1da1bcebdd8"},"vehicle_type_id":"4","last_reported":1773171018,"current_range_meters":34800,"station_id":"ce4bhbp2rcd13ifvqerg","pricing_plan_id":"cebpf4jnsgd1na2vs0mg"},{"bike_id":"8e2b4d0f-341a-43af-8b2d-b46064ff98b4","system_id":"levelo_inurba_marseille","lat":43.30355,"lon":5.41861,"is_reserved":false,"is_disabled":false,"rental_uris":{"android":"levelo://app?vid=8e2b4d0f-341a-43af-8b2d-b46064ff98b4","ios":"levelo://app?vid=8e2b4d0f-341a-43af-8b2d-b46064ff98b4"},"vehicle_type_id":"4","last_reported":1773171018,"current_range_meters":38800,"station_id":"ce4bhop2rcd13ifvqh7g","pricing_plan_id":"cebpf4jnsgd1na2vs0mg"},{"bike_id":"05739f07-c469-4b16-8176-ede0d334e21d","system_id":"levelo_inurba_marseille","lat":43.29519,"lon":5.38534,"is_reserved":false,"is_disabled":false,"rental_uris":{"android":"levelo://app?vid=05739f07-c469-4b16-8176-ede0d334e21d","ios":"levelo://app?vid=05739f07-c469-4b16-8176-ede0d334e21d"},"vehicle_type_id":"4","last_reported":1773171018,"current_range_meters":16400,"station_id":"ce4bgih2rcd13ifvqba0","pricing_plan_id":"cebpf4jnsgd1na2vs0mg"},{"bike_id":"b7084ed3-723b-40ae-a584-ac583acce34c","system_id":"levelo_inurba_marseille","lat":43.27162,"lon":5.40975,"is_reserved":false,"is_disabled":false,"rental_uris":{"android":"levelo://app?vid=b7084ed3-723b-40ae-a584-ac583acce34c","ios":"levelo://app?vid=b7084ed3-723b-40ae-a584-ac583acce34c"},"vehicle_type_id":"4","last_reported":1773171018,"current_range_meters":40000,"station_id":"ce4bhl12rcd13ifvqgf0","pricing_plan_id":"cebpf4jnsgd1na2vs0mg"},{"bike_id":"5e03a301-7828-403f-a538-74c486f7e137","system_id":"levelo_inurba_marseille","lat":43.31276,"lon":5.40107,"is_reserved":false,"is_disabled":false,"rental_uris":{"android":"levelo://app?vid=5e03a301-7828-403f-a538-74c486f7e137","ios":"levelo://app?vid=5e03a301-7828-403f-a538-74c486f7e137"},"vehicle_type_id":"4","last_reported":1773171018,"current_range_meters":26000,"station_id":"ce4bh092rcd13ifvqd30","pricing_plan_id":"cebpf4jnsgd1na2vs0mg"},{"bike_id":"93e5dcce-0d24-40de-b721-b93575bea8da","system_id":"levelo_inurba_marseille","lat":43.26558,"lon":5.37301,"is_reserved":false,"is_disabled":false,"rental_uris":{"android":"levelo://app?vid=93e5dcce-0d24-40de-b721-b93575bea8da","ios":"levelo://app?vid=93e5dcce-0d24-40de-b721-b93575bea8da"},"vehicle_type_id":"4","last_reported":1773171018,"current_range_meters":17600,"station_id":"ce4bhg12rcd13ifvqf70","pricing_plan_id":"cebpf4jnsgd1na2vs0mg"},{"bike_id":"bfed707e-973d-4230-b75b-e0c027a9e091","system_id":"levelo_inurba_marseille","lat":43.29827,"lon":5.42097,"is_reserved":false,"is_disabled":false,"rental_uris":{"android":"levelo://app?vid=bfed707e-973d-4230-b75b-e0c027a9e091","ios":"levelo://app?vid=bfed707e-973d-4230-b75b-e0c027a9e091"},"vehicle_type_id":"4","last_reported":1773171018,"current_range_meters":38000,"station_id":"","pricing_plan_id":"cebpf4jnsgd1na2vs0mg"},{"bike_id":"b6f48e6d-79e3-4f96-b966-850b93ed747b","system_id":"levelo_inurba_marseille","lat":43.27495,"lon":5.41585,"is_reserved":false,"is_disabled":false,"rental_uris":{"android":"levelo://app?vid=b6f48e6d-79e3-4f96-b966-850b93ed747b","ios":"levelo://app?vid=b6f48e6d-79e3-4f96-b966-850b93ed747b"},"vehicle_type_id":"4","last_reported":1773171018,"current_range_meters":22800,"station_id":"st_d6im8g6chgec73a5pndg","pricing_plan_id":"cebpf4jnsgd1na2vs0mg"},{"bike_id":"ef80c4a3-4500-4819-97a9-ade457c34d1d","system_id":"levelo_inurba_marseille","lat":43.29543,"lon":5.37381,"is_reserved":false,"is_disabled":false,"rental_uris":{"android":"levelo://app?vid=ef80c4a3-4500-4819-97a9-ade457c34d1d","ios":"levelo://app?vid=ef80c4a3-4500-4819-97a9-ade457c34d1d"},"vehicle_type_id":"4","last_reported":1773171018,"current_range_meters":28400,"station_id":"","pricing_plan_id":"cebpf4jnsgd1na2vs0mg"},{"bike_id":"f796bee3-5c39-4999-9518-4ad7d56bad09","system_id":"levelo_inurba_marseille","lat":43.28534,"lon":5.4411,"is_reserved":false,"is_disabled":false,"rental_uris":{"android":"levelo://app?vid=f796bee3-5c39-4999-9518-4ad7d56bad09","ios":"levelo://app?vid=f796bee3-5c39-4999-9518-4ad7d56bad09"},"vehicle_type_id":"4","last_reported":1773171018,"current_range_meters":8800,"station_id":"st_d3j3df2ikq2c7380ej80","pricing_plan_id":"cebpf4jnsgd1na2vs0mg"},{"bike_id":"5da4a9bb-55e7-4a90-b689-ad7dee9dda42","system_id":"levelo_inurba_marseille","lat":43.2926,"lon":5.38437,"is_reserved":false,"is_disabled":false,"rental_uris":{"android":"levelo://app?vid=5da4a9bb-55e7-4a90-b689-ad7dee9dda42","ios":"levelo://app?vid=5da4a9bb-55e7-4a90-b689-ad7dee9dda42"},"vehicle_type_id":"4","last_reported":1773171018,"current_range_meters":37600,"station_id":"ce4bh692rcd13ifvqea0","pricing_plan_id":"cebpf4jnsgd1na2vs0mg"},{"bike_id":"53fc4316-7c30-49bf-871e-f355a7bce721","system_id":"levelo_inurba_marseille","lat":43.23187,"lon":5.39976,"is_reserved":false,"is_disabled":false,"rental_uris":{"android":"levelo://app?vid=53fc4316-7c30-49bf-871e-f355a7bce721","ios":"levelo://app?vid=53fc4316-7c30-49bf-871e-f355a7bce721"},"vehicle_type_id":"4","last_reported":1773171018,"current_range_meters":39200,"station_id":"ce4bhn12rcd13ifvqgqg","pricing_plan_id":"cebpf4jnsgd1na2vs0mg"},{"bike_id":"e043c4b3-9734-4d6c-b025-ff6cb187be5a","system_id":"levelo_inurba_marseille","lat":43.32123,"lon":5.36781,"is_reserved":false,"is_disabled":false,"rental_uris":{"android":"levelo://app?vid=e043c4b3-9734-4d6c-b025-ff6cb187be5a","ios":"levelo://app?vid=e043c4b3-9734-4d6c-b025-ff6cb187be5a"},"vehicle_type_id":"4","last_reported":1773171018,"current_range_meters":38800,"station_id":"ce4bhrh2rcd13ifvqhug","pricing_plan_id":"cebpf4jnsgd1na2vs0mg"},{"bike_id":"3407abab-b7b8-4d79-b628-a7785d3a4373","system_id":"levelo_inurba_marseille","lat":43.30207,"lon":5.39438,"is_reserved":false,"is_disabled":false,"rental_uris":{"android":"levelo://app?vid=3407abab-b7b8-4d79-b628-a7785d3a4373","ios":"levelo://app?vid=3407abab-b7b8-4d79-b628-a7785d3a4373"},"vehicle_type_id":"4","last_reported":1773171018,"current_range_meters":27600,"station_id":"ce4bh0p2rcd13ifvqd70","pricing_plan_id":"cebpf4jnsgd1na2vs0mg"},{"bike_id":"c1cb6a2c-2365-4211-91cc-5a44236c6c4f","system_id":"levelo_inurba_marseille","lat":43.30565,"lon":5.3672,"is_reserved":false,"is_disabled":false,"rental_uris":{"android":"levelo://app?vid=c1cb6a2c-2365-4211-91cc-5a44236c6c4f","ios":"levelo://app?vid=c1cb6a2c-2365-4211-91cc-5a44236c6c4f"},"vehicle_type_id":"4","last_reported":1773171018,"current_range_meters":39200,"station_id":"ce4bgrp2rcd13ifvqc9g","pricing_plan_id":"cebpf4jnsgd1na2vs0mg"},{"bike_id":"c8be21b5-5577-4106-bb69-7602eee2cda8","system_id":"levelo_inurba_marseille","lat":43.29252,"lon":5.36845,"is_reserved":false,"is_disabled":false,"rental_uris":{"android":"levelo://app?vid=c8be21b5-5577-4106-bb69-7602eee2cda8","ios":"levelo://app?vid=c8be21b5-5577-4106-bb69-7602eee2cda8"},"vehicle_type_id":"4","last_reported":1773171018,"current_range_meters":38400,"station_id":"ce4bhbp2rcd13ifvqesg","pricing_plan_id":"cebpf4jnsgd1na2vs0mg"},{"bike_id":"eec0af88-dcc5-4857-bcb7-ce9dad019814","system_id":"levelo_inurba_marseille","lat":43.23188,"lon":5.39988,"is_reserved":false,"is_disabled":false,"rental_uris":{"android":"levelo://app?vid=eec0af88-dcc5-4857-bcb7-ce9dad019814","ios":"levelo://app?vid=eec0af88-dcc5-4857-bcb7-ce9dad019814"},"vehicle_type_id":"4","last_reported":1773171018,"current_range_meters":17200,"station_id":"ce4bhn12rcd13ifvqgqg","pricing_plan_id":"cebpf4jnsgd1na2vs0mg"},{"bike_id":"6a4a739f-085d-4030-9390-a84389d8fa67","system_id":"levelo_inurba_marseille","lat":43.27928,"lon":5.38031,"is_reserved":false,"is_disabled":false,"rental_uris":{"android":"levelo://app?vid=6a4a739f-085d-4030-9390-a84389d8fa67","ios":"levelo://app?vid=6a4a739f-085d-4030-9390-a84389d8fa67"},"vehicle_type_id":"4","last_reported":1773171018,"current_range_meters":34800,"station_id":"ce4bhf92rcd13ifvqf50","pricing_plan_id":"cebpf4jnsgd1na2vs0mg"},{"bike_id":"5d55732e-5c36-486e-b372-191ac51358e5","system_id":"levelo_inurba_marseille","lat":43.28823,"lon":5.35868,"is_reserved":false,"is_disabled":false,"rental_uris":{"android":"levelo://app?vid=5d55732e-5c36-486e-b372-191ac51358e5","ios":"levelo://app?vid=5d55732e-5c36-486e-b372-191ac51358e5"},"vehicle_type_id":"4","last_reported":1773171018,"current_range_meters":30800,"station_id":"ce4bhb12rcd13ifvqem0","pricing_plan_id":"cebpf4jnsgd1na2vs0mg"},{"bike_id":"0a15645e-c5d6-4536-8c9b-654441bed25f","system_id":"levelo_inurba_marseille","lat":43.24799,"lon":5.37442,"is_reserved":false,"is_disabled":false,"rental_uris":{"android":"levelo://app?vid=0a15645e-c5d6-4536-8c9b-654441bed25f","ios":"levelo://app?vid=0a15645e-c5d6-4536-8c9b-654441bed25f"},"vehicle_type_id":"4","last_reported":1773171018,"current_range_meters":38800,"station_id":"ce4bhgh2rcd13ifvqfb0","pricing_plan_id":"cebpf4jnsgd1na2vs0mg"},{"bike_id":"772eb346-508a-4f6e-bb0c-60408a701352","system_id":"levelo_inurba_marseille","lat":43.27058,"lon":5.38306,"is_reserved":false,"is_disabled":false,"rental_uris":{"android":"levelo://app?vid=772eb346-508a-4f6e-bb0c-60408a701352","ios":"levelo://app?vid=772eb346-508a-4f6e-bb0c-60408a701352"},"vehicle_type_id":"4","last_reported":1773171018,"current_range_meters":22400,"station_id":"st_d3n2fo6cfp8s73cte1j0","pricing_plan_id":"cebpf4jnsgd1na2vs0mg"},{"bike_id":"bfdc223f-906a-4eea-9ff6-561fca002d9f","system_id":"levelo_inurba_marseille","lat":43.29309,"lon":5.37162,"is_reserved":false,"is_disabled":false,"rental_uris":{"android":"levelo://app?vid=bfdc223f-906a-4eea-9ff6-561fca002d9f","ios":"levelo://app?vid=bfdc223f-906a-4eea-9ff6-561fca002d9f"},"vehicle_type_id":"4","last_reported":1773171018,"current_range_meters":40000,"station_id":"ce4bgh92rcd13ifvqb40","pricing_plan_id":"cebpf4jnsgd1na2vs0mg"},{"bike_id":"0bb07860-f0f1-43f0-a773-0fc089b2ef67","system_id":"levelo_inurba_marseille","lat":43.29252,"lon":5.3844,"is_reserved":false,"is_disabled":true,"rental_uris":{"android":"levelo://app?vid=0bb07860-f0f1-43f0-a773-0fc089b2ef67","ios":"levelo://app?vid=0bb07860-f0f1-43f0-a773-0fc089b2ef67"},"vehicle_type_id":"4","last_reported":1773171018,"current_range_meters":26800,"station_id":"ce4bh692rcd13ifvqea0","pricing_plan_id":"cebpf4jnsgd1na2vs0mg"},{"bike_id":"100be768-3ae8-4fa7-9c85-3479f548bdf8","system_id":"levelo_inurba_marseille","lat":43.23179,"lon":5.39985,"is_reserved":false,"is_disabled":false,"rental_uris":{"android":"levelo://app?vid=100be768-3ae8-4fa7-9c85-3479f548bdf8","ios":"levelo://app?vid=100be768-3ae8-4fa7-9c85-3479f548bdf8"},"vehicle_type_id":"4","last_reported":1773171018,"current_range_meters":9200,"station_id":"ce4bhn12rcd13ifvqgqg","pricing_plan_id":"cebpf4jnsgd1na2vs0mg"},{"bike_id":"a61d76ea-94db-455d-8f2b-b5b6ad28e51f","system_id":"levelo_inurba_marseille","lat":43.27487,"lon":5.41581,"is_reserved":false,"is_disabled":false,"rental_uris":{"android":"levelo://app?vid=a61d76ea-94db-455d-8f2b-b5b6ad28e51f","ios":"levelo://app?vid=a61d76ea-94db-455d-8f2b-b5b6ad28e51f"},"vehicle_type_id":"4","last_reported":1773171018,"current_range_meters":18800,"station_id":"st_d6im8g6chgec73a5pndg","pricing_plan_id":"cebpf4jnsgd1na2vs0mg"},{"bike_id":"46acf2bf-353f-44d3-82bc-ac7b18ed6596","system_id":"levelo_inurba_marseille","lat":43.29727,"lon":5.41059,"is_reserved":false,"is_disabled":false,"rental_uris":{"android":"levelo://app?vid=46acf2bf-353f-44d3-82bc-ac7b18ed6596","ios":"levelo://app?vid=46acf2bf-353f-44d3-82bc-ac7b18ed6596"},"vehicle_type_id":"4","last_reported":1773171018,"current_range_meters":32400,"station_id":"","pricing_plan_id":"cebpf4jnsgd1na2vs0mg"},{"bike_id":"eeaa0a09-20c6-4cde-8f3f-9678bb79e094","system_id":"levelo_inurba_marseille","lat":43.28844,"lon":5.35865,"is_reserved":false,"is_disabled":false,"rental_uris":{"android":"levelo://app?vid=eeaa0a09-20c6-4cde-8f3f-9678bb79e094","ios":"levelo://app?vid=eeaa0a09-20c6-4cde-8f3f-9678bb79e094"},"vehicle_type_id":"4","last_reported":1773171018,"current_range_meters":3600,"station_id":"ce4bhb12rcd13ifvqem0","pricing_plan_id":"cebpf4jnsgd1na2vs0mg"},{"bike_id":"9ad8d7e5-3518-4e76-b2fc-8e451329318e","system_id":"levelo_inurba_marseille","lat":43.29764,"lon":5.37104,"is_reserved":false,"is_disabled":false,"rental_uris":{"android":"levelo://app?vid=9ad8d7e5-3518-4e76-b2fc-8e451329318e","ios":"levelo://app?vid=9ad8d7e5-3518-4e76-b2fc-8e451329318e"},"vehicle_type_id":"4","last_reported":1773171018,"current_range_meters":20800,"station_id":"ce4bgop2rcd13ifvqc1g","pricing_plan_id":"cebpf4jnsgd1na2vs0mg"},{"bike_id":"41b4557f-a380-49b2-94ec-4788dd781213","system_id":"levelo_inurba_marseille","lat":43.29811,"lon":5.4188,"is_reserved":false,"is_disabled":false,"rental_uris":{"android":"levelo://app?vid=41b4557f-a380-49b2-94ec-4788dd781213","ios":"levelo://app?vid=41b4557f-a380-49b2-94ec-4788dd781213"},"vehicle_type_id":"4","last_reported":1773171018,"current_range_meters":32800,"station_id":"","pricing_plan_id":"cebpf4jnsgd1na2vs0mg"},{"bike_id":"fb4d61cd-3a7a-4a98-8b1c-22f7acc75c3f","system_id":"levelo_inurba_marseille","lat":43.28111,"lon":5.37866,"is_reserved":false,"is_disabled":false,"rental_uris":{"android":"levelo://app?vid=fb4d61cd-3a7a-4a98-8b1c-22f7acc75c3f","ios":"levelo://app?vid=fb4d61cd-3a7a-4a98-8b1c-22f7acc75c3f"},"vehicle_type_id":"4","last_reported":1773171018,"current_range_meters":35200,"station_id":"ce4bha12rcd13ifvqee0","pricing_plan_id":"cebpf4jnsgd1na2vs0mg"},{"bike_id":"1a0e1b2b-f20d-4b3e-832c-ec66758de50d","system_id":"levelo_inurba_marseille","lat":43.29606,"lon":5.37495,"is_reserved":false,"is_disabled":false,"rental_uris":{"android":"levelo://app?vid=1a0e1b2b-f20d-4b3e-832c-ec66758de50d","ios":"levelo://app?vid=1a0e1b2b-f20d-4b3e-832c-ec66758de50d"},"vehicle_type_id":"4","last_reported":1773171018,"current_range_meters":12000,"station_id":"ce4bgh92rcd13ifvqb50","pricing_plan_id":"cebpf4jnsgd1na2vs0mg"},{"bike_id":"3a8f9f7f-a38a-4bed-9737-4ffdd744233b","system_id":"levelo_inurba_marseille","lat":43.28666,"lon":5.38653,"is_reserved":false,"is_disabled":false,"rental_uris":{"android":"levelo://app?vid=3a8f9f7f-a38a-4bed-9737-4ffdd744233b","ios":"levelo://app?vid=3a8f9f7f-a38a-4bed-9737-4ffdd744233b"},"vehicle_type_id":"4","last_reported":1773171018,"current_range_meters":38400,"station_id":"ce4bh492rcd13ifvqdug","pricing_plan_id":"cebpf4jnsgd1na2vs0mg"},{"bike_id":"b016689c-ce64-41ba-bc01-e73a8abf4032","system_id":"levelo_inurba_marseille","lat":43.26047,"lon":5.394,"is_reserved":false,"is_disabled":false,"rental_uris":{"android":"levelo://app?vid=b016689c-ce64-41ba-bc01-e73a8abf4032","ios":"levelo://app?vid=b016689c-ce64-41ba-bc01-e73a8abf4032"},"vehicle_type_id":"4","last_reported":1773171018,"current_range_meters":20000,"station_id":"ce4bhh92rcd13ifvqfj0","pricing_plan_id":"cebpf4jnsgd1na2vs0mg"},{"bike_id":"36ac8127-e9f4-467c-9cb2-d6ca0a6ba7aa","system_id":"levelo_inurba_marseille","lat":43.28451,"lon":5.3589,"is_reserved":false,"is_disabled":false,"rental_uris":{"android":"levelo://app?vid=36ac8127-e9f4-467c-9cb2-d6ca0a6ba7aa","ios":"levelo://app?vid=36ac8127-e9f4-467c-9cb2-d6ca0a6ba7aa"},"vehicle_type_id":"4","last_reported":1773171018,"current_range_meters":8000,"station_id":"ce4bhah2rcd13ifvqei0","pricing_plan_id":"cebpf4jnsgd1na2vs0mg"},{"bike_id":"faf92a5a-3d61-4f03-bf42-72ddb851c0c8","system_id":"levelo_inurba_marseille","lat":43.28167,"lon":5.42672,"is_reserved":false,"is_disabled":false,"rental_uris":{"android":"levelo://app?vid=faf92a5a-3d61-4f03-bf42-72ddb851c0c8","ios":"levelo://app?vid=faf92a5a-3d61-4f03-bf42-72ddb851c0c8"},"vehicle_type_id":"4","last_reported":1773171018,"current_range_meters":25200,"station_id":"ce4bhnh2rcd13ifvqgug","pricing_plan_id":"cebpf4jnsgd1na2vs0mg"},{"bike_id":"d7451254-5976-4f73-9029-3977edd13e6b","system_id":"levelo_inurba_marseille","lat":43.30135,"lon":5.38768,"is_reserved":false,"is_disabled":false,"rental_uris":{"android":"levelo://app?vid=d7451254-5976-4f73-9029-3977edd13e6b","ios":"levelo://app?vid=d7451254-5976-4f73-9029-3977edd13e6b"},"vehicle_type_id":"4","last_reported":1773171018,"current_range_meters":26000,"station_id":"ce4bghh2rcd13ifvqb60","pricing_plan_id":"cebpf4jnsgd1na2vs0mg"},{"bike_id":"14afc148-1997-4fef-832d-a8c04a737764","system_id":"levelo_inurba_marseille","lat":43.24956,"lon":5.40493,"is_reserved":false,"is_disabled":false,"rental_uris":{"android":"levelo://app?vid=14afc148-1997-4fef-832d-a8c04a737764","ios":"levelo://app?vid=14afc148-1997-4fef-832d-a8c04a737764"},"vehicle_type_id":"4","last_reported":1773171018,"current_range_meters":8800,"station_id":"st_d2ngiaodas8pm72gd1h0","pricing_plan_id":"cebpf4jnsgd1na2vs0mg"},{"bike_id":"37877e41-9bb3-4f96-934c-3e0fff95bb6e","system_id":"levelo_inurba_marseille","lat":43.28423,"lon":5.3498,"is_reserved":false,"is_disabled":false,"rental_uris":{"android":"levelo://app?vid=37877e41-9bb3-4f96-934c-3e0fff95bb6e","ios":"levelo://app?vid=37877e41-9bb3-4f96-934c-3e0fff95bb6e"},"vehicle_type_id":"4","last_reported":1773171018,"current_range_meters":39200,"station_id":"ce4bhbh2rcd13ifvqepg","pricing_plan_id":"cebpf4jnsgd1na2vs0mg"},{"bike_id":"653b2870-bdc3-4a5e-9900-fbf9f7e9f74b","system_id":"levelo_inurba_marseille","lat":43.26705,"lon":5.38296,"is_reserved":false,"is_disabled":false,"rental_uris":{"android":"levelo://app?vid=653b2870-bdc3-4a5e-9900-fbf9f7e9f74b","ios":"levelo://app?vid=653b2870-bdc3-4a5e-9900-fbf9f7e9f74b"},"vehicle_type_id":"4","last_reported":1773171018,"current_range_meters":39200,"station_id":"ce4bhg92rcd13ifvqf90","pricing_plan_id":"cebpf4jnsgd1na2vs0mg"},{"bike_id":"59745d9f-a02b-429c-81fa-3a5bb5985614","system_id":"levelo_inurba_marseille","lat":43.33768,"lon":5.37453,"is_reserved":false,"is_disabled":true,"rental_uris":{"android":"levelo://app?vid=59745d9f-a02b-429c-81fa-3a5bb5985614","ios":"levelo://app?vid=59745d9f-a02b-429c-81fa-3a5bb5985614"},"vehicle_type_id":"4","last_reported":1773171018,"current_range_meters":38400,"station_id":"","pricing_plan_id":"cebpf4jnsgd1na2vs0mg"},{"bike_id":"7545716f-1691-4509-8cc7-1dd008d29abf","system_id":"levelo_inurba_marseille","lat":43.24839,"lon":5.37466,"is_reserved":false,"is_disabled":false,"rental_uris":{"android":"levelo://app?vid=7545716f-1691-4509-8cc7-1dd008d29abf","ios":"levelo://app?vid=7545716f-1691-4509-8cc7-1dd008d29abf"},"vehicle_type_id":"4","last_reported":1773171018,"current_range_meters":24000,"station_id":"","pricing_plan_id":"cebpf4jnsgd1na2vs0mg"},{"bike_id":"e83fb844-9392-475a-b014-f640b41c4829","system_id":"levelo_inurba_marseille","lat":43.22556,"lon":5.41625,"is_reserved":false,"is_disabled":false,"rental_uris":{"android":"levelo://app?vid=e83fb844-9392-475a-b014-f640b41c4829","ios":"levelo://app?vid=e83fb844-9392-475a-b014-f640b41c4829"},"vehicle_type_id":"4","last_reported":1773171018,"current_range_meters":38400,"station_id":"st_d2o4gvlbi1j2169b742g","pricing_plan_id":"cebpf4jnsgd1na2vs0mg"},{"bike_id":"990d0267-98ba-4131-bf7b-d139141d23a1","system_id":"levelo_inurba_marseille","lat":43.22548,"lon":5.41679,"is_reserved":false,"is_disabled":false,"rental_uris":{"android":"levelo://app?vid=990d0267-98ba-4131-bf7b-d139141d23a1","ios":"levelo://app?vid=990d0267-98ba-4131-bf7b-d139141d23a1"},"vehicle_type_id":"4","last_reported":1773171018,"current_range_meters":4800,"station_id":"st_d2o4gvlbi1j2169b742g","pricing_plan_id":"cebpf4jnsgd1na2vs0mg"},{"bike_id":"c5289ea1-ef39-413d-b37b-f49fc9505754","system_id":"levelo_inurba_marseille","lat":43.2957,"lon":5.37533,"is_reserved":false,"is_disabled":false,"rental_uris":{"android":"levelo://app?vid=c5289ea1-ef39-413d-b37b-f49fc9505754","ios":"levelo://app?vid=c5289ea1-ef39-413d-b37b-f49fc9505754"},"vehicle_type_id":"4","last_reported":1773171018,"current_range_meters":23200,"station_id":"ce4bgh92rcd13ifvqb50","pricing_plan_id":"cebpf4jnsgd1na2vs0mg"},{"bike_id":"548e73a6-d4e6-4e0a-92e2-828cd18a3370","system_id":"levelo_inurba_marseille","lat":43.25346,"lon":5.42156,"is_reserved":false,"is_disabled":false,"rental_uris":{"android":"levelo://app?vid=548e73a6-d4e6-4e0a-92e2-828cd18a3370","ios":"levelo://app?vid=548e73a6-d4e6-4e0a-92e2-828cd18a3370"},"vehicle_type_id":"4","last_reported":1773171018,"current_range_meters":33600,"station_id":"st_d2m65c5bi1j21697t3ng","pricing_plan_id":"cebpf4jnsgd1na2vs0mg"},{"bike_id":"f6709135-c3f3-466b-af0c-ffb212ee3722","system_id":"levelo_inurba_marseille","lat":43.29836,"lon":5.41424,"is_reserved":false,"is_disabled":false,"rental_uris":{"android":"levelo://app?vid=f6709135-c3f3-466b-af0c-ffb212ee3722","ios":"levelo://app?vid=f6709135-c3f3-466b-af0c-ffb212ee3722"},"vehicle_type_id":"4","last_reported":1773171018,"current_range_meters":38000,"station_id":"","pricing_plan_id":"cebpf4jnsgd1na2vs0mg"},{"bike_id":"0eafe168-3990-4fed-aafd-9f8c0085575d","system_id":"levelo_inurba_marseille","lat":43.29201,"lon":5.35569,"is_reserved":false,"is_disabled":false,"rental_uris":{"android":"levelo://app?vid=0eafe168-3990-4fed-aafd-9f8c0085575d","ios":"levelo://app?vid=0eafe168-3990-4fed-aafd-9f8c0085575d"},"vehicle_type_id":"4","last_reported":1773171018,"current_range_meters":12000,"station_id":"ce4bhb92rcd13ifvqen0","pricing_plan_id":"cebpf4jnsgd1na2vs0mg"},{"bike_id":"5d3b1fb8-2f92-4da0-b3ad-6f80b676e57b","system_id":"levelo_inurba_marseille","lat":43.27174,"lon":5.40997,"is_reserved":false,"is_disabled":false,"rental_uris":{"android":"levelo://app?vid=5d3b1fb8-2f92-4da0-b3ad-6f80b676e57b","ios":"levelo://app?vid=5d3b1fb8-2f92-4da0-b3ad-6f80b676e57b"},"vehicle_type_id":"4","last_reported":1773171018,"current_range_meters":26000,"station_id":"ce4bhl12rcd13ifvqgf0","pricing_plan_id":"cebpf4jnsgd1na2vs0mg"},{"bike_id":"bf663ae3-aa47-496d-bf1e-ba0c7358412b","system_id":"levelo_inurba_marseille","lat":43.28475,"lon":5.48402,"is_reserved":false,"is_disabled":false,"rental_uris":{"android":"levelo://app?vid=bf663ae3-aa47-496d-bf1e-ba0c7358412b","ios":"levelo://app?vid=bf663ae3-aa47-496d-bf1e-ba0c7358412b"},"vehicle_type_id":"4","last_reported":1773171018,"current_range_meters":32800,"station_id":"","pricing_plan_id":"cebpf4jnsgd1na2vs0mg"},{"bike_id":"57418e67-4f41-4aa6-aa3e-9cc2de700256","system_id":"levelo_inurba_marseille","lat":43.25331,"lon":5.42179,"is_reserved":false,"is_disabled":false,"rental_uris":{"android":"levelo://app?vid=57418e67-4f41-4aa6-aa3e-9cc2de700256","ios":"levelo://app?vid=57418e67-4f41-4aa6-aa3e-9cc2de700256"},"vehicle_type_id":"4","last_reported":1773171018,"current_range_meters":14000,"station_id":"st_d2m65c5bi1j21697t3ng","pricing_plan_id":"cebpf4jnsgd1na2vs0mg"},{"bike_id":"901d10f3-bbe0-4ad0-9855-1d44d2fa61d9","system_id":"levelo_inurba_marseille","lat":43.28968,"lon":5.36444,"is_reserved":false,"is_disabled":false,"rental_uris":{"android":"levelo://app?vid=901d10f3-bbe0-4ad0-9855-1d44d2fa61d9","ios":"levelo://app?vid=901d10f3-bbe0-4ad0-9855-1d44d2fa61d9"},"vehicle_type_id":"4","last_reported":1773171018,"current_range_meters":32800,"station_id":"ce4bhc92rcd13ifvqetg","pricing_plan_id":"cebpf4jnsgd1na2vs0mg"},{"bike_id":"cbc9fc7d-daee-4c9c-a788-f95cd3ffd717","system_id":"levelo_inurba_marseille","lat":43.28479,"lon":5.48409,"is_reserved":false,"is_disabled":false,"rental_uris":{"android":"levelo://app?vid=cbc9fc7d-daee-4c9c-a788-f95cd3ffd717","ios":"levelo://app?vid=cbc9fc7d-daee-4c9c-a788-f95cd3ffd717"},"vehicle_type_id":"4","last_reported":1773171018,"current_range_meters":33600,"station_id":"","pricing_plan_id":"cebpf4jnsgd1na2vs0mg"},{"bike_id":"ec0909d9-8317-4a29-b159-4596adfaa6c0","system_id":"levelo_inurba_marseille","lat":43.28462,"lon":5.35883,"is_reserved":false,"is_disabled":false,"rental_uris":{"android":"levelo://app?vid=ec0909d9-8317-4a29-b159-4596adfaa6c0","ios":"levelo://app?vid=ec0909d9-8317-4a29-b159-4596adfaa6c0"},"vehicle_type_id":"4","last_reported":1773171018,"current_range_meters":39200,"station_id":"ce4bhah2rcd13ifvqei0","pricing_plan_id":"cebpf4jnsgd1na2vs0mg"},{"bike_id":"6108a29e-4d46-4337-95f0-ccdcf5e5a055","system_id":"levelo_inurba_marseille","lat":43.32112,"lon":5.36827,"is_reserved":false,"is_disabled":false,"rental_uris":{"android":"levelo://app?vid=6108a29e-4d46-4337-95f0-ccdcf5e5a055","ios":"levelo://app?vid=6108a29e-4d46-4337-95f0-ccdcf5e5a055"},"vehicle_type_id":"4","last_reported":1773171018,"current_range_meters":24400,"station_id":"ce4bhrh2rcd13ifvqhug","pricing_plan_id":"cebpf4jnsgd1na2vs0mg"},{"bike_id":"ae67c920-ba6a-4f9c-a30c-decde7507dd7","system_id":"levelo_inurba_marseille","lat":43.24365,"lon":5.44112,"is_reserved":false,"is_disabled":false,"rental_uris":{"android":"levelo://app?vid=ae67c920-ba6a-4f9c-a30c-decde7507dd7","ios":"levelo://app?vid=ae67c920-ba6a-4f9c-a30c-decde7507dd7"},"vehicle_type_id":"4","last_reported":1773171018,"current_range_meters":11600,"station_id":"","pricing_plan_id":"cebpf4jnsgd1na2vs0mg"},{"bike_id":"348c35f4-672b-4214-a88f-311342fb917f","system_id":"levelo_inurba_marseille","lat":43.25028,"lon":5.38944,"is_reserved":false,"is_disabled":false,"rental_uris":{"android":"levelo://app?vid=348c35f4-672b-4214-a88f-311342fb917f","ios":"levelo://app?vid=348c35f4-672b-4214-a88f-311342fb917f"},"vehicle_type_id":"4","last_reported":1773171018,"current_range_meters":15200,"station_id":"ce4bhgp2rcd13ifvqfd0","pricing_plan_id":"cebpf4jnsgd1na2vs0mg"},{"bike_id":"b3d5d5cb-bddd-4ee6-bbe9-ef705a939cbe","system_id":"levelo_inurba_marseille","lat":43.28459,"lon":5.38388,"is_reserved":false,"is_disabled":false,"rental_uris":{"android":"levelo://app?vid=b3d5d5cb-bddd-4ee6-bbe9-ef705a939cbe","ios":"levelo://app?vid=b3d5d5cb-bddd-4ee6-bbe9-ef705a939cbe"},"vehicle_type_id":"4","last_reported":1773171018,"current_range_meters":36400,"station_id":"ce4bh512rcd13ifvqe3g","pricing_plan_id":"cebpf4jnsgd1na2vs0mg"},{"bike_id":"1a31443b-e63c-4c7f-821f-556c15812ebd","system_id":"levelo_inurba_marseille","lat":43.22931,"lon":5.35381,"is_reserved":false,"is_disabled":false,"rental_uris":{"android":"levelo://app?vid=1a31443b-e63c-4c7f-821f-556c15812ebd","ios":"levelo://app?vid=1a31443b-e63c-4c7f-821f-556c15812ebd"},"vehicle_type_id":"4","last_reported":1773171018,"current_range_meters":18800,"station_id":"cpo3532slgdg3j2ikp40","pricing_plan_id":"cebpf4jnsgd1na2vs0mg"},{"bike_id":"e5d67327-a457-47fd-b30c-627d335bf7f4","system_id":"levelo_inurba_marseille","lat":43.26676,"lon":5.3826,"is_reserved":false,"is_disabled":false,"rental_uris":{"android":"levelo://app?vid=e5d67327-a457-47fd-b30c-627d335bf7f4","ios":"levelo://app?vid=e5d67327-a457-47fd-b30c-627d335bf7f4"},"vehicle_type_id":"4","last_reported":1773171018,"current_range_meters":30000,"station_id":"ce4bhg92rcd13ifvqf90","pricing_plan_id":"cebpf4jnsgd1na2vs0mg"},{"bike_id":"7bd36c0b-80cb-4e2e-885a-99f141da2c31","system_id":"levelo_inurba_marseille","lat":43.27014,"lon":5.40356,"is_reserved":false,"is_disabled":false,"rental_uris":{"android":"levelo://app?vid=7bd36c0b-80cb-4e2e-885a-99f141da2c31","ios":"levelo://app?vid=7bd36c0b-80cb-4e2e-885a-99f141da2c31"},"vehicle_type_id":"4","last_reported":1773171018,"current_range_meters":27600,"station_id":"cjm6bp8fraef2m0cb0m0","pricing_plan_id":"cebpf4jnsgd1na2vs0mg"},{"bike_id":"c8f901d1-4ef2-48d4-ab96-f869f41e6221","system_id":"levelo_inurba_marseille","lat":43.2257,"lon":5.41663,"is_reserved":false,"is_disabled":false,"rental_uris":{"android":"levelo://app?vid=c8f901d1-4ef2-48d4-ab96-f869f41e6221","ios":"levelo://app?vid=c8f901d1-4ef2-48d4-ab96-f869f41e6221"},"vehicle_type_id":"4","last_reported":1773171018,"current_range_meters":21600,"station_id":"st_d2o4gvlbi1j2169b742g","pricing_plan_id":"cebpf4jnsgd1na2vs0mg"},{"bike_id":"cbe540f4-9ff3-4afd-8383-ab4776b5a397","system_id":"levelo_inurba_marseille","lat":43.27773,"lon":5.40663,"is_reserved":false,"is_disabled":false,"rental_uris":{"android":"levelo://app?vid=cbe540f4-9ff3-4afd-8383-ab4776b5a397","ios":"levelo://app?vid=cbe540f4-9ff3-4afd-8383-ab4776b5a397"},"vehicle_type_id":"4","last_reported":1773171018,"current_range_meters":32000,"station_id":"ce4bhnh2rcd13ifvqgtg","pricing_plan_id":"cebpf4jnsgd1na2vs0mg"},{"bike_id":"eb20a844-b126-4391-b485-539d55b7e51c","system_id":"levelo_inurba_marseille","lat":43.2416,"lon":5.364,"is_reserved":false,"is_disabled":false,"rental_uris":{"android":"levelo://app?vid=eb20a844-b126-4391-b485-539d55b7e51c","ios":"levelo://app?vid=eb20a844-b126-4391-b485-539d55b7e51c"},"vehicle_type_id":"4","last_reported":1773171018,"current_range_meters":19200,"station_id":"cpo36qri1sfpv3e86is0","pricing_plan_id":"cebpf4jnsgd1na2vs0mg"},{"bike_id":"f5858492-80a6-4d09-876a-9a294e5dc425","system_id":"levelo_inurba_marseille","lat":43.29516,"lon":5.39033,"is_reserved":false,"is_disabled":false,"rental_uris":{"android":"levelo://app?vid=f5858492-80a6-4d09-876a-9a294e5dc425","ios":"levelo://app?vid=f5858492-80a6-4d09-876a-9a294e5dc425"},"vehicle_type_id":"4","last_reported":1773171018,"current_range_meters":36800,"station_id":"ce4bh3p2rcd13ifvqdp0","pricing_plan_id":"cebpf4jnsgd1na2vs0mg"},{"bike_id":"d00b704e-7008-48b4-aa9f-599131272805","system_id":"levelo_inurba_marseille","lat":43.29897,"lon":5.38165,"is_reserved":false,"is_disabled":false,"rental_uris":{"android":"levelo://app?vid=d00b704e-7008-48b4-aa9f-599131272805","ios":"levelo://app?vid=d00b704e-7008-48b4-aa9f-599131272805"},"vehicle_type_id":"4","last_reported":1773171018,"current_range_meters":32000,"station_id":"ce4bgj12rcd13ifvqbc0","pricing_plan_id":"cebpf4jnsgd1na2vs0mg"},{"bike_id":"9d5353d1-040f-42fe-ad53-80a0562dc66d","system_id":"levelo_inurba_marseille","lat":43.23183,"lon":5.4373,"is_reserved":false,"is_disabled":false,"rental_uris":{"android":"levelo://app?vid=9d5353d1-040f-42fe-ad53-80a0562dc66d","ios":"levelo://app?vid=9d5353d1-040f-42fe-ad53-80a0562dc66d"},"vehicle_type_id":"4","last_reported":1773171018,"current_range_meters":25200,"station_id":"ce4bhmp2rcd13ifvqgog","pricing_plan_id":"cebpf4jnsgd1na2vs0mg"},{"bike_id":"a2b5712e-1a49-4347-aa3f-18db9fac5448","system_id":"levelo_inurba_marseille","lat":43.30367,"lon":5.42479,"is_reserved":false,"is_disabled":false,"rental_uris":{"android":"levelo://app?vid=a2b5712e-1a49-4347-aa3f-18db9fac5448","ios":"levelo://app?vid=a2b5712e-1a49-4347-aa3f-18db9fac5448"},"vehicle_type_id":"4","last_reported":1773171018,"current_range_meters":35200,"station_id":"ce4bhoh2rcd13ifvqh6g","pricing_plan_id":"cebpf4jnsgd1na2vs0mg"},{"bike_id":"d5493774-f13b-444f-a337-a02134e08a9d","system_id":"levelo_inurba_marseille","lat":43.30238,"lon":5.40042,"is_reserved":false,"is_disabled":false,"rental_uris":{"android":"levelo://app?vid=d5493774-f13b-444f-a337-a02134e08a9d","ios":"levelo://app?vid=d5493774-f13b-444f-a337-a02134e08a9d"},"vehicle_type_id":"4","last_reported":1773171018,"current_range_meters":29600,"station_id":"ce4bgvh2rcd13ifvqcs0","pricing_plan_id":"cebpf4jnsgd1na2vs0mg"},{"bike_id":"9dda66ba-9e6d-4ee9-8495-eaab6aa27929","system_id":"levelo_inurba_marseille","lat":43.3119,"lon":5.37669,"is_reserved":false,"is_disabled":false,"rental_uris":{"android":"levelo://app?vid=9dda66ba-9e6d-4ee9-8495-eaab6aa27929","ios":"levelo://app?vid=9dda66ba-9e6d-4ee9-8495-eaab6aa27929"},"vehicle_type_id":"4","last_reported":1773171018,"current_range_meters":34000,"station_id":"","pricing_plan_id":"cebpf4jnsgd1na2vs0mg"},{"bike_id":"8ddfa809-1b49-4a10-aa69-6392919cd656","system_id":"levelo_inurba_marseille","lat":43.26701,"lon":5.38277,"is_reserved":false,"is_disabled":false,"rental_uris":{"android":"levelo://app?vid=8ddfa809-1b49-4a10-aa69-6392919cd656","ios":"levelo://app?vid=8ddfa809-1b49-4a10-aa69-6392919cd656"},"vehicle_type_id":"4","last_reported":1773171018,"current_range_meters":20800,"station_id":"ce4bhg92rcd13ifvqf90","pricing_plan_id":"cebpf4jnsgd1na2vs0mg"},{"bike_id":"1ac7fa43-7925-4efb-84d1-312b1b10e660","system_id":"levelo_inurba_marseille","lat":43.29395,"lon":5.37897,"is_reserved":false,"is_disabled":true,"rental_uris":{"android":"levelo://app?vid=1ac7fa43-7925-4efb-84d1-312b1b10e660","ios":"levelo://app?vid=1ac7fa43-7925-4efb-84d1-312b1b10e660"},"vehicle_type_id":"4","last_reported":1773171018,"current_range_meters":27600,"station_id":"ce4bgjh2rcd13ifvqbf0","pricing_plan_id":"cebpf4jnsgd1na2vs0mg"},{"bike_id":"b8325826-1e36-436c-8b1a-53737f669898","system_id":"levelo_inurba_marseille","lat":43.25519,"lon":5.37674,"is_reserved":false,"is_disabled":false,"rental_uris":{"android":"levelo://app?vid=b8325826-1e36-436c-8b1a-53737f669898","ios":"levelo://app?vid=b8325826-1e36-436c-8b1a-53737f669898"},"vehicle_type_id":"4","last_reported":1773171018,"current_range_meters":39200,"station_id":"ce4bhh12rcd13ifvqff0","pricing_plan_id":"cebpf4jnsgd1na2vs0mg"},{"bike_id":"bae2e29c-32c8-423f-b9a2-bf4a2c0e4578","system_id":"levelo_inurba_marseille","lat":43.29578,"lon":5.39078,"is_reserved":false,"is_disabled":false,"rental_uris":{"android":"levelo://app?vid=bae2e29c-32c8-423f-b9a2-bf4a2c0e4578","ios":"levelo://app?vid=bae2e29c-32c8-423f-b9a2-bf4a2c0e4578"},"vehicle_type_id":"4","last_reported":1773171018,"current_range_meters":17600,"station_id":"","pricing_plan_id":"cebpf4jnsgd1na2vs0mg"},{"bike_id":"091e1185-f338-4bc4-a9d0-26c226c05941","system_id":"levelo_inurba_marseille","lat":43.24815,"lon":5.37465,"is_reserved":false,"is_disabled":false,"rental_uris":{"android":"levelo://app?vid=091e1185-f338-4bc4-a9d0-26c226c05941","ios":"levelo://app?vid=091e1185-f338-4bc4-a9d0-26c226c05941"},"vehicle_type_id":"4","last_reported":1773171018,"current_range_meters":34000,"station_id":"ce4bhgh2rcd13ifvqfb0","pricing_plan_id":"cebpf4jnsgd1na2vs0mg"},{"bike_id":"8f40026e-8d11-449d-b25b-73b3a3832713","system_id":"levelo_inurba_marseille","lat":43.28085,"lon":5.39647,"is_reserved":false,"is_disabled":false,"rental_uris":{"android":"levelo://app?vid=8f40026e-8d11-449d-b25b-73b3a3832713","ios":"levelo://app?vid=8f40026e-8d11-449d-b25b-73b3a3832713"},"vehicle_type_id":"4","last_reported":1773171018,"current_range_meters":24800,"station_id":"ce4bho12rcd13ifvqh2g","pricing_plan_id":"cebpf4jnsgd1na2vs0mg"},{"bike_id":"85547a07-4390-44f0-be54-0fc3288ee5d4","system_id":"levelo_inurba_marseille","lat":43.28498,"lon":5.48396,"is_reserved":false,"is_disabled":false,"rental_uris":{"android":"levelo://app?vid=85547a07-4390-44f0-be54-0fc3288ee5d4","ios":"levelo://app?vid=85547a07-4390-44f0-be54-0fc3288ee5d4"},"vehicle_type_id":"4","last_reported":1773171018,"current_range_meters":25200,"station_id":"","pricing_plan_id":"cebpf4jnsgd1na2vs0mg"},{"bike_id":"c1289f42-bd83-4cc2-885b-0ecfa29173af","system_id":"levelo_inurba_marseille","lat":43.30791,"lon":5.38162,"is_reserved":false,"is_disabled":false,"rental_uris":{"android":"levelo://app?vid=c1289f42-bd83-4cc2-885b-0ecfa29173af","ios":"levelo://app?vid=c1289f42-bd83-4cc2-885b-0ecfa29173af"},"vehicle_type_id":"4","last_reported":1773171018,"current_range_meters":33600,"station_id":"ce4bgt12rcd13ifvqce0","pricing_plan_id":"cebpf4jnsgd1na2vs0mg"},{"bike_id":"cf3c5066-e2c6-4dd5-b630-db45484b7d30","system_id":"levelo_inurba_marseille","lat":43.30091,"lon":5.37366,"is_reserved":false,"is_disabled":true,"rental_uris":{"android":"levelo://app?vid=cf3c5066-e2c6-4dd5-b630-db45484b7d30","ios":"levelo://app?vid=cf3c5066-e2c6-4dd5-b630-db45484b7d30"},"vehicle_type_id":"4","last_reported":1773171018,"current_range_meters":28400,"station_id":"ce4bgs92rcd13ifvqcc0","pricing_plan_id":"cebpf4jnsgd1na2vs0mg"},{"bike_id":"1cdd3b39-48c0-47e4-b036-4ab945ac1da0","system_id":"levelo_inurba_marseille","lat":43.28476,"lon":5.48387,"is_reserved":false,"is_disabled":false,"rental_uris":{"android":"levelo://app?vid=1cdd3b39-48c0-47e4-b036-4ab945ac1da0","ios":"levelo://app?vid=1cdd3b39-48c0-47e4-b036-4ab945ac1da0"},"vehicle_type_id":"4","last_reported":1773171018,"current_range_meters":4000,"station_id":"","pricing_plan_id":"cebpf4jnsgd1na2vs0mg"},{"bike_id":"ad12c092-f3f8-4eef-9620-2e8d1a2e86ea","system_id":"levelo_inurba_marseille","lat":43.26565,"lon":5.38987,"is_reserved":false,"is_disabled":false,"rental_uris":{"android":"levelo://app?vid=ad12c092-f3f8-4eef-9620-2e8d1a2e86ea","ios":"levelo://app?vid=ad12c092-f3f8-4eef-9620-2e8d1a2e86ea"},"vehicle_type_id":"4","last_reported":1773171018,"current_range_meters":34800,"station_id":"ce4bhe12rcd13ifvqf30","pricing_plan_id":"cebpf4jnsgd1na2vs0mg"},{"bike_id":"5db2c9ec-7f96-407c-93ce-af8913b2f0c8","system_id":"levelo_inurba_marseille","lat":43.27938,"lon":5.41046,"is_reserved":false,"is_disabled":false,"rental_uris":{"android":"levelo://app?vid=5db2c9ec-7f96-407c-93ce-af8913b2f0c8","ios":"levelo://app?vid=5db2c9ec-7f96-407c-93ce-af8913b2f0c8"},"vehicle_type_id":"4","last_reported":1773171018,"current_range_meters":20400,"station_id":"ce4bhnp2rcd13ifvqh0g","pricing_plan_id":"cebpf4jnsgd1na2vs0mg"},{"bike_id":"e7da8c8d-240b-4222-927e-a4407844950f","system_id":"levelo_inurba_marseille","lat":43.29705,"lon":5.42555,"is_reserved":false,"is_disabled":false,"rental_uris":{"android":"levelo://app?vid=e7da8c8d-240b-4222-927e-a4407844950f","ios":"levelo://app?vid=e7da8c8d-240b-4222-927e-a4407844950f"},"vehicle_type_id":"4","last_reported":1773171018,"current_range_meters":14000,"station_id":"","pricing_plan_id":"cebpf4jnsgd1na2vs0mg"},{"bike_id":"b6ba47c3-ee0c-4312-8e73-463d0012a2ea","system_id":"levelo_inurba_marseille","lat":43.30312,"lon":5.36899,"is_reserved":false,"is_disabled":false,"rental_uris":{"android":"levelo://app?vid=b6ba47c3-ee0c-4312-8e73-463d0012a2ea","ios":"levelo://app?vid=b6ba47c3-ee0c-4312-8e73-463d0012a2ea"},"vehicle_type_id":"4","last_reported":1773171018,"current_range_meters":16800,"station_id":"ce4bgqh2rcd13ifvqc5g","pricing_plan_id":"cebpf4jnsgd1na2vs0mg"},{"bike_id":"cda752cb-1f7c-4310-b09a-e6971053bcf0","system_id":"levelo_inurba_marseille","lat":43.23192,"lon":5.3554,"is_reserved":false,"is_disabled":false,"rental_uris":{"android":"levelo://app?vid=cda752cb-1f7c-4310-b09a-e6971053bcf0","ios":"levelo://app?vid=cda752cb-1f7c-4310-b09a-e6971053bcf0"},"vehicle_type_id":"4","last_reported":1773171018,"current_range_meters":38000,"station_id":"ce4bhu92rcd13ifvqi70","pricing_plan_id":"cebpf4jnsgd1na2vs0mg"},{"bike_id":"fe81ec7b-7328-43aa-98a3-c7a0cd42b7d1","system_id":"levelo_inurba_marseille","lat":43.2987,"lon":5.39722,"is_reserved":false,"is_disabled":false,"rental_uris":{"android":"levelo://app?vid=fe81ec7b-7328-43aa-98a3-c7a0cd42b7d1","ios":"levelo://app?vid=fe81ec7b-7328-43aa-98a3-c7a0cd42b7d1"},"vehicle_type_id":"4","last_reported":1773171018,"current_range_meters":27200,"station_id":"ce4bh0h2rcd13ifvqd50","pricing_plan_id":"cebpf4jnsgd1na2vs0mg"},{"bike_id":"8d7d8377-6db7-4b6b-95b7-7db1a77cb98a","system_id":"levelo_inurba_marseille","lat":43.31331,"lon":5.39738,"is_reserved":false,"is_disabled":false,"rental_uris":{"android":"levelo://app?vid=8d7d8377-6db7-4b6b-95b7-7db1a77cb98a","ios":"levelo://app?vid=8d7d8377-6db7-4b6b-95b7-7db1a77cb98a"},"vehicle_type_id":"4","last_reported":1773171018,"current_range_meters":28800,"station_id":"ce4bgvp2rcd13ifvqcu0","pricing_plan_id":"cebpf4jnsgd1na2vs0mg"},{"bike_id":"8c251100-57de-44d6-a8fc-ccdd94e3d178","system_id":"levelo_inurba_marseille","lat":43.32354,"lon":5.36741,"is_reserved":false,"is_disabled":false,"rental_uris":{"android":"levelo://app?vid=8c251100-57de-44d6-a8fc-ccdd94e3d178","ios":"levelo://app?vid=8c251100-57de-44d6-a8fc-ccdd94e3d178"},"vehicle_type_id":"4","last_reported":1773171018,"current_range_meters":38400,"station_id":"ce4bhsh2rcd13ifvqi2g","pricing_plan_id":"cebpf4jnsgd1na2vs0mg"},{"bike_id":"b94d96d6-e222-471c-9c13-e3b0b9c2a1a5","system_id":"levelo_inurba_marseille","lat":43.2927,"lon":5.38469,"is_reserved":false,"is_disabled":false,"rental_uris":{"android":"levelo://app?vid=b94d96d6-e222-471c-9c13-e3b0b9c2a1a5","ios":"levelo://app?vid=b94d96d6-e222-471c-9c13-e3b0b9c2a1a5"},"vehicle_type_id":"4","last_reported":1773171018,"current_range_meters":29600,"station_id":"ce4bh692rcd13ifvqea0","pricing_plan_id":"cebpf4jnsgd1na2vs0mg"},{"bike_id":"6f0346dd-45fb-4024-a850-27cfb4e59c70","system_id":"levelo_inurba_marseille","lat":43.25314,"lon":5.42147,"is_reserved":false,"is_disabled":false,"rental_uris":{"android":"levelo://app?vid=6f0346dd-45fb-4024-a850-27cfb4e59c70","ios":"levelo://app?vid=6f0346dd-45fb-4024-a850-27cfb4e59c70"},"vehicle_type_id":"4","last_reported":1773171018,"current_range_meters":30400,"station_id":"st_d2m65c5bi1j21697t3ng","pricing_plan_id":"cebpf4jnsgd1na2vs0mg"},{"bike_id":"d068f3eb-d873-4654-980a-9564b60a6b76","system_id":"levelo_inurba_marseille","lat":43.27067,"lon":5.38311,"is_reserved":false,"is_disabled":false,"rental_uris":{"android":"levelo://app?vid=d068f3eb-d873-4654-980a-9564b60a6b76","ios":"levelo://app?vid=d068f3eb-d873-4654-980a-9564b60a6b76"},"vehicle_type_id":"4","last_reported":1773171018,"current_range_meters":32800,"station_id":"st_d3n2fo6cfp8s73cte1j0","pricing_plan_id":"cebpf4jnsgd1na2vs0mg"},{"bike_id":"ceae623b-ba78-4eba-858f-be4e48fd76c9","system_id":"levelo_inurba_marseille","lat":43.24166,"lon":5.3639,"is_reserved":false,"is_disabled":false,"rental_uris":{"android":"levelo://app?vid=ceae623b-ba78-4eba-858f-be4e48fd76c9","ios":"levelo://app?vid=ceae623b-ba78-4eba-858f-be4e48fd76c9"},"vehicle_type_id":"4","last_reported":1773171018,"current_range_meters":20000,"station_id":"cpo36qri1sfpv3e86is0","pricing_plan_id":"cebpf4jnsgd1na2vs0mg"},{"bike_id":"9173e1a7-80de-4b01-a375-c05399a0fec9","system_id":"levelo_inurba_marseille","lat":43.27592,"lon":5.39625,"is_reserved":false,"is_disabled":false,"rental_uris":{"android":"levelo://app?vid=9173e1a7-80de-4b01-a375-c05399a0fec9","ios":"levelo://app?vid=9173e1a7-80de-4b01-a375-c05399a0fec9"},"vehicle_type_id":"4","last_reported":1773171018,"current_range_meters":27200,"station_id":"","pricing_plan_id":"cebpf4jnsgd1na2vs0mg"},{"bike_id":"a8ed3468-c02f-4bb0-b594-0ca1393da0af","system_id":"levelo_inurba_marseille","lat":43.24398,"lon":5.37053,"is_reserved":false,"is_disabled":false,"rental_uris":{"android":"levelo://app?vid=a8ed3468-c02f-4bb0-b594-0ca1393da0af","ios":"levelo://app?vid=a8ed3468-c02f-4bb0-b594-0ca1393da0af"},"vehicle_type_id":"4","last_reported":1773171018,"current_range_meters":11600,"station_id":"ce4bhhh2rcd13ifvqfk0","pricing_plan_id":"cebpf4jnsgd1na2vs0mg"},{"bike_id":"e1abf649-104b-4711-a5b4-32643ec45d61","system_id":"levelo_inurba_marseille","lat":43.29288,"lon":5.37427,"is_reserved":false,"is_disabled":false,"rental_uris":{"android":"levelo://app?vid=e1abf649-104b-4711-a5b4-32643ec45d61","ios":"levelo://app?vid=e1abf649-104b-4711-a5b4-32643ec45d61"},"vehicle_type_id":"4","last_reported":1773171018,"current_range_meters":28400,"station_id":"ce4bgi12rcd13ifvqb70","pricing_plan_id":"cebpf4jnsgd1na2vs0mg"},{"bike_id":"623e867e-8133-44f5-a39a-07fd35e93c7b","system_id":"levelo_inurba_marseille","lat":43.24998,"lon":5.38954,"is_reserved":false,"is_disabled":false,"rental_uris":{"android":"levelo://app?vid=623e867e-8133-44f5-a39a-07fd35e93c7b","ios":"levelo://app?vid=623e867e-8133-44f5-a39a-07fd35e93c7b"},"vehicle_type_id":"4","last_reported":1773171018,"current_range_meters":39200,"station_id":"ce4bhgp2rcd13ifvqfd0","pricing_plan_id":"cebpf4jnsgd1na2vs0mg"},{"bike_id":"ee315b46-2fd2-4d51-a7e3-ee923dc2f7dd","system_id":"levelo_inurba_marseille","lat":43.30554,"lon":5.36685,"is_reserved":false,"is_disabled":false,"rental_uris":{"android":"levelo://app?vid=ee315b46-2fd2-4d51-a7e3-ee923dc2f7dd","ios":"levelo://app?vid=ee315b46-2fd2-4d51-a7e3-ee923dc2f7dd"},"vehicle_type_id":"4","last_reported":1773171018,"current_range_meters":11600,"station_id":"ce4bgrp2rcd13ifvqc9g","pricing_plan_id":"cebpf4jnsgd1na2vs0mg"},{"bike_id":"59aebdf1-84fe-44f6-88bc-a245cc92bc5f","system_id":"levelo_inurba_marseille","lat":43.24396,"lon":5.37077,"is_reserved":false,"is_disabled":false,"rental_uris":{"android":"levelo://app?vid=59aebdf1-84fe-44f6-88bc-a245cc92bc5f","ios":"levelo://app?vid=59aebdf1-84fe-44f6-88bc-a245cc92bc5f"},"vehicle_type_id":"4","last_reported":1773171018,"current_range_meters":36800,"station_id":"ce4bhhh2rcd13ifvqfk0","pricing_plan_id":"cebpf4jnsgd1na2vs0mg"},{"bike_id":"8a97a6f3-ad6c-4c14-996f-c8cbaf150dd3","system_id":"levelo_inurba_marseille","lat":43.2795,"lon":5.4104,"is_reserved":false,"is_disabled":false,"rental_uris":{"android":"levelo://app?vid=8a97a6f3-ad6c-4c14-996f-c8cbaf150dd3","ios":"levelo://app?vid=8a97a6f3-ad6c-4c14-996f-c8cbaf150dd3"},"vehicle_type_id":"4","last_reported":1773171018,"current_range_meters":4800,"station_id":"ce4bhnp2rcd13ifvqh0g","pricing_plan_id":"cebpf4jnsgd1na2vs0mg"},{"bike_id":"d29e9a2c-9be4-4064-8495-ffe451e2a085","system_id":"levelo_inurba_marseille","lat":43.29757,"lon":5.42722,"is_reserved":false,"is_disabled":false,"rental_uris":{"android":"levelo://app?vid=d29e9a2c-9be4-4064-8495-ffe451e2a085","ios":"levelo://app?vid=d29e9a2c-9be4-4064-8495-ffe451e2a085"},"vehicle_type_id":"4","last_reported":1773171018,"current_range_meters":3600,"station_id":"st_d3md5207bmas73dh9klg","pricing_plan_id":"cebpf4jnsgd1na2vs0mg"},{"bike_id":"25fe4299-5086-421f-96e8-433ea5370c68","system_id":"levelo_inurba_marseille","lat":43.28419,"lon":5.35001,"is_reserved":false,"is_disabled":true,"rental_uris":{"android":"levelo://app?vid=25fe4299-5086-421f-96e8-433ea5370c68","ios":"levelo://app?vid=25fe4299-5086-421f-96e8-433ea5370c68"},"vehicle_type_id":"4","last_reported":1773171018,"current_range_meters":9200,"station_id":"ce4bhbh2rcd13ifvqepg","pricing_plan_id":"cebpf4jnsgd1na2vs0mg"},{"bike_id":"a09a2a0c-07ef-471a-8c84-272f43e89158","system_id":"levelo_inurba_marseille","lat":43.32359,"lon":5.36707,"is_reserved":false,"is_disabled":false,"rental_uris":{"android":"levelo://app?vid=a09a2a0c-07ef-471a-8c84-272f43e89158","ios":"levelo://app?vid=a09a2a0c-07ef-471a-8c84-272f43e89158"},"vehicle_type_id":"4","last_reported":1773171018,"current_range_meters":3600,"station_id":"","pricing_plan_id":"cebpf4jnsgd1na2vs0mg"},{"bike_id":"ee15a7e0-f8ca-4031-bdf5-f769cf443344","system_id":"levelo_inurba_marseille","lat":43.28851,"lon":5.35854,"is_reserved":false,"is_disabled":false,"rental_uris":{"android":"levelo://app?vid=ee15a7e0-f8ca-4031-bdf5-f769cf443344","ios":"levelo://app?vid=ee15a7e0-f8ca-4031-bdf5-f769cf443344"},"vehicle_type_id":"4","last_reported":1773171018,"current_range_meters":36000,"station_id":"ce4bhb12rcd13ifvqem0","pricing_plan_id":"cebpf4jnsgd1na2vs0mg"},{"bike_id":"05a9d0dd-24ab-47fc-9e57-8f32f2801573","system_id":"levelo_inurba_marseille","lat":43.27068,"lon":5.42282,"is_reserved":false,"is_disabled":false,"rental_uris":{"android":"levelo://app?vid=05a9d0dd-24ab-47fc-9e57-8f32f2801573","ios":"levelo://app?vid=05a9d0dd-24ab-47fc-9e57-8f32f2801573"},"vehicle_type_id":"4","last_reported":1773171018,"current_range_meters":10800,"station_id":"ce4bhk92rcd13ifvqgb0","pricing_plan_id":"cebpf4jnsgd1na2vs0mg"},{"bike_id":"e9f735a3-b448-4e4e-afe8-c686b0afd911","system_id":"levelo_inurba_marseille","lat":43.29926,"lon":5.36529,"is_reserved":false,"is_disabled":false,"rental_uris":{"android":"levelo://app?vid=e9f735a3-b448-4e4e-afe8-c686b0afd911","ios":"levelo://app?vid=e9f735a3-b448-4e4e-afe8-c686b0afd911"},"vehicle_type_id":"4","last_reported":1773171018,"current_range_meters":36000,"station_id":"ce4bgm92rcd13ifvqbr0","pricing_plan_id":"cebpf4jnsgd1na2vs0mg"},{"bike_id":"f1f4302f-dd76-4f51-97cb-6005757c292e","system_id":"levelo_inurba_marseille","lat":43.28012,"lon":5.40058,"is_reserved":false,"is_disabled":false,"rental_uris":{"android":"levelo://app?vid=f1f4302f-dd76-4f51-97cb-6005757c292e","ios":"levelo://app?vid=f1f4302f-dd76-4f51-97cb-6005757c292e"},"vehicle_type_id":"4","last_reported":1773171018,"current_range_meters":14800,"station_id":"ce4bho92rcd13ifvqh4g","pricing_plan_id":"cebpf4jnsgd1na2vs0mg"},{"bike_id":"f0d6b2d5-caf3-4f2b-9538-0d2fe3a319c4","system_id":"levelo_inurba_marseille","lat":43.279694,"lon":5.387333,"is_reserved":false,"is_disabled":false,"rental_uris":{"android":"levelo://app?vid=f0d6b2d5-caf3-4f2b-9538-0d2fe3a319c4","ios":"levelo://app?vid=f0d6b2d5-caf3-4f2b-9538-0d2fe3a319c4"},"vehicle_type_id":"4","last_reported":1773171018,"current_range_meters":17200,"station_id":"ce4bhg12rcd13ifvqf80","pricing_plan_id":"cebpf4jnsgd1na2vs0mg"},{"bike_id":"8446e182-2a18-4658-8bb1-a458246143cf","system_id":"levelo_inurba_marseille","lat":43.28615,"lon":5.39905,"is_reserved":false,"is_disabled":false,"rental_uris":{"android":"levelo://app?vid=8446e182-2a18-4658-8bb1-a458246143cf","ios":"levelo://app?vid=8446e182-2a18-4658-8bb1-a458246143cf"},"vehicle_type_id":"4","last_reported":1773171018,"current_range_meters":8400,"station_id":"st_d4a7ka997mjs738ck50g","pricing_plan_id":"cebpf4jnsgd1na2vs0mg"},{"bike_id":"83fbcc59-2396-4d35-a1ee-97435f52f979","system_id":"levelo_inurba_marseille","lat":43.23189,"lon":5.39987,"is_reserved":false,"is_disabled":false,"rental_uris":{"android":"levelo://app?vid=83fbcc59-2396-4d35-a1ee-97435f52f979","ios":"levelo://app?vid=83fbcc59-2396-4d35-a1ee-97435f52f979"},"vehicle_type_id":"4","last_reported":1773171018,"current_range_meters":34800,"station_id":"ce4bhn12rcd13ifvqgqg","pricing_plan_id":"cebpf4jnsgd1na2vs0mg"},{"bike_id":"347453e0-24c2-4d72-a3b2-3758fb75bbbd","system_id":"levelo_inurba_marseille","lat":43.2463,"lon":5.38919,"is_reserved":false,"is_disabled":false,"rental_uris":{"android":"levelo://app?vid=347453e0-24c2-4d72-a3b2-3758fb75bbbd","ios":"levelo://app?vid=347453e0-24c2-4d72-a3b2-3758fb75bbbd"},"vehicle_type_id":"4","last_reported":1773171018,"current_range_meters":14400,"station_id":"ce4bhg12rcd13ifvqf60","pricing_plan_id":"cebpf4jnsgd1na2vs0mg"},{"bike_id":"5a4cba6f-25eb-43f3-9516-5edc71645661","system_id":"levelo_inurba_marseille","lat":43.27824,"lon":5.40737,"is_reserved":false,"is_disabled":false,"rental_uris":{"android":"levelo://app?vid=5a4cba6f-25eb-43f3-9516-5edc71645661","ios":"levelo://app?vid=5a4cba6f-25eb-43f3-9516-5edc71645661"},"vehicle_type_id":"4","last_reported":1773171018,"current_range_meters":27200,"station_id":"ce4bhnh2rcd13ifvqgtg","pricing_plan_id":"cebpf4jnsgd1na2vs0mg"},{"bike_id":"a59ffc95-c881-4b6f-8f88-55587306873e","system_id":"levelo_inurba_marseille","lat":43.29602,"lon":5.38097,"is_reserved":false,"is_disabled":true,"rental_uris":{"android":"levelo://app?vid=a59ffc95-c881-4b6f-8f88-55587306873e","ios":"levelo://app?vid=a59ffc95-c881-4b6f-8f88-55587306873e"},"vehicle_type_id":"4","last_reported":1773171018,"current_range_meters":24400,"station_id":"ce4bgl12rcd13ifvqbo0","pricing_plan_id":"cebpf4jnsgd1na2vs0mg"},{"bike_id":"4965de82-7340-4971-a75a-205d38cec0cb","system_id":"levelo_inurba_marseille","lat":43.29524,"lon":5.39037,"is_reserved":false,"is_disabled":false,"rental_uris":{"android":"levelo://app?vid=4965de82-7340-4971-a75a-205d38cec0cb","ios":"levelo://app?vid=4965de82-7340-4971-a75a-205d38cec0cb"},"vehicle_type_id":"4","last_reported":1773171018,"current_range_meters":26000,"station_id":"ce4bh3p2rcd13ifvqdp0","pricing_plan_id":"cebpf4jnsgd1na2vs0mg"},{"bike_id":"d5751866-35b6-49c4-b827-f56bc4948f46","system_id":"levelo_inurba_marseille","lat":43.29273,"lon":5.36846,"is_reserved":false,"is_disabled":false,"rental_uris":{"android":"levelo://app?vid=d5751866-35b6-49c4-b827-f56bc4948f46","ios":"levelo://app?vid=d5751866-35b6-49c4-b827-f56bc4948f46"},"vehicle_type_id":"4","last_reported":1773171018,"current_range_meters":10000,"station_id":"ce4bhbp2rcd13ifvqesg","pricing_plan_id":"cebpf4jnsgd1na2vs0mg"},{"bike_id":"992af984-91a5-4f57-a80f-e7a300dfb4a0","system_id":"levelo_inurba_marseille","lat":43.29475,"lon":5.43293,"is_reserved":false,"is_disabled":false,"rental_uris":{"android":"levelo://app?vid=992af984-91a5-4f57-a80f-e7a300dfb4a0","ios":"levelo://app?vid=992af984-91a5-4f57-a80f-e7a300dfb4a0"},"vehicle_type_id":"4","last_reported":1773171018,"current_range_meters":34800,"station_id":"st_d3j5ugp08ojc73fj9d10","pricing_plan_id":"cebpf4jnsgd1na2vs0mg"},{"bike_id":"706da100-663f-42e9-a11e-abba2387dff9","system_id":"levelo_inurba_marseille","lat":43.25109,"lon":5.39525,"is_reserved":false,"is_disabled":false,"rental_uris":{"android":"levelo://app?vid=706da100-663f-42e9-a11e-abba2387dff9","ios":"levelo://app?vid=706da100-663f-42e9-a11e-abba2387dff9"},"vehicle_type_id":"4","last_reported":1773171018,"current_range_meters":39200,"station_id":"ce4bhm12rcd13ifvqgkg","pricing_plan_id":"cebpf4jnsgd1na2vs0mg"},{"bike_id":"15786de9-c226-403b-a9eb-be9e9f26e53b","system_id":"levelo_inurba_marseille","lat":43.29058,"lon":5.37145,"is_reserved":false,"is_disabled":false,"rental_uris":{"android":"levelo://app?vid=15786de9-c226-403b-a9eb-be9e9f26e53b","ios":"levelo://app?vid=15786de9-c226-403b-a9eb-be9e9f26e53b"},"vehicle_type_id":"4","last_reported":1773171018,"current_range_meters":20400,"station_id":"ce4bh5p2rcd13ifvqe4g","pricing_plan_id":"cebpf4jnsgd1na2vs0mg"},{"bike_id":"9a13c6ca-4e25-4d76-acf8-62cc49118024","system_id":"levelo_inurba_marseille","lat":43.2782,"lon":5.40708,"is_reserved":false,"is_disabled":false,"rental_uris":{"android":"levelo://app?vid=9a13c6ca-4e25-4d76-acf8-62cc49118024","ios":"levelo://app?vid=9a13c6ca-4e25-4d76-acf8-62cc49118024"},"vehicle_type_id":"4","last_reported":1773171018,"current_range_meters":11600,"station_id":"ce4bhnh2rcd13ifvqgtg","pricing_plan_id":"cebpf4jnsgd1na2vs0mg"},{"bike_id":"50e2f58b-3a4b-402e-8adf-bc5030368a55","system_id":"levelo_inurba_marseille","lat":43.23783,"lon":5.36646,"is_reserved":false,"is_disabled":false,"rental_uris":{"android":"levelo://app?vid=50e2f58b-3a4b-402e-8adf-bc5030368a55","ios":"levelo://app?vid=50e2f58b-3a4b-402e-8adf-bc5030368a55"},"vehicle_type_id":"4","last_reported":1773171018,"current_range_meters":34000,"station_id":"st_d3nk18o9ro0c73en2l3g","pricing_plan_id":"cebpf4jnsgd1na2vs0mg"},{"bike_id":"a024cbfa-0dfb-48dc-97df-39b186189dc1","system_id":"levelo_inurba_marseille","lat":43.29902,"lon":5.38131,"is_reserved":false,"is_disabled":false,"rental_uris":{"android":"levelo://app?vid=a024cbfa-0dfb-48dc-97df-39b186189dc1","ios":"levelo://app?vid=a024cbfa-0dfb-48dc-97df-39b186189dc1"},"vehicle_type_id":"4","last_reported":1773171018,"current_range_meters":28400,"station_id":"ce4bgj12rcd13ifvqbc0","pricing_plan_id":"cebpf4jnsgd1na2vs0mg"},{"bike_id":"167293ff-3ee0-49e8-aab6-0d35fabba907","system_id":"levelo_inurba_marseille","lat":43.24999,"lon":5.38939,"is_reserved":false,"is_disabled":false,"rental_uris":{"android":"levelo://app?vid=167293ff-3ee0-49e8-aab6-0d35fabba907","ios":"levelo://app?vid=167293ff-3ee0-49e8-aab6-0d35fabba907"},"vehicle_type_id":"4","last_reported":1773171018,"current_range_meters":28800,"station_id":"ce4bhgp2rcd13ifvqfd0","pricing_plan_id":"cebpf4jnsgd1na2vs0mg"},{"bike_id":"3ec05874-0f51-4705-ac86-abb97a292a08","system_id":"levelo_inurba_marseille","lat":43.30168,"lon":5.39924,"is_reserved":false,"is_disabled":true,"rental_uris":{"android":"levelo://app?vid=3ec05874-0f51-4705-ac86-abb97a292a08","ios":"levelo://app?vid=3ec05874-0f51-4705-ac86-abb97a292a08"},"vehicle_type_id":"4","last_reported":1773171018,"current_range_meters":24000,"station_id":"","pricing_plan_id":"cebpf4jnsgd1na2vs0mg"},{"bike_id":"3af47528-df81-45b6-99ee-7b3aed874685","system_id":"levelo_inurba_marseille","lat":43.29514,"lon":5.38541,"is_reserved":false,"is_disabled":false,"rental_uris":{"android":"levelo://app?vid=3af47528-df81-45b6-99ee-7b3aed874685","ios":"levelo://app?vid=3af47528-df81-45b6-99ee-7b3aed874685"},"vehicle_type_id":"4","last_reported":1773171018,"current_range_meters":21600,"station_id":"ce4bgih2rcd13ifvqba0","pricing_plan_id":"cebpf4jnsgd1na2vs0mg"},{"bike_id":"13c4f060-76cc-4d0f-bd39-c7061f6b130e","system_id":"levelo_inurba_marseille","lat":43.29533,"lon":5.38543,"is_reserved":false,"is_disabled":false,"rental_uris":{"android":"levelo://app?vid=13c4f060-76cc-4d0f-bd39-c7061f6b130e","ios":"levelo://app?vid=13c4f060-76cc-4d0f-bd39-c7061f6b130e"},"vehicle_type_id":"4","last_reported":1773171018,"current_range_meters":35200,"station_id":"ce4bgih2rcd13ifvqba0","pricing_plan_id":"cebpf4jnsgd1na2vs0mg"},{"bike_id":"2706a0f1-58f7-4610-aaac-d98e7abcfc61","system_id":"levelo_inurba_marseille","lat":43.24543,"lon":5.39519,"is_reserved":false,"is_disabled":true,"rental_uris":{"android":"levelo://app?vid=2706a0f1-58f7-4610-aaac-d98e7abcfc61","ios":"levelo://app?vid=2706a0f1-58f7-4610-aaac-d98e7abcfc61"},"vehicle_type_id":"4","last_reported":1773171018,"current_range_meters":30400,"station_id":"ce4bhlp2rcd13ifvqgjg","pricing_plan_id":"cebpf4jnsgd1na2vs0mg"},{"bike_id":"68c30c57-0e08-469e-ad53-e6422fbca136","system_id":"levelo_inurba_marseille","lat":43.31111,"lon":5.37771,"is_reserved":false,"is_disabled":false,"rental_uris":{"android":"levelo://app?vid=68c30c57-0e08-469e-ad53-e6422fbca136","ios":"levelo://app?vid=68c30c57-0e08-469e-ad53-e6422fbca136"},"vehicle_type_id":"4","last_reported":1773171018,"current_range_meters":27200,"station_id":"ce4bgt92rcd13ifvqcg0","pricing_plan_id":"cebpf4jnsgd1na2vs0mg"},{"bike_id":"3cc39ff6-2216-4e1d-ae68-1a4fdce8382c","system_id":"levelo_inurba_marseille","lat":43.24053,"lon":5.37768,"is_reserved":false,"is_disabled":false,"rental_uris":{"android":"levelo://app?vid=3cc39ff6-2216-4e1d-ae68-1a4fdce8382c","ios":"levelo://app?vid=3cc39ff6-2216-4e1d-ae68-1a4fdce8382c"},"vehicle_type_id":"4","last_reported":1773171018,"current_range_meters":5600,"station_id":"ce4bhnp2rcd13ifvqgvg","pricing_plan_id":"cebpf4jnsgd1na2vs0mg"},{"bike_id":"e417f348-e4ec-4ee4-bdc5-b82259e050c6","system_id":"levelo_inurba_marseille","lat":43.29264,"lon":5.36848,"is_reserved":false,"is_disabled":false,"rental_uris":{"android":"levelo://app?vid=e417f348-e4ec-4ee4-bdc5-b82259e050c6","ios":"levelo://app?vid=e417f348-e4ec-4ee4-bdc5-b82259e050c6"},"vehicle_type_id":"4","last_reported":1773171018,"current_range_meters":6400,"station_id":"ce4bhbp2rcd13ifvqesg","pricing_plan_id":"cebpf4jnsgd1na2vs0mg"},{"bike_id":"3fa9b3d0-3874-4dd4-b7e4-79874a06de10","system_id":"levelo_inurba_marseille","lat":43.28422,"lon":5.34991,"is_reserved":false,"is_disabled":false,"rental_uris":{"android":"levelo://app?vid=3fa9b3d0-3874-4dd4-b7e4-79874a06de10","ios":"levelo://app?vid=3fa9b3d0-3874-4dd4-b7e4-79874a06de10"},"vehicle_type_id":"4","last_reported":1773171018,"current_range_meters":32800,"station_id":"ce4bhbh2rcd13ifvqepg","pricing_plan_id":"cebpf4jnsgd1na2vs0mg"},{"bike_id":"0308882b-d53a-4ad0-94ee-626abd04b8d1","system_id":"levelo_inurba_marseille","lat":43.26046,"lon":5.3939,"is_reserved":false,"is_disabled":false,"rental_uris":{"android":"levelo://app?vid=0308882b-d53a-4ad0-94ee-626abd04b8d1","ios":"levelo://app?vid=0308882b-d53a-4ad0-94ee-626abd04b8d1"},"vehicle_type_id":"4","last_reported":1773171018,"current_range_meters":39200,"station_id":"ce4bhh92rcd13ifvqfj0","pricing_plan_id":"cebpf4jnsgd1na2vs0mg"},{"bike_id":"40fd1d9e-a079-4e73-a8eb-cb4e1a1ca29c","system_id":"levelo_inurba_marseille","lat":43.25823,"lon":5.39404,"is_reserved":false,"is_disabled":false,"rental_uris":{"android":"levelo://app?vid=40fd1d9e-a079-4e73-a8eb-cb4e1a1ca29c","ios":"levelo://app?vid=40fd1d9e-a079-4e73-a8eb-cb4e1a1ca29c"},"vehicle_type_id":"4","last_reported":1773171018,"current_range_meters":39200,"station_id":"ce4bhip2rcd13ifvqft0","pricing_plan_id":"cebpf4jnsgd1na2vs0mg"},{"bike_id":"c04dc21f-3ce9-4e1f-978e-29d8d0eabf34","system_id":"levelo_inurba_marseille","lat":43.31521,"lon":5.37355,"is_reserved":false,"is_disabled":false,"rental_uris":{"android":"levelo://app?vid=c04dc21f-3ce9-4e1f-978e-29d8d0eabf34","ios":"levelo://app?vid=c04dc21f-3ce9-4e1f-978e-29d8d0eabf34"},"vehicle_type_id":"4","last_reported":1773171018,"current_range_meters":30800,"station_id":"","pricing_plan_id":"cebpf4jnsgd1na2vs0mg"},{"bike_id":"9106c1e8-174e-4203-ac13-62d0257964f4","system_id":"levelo_inurba_marseille","lat":43.29522,"lon":5.38537,"is_reserved":false,"is_disabled":false,"rental_uris":{"android":"levelo://app?vid=9106c1e8-174e-4203-ac13-62d0257964f4","ios":"levelo://app?vid=9106c1e8-174e-4203-ac13-62d0257964f4"},"vehicle_type_id":"4","last_reported":1773171018,"current_range_meters":22400,"station_id":"ce4bgih2rcd13ifvqba0","pricing_plan_id":"cebpf4jnsgd1na2vs0mg"},{"bike_id":"5a7d2c84-9d3f-4ab6-8406-b2f71386bbcb","system_id":"levelo_inurba_marseille","lat":43.29262,"lon":5.38432,"is_reserved":false,"is_disabled":false,"rental_uris":{"android":"levelo://app?vid=5a7d2c84-9d3f-4ab6-8406-b2f71386bbcb","ios":"levelo://app?vid=5a7d2c84-9d3f-4ab6-8406-b2f71386bbcb"},"vehicle_type_id":"4","last_reported":1773171018,"current_range_meters":9600,"station_id":"ce4bh692rcd13ifvqea0","pricing_plan_id":"cebpf4jnsgd1na2vs0mg"},{"bike_id":"3157dfe3-8a06-4f47-82a7-040ea570b8c1","system_id":"levelo_inurba_marseille","lat":43.2847,"lon":5.48381,"is_reserved":false,"is_disabled":false,"rental_uris":{"android":"levelo://app?vid=3157dfe3-8a06-4f47-82a7-040ea570b8c1","ios":"levelo://app?vid=3157dfe3-8a06-4f47-82a7-040ea570b8c1"},"vehicle_type_id":"4","last_reported":1773171018,"current_range_meters":38400,"station_id":"","pricing_plan_id":"cebpf4jnsgd1na2vs0mg"},{"bike_id":"3ba3894c-7e84-45d7-87cc-2c2d7aba165f","system_id":"levelo_inurba_marseille","lat":43.29586,"lon":5.38098,"is_reserved":false,"is_disabled":true,"rental_uris":{"android":"levelo://app?vid=3ba3894c-7e84-45d7-87cc-2c2d7aba165f","ios":"levelo://app?vid=3ba3894c-7e84-45d7-87cc-2c2d7aba165f"},"vehicle_type_id":"4","last_reported":1773171018,"current_range_meters":8800,"station_id":"ce4bgl12rcd13ifvqbo0","pricing_plan_id":"cebpf4jnsgd1na2vs0mg"},{"bike_id":"f6cd899e-ed46-46a6-8a72-d1b66e88d0cd","system_id":"levelo_inurba_marseille","lat":43.29793,"lon":5.37709,"is_reserved":false,"is_disabled":false,"rental_uris":{"android":"levelo://app?vid=f6cd899e-ed46-46a6-8a72-d1b66e88d0cd","ios":"levelo://app?vid=f6cd899e-ed46-46a6-8a72-d1b66e88d0cd"},"vehicle_type_id":"4","last_reported":1773171018,"current_range_meters":37600,"station_id":"","pricing_plan_id":"cebpf4jnsgd1na2vs0mg"},{"bike_id":"f9b98b8b-d7bf-4274-a300-b0a1bc987555","system_id":"levelo_inurba_marseille","lat":43.26807,"lon":5.39432,"is_reserved":false,"is_disabled":false,"rental_uris":{"android":"levelo://app?vid=f9b98b8b-d7bf-4274-a300-b0a1bc987555","ios":"levelo://app?vid=f9b98b8b-d7bf-4274-a300-b0a1bc987555"},"vehicle_type_id":"4","last_reported":1773171018,"current_range_meters":38400,"station_id":"ce4bhh12rcd13ifvqfg0","pricing_plan_id":"cebpf4jnsgd1na2vs0mg"},{"bike_id":"da02d6ef-3394-40f9-a388-cb0bbcee2d62","system_id":"levelo_inurba_marseille","lat":43.2925,"lon":5.40904,"is_reserved":false,"is_disabled":false,"rental_uris":{"android":"levelo://app?vid=da02d6ef-3394-40f9-a388-cb0bbcee2d62","ios":"levelo://app?vid=da02d6ef-3394-40f9-a388-cb0bbcee2d62"},"vehicle_type_id":"4","last_reported":1773171018,"current_range_meters":33600,"station_id":"ce4bh192rcd13ifvqdc0","pricing_plan_id":"cebpf4jnsgd1na2vs0mg"},{"bike_id":"6cc78de7-397d-4f25-8346-b51bdf777603","system_id":"levelo_inurba_marseille","lat":43.27822,"lon":5.40706,"is_reserved":false,"is_disabled":false,"rental_uris":{"android":"levelo://app?vid=6cc78de7-397d-4f25-8346-b51bdf777603","ios":"levelo://app?vid=6cc78de7-397d-4f25-8346-b51bdf777603"},"vehicle_type_id":"4","last_reported":1773171018,"current_range_meters":39200,"station_id":"ce4bhnh2rcd13ifvqgtg","pricing_plan_id":"cebpf4jnsgd1na2vs0mg"},{"bike_id":"92d540de-2fd7-474f-9da1-5b649fe3d7f4","system_id":"levelo_inurba_marseille","lat":43.29718,"lon":5.38827,"is_reserved":false,"is_disabled":false,"rental_uris":{"android":"levelo://app?vid=92d540de-2fd7-474f-9da1-5b649fe3d7f4","ios":"levelo://app?vid=92d540de-2fd7-474f-9da1-5b649fe3d7f4"},"vehicle_type_id":"4","last_reported":1773171018,"current_range_meters":8400,"station_id":"","pricing_plan_id":"cebpf4jnsgd1na2vs0mg"},{"bike_id":"aa88226e-92f5-41b1-8261-754a7ca7c73d","system_id":"levelo_inurba_marseille","lat":43.2482,"lon":5.37471,"is_reserved":false,"is_disabled":false,"rental_uris":{"android":"levelo://app?vid=aa88226e-92f5-41b1-8261-754a7ca7c73d","ios":"levelo://app?vid=aa88226e-92f5-41b1-8261-754a7ca7c73d"},"vehicle_type_id":"4","last_reported":1773171018,"current_range_meters":16000,"station_id":"ce4bhgh2rcd13ifvqfb0","pricing_plan_id":"cebpf4jnsgd1na2vs0mg"},{"bike_id":"5cd84813-1cbc-4ebd-ab9f-4d41d6476b4d","system_id":"levelo_inurba_marseille","lat":43.24644,"lon":5.38899,"is_reserved":false,"is_disabled":false,"rental_uris":{"android":"levelo://app?vid=5cd84813-1cbc-4ebd-ab9f-4d41d6476b4d","ios":"levelo://app?vid=5cd84813-1cbc-4ebd-ab9f-4d41d6476b4d"},"vehicle_type_id":"4","last_reported":1773171018,"current_range_meters":16800,"station_id":"ce4bhg12rcd13ifvqf60","pricing_plan_id":"cebpf4jnsgd1na2vs0mg"},{"bike_id":"ac1dc553-ba04-4acc-a776-cf09e299ef1c","system_id":"levelo_inurba_marseille","lat":43.27943,"lon":5.41037,"is_reserved":false,"is_disabled":false,"rental_uris":{"android":"levelo://app?vid=ac1dc553-ba04-4acc-a776-cf09e299ef1c","ios":"levelo://app?vid=ac1dc553-ba04-4acc-a776-cf09e299ef1c"},"vehicle_type_id":"4","last_reported":1773171018,"current_range_meters":32800,"station_id":"ce4bhnp2rcd13ifvqh0g","pricing_plan_id":"cebpf4jnsgd1na2vs0mg"},{"bike_id":"0c848beb-5209-4856-a210-ab0409d1dfa7","system_id":"levelo_inurba_marseille","lat":43.29801,"lon":5.38065,"is_reserved":false,"is_disabled":false,"rental_uris":{"android":"levelo://app?vid=0c848beb-5209-4856-a210-ab0409d1dfa7","ios":"levelo://app?vid=0c848beb-5209-4856-a210-ab0409d1dfa7"},"vehicle_type_id":"4","last_reported":1773171018,"current_range_meters":36800,"station_id":"ce4bgip2rcd13ifvqbb0","pricing_plan_id":"cebpf4jnsgd1na2vs0mg"},{"bike_id":"cdb5bcad-bf25-4a2e-9d76-9bfbb42fef4e","system_id":"levelo_inurba_marseille","lat":43.28423,"lon":5.34995,"is_reserved":false,"is_disabled":false,"rental_uris":{"android":"levelo://app?vid=cdb5bcad-bf25-4a2e-9d76-9bfbb42fef4e","ios":"levelo://app?vid=cdb5bcad-bf25-4a2e-9d76-9bfbb42fef4e"},"vehicle_type_id":"4","last_reported":1773171018,"current_range_meters":28800,"station_id":"ce4bhbh2rcd13ifvqepg","pricing_plan_id":"cebpf4jnsgd1na2vs0mg"},{"bike_id":"2127964e-1c2f-458c-a7ef-5af5cdba06c7","system_id":"levelo_inurba_marseille","lat":43.26536,"lon":5.37293,"is_reserved":false,"is_disabled":false,"rental_uris":{"android":"levelo://app?vid=2127964e-1c2f-458c-a7ef-5af5cdba06c7","ios":"levelo://app?vid=2127964e-1c2f-458c-a7ef-5af5cdba06c7"},"vehicle_type_id":"4","last_reported":1773171018,"current_range_meters":38000,"station_id":"ce4bhg12rcd13ifvqf70","pricing_plan_id":"cebpf4jnsgd1na2vs0mg"},{"bike_id":"7753395f-62d2-4b70-9150-17f491072713","system_id":"levelo_inurba_marseille","lat":43.29911,"lon":5.38621,"is_reserved":false,"is_disabled":false,"rental_uris":{"android":"levelo://app?vid=7753395f-62d2-4b70-9150-17f491072713","ios":"levelo://app?vid=7753395f-62d2-4b70-9150-17f491072713"},"vehicle_type_id":"4","last_reported":1773171018,"current_range_meters":32000,"station_id":"","pricing_plan_id":"cebpf4jnsgd1na2vs0mg"},{"bike_id":"ef233193-aafa-490a-8c5b-e6ef33d373df","system_id":"levelo_inurba_marseille","lat":43.2318,"lon":5.39976,"is_reserved":false,"is_disabled":false,"rental_uris":{"android":"levelo://app?vid=ef233193-aafa-490a-8c5b-e6ef33d373df","ios":"levelo://app?vid=ef233193-aafa-490a-8c5b-e6ef33d373df"},"vehicle_type_id":"4","last_reported":1773171018,"current_range_meters":39200,"station_id":"ce4bhn12rcd13ifvqgqg","pricing_plan_id":"cebpf4jnsgd1na2vs0mg"},{"bike_id":"1c758694-961c-4b5b-aedd-1897a97b705c","system_id":"levelo_inurba_marseille","lat":43.29575,"lon":5.37531,"is_reserved":false,"is_disabled":false,"rental_uris":{"android":"levelo://app?vid=1c758694-961c-4b5b-aedd-1897a97b705c","ios":"levelo://app?vid=1c758694-961c-4b5b-aedd-1897a97b705c"},"vehicle_type_id":"4","last_reported":1773171018,"current_range_meters":27600,"station_id":"ce4bgh92rcd13ifvqb50","pricing_plan_id":"cebpf4jnsgd1na2vs0mg"},{"bike_id":"e1c5bded-7854-49b6-8f50-325f20156d1d","system_id":"levelo_inurba_marseille","lat":43.2903,"lon":5.38639,"is_reserved":false,"is_disabled":false,"rental_uris":{"android":"levelo://app?vid=e1c5bded-7854-49b6-8f50-325f20156d1d","ios":"levelo://app?vid=e1c5bded-7854-49b6-8f50-325f20156d1d"},"vehicle_type_id":"4","last_reported":1773171018,"current_range_meters":36000,"station_id":"ce4bh4p2rcd13ifvqe0g","pricing_plan_id":"cebpf4jnsgd1na2vs0mg"},{"bike_id":"26c14a3f-62ce-47d0-adee-fd3ecc8853f1","system_id":"levelo_inurba_marseille","lat":43.31902,"lon":5.40762,"is_reserved":false,"is_disabled":true,"rental_uris":{"android":"levelo://app?vid=26c14a3f-62ce-47d0-adee-fd3ecc8853f1","ios":"levelo://app?vid=26c14a3f-62ce-47d0-adee-fd3ecc8853f1"},"vehicle_type_id":"4","last_reported":1773171018,"current_range_meters":38000,"station_id":"ce4bhq12rcd13ifvqhig","pricing_plan_id":"cebpf4jnsgd1na2vs0mg"},{"bike_id":"9204d96a-aa63-4a1b-aef3-2ff77544216f","system_id":"levelo_inurba_marseille","lat":43.29783,"lon":5.38109,"is_reserved":false,"is_disabled":false,"rental_uris":{"android":"levelo://app?vid=9204d96a-aa63-4a1b-aef3-2ff77544216f","ios":"levelo://app?vid=9204d96a-aa63-4a1b-aef3-2ff77544216f"},"vehicle_type_id":"4","last_reported":1773171018,"current_range_meters":40000,"station_id":"ce4bgip2rcd13ifvqbb0","pricing_plan_id":"cebpf4jnsgd1na2vs0mg"},{"bike_id":"8113a0cf-c646-4b26-bd86-627e1e2cd23e","system_id":"levelo_inurba_marseille","lat":43.30418,"lon":5.39758,"is_reserved":false,"is_disabled":false,"rental_uris":{"android":"levelo://app?vid=8113a0cf-c646-4b26-bd86-627e1e2cd23e","ios":"levelo://app?vid=8113a0cf-c646-4b26-bd86-627e1e2cd23e"},"vehicle_type_id":"4","last_reported":1773171018,"current_range_meters":14000,"station_id":"ce4bh092rcd13ifvqd20","pricing_plan_id":"cebpf4jnsgd1na2vs0mg"},{"bike_id":"93734a01-7a1f-4fad-8a74-6d61eb048951","system_id":"levelo_inurba_marseille","lat":43.30092,"lon":5.39075,"is_reserved":false,"is_disabled":false,"rental_uris":{"android":"levelo://app?vid=93734a01-7a1f-4fad-8a74-6d61eb048951","ios":"levelo://app?vid=93734a01-7a1f-4fad-8a74-6d61eb048951"},"vehicle_type_id":"4","last_reported":1773171018,"current_range_meters":17600,"station_id":"ce4bh192rcd13ifvqdb0","pricing_plan_id":"cebpf4jnsgd1na2vs0mg"},{"bike_id":"92487061-019d-4da1-9a44-f7c7e35c5d12","system_id":"levelo_inurba_marseille","lat":43.28528,"lon":5.48371,"is_reserved":false,"is_disabled":false,"rental_uris":{"android":"levelo://app?vid=92487061-019d-4da1-9a44-f7c7e35c5d12","ios":"levelo://app?vid=92487061-019d-4da1-9a44-f7c7e35c5d12"},"vehicle_type_id":"4","last_reported":1773171018,"current_range_meters":10000,"station_id":"st_d3svhcjqgbts73a3dn0g","pricing_plan_id":"cebpf4jnsgd1na2vs0mg"},{"bike_id":"729640f2-f2fb-4b11-a680-9accbdd920ae","system_id":"levelo_inurba_marseille","lat":43.31257,"lon":5.36876,"is_reserved":false,"is_disabled":false,"rental_uris":{"android":"levelo://app?vid=729640f2-f2fb-4b11-a680-9accbdd920ae","ios":"levelo://app?vid=729640f2-f2fb-4b11-a680-9accbdd920ae"},"vehicle_type_id":"4","last_reported":1773171018,"current_range_meters":39200,"station_id":"ce4bgl92rcd13ifvqbq0","pricing_plan_id":"cebpf4jnsgd1na2vs0mg"},{"bike_id":"e875c1a4-118c-464f-9255-fcc1b311b551","system_id":"levelo_inurba_marseille","lat":43.29679,"lon":5.44382,"is_reserved":false,"is_disabled":true,"rental_uris":{"android":"levelo://app?vid=e875c1a4-118c-464f-9255-fcc1b311b551","ios":"levelo://app?vid=e875c1a4-118c-464f-9255-fcc1b311b551"},"vehicle_type_id":"4","last_reported":1773171018,"current_range_meters":0,"station_id":"","pricing_plan_id":"cebpf4jnsgd1na2vs0mg"},{"bike_id":"71b961aa-0874-4e2c-ba0a-3730066f4c8d","system_id":"levelo_inurba_marseille","lat":43.23193,"lon":5.35559,"is_reserved":false,"is_disabled":false,"rental_uris":{"android":"levelo://app?vid=71b961aa-0874-4e2c-ba0a-3730066f4c8d","ios":"levelo://app?vid=71b961aa-0874-4e2c-ba0a-3730066f4c8d"},"vehicle_type_id":"4","last_reported":1773171018,"current_range_meters":27600,"station_id":"ce4bhu92rcd13ifvqi70","pricing_plan_id":"cebpf4jnsgd1na2vs0mg"},{"bike_id":"b33c203f-a369-489f-8666-1a518e9b75aa","system_id":"levelo_inurba_marseille","lat":43.32103,"lon":5.36745,"is_reserved":false,"is_disabled":false,"rental_uris":{"android":"levelo://app?vid=b33c203f-a369-489f-8666-1a518e9b75aa","ios":"levelo://app?vid=b33c203f-a369-489f-8666-1a518e9b75aa"},"vehicle_type_id":"4","last_reported":1773171018,"current_range_meters":5600,"station_id":"ce4bhrh2rcd13ifvqhug","pricing_plan_id":"cebpf4jnsgd1na2vs0mg"},{"bike_id":"6e5fe46c-55b1-4bf7-83c3-322cf521da18","system_id":"levelo_inurba_marseille","lat":43.29254,"lon":5.3845,"is_reserved":false,"is_disabled":false,"rental_uris":{"android":"levelo://app?vid=6e5fe46c-55b1-4bf7-83c3-322cf521da18","ios":"levelo://app?vid=6e5fe46c-55b1-4bf7-83c3-322cf521da18"},"vehicle_type_id":"4","last_reported":1773171018,"current_range_meters":37600,"station_id":"ce4bh692rcd13ifvqea0","pricing_plan_id":"cebpf4jnsgd1na2vs0mg"},{"bike_id":"78e86a11-572d-4b50-b22e-5d6f126b8fde","system_id":"levelo_inurba_marseille","lat":43.28863,"lon":5.35861,"is_reserved":false,"is_disabled":false,"rental_uris":{"android":"levelo://app?vid=78e86a11-572d-4b50-b22e-5d6f126b8fde","ios":"levelo://app?vid=78e86a11-572d-4b50-b22e-5d6f126b8fde"},"vehicle_type_id":"4","last_reported":1773171018,"current_range_meters":28400,"station_id":"ce4bhb12rcd13ifvqem0","pricing_plan_id":"cebpf4jnsgd1na2vs0mg"},{"bike_id":"263ad965-4628-4244-9270-7e6ea7dc60a1","system_id":"levelo_inurba_marseille","lat":43.28354,"lon":5.38099,"is_reserved":false,"is_disabled":false,"rental_uris":{"android":"levelo://app?vid=263ad965-4628-4244-9270-7e6ea7dc60a1","ios":"levelo://app?vid=263ad965-4628-4244-9270-7e6ea7dc60a1"},"vehicle_type_id":"4","last_reported":1773171018,"current_range_meters":26800,"station_id":"ce4bh412rcd13ifvqdr0","pricing_plan_id":"cebpf4jnsgd1na2vs0mg"},{"bike_id":"c1c836f2-a913-4fa5-86af-0d595b755410","system_id":"levelo_inurba_marseille","lat":43.30451,"lon":5.38882,"is_reserved":false,"is_disabled":false,"rental_uris":{"android":"levelo://app?vid=c1c836f2-a913-4fa5-86af-0d595b755410","ios":"levelo://app?vid=c1c836f2-a913-4fa5-86af-0d595b755410"},"vehicle_type_id":"4","last_reported":1773171018,"current_range_meters":38000,"station_id":"ce4bgk12rcd13ifvqbi0","pricing_plan_id":"cebpf4jnsgd1na2vs0mg"},{"bike_id":"c948a194-dea3-4572-9f24-139aefd336af","system_id":"levelo_inurba_marseille","lat":43.2845,"lon":5.35863,"is_reserved":false,"is_disabled":false,"rental_uris":{"android":"levelo://app?vid=c948a194-dea3-4572-9f24-139aefd336af","ios":"levelo://app?vid=c948a194-dea3-4572-9f24-139aefd336af"},"vehicle_type_id":"4","last_reported":1773171018,"current_range_meters":18800,"station_id":"ce4bhah2rcd13ifvqei0","pricing_plan_id":"cebpf4jnsgd1na2vs0mg"},{"bike_id":"dd286e98-444c-4c1c-a79c-6c9a00eb3aea","system_id":"levelo_inurba_marseille","lat":43.30519,"lon":5.36713,"is_reserved":false,"is_disabled":false,"rental_uris":{"android":"levelo://app?vid=dd286e98-444c-4c1c-a79c-6c9a00eb3aea","ios":"levelo://app?vid=dd286e98-444c-4c1c-a79c-6c9a00eb3aea"},"vehicle_type_id":"4","last_reported":1773171018,"current_range_meters":27200,"station_id":"ce4bgrp2rcd13ifvqc9g","pricing_plan_id":"cebpf4jnsgd1na2vs0mg"},{"bike_id":"f141fd98-d5f9-4774-98eb-dab70e68038e","system_id":"levelo_inurba_marseille","lat":43.29158,"lon":5.37154,"is_reserved":false,"is_disabled":false,"rental_uris":{"android":"levelo://app?vid=f141fd98-d5f9-4774-98eb-dab70e68038e","ios":"levelo://app?vid=f141fd98-d5f9-4774-98eb-dab70e68038e"},"vehicle_type_id":"4","last_reported":1773171018,"current_range_meters":37600,"station_id":"ce4bha92rcd13ifvqeh0","pricing_plan_id":"cebpf4jnsgd1na2vs0mg"},{"bike_id":"881540cb-8c1e-4272-97af-716b842006c9","system_id":"levelo_inurba_marseille","lat":43.23787,"lon":5.36623,"is_reserved":false,"is_disabled":false,"rental_uris":{"android":"levelo://app?vid=881540cb-8c1e-4272-97af-716b842006c9","ios":"levelo://app?vid=881540cb-8c1e-4272-97af-716b842006c9"},"vehicle_type_id":"4","last_reported":1773171018,"current_range_meters":26800,"station_id":"st_d3nk18o9ro0c73en2l3g","pricing_plan_id":"cebpf4jnsgd1na2vs0mg"},{"bike_id":"4a27340d-e6b4-42a0-bdb7-a7fa54114cfd","system_id":"levelo_inurba_marseille","lat":43.2686,"lon":5.39402,"is_reserved":false,"is_disabled":false,"rental_uris":{"android":"levelo://app?vid=4a27340d-e6b4-42a0-bdb7-a7fa54114cfd","ios":"levelo://app?vid=4a27340d-e6b4-42a0-bdb7-a7fa54114cfd"},"vehicle_type_id":"4","last_reported":1773171018,"current_range_meters":39200,"station_id":"","pricing_plan_id":"cebpf4jnsgd1na2vs0mg"},{"bike_id":"487bc25a-0c16-40b9-8fe1-55e75fa9b9af","system_id":"levelo_inurba_marseille","lat":43.29819,"lon":5.44079,"is_reserved":false,"is_disabled":false,"rental_uris":{"android":"levelo://app?vid=487bc25a-0c16-40b9-8fe1-55e75fa9b9af","ios":"levelo://app?vid=487bc25a-0c16-40b9-8fe1-55e75fa9b9af"},"vehicle_type_id":"4","last_reported":1773171018,"current_range_meters":9600,"station_id":"st_d3jp68qikq2c7381ktn0","pricing_plan_id":"cebpf4jnsgd1na2vs0mg"},{"bike_id":"ba309a58-fbb3-4136-9006-c23e13c32854","system_id":"levelo_inurba_marseille","lat":43.24774,"lon":5.37468,"is_reserved":false,"is_disabled":false,"rental_uris":{"android":"levelo://app?vid=ba309a58-fbb3-4136-9006-c23e13c32854","ios":"levelo://app?vid=ba309a58-fbb3-4136-9006-c23e13c32854"},"vehicle_type_id":"4","last_reported":1773171018,"current_range_meters":37600,"station_id":"ce4bhgh2rcd13ifvqfb0","pricing_plan_id":"cebpf4jnsgd1na2vs0mg"},