{"last_updated":1710871726,"ttl":30,"version":"2.2","data":{"bikes":[{"bike_id":"6449c81a-2ad0-4a58-b026-e9b61cda0e7e","system_id":"levelo_inurba_marseille","lat":43.31374,"lon":5.36728,"is_reserved":false,"is_disabled":false,"rental_uris":{"android":"levelo://app?vid=6449c81a-2ad0-4a58-b026-e9b61cda0e7e","ios":"levelo://app?vid=6449c81a-2ad0-4a58-b026-e9b61cda0e7e"},"vehicle_type_id":"4","last_reported":1710871726,"current_range_meters":0,"station_id":"ce4bgr92rcd13ifvqc6g","pricing_plan_id":"cebpf4jnsgd1na2vs0mg"},{"bike_id":"d14e68dd-dd6e-48e7-8ebe-97148c01b777","system_id":"levelo_inurba_marseille","lat":43.312239,"lon":5.368562,"is_reserved":false,"is_disabled":false,"rental_uris":{"android":"levelo://app?vid=d14e68dd-dd6e-48e7-8ebe-97148c01b777","ios":"levelo://app?vid=d14e68dd-dd6e-48e7-8ebe-97148c01b777"},"vehicle_type_id":"4","last_reported":1710871726,"current_range_meters":1200,"station_id":"ce4bgl92rcd13ifvqbq0","pricing_plan_id":"cebpf4jnsgd1na2vs0mg"},{"bike_id":"7565683a-2f16-436f-8616-bd594069d614","system_id":"levelo_inurba_marseille","lat":43.312239,"lon":5.368562,"is_reserved":false,"is_disabled":false,"rental_uris":{"android":"levelo://app?vid=7565683a-2f16-436f-8616-bd594069d614","ios":"levelo://app?vid=7565683a-2f16-436f-8616-bd594069d614"},"vehicle_type_id":"4","last_reported":1710871726,"current_range_meters":17600,"station_id":"ce4bgl92rcd13ifvqbq0","pricing_plan_id":"cebpf4jnsgd1na2vs0mg"},{"bike_id":"94d27e1f-763f-40f3-93dc-48a368b9ed7f","system_id":"levelo_inurba_marseille","lat":43.31224,"lon":5.36857,"is_reserved":false,"is_disabled":false,"rental_uris":{"android":"levelo://app?vid=94d27e1f-763f-40f3-93dc-48a368b9ed7f","ios":"levelo://app?vid=94d27e1f-763f-40f3-93dc-48a368b9ed7f"},"vehicle_type_id":"4","last_reported":1710871726,"current_range_meters":0,"station_id":"ce4bgl92rcd13ifvqbq0","pricing_plan_id":"cebpf4jnsgd1na2vs0mg"},{"bike_id":"2d0b5a3c-05bc-4a50-92eb-8fcebaf2855b","system_id":"levelo_inurba_marseille","lat":43.309091,"lon":5.368497,"is_reserved":false,"is_disabled":false,"rental_uris":{"android":"levelo://app?vid=2d0b5a3c-05bc-4a50-92eb-8fcebaf2855b","ios":"levelo://app?vid=2d0b5a3c-05bc-4a50-92eb-8fcebaf2855b"},"vehicle_type_id":"4","last_reported":1710871726,"current_range_meters":6800,"station_id":"ce4bgn92rcd13ifvqbvg","pricing_plan_id":"cebpf4jnsgd1na2vs0mg"},{"bike_id":"acc708df-c2cb-4741-af9c-d9a6e5c46e1e","system_id":"levelo_inurba_marseille","lat":43.314811,"lon":5.373103,"is_reserved":false,"is_disabled":false,"rental_uris":{"android":"levelo://app?vid=acc708df-c2cb-4741-af9c-d9a6e5c46e1e","ios":"levelo://app?vid=acc708df-c2cb-4741-af9c-d9a6e5c46e1e"},"vehicle_type_id":"4","last_reported":1710871726,"current_range_meters":8000,"station_id":"ce4bgt12rcd13ifvqcd0","pricing_plan_id":"cebpf4jnsgd1na2vs0mg"},{"bike_id":"08d5deaa-a807-43e5-8b08-4bc5a28f5e08","system_id":"levelo_inurba_marseille","lat":43.314811,"lon":5.373104,"is_reserved":false,"is_disabled":false,"rental_uris":{"android":"levelo://app?vid=08d5deaa-a807-43e5-8b08-4bc5a28f5e08","ios":"levelo://app?vid=08d5deaa-a807-43e5-8b08-4bc5a28f5e08"},"vehicle_type_id":"4","last_reported":1710871726,"current_range_meters":4000,"station_id":"ce4bgt12rcd13ifvqcd0","pricing_plan_id":"cebpf4jnsgd1na2vs0mg"},{"bike_id":"f01cec42-9792-40ac-a0b9-26371320ad9a","system_id":"levelo_inurba_marseille","lat":43.314811,"lon":5.373104,"is_reserved":false,"is_disabled":false,"rental_uris":{"android":"levelo://app?vid=f01cec42-9792-40ac-a0b9-26371320ad9a","ios":"levelo://app?vid=f01cec42-9792-40ac-a0b9-26371320ad9a"},"vehicle_type_id":"4","last_reported":1710871726,"current_range_meters":15200,"station_id":"ce4bgt12rcd13ifvqcd0","pricing_plan_id":"cebpf4jnsgd1na2vs0mg"},{"bike_id":"80511cd1-ffe6-485c-85a2-b2c4e72f57f8","system_id":"levelo_inurba_marseille","lat":43.314811,"lon":5.373104,"is_reserved":false,"is_disabled":false,"rental_uris":{"android":"levelo://app?vid=80511cd1-ffe6-485c-85a2-b2c4e72f57f8","ios":"levelo://app?vid=80511cd1-ffe6-485c-85a2-b2c4e72f57f8"},"vehicle_type_id":"4","last_reported":1710871726,"current_range_meters":30400,"station_id":"ce4bgt12rcd13ifvqcd0","pricing_plan_id":"cebpf4jnsgd1na2vs0mg"},{"bike_id":"a442fd32-692b-4510-b7a4-17229f0ca5a5","system_id":"levelo_inurba_marseille","lat":43.309039,"lon":5.371797,"is_reserved":false,"is_disabled":false,"rental_uris":{"android":"levelo://app?vid=a442fd32-692b-4510-b7a4-17229f0ca5a5","ios":"levelo://app?vid=a442fd32-692b-4510-b7a4-17229f0ca5a5"},"vehicle_type_id":"4","last_reported":1710871726,"current_range_meters":0,"station_id":"ce4bguh2rcd13ifvqckg","pricing_plan_id":"cebpf4jnsgd1na2vs0mg"},{"bike_id":"f3ba13f1-342f-45de-b624-326663a41c3e","system_id":"levelo_inurba_marseille","lat":43.305368,"lon":5.367343,"is_reserved":false,"is_disabled":false,"rental_uris":{"android":"levelo://app?vid=f3ba13f1-342f-45de-b624-326663a41c3e","ios":"levelo://app?vid=f3ba13f1-342f-45de-b624-326663a41c3e"},"vehicle_type_id":"4","last_reported":1710871726,"current_range_meters":1200,"station_id":"ce4bgrp2rcd13ifvqc9g","pricing_plan_id":"cebpf4jnsgd1na2vs0mg"},{"bike_id":"710ac3fc-b7a7-4474-9947-c090cab52042","system_id":"levelo_inurba_marseille","lat":43.30545,"lon":5.36532,"is_reserved":false,"is_disabled":false,"rental_uris":{"android":"levelo://app?vid=710ac3fc-b7a7-4474-9947-c090cab52042","ios":"levelo://app?vid=710ac3fc-b7a7-4474-9947-c090cab52042"},"vehicle_type_id":"4","last_reported":1710871726,"current_range_meters":0,"station_id":"ce4bgs12rcd13ifvqcag","pricing_plan_id":"cebpf4jnsgd1na2vs0mg"},{"bike_id":"fd3b7147-77fc-4bea-807c-86010fd20cc8","system_id":"levelo_inurba_marseille","lat":43.305427,"lon":5.365433,"is_reserved":false,"is_disabled":false,"rental_uris":{"android":"levelo://app?vid=fd3b7147-77fc-4bea-807c-86010fd20cc8","ios":"levelo://app?vid=fd3b7147-77fc-4bea-807c-86010fd20cc8"},"vehicle_type_id":"4","last_reported":1710871726,"current_range_meters":0,"station_id":"ce4bgs12rcd13ifvqcag","pricing_plan_id":"cebpf4jnsgd1na2vs0mg"},{"bike_id":"a1eab5c0-8bac-453d-ad83-7b06480acafe","system_id":"levelo_inurba_marseille","lat":43.305989,"lon":5.37225,"is_reserved":false,"is_disabled":false,"rental_uris":{"android":"levelo://app?vid=a1eab5c0-8bac-453d-ad83-7b06480acafe","ios":"levelo://app?vid=a1eab5c0-8bac-453d-ad83-7b06480acafe"},"vehicle_type_id":"4","last_reported":1710871726,"current_range_meters":3600,"station_id":"ce4bgqh2rcd13ifvqc4g","pricing_plan_id":"cebpf4jnsgd1na2vs0mg"},{"bike_id":"e2f71374-821c-4d63-92fe-b1b077cf0ddd","system_id":"levelo_inurba_marseille","lat":43.311131,"lon":5.377651,"is_reserved":false,"is_disabled":false,"rental_uris":{"android":"levelo://app?vid=e2f71374-821c-4d63-92fe-b1b077cf0ddd","ios":"levelo://app?vid=e2f71374-821c-4d63-92fe-b1b077cf0ddd"},"vehicle_type_id":"4","last_reported":1710871726,"current_range_meters":9200,"station_id":"ce4bgt92rcd13ifvqcg0","pricing_plan_id":"cebpf4jnsgd1na2vs0mg"},{"bike_id":"daa0969a-7e5a-4f7a-b6ed-cd368eb6c699","system_id":"levelo_inurba_marseille","lat":43.311131,"lon":5.377651,"is_reserved":false,"is_disabled":false,"rental_uris":{"android":"levelo://app?vid=daa0969a-7e5a-4f7a-b6ed-cd368eb6c699","ios":"levelo://app?vid=daa0969a-7e5a-4f7a-b6ed-cd368eb6c699"},"vehicle_type_id":"4","last_reported":1710871726,"current_range_meters":0,"station_id":"ce4bgt92rcd13ifvqcg0","pricing_plan_id":"cebpf4jnsgd1na2vs0mg"},{"bike_id":"c5897802-6a21-4b6a-9688-ccad88fa1f25","system_id":"levelo_inurba_marseille","lat":43.311131,"lon":5.377651,"is_reserved":false,"is_disabled":false,"rental_uris":{"android":"levelo://app?vid=c5897802-6a21-4b6a-9688-ccad88fa1f25","ios":"levelo://app?vid=c5897802-6a21-4b6a-9688-ccad88fa1f25"},"vehicle_type_id":"4","last_reported":1710871726,"current_range_meters":2400,"station_id":"ce4bgt92rcd13ifvqcg0","pricing_plan_id":"cebpf4jnsgd1na2vs0mg"},{"bike_id":"a5145f9a-948b-4231-b455-2f8dd6132637","system_id":"levelo_inurba_marseille","lat":43.311131,"lon":5.377651,"is_reserved":false,"is_disabled":false,"rental_uris":{"android":"levelo://app?vid=a5145f9a-948b-4231-b455-2f8dd6132637","ios":"levelo://app?vid=a5145f9a-948b-4231-b455-2f8dd6132637"},"vehicle_type_id":"4","last_reported":1710871726,"current_range_meters":14000,"station_id":"ce4bgt92rcd13ifvqcg0","pricing_plan_id":"cebpf4jnsgd1na2vs0mg"},{"bike_id":"b7a21ba3-96e3-499a-ac60-435148997563","system_id":"levelo_inurba_marseille","lat":43.31125,"lon":5.37767,"is_reserved":false,"is_disabled":false,"rental_uris":{"android":"levelo://app?vid=b7a21ba3-96e3-499a-ac60-435148997563","ios":"levelo://app?vid=b7a21ba3-96e3-499a-ac60-435148997563"},"vehicle_type_id":"4","last_reported":1710871726,"current_range_meters":10400,"station_id":"ce4bgt92rcd13ifvqcg0","pricing_plan_id":"cebpf4jnsgd1na2vs0mg"},{"bike_id":"67d415d5-5131-46ac-a874-fed090108829","system_id":"levelo_inurba_marseille","lat":43.311125,"lon":5.377624,"is_reserved":false,"is_disabled":false,"rental_uris":{"android":"levelo://app?vid=67d415d5-5131-46ac-a874-fed090108829","ios":"levelo://app?vid=67d415d5-5131-46ac-a874-fed090108829"},"vehicle_type_id":"4","last_reported":1710871726,"current_range_meters":1200,"station_id":"ce4bgt92rcd13ifvqcg0","pricing_plan_id":"cebpf4jnsgd1na2vs0mg"},{"bike_id":"7724bc21-f0c0-4ae2-b375-df3e0732158c","system_id":"levelo_inurba_marseille","lat":43.311125,"lon":5.377624,"is_reserved":false,"is_disabled":false,"rental_uris":{"android":"levelo://app?vid=7724bc21-f0c0-4ae2-b375-df3e0732158c","ios":"levelo://app?vid=7724bc21-f0c0-4ae2-b375-df3e0732158c"},"vehicle_type_id":"4","last_reported":1710871726,"current_range_meters":6000,"station_id":"ce4bgt92rcd13ifvqcg0","pricing_plan_id":"cebpf4jnsgd1na2vs0mg"},{"bike_id":"a43fa72f-7be3-4919-943e-0cfe6081c338","system_id":"levelo_inurba_marseille","lat":43.311125,"lon":5.377624,"is_reserved":false,"is_disabled":false,"rental_uris":{"android":"levelo://app?vid=a43fa72f-7be3-4919-943e-0cfe6081c338","ios":"levelo://app?vid=a43fa72f-7be3-4919-943e-0cfe6081c338"},"vehicle_type_id":"4","last_reported":1710871726,"current_range_meters":3600,"station_id":"ce4bgt92rcd13ifvqcg0","pricing_plan_id":"cebpf4jnsgd1na2vs0mg"},{"bike_id":"24e8cfad-5161-4247-8048-f937336ff938","system_id":"levelo_inurba_marseille","lat":43.311131,"lon":5.377651,"is_reserved":false,"is_disabled":false,"rental_uris":{"android":"levelo://app?vid=24e8cfad-5161-4247-8048-f937336ff938","ios":"levelo://app?vid=24e8cfad-5161-4247-8048-f937336ff938"},"vehicle_type_id":"4","last_reported":1710871726,"current_range_meters":11600,"station_id":"ce4bgt92rcd13ifvqcg0","pricing_plan_id":"cebpf4jnsgd1na2vs0mg"},{"bike_id":"cdb73edb-bd22-4fd9-b04a-d5ecc1275d9f","system_id":"levelo_inurba_marseille","lat":43.311131,"lon":5.377651,"is_reserved":false,"is_disabled":false,"rental_uris":{"android":"levelo://app?vid=cdb73edb-bd22-4fd9-b04a-d5ecc1275d9f","ios":"levelo://app?vid=cdb73edb-bd22-4fd9-b04a-d5ecc1275d9f"},"vehicle_type_id":"4","last_reported":1710871726,"current_range_meters":17200,"station_id":"ce4bgt92rcd13ifvqcg0","pricing_plan_id":"cebpf4jnsgd1na2vs0mg"},{"bike_id":"2b3adc37-0354-4d24-9dc6-94cfacb5da99","system_id":"levelo_inurba_marseille","lat":43.311125,"lon":5.377624,"is_reserved":false,"is_disabled":false,"rental_uris":{"android":"levelo://app?vid=2b3adc37-0354-4d24-9dc6-94cfacb5da99","ios":"levelo://app?vid=2b3adc37-0354-4d24-9dc6-94cfacb5da99"},"vehicle_type_id":"4","last_reported":1710871726,"current_range_meters":14800,"station_id":"ce4bgt92rcd13ifvqcg0","pricing_plan_id":"cebpf4jnsgd1na2vs0mg"},{"bike_id":"073dd78c-4cd6-41c5-8495-749443e667d6","system_id":"levelo_inurba_marseille","lat":43.307945,"lon":5.376487,"is_reserved":false,"is_disabled":false,"rental_uris":{"android":"levelo://app?vid=073dd78c-4cd6-41c5-8495-749443e667d6","ios":"levelo://app?vid=073dd78c-4cd6-41c5-8495-749443e667d6"},"vehicle_type_id":"4","last_reported":1710871726,"current_range_meters":10400,"station_id":"ce4bgv92rcd13ifvqcq0","pricing_plan_id":"cebpf4jnsgd1na2vs0mg"},{"bike_id":"bffd8a82-2088-4213-b8e0-9e74152d1210","system_id":"levelo_inurba_marseille","lat":43.307844,"lon":5.376508,"is_reserved":false,"is_disabled":false,"rental_uris":{"android":"levelo://app?vid=bffd8a82-2088-4213-b8e0-9e74152d1210","ios":"levelo://app?vid=bffd8a82-2088-4213-b8e0-9e74152d1210"},"vehicle_type_id":"4","last_reported":1710871726,"current_range_meters":24000,"station_id":"ce4bgv92rcd13ifvqcq0","pricing_plan_id":"cebpf4jnsgd1na2vs0mg"},{"bike_id":"5ae5684a-9987-41c7-a65e-2e768ba1ca46","system_id":"levelo_inurba_marseille","lat":43.311131,"lon":5.377651,"is_reserved":false,"is_disabled":false,"rental_uris":{"android":"levelo://app?vid=5ae5684a-9987-41c7-a65e-2e768ba1ca46","ios":"levelo://app?vid=5ae5684a-9987-41c7-a65e-2e768ba1ca46"},"vehicle_type_id":"4","last_reported":1710871726,"current_range_meters":3600,"station_id":"ce4bgt92rcd13ifvqcg0","pricing_plan_id":"cebpf4jnsgd1na2vs0mg"},{"bike_id":"792ef5c6-659a-475a-8d1f-29cfc705d0a9","system_id":"levelo_inurba_marseille","lat":43.317075,"lon":5.377367,"is_reserved":false,"is_disabled":false,"rental_uris":{"android":"levelo://app?vid=792ef5c6-659a-475a-8d1f-29cfc705d0a9","ios":"levelo://app?vid=792ef5c6-659a-475a-8d1f-29cfc705d0a9"},"vehicle_type_id":"4","last_reported":1710871726,"current_range_meters":2400,"station_id":"ce4bgth2rcd13ifvqch0","pricing_plan_id":"cebpf4jnsgd1na2vs0mg"},{"bike_id":"7a3b2585-968d-4b49-8b2c-8735af65badf","system_id":"levelo_inurba_marseille","lat":43.317075,"lon":5.377367,"is_reserved":false,"is_disabled":false,"rental_uris":{"android":"levelo://app?vid=7a3b2585-968d-4b49-8b2c-8735af65badf","ios":"levelo://app?vid=7a3b2585-968d-4b49-8b2c-8735af65badf"},"vehicle_type_id":"4","last_reported":1710871726,"current_range_meters":6800,"station_id":"ce4bgth2rcd13ifvqch0","pricing_plan_id":"cebpf4jnsgd1na2vs0mg"},{"bike_id":"ed88ec14-926e-4472-8b20-a93fdac70977","system_id":"levelo_inurba_marseille","lat":43.317075,"lon":5.377367,"is_reserved":false,"is_disabled":false,"rental_uris":{"android":"levelo://app?vid=ed88ec14-926e-4472-8b20-a93fdac70977","ios":"levelo://app?vid=ed88ec14-926e-4472-8b20-a93fdac70977"},"vehicle_type_id":"4","last_reported":1710871726,"current_range_meters":9600,"station_id":"ce4bgth2rcd13ifvqch0","pricing_plan_id":"cebpf4jnsgd1na2vs0mg"},{"bike_id":"44e1a1f0-cf5e-4a85-97dc-9e9041b51356","system_id":"levelo_inurba_marseille","lat":43.317075,"lon":5.377367,"is_reserved":false,"is_disabled":false,"rental_uris":{"android":"levelo://app?vid=44e1a1f0-cf5e-4a85-97dc-9e9041b51356","ios":"levelo://app?vid=44e1a1f0-cf5e-4a85-97dc-9e9041b51356"},"vehicle_type_id":"4","last_reported":1710871726,"current_range_meters":21200,"station_id":"ce4bgth2rcd13ifvqch0","pricing_plan_id":"cebpf4jnsgd1na2vs0mg"},{"bike_id":"d16be73f-9c8f-405f-b1a9-9dbb75cc9e9e","system_id":"levelo_inurba_marseille","lat":43.317075,"lon":5.377367,"is_reserved":false,"is_disabled":false,"rental_uris":{"android":"levelo://app?vid=d16be73f-9c8f-405f-b1a9-9dbb75cc9e9e","ios":"levelo://app?vid=d16be73f-9c8f-405f-b1a9-9dbb75cc9e9e"},"vehicle_type_id":"4","last_reported":1710871726,"current_range_meters":28400,"station_id":"ce4bgth2rcd13ifvqch0","pricing_plan_id":"cebpf4jnsgd1na2vs0mg"},{"bike_id":"521a606c-6a2a-4351-bd7b-9aef375cf5a9","system_id":"levelo_inurba_marseille","lat":43.317075,"lon":5.377367,"is_reserved":false,"is_disabled":false,"rental_uris":{"android":"levelo://app?vid=521a606c-6a2a-4351-bd7b-9aef375cf5a9","ios":"levelo://app?vid=521a606c-6a2a-4351-bd7b-9aef375cf5a9"},"vehicle_type_id":"4","last_reported":1710871726,"current_range_meters":10000,"station_id":"ce4bgth2rcd13ifvqch0","pricing_plan_id":"cebpf4jnsgd1na2vs0mg"},{"bike_id":"7412e3e3-7a02-42b1-ac08-aec0930116df","system_id":"levelo_inurba_marseille","lat":43.317075,"lon":5.377367,"is_reserved":false,"is_disabled":false,"rental_uris":{"android":"levelo://app?vid=7412e3e3-7a02-42b1-ac08-aec0930116df","ios":"levelo://app?vid=7412e3e3-7a02-42b1-ac08-aec0930116df"},"vehicle_type_id":"4","last_reported":1710871726,"current_range_meters":23200,"station_id":"ce4bgth2rcd13ifvqch0","pricing_plan_id":"cebpf4jnsgd1na2vs0mg"},{"bike_id":"8e9abddd-afd8-49a4-942e-9ce16f99545f","system_id":"levelo_inurba_marseille","lat":43.294314,"lon":5.397498,"is_reserved":false,"is_disabled":false,"rental_uris":{"android":"levelo://app?vid=8e9abddd-afd8-49a4-942e-9ce16f99545f","ios":"levelo://app?vid=8e9abddd-afd8-49a4-942e-9ce16f99545f"},"vehicle_type_id":"4","last_reported":1710871726,"current_range_meters":2400,"station_id":"ce4bh3h2rcd13ifvqdo0","pricing_plan_id":"cebpf4jnsgd1na2vs0mg"},{"bike_id":"3dade923-d49a-498b-a84a-7ecb87699f07","system_id":"levelo_inurba_marseille","lat":43.32088,"lon":5.37305,"is_reserved":false,"is_disabled":false,"rental_uris":{"android":"levelo://app?vid=3dade923-d49a-498b-a84a-7ecb87699f07","ios":"levelo://app?vid=3dade923-d49a-498b-a84a-7ecb87699f07"},"vehicle_type_id":"4","last_reported":1710871726,"current_range_meters":11600,"station_id":"","pricing_plan_id":"cebpf4jnsgd1na2vs0mg"},{"bike_id":"32d49ecf-01c8-4154-829b-41841a918d1c","system_id":"levelo_inurba_marseille","lat":43.303046,"lon":5.368981,"is_reserved":false,"is_disabled":false,"rental_uris":{"android":"levelo://app?vid=32d49ecf-01c8-4154-829b-41841a918d1c","ios":"levelo://app?vid=32d49ecf-01c8-4154-829b-41841a918d1c"},"vehicle_type_id":"4","last_reported":1710871726,"current_range_meters":7600,"station_id":"ce4bgqh2rcd13ifvqc5g","pricing_plan_id":"cebpf4jnsgd1na2vs0mg"},{"bike_id":"fa9c0d91-8506-49f0-a1b4-fbfaea7368da","system_id":"levelo_inurba_marseille","lat":43.302994,"lon":5.368868,"is_reserved":false,"is_disabled":false,"rental_uris":{"android":"levelo://app?vid=fa9c0d91-8506-49f0-a1b4-fbfaea7368da","ios":"levelo://app?vid=fa9c0d91-8506-49f0-a1b4-fbfaea7368da"},"vehicle_type_id":"4","last_reported":1710871726,"current_range_meters":13600,"station_id":"ce4bgqh2rcd13ifvqc5g","pricing_plan_id":"cebpf4jnsgd1na2vs0mg"},{"bike_id":"861b56a0-ddae-41ab-a6ac-cfa64ef1f2f9","system_id":"levelo_inurba_marseille","lat":43.315293,"lon":5.380349,"is_reserved":false,"is_disabled":false,"rental_uris":{"android":"levelo://app?vid=861b56a0-ddae-41ab-a6ac-cfa64ef1f2f9","ios":"levelo://app?vid=861b56a0-ddae-41ab-a6ac-cfa64ef1f2f9"},"vehicle_type_id":"4","last_reported":1710871726,"current_range_meters":14400,"station_id":"ce4bhsp2rcd13ifvqi50","pricing_plan_id":"cebpf4jnsgd1na2vs0mg"},{"bike_id":"2ec83eb6-706c-44e3-a1d3-98215c3248f7","system_id":"levelo_inurba_marseille","lat":43.315293,"lon":5.380349,"is_reserved":false,"is_disabled":false,"rental_uris":{"android":"levelo://app?vid=2ec83eb6-706c-44e3-a1d3-98215c3248f7","ios":"levelo://app?vid=2ec83eb6-706c-44e3-a1d3-98215c3248f7"},"vehicle_type_id":"4","last_reported":1710871726,"current_range_meters":10000,"station_id":"ce4bhsp2rcd13ifvqi50","pricing_plan_id":"cebpf4jnsgd1na2vs0mg"},{"bike_id":"8732c2e5-7da0-443b-8734-f500863e205c","system_id":"levelo_inurba_marseille","lat":43.303046,"lon":5.368981,"is_reserved":false,"is_disabled":false,"rental_uris":{"android":"levelo://app?vid=8732c2e5-7da0-443b-8734-f500863e205c","ios":"levelo://app?vid=8732c2e5-7da0-443b-8734-f500863e205c"},"vehicle_type_id":"4","last_reported":1710871726,"current_range_meters":11600,"station_id":"ce4bgqh2rcd13ifvqc5g","pricing_plan_id":"cebpf4jnsgd1na2vs0mg"},{"bike_id":"d9a87951-ce82-4b69-b40e-2de7024fc6f6","system_id":"levelo_inurba_marseille","lat":43.30195,"lon":5.36621,"is_reserved":false,"is_disabled":false,"rental_uris":{"android":"levelo://app?vid=d9a87951-ce82-4b69-b40e-2de7024fc6f6","ios":"levelo://app?vid=d9a87951-ce82-4b69-b40e-2de7024fc6f6"},"vehicle_type_id":"4","last_reported":1710871726,"current_range_meters":0,"station_id":"ce4bgrh2rcd13ifvqc8g","pricing_plan_id":"cebpf4jnsgd1na2vs0mg"},{"bike_id":"d87c4744-a88c-4aa2-8dd6-10da15b9e180","system_id":"levelo_inurba_marseille","lat":43.30192,"lon":5.36606,"is_reserved":false,"is_disabled":false,"rental_uris":{"android":"levelo://app?vid=d87c4744-a88c-4aa2-8dd6-10da15b9e180","ios":"levelo://app?vid=d87c4744-a88c-4aa2-8dd6-10da15b9e180"},"vehicle_type_id":"4","last_reported":1710871726,"current_range_meters":0,"station_id":"ce4bgrh2rcd13ifvqc8g","pricing_plan_id":"cebpf4jnsgd1na2vs0mg"},{"bike_id":"62788518-0cc1-4767-9424-c36c6586f866","system_id":"levelo_inurba_marseille","lat":43.30189,"lon":5.36628,"is_reserved":false,"is_disabled":false,"rental_uris":{"android":"levelo://app?vid=62788518-0cc1-4767-9424-c36c6586f866","ios":"levelo://app?vid=62788518-0cc1-4767-9424-c36c6586f866"},"vehicle_type_id":"4","last_reported":1710871726,"current_range_meters":0,"station_id":"ce4bgrh2rcd13ifvqc8g","pricing_plan_id":"cebpf4jnsgd1na2vs0mg"},{"bike_id":"61344afc-cf3e-4a40-a60e-f386dcc346c7","system_id":"levelo_inurba_marseille","lat":43.308012,"lon":5.381511,"is_reserved":false,"is_disabled":false,"rental_uris":{"android":"levelo://app?vid=61344afc-cf3e-4a40-a60e-f386dcc346c7","ios":"levelo://app?vid=61344afc-cf3e-4a40-a60e-f386dcc346c7"},"vehicle_type_id":"4","last_reported":1710871726,"current_range_meters":13600,"station_id":"ce4bgt12rcd13ifvqce0","pricing_plan_id":"cebpf4jnsgd1na2vs0mg"},{"bike_id":"c14ab8b6-0be8-4c6a-ae98-8a2b5e813492","system_id":"levelo_inurba_marseille","lat":43.30802,"lon":5.38151,"is_reserved":false,"is_disabled":false,"rental_uris":{"android":"levelo://app?vid=c14ab8b6-0be8-4c6a-ae98-8a2b5e813492","ios":"levelo://app?vid=c14ab8b6-0be8-4c6a-ae98-8a2b5e813492"},"vehicle_type_id":"4","last_reported":1710871726,"current_range_meters":0,"station_id":"ce4bgt12rcd13ifvqce0","pricing_plan_id":"cebpf4jnsgd1na2vs0mg"},{"bike_id":"d5115a4c-9f50-4b60-ab83-ceb1f900fb06","system_id":"levelo_inurba_marseille","lat":43.308012,"lon":5.381511,"is_reserved":false,"is_disabled":false,"rental_uris":{"android":"levelo://app?vid=d5115a4c-9f50-4b60-ab83-ceb1f900fb06","ios":"levelo://app?vid=d5115a4c-9f50-4b60-ab83-ceb1f900fb06"},"vehicle_type_id":"4","last_reported":1710871726,"current_range_meters":21200,"station_id":"ce4bgt12rcd13ifvqce0","pricing_plan_id":"cebpf4jnsgd1na2vs0mg"},{"bike_id":"4909e6ae-0d1a-4cbe-8a7b-f11819e2f8ee","system_id":"levelo_inurba_marseille","lat":43.308012,"lon":5.381511,"is_reserved":false,"is_disabled":false,"rental_uris":{"android":"levelo://app?vid=4909e6ae-0d1a-4cbe-8a7b-f11819e2f8ee","ios":"levelo://app?vid=4909e6ae-0d1a-4cbe-8a7b-f11819e2f8ee"},"vehicle_type_id":"4","last_reported":1710871726,"current_range_meters":14000,"station_id":"ce4bgt12rcd13ifvqce0","pricing_plan_id":"cebpf4jnsgd1na2vs0mg"},{"bike_id":"3ae5378f-d0c3-4da6-a75b-9153df2d48da","system_id":"levelo_inurba_marseille","lat":43.304606,"lon":5.379026,"is_reserved":false,"is_disabled":false,"rental_uris":{"android":"levelo://app?vid=3ae5378f-d0c3-4da6-a75b-9153df2d48da","ios":"levelo://app?vid=3ae5378f-d0c3-4da6-a75b-9153df2d48da"},"vehicle_type_id":"4","last_reported":1710871726,"current_range_meters":0,"station_id":"ce4bgup2rcd13ifvqcn0","pricing_plan_id":"cebpf4jnsgd1na2vs0mg"},{"bike_id":"f9a2681e-dfa9-41ac-9e9c-f4364e2f4afa","system_id":"levelo_inurba_marseille","lat":43.304606,"lon":5.379026,"is_reserved":false,"is_disabled":false,"rental_uris":{"android":"levelo://app?vid=f9a2681e-dfa9-41ac-9e9c-f4364e2f4afa","ios":"levelo://app?vid=f9a2681e-dfa9-41ac-9e9c-f4364e2f4afa"},"vehicle_type_id":"4","last_reported":1710871726,"current_range_meters":0,"station_id":"ce4bgup2rcd13ifvqcn0","pricing_plan_id":"cebpf4jnsgd1na2vs0mg"},{"bike_id":"2e3fb9e7-1f93-4eeb-932d-7631c96cb308","system_id":"levelo_inurba_marseille","lat":43.324771,"lon":5.36557,"is_reserved":false,"is_disabled":false,"rental_uris":{"android":"levelo://app?vid=2e3fb9e7-1f93-4eeb-932d-7631c96cb308","ios":"levelo://app?vid=2e3fb9e7-1f93-4eeb-932d-7631c96cb308"},"vehicle_type_id":"4","last_reported":1710871726,"current_range_meters":3200,"station_id":"ce4bhs12rcd13ifvqhvg","pricing_plan_id":"cebpf4jnsgd1na2vs0mg"},{"bike_id":"93d2632d-5a61-47c9-bad7-e62c2849d4ee","system_id":"levelo_inurba_marseille","lat":43.324771,"lon":5.36557,"is_reserved":false,"is_disabled":false,"rental_uris":{"android":"levelo://app?vid=93d2632d-5a61-47c9-bad7-e62c2849d4ee","ios":"levelo://app?vid=93d2632d-5a61-47c9-bad7-e62c2849d4ee"},"vehicle_type_id":"4","last_reported":1710871726,"current_range_meters":14400,"station_id":"ce4bhs12rcd13ifvqhvg","pricing_plan_id":"cebpf4jnsgd1na2vs0mg"},{"bike_id":"b21d2de1-30a0-4add-a8d7-351de87e9349","system_id":"levelo_inurba_marseille","lat":43.310804,"lon":5.38359,"is_reserved":false,"is_disabled":false,"rental_uris":{"android":"levelo://app?vid=b21d2de1-30a0-4add-a8d7-351de87e9349","ios":"levelo://app?vid=b21d2de1-30a0-4add-a8d7-351de87e9349"},"vehicle_type_id":"4","last_reported":1710871726,"current_range_meters":27600,"station_id":"ce4bgv92rcd13ifvqcr0","pricing_plan_id":"cebpf4jnsgd1na2vs0mg"},{"bike_id":"e2ddb4fc-b0c9-4d33-b415-1f98d69b5bb8","system_id":"levelo_inurba_marseille","lat":43.324771,"lon":5.36557,"is_reserved":false,"is_disabled":false,"rental_uris":{"android":"levelo://app?vid=e2ddb4fc-b0c9-4d33-b415-1f98d69b5bb8","ios":"levelo://app?vid=e2ddb4fc-b0c9-4d33-b415-1f98d69b5bb8"},"vehicle_type_id":"4","last_reported":1710871726,"current_range_meters":16800,"station_id":"ce4bhs12rcd13ifvqhvg","pricing_plan_id":"cebpf4jnsgd1na2vs0mg"},{"bike_id":"c5bcdf83-d7ed-49e1-96a8-945b91b2bd93","system_id":"levelo_inurba_marseille","lat":43.305368,"lon":5.367343,"is_reserved":false,"is_disabled":false,"rental_uris":{"android":"levelo://app?vid=c5bcdf83-d7ed-49e1-96a8-945b91b2bd93","ios":"levelo://app?vid=c5bcdf83-d7ed-49e1-96a8-945b91b2bd93"},"vehicle_type_id":"4","last_reported":1710871726,"current_range_meters":0,"station_id":"ce4bgrp2rcd13ifvqc9g","pricing_plan_id":"cebpf4jnsgd1na2vs0mg"},{"bike_id":"89eb7ca1-94e6-40ac-bbb7-c8b1d55fc425","system_id":"levelo_inurba_marseille","lat":43.31077,"lon":5.38363,"is_reserved":false,"is_disabled":false,"rental_uris":{"android":"levelo://app?vid=89eb7ca1-94e6-40ac-bbb7-c8b1d55fc425","ios":"levelo://app?vid=89eb7ca1-94e6-40ac-bbb7-c8b1d55fc425"},"vehicle_type_id":"4","last_reported":1710871726,"current_range_meters":2400,"station_id":"ce4bgv92rcd13ifvqcr0","pricing_plan_id":"cebpf4jnsgd1na2vs0mg"},{"bike_id":"02bff155-587b-4233-a5c8-283cbd8b3972","system_id":"levelo_inurba_marseille","lat":43.310804,"lon":5.38359,"is_reserved":false,"is_disabled":false,"rental_uris":{"android":"levelo://app?vid=02bff155-587b-4233-a5c8-283cbd8b3972","ios":"levelo://app?vid=02bff155-587b-4233-a5c8-283cbd8b3972"},"vehicle_type_id":"4","last_reported":1710871726,"current_range_meters":28000,"station_id":"ce4bgv92rcd13ifvqcr0","pricing_plan_id":"cebpf4jnsgd1na2vs0mg"},{"bike_id":"f73928c4-4088-4dd9-b596-cc946f1d4629","system_id":"levelo_inurba_marseille","lat":43.310804,"lon":5.38359,"is_reserved":false,"is_disabled":false,"rental_uris":{"android":"levelo://app?vid=f73928c4-4088-4dd9-b596-cc946f1d4629","ios":"levelo://app?vid=f73928c4-4088-4dd9-b596-cc946f1d4629"},"vehicle_type_id":"4","last_reported":1710871726,"current_range_meters":13200,"station_id":"ce4bgv92rcd13ifvqcr0","pricing_plan_id":"cebpf4jnsgd1na2vs0mg"},{"bike_id":"aaeadb19-7f25-4006-b3ee-2db67cfc41d4","system_id":"levelo_inurba_marseille","lat":43.302812,"lon":5.377068,"is_reserved":false,"is_disabled":false,"rental_uris":{"android":"levelo://app?vid=aaeadb19-7f25-4006-b3ee-2db67cfc41d4","ios":"levelo://app?vid=aaeadb19-7f25-4006-b3ee-2db67cfc41d4"},"vehicle_type_id":"4","last_reported":1710871726,"current_range_meters":0,"station_id":"ce4bguh2rcd13ifvqcj0","pricing_plan_id":"cebpf4jnsgd1na2vs0mg"},{"bike_id":"be83824f-cd7e-44ed-bda3-89905b40ab1f","system_id":"levelo_inurba_marseille","lat":43.31994,"lon":5.3814,"is_reserved":false,"is_disabled":false,"rental_uris":{"android":"levelo://app?vid=be83824f-cd7e-44ed-bda3-89905b40ab1f","ios":"levelo://app?vid=be83824f-cd7e-44ed-bda3-89905b40ab1f"},"vehicle_type_id":"4","last_reported":1710871726,"current_range_meters":6400,"station_id":"ce4bhr12rcd13ifvqhpg","pricing_plan_id":"cebpf4jnsgd1na2vs0mg"},{"bike_id":"90f8a9e8-274f-4ad0-9d3d-5cd343f7045b","system_id":"levelo_inurba_marseille","lat":43.319935,"lon":5.381699,"is_reserved":false,"is_disabled":false,"rental_uris":{"android":"levelo://app?vid=90f8a9e8-274f-4ad0-9d3d-5cd343f7045b","ios":"levelo://app?vid=90f8a9e8-274f-4ad0-9d3d-5cd343f7045b"},"vehicle_type_id":"4","last_reported":1710871726,"current_range_meters":12000,"station_id":"ce4bhr12rcd13ifvqhpg","pricing_plan_id":"cebpf4jnsgd1na2vs0mg"},{"bike_id":"1d88780d-f1c4-41b5-8b98-17c48fd33c14","system_id":"levelo_inurba_marseille","lat":43.319935,"lon":5.381699,"is_reserved":false,"is_disabled":false,"rental_uris":{"android":"levelo://app?vid=1d88780d-f1c4-41b5-8b98-17c48fd33c14","ios":"levelo://app?vid=1d88780d-f1c4-41b5-8b98-17c48fd33c14"},"vehicle_type_id":"4","last_reported":1710871726,"current_range_meters":7200,"station_id":"ce4bhr12rcd13ifvqhpg","pricing_plan_id":"cebpf4jnsgd1na2vs0mg"},{"bike_id":"652ab8f5-04d5-4b3c-9479-97e3d0427748","system_id":"levelo_inurba_marseille","lat":43.319935,"lon":5.381699,"is_reserved":false,"is_disabled":false,"rental_uris":{"android":"levelo://app?vid=652ab8f5-04d5-4b3c-9479-97e3d0427748","ios":"levelo://app?vid=652ab8f5-04d5-4b3c-9479-97e3d0427748"},"vehicle_type_id":"4","last_reported":1710871726,"current_range_meters":20000,"station_id":"ce4bhr12rcd13ifvqhpg","pricing_plan_id":"cebpf4jnsgd1na2vs0mg"},{"bike_id":"3a2e0ea9-0656-42c8-b911-ee19a4dbbf8e","system_id":"levelo_inurba_marseille","lat":43.319935,"lon":5.381699,"is_reserved":false,"is_disabled":false,"rental_uris":{"android":"levelo://app?vid=3a2e0ea9-0656-42c8-b911-ee19a4dbbf8e","ios":"levelo://app?vid=3a2e0ea9-0656-42c8-b911-ee19a4dbbf8e"},"vehicle_type_id":"4","last_reported":1710871726,"current_range_meters":17200,"station_id":"ce4bhr12rcd13ifvqhpg","pricing_plan_id":"cebpf4jnsgd1na2vs0mg"},{"bike_id":"e6634cf6-29a9-4f1f-8487-418450787096","system_id":"levelo_inurba_marseille","lat":43.31998,"lon":5.38155,"is_reserved":false,"is_disabled":false,"rental_uris":{"android":"levelo://app?vid=e6634cf6-29a9-4f1f-8487-418450787096","ios":"levelo://app?vid=e6634cf6-29a9-4f1f-8487-418450787096"},"vehicle_type_id":"4","last_reported":1710871726,"current_range_meters":4800,"station_id":"ce4bhr12rcd13ifvqhpg","pricing_plan_id":"cebpf4jnsgd1na2vs0mg"},{"bike_id":"3bf418cf-8c93-441a-80ae-e4e659e91213","system_id":"levelo_inurba_marseille","lat":43.320015,"lon":5.381525,"is_reserved":false,"is_disabled":false,"rental_uris":{"android":"levelo://app?vid=3bf418cf-8c93-441a-80ae-e4e659e91213","ios":"levelo://app?vid=3bf418cf-8c93-441a-80ae-e4e659e91213"},"vehicle_type_id":"4","last_reported":1710871726,"current_range_meters":14000,"station_id":"ce4bhr12rcd13ifvqhpg","pricing_plan_id":"cebpf4jnsgd1na2vs0mg"},{"bike_id":"6213bdff-6059-4bc2-959c-58cff41809a7","system_id":"levelo_inurba_marseille","lat":43.31996,"lon":5.38162,"is_reserved":false,"is_disabled":false,"rental_uris":{"android":"levelo://app?vid=6213bdff-6059-4bc2-959c-58cff41809a7","ios":"levelo://app?vid=6213bdff-6059-4bc2-959c-58cff41809a7"},"vehicle_type_id":"4","last_reported":1710871726,"current_range_meters":20400,"station_id":"ce4bhr12rcd13ifvqhpg","pricing_plan_id":"cebpf4jnsgd1na2vs0mg"},{"bike_id":"8b558ec4-134d-4c8e-b662-db2642d71d49","system_id":"levelo_inurba_marseille","lat":43.32001,"lon":5.38158,"is_reserved":false,"is_disabled":false,"rental_uris":{"android":"levelo://app?vid=8b558ec4-134d-4c8e-b662-db2642d71d49","ios":"levelo://app?vid=8b558ec4-134d-4c8e-b662-db2642d71d49"},"vehicle_type_id":"4","last_reported":1710871726,"current_range_meters":10800,"station_id":"ce4bhr12rcd13ifvqhpg","pricing_plan_id":"cebpf4jnsgd1na2vs0mg"},{"bike_id":"4b358b68-dc19-4ea6-8f49-4a55bc1acc9f","system_id":"levelo_inurba_marseille","lat":43.32008,"lon":5.38161,"is_reserved":false,"is_disabled":false,"rental_uris":{"android":"levelo://app?vid=4b358b68-dc19-4ea6-8f49-4a55bc1acc9f","ios":"levelo://app?vid=4b358b68-dc19-4ea6-8f49-4a55bc1acc9f"},"vehicle_type_id":"4","last_reported":1710871726,"current_range_meters":13200,"station_id":"ce4bhr12rcd13ifvqhpg","pricing_plan_id":"cebpf4jnsgd1na2vs0mg"},{"bike_id":"a4cc7538-1d95-4e38-8f20-8abc95a8f5be","system_id":"levelo_inurba_marseille","lat":43.313571,"lon":5.384829,"is_reserved":false,"is_disabled":false,"rental_uris":{"android":"levelo://app?vid=a4cc7538-1d95-4e38-8f20-8abc95a8f5be","ios":"levelo://app?vid=a4cc7538-1d95-4e38-8f20-8abc95a8f5be"},"vehicle_type_id":"4","last_reported":1710871726,"current_range_meters":10400,"station_id":"ce4bgt92rcd13ifvqcf0","pricing_plan_id":"cebpf4jnsgd1na2vs0mg"},{"bike_id":"37d8d7fa-095c-42f8-9ab2-fb6d9ab0276f","system_id":"levelo_inurba_marseille","lat":43.313571,"lon":5.384829,"is_reserved":false,"is_disabled":false,"rental_uris":{"android":"levelo://app?vid=37d8d7fa-095c-42f8-9ab2-fb6d9ab0276f","ios":"levelo://app?vid=37d8d7fa-095c-42f8-9ab2-fb6d9ab0276f"},"vehicle_type_id":"4","last_reported":1710871726,"current_range_meters":24400,"station_id":"ce4bgt92rcd13ifvqcf0","pricing_plan_id":"cebpf4jnsgd1na2vs0mg"},{"bike_id":"7ad0fa98-16ac-417d-ae9f-f2ddd054d63f","system_id":"levelo_inurba_marseille","lat":43.299222,"lon":5.365554,"is_reserved":false,"is_disabled":false,"rental_uris":{"android":"levelo://app?vid=7ad0fa98-16ac-417d-ae9f-f2ddd054d63f","ios":"levelo://app?vid=7ad0fa98-16ac-417d-ae9f-f2ddd054d63f"},"vehicle_type_id":"4","last_reported":1710871726,"current_range_meters":7600,"station_id":"ce4bgm92rcd13ifvqbr0","pricing_plan_id":"cebpf4jnsgd1na2vs0mg"},{"bike_id":"25a17e93-e934-4ffb-a3ae-421dc0c1b926","system_id":"levelo_inurba_marseille","lat":43.299222,"lon":5.365554,"is_reserved":false,"is_disabled":false,"rental_uris":{"android":"levelo://app?vid=25a17e93-e934-4ffb-a3ae-421dc0c1b926","ios":"levelo://app?vid=25a17e93-e934-4ffb-a3ae-421dc0c1b926"},"vehicle_type_id":"4","last_reported":1710871726,"current_range_meters":0,"station_id":"ce4bgm92rcd13ifvqbr0","pricing_plan_id":"cebpf4jnsgd1na2vs0mg"},{"bike_id":"1d8b7e46-d3ad-47d4-b6cb-0d719e7eccd2","system_id":"levelo_inurba_marseille","lat":43.299724,"lon":5.371829,"is_reserved":false,"is_disabled":false,"rental_uris":{"android":"levelo://app?vid=1d8b7e46-d3ad-47d4-b6cb-0d719e7eccd2","ios":"levelo://app?vid=1d8b7e46-d3ad-47d4-b6cb-0d719e7eccd2"},"vehicle_type_id":"4","last_reported":1710871726,"current_range_meters":6800,"station_id":"ce4bgr92rcd13ifvqc7g","pricing_plan_id":"cebpf4jnsgd1na2vs0mg"},{"bike_id":"4ce2a856-a747-4ad6-9973-8a584db124fd","system_id":"levelo_inurba_marseille","lat":43.298433,"lon":5.362774,"is_reserved":false,"is_disabled":false,"rental_uris":{"android":"levelo://app?vid=4ce2a856-a747-4ad6-9973-8a584db124fd","ios":"levelo://app?vid=4ce2a856-a747-4ad6-9973-8a584db124fd"},"vehicle_type_id":"4","last_reported":1710871726,"current_range_meters":22800,"station_id":"ce4bgpp2rcd13ifvqc3g","pricing_plan_id":"cebpf4jnsgd1na2vs0mg"},{"bike_id":"f3344e9d-4928-482b-ac08-16d0cdeeb9e0","system_id":"levelo_inurba_marseille","lat":43.305364,"lon":5.384119,"is_reserved":false,"is_disabled":false,"rental_uris":{"android":"levelo://app?vid=f3344e9d-4928-482b-ac08-16d0cdeeb9e0","ios":"levelo://app?vid=f3344e9d-4928-482b-ac08-16d0cdeeb9e0"},"vehicle_type_id":"4","last_reported":1710871726,"current_range_meters":4400,"station_id":"ce4bgg92rcd13ifvqb30","pricing_plan_id":"cebpf4jnsgd1na2vs0mg"},{"bike_id":"e53ff999-fdc1-4c59-8230-9296cde4d46c","system_id":"levelo_inurba_marseille","lat":43.299243,"lon":5.37481,"is_reserved":false,"is_disabled":false,"rental_uris":{"android":"levelo://app?vid=e53ff999-fdc1-4c59-8230-9296cde4d46c","ios":"levelo://app?vid=e53ff999-fdc1-4c59-8230-9296cde4d46c"},"vehicle_type_id":"4","last_reported":1710871726,"current_range_meters":800,"station_id":"ce4bgjh2rcd13ifvqbg0","pricing_plan_id":"cebpf4jnsgd1na2vs0mg"},{"bike_id":"1eacab59-dc76-449c-9b01-7f0ac71161b8","system_id":"levelo_inurba_marseille","lat":43.311722,"lon":5.387247,"is_reserved":false,"is_disabled":false,"rental_uris":{"android":"levelo://app?vid=1eacab59-dc76-449c-9b01-7f0ac71161b8","ios":"levelo://app?vid=1eacab59-dc76-449c-9b01-7f0ac71161b8"},"vehicle_type_id":"4","last_reported":1710871726,"current_range_meters":18400,"station_id":"ce4bgv12rcd13ifvqcp0","pricing_plan_id":"cebpf4jnsgd1na2vs0mg"},{"bike_id":"ddd00e56-e671-474c-bbc1-0c71adf9376a","system_id":"levelo_inurba_marseille","lat":43.311801,"lon":5.387243,"is_reserved":false,"is_disabled":false,"rental_uris":{"android":"levelo://app?vid=ddd00e56-e671-474c-bbc1-0c71adf9376a","ios":"levelo://app?vid=ddd00e56-e671-474c-bbc1-0c71adf9376a"},"vehicle_type_id":"4","last_reported":1710871726,"current_range_meters":0,"station_id":"ce4bgv12rcd13ifvqcp0","pricing_plan_id":"cebpf4jnsgd1na2vs0mg"},{"bike_id":"7bd439f8-8443-4ce0-8646-1664c92a5a84","system_id":"levelo_inurba_marseille","lat":43.311722,"lon":5.387247,"is_reserved":false,"is_disabled":false,"rental_uris":{"android":"levelo://app?vid=7bd439f8-8443-4ce0-8646-1664c92a5a84","ios":"levelo://app?vid=7bd439f8-8443-4ce0-8646-1664c92a5a84"},"vehicle_type_id":"4","last_reported":1710871726,"current_range_meters":2400,"station_id":"ce4bgv12rcd13ifvqcp0","pricing_plan_id":"cebpf4jnsgd1na2vs0mg"},{"bike_id":"feead7e7-9cee-4c57-94a6-da647512767c","system_id":"levelo_inurba_marseille","lat":43.322896,"lon":5.382515,"is_reserved":false,"is_disabled":false,"rental_uris":{"android":"levelo://app?vid=feead7e7-9cee-4c57-94a6-da647512767c","ios":"levelo://app?vid=feead7e7-9cee-4c57-94a6-da647512767c"},"vehicle_type_id":"4","last_reported":1710871726,"current_range_meters":21600,"station_id":"ce4bhr12rcd13ifvqhqg","pricing_plan_id":"cebpf4jnsgd1na2vs0mg"},{"bike_id":"40920d67-a293-48ed-a3d6-e0e6bc1e2c92","system_id":"levelo_inurba_marseille","lat":43.32295,"lon":5.38249,"is_reserved":false,"is_disabled":false,"rental_uris":{"android":"levelo://app?vid=40920d67-a293-48ed-a3d6-e0e6bc1e2c92","ios":"levelo://app?vid=40920d67-a293-48ed-a3d6-e0e6bc1e2c92"},"vehicle_type_id":"4","last_reported":1710871726,"current_range_meters":5600,"station_id":"ce4bhr12rcd13ifvqhqg","pricing_plan_id":"cebpf4jnsgd1na2vs0mg"},{"bike_id":"3f897b5a-cdff-4477-8cbe-02af1e3040aa","system_id":"levelo_inurba_marseille","lat":43.32282,"lon":5.3827,"is_reserved":false,"is_disabled":false,"rental_uris":{"android":"levelo://app?vid=3f897b5a-cdff-4477-8cbe-02af1e3040aa","ios":"levelo://app?vid=3f897b5a-cdff-4477-8cbe-02af1e3040aa"},"vehicle_type_id":"4","last_reported":1710871726,"current_range_meters":4000,"station_id":"ce4bhr12rcd13ifvqhqg","pricing_plan_id":"cebpf4jnsgd1na2vs0mg"},{"bike_id":"88cbbdc5-e2d8-42e4-8389-8064c70752df","system_id":"levelo_inurba_marseille","lat":43.32295,"lon":5.38255,"is_reserved":false,"is_disabled":false,"rental_uris":{"android":"levelo://app?vid=88cbbdc5-e2d8-42e4-8389-8064c70752df","ios":"levelo://app?vid=88cbbdc5-e2d8-42e4-8389-8064c70752df"},"vehicle_type_id":"4","last_reported":1710871726,"current_range_meters":10800,"station_id":"ce4bhr12rcd13ifvqhqg","pricing_plan_id":"cebpf4jnsgd1na2vs0mg"},{"bike_id":"f32c3800-2880-49c9-b647-144d107e7f9a","system_id":"levelo_inurba_marseille","lat":43.32288,"lon":5.38264,"is_reserved":false,"is_disabled":false,"rental_uris":{"android":"levelo://app?vid=f32c3800-2880-49c9-b647-144d107e7f9a","ios":"levelo://app?vid=f32c3800-2880-49c9-b647-144d107e7f9a"},"vehicle_type_id":"4","last_reported":1710871726,"current_range_meters":26000,"station_id":"ce4bhr12rcd13ifvqhqg","pricing_plan_id":"cebpf4jnsgd1na2vs0mg"},{"bike_id":"f0516476-e3a2-4c66-b71c-c566b7ec1fc0","system_id":"levelo_inurba_marseille","lat":43.32294,"lon":5.38257,"is_reserved":false,"is_disabled":false,"rental_uris":{"android":"levelo://app?vid=f0516476-e3a2-4c66-b71c-c566b7ec1fc0","ios":"levelo://app?vid=f0516476-e3a2-4c66-b71c-c566b7ec1fc0"},"vehicle_type_id":"4","last_reported":1710871726,"current_range_meters":27600,"station_id":"ce4bhr12rcd13ifvqhqg","pricing_plan_id":"cebpf4jnsgd1na2vs0mg"},{"bike_id":"eddeac31-d118-4f00-9fae-66dd1f398919","system_id":"levelo_inurba_marseille","lat":43.3229,"lon":5.38262,"is_reserved":false,"is_disabled":false,"rental_uris":{"android":"levelo://app?vid=eddeac31-d118-4f00-9fae-66dd1f398919","ios":"levelo://app?vid=eddeac31-d118-4f00-9fae-66dd1f398919"},"vehicle_type_id":"4","last_reported":1710871726,"current_range_meters":7200,"station_id":"ce4bhr12rcd13ifvqhqg","pricing_plan_id":"cebpf4jnsgd1na2vs0mg"},{"bike_id":"85d4d71c-b2c1-426a-b0b8-be8461195f7e","system_id":"levelo_inurba_marseille","lat":43.322872,"lon":5.382756,"is_reserved":false,"is_disabled":false,"rental_uris":{"android":"levelo://app?vid=85d4d71c-b2c1-426a-b0b8-be8461195f7e","ios":"levelo://app?vid=85d4d71c-b2c1-426a-b0b8-be8461195f7e"},"vehicle_type_id":"4","last_reported":1710871726,"current_range_meters":21600,"station_id":"ce4bhr12rcd13ifvqhqg","pricing_plan_id":"cebpf4jnsgd1na2vs0mg"},{"bike_id":"bd6b6545-b45a-4dc0-b743-d330ab6c2563","system_id":"levelo_inurba_marseille","lat":43.32291,"lon":5.38264,"is_reserved":false,"is_disabled":false,"rental_uris":{"android":"levelo://app?vid=bd6b6545-b45a-4dc0-b743-d330ab6c2563","ios":"levelo://app?vid=bd6b6545-b45a-4dc0-b743-d330ab6c2563"},"vehicle_type_id":"4","last_reported":1710871726,"current_range_meters":30400,"station_id":"ce4bhr12rcd13ifvqhqg","pricing_plan_id":"cebpf4jnsgd1na2vs0mg"},{"bike_id":"5f8b4803-e4ba-4452-a9f1-55c7a87b5d2b","system_id":"levelo_inurba_marseille","lat":43.32291,"lon":5.38265,"is_reserved":false,"is_disabled":false,"rental_uris":{"android":"levelo://app?vid=5f8b4803-e4ba-4452-a9f1-55c7a87b5d2b","ios":"levelo://app?vid=5f8b4803-e4ba-4452-a9f1-55c7a87b5d2b"},"vehicle_type_id":"4","last_reported":1710871726,"current_range_meters":17200,"station_id":"ce4bhr12rcd13ifvqhqg","pricing_plan_id":"cebpf4jnsgd1na2vs0mg"},{"bike_id":"91866b6c-0f1d-4595-a374-74c3f3fe3718","system_id":"levelo_inurba_marseille","lat":43.32294,"lon":5.38262,"is_reserved":false,"is_disabled":false,"rental_uris":{"android":"levelo://app?vid=91866b6c-0f1d-4595-a374-74c3f3fe3718","ios":"levelo://app?vid=91866b6c-0f1d-4595-a374-74c3f3fe3718"},"vehicle_type_id":"4","last_reported":1710871726,"current_range_meters":4400,"station_id":"ce4bhr12rcd13ifvqhqg","pricing_plan_id":"cebpf4jnsgd1na2vs0mg"},{"bike_id":"77653936-6795-4644-9bbf-81f59777308c","system_id":"levelo_inurba_marseille","lat":43.32295,"lon":5.38261,"is_reserved":false,"is_disabled":false,"rental_uris":{"android":"levelo://app?vid=77653936-6795-4644-9bbf-81f59777308c","ios":"levelo://app?vid=77653936-6795-4644-9bbf-81f59777308c"},"vehicle_type_id":"4","last_reported":1710871726,"current_range_meters":0,"station_id":"ce4bhr12rcd13ifvqhqg","pricing_plan_id":"cebpf4jnsgd1na2vs0mg"},{"bike_id":"8805e5c2-5ebc-4d17-aa66-b7acbedf72f2","system_id":"levelo_inurba_marseille","lat":43.32292,"lon":5.38265,"is_reserved":false,"is_disabled":false,"rental_uris":{"android":"levelo://app?vid=8805e5c2-5ebc-4d17-aa66-b7acbedf72f2","ios":"levelo://app?vid=8805e5c2-5ebc-4d17-aa66-b7acbedf72f2"},"vehicle_type_id":"4","last_reported":1710871726,"current_range_meters":4000,"station_id":"ce4bhr12rcd13ifvqhqg","pricing_plan_id":"cebpf4jnsgd1na2vs0mg"},{"bike_id":"4f4a75fa-11e1-4b9c-9fc5-7e2938322638","system_id":"levelo_inurba_marseille","lat":43.32288,"lon":5.3827,"is_reserved":false,"is_disabled":false,"rental_uris":{"android":"levelo://app?vid=4f4a75fa-11e1-4b9c-9fc5-7e2938322638","ios":"levelo://app?vid=4f4a75fa-11e1-4b9c-9fc5-7e2938322638"},"vehicle_type_id":"4","last_reported":1710871726,"current_range_meters":26800,"station_id":"ce4bhr12rcd13ifvqhqg","pricing_plan_id":"cebpf4jnsgd1na2vs0mg"},{"bike_id":"ba23170a-19ea-4496-9826-26157cb68722","system_id":"levelo_inurba_marseille","lat":43.322872,"lon":5.382756,"is_reserved":false,"is_disabled":false,"rental_uris":{"android":"levelo://app?vid=ba23170a-19ea-4496-9826-26157cb68722","ios":"levelo://app?vid=ba23170a-19ea-4496-9826-26157cb68722"},"vehicle_type_id":"4","last_reported":1710871726,"current_range_meters":18400,"station_id":"ce4bhr12rcd13ifvqhqg","pricing_plan_id":"cebpf4jnsgd1na2vs0mg"},{"bike_id":"3ff125a5-dff1-4591-b6cc-449dc2424878","system_id":"levelo_inurba_marseille","lat":43.322916,"lon":5.382673,"is_reserved":false,"is_disabled":false,"rental_uris":{"android":"levelo://app?vid=3ff125a5-dff1-4591-b6cc-449dc2424878","ios":"levelo://app?vid=3ff125a5-dff1-4591-b6cc-449dc2424878"},"vehicle_type_id":"4","last_reported":1710871726,"current_range_meters":18800,"station_id":"ce4bhr12rcd13ifvqhqg","pricing_plan_id":"cebpf4jnsgd1na2vs0mg"},{"bike_id":"62e90e97-975b-4b7d-879f-5a0c84df8cc7","system_id":"levelo_inurba_marseille","lat":43.32291,"lon":5.38269,"is_reserved":false,"is_disabled":false,"rental_uris":{"android":"levelo://app?vid=62e90e97-975b-4b7d-879f-5a0c84df8cc7","ios":"levelo://app?vid=62e90e97-975b-4b7d-879f-5a0c84df8cc7"},"vehicle_type_id":"4","last_reported":1710871726,"current_range_meters":6400,"station_id":"ce4bhr12rcd13ifvqhqg","pricing_plan_id":"cebpf4jnsgd1na2vs0mg"},{"bike_id":"36727d06-0af4-4c64-88de-4193d3d2494b","system_id":"levelo_inurba_marseille","lat":43.32296,"lon":5.382633,"is_reserved":false,"is_disabled":false,"rental_uris":{"android":"levelo://app?vid=36727d06-0af4-4c64-88de-4193d3d2494b","ios":"levelo://app?vid=36727d06-0af4-4c64-88de-4193d3d2494b"},"vehicle_type_id":"4","last_reported":1710871726,"current_range_meters":16400,"station_id":"ce4bhr12rcd13ifvqhqg","pricing_plan_id":"cebpf4jnsgd1na2vs0mg"},{"bike_id":"accb2f69-ca20-4b2f-9b54-89cf5f810bdd","system_id":"levelo_inurba_marseille","lat":43.32293,"lon":5.38269,"is_reserved":false,"is_disabled":false,"rental_uris":{"android":"levelo://app?vid=accb2f69-ca20-4b2f-9b54-89cf5f810bdd","ios":"levelo://app?vid=accb2f69-ca20-4b2f-9b54-89cf5f810bdd"},"vehicle_type_id":"4","last_reported":1710871726,"current_range_meters":24800,"station_id":"ce4bhr12rcd13ifvqhqg","pricing_plan_id":"cebpf4jnsgd1na2vs0mg"},{"bike_id":"f15b0355-2112-4631-980d-d37c34e26c81","system_id":"levelo_inurba_marseille","lat":43.322872,"lon":5.382756,"is_reserved":false,"is_disabled":false,"rental_uris":{"android":"levelo://app?vid=f15b0355-2112-4631-980d-d37c34e26c81","ios":"levelo://app?vid=f15b0355-2112-4631-980d-d37c34e26c81"},"vehicle_type_id":"4","last_reported":1710871726,"current_range_meters":6000,"station_id":"ce4bhr12rcd13ifvqhqg","pricing_plan_id":"cebpf4jnsgd1na2vs0mg"},{"bike_id":"93cb20c8-66f2-4be9-89b2-f047ab223b9e","system_id":"levelo_inurba_marseille","lat":43.29717,"lon":5.36614,"is_reserved":false,"is_disabled":false,"rental_uris":{"android":"levelo://app?vid=93cb20c8-66f2-4be9-89b2-f047ab223b9e","ios":"levelo://app?vid=93cb20c8-66f2-4be9-89b2-f047ab223b9e"},"vehicle_type_id":"4","last_reported":1710871726,"current_range_meters":4800,"station_id":"ce4bgn12rcd13ifvqbt0","pricing_plan_id":"cebpf4jnsgd1na2vs0mg"},{"bike_id":"dd4118a4-e0e8-4896-a128-e7def8ae59e8","system_id":"levelo_inurba_marseille","lat":43.297163,"lon":5.365866,"is_reserved":false,"is_disabled":false,"rental_uris":{"android":"levelo://app?vid=dd4118a4-e0e8-4896-a128-e7def8ae59e8","ios":"levelo://app?vid=dd4118a4-e0e8-4896-a128-e7def8ae59e8"},"vehicle_type_id":"4","last_reported":1710871726,"current_range_meters":0,"station_id":"ce4bgn12rcd13ifvqbt0","pricing_plan_id":"cebpf4jnsgd1na2vs0mg"},{"bike_id":"4bec6ad8-b144-4c11-aa84-62a0fd54129a","system_id":"levelo_inurba_marseille","lat":43.297163,"lon":5.365866,"is_reserved":false,"is_disabled":false,"rental_uris":{"android":"levelo://app?vid=4bec6ad8-b144-4c11-aa84-62a0fd54129a","ios":"levelo://app?vid=4bec6ad8-b144-4c11-aa84-62a0fd54129a"},"vehicle_type_id":"4","last_reported":1710871726,"current_range_meters":31200,"station_id":"ce4bgn12rcd13ifvqbt0","pricing_plan_id":"cebpf4jnsgd1na2vs0mg"},{"bike_id":"7b65a372-5c43-4029-9da8-a6ca17a80727","system_id":"levelo_inurba_marseille","lat":43.297163,"lon":5.365866,"is_reserved":false,"is_disabled":false,"rental_uris":{"android":"levelo://app?vid=7b65a372-5c43-4029-9da8-a6ca17a80727","ios":"levelo://app?vid=7b65a372-5c43-4029-9da8-a6ca17a80727"},"vehicle_type_id":"4","last_reported":1710871726,"current_range_meters":1200,"station_id":"ce4bgn12rcd13ifvqbt0","pricing_plan_id":"cebpf4jnsgd1na2vs0mg"},{"bike_id":"c5a9eaed-cd78-469a-b9a2-9ec844916ef0","system_id":"levelo_inurba_marseille","lat":43.297163,"lon":5.365866,"is_reserved":false,"is_disabled":false,"rental_uris":{"android":"levelo://app?vid=c5a9eaed-cd78-469a-b9a2-9ec844916ef0","ios":"levelo://app?vid=c5a9eaed-cd78-469a-b9a2-9ec844916ef0"},"vehicle_type_id":"4","last_reported":1710871726,"current_range_meters":4000,"station_id":"ce4bgn12rcd13ifvqbt0","pricing_plan_id":"cebpf4jnsgd1na2vs0mg"},{"bike_id":"8918655f-4f02-469f-8bd1-56064e00008c","system_id":"levelo_inurba_marseille","lat":43.297163,"lon":5.365866,"is_reserved":false,"is_disabled":false,"rental_uris":{"android":"levelo://app?vid=8918655f-4f02-469f-8bd1-56064e00008c","ios":"levelo://app?vid=8918655f-4f02-469f-8bd1-56064e00008c"},"vehicle_type_id":"4","last_reported":1710871726,"current_range_meters":6000,"station_id":"ce4bgn12rcd13ifvqbt0","pricing_plan_id":"cebpf4jnsgd1na2vs0mg"},{"bike_id":"587375d8-b902-467c-8c54-c29f269bacab","system_id":"levelo_inurba_marseille","lat":43.30353,"lon":5.38612,"is_reserved":false,"is_disabled":false,"rental_uris":{"android":"levelo://app?vid=587375d8-b902-467c-8c54-c29f269bacab","ios":"levelo://app?vid=587375d8-b902-467c-8c54-c29f269bacab"},"vehicle_type_id":"4","last_reported":1710871726,"current_range_meters":0,"station_id":"","pricing_plan_id":"cebpf4jnsgd1na2vs0mg"},{"bike_id":"af004fad-a1e7-4f4c-9487-5bad1c1beffb","system_id":"levelo_inurba_marseille","lat":43.29573,"lon":5.367355,"is_reserved":false,"is_disabled":false,"rental_uris":{"android":"levelo://app?vid=af004fad-a1e7-4f4c-9487-5bad1c1beffb","ios":"levelo://app?vid=af004fad-a1e7-4f4c-9487-5bad1c1beffb"},"vehicle_type_id":"4","last_reported":1710871726,"current_range_meters":6000,"station_id":"ce4bgph2rcd13ifvqc2g","pricing_plan_id":"cebpf4jnsgd1na2vs0mg"},{"bike_id":"41635fb8-a98c-4057-b390-ba16b675bf05","system_id":"levelo_inurba_marseille","lat":43.30976,"lon":5.389851,"is_reserved":false,"is_disabled":false,"rental_uris":{"android":"levelo://app?vid=41635fb8-a98c-4057-b390-ba16b675bf05","ios":"levelo://app?vid=41635fb8-a98c-4057-b390-ba16b675bf05"},"vehicle_type_id":"4","last_reported":1710871726,"current_range_meters":24800,"station_id":"ce4bgv12rcd13ifvqcp0","pricing_plan_id":"cebpf4jnsgd1na2vs0mg"},{"bike_id":"10fcf6d8-9b0c-482f-8511-684a985a4ca9","system_id":"levelo_inurba_marseille","lat":43.296921,"lon":5.376579,"is_reserved":false,"is_disabled":false,"rental_uris":{"android":"levelo://app?vid=10fcf6d8-9b0c-482f-8511-684a985a4ca9","ios":"levelo://app?vid=10fcf6d8-9b0c-482f-8511-684a985a4ca9"},"vehicle_type_id":"4","last_reported":1710871726,"current_range_meters":21600,"station_id":"ce4bgkh2rcd13ifvqbl0","pricing_plan_id":"cebpf4jnsgd1na2vs0mg"},{"bike_id":"1c325134-dc4d-4f54-ac88-f036cc49d3f0","system_id":"levelo_inurba_marseille","lat":43.299028,"lon":5.381509,"is_reserved":false,"is_disabled":false,"rental_uris":{"android":"levelo://app?vid=1c325134-dc4d-4f54-ac88-f036cc49d3f0","ios":"levelo://app?vid=1c325134-dc4d-4f54-ac88-f036cc49d3f0"},"vehicle_type_id":"4","last_reported":1710871726,"current_range_meters":14400,"station_id":"ce4bgj12rcd13ifvqbc0","pricing_plan_id":"cebpf4jnsgd1na2vs0mg"},{"bike_id":"add7f8ca-ceb2-4a3d-b852-c4ebd3cce13c","system_id":"levelo_inurba_marseille","lat":43.3176,"lon":5.39005,"is_reserved":false,"is_disabled":false,"rental_uris":{"android":"levelo://app?vid=add7f8ca-ceb2-4a3d-b852-c4ebd3cce13c","ios":"levelo://app?vid=add7f8ca-ceb2-4a3d-b852-c4ebd3cce13c"},"vehicle_type_id":"4","last_reported":1710871726,"current_range_meters":10400,"station_id":"ce4bhqp2rcd13ifvqhng","pricing_plan_id":"cebpf4jnsgd1na2vs0mg"},{"bike_id":"89d4ca0e-6b62-462f-924b-307da5701e84","system_id":"levelo_inurba_marseille","lat":43.317557,"lon":5.390173,"is_reserved":false,"is_disabled":false,"rental_uris":{"android":"levelo://app?vid=89d4ca0e-6b62-462f-924b-307da5701e84","ios":"levelo://app?vid=89d4ca0e-6b62-462f-924b-307da5701e84"},"vehicle_type_id":"4","last_reported":1710871726,"current_range_meters":31600,"station_id":"ce4bhqp2rcd13ifvqhng","pricing_plan_id":"cebpf4jnsgd1na2vs0mg"},{"bike_id":"8cea08f5-772f-4212-acd4-ecd5092b8845","system_id":"levelo_inurba_marseille","lat":43.317557,"lon":5.390173,"is_reserved":false,"is_disabled":false,"rental_uris":{"android":"levelo://app?vid=8cea08f5-772f-4212-acd4-ecd5092b8845","ios":"levelo://app?vid=8cea08f5-772f-4212-acd4-ecd5092b8845"},"vehicle_type_id":"4","last_reported":1710871726,"current_range_meters":10400,"station_id":"ce4bhqp2rcd13ifvqhng","pricing_plan_id":"cebpf4jnsgd1na2vs0mg"},{"bike_id":"853db477-f31a-466e-8ad9-0832a1e41cb2","system_id":"levelo_inurba_marseille","lat":43.317557,"lon":5.390173,"is_reserved":false,"is_disabled":false,"rental_uris":{"android":"levelo://app?vid=853db477-f31a-466e-8ad9-0832a1e41cb2","ios":"levelo://app?vid=853db477-f31a-466e-8ad9-0832a1e41cb2"},"vehicle_type_id":"4","last_reported":1710871726,"current_range_meters":28800,"station_id":"ce4bhqp2rcd13ifvqhng","pricing_plan_id":"cebpf4jnsgd1na2vs0mg"},{"bike_id":"ff8b00e5-6282-442c-91a8-4d925da91e40","system_id":"levelo_inurba_marseille","lat":43.317557,"lon":5.390173,"is_reserved":false,"is_disabled":false,"rental_uris":{"android":"levelo://app?vid=ff8b00e5-6282-442c-91a8-4d925da91e40","ios":"levelo://app?vid=ff8b00e5-6282-442c-91a8-4d925da91e40"},"vehicle_type_id":"4","last_reported":1710871726,"current_range_meters":12000,"station_id":"ce4bhqp2rcd13ifvqhng","pricing_plan_id":"cebpf4jnsgd1na2vs0mg"},{"bike_id":"16afea11-45ae-4701-9601-04baac3e2ccd","system_id":"levelo_inurba_marseille","lat":43.29716,"lon":5.3785,"is_reserved":false,"is_disabled":false,"rental_uris":{"android":"levelo://app?vid=16afea11-45ae-4701-9601-04baac3e2ccd","ios":"levelo://app?vid=16afea11-45ae-4701-9601-04baac3e2ccd"},"vehicle_type_id":"4","last_reported":1710871726,"current_range_meters":13600,"station_id":"","pricing_plan_id":"cebpf4jnsgd1na2vs0mg"},{"bike_id":"2a61b691-abe5-4f57-be09-f74cc9e80409","system_id":"levelo_inurba_marseille","lat":43.298037,"lon":5.381066,"is_reserved":false,"is_disabled":false,"rental_uris":{"android":"levelo://app?vid=2a61b691-abe5-4f57-be09-f74cc9e80409","ios":"levelo://app?vid=2a61b691-abe5-4f57-be09-f74cc9e80409"},"vehicle_type_id":"4","last_reported":1710871726,"current_range_meters":400,"station_id":"ce4bgip2rcd13ifvqbb0","pricing_plan_id":"cebpf4jnsgd1na2vs0mg"},{"bike_id":"c55ee97e-c92c-4e19-aad3-ebf7c7aab634","system_id":"levelo_inurba_marseille","lat":43.297716,"lon":5.380552,"is_reserved":false,"is_disabled":false,"rental_uris":{"android":"levelo://app?vid=c55ee97e-c92c-4e19-aad3-ebf7c7aab634","ios":"levelo://app?vid=c55ee97e-c92c-4e19-aad3-ebf7c7aab634"},"vehicle_type_id":"4","last_reported":1710871726,"current_range_meters":17600,"station_id":"ce4bgip2rcd13ifvqbb0","pricing_plan_id":"cebpf4jnsgd1na2vs0mg"},{"bike_id":"2f584e04-81b1-4a98-90c6-2718b553d911","system_id":"levelo_inurba_marseille","lat":43.295748,"lon":5.37522,"is_reserved":false,"is_disabled":false,"rental_uris":{"android":"levelo://app?vid=2f584e04-81b1-4a98-90c6-2718b553d911","ios":"levelo://app?vid=2f584e04-81b1-4a98-90c6-2718b553d911"},"vehicle_type_id":"4","last_reported":1710871726,"current_range_meters":25200,"station_id":"ce4bgh92rcd13ifvqb50","pricing_plan_id":"cebpf4jnsgd1na2vs0mg"},{"bike_id":"19472a18-582f-455d-ad35-12e4480fdc1d","system_id":"levelo_inurba_marseille","lat":43.298037,"lon":5.381066,"is_reserved":false,"is_disabled":false,"rental_uris":{"android":"levelo://app?vid=19472a18-582f-455d-ad35-12e4480fdc1d","ios":"levelo://app?vid=19472a18-582f-455d-ad35-12e4480fdc1d"},"vehicle_type_id":"4","last_reported":1710871726,"current_range_meters":0,"station_id":"ce4bgip2rcd13ifvqbb0","pricing_plan_id":"cebpf4jnsgd1na2vs0mg"},{"bike_id":"8b9c658e-df17-45ab-9294-968849f4d705","system_id":"levelo_inurba_marseille","lat":43.298037,"lon":5.381066,"is_reserved":false,"is_disabled":false,"rental_uris":{"android":"levelo://app?vid=8b9c658e-df17-45ab-9294-968849f4d705","ios":"levelo://app?vid=8b9c658e-df17-45ab-9294-968849f4d705"},"vehicle_type_id":"4","last_reported":1710871726,"current_range_meters":2400,"station_id":"ce4bgip2rcd13ifvqbb0","pricing_plan_id":"cebpf4jnsgd1na2vs0mg"},{"bike_id":"d2cf93c8-360e-49f2-990c-13c584da67eb","system_id":"levelo_inurba_marseille","lat":43.296277,"lon":5.377108,"is_reserved":false,"is_disabled":false,"rental_uris":{"android":"levelo://app?vid=d2cf93c8-360e-49f2-990c-13c584da67eb","ios":"levelo://app?vid=d2cf93c8-360e-49f2-990c-13c584da67eb"},"vehicle_type_id":"4","last_reported":1710871726,"current_range_meters":6800,"station_id":"ce4bgi92rcd13ifvqb90","pricing_plan_id":"cebpf4jnsgd1na2vs0mg"},{"bike_id":"b4ba6e62-6f72-4b03-8302-809482b83409","system_id":"levelo_inurba_marseille","lat":43.304278,"lon":5.388868,"is_reserved":false,"is_disabled":false,"rental_uris":{"android":"levelo://app?vid=b4ba6e62-6f72-4b03-8302-809482b83409","ios":"levelo://app?vid=b4ba6e62-6f72-4b03-8302-809482b83409"},"vehicle_type_id":"4","last_reported":1710871726,"current_range_meters":400,"station_id":"ce4bgk12rcd13ifvqbi0","pricing_plan_id":"cebpf4jnsgd1na2vs0mg"},{"bike_id":"4341c026-5cfb-4cf6-8c11-568c1ff0c797","system_id":"levelo_inurba_marseille","lat":43.298037,"lon":5.381066,"is_reserved":false,"is_disabled":false,"rental_uris":{"android":"levelo://app?vid=4341c026-5cfb-4cf6-8c11-568c1ff0c797","ios":"levelo://app?vid=4341c026-5cfb-4cf6-8c11-568c1ff0c797"},"vehicle_type_id":"4","last_reported":1710871726,"current_range_meters":0,"station_id":"ce4bgip2rcd13ifvqbb0","pricing_plan_id":"cebpf4jnsgd1na2vs0mg"},{"bike_id":"d3cdc6fd-746b-4b09-8090-821e08bacf10","system_id":"levelo_inurba_marseille","lat":43.296277,"lon":5.377108,"is_reserved":false,"is_disabled":false,"rental_uris":{"android":"levelo://app?vid=d3cdc6fd-746b-4b09-8090-821e08bacf10","ios":"levelo://app?vid=d3cdc6fd-746b-4b09-8090-821e08bacf10"},"vehicle_type_id":"4","last_reported":1710871726,"current_range_meters":5600,"station_id":"ce4bgi92rcd13ifvqb90","pricing_plan_id":"cebpf4jnsgd1na2vs0mg"},{"bike_id":"e5e2e68d-dcb8-4650-bfca-8ff246732b70","system_id":"levelo_inurba_marseille","lat":43.304278,"lon":5.388868,"is_reserved":false,"is_disabled":false,"rental_uris":{"android":"levelo://app?vid=e5e2e68d-dcb8-4650-bfca-8ff246732b70","ios":"levelo://app?vid=e5e2e68d-dcb8-4650-bfca-8ff246732b70"},"vehicle_type_id":"4","last_reported":1710871726,"current_range_meters":8800,"station_id":"ce4bgk12rcd13ifvqbi0","pricing_plan_id":"cebpf4jnsgd1na2vs0mg"},{"bike_id":"7975ab13-eef3-4a5e-89bd-dfc491dd8482","system_id":"levelo_inurba_marseille","lat":43.298037,"lon":5.381066,"is_reserved":false,"is_disabled":false,"rental_uris":{"android":"levelo://app?vid=7975ab13-eef3-4a5e-89bd-dfc491dd8482","ios":"levelo://app?vid=7975ab13-eef3-4a5e-89bd-dfc491dd8482"},"vehicle_type_id":"4","last_reported":1710871726,"current_range_meters":0,"station_id":"ce4bgip2rcd13ifvqbb0","pricing_plan_id":"cebpf4jnsgd1na2vs0mg"},{"bike_id":"68bf9e2c-7752-4c70-89a7-32494d1f4258","system_id":"levelo_inurba_marseille","lat":43.304278,"lon":5.388868,"is_reserved":false,"is_disabled":false,"rental_uris":{"android":"levelo://app?vid=68bf9e2c-7752-4c70-89a7-32494d1f4258","ios":"levelo://app?vid=68bf9e2c-7752-4c70-89a7-32494d1f4258"},"vehicle_type_id":"4","last_reported":1710871726,"current_range_meters":19200,"station_id":"ce4bgk12rcd13ifvqbi0","pricing_plan_id":"cebpf4jnsgd1na2vs0mg"},{"bike_id":"49de9d95-f88f-4be9-8c69-f691f95b7bf3","system_id":"levelo_inurba_marseille","lat":43.296263,"lon":5.377094,"is_reserved":false,"is_disabled":false,"rental_uris":{"android":"levelo://app?vid=49de9d95-f88f-4be9-8c69-f691f95b7bf3","ios":"levelo://app?vid=49de9d95-f88f-4be9-8c69-f691f95b7bf3"},"vehicle_type_id":"4","last_reported":1710871726,"current_range_meters":16000,"station_id":"ce4bgi92rcd13ifvqb90","pricing_plan_id":"cebpf4jnsgd1na2vs0mg"},{"bike_id":"56d52633-cd24-454a-9beb-e1159eee3f61","system_id":"levelo_inurba_marseille","lat":43.296277,"lon":5.377108,"is_reserved":false,"is_disabled":false,"rental_uris":{"android":"levelo://app?vid=56d52633-cd24-454a-9beb-e1159eee3f61","ios":"levelo://app?vid=56d52633-cd24-454a-9beb-e1159eee3f61"},"vehicle_type_id":"4","last_reported":1710871726,"current_range_meters":29200,"station_id":"ce4bgi92rcd13ifvqb90","pricing_plan_id":"cebpf4jnsgd1na2vs0mg"},{"bike_id":"4a815547-4666-4a95-ae5b-d9a721a46d9b","system_id":"levelo_inurba_marseille","lat":43.296263,"lon":5.377094,"is_reserved":false,"is_disabled":false,"rental_uris":{"android":"levelo://app?vid=4a815547-4666-4a95-ae5b-d9a721a46d9b","ios":"levelo://app?vid=4a815547-4666-4a95-ae5b-d9a721a46d9b"},"vehicle_type_id":"4","last_reported":1710871726,"current_range_meters":14400,"station_id":"ce4bgi92rcd13ifvqb90","pricing_plan_id":"cebpf4jnsgd1na2vs0mg"},{"bike_id":"298d00f3-c178-4b26-a88a-48e817e90832","system_id":"levelo_inurba_marseille","lat":43.29984,"lon":5.38475,"is_reserved":false,"is_disabled":false,"rental_uris":{"android":"levelo://app?vid=298d00f3-c178-4b26-a88a-48e817e90832","ios":"levelo://app?vid=298d00f3-c178-4b26-a88a-48e817e90832"},"vehicle_type_id":"4","last_reported":1710871726,"current_range_meters":0,"station_id":"ce4bgj92rcd13ifvqbd0","pricing_plan_id":"cebpf4jnsgd1na2vs0mg"},{"bike_id":"f8716902-064e-43c3-985a-03b44459a17d","system_id":"levelo_inurba_marseille","lat":43.29535,"lon":5.37491,"is_reserved":false,"is_disabled":false,"rental_uris":{"android":"levelo://app?vid=f8716902-064e-43c3-985a-03b44459a17d","ios":"levelo://app?vid=f8716902-064e-43c3-985a-03b44459a17d"},"vehicle_type_id":"4","last_reported":1710871726,"current_range_meters":27200,"station_id":"ce4bgkp2rcd13ifvqbmg","pricing_plan_id":"cebpf4jnsgd1na2vs0mg"},{"bike_id":"0e04b401-1b95-4f88-a2a8-f4359bff8a86","system_id":"levelo_inurba_marseille","lat":43.299707,"lon":5.384859,"is_reserved":false,"is_disabled":false,"rental_uris":{"android":"levelo://app?vid=0e04b401-1b95-4f88-a2a8-f4359bff8a86","ios":"levelo://app?vid=0e04b401-1b95-4f88-a2a8-f4359bff8a86"},"vehicle_type_id":"4","last_reported":1710871726,"current_range_meters":11200,"station_id":"ce4bgj92rcd13ifvqbd0","pricing_plan_id":"cebpf4jnsgd1na2vs0mg"},{"bike_id":"edc0cfa8-b394-4fa7-9a17-6df1866feeca","system_id":"levelo_inurba_marseille","lat":43.29534,"lon":5.37495,"is_reserved":false,"is_disabled":false,"rental_uris":{"android":"levelo://app?vid=edc0cfa8-b394-4fa7-9a17-6df1866feeca","ios":"levelo://app?vid=edc0cfa8-b394-4fa7-9a17-6df1866feeca"},"vehicle_type_id":"4","last_reported":1710871726,"current_range_meters":1600,"station_id":"ce4bgkp2rcd13ifvqbmg","pricing_plan_id":"cebpf4jnsgd1na2vs0mg"},{"bike_id":"117a75e9-bae4-4d8e-a71c-753dba121b42","system_id":"levelo_inurba_marseille","lat":43.29532,"lon":5.37496,"is_reserved":false,"is_disabled":false,"rental_uris":{"android":"levelo://app?vid=117a75e9-bae4-4d8e-a71c-753dba121b42","ios":"levelo://app?vid=117a75e9-bae4-4d8e-a71c-753dba121b42"},"vehicle_type_id":"4","last_reported":1710871726,"current_range_meters":10000,"station_id":"ce4bgkp2rcd13ifvqbmg","pricing_plan_id":"cebpf4jnsgd1na2vs0mg"},{"bike_id":"6c07b322-7c3f-402e-b7ec-f5a4450ba31d","system_id":"levelo_inurba_marseille","lat":43.299707,"lon":5.384859,"is_reserved":false,"is_disabled":false,"rental_uris":{"android":"levelo://app?vid=6c07b322-7c3f-402e-b7ec-f5a4450ba31d","ios":"levelo://app?vid=6c07b322-7c3f-402e-b7ec-f5a4450ba31d"},"vehicle_type_id":"4","last_reported":1710871726,"current_range_meters":25600,"station_id":"ce4bgj92rcd13ifvqbd0","pricing_plan_id":"cebpf4jnsgd1na2vs0mg"},{"bike_id":"d4eef3fd-10c8-4c46-9ed5-e5bfe54c1dc4","system_id":"levelo_inurba_marseille","lat":43.299717,"lon":5.384845,"is_reserved":false,"is_disabled":false,"rental_uris":{"android":"levelo://app?vid=d4eef3fd-10c8-4c46-9ed5-e5bfe54c1dc4","ios":"levelo://app?vid=d4eef3fd-10c8-4c46-9ed5-e5bfe54c1dc4"},"vehicle_type_id":"4","last_reported":1710871726,"current_range_meters":1200,"station_id":"ce4bgj92rcd13ifvqbd0","pricing_plan_id":"cebpf4jnsgd1na2vs0mg"},{"bike_id":"450f65af-59f4-4027-ac24-ce4e3576999e","system_id":"levelo_inurba_marseille","lat":43.2997,"lon":5.384837,"is_reserved":false,"is_disabled":false,"rental_uris":{"android":"levelo://app?vid=450f65af-59f4-4027-ac24-ce4e3576999e","ios":"levelo://app?vid=450f65af-59f4-4027-ac24-ce4e3576999e"},"vehicle_type_id":"4","last_reported":1710871726,"current_range_meters":0,"station_id":"ce4bgj92rcd13ifvqbd0","pricing_plan_id":"cebpf4jnsgd1na2vs0mg"},{"bike_id":"261be5c1-cec6-49ed-a7de-7c6d0b2ed7fc","system_id":"levelo_inurba_marseille","lat":43.299707,"lon":5.384859,"is_reserved":false,"is_disabled":false,"rental_uris":{"android":"levelo://app?vid=261be5c1-cec6-49ed-a7de-7c6d0b2ed7fc","ios":"levelo://app?vid=261be5c1-cec6-49ed-a7de-7c6d0b2ed7fc"},"vehicle_type_id":"4","last_reported":1710871726,"current_range_meters":11200,"station_id":"ce4bgj92rcd13ifvqbd0","pricing_plan_id":"cebpf4jnsgd1na2vs0mg"},{"bike_id":"8cd69879-29e1-41c8-8427-c2cf7e4aacd8","system_id":"levelo_inurba_marseille","lat":43.299717,"lon":5.384845,"is_reserved":false,"is_disabled":false,"rental_uris":{"android":"levelo://app?vid=8cd69879-29e1-41c8-8427-c2cf7e4aacd8","ios":"levelo://app?vid=8cd69879-29e1-41c8-8427-c2cf7e4aacd8"},"vehicle_type_id":"4","last_reported":1710871726,"current_range_meters":2400,"station_id":"ce4bgj92rcd13ifvqbd0","pricing_plan_id":"cebpf4jnsgd1na2vs0mg"},{"bike_id":"c5873842-9c7a-4c6b-9989-a619365d3230","system_id":"levelo_inurba_marseille","lat":43.299707,"lon":5.384859,"is_reserved":false,"is_disabled":false,"rental_uris":{"android":"levelo://app?vid=c5873842-9c7a-4c6b-9989-a619365d3230","ios":"levelo://app?vid=c5873842-9c7a-4c6b-9989-a619365d3230"},"vehicle_type_id":"4","last_reported":1710871726,"current_range_meters":17200,"station_id":"ce4bgj92rcd13ifvqbd0","pricing_plan_id":"cebpf4jnsgd1na2vs0mg"},{"bike_id":"632a4abb-9af4-449c-bace-7cc4d9e80ecb","system_id":"levelo_inurba_marseille","lat":43.299717,"lon":5.384845,"is_reserved":false,"is_disabled":false,"rental_uris":{"android":"levelo://app?vid=632a4abb-9af4-449c-bace-7cc4d9e80ecb","ios":"levelo://app?vid=632a4abb-9af4-449c-bace-7cc4d9e80ecb"},"vehicle_type_id":"4","last_reported":1710871726,"current_range_meters":3600,"station_id":"ce4bgj92rcd13ifvqbd0","pricing_plan_id":"cebpf4jnsgd1na2vs0mg"},{"bike_id":"fa5cad3d-2c57-4dec-94c6-a767ef7f7abf","system_id":"levelo_inurba_marseille","lat":43.299717,"lon":5.384845,"is_reserved":false,"is_disabled":false,"rental_uris":{"android":"levelo://app?vid=fa5cad3d-2c57-4dec-94c6-a767ef7f7abf","ios":"levelo://app?vid=fa5cad3d-2c57-4dec-94c6-a767ef7f7abf"},"vehicle_type_id":"4","last_reported":1710871726,"current_range_meters":3600,"station_id":"ce4bgj92rcd13ifvqbd0","pricing_plan_id":"cebpf4jnsgd1na2vs0mg"},{"bike_id":"1a498457-a130-4cda-85d1-3873d3255987","system_id":"levelo_inurba_marseille","lat":43.29514,"lon":5.37506,"is_reserved":false,"is_disabled":false,"rental_uris":{"android":"levelo://app?vid=1a498457-a130-4cda-85d1-3873d3255987","ios":"levelo://app?vid=1a498457-a130-4cda-85d1-3873d3255987"},"vehicle_type_id":"4","last_reported":1710871726,"current_range_meters":29600,"station_id":"ce4bgkp2rcd13ifvqbmg","pricing_plan_id":"cebpf4jnsgd1na2vs0mg"},{"bike_id":"921db167-428d-415d-ae35-db8b7daae57f","system_id":"levelo_inurba_marseille","lat":43.295279,"lon":5.375048,"is_reserved":false,"is_disabled":false,"rental_uris":{"android":"levelo://app?vid=921db167-428d-415d-ae35-db8b7daae57f","ios":"levelo://app?vid=921db167-428d-415d-ae35-db8b7daae57f"},"vehicle_type_id":"4","last_reported":1710871726,"current_range_meters":1200,"station_id":"ce4bgkp2rcd13ifvqbmg","pricing_plan_id":"cebpf4jnsgd1na2vs0mg"},{"bike_id":"617b0e6f-676e-40f0-bbaf-c9395e5b4dcd","system_id":"levelo_inurba_marseille","lat":43.31436,"lon":5.39291,"is_reserved":false,"is_disabled":false,"rental_uris":{"android":"levelo://app?vid=617b0e6f-676e-40f0-bbaf-c9395e5b4dcd","ios":"levelo://app?vid=617b0e6f-676e-40f0-bbaf-c9395e5b4dcd"},"vehicle_type_id":"4","last_reported":1710871726,"current_range_meters":28000,"station_id":"","pricing_plan_id":"cebpf4jnsgd1na2vs0mg"},{"bike_id":"1d664e4f-2f37-4822-b190-dfbe976feee8","system_id":"levelo_inurba_marseille","lat":43.30803,"lon":5.39222,"is_reserved":false,"is_disabled":false,"rental_uris":{"android":"levelo://app?vid=1d664e4f-2f37-4822-b190-dfbe976feee8","ios":"levelo://app?vid=1d664e4f-2f37-4822-b190-dfbe976feee8"},"vehicle_type_id":"4","last_reported":1710871726,"current_range_meters":7600,"station_id":"","pricing_plan_id":"cebpf4jnsgd1na2vs0mg"},{"bike_id":"9e2c8f75-58c9-4f50-bc00-d96ab4313960","system_id":"levelo_inurba_marseille","lat":43.323684,"lon":5.388776,"is_reserved":false,"is_disabled":false,"rental_uris":{"android":"levelo://app?vid=9e2c8f75-58c9-4f50-bc00-d96ab4313960","ios":"levelo://app?vid=9e2c8f75-58c9-4f50-bc00-d96ab4313960"},"vehicle_type_id":"4","last_reported":1710871726,"current_range_meters":24800,"station_id":"ce4bhqp2rcd13ifvqhog","pricing_plan_id":"cebpf4jnsgd1na2vs0mg"},{"bike_id":"873ec51c-cac5-41e4-9209-2d5e2f5a9b6e","system_id":"levelo_inurba_marseille","lat":43.32368,"lon":5.38879,"is_reserved":false,"is_disabled":false,"rental_uris":{"android":"levelo://app?vid=873ec51c-cac5-41e4-9209-2d5e2f5a9b6e","ios":"levelo://app?vid=873ec51c-cac5-41e4-9209-2d5e2f5a9b6e"},"vehicle_type_id":"4","last_reported":1710871726,"current_range_meters":26800,"station_id":"ce4bhqp2rcd13ifvqhog","pricing_plan_id":"cebpf4jnsgd1na2vs0mg"},{"bike_id":"d1c473ef-8f57-4a45-a518-f2821a73640e","system_id":"levelo_inurba_marseille","lat":43.32365,"lon":5.38886,"is_reserved":false,"is_disabled":false,"rental_uris":{"android":"levelo://app?vid=d1c473ef-8f57-4a45-a518-f2821a73640e","ios":"levelo://app?vid=d1c473ef-8f57-4a45-a518-f2821a73640e"},"vehicle_type_id":"4","last_reported":1710871726,"current_range_meters":14800,"station_id":"ce4bhqp2rcd13ifvqhog","pricing_plan_id":"cebpf4jnsgd1na2vs0mg"},{"bike_id":"15fc4921-5c0b-4728-bdd2-5ee3143549d2","system_id":"levelo_inurba_marseille","lat":43.32368,"lon":5.38884,"is_reserved":false,"is_disabled":false,"rental_uris":{"android":"levelo://app?vid=15fc4921-5c0b-4728-bdd2-5ee3143549d2","ios":"levelo://app?vid=15fc4921-5c0b-4728-bdd2-5ee3143549d2"},"vehicle_type_id":"4","last_reported":1710871726,"current_range_meters":0,"station_id":"ce4bhqp2rcd13ifvqhog","pricing_plan_id":"cebpf4jnsgd1na2vs0mg"},{"bike_id":"6483d702-a7a5-4dbf-a9cd-d4d422a75034","system_id":"levelo_inurba_marseille","lat":43.32367,"lon":5.388836,"is_reserved":false,"is_disabled":false,"rental_uris":{"android":"levelo://app?vid=6483d702-a7a5-4dbf-a9cd-d4d422a75034","ios":"levelo://app?vid=6483d702-a7a5-4dbf-a9cd-d4d422a75034"},"vehicle_type_id":"4","last_reported":1710871726,"current_range_meters":1200,"station_id":"ce4bhqp2rcd13ifvqhog","pricing_plan_id":"cebpf4jnsgd1na2vs0mg"},{"bike_id":"c9753313-ff05-4bc7-9209-6194355bacbb","system_id":"levelo_inurba_marseille","lat":43.32367,"lon":5.388836,"is_reserved":false,"is_disabled":false,"rental_uris":{"android":"levelo://app?vid=c9753313-ff05-4bc7-9209-6194355bacbb","ios":"levelo://app?vid=c9753313-ff05-4bc7-9209-6194355bacbb"},"vehicle_type_id":"4","last_reported":1710871726,"current_range_meters":0,"station_id":"ce4bhqp2rcd13ifvqhog","pricing_plan_id":"cebpf4jnsgd1na2vs0mg"},{"bike_id":"fa5a29bd-bfce-4ae4-9ba2-9c0d960a0e59","system_id":"levelo_inurba_marseille","lat":43.32371,"lon":5.38883,"is_reserved":false,"is_disabled":false,"rental_uris":{"android":"levelo://app?vid=fa5a29bd-bfce-4ae4-9ba2-9c0d960a0e59","ios":"levelo://app?vid=fa5a29bd-bfce-4ae4-9ba2-9c0d960a0e59"},"vehicle_type_id":"4","last_reported":1710871726,"current_range_meters":1200,"station_id":"ce4bhqp2rcd13ifvqhog","pricing_plan_id":"cebpf4jnsgd1na2vs0mg"},{"bike_id":"77d915da-b00f-431f-9fb4-10a630781629","system_id":"levelo_inurba_marseille","lat":43.32366,"lon":5.38888,"is_reserved":false,"is_disabled":false,"rental_uris":{"android":"levelo://app?vid=77d915da-b00f-431f-9fb4-10a630781629","ios":"levelo://app?vid=77d915da-b00f-431f-9fb4-10a630781629"},"vehicle_type_id":"4","last_reported":1710871726,"current_range_meters":22800,"station_id":"ce4bhqp2rcd13ifvqhog","pricing_plan_id":"cebpf4jnsgd1na2vs0mg"},{"bike_id":"8c5a09a7-6627-40b5-958f-7a7763e76ce2","system_id":"levelo_inurba_marseille","lat":43.32366,"lon":5.38888,"is_reserved":false,"is_disabled":false,"rental_uris":{"android":"levelo://app?vid=8c5a09a7-6627-40b5-958f-7a7763e76ce2","ios":"levelo://app?vid=8c5a09a7-6627-40b5-958f-7a7763e76ce2"},"vehicle_type_id":"4","last_reported":1710871726,"current_range_meters":15600,"station_id":"ce4bhqp2rcd13ifvqhog","pricing_plan_id":"cebpf4jnsgd1na2vs0mg"},{"bike_id":"80eb6f3c-7dad-4186-9ec8-bba5dd0c9f98","system_id":"levelo_inurba_marseille","lat":43.323651,"lon":5.38889,"is_reserved":false,"is_disabled":false,"rental_uris":{"android":"levelo://app?vid=80eb6f3c-7dad-4186-9ec8-bba5dd0c9f98","ios":"levelo://app?vid=80eb6f3c-7dad-4186-9ec8-bba5dd0c9f98"},"vehicle_type_id":"4","last_reported":1710871726,"current_range_meters":28000,"station_id":"ce4bhqp2rcd13ifvqhog","pricing_plan_id":"cebpf4jnsgd1na2vs0mg"},{"bike_id":"e37c32ea-6d8c-404c-81bf-a340e415fa51","system_id":"levelo_inurba_marseille","lat":43.32367,"lon":5.388836,"is_reserved":false,"is_disabled":false,"rental_uris":{"android":"levelo://app?vid=e37c32ea-6d8c-404c-81bf-a340e415fa51","ios":"levelo://app?vid=e37c32ea-6d8c-404c-81bf-a340e415fa51"},"vehicle_type_id":"4","last_reported":1710871726,"current_range_meters":27600,"station_id":"ce4bhqp2rcd13ifvqhog","pricing_plan_id":"cebpf4jnsgd1na2vs0mg"},{"bike_id":"3b03bf20-78c9-4f5f-8559-507ea971bc2e","system_id":"levelo_inurba_marseille","lat":43.32367,"lon":5.388836,"is_reserved":false,"is_disabled":false,"rental_uris":{"android":"levelo://app?vid=3b03bf20-78c9-4f5f-8559-507ea971bc2e","ios":"levelo://app?vid=3b03bf20-78c9-4f5f-8559-507ea971bc2e"},"vehicle_type_id":"4","last_reported":1710871726,"current_range_meters":10400,"station_id":"ce4bhqp2rcd13ifvqhog","pricing_plan_id":"cebpf4jnsgd1na2vs0mg"},{"bike_id":"28d032b9-6d9a-4cd4-9b78-a4ab91172b41","system_id":"levelo_inurba_marseille","lat":43.32372,"lon":5.38886,"is_reserved":false,"is_disabled":false,"rental_uris":{"android":"levelo://app?vid=28d032b9-6d9a-4cd4-9b78-a4ab91172b41","ios":"levelo://app?vid=28d032b9-6d9a-4cd4-9b78-a4ab91172b41"},"vehicle_type_id":"4","last_reported":1710871726,"current_range_meters":2400,"station_id":"ce4bhqp2rcd13ifvqhog","pricing_plan_id":"cebpf4jnsgd1na2vs0mg"},{"bike_id":"9b43ae9f-97c3-4da0-938b-50afec46d2a5","system_id":"levelo_inurba_marseille","lat":43.32367,"lon":5.388836,"is_reserved":false,"is_disabled":false,"rental_uris":{"android":"levelo://app?vid=9b43ae9f-97c3-4da0-938b-50afec46d2a5","ios":"levelo://app?vid=9b43ae9f-97c3-4da0-938b-50afec46d2a5"},"vehicle_type_id":"4","last_reported":1710871726,"current_range_meters":17200,"station_id":"ce4bhqp2rcd13ifvqhog","pricing_plan_id":"cebpf4jnsgd1na2vs0mg"},{"bike_id":"88c09819-0132-49e1-a848-b83c3e55111a","system_id":"levelo_inurba_marseille","lat":43.32367,"lon":5.388836,"is_reserved":false,"is_disabled":false,"rental_uris":{"android":"levelo://app?vid=88c09819-0132-49e1-a848-b83c3e55111a","ios":"levelo://app?vid=88c09819-0132-49e1-a848-b83c3e55111a"},"vehicle_type_id":"4","last_reported":1710871726,"current_range_meters":20400,"station_id":"ce4bhqp2rcd13ifvqhog","pricing_plan_id":"cebpf4jnsgd1na2vs0mg"},{"bike_id":"64822d1a-9418-4730-ba7c-ee12a07dc368","system_id":"levelo_inurba_marseille","lat":43.295992,"lon":5.380865,"is_reserved":false,"is_disabled":false,"rental_uris":{"android":"levelo://app?vid=64822d1a-9418-4730-ba7c-ee12a07dc368","ios":"levelo://app?vid=64822d1a-9418-4730-ba7c-ee12a07dc368"},"vehicle_type_id":"4","last_reported":1710871726,"current_range_meters":8800,"station_id":"ce4bgl12rcd13ifvqbo0","pricing_plan_id":"cebpf4jnsgd1na2vs0mg"},{"bike_id":"d036464d-5c35-414d-baad-68da824de3c9","system_id":"levelo_inurba_marseille","lat":43.29602,"lon":5.381084,"is_reserved":false,"is_disabled":false,"rental_uris":{"android":"levelo://app?vid=d036464d-5c35-414d-baad-68da824de3c9","ios":"levelo://app?vid=d036464d-5c35-414d-baad-68da824de3c9"},"vehicle_type_id":"4","last_reported":1710871726,"current_range_meters":6400,"station_id":"ce4bgl12rcd13ifvqbo0","pricing_plan_id":"cebpf4jnsgd1na2vs0mg"},{"bike_id":"14204f33-3eb2-4acf-863b-23170240d585","system_id":"levelo_inurba_marseille","lat":43.29593,"lon":5.38087,"is_reserved":false,"is_disabled":false,"rental_uris":{"android":"levelo://app?vid=14204f33-3eb2-4acf-863b-23170240d585","ios":"levelo://app?vid=14204f33-3eb2-4acf-863b-23170240d585"},"vehicle_type_id":"4","last_reported":1710871726,"current_range_meters":0,"station_id":"ce4bgl12rcd13ifvqbo0","pricing_plan_id":"cebpf4jnsgd1na2vs0mg"},{"bike_id":"e8c096d6-5bb4-41c6-88b2-c1e561391314","system_id":"levelo_inurba_marseille","lat":43.30669,"lon":5.39263,"is_reserved":false,"is_disabled":false,"rental_uris":{"android":"levelo://app?vid=e8c096d6-5bb4-41c6-88b2-c1e561391314","ios":"levelo://app?vid=e8c096d6-5bb4-41c6-88b2-c1e561391314"},"vehicle_type_id":"4","last_reported":1710871726,"current_range_meters":26800,"station_id":"ce4bh0h2rcd13ifvqd50","pricing_plan_id":"cebpf4jnsgd1na2vs0mg"},{"bike_id":"1fac34a8-c0b7-4c55-9427-0abbd2086ad2","system_id":"levelo_inurba_marseille","lat":43.293259,"lon":5.371586,"is_reserved":false,"is_disabled":false,"rental_uris":{"android":"levelo://app?vid=1fac34a8-c0b7-4c55-9427-0abbd2086ad2","ios":"levelo://app?vid=1fac34a8-c0b7-4c55-9427-0abbd2086ad2"},"vehicle_type_id":"4","last_reported":1710871726,"current_range_meters":31200,"station_id":"ce4bgh92rcd13ifvqb40","pricing_plan_id":"cebpf4jnsgd1na2vs0mg"},{"bike_id":"d2394d68-734f-4306-b43a-d4d6cfb4def5","system_id":"levelo_inurba_marseille","lat":43.292749,"lon":5.368398,"is_reserved":false,"is_disabled":false,"rental_uris":{"android":"levelo://app?vid=d2394d68-734f-4306-b43a-d4d6cfb4def5","ios":"levelo://app?vid=d2394d68-734f-4306-b43a-d4d6cfb4def5"},"vehicle_type_id":"4","last_reported":1710871726,"current_range_meters":4800,"station_id":"ce4bhbp2rcd13ifvqesg","pricing_plan_id":"cebpf4jnsgd1na2vs0mg"},{"bike_id":"7aa7f7a4-22f2-49bb-a796-2fa3446d4cbc","system_id":"levelo_inurba_marseille","lat":43.292749,"lon":5.368398,"is_reserved":false,"is_disabled":false,"rental_uris":{"android":"levelo://app?vid=7aa7f7a4-22f2-49bb-a796-2fa3446d4cbc","ios":"levelo://app?vid=7aa7f7a4-22f2-49bb-a796-2fa3446d4cbc"},"vehicle_type_id":"4","last_reported":1710871726,"current_range_meters":19600,"station_id":"ce4bhbp2rcd13ifvqesg","pricing_plan_id":"cebpf4jnsgd1na2vs0mg"},{"bike_id":"19f3364d-5e10-47ab-90c7-7e8e60849350","system_id":"levelo_inurba_marseille","lat":43.293259,"lon":5.371586,"is_reserved":false,"is_disabled":false,"rental_uris":{"android":"levelo://app?vid=19f3364d-5e10-47ab-90c7-7e8e60849350","ios":"levelo://app?vid=19f3364d-5e10-47ab-90c7-7e8e60849350"},"vehicle_type_id":"4","last_reported":1710871726,"current_range_meters":3600,"station_id":"ce4bgh92rcd13ifvqb40","pricing_plan_id":"cebpf4jnsgd1na2vs0mg"},{"bike_id":"eb8bcb6b-8cee-4c7a-aa5c-560e846a5a20","system_id":"levelo_inurba_marseille","lat":43.2928,"lon":5.3684,"is_reserved":false,"is_disabled":false,"rental_uris":{"android":"levelo://app?vid=eb8bcb6b-8cee-4c7a-aa5c-560e846a5a20","ios":"levelo://app?vid=eb8bcb6b-8cee-4c7a-aa5c-560e846a5a20"},"vehicle_type_id":"4","last_reported":1710871726,"current_range_meters":400,"station_id":"ce4bhbp2rcd13ifvqesg","pricing_plan_id":"cebpf4jnsgd1na2vs0mg"},{"bike_id":"34e4fa3a-bb0b-4c41-8557-dd4bc57deac4","system_id":"levelo_inurba_marseille","lat":43.293259,"lon":5.371586,"is_reserved":false,"is_disabled":false,"rental_uris":{"android":"levelo://app?vid=34e4fa3a-bb0b-4c41-8557-dd4bc57deac4","ios":"levelo://app?vid=34e4fa3a-bb0b-4c41-8557-dd4bc57deac4"},"vehicle_type_id":"4","last_reported":1710871726,"current_range_meters":16000,"station_id":"ce4bgh92rcd13ifvqb40","pricing_plan_id":"cebpf4jnsgd1na2vs0mg"},{"bike_id":"f61d60e8-cc43-4403-ba63-573ccc038c73","system_id":"levelo_inurba_marseille","lat":43.292749,"lon":5.368398,"is_reserved":false,"is_disabled":false,"rental_uris":{"android":"levelo://app?vid=f61d60e8-cc43-4403-ba63-573ccc038c73","ios":"levelo://app?vid=f61d60e8-cc43-4403-ba63-573ccc038c73"},"vehicle_type_id":"4","last_reported":1710871726,"current_range_meters":1600,"station_id":"ce4bhbp2rcd13ifvqesg","pricing_plan_id":"cebpf4jnsgd1na2vs0mg"},{"bike_id":"02bca0e0-3a5a-46df-b6cb-96d8d86bf228","system_id":"levelo_inurba_marseille","lat":43.29305,"lon":5.37185,"is_reserved":false,"is_disabled":false,"rental_uris":{"android":"levelo://app?vid=02bca0e0-3a5a-46df-b6cb-96d8d86bf228","ios":"levelo://app?vid=02bca0e0-3a5a-46df-b6cb-96d8d86bf228"},"vehicle_type_id":"4","last_reported":1710871726,"current_range_meters":0,"station_id":"ce4bgh92rcd13ifvqb40","pricing_plan_id":"cebpf4jnsgd1na2vs0mg"},{"bike_id":"dbbb9312-76e1-419a-8ed1-94da52e3361c","system_id":"levelo_inurba_marseille","lat":43.293259,"lon":5.371586,"is_reserved":false,"is_disabled":false,"rental_uris":{"android":"levelo://app?vid=dbbb9312-76e1-419a-8ed1-94da52e3361c","ios":"levelo://app?vid=dbbb9312-76e1-419a-8ed1-94da52e3361c"},"vehicle_type_id":"4","last_reported":1710871726,"current_range_meters":14800,"station_id":"ce4bgh92rcd13ifvqb40","pricing_plan_id":"cebpf4jnsgd1na2vs0mg"},{"bike_id":"4f52043b-7000-4b36-a155-15489dae7194","system_id":"levelo_inurba_marseille","lat":43.292749,"lon":5.368402,"is_reserved":false,"is_disabled":false,"rental_uris":{"android":"levelo://app?vid=4f52043b-7000-4b36-a155-15489dae7194","ios":"levelo://app?vid=4f52043b-7000-4b36-a155-15489dae7194"},"vehicle_type_id":"4","last_reported":1710871726,"current_range_meters":0,"station_id":"ce4bhbp2rcd13ifvqesg","pricing_plan_id":"cebpf4jnsgd1na2vs0mg"},{"bike_id":"a694983b-3082-4b16-8310-fd3a4ad58090","system_id":"levelo_inurba_marseille","lat":43.293259,"lon":5.371586,"is_reserved":false,"is_disabled":false,"rental_uris":{"android":"levelo://app?vid=a694983b-3082-4b16-8310-fd3a4ad58090","ios":"levelo://app?vid=a694983b-3082-4b16-8310-fd3a4ad58090"},"vehicle_type_id":"4","last_reported":1710871726,"current_range_meters":0,"station_id":"ce4bgh92rcd13ifvqb40","pricing_plan_id":"cebpf4jnsgd1na2vs0mg"},{"bike_id":"cb475847-931f-4f4b-8ea7-dbfa3fc1a18c","system_id":"levelo_inurba_marseille","lat":43.293009,"lon":5.374584,"is_reserved":false,"is_disabled":false,"rental_uris":{"android":"levelo://app?vid=cb475847-931f-4f4b-8ea7-dbfa3fc1a18c","ios":"levelo://app?vid=cb475847-931f-4f4b-8ea7-dbfa3fc1a18c"},"vehicle_type_id":"4","last_reported":1710871726,"current_range_meters":15600,"station_id":"ce4bgi12rcd13ifvqb70","pricing_plan_id":"cebpf4jnsgd1na2vs0mg"},{"bike_id":"211e1343-14cf-4ff7-84e8-817e10535b9a","system_id":"levelo_inurba_marseille","lat":43.293009,"lon":5.374584,"is_reserved":false,"is_disabled":false,"rental_uris":{"android":"levelo://app?vid=211e1343-14cf-4ff7-84e8-817e10535b9a","ios":"levelo://app?vid=211e1343-14cf-4ff7-84e8-817e10535b9a"},"vehicle_type_id":"4","last_reported":1710871726,"current_range_meters":3600,"station_id":"ce4bgi12rcd13ifvqb70","pricing_plan_id":"cebpf4jnsgd1na2vs0mg"},{"bike_id":"cbce38a6-64bb-460e-a965-6e9f525f3632","system_id":"levelo_inurba_marseille","lat":43.303002,"lon":5.392058,"is_reserved":false,"is_disabled":false,"rental_uris":{"android":"levelo://app?vid=cbce38a6-64bb-460e-a965-6e9f525f3632","ios":"levelo://app?vid=cbce38a6-64bb-460e-a965-6e9f525f3632"},"vehicle_type_id":"4","last_reported":1710871726,"current_range_meters":0,"station_id":"ce4bgkh2rcd13ifvqbk0","pricing_plan_id":"cebpf4jnsgd1na2vs0mg"},{"bike_id":"fcb6dd5a-9e49-4a70-9a41-fee107d04523","system_id":"levelo_inurba_marseille","lat":43.2936,"lon":5.37835,"is_reserved":false,"is_disabled":false,"rental_uris":{"android":"levelo://app?vid=fcb6dd5a-9e49-4a70-9a41-fee107d04523","ios":"levelo://app?vid=fcb6dd5a-9e49-4a70-9a41-fee107d04523"},"vehicle_type_id":"4","last_reported":1710871726,"current_range_meters":22800,"station_id":"ce4bgjh2rcd13ifvqbf0","pricing_plan_id":"cebpf4jnsgd1na2vs0mg"},{"bike_id":"a1b4c4ba-ca44-460b-a344-f9a7792fccd6","system_id":"levelo_inurba_marseille","lat":43.2936,"lon":5.37835,"is_reserved":false,"is_disabled":false,"rental_uris":{"android":"levelo://app?vid=a1b4c4ba-ca44-460b-a344-f9a7792fccd6","ios":"levelo://app?vid=a1b4c4ba-ca44-460b-a344-f9a7792fccd6"},"vehicle_type_id":"4","last_reported":1710871726,"current_range_meters":18000,"station_id":"ce4bgjh2rcd13ifvqbf0","pricing_plan_id":"cebpf4jnsgd1na2vs0mg"},{"bike_id":"0d1dee4e-fb9e-498a-ae05-883e5633afb0","system_id":"levelo_inurba_marseille","lat":43.302992,"lon":5.392136,"is_reserved":false,"is_disabled":false,"rental_uris":{"android":"levelo://app?vid=0d1dee4e-fb9e-498a-ae05-883e5633afb0","ios":"levelo://app?vid=0d1dee4e-fb9e-498a-ae05-883e5633afb0"},"vehicle_type_id":"4","last_reported":1710871726,"current_range_meters":28800,"station_id":"ce4bgkh2rcd13ifvqbk0","pricing_plan_id":"cebpf4jnsgd1na2vs0mg"},{"bike_id":"b820d035-8c27-4edc-b075-02edb8f31c10","system_id":"levelo_inurba_marseille","lat":43.2936,"lon":5.37835,"is_reserved":false,"is_disabled":false,"rental_uris":{"android":"levelo://app?vid=b820d035-8c27-4edc-b075-02edb8f31c10","ios":"levelo://app?vid=b820d035-8c27-4edc-b075-02edb8f31c10"},"vehicle_type_id":"4","last_reported":1710871726,"current_range_meters":4400,"station_id":"ce4bgjh2rcd13ifvqbf0","pricing_plan_id":"cebpf4jnsgd1na2vs0mg"},{"bike_id":"d5a95c3d-ed0d-4c56-9e53-374eb3d3fde4","system_id":"levelo_inurba_marseille","lat":43.2936,"lon":5.37835,"is_reserved":false,"is_disabled":false,"rental_uris":{"android":"levelo://app?vid=d5a95c3d-ed0d-4c56-9e53-374eb3d3fde4","ios":"levelo://app?vid=d5a95c3d-ed0d-4c56-9e53-374eb3d3fde4"},"vehicle_type_id":"4","last_reported":1710871726,"current_range_meters":400,"station_id":"ce4bgjh2rcd13ifvqbf0","pricing_plan_id":"cebpf4jnsgd1na2vs0mg"},{"bike_id":"938e4ef2-fec8-46c4-a2ec-3a07944f89d2","system_id":"levelo_inurba_marseille","lat":43.2936,"lon":5.37835,"is_reserved":false,"is_disabled":false,"rental_uris":{"android":"levelo://app?vid=938e4ef2-fec8-46c4-a2ec-3a07944f89d2","ios":"levelo://app?vid=938e4ef2-fec8-46c4-a2ec-3a07944f89d2"},"vehicle_type_id":"4","last_reported":1710871726,"current_range_meters":3600,"station_id":"ce4bgjh2rcd13ifvqbf0","pricing_plan_id":"cebpf4jnsgd1na2vs0mg"},{"bike_id":"50a840d7-0c04-482f-a06c-9bc04f7fb81f","system_id":"levelo_inurba_marseille","lat":43.300852,"lon":5.390859,"is_reserved":false,"is_disabled":false,"rental_uris":{"android":"levelo://app?vid=50a840d7-0c04-482f-a06c-9bc04f7fb81f","ios":"levelo://app?vid=50a840d7-0c04-482f-a06c-9bc04f7fb81f"},"vehicle_type_id":"4","last_reported":1710871726,"current_range_meters":1600,"station_id":"ce4bh192rcd13ifvqdb0","pricing_plan_id":"cebpf4jnsgd1na2vs0mg"},{"bike_id":"65d4ea46-0082-4237-b508-db621838c081","system_id":"levelo_inurba_marseille","lat":43.293009,"lon":5.374584,"is_reserved":false,"is_disabled":false,"rental_uris":{"android":"levelo://app?vid=65d4ea46-0082-4237-b508-db621838c081","ios":"levelo://app?vid=65d4ea46-0082-4237-b508-db621838c081"},"vehicle_type_id":"4","last_reported":1710871726,"current_range_meters":20400,"station_id":"ce4bgi12rcd13ifvqb70","pricing_plan_id":"cebpf4jnsgd1na2vs0mg"},{"bike_id":"352a4603-7b88-4203-89f1-e4d982e43ef5","system_id":"levelo_inurba_marseille","lat":43.298764,"lon":5.388973,"is_reserved":false,"is_disabled":false,"rental_uris":{"android":"levelo://app?vid=352a4603-7b88-4203-89f1-e4d982e43ef5","ios":"levelo://app?vid=352a4603-7b88-4203-89f1-e4d982e43ef5"},"vehicle_type_id":"4","last_reported":1710871726,"current_range_meters":9600,"station_id":"ce4bh392rcd13ifvqdl0","pricing_plan_id":"cebpf4jnsgd1na2vs0mg"},{"bike_id":"7ba21068-c2f3-418d-ae9e-986d3d661b9e","system_id":"levelo_inurba_marseille","lat":43.291671,"lon":5.371575,"is_reserved":false,"is_disabled":false,"rental_uris":{"android":"levelo://app?vid=7ba21068-c2f3-418d-ae9e-986d3d661b9e","ios":"levelo://app?vid=7ba21068-c2f3-418d-ae9e-986d3d661b9e"},"vehicle_type_id":"4","last_reported":1710871726,"current_range_meters":12000,"station_id":"ce4bha92rcd13ifvqeh0","pricing_plan_id":"cebpf4jnsgd1na2vs0mg"},{"bike_id":"f9b7b6b8-0c09-433b-8f85-e06c1cb786ab","system_id":"levelo_inurba_marseille","lat":43.298764,"lon":5.388973,"is_reserved":false,"is_disabled":false,"rental_uris":{"android":"levelo://app?vid=f9b7b6b8-0c09-433b-8f85-e06c1cb786ab","ios":"levelo://app?vid=f9b7b6b8-0c09-433b-8f85-e06c1cb786ab"},"vehicle_type_id":"4","last_reported":1710871726,"current_range_meters":2400,"station_id":"ce4bh392rcd13ifvqdl0","pricing_plan_id":"cebpf4jnsgd1na2vs0mg"},{"bike_id":"0a33ae22-2764-436e-926d-d04d2950d633","system_id":"levelo_inurba_marseille","lat":43.29529,"lon":5.385581,"is_reserved":false,"is_disabled":false,"rental_uris":{"android":"levelo://app?vid=0a33ae22-2764-436e-926d-d04d2950d633","ios":"levelo://app?vid=0a33ae22-2764-436e-926d-d04d2950d633"},"vehicle_type_id":"4","last_reported":1710871726,"current_range_meters":7200,"station_id":"ce4bgih2rcd13ifvqba0","pricing_plan_id":"cebpf4jnsgd1na2vs0mg"},{"bike_id":"be3aa56f-3452-4c1a-98c6-7938880d26bc","system_id":"levelo_inurba_marseille","lat":43.291994,"lon":5.357886,"is_reserved":false,"is_disabled":false,"rental_uris":{"android":"levelo://app?vid=be3aa56f-3452-4c1a-98c6-7938880d26bc","ios":"levelo://app?vid=be3aa56f-3452-4c1a-98c6-7938880d26bc"},"vehicle_type_id":"4","last_reported":1710871726,"current_range_meters":0,"station_id":"ce4bhb12rcd13ifvqel0","pricing_plan_id":"cebpf4jnsgd1na2vs0mg"},{"bike_id":"944ae07e-1917-4207-ad5b-dd6d0105869b","system_id":"levelo_inurba_marseille","lat":43.313291,"lon":5.396838,"is_reserved":false,"is_disabled":false,"rental_uris":{"android":"levelo://app?vid=944ae07e-1917-4207-ad5b-dd6d0105869b","ios":"levelo://app?vid=944ae07e-1917-4207-ad5b-dd6d0105869b"},"vehicle_type_id":"4","last_reported":1710871726,"current_range_meters":15200,"station_id":"ce4bgvp2rcd13ifvqcu0","pricing_plan_id":"cebpf4jnsgd1na2vs0mg"},{"bike_id":"11aa79ac-dca6-444f-842c-9c53f9e64f1a","system_id":"levelo_inurba_marseille","lat":43.313291,"lon":5.396838,"is_reserved":false,"is_disabled":false,"rental_uris":{"android":"levelo://app?vid=11aa79ac-dca6-444f-842c-9c53f9e64f1a","ios":"levelo://app?vid=11aa79ac-dca6-444f-842c-9c53f9e64f1a"},"vehicle_type_id":"4","last_reported":1710871726,"current_range_meters":27600,"station_id":"ce4bgvp2rcd13ifvqcu0","pricing_plan_id":"cebpf4jnsgd1na2vs0mg"},{"bike_id":"3c7d7c48-eda9-46cd-a54e-fa34fbdebcb8","system_id":"levelo_inurba_marseille","lat":43.313291,"lon":5.396838,"is_reserved":false,"is_disabled":false,"rental_uris":{"android":"levelo://app?vid=3c7d7c48-eda9-46cd-a54e-fa34fbdebcb8","ios":"levelo://app?vid=3c7d7c48-eda9-46cd-a54e-fa34fbdebcb8"},"vehicle_type_id":"4","last_reported":1710871726,"current_range_meters":13600,"station_id":"ce4bgvp2rcd13ifvqcu0","pricing_plan_id":"cebpf4jnsgd1na2vs0mg"},{"bike_id":"bd64ee11-6b4c-42de-b22f-cbeda71d5dbf","system_id":"levelo_inurba_marseille","lat":43.313291,"lon":5.396838,"is_reserved":false,"is_disabled":false,"rental_uris":{"android":"levelo://app?vid=bd64ee11-6b4c-42de-b22f-cbeda71d5dbf","ios":"levelo://app?vid=bd64ee11-6b4c-42de-b22f-cbeda71d5dbf"},"vehicle_type_id":"4","last_reported":1710871726,"current_range_meters":10400,"station_id":"ce4bgvp2rcd13ifvqcu0","pricing_plan_id":"cebpf4jnsgd1na2vs0mg"},{"bike_id":"d21f4688-ae31-4101-bf09-ff7ddb5ad69c","system_id":"levelo_inurba_marseille","lat":43.313291,"lon":5.396838,"is_reserved":false,"is_disabled":false,"rental_uris":{"android":"levelo://app?vid=d21f4688-ae31-4101-bf09-ff7ddb5ad69c","ios":"levelo://app?vid=d21f4688-ae31-4101-bf09-ff7ddb5ad69c"},"vehicle_type_id":"4","last_reported":1710871726,"current_range_meters":20400,"station_id":"ce4bgvp2rcd13ifvqcu0","pricing_plan_id":"cebpf4jnsgd1na2vs0mg"},{"bike_id":"5d5fd77d-f933-475c-bfa2-4600b58b0dc6","system_id":"levelo_inurba_marseille","lat":43.313291,"lon":5.396838,"is_reserved":false,"is_disabled":false,"rental_uris":{"android":"levelo://app?vid=5d5fd77d-f933-475c-bfa2-4600b58b0dc6","ios":"levelo://app?vid=5d5fd77d-f933-475c-bfa2-4600b58b0dc6"},"vehicle_type_id":"4","last_reported":1710871726,"current_range_meters":3600,"station_id":"ce4bgvp2rcd13ifvqcu0","pricing_plan_id":"cebpf4jnsgd1na2vs0mg"},{"bike_id":"b32544b3-b912-4684-b972-3f289ebbe0c9","system_id":"levelo_inurba_marseille","lat":43.31349,"lon":5.39698,"is_reserved":false,"is_disabled":false,"rental_uris":{"android":"levelo://app?vid=b32544b3-b912-4684-b972-3f289ebbe0c9","ios":"levelo://app?vid=b32544b3-b912-4684-b972-3f289ebbe0c9"},"vehicle_type_id":"4","last_reported":1710871726,"current_range_meters":7600,"station_id":"ce4bgvp2rcd13ifvqcu0","pricing_plan_id":"cebpf4jnsgd1na2vs0mg"},{"bike_id":"6747a33c-fcda-44fd-9b73-218d47a1a812","system_id":"levelo_inurba_marseille","lat":43.29529,"lon":5.385581,"is_reserved":false,"is_disabled":false,"rental_uris":{"android":"levelo://app?vid=6747a33c-fcda-44fd-9b73-218d47a1a812","ios":"levelo://app?vid=6747a33c-fcda-44fd-9b73-218d47a1a812"},"vehicle_type_id":"4","last_reported":1710871726,"current_range_meters":5600,"station_id":"ce4bgih2rcd13ifvqba0","pricing_plan_id":"cebpf4jnsgd1na2vs0mg"},{"bike_id":"3736d05a-f002-4713-bb2d-c26cbbc1f892","system_id":"levelo_inurba_marseille","lat":43.309038,"lon":5.396546,"is_reserved":false,"is_disabled":false,"rental_uris":{"android":"levelo://app?vid=3736d05a-f002-4713-bb2d-c26cbbc1f892","ios":"levelo://app?vid=3736d05a-f002-4713-bb2d-c26cbbc1f892"},"vehicle_type_id":"4","last_reported":1710871726,"current_range_meters":0,"station_id":"ce4bh012rcd13ifvqcv0","pricing_plan_id":"cebpf4jnsgd1na2vs0mg"},{"bike_id":"129d6073-4e0e-4304-82d3-ccb27e10d8cc","system_id":"levelo_inurba_marseille","lat":43.29529,"lon":5.385581,"is_reserved":false,"is_disabled":false,"rental_uris":{"android":"levelo://app?vid=129d6073-4e0e-4304-82d3-ccb27e10d8cc","ios":"levelo://app?vid=129d6073-4e0e-4304-82d3-ccb27e10d8cc"},"vehicle_type_id":"4","last_reported":1710871726,"current_range_meters":24800,"station_id":"ce4bgih2rcd13ifvqba0","pricing_plan_id":"cebpf4jnsgd1na2vs0mg"},{"bike_id":"9945295d-ec59-49dc-bbb2-dcc2e166b0cc","system_id":"levelo_inurba_marseille","lat":43.29529,"lon":5.385581,"is_reserved":false,"is_disabled":false,"rental_uris":{"android":"levelo://app?vid=9945295d-ec59-49dc-bbb2-dcc2e166b0cc","ios":"levelo://app?vid=9945295d-ec59-49dc-bbb2-dcc2e166b0cc"},"vehicle_type_id":"4","last_reported":1710871726,"current_range_meters":13600,"station_id":"ce4bgih2rcd13ifvqba0","pricing_plan_id":"cebpf4jnsgd1na2vs0mg"},{"bike_id":"16056ea9-3fd0-4a4a-b9d7-66d256cac263","system_id":"levelo_inurba_marseille","lat":43.29529,"lon":5.385581,"is_reserved":false,"is_disabled":false,"rental_uris":{"android":"levelo://app?vid=16056ea9-3fd0-4a4a-b9d7-66d256cac263","ios":"levelo://app?vid=16056ea9-3fd0-4a4a-b9d7-66d256cac263"},"vehicle_type_id":"4","last_reported":1710871726,"current_range_meters":3600,"station_id":"ce4bgih2rcd13ifvqba0","pricing_plan_id":"cebpf4jnsgd1na2vs0mg"},{"bike_id":"7133c435-e59d-4265-8912-0a9a807b3dd6","system_id":"levelo_inurba_marseille","lat":43.29529,"lon":5.385581,"is_reserved":false,"is_disabled":false,"rental_uris":{"android":"levelo://app?vid=7133c435-e59d-4265-8912-0a9a807b3dd6","ios":"levelo://app?vid=7133c435-e59d-4265-8912-0a9a807b3dd6"},"vehicle_type_id":"4","last_reported":1710871726,"current_range_meters":14800,"station_id":"ce4bgih2rcd13ifvqba0","pricing_plan_id":"cebpf4jnsgd1na2vs0mg"},{"bike_id":"f46fee48-ad9f-4a34-951a-f652cb6183d2","system_id":"levelo_inurba_marseille","lat":43.29529,"lon":5.385581,"is_reserved":false,"is_disabled":false,"rental_uris":{"android":"levelo://app?vid=f46fee48-ad9f-4a34-951a-f652cb6183d2","ios":"levelo://app?vid=f46fee48-ad9f-4a34-951a-f652cb6183d2"},"vehicle_type_id":"4","last_reported":1710871726,"current_range_meters":9600,"station_id":"ce4bgih2rcd13ifvqba0","pricing_plan_id":"cebpf4jnsgd1na2vs0mg"},{"bike_id":"3dfea90a-fe1c-422a-bc27-5730ede1cee4","system_id":"levelo_inurba_marseille","lat":43.29529,"lon":5.385581,"is_reserved":false,"is_disabled":false,"rental_uris":{"android":"levelo://app?vid=3dfea90a-fe1c-422a-bc27-5730ede1cee4","ios":"levelo://app?vid=3dfea90a-fe1c-422a-bc27-5730ede1cee4"},"vehicle_type_id":"4","last_reported":1710871726,"current_range_meters":8000,"station_id":"ce4bgih2rcd13ifvqba0","pricing_plan_id":"cebpf4jnsgd1na2vs0mg"},{"bike_id":"a678c947-0a70-4dae-bd9a-5dc62e545958","system_id":"levelo_inurba_marseille","lat":43.29529,"lon":5.385581,"is_reserved":false,"is_disabled":false,"rental_uris":{"android":"levelo://app?vid=a678c947-0a70-4dae-bd9a-5dc62e545958","ios":"levelo://app?vid=a678c947-0a70-4dae-bd9a-5dc62e545958"},"vehicle_type_id":"4","last_reported":1710871726,"current_range_meters":0,"station_id":"ce4bgih2rcd13ifvqba0","pricing_plan_id":"cebpf4jnsgd1na2vs0mg"},{"bike_id":"2bda4e53-9e1a-4d12-a0f3-501c2c4feba8","system_id":"levelo_inurba_marseille","lat":43.29529,"lon":5.385581,"is_reserved":false,"is_disabled":false,"rental_uris":{"android":"levelo://app?vid=2bda4e53-9e1a-4d12-a0f3-501c2c4feba8","ios":"levelo://app?vid=2bda4e53-9e1a-4d12-a0f3-501c2c4feba8"},"vehicle_type_id":"4","last_reported":1710871726,"current_range_meters":6800,"station_id":"ce4bgih2rcd13ifvqba0","pricing_plan_id":"cebpf4jnsgd1na2vs0mg"},{"bike_id":"26e8c8f9-bda8-42d3-a3fb-146beb7d7a67","system_id":"levelo_inurba_marseille","lat":43.29534,"lon":5.38546,"is_reserved":false,"is_disabled":false,"rental_uris":{"android":"levelo://app?vid=26e8c8f9-bda8-42d3-a3fb-146beb7d7a67","ios":"levelo://app?vid=26e8c8f9-bda8-42d3-a3fb-146beb7d7a67"},"vehicle_type_id":"4","last_reported":1710871726,"current_range_meters":0,"station_id":"ce4bgih2rcd13ifvqba0","pricing_plan_id":"cebpf4jnsgd1na2vs0mg"},{"bike_id":"dfc32456-42af-4620-bbde-e44e3db1d0ec","system_id":"levelo_inurba_marseille","lat":43.29529,"lon":5.385581,"is_reserved":false,"is_disabled":false,"rental_uris":{"android":"levelo://app?vid=dfc32456-42af-4620-bbde-e44e3db1d0ec","ios":"levelo://app?vid=dfc32456-42af-4620-bbde-e44e3db1d0ec"},"vehicle_type_id":"4","last_reported":1710871726,"current_range_meters":20000,"station_id":"ce4bgih2rcd13ifvqba0","pricing_plan_id":"cebpf4jnsgd1na2vs0mg"},{"bike_id":"8f6fe311-b756-45cf-8415-adcc9e980aae","system_id":"levelo_inurba_marseille","lat":43.29529,"lon":5.385581,"is_reserved":false,"is_disabled":false,"rental_uris":{"android":"levelo://app?vid=8f6fe311-b756-45cf-8415-adcc9e980aae","ios":"levelo://app?vid=8f6fe311-b756-45cf-8415-adcc9e980aae"},"vehicle_type_id":"4","last_reported":1710871726,"current_range_meters":9600,"station_id":"ce4bgih2rcd13ifvqba0","pricing_plan_id":"cebpf4jnsgd1na2vs0mg"},{"bike_id":"3ec2e6c0-9254-46e8-a60d-317f33e7477d","system_id":"levelo_inurba_marseille","lat":43.29082,"lon":5.37168,"is_reserved":false,"is_disabled":false,"rental_uris":{"android":"levelo://app?vid=3ec2e6c0-9254-46e8-a60d-317f33e7477d","ios":"levelo://app?vid=3ec2e6c0-9254-46e8-a60d-317f33e7477d"},"vehicle_type_id":"4","last_reported":1710871726,"current_range_meters":0,"station_id":"ce4bh5p2rcd13ifvqe4g","pricing_plan_id":"cebpf4jnsgd1na2vs0mg"},{"bike_id":"70d42d9c-9002-4e31-b695-5969d6bf7bc3","system_id":"levelo_inurba_marseille","lat":43.290786,"lon":5.371522,"is_reserved":false,"is_disabled":false,"rental_uris":{"android":"levelo://app?vid=70d42d9c-9002-4e31-b695-5969d6bf7bc3","ios":"levelo://app?vid=70d42d9c-9002-4e31-b695-5969d6bf7bc3"},"vehicle_type_id":"4","last_reported":1710871726,"current_range_meters":4800,"station_id":"ce4bh5p2rcd13ifvqe4g","pricing_plan_id":"cebpf4jnsgd1na2vs0mg"},{"bike_id":"c4281e35-e2ce-4a8f-ad0f-4f6cbdb675c4","system_id":"levelo_inurba_marseille","lat":43.290779,"lon":5.371482,"is_reserved":false,"is_disabled":false,"rental_uris":{"android":"levelo://app?vid=c4281e35-e2ce-4a8f-ad0f-4f6cbdb675c4","ios":"levelo://app?vid=c4281e35-e2ce-4a8f-ad0f-4f6cbdb675c4"},