{"last_updated":1777389303,"ttl":60,"version":"2.2","data":{"bikes":[{"bike_id":"957dd04f-61f7-4967-ae83-53fa5f0c57af","system_id":"levelo_inurba_marseille","lat":43.2378,"lon":5.36627,"is_reserved":false,"is_disabled":false,"rental_uris":{"android":"levelo://app?vid=957dd04f-61f7-4967-ae83-53fa5f0c57af","ios":"levelo://app?vid=957dd04f-61f7-4967-ae83-53fa5f0c57af"},"vehicle_type_id":"4","last_reported":1777389304,"current_range_meters":2800,"station_id":"st_d3nk18o9ro0c73en2l3g","pricing_plan_id":"cebpf4jnsgd1na2vs0mg"},{"bike_id":"ef8152fa-69a8-4897-80ba-16fd9081cac1","system_id":"levelo_inurba_marseille","lat":43.26194,"lon":5.3745,"is_reserved":false,"is_disabled":true,"rental_uris":{"android":"levelo://app?vid=ef8152fa-69a8-4897-80ba-16fd9081cac1","ios":"levelo://app?vid=ef8152fa-69a8-4897-80ba-16fd9081cac1"},"vehicle_type_id":"4","last_reported":1777389304,"current_range_meters":2800,"station_id":"","pricing_plan_id":"cebpf4jnsgd1na2vs0mg"},{"bike_id":"997f6f41-c7c2-4007-b948-01a0e2093873","system_id":"levelo_inurba_marseille","lat":43.211965,"lon":5.350724,"is_reserved":false,"is_disabled":false,"rental_uris":{"android":"levelo://app?vid=997f6f41-c7c2-4007-b948-01a0e2093873","ios":"levelo://app?vid=997f6f41-c7c2-4007-b948-01a0e2093873"},"vehicle_type_id":"4","last_reported":1777389304,"current_range_meters":2800,"station_id":"st_cvj6sg6p6f1abm77japg","pricing_plan_id":"cebpf4jnsgd1na2vs0mg"},{"bike_id":"ca755fa0-0b0d-4a82-b2d2-4952f946c821","system_id":"levelo_inurba_marseille","lat":43.29369,"lon":5.37872,"is_reserved":false,"is_disabled":false,"rental_uris":{"android":"levelo://app?vid=ca755fa0-0b0d-4a82-b2d2-4952f946c821","ios":"levelo://app?vid=ca755fa0-0b0d-4a82-b2d2-4952f946c821"},"vehicle_type_id":"4","last_reported":1777389304,"current_range_meters":2800,"station_id":"ce4bgjh2rcd13ifvqbf0","pricing_plan_id":"cebpf4jnsgd1na2vs0mg"},{"bike_id":"e641ec13-e12f-4915-afd7-d4c914b25653","system_id":"levelo_inurba_marseille","lat":43.29769,"lon":5.36939,"is_reserved":false,"is_disabled":false,"rental_uris":{"android":"levelo://app?vid=e641ec13-e12f-4915-afd7-d4c914b25653","ios":"levelo://app?vid=e641ec13-e12f-4915-afd7-d4c914b25653"},"vehicle_type_id":"4","last_reported":1777389304,"current_range_meters":2800,"station_id":"","pricing_plan_id":"cebpf4jnsgd1na2vs0mg"},{"bike_id":"1df3b952-5ed7-463f-bb00-8f64ea7cf7e1","system_id":"levelo_inurba_marseille","lat":43.2906,"lon":5.37193,"is_reserved":false,"is_disabled":false,"rental_uris":{"android":"levelo://app?vid=1df3b952-5ed7-463f-bb00-8f64ea7cf7e1","ios":"levelo://app?vid=1df3b952-5ed7-463f-bb00-8f64ea7cf7e1"},"vehicle_type_id":"4","last_reported":1777389304,"current_range_meters":2800,"station_id":"ce4bh5p2rcd13ifvqe4g","pricing_plan_id":"cebpf4jnsgd1na2vs0mg"},{"bike_id":"4f3bd0c4-24b6-4047-9f1e-eb6156fa87fc","system_id":"levelo_inurba_marseille","lat":43.308803,"lon":5.396502,"is_reserved":false,"is_disabled":false,"rental_uris":{"android":"levelo://app?vid=4f3bd0c4-24b6-4047-9f1e-eb6156fa87fc","ios":"levelo://app?vid=4f3bd0c4-24b6-4047-9f1e-eb6156fa87fc"},"vehicle_type_id":"4","last_reported":1777389304,"current_range_meters":2800,"station_id":"ce4bh012rcd13ifvqcv0","pricing_plan_id":"cebpf4jnsgd1na2vs0mg"},{"bike_id":"ff215620-9bf3-42a1-a0a7-6121c13a191d","system_id":"levelo_inurba_marseille","lat":43.30278,"lon":5.39225,"is_reserved":false,"is_disabled":false,"rental_uris":{"android":"levelo://app?vid=ff215620-9bf3-42a1-a0a7-6121c13a191d","ios":"levelo://app?vid=ff215620-9bf3-42a1-a0a7-6121c13a191d"},"vehicle_type_id":"4","last_reported":1777389304,"current_range_meters":2800,"station_id":"ce4bgkh2rcd13ifvqbk0","pricing_plan_id":"cebpf4jnsgd1na2vs0mg"},{"bike_id":"a289cebc-fe40-422c-9272-35aa7a38333a","system_id":"levelo_inurba_marseille","lat":43.24803,"lon":5.37452,"is_reserved":false,"is_disabled":false,"rental_uris":{"android":"levelo://app?vid=a289cebc-fe40-422c-9272-35aa7a38333a","ios":"levelo://app?vid=a289cebc-fe40-422c-9272-35aa7a38333a"},"vehicle_type_id":"4","last_reported":1777389304,"current_range_meters":2800,"station_id":"ce4bhgh2rcd13ifvqfb0","pricing_plan_id":"cebpf4jnsgd1na2vs0mg"},{"bike_id":"6c0e44b5-b4c6-4989-a0ec-b3c6d257ac1d","system_id":"levelo_inurba_marseille","lat":43.33186,"lon":5.37828,"is_reserved":false,"is_disabled":false,"rental_uris":{"android":"levelo://app?vid=6c0e44b5-b4c6-4989-a0ec-b3c6d257ac1d","ios":"levelo://app?vid=6c0e44b5-b4c6-4989-a0ec-b3c6d257ac1d"},"vehicle_type_id":"4","last_reported":1777389304,"current_range_meters":3200,"station_id":"","pricing_plan_id":"cebpf4jnsgd1na2vs0mg"},{"bike_id":"8f13b61e-8a25-4927-8213-0f8d3090195b","system_id":"levelo_inurba_marseille","lat":43.2848,"lon":5.48399,"is_reserved":false,"is_disabled":false,"rental_uris":{"android":"levelo://app?vid=8f13b61e-8a25-4927-8213-0f8d3090195b","ios":"levelo://app?vid=8f13b61e-8a25-4927-8213-0f8d3090195b"},"vehicle_type_id":"4","last_reported":1777389304,"current_range_meters":3200,"station_id":"","pricing_plan_id":"cebpf4jnsgd1na2vs0mg"},{"bike_id":"9f77f16b-502d-4ac5-8568-c59f78ec076e","system_id":"levelo_inurba_marseille","lat":43.29042,"lon":5.37738,"is_reserved":false,"is_disabled":false,"rental_uris":{"android":"levelo://app?vid=9f77f16b-502d-4ac5-8568-c59f78ec076e","ios":"levelo://app?vid=9f77f16b-502d-4ac5-8568-c59f78ec076e"},"vehicle_type_id":"4","last_reported":1777389304,"current_range_meters":3200,"station_id":"","pricing_plan_id":"cebpf4jnsgd1na2vs0mg"},{"bike_id":"6b9ceb44-f98b-4474-bf14-5e53602be7a5","system_id":"levelo_inurba_marseille","lat":43.33538,"lon":5.37465,"is_reserved":false,"is_disabled":false,"rental_uris":{"android":"levelo://app?vid=6b9ceb44-f98b-4474-bf14-5e53602be7a5","ios":"levelo://app?vid=6b9ceb44-f98b-4474-bf14-5e53602be7a5"},"vehicle_type_id":"4","last_reported":1777389304,"current_range_meters":3200,"station_id":"st_d46tts09ee8s73dlu43g","pricing_plan_id":"cebpf4jnsgd1na2vs0mg"},{"bike_id":"051901d6-9465-4aca-8c7d-c88b2dacf656","system_id":"levelo_inurba_marseille","lat":43.30414,"lon":5.3975,"is_reserved":false,"is_disabled":false,"rental_uris":{"android":"levelo://app?vid=051901d6-9465-4aca-8c7d-c88b2dacf656","ios":"levelo://app?vid=051901d6-9465-4aca-8c7d-c88b2dacf656"},"vehicle_type_id":"4","last_reported":1777389304,"current_range_meters":3200,"station_id":"ce4bh092rcd13ifvqd20","pricing_plan_id":"cebpf4jnsgd1na2vs0mg"},{"bike_id":"920df693-9c76-4530-9c0e-410a54ddf678","system_id":"levelo_inurba_marseille","lat":43.28413,"lon":5.34982,"is_reserved":false,"is_disabled":false,"rental_uris":{"android":"levelo://app?vid=920df693-9c76-4530-9c0e-410a54ddf678","ios":"levelo://app?vid=920df693-9c76-4530-9c0e-410a54ddf678"},"vehicle_type_id":"4","last_reported":1777389304,"current_range_meters":3200,"station_id":"ce4bhbh2rcd13ifvqepg","pricing_plan_id":"cebpf4jnsgd1na2vs0mg"},{"bike_id":"ad9d8ab7-7c37-4963-8c0c-47ae3ffe382d","system_id":"levelo_inurba_marseille","lat":43.29924,"lon":5.38554,"is_reserved":false,"is_disabled":false,"rental_uris":{"android":"levelo://app?vid=ad9d8ab7-7c37-4963-8c0c-47ae3ffe382d","ios":"levelo://app?vid=ad9d8ab7-7c37-4963-8c0c-47ae3ffe382d"},"vehicle_type_id":"4","last_reported":1777389304,"current_range_meters":3200,"station_id":"","pricing_plan_id":"cebpf4jnsgd1na2vs0mg"},{"bike_id":"e3236111-76af-4177-9e0f-14e763e68a72","system_id":"levelo_inurba_marseille","lat":43.24546,"lon":5.39522,"is_reserved":false,"is_disabled":false,"rental_uris":{"android":"levelo://app?vid=e3236111-76af-4177-9e0f-14e763e68a72","ios":"levelo://app?vid=e3236111-76af-4177-9e0f-14e763e68a72"},"vehicle_type_id":"4","last_reported":1777389304,"current_range_meters":3200,"station_id":"ce4bhlp2rcd13ifvqgjg","pricing_plan_id":"cebpf4jnsgd1na2vs0mg"},{"bike_id":"9c325936-db26-4435-8a09-aff8f43a0fa0","system_id":"levelo_inurba_marseille","lat":43.27676,"lon":5.38874,"is_reserved":false,"is_disabled":false,"rental_uris":{"android":"levelo://app?vid=9c325936-db26-4435-8a09-aff8f43a0fa0","ios":"levelo://app?vid=9c325936-db26-4435-8a09-aff8f43a0fa0"},"vehicle_type_id":"4","last_reported":1777389304,"current_range_meters":3200,"station_id":"ce4bhi12rcd13ifvqfo0","pricing_plan_id":"cebpf4jnsgd1na2vs0mg"},{"bike_id":"87c7d646-570e-4183-a035-e3b92af075ca","system_id":"levelo_inurba_marseille","lat":43.29885,"lon":5.42097,"is_reserved":false,"is_disabled":false,"rental_uris":{"android":"levelo://app?vid=87c7d646-570e-4183-a035-e3b92af075ca","ios":"levelo://app?vid=87c7d646-570e-4183-a035-e3b92af075ca"},"vehicle_type_id":"4","last_reported":1777389304,"current_range_meters":3600,"station_id":"st_d6tc004otcvc738tfe70","pricing_plan_id":"cebpf4jnsgd1na2vs0mg"},{"bike_id":"b1cea831-5991-44e8-a8f3-6dd3d79c393d","system_id":"levelo_inurba_marseille","lat":43.30134,"lon":5.37398,"is_reserved":false,"is_disabled":false,"rental_uris":{"android":"levelo://app?vid=b1cea831-5991-44e8-a8f3-6dd3d79c393d","ios":"levelo://app?vid=b1cea831-5991-44e8-a8f3-6dd3d79c393d"},"vehicle_type_id":"4","last_reported":1777389304,"current_range_meters":3600,"station_id":"ce4bgs92rcd13ifvqcc0","pricing_plan_id":"cebpf4jnsgd1na2vs0mg"},{"bike_id":"77f1be50-d55c-4753-b02a-0b5e7117e7c7","system_id":"levelo_inurba_marseille","lat":43.31305,"lon":5.38194,"is_reserved":false,"is_disabled":false,"rental_uris":{"android":"levelo://app?vid=77f1be50-d55c-4753-b02a-0b5e7117e7c7","ios":"levelo://app?vid=77f1be50-d55c-4753-b02a-0b5e7117e7c7"},"vehicle_type_id":"4","last_reported":1777389304,"current_range_meters":3600,"station_id":"","pricing_plan_id":"cebpf4jnsgd1na2vs0mg"},{"bike_id":"19fa33b3-2df9-44fc-ad47-bef2bc7215ef","system_id":"levelo_inurba_marseille","lat":43.26686,"lon":5.38296,"is_reserved":false,"is_disabled":false,"rental_uris":{"android":"levelo://app?vid=19fa33b3-2df9-44fc-ad47-bef2bc7215ef","ios":"levelo://app?vid=19fa33b3-2df9-44fc-ad47-bef2bc7215ef"},"vehicle_type_id":"4","last_reported":1777389304,"current_range_meters":3600,"station_id":"ce4bhg92rcd13ifvqf90","pricing_plan_id":"cebpf4jnsgd1na2vs0mg"},{"bike_id":"ea5c9c0e-b508-4bfd-96c9-e5ef68b6f21c","system_id":"levelo_inurba_marseille","lat":43.28027,"lon":5.41594,"is_reserved":false,"is_disabled":false,"rental_uris":{"android":"levelo://app?vid=ea5c9c0e-b508-4bfd-96c9-e5ef68b6f21c","ios":"levelo://app?vid=ea5c9c0e-b508-4bfd-96c9-e5ef68b6f21c"},"vehicle_type_id":"4","last_reported":1777389304,"current_range_meters":3600,"station_id":"ce4bho12rcd13ifvqh1g","pricing_plan_id":"cebpf4jnsgd1na2vs0mg"},{"bike_id":"33a56e94-be7e-4d61-aa2c-8f06bd6417b7","system_id":"levelo_inurba_marseille","lat":43.31366,"lon":5.38488,"is_reserved":false,"is_disabled":false,"rental_uris":{"android":"levelo://app?vid=33a56e94-be7e-4d61-aa2c-8f06bd6417b7","ios":"levelo://app?vid=33a56e94-be7e-4d61-aa2c-8f06bd6417b7"},"vehicle_type_id":"4","last_reported":1777389304,"current_range_meters":3600,"station_id":"ce4bgt92rcd13ifvqcf0","pricing_plan_id":"cebpf4jnsgd1na2vs0mg"},{"bike_id":"b610165f-306b-490e-88b0-51682c2f283a","system_id":"levelo_inurba_marseille","lat":43.28698,"lon":5.46679,"is_reserved":false,"is_disabled":false,"rental_uris":{"android":"levelo://app?vid=b610165f-306b-490e-88b0-51682c2f283a","ios":"levelo://app?vid=b610165f-306b-490e-88b0-51682c2f283a"},"vehicle_type_id":"4","last_reported":1777389304,"current_range_meters":3600,"station_id":"st_d6tc3vkotcvc738tfjhg","pricing_plan_id":"cebpf4jnsgd1na2vs0mg"},{"bike_id":"5e451212-4b27-4f5e-b1c4-d13e6ee3dead","system_id":"levelo_inurba_marseille","lat":43.31219,"lon":5.3792,"is_reserved":false,"is_disabled":false,"rental_uris":{"android":"levelo://app?vid=5e451212-4b27-4f5e-b1c4-d13e6ee3dead","ios":"levelo://app?vid=5e451212-4b27-4f5e-b1c4-d13e6ee3dead"},"vehicle_type_id":"4","last_reported":1777389304,"current_range_meters":4000,"station_id":"","pricing_plan_id":"cebpf4jnsgd1na2vs0mg"},{"bike_id":"4cfc6024-f6ce-4107-abc6-accd90ea0994","system_id":"levelo_inurba_marseille","lat":43.29303,"lon":5.37464,"is_reserved":false,"is_disabled":false,"rental_uris":{"android":"levelo://app?vid=4cfc6024-f6ce-4107-abc6-accd90ea0994","ios":"levelo://app?vid=4cfc6024-f6ce-4107-abc6-accd90ea0994"},"vehicle_type_id":"4","last_reported":1777389304,"current_range_meters":4000,"station_id":"ce4bgi12rcd13ifvqb70","pricing_plan_id":"cebpf4jnsgd1na2vs0mg"},{"bike_id":"8b1f5d0b-fff3-453f-8e5c-32008a7ce404","system_id":"levelo_inurba_marseille","lat":43.26946,"lon":5.40277,"is_reserved":false,"is_disabled":false,"rental_uris":{"android":"levelo://app?vid=8b1f5d0b-fff3-453f-8e5c-32008a7ce404","ios":"levelo://app?vid=8b1f5d0b-fff3-453f-8e5c-32008a7ce404"},"vehicle_type_id":"4","last_reported":1777389304,"current_range_meters":4000,"station_id":"cjm6bp8fraef2m0cb0m0","pricing_plan_id":"cebpf4jnsgd1na2vs0mg"},{"bike_id":"ab6e5095-a74e-48d5-9fa7-7d61fdda751e","system_id":"levelo_inurba_marseille","lat":43.30661,"lon":5.40079,"is_reserved":false,"is_disabled":true,"rental_uris":{"android":"levelo://app?vid=ab6e5095-a74e-48d5-9fa7-7d61fdda751e","ios":"levelo://app?vid=ab6e5095-a74e-48d5-9fa7-7d61fdda751e"},"vehicle_type_id":"4","last_reported":1777389304,"current_range_meters":4000,"station_id":"ce4bh112rcd13ifvqda0","pricing_plan_id":"cebpf4jnsgd1na2vs0mg"},{"bike_id":"2e1487b5-ffbe-4174-a3cb-5f2ca03b60ce","system_id":"levelo_inurba_marseille","lat":43.28471,"lon":5.48392,"is_reserved":false,"is_disabled":false,"rental_uris":{"android":"levelo://app?vid=2e1487b5-ffbe-4174-a3cb-5f2ca03b60ce","ios":"levelo://app?vid=2e1487b5-ffbe-4174-a3cb-5f2ca03b60ce"},"vehicle_type_id":"4","last_reported":1777389304,"current_range_meters":4000,"station_id":"st_d3svhcjqgbts73a3dn0g","pricing_plan_id":"cebpf4jnsgd1na2vs0mg"},{"bike_id":"a1a8075c-c77e-4006-9e1e-0ae31d391c9d","system_id":"levelo_inurba_marseille","lat":43.27019,"lon":5.40257,"is_reserved":false,"is_disabled":false,"rental_uris":{"android":"levelo://app?vid=a1a8075c-c77e-4006-9e1e-0ae31d391c9d","ios":"levelo://app?vid=a1a8075c-c77e-4006-9e1e-0ae31d391c9d"},"vehicle_type_id":"4","last_reported":1777389304,"current_range_meters":4000,"station_id":"ce4bhk92rcd13ifvqgc0","pricing_plan_id":"cebpf4jnsgd1na2vs0mg"},{"bike_id":"87cc790b-60cd-436a-82f4-3796eb0e0cc9","system_id":"levelo_inurba_marseille","lat":43.29167,"lon":5.43582,"is_reserved":false,"is_disabled":false,"rental_uris":{"android":"levelo://app?vid=87cc790b-60cd-436a-82f4-3796eb0e0cc9","ios":"levelo://app?vid=87cc790b-60cd-436a-82f4-3796eb0e0cc9"},"vehicle_type_id":"4","last_reported":1777389304,"current_range_meters":4000,"station_id":"","pricing_plan_id":"cebpf4jnsgd1na2vs0mg"},{"bike_id":"4762e09b-59b8-41ab-9c32-7fa1853bb9b6","system_id":"levelo_inurba_marseille","lat":43.25477,"lon":5.41622,"is_reserved":false,"is_disabled":false,"rental_uris":{"android":"levelo://app?vid=4762e09b-59b8-41ab-9c32-7fa1853bb9b6","ios":"levelo://app?vid=4762e09b-59b8-41ab-9c32-7fa1853bb9b6"},"vehicle_type_id":"4","last_reported":1777389304,"current_range_meters":4000,"station_id":"","pricing_plan_id":"cebpf4jnsgd1na2vs0mg"},{"bike_id":"c04c42cf-36a4-4a3c-b656-dde2fe1bae7e","system_id":"levelo_inurba_marseille","lat":43.31899,"lon":5.36811,"is_reserved":false,"is_disabled":false,"rental_uris":{"android":"levelo://app?vid=c04c42cf-36a4-4a3c-b656-dde2fe1bae7e","ios":"levelo://app?vid=c04c42cf-36a4-4a3c-b656-dde2fe1bae7e"},"vehicle_type_id":"4","last_reported":1777389304,"current_range_meters":4000,"station_id":"st_d6o2h0d0559c73evc1b0","pricing_plan_id":"cebpf4jnsgd1na2vs0mg"},{"bike_id":"7d24a3ee-0eb9-47a1-8904-33af700bdc69","system_id":"levelo_inurba_marseille","lat":43.28478,"lon":5.48388,"is_reserved":false,"is_disabled":false,"rental_uris":{"android":"levelo://app?vid=7d24a3ee-0eb9-47a1-8904-33af700bdc69","ios":"levelo://app?vid=7d24a3ee-0eb9-47a1-8904-33af700bdc69"},"vehicle_type_id":"4","last_reported":1777389304,"current_range_meters":4400,"station_id":"st_d3svhcjqgbts73a3dn0g","pricing_plan_id":"cebpf4jnsgd1na2vs0mg"},{"bike_id":"4c0cd92a-42b8-47e8-87a0-0a2040637242","system_id":"levelo_inurba_marseille","lat":43.29881,"lon":5.38901,"is_reserved":false,"is_disabled":false,"rental_uris":{"android":"levelo://app?vid=4c0cd92a-42b8-47e8-87a0-0a2040637242","ios":"levelo://app?vid=4c0cd92a-42b8-47e8-87a0-0a2040637242"},"vehicle_type_id":"4","last_reported":1777389304,"current_range_meters":4400,"station_id":"ce4bh392rcd13ifvqdl0","pricing_plan_id":"cebpf4jnsgd1na2vs0mg"},{"bike_id":"8ac0bd5f-2f2a-4833-ada5-2e9beded5ddb","system_id":"levelo_inurba_marseille","lat":43.31503,"lon":5.39136,"is_reserved":false,"is_disabled":false,"rental_uris":{"android":"levelo://app?vid=8ac0bd5f-2f2a-4833-ada5-2e9beded5ddb","ios":"levelo://app?vid=8ac0bd5f-2f2a-4833-ada5-2e9beded5ddb"},"vehicle_type_id":"4","last_reported":1777389304,"current_range_meters":4400,"station_id":"","pricing_plan_id":"cebpf4jnsgd1na2vs0mg"},{"bike_id":"16d472fe-eb19-4acc-8aa8-94088ad37de6","system_id":"levelo_inurba_marseille","lat":43.35207,"lon":5.36378,"is_reserved":false,"is_disabled":false,"rental_uris":{"android":"levelo://app?vid=16d472fe-eb19-4acc-8aa8-94088ad37de6","ios":"levelo://app?vid=16d472fe-eb19-4acc-8aa8-94088ad37de6"},"vehicle_type_id":"4","last_reported":1777389304,"current_range_meters":4400,"station_id":"","pricing_plan_id":"cebpf4jnsgd1na2vs0mg"},{"bike_id":"14869599-ab60-4e86-8f2c-d0b35d29b95e","system_id":"levelo_inurba_marseille","lat":43.2564,"lon":5.41821,"is_reserved":false,"is_disabled":false,"rental_uris":{"android":"levelo://app?vid=14869599-ab60-4e86-8f2c-d0b35d29b95e","ios":"levelo://app?vid=14869599-ab60-4e86-8f2c-d0b35d29b95e"},"vehicle_type_id":"4","last_reported":1777389304,"current_range_meters":4400,"station_id":"","pricing_plan_id":"cebpf4jnsgd1na2vs0mg"},{"bike_id":"5fd209fb-ad87-49ce-b22f-0530bbfbd470","system_id":"levelo_inurba_marseille","lat":43.27674,"lon":5.3889,"is_reserved":false,"is_disabled":false,"rental_uris":{"android":"levelo://app?vid=5fd209fb-ad87-49ce-b22f-0530bbfbd470","ios":"levelo://app?vid=5fd209fb-ad87-49ce-b22f-0530bbfbd470"},"vehicle_type_id":"4","last_reported":1777389304,"current_range_meters":4400,"station_id":"ce4bhi12rcd13ifvqfo0","pricing_plan_id":"cebpf4jnsgd1na2vs0mg"},{"bike_id":"39e9f1e4-becf-41c9-b8be-8ee642b99cfb","system_id":"levelo_inurba_marseille","lat":43.30276,"lon":5.37717,"is_reserved":false,"is_disabled":false,"rental_uris":{"android":"levelo://app?vid=39e9f1e4-becf-41c9-b8be-8ee642b99cfb","ios":"levelo://app?vid=39e9f1e4-becf-41c9-b8be-8ee642b99cfb"},"vehicle_type_id":"4","last_reported":1777389304,"current_range_meters":4400,"station_id":"ce4bguh2rcd13ifvqcj0","pricing_plan_id":"cebpf4jnsgd1na2vs0mg"},{"bike_id":"09a00132-8621-41d8-ac82-8d6cfa6a8c48","system_id":"levelo_inurba_marseille","lat":43.30114,"lon":5.43128,"is_reserved":false,"is_disabled":false,"rental_uris":{"android":"levelo://app?vid=09a00132-8621-41d8-ac82-8d6cfa6a8c48","ios":"levelo://app?vid=09a00132-8621-41d8-ac82-8d6cfa6a8c48"},"vehicle_type_id":"4","last_reported":1777389304,"current_range_meters":4400,"station_id":"st_d3js3co5814s73ftftug","pricing_plan_id":"cebpf4jnsgd1na2vs0mg"},{"bike_id":"0ba5c473-448e-4959-962b-1ceda7557f74","system_id":"levelo_inurba_marseille","lat":43.29752,"lon":5.42776,"is_reserved":false,"is_disabled":true,"rental_uris":{"android":"levelo://app?vid=0ba5c473-448e-4959-962b-1ceda7557f74","ios":"levelo://app?vid=0ba5c473-448e-4959-962b-1ceda7557f74"},"vehicle_type_id":"4","last_reported":1777389304,"current_range_meters":4400,"station_id":"st_d3md5207bmas73dh9klg","pricing_plan_id":"cebpf4jnsgd1na2vs0mg"},{"bike_id":"a962a531-8990-4c49-8936-e937dcd66110","system_id":"levelo_inurba_marseille","lat":43.28663,"lon":5.3866,"is_reserved":false,"is_disabled":false,"rental_uris":{"android":"levelo://app?vid=a962a531-8990-4c49-8936-e937dcd66110","ios":"levelo://app?vid=a962a531-8990-4c49-8936-e937dcd66110"},"vehicle_type_id":"4","last_reported":1777389304,"current_range_meters":4400,"station_id":"ce4bh492rcd13ifvqdug","pricing_plan_id":"cebpf4jnsgd1na2vs0mg"},{"bike_id":"c658f009-bae2-4ba4-a0cc-484db7ff8698","system_id":"levelo_inurba_marseille","lat":43.28226,"lon":5.40527,"is_reserved":false,"is_disabled":false,"rental_uris":{"android":"levelo://app?vid=c658f009-bae2-4ba4-a0cc-484db7ff8698","ios":"levelo://app?vid=c658f009-bae2-4ba4-a0cc-484db7ff8698"},"vehicle_type_id":"4","last_reported":1777389304,"current_range_meters":4400,"station_id":"","pricing_plan_id":"cebpf4jnsgd1na2vs0mg"},{"bike_id":"535002de-d05e-4b1b-93ad-1a6896036db0","system_id":"levelo_inurba_marseille","lat":43.29278,"lon":5.40124,"is_reserved":false,"is_disabled":false,"rental_uris":{"android":"levelo://app?vid=535002de-d05e-4b1b-93ad-1a6896036db0","ios":"levelo://app?vid=535002de-d05e-4b1b-93ad-1a6896036db0"},"vehicle_type_id":"4","last_reported":1777389304,"current_range_meters":4400,"station_id":"ce4bh312rcd13ifvqdk0","pricing_plan_id":"cebpf4jnsgd1na2vs0mg"},{"bike_id":"ad40a6e0-1825-4608-890e-5faf961bf270","system_id":"levelo_inurba_marseille","lat":43.31393,"lon":5.36666,"is_reserved":false,"is_disabled":false,"rental_uris":{"android":"levelo://app?vid=ad40a6e0-1825-4608-890e-5faf961bf270","ios":"levelo://app?vid=ad40a6e0-1825-4608-890e-5faf961bf270"},"vehicle_type_id":"4","last_reported":1777389304,"current_range_meters":4800,"station_id":"","pricing_plan_id":"cebpf4jnsgd1na2vs0mg"},{"bike_id":"8a2f33d0-2a45-4bf1-bd0e-de563f39bea0","system_id":"levelo_inurba_marseille","lat":43.26576,"lon":5.39002,"is_reserved":false,"is_disabled":false,"rental_uris":{"android":"levelo://app?vid=8a2f33d0-2a45-4bf1-bd0e-de563f39bea0","ios":"levelo://app?vid=8a2f33d0-2a45-4bf1-bd0e-de563f39bea0"},"vehicle_type_id":"4","last_reported":1777389304,"current_range_meters":4800,"station_id":"ce4bhe12rcd13ifvqf30","pricing_plan_id":"cebpf4jnsgd1na2vs0mg"},{"bike_id":"ec8a714e-2707-478e-ad68-3474d3fd4b9e","system_id":"levelo_inurba_marseille","lat":43.27546,"lon":5.38436,"is_reserved":false,"is_disabled":false,"rental_uris":{"android":"levelo://app?vid=ec8a714e-2707-478e-ad68-3474d3fd4b9e","ios":"levelo://app?vid=ec8a714e-2707-478e-ad68-3474d3fd4b9e"},"vehicle_type_id":"4","last_reported":1777389304,"current_range_meters":4800,"station_id":"ce4bhh92rcd13ifvqfi0","pricing_plan_id":"cebpf4jnsgd1na2vs0mg"},{"bike_id":"f447fec5-f118-42c2-be2c-8ef32b6d20a2","system_id":"levelo_inurba_marseille","lat":43.25963,"lon":5.41685,"is_reserved":false,"is_disabled":false,"rental_uris":{"android":"levelo://app?vid=f447fec5-f118-42c2-be2c-8ef32b6d20a2","ios":"levelo://app?vid=f447fec5-f118-42c2-be2c-8ef32b6d20a2"},"vehicle_type_id":"4","last_reported":1777389304,"current_range_meters":4800,"station_id":"","pricing_plan_id":"cebpf4jnsgd1na2vs0mg"},{"bike_id":"74929e98-c2e0-43cc-b447-0901251d01cb","system_id":"levelo_inurba_marseille","lat":43.2549,"lon":5.37677,"is_reserved":false,"is_disabled":true,"rental_uris":{"android":"levelo://app?vid=74929e98-c2e0-43cc-b447-0901251d01cb","ios":"levelo://app?vid=74929e98-c2e0-43cc-b447-0901251d01cb"},"vehicle_type_id":"4","last_reported":1777389304,"current_range_meters":4800,"station_id":"ce4bhh12rcd13ifvqff0","pricing_plan_id":"cebpf4jnsgd1na2vs0mg"},{"bike_id":"e5cd69c7-9379-4379-93b8-62cf25a54177","system_id":"levelo_inurba_marseille","lat":43.337497,"lon":5.374492,"is_reserved":false,"is_disabled":false,"rental_uris":{"android":"levelo://app?vid=e5cd69c7-9379-4379-93b8-62cf25a54177","ios":"levelo://app?vid=e5cd69c7-9379-4379-93b8-62cf25a54177"},"vehicle_type_id":"4","last_reported":1777389304,"current_range_meters":4800,"station_id":"","pricing_plan_id":"cebpf4jnsgd1na2vs0mg"},{"bike_id":"7d326536-f7a4-43c7-b7f1-603a8b855907","system_id":"levelo_inurba_marseille","lat":43.2937,"lon":5.37841,"is_reserved":false,"is_disabled":false,"rental_uris":{"android":"levelo://app?vid=7d326536-f7a4-43c7-b7f1-603a8b855907","ios":"levelo://app?vid=7d326536-f7a4-43c7-b7f1-603a8b855907"},"vehicle_type_id":"4","last_reported":1777389304,"current_range_meters":4800,"station_id":"ce4bgjh2rcd13ifvqbf0","pricing_plan_id":"cebpf4jnsgd1na2vs0mg"},{"bike_id":"02794ec5-e727-4080-8365-2fbd288bcc15","system_id":"levelo_inurba_marseille","lat":43.32496,"lon":5.38294,"is_reserved":false,"is_disabled":false,"rental_uris":{"android":"levelo://app?vid=02794ec5-e727-4080-8365-2fbd288bcc15","ios":"levelo://app?vid=02794ec5-e727-4080-8365-2fbd288bcc15"},"vehicle_type_id":"4","last_reported":1777389304,"current_range_meters":4800,"station_id":"st_d4asgbiv49dc73anf9m0","pricing_plan_id":"cebpf4jnsgd1na2vs0mg"},{"bike_id":"25c00737-db85-431f-8dac-8d830f46538d","system_id":"levelo_inurba_marseille","lat":43.29779,"lon":5.39355,"is_reserved":false,"is_disabled":false,"rental_uris":{"android":"levelo://app?vid=25c00737-db85-431f-8dac-8d830f46538d","ios":"levelo://app?vid=25c00737-db85-431f-8dac-8d830f46538d"},"vehicle_type_id":"4","last_reported":1777389304,"current_range_meters":4800,"station_id":"chh1huq6cuj3fo74tm60","pricing_plan_id":"cebpf4jnsgd1na2vs0mg"},{"bike_id":"00848863-a093-4fb3-85dd-8268d230a887","system_id":"levelo_inurba_marseille","lat":43.31712,"lon":5.4371,"is_reserved":false,"is_disabled":false,"rental_uris":{"android":"levelo://app?vid=00848863-a093-4fb3-85dd-8268d230a887","ios":"levelo://app?vid=00848863-a093-4fb3-85dd-8268d230a887"},"vehicle_type_id":"4","last_reported":1777389304,"current_range_meters":4800,"station_id":"ce4bhp92rcd13ifvqhcg","pricing_plan_id":"cebpf4jnsgd1na2vs0mg"},{"bike_id":"9daae5fc-029a-4575-8080-71abfd7ee94e","system_id":"levelo_inurba_marseille","lat":43.21197,"lon":5.35088,"is_reserved":false,"is_disabled":false,"rental_uris":{"android":"levelo://app?vid=9daae5fc-029a-4575-8080-71abfd7ee94e","ios":"levelo://app?vid=9daae5fc-029a-4575-8080-71abfd7ee94e"},"vehicle_type_id":"4","last_reported":1777389304,"current_range_meters":4800,"station_id":"st_cvj6sg6p6f1abm77japg","pricing_plan_id":"cebpf4jnsgd1na2vs0mg"},{"bike_id":"486a6bd7-6877-47a7-872d-b6d92138ce35","system_id":"levelo_inurba_marseille","lat":43.28153,"lon":5.42653,"is_reserved":false,"is_disabled":false,"rental_uris":{"android":"levelo://app?vid=486a6bd7-6877-47a7-872d-b6d92138ce35","ios":"levelo://app?vid=486a6bd7-6877-47a7-872d-b6d92138ce35"},"vehicle_type_id":"4","last_reported":1777389304,"current_range_meters":4800,"station_id":"ce4bhnh2rcd13ifvqgug","pricing_plan_id":"cebpf4jnsgd1na2vs0mg"},{"bike_id":"d409acef-90c3-44da-bb14-6fcd1ce56d67","system_id":"levelo_inurba_marseille","lat":43.29935,"lon":5.36556,"is_reserved":false,"is_disabled":false,"rental_uris":{"android":"levelo://app?vid=d409acef-90c3-44da-bb14-6fcd1ce56d67","ios":"levelo://app?vid=d409acef-90c3-44da-bb14-6fcd1ce56d67"},"vehicle_type_id":"4","last_reported":1777389304,"current_range_meters":4800,"station_id":"ce4bgm92rcd13ifvqbr0","pricing_plan_id":"cebpf4jnsgd1na2vs0mg"},{"bike_id":"dc4f256b-dad1-4b0e-b0aa-70815278bacb","system_id":"levelo_inurba_marseille","lat":43.28967,"lon":5.39318,"is_reserved":false,"is_disabled":false,"rental_uris":{"android":"levelo://app?vid=dc4f256b-dad1-4b0e-b0aa-70815278bacb","ios":"levelo://app?vid=dc4f256b-dad1-4b0e-b0aa-70815278bacb"},"vehicle_type_id":"4","last_reported":1777389304,"current_range_meters":4800,"station_id":"","pricing_plan_id":"cebpf4jnsgd1na2vs0mg"},{"bike_id":"1a927889-b2a5-416d-aaa2-fd8b3d8d420d","system_id":"levelo_inurba_marseille","lat":43.28672,"lon":5.38677,"is_reserved":false,"is_disabled":false,"rental_uris":{"android":"levelo://app?vid=1a927889-b2a5-416d-aaa2-fd8b3d8d420d","ios":"levelo://app?vid=1a927889-b2a5-416d-aaa2-fd8b3d8d420d"},"vehicle_type_id":"4","last_reported":1777389304,"current_range_meters":4800,"station_id":"ce4bh492rcd13ifvqdug","pricing_plan_id":"cebpf4jnsgd1na2vs0mg"},{"bike_id":"2ce1b60f-571d-4ad0-b4ae-a9367fb98203","system_id":"levelo_inurba_marseille","lat":43.284443,"lon":5.392049,"is_reserved":false,"is_disabled":false,"rental_uris":{"android":"levelo://app?vid=2ce1b60f-571d-4ad0-b4ae-a9367fb98203","ios":"levelo://app?vid=2ce1b60f-571d-4ad0-b4ae-a9367fb98203"},"vehicle_type_id":"4","last_reported":1777389304,"current_range_meters":5600,"station_id":"ce4bhoh2rcd13ifvqh5g","pricing_plan_id":"cebpf4jnsgd1na2vs0mg"},{"bike_id":"4b954bc9-67a3-464c-96c7-c6a09ee41920","system_id":"levelo_inurba_marseille","lat":43.29189,"lon":5.35821,"is_reserved":false,"is_disabled":false,"rental_uris":{"android":"levelo://app?vid=4b954bc9-67a3-464c-96c7-c6a09ee41920","ios":"levelo://app?vid=4b954bc9-67a3-464c-96c7-c6a09ee41920"},"vehicle_type_id":"4","last_reported":1777389304,"current_range_meters":5600,"station_id":"ce4bhb12rcd13ifvqel0","pricing_plan_id":"cebpf4jnsgd1na2vs0mg"},{"bike_id":"b5088cd7-5e45-457a-ae9f-32446d67355c","system_id":"levelo_inurba_marseille","lat":43.32474,"lon":5.36583,"is_reserved":false,"is_disabled":false,"rental_uris":{"android":"levelo://app?vid=b5088cd7-5e45-457a-ae9f-32446d67355c","ios":"levelo://app?vid=b5088cd7-5e45-457a-ae9f-32446d67355c"},"vehicle_type_id":"4","last_reported":1777389304,"current_range_meters":5600,"station_id":"ce4bhs12rcd13ifvqhvg","pricing_plan_id":"cebpf4jnsgd1na2vs0mg"},{"bike_id":"d598f447-fb25-4223-92e7-3f7456612835","system_id":"levelo_inurba_marseille","lat":43.2835,"lon":5.38101,"is_reserved":false,"is_disabled":false,"rental_uris":{"android":"levelo://app?vid=d598f447-fb25-4223-92e7-3f7456612835","ios":"levelo://app?vid=d598f447-fb25-4223-92e7-3f7456612835"},"vehicle_type_id":"4","last_reported":1777389304,"current_range_meters":5600,"station_id":"ce4bh412rcd13ifvqdr0","pricing_plan_id":"cebpf4jnsgd1na2vs0mg"},{"bike_id":"41fc813e-440d-40c9-a323-f9dc82137fdb","system_id":"levelo_inurba_marseille","lat":43.3122,"lon":5.36862,"is_reserved":false,"is_disabled":false,"rental_uris":{"android":"levelo://app?vid=41fc813e-440d-40c9-a323-f9dc82137fdb","ios":"levelo://app?vid=41fc813e-440d-40c9-a323-f9dc82137fdb"},"vehicle_type_id":"4","last_reported":1777389304,"current_range_meters":5600,"station_id":"ce4bgl92rcd13ifvqbq0","pricing_plan_id":"cebpf4jnsgd1na2vs0mg"},{"bike_id":"c3905c46-1ae7-43d5-a13d-6dc993f4fa75","system_id":"levelo_inurba_marseille","lat":43.21195,"lon":5.35056,"is_reserved":false,"is_disabled":false,"rental_uris":{"android":"levelo://app?vid=c3905c46-1ae7-43d5-a13d-6dc993f4fa75","ios":"levelo://app?vid=c3905c46-1ae7-43d5-a13d-6dc993f4fa75"},"vehicle_type_id":"4","last_reported":1777389304,"current_range_meters":5600,"station_id":"st_cvj6sg6p6f1abm77japg","pricing_plan_id":"cebpf4jnsgd1na2vs0mg"},{"bike_id":"f0538ceb-70d9-4e0c-826d-605260e2ac4d","system_id":"levelo_inurba_marseille","lat":43.28252,"lon":5.35089,"is_reserved":false,"is_disabled":false,"rental_uris":{"android":"levelo://app?vid=f0538ceb-70d9-4e0c-826d-605260e2ac4d","ios":"levelo://app?vid=f0538ceb-70d9-4e0c-826d-605260e2ac4d"},"vehicle_type_id":"4","last_reported":1777389304,"current_range_meters":5600,"station_id":"ce4bhbp2rcd13ifvqerg","pricing_plan_id":"cebpf4jnsgd1na2vs0mg"},{"bike_id":"4c4eb5f0-8143-46d3-8b03-cd205ecd3121","system_id":"levelo_inurba_marseille","lat":43.29612,"lon":5.37724,"is_reserved":false,"is_disabled":false,"rental_uris":{"android":"levelo://app?vid=4c4eb5f0-8143-46d3-8b03-cd205ecd3121","ios":"levelo://app?vid=4c4eb5f0-8143-46d3-8b03-cd205ecd3121"},"vehicle_type_id":"4","last_reported":1777389304,"current_range_meters":5600,"station_id":"ce4bgi92rcd13ifvqb90","pricing_plan_id":"cebpf4jnsgd1na2vs0mg"},{"bike_id":"5367fafd-42a5-4c52-bd35-5d85953af91c","system_id":"levelo_inurba_marseille","lat":43.3145,"lon":5.37379,"is_reserved":false,"is_disabled":true,"rental_uris":{"android":"levelo://app?vid=5367fafd-42a5-4c52-bd35-5d85953af91c","ios":"levelo://app?vid=5367fafd-42a5-4c52-bd35-5d85953af91c"},"vehicle_type_id":"4","last_reported":1777389304,"current_range_meters":6000,"station_id":"","pricing_plan_id":"cebpf4jnsgd1na2vs0mg"},{"bike_id":"62f19b7a-e2cc-48e1-8c2d-badef76c3087","system_id":"levelo_inurba_marseille","lat":43.29727,"lon":5.37653,"is_reserved":false,"is_disabled":false,"rental_uris":{"android":"levelo://app?vid=62f19b7a-e2cc-48e1-8c2d-badef76c3087","ios":"levelo://app?vid=62f19b7a-e2cc-48e1-8c2d-badef76c3087"},"vehicle_type_id":"4","last_reported":1777389304,"current_range_meters":6000,"station_id":"ce4bgkh2rcd13ifvqbl0","pricing_plan_id":"cebpf4jnsgd1na2vs0mg"},{"bike_id":"92df0730-a111-4eb7-9ac5-5b2e60ace000","system_id":"levelo_inurba_marseille","lat":43.28634,"lon":5.3852,"is_reserved":false,"is_disabled":false,"rental_uris":{"android":"levelo://app?vid=92df0730-a111-4eb7-9ac5-5b2e60ace000","ios":"levelo://app?vid=92df0730-a111-4eb7-9ac5-5b2e60ace000"},"vehicle_type_id":"4","last_reported":1777389304,"current_range_meters":6000,"station_id":"","pricing_plan_id":"cebpf4jnsgd1na2vs0mg"},{"bike_id":"b7472c29-f899-43cf-9628-e2d626af4302","system_id":"levelo_inurba_marseille","lat":43.2439,"lon":5.37043,"is_reserved":false,"is_disabled":false,"rental_uris":{"android":"levelo://app?vid=b7472c29-f899-43cf-9628-e2d626af4302","ios":"levelo://app?vid=b7472c29-f899-43cf-9628-e2d626af4302"},"vehicle_type_id":"4","last_reported":1777389304,"current_range_meters":6000,"station_id":"ce4bhhh2rcd13ifvqfk0","pricing_plan_id":"cebpf4jnsgd1na2vs0mg"},{"bike_id":"a6cfd14b-75d2-4f9d-9367-3fa42b7b1d2c","system_id":"levelo_inurba_marseille","lat":43.32111,"lon":5.36815,"is_reserved":false,"is_disabled":false,"rental_uris":{"android":"levelo://app?vid=a6cfd14b-75d2-4f9d-9367-3fa42b7b1d2c","ios":"levelo://app?vid=a6cfd14b-75d2-4f9d-9367-3fa42b7b1d2c"},"vehicle_type_id":"4","last_reported":1777389304,"current_range_meters":6000,"station_id":"ce4bhrh2rcd13ifvqhug","pricing_plan_id":"cebpf4jnsgd1na2vs0mg"},{"bike_id":"5d0273df-6582-410d-b713-7750a5c1f71c","system_id":"levelo_inurba_marseille","lat":43.29909,"lon":5.37474,"is_reserved":false,"is_disabled":false,"rental_uris":{"android":"levelo://app?vid=5d0273df-6582-410d-b713-7750a5c1f71c","ios":"levelo://app?vid=5d0273df-6582-410d-b713-7750a5c1f71c"},"vehicle_type_id":"4","last_reported":1777389304,"current_range_meters":6000,"station_id":"ce4bgjh2rcd13ifvqbg0","pricing_plan_id":"cebpf4jnsgd1na2vs0mg"},{"bike_id":"83f5b0a3-e8de-40f2-8c6c-ef9cd71f222a","system_id":"levelo_inurba_marseille","lat":43.28269,"lon":5.35083,"is_reserved":false,"is_disabled":false,"rental_uris":{"android":"levelo://app?vid=83f5b0a3-e8de-40f2-8c6c-ef9cd71f222a","ios":"levelo://app?vid=83f5b0a3-e8de-40f2-8c6c-ef9cd71f222a"},"vehicle_type_id":"4","last_reported":1777389304,"current_range_meters":6000,"station_id":"ce4bhbp2rcd13ifvqerg","pricing_plan_id":"cebpf4jnsgd1na2vs0mg"},{"bike_id":"ae987c10-ec52-4089-8ab4-892c787c36e9","system_id":"levelo_inurba_marseille","lat":43.26222,"lon":5.38775,"is_reserved":false,"is_disabled":true,"rental_uris":{"android":"levelo://app?vid=ae987c10-ec52-4089-8ab4-892c787c36e9","ios":"levelo://app?vid=ae987c10-ec52-4089-8ab4-892c787c36e9"},"vehicle_type_id":"4","last_reported":1777389304,"current_range_meters":6000,"station_id":"","pricing_plan_id":"cebpf4jnsgd1na2vs0mg"},{"bike_id":"a65c18fb-2828-45ac-b627-d7f83a504d16","system_id":"levelo_inurba_marseille","lat":43.28413,"lon":5.34982,"is_reserved":false,"is_disabled":false,"rental_uris":{"android":"levelo://app?vid=a65c18fb-2828-45ac-b627-d7f83a504d16","ios":"levelo://app?vid=a65c18fb-2828-45ac-b627-d7f83a504d16"},"vehicle_type_id":"4","last_reported":1777389304,"current_range_meters":6000,"station_id":"ce4bhbh2rcd13ifvqepg","pricing_plan_id":"cebpf4jnsgd1na2vs0mg"},{"bike_id":"d321ab9f-5a30-4f8e-9781-d3dfa05f9633","system_id":"levelo_inurba_marseille","lat":43.29039,"lon":5.39964,"is_reserved":false,"is_disabled":false,"rental_uris":{"android":"levelo://app?vid=d321ab9f-5a30-4f8e-9781-d3dfa05f9633","ios":"levelo://app?vid=d321ab9f-5a30-4f8e-9781-d3dfa05f9633"},"vehicle_type_id":"4","last_reported":1777389304,"current_range_meters":6400,"station_id":"ce4bh392rcd13ifvqdm0","pricing_plan_id":"cebpf4jnsgd1na2vs0mg"},{"bike_id":"3616f8ba-73fd-4d6a-af1a-77151a1973e8","system_id":"levelo_inurba_marseille","lat":43.28696,"lon":5.37941,"is_reserved":false,"is_disabled":false,"rental_uris":{"android":"levelo://app?vid=3616f8ba-73fd-4d6a-af1a-77151a1973e8","ios":"levelo://app?vid=3616f8ba-73fd-4d6a-af1a-77151a1973e8"},"vehicle_type_id":"4","last_reported":1777389304,"current_range_meters":6400,"station_id":"ce4bh9p2rcd13ifvqec0","pricing_plan_id":"cebpf4jnsgd1na2vs0mg"},{"bike_id":"2b2662f1-d28b-44f2-b2c8-61c6569e4c3d","system_id":"levelo_inurba_marseille","lat":43.29263,"lon":5.40126,"is_reserved":false,"is_disabled":true,"rental_uris":{"android":"levelo://app?vid=2b2662f1-d28b-44f2-b2c8-61c6569e4c3d","ios":"levelo://app?vid=2b2662f1-d28b-44f2-b2c8-61c6569e4c3d"},"vehicle_type_id":"4","last_reported":1777389304,"current_range_meters":6400,"station_id":"ce4bh312rcd13ifvqdk0","pricing_plan_id":"cebpf4jnsgd1na2vs0mg"},{"bike_id":"626afedd-d732-4bc8-be6f-6408a29380b2","system_id":"levelo_inurba_marseille","lat":43.21194,"lon":5.35084,"is_reserved":false,"is_disabled":false,"rental_uris":{"android":"levelo://app?vid=626afedd-d732-4bc8-be6f-6408a29380b2","ios":"levelo://app?vid=626afedd-d732-4bc8-be6f-6408a29380b2"},"vehicle_type_id":"4","last_reported":1777389304,"current_range_meters":6400,"station_id":"st_cvj6sg6p6f1abm77japg","pricing_plan_id":"cebpf4jnsgd1na2vs0mg"},{"bike_id":"5cbd5112-98e3-40e8-b3a1-3ea0f4fcd06c","system_id":"levelo_inurba_marseille","lat":43.21733,"lon":5.34606,"is_reserved":false,"is_disabled":false,"rental_uris":{"android":"levelo://app?vid=5cbd5112-98e3-40e8-b3a1-3ea0f4fcd06c","ios":"levelo://app?vid=5cbd5112-98e3-40e8-b3a1-3ea0f4fcd06c"},"vehicle_type_id":"4","last_reported":1777389304,"current_range_meters":6400,"station_id":"st_cvj6r9ubvosntc0bgbag","pricing_plan_id":"cebpf4jnsgd1na2vs0mg"},{"bike_id":"987eda33-b3ad-4fac-a63c-0e3ff496e921","system_id":"levelo_inurba_marseille","lat":43.32362,"lon":5.36738,"is_reserved":false,"is_disabled":false,"rental_uris":{"android":"levelo://app?vid=987eda33-b3ad-4fac-a63c-0e3ff496e921","ios":"levelo://app?vid=987eda33-b3ad-4fac-a63c-0e3ff496e921"},"vehicle_type_id":"4","last_reported":1777389304,"current_range_meters":6400,"station_id":"ce4bhsh2rcd13ifvqi2g","pricing_plan_id":"cebpf4jnsgd1na2vs0mg"},{"bike_id":"afde96ac-1493-4085-af72-e5da568a87fd","system_id":"levelo_inurba_marseille","lat":43.28492,"lon":5.48419,"is_reserved":false,"is_disabled":false,"rental_uris":{"android":"levelo://app?vid=afde96ac-1493-4085-af72-e5da568a87fd","ios":"levelo://app?vid=afde96ac-1493-4085-af72-e5da568a87fd"},"vehicle_type_id":"4","last_reported":1777389304,"current_range_meters":6400,"station_id":"st_d3svhcjqgbts73a3dn0g","pricing_plan_id":"cebpf4jnsgd1na2vs0mg"},{"bike_id":"26339e0d-dd32-4fed-b403-4f1b36b41465","system_id":"levelo_inurba_marseille","lat":43.28419,"lon":5.35261,"is_reserved":false,"is_disabled":false,"rental_uris":{"android":"levelo://app?vid=26339e0d-dd32-4fed-b403-4f1b36b41465","ios":"levelo://app?vid=26339e0d-dd32-4fed-b403-4f1b36b41465"},"vehicle_type_id":"4","last_reported":1777389304,"current_range_meters":6400,"station_id":"","pricing_plan_id":"cebpf4jnsgd1na2vs0mg"},{"bike_id":"eec401be-82ad-4f63-b0db-33abd6b577d0","system_id":"levelo_inurba_marseille","lat":43.30119,"lon":5.43102,"is_reserved":false,"is_disabled":false,"rental_uris":{"android":"levelo://app?vid=eec401be-82ad-4f63-b0db-33abd6b577d0","ios":"levelo://app?vid=eec401be-82ad-4f63-b0db-33abd6b577d0"},"vehicle_type_id":"4","last_reported":1777389304,"current_range_meters":6400,"station_id":"st_d3js3co5814s73ftftug","pricing_plan_id":"cebpf4jnsgd1na2vs0mg"},{"bike_id":"6b4aa15b-259f-4e69-9c10-9ad064f7be7c","system_id":"levelo_inurba_marseille","lat":43.25574,"lon":5.38235,"is_reserved":false,"is_disabled":false,"rental_uris":{"android":"levelo://app?vid=6b4aa15b-259f-4e69-9c10-9ad064f7be7c","ios":"levelo://app?vid=6b4aa15b-259f-4e69-9c10-9ad064f7be7c"},"vehicle_type_id":"4","last_reported":1777389304,"current_range_meters":6400,"station_id":"ce4bhih2rcd13ifvqfs0","pricing_plan_id":"cebpf4jnsgd1na2vs0mg"},{"bike_id":"93a03888-12b3-4ccc-b435-7f12038be2f7","system_id":"levelo_inurba_marseille","lat":43.21204,"lon":5.3506,"is_reserved":false,"is_disabled":false,"rental_uris":{"android":"levelo://app?vid=93a03888-12b3-4ccc-b435-7f12038be2f7","ios":"levelo://app?vid=93a03888-12b3-4ccc-b435-7f12038be2f7"},"vehicle_type_id":"4","last_reported":1777389304,"current_range_meters":6400,"station_id":"st_cvj6sg6p6f1abm77japg","pricing_plan_id":"cebpf4jnsgd1na2vs0mg"},{"bike_id":"0061473e-9ab4-4475-9805-59f85de65e62","system_id":"levelo_inurba_marseille","lat":43.28429,"lon":5.34986,"is_reserved":false,"is_disabled":false,"rental_uris":{"android":"levelo://app?vid=0061473e-9ab4-4475-9805-59f85de65e62","ios":"levelo://app?vid=0061473e-9ab4-4475-9805-59f85de65e62"},"vehicle_type_id":"4","last_reported":1777389304,"current_range_meters":6400,"station_id":"ce4bhbh2rcd13ifvqepg","pricing_plan_id":"cebpf4jnsgd1na2vs0mg"},{"bike_id":"12bc00c6-b7ef-4d07-a183-7def2e74aa4e","system_id":"levelo_inurba_marseille","lat":43.296766,"lon":5.372902,"is_reserved":false,"is_disabled":false,"rental_uris":{"android":"levelo://app?vid=12bc00c6-b7ef-4d07-a183-7def2e74aa4e","ios":"levelo://app?vid=12bc00c6-b7ef-4d07-a183-7def2e74aa4e"},"vehicle_type_id":"4","last_reported":1777389304,"current_range_meters":6800,"station_id":"ce4bgk12rcd13ifvqbj0","pricing_plan_id":"cebpf4jnsgd1na2vs0mg"},{"bike_id":"ca2b8675-1cc8-40d7-81de-9074596d7e98","system_id":"levelo_inurba_marseille","lat":43.26693,"lon":5.38269,"is_reserved":false,"is_disabled":false,"rental_uris":{"android":"levelo://app?vid=ca2b8675-1cc8-40d7-81de-9074596d7e98","ios":"levelo://app?vid=ca2b8675-1cc8-40d7-81de-9074596d7e98"},"vehicle_type_id":"4","last_reported":1777389304,"current_range_meters":6800,"station_id":"ce4bhg92rcd13ifvqf90","pricing_plan_id":"cebpf4jnsgd1na2vs0mg"},{"bike_id":"27cd71a7-0940-4415-a67f-21597fbf1cd9","system_id":"levelo_inurba_marseille","lat":43.34534,"lon":5.37787,"is_reserved":false,"is_disabled":true,"rental_uris":{"android":"levelo://app?vid=27cd71a7-0940-4415-a67f-21597fbf1cd9","ios":"levelo://app?vid=27cd71a7-0940-4415-a67f-21597fbf1cd9"},"vehicle_type_id":"4","last_reported":1777389304,"current_range_meters":6800,"station_id":"","pricing_plan_id":"cebpf4jnsgd1na2vs0mg"},{"bike_id":"1373da39-9bf2-42d8-a4e3-3a4bec183890","system_id":"levelo_inurba_marseille","lat":43.212,"lon":5.35057,"is_reserved":false,"is_disabled":false,"rental_uris":{"android":"levelo://app?vid=1373da39-9bf2-42d8-a4e3-3a4bec183890","ios":"levelo://app?vid=1373da39-9bf2-42d8-a4e3-3a4bec183890"},"vehicle_type_id":"4","last_reported":1777389304,"current_range_meters":6800,"station_id":"st_cvj6sg6p6f1abm77japg","pricing_plan_id":"cebpf4jnsgd1na2vs0mg"},{"bike_id":"66fd292d-5970-4e69-8ee6-9c6a1e0f9e63","system_id":"levelo_inurba_marseille","lat":43.26546,"lon":5.37287,"is_reserved":false,"is_disabled":true,"rental_uris":{"android":"levelo://app?vid=66fd292d-5970-4e69-8ee6-9c6a1e0f9e63","ios":"levelo://app?vid=66fd292d-5970-4e69-8ee6-9c6a1e0f9e63"},"vehicle_type_id":"4","last_reported":1777389304,"current_range_meters":6800,"station_id":"ce4bhg12rcd13ifvqf70","pricing_plan_id":"cebpf4jnsgd1na2vs0mg"},{"bike_id":"94b1d427-102e-4c64-aa76-0c93e226150f","system_id":"levelo_inurba_marseille","lat":43.28471,"lon":5.48402,"is_reserved":false,"is_disabled":false,"rental_uris":{"android":"levelo://app?vid=94b1d427-102e-4c64-aa76-0c93e226150f","ios":"levelo://app?vid=94b1d427-102e-4c64-aa76-0c93e226150f"},"vehicle_type_id":"4","last_reported":1777389304,"current_range_meters":6800,"station_id":"st_d3svhcjqgbts73a3dn0g","pricing_plan_id":"cebpf4jnsgd1na2vs0mg"},{"bike_id":"544af3ba-1f53-4d7b-998a-4b2ac40d2d13","system_id":"levelo_inurba_marseille","lat":43.26554,"lon":5.37334,"is_reserved":false,"is_disabled":false,"rental_uris":{"android":"levelo://app?vid=544af3ba-1f53-4d7b-998a-4b2ac40d2d13","ios":"levelo://app?vid=544af3ba-1f53-4d7b-998a-4b2ac40d2d13"},"vehicle_type_id":"4","last_reported":1777389304,"current_range_meters":6800,"station_id":"ce4bhg12rcd13ifvqf70","pricing_plan_id":"cebpf4jnsgd1na2vs0mg"},{"bike_id":"00a33731-5671-4980-aa80-804dcff667a9","system_id":"levelo_inurba_marseille","lat":43.28464,"lon":5.38415,"is_reserved":false,"is_disabled":false,"rental_uris":{"android":"levelo://app?vid=00a33731-5671-4980-aa80-804dcff667a9","ios":"levelo://app?vid=00a33731-5671-4980-aa80-804dcff667a9"},"vehicle_type_id":"4","last_reported":1777389304,"current_range_meters":6800,"station_id":"ce4bh512rcd13ifvqe3g","pricing_plan_id":"cebpf4jnsgd1na2vs0mg"},{"bike_id":"e2f4f5b7-b06b-4898-bad0-3e342eb52875","system_id":"levelo_inurba_marseille","lat":43.28971,"lon":5.3782,"is_reserved":false,"is_disabled":false,"rental_uris":{"android":"levelo://app?vid=e2f4f5b7-b06b-4898-bad0-3e342eb52875","ios":"levelo://app?vid=e2f4f5b7-b06b-4898-bad0-3e342eb52875"},"vehicle_type_id":"4","last_reported":1777389304,"current_range_meters":6800,"station_id":"ce4bh9p2rcd13ifvqed0","pricing_plan_id":"cebpf4jnsgd1na2vs0mg"},{"bike_id":"f9f92c5c-5f51-4e1c-a4a4-da02d7396e3a","system_id":"levelo_inurba_marseille","lat":43.2177,"lon":5.34589,"is_reserved":false,"is_disabled":false,"rental_uris":{"android":"levelo://app?vid=f9f92c5c-5f51-4e1c-a4a4-da02d7396e3a","ios":"levelo://app?vid=f9f92c5c-5f51-4e1c-a4a4-da02d7396e3a"},"vehicle_type_id":"4","last_reported":1777389304,"current_range_meters":6800,"station_id":"st_cvj6r9ubvosntc0bgbag","pricing_plan_id":"cebpf4jnsgd1na2vs0mg"},{"bike_id":"fd55c1f0-ebcd-4256-bc34-8168bb4306b0","system_id":"levelo_inurba_marseille","lat":43.23958,"lon":5.36621,"is_reserved":false,"is_disabled":false,"rental_uris":{"android":"levelo://app?vid=fd55c1f0-ebcd-4256-bc34-8168bb4306b0","ios":"levelo://app?vid=fd55c1f0-ebcd-4256-bc34-8168bb4306b0"},"vehicle_type_id":"4","last_reported":1777389304,"current_range_meters":6800,"station_id":"ce4bhi12rcd13ifvqfp0","pricing_plan_id":"cebpf4jnsgd1na2vs0mg"},{"bike_id":"87e25f35-2d83-40b5-9491-e5fcf313d252","system_id":"levelo_inurba_marseille","lat":43.23379,"lon":5.4124,"is_reserved":false,"is_disabled":false,"rental_uris":{"android":"levelo://app?vid=87e25f35-2d83-40b5-9491-e5fcf313d252","ios":"levelo://app?vid=87e25f35-2d83-40b5-9491-e5fcf313d252"},"vehicle_type_id":"4","last_reported":1777389304,"current_range_meters":6800,"station_id":"st_d75pvndhf9lc73cqq3eg","pricing_plan_id":"cebpf4jnsgd1na2vs0mg"},{"bike_id":"c7c1f737-9c82-4b0d-abad-e28e94a003a2","system_id":"levelo_inurba_marseille","lat":43.25578,"lon":5.38237,"is_reserved":false,"is_disabled":false,"rental_uris":{"android":"levelo://app?vid=c7c1f737-9c82-4b0d-abad-e28e94a003a2","ios":"levelo://app?vid=c7c1f737-9c82-4b0d-abad-e28e94a003a2"},"vehicle_type_id":"4","last_reported":1777389304,"current_range_meters":6800,"station_id":"ce4bhih2rcd13ifvqfs0","pricing_plan_id":"cebpf4jnsgd1na2vs0mg"},{"bike_id":"92b0e79d-5118-4cdc-a154-ad1d52d847b8","system_id":"levelo_inurba_marseille","lat":43.29608,"lon":5.36065,"is_reserved":false,"is_disabled":false,"rental_uris":{"android":"levelo://app?vid=92b0e79d-5118-4cdc-a154-ad1d52d847b8","ios":"levelo://app?vid=92b0e79d-5118-4cdc-a154-ad1d52d847b8"},"vehicle_type_id":"4","last_reported":1777389304,"current_range_meters":6800,"station_id":"","pricing_plan_id":"cebpf4jnsgd1na2vs0mg"},{"bike_id":"02e7ced1-f2ae-4573-875a-b296871f6646","system_id":"levelo_inurba_marseille","lat":43.30891,"lon":5.36857,"is_reserved":false,"is_disabled":false,"rental_uris":{"android":"levelo://app?vid=02e7ced1-f2ae-4573-875a-b296871f6646","ios":"levelo://app?vid=02e7ced1-f2ae-4573-875a-b296871f6646"},"vehicle_type_id":"4","last_reported":1777389304,"current_range_meters":6800,"station_id":"ce4bgn92rcd13ifvqbvg","pricing_plan_id":"cebpf4jnsgd1na2vs0mg"},{"bike_id":"122ae6e6-deea-458c-9848-9ac3c0ddaca7","system_id":"levelo_inurba_marseille","lat":43.29052,"lon":5.40603,"is_reserved":false,"is_disabled":false,"rental_uris":{"android":"levelo://app?vid=122ae6e6-deea-458c-9848-9ac3c0ddaca7","ios":"levelo://app?vid=122ae6e6-deea-458c-9848-9ac3c0ddaca7"},"vehicle_type_id":"4","last_reported":1777389304,"current_range_meters":6800,"station_id":"","pricing_plan_id":"cebpf4jnsgd1na2vs0mg"},{"bike_id":"a1cec169-e072-4f2e-8eed-667ba15fa752","system_id":"levelo_inurba_marseille","lat":43.27371,"lon":5.36259,"is_reserved":false,"is_disabled":false,"rental_uris":{"android":"levelo://app?vid=a1cec169-e072-4f2e-8eed-667ba15fa752","ios":"levelo://app?vid=a1cec169-e072-4f2e-8eed-667ba15fa752"},"vehicle_type_id":"4","last_reported":1777389304,"current_range_meters":6800,"station_id":"ce4bhbh2rcd13ifvqeo0","pricing_plan_id":"cebpf4jnsgd1na2vs0mg"},{"bike_id":"7555d9b9-006d-4ee5-87eb-dc527bf6fc19","system_id":"levelo_inurba_marseille","lat":43.27366,"lon":5.36247,"is_reserved":false,"is_disabled":false,"rental_uris":{"android":"levelo://app?vid=7555d9b9-006d-4ee5-87eb-dc527bf6fc19","ios":"levelo://app?vid=7555d9b9-006d-4ee5-87eb-dc527bf6fc19"},"vehicle_type_id":"4","last_reported":1777389304,"current_range_meters":6800,"station_id":"ce4bhbh2rcd13ifvqeo0","pricing_plan_id":"cebpf4jnsgd1na2vs0mg"},{"bike_id":"8b4e6bd3-1e82-4277-a45a-3a8abaa4e3ab","system_id":"levelo_inurba_marseille","lat":43.28484,"lon":5.4839,"is_reserved":false,"is_disabled":false,"rental_uris":{"android":"levelo://app?vid=8b4e6bd3-1e82-4277-a45a-3a8abaa4e3ab","ios":"levelo://app?vid=8b4e6bd3-1e82-4277-a45a-3a8abaa4e3ab"},"vehicle_type_id":"4","last_reported":1777389304,"current_range_meters":6800,"station_id":"","pricing_plan_id":"cebpf4jnsgd1na2vs0mg"},{"bike_id":"468abae1-13a9-4e60-8e7c-104705afcb70","system_id":"levelo_inurba_marseille","lat":43.284952,"lon":5.38555,"is_reserved":false,"is_disabled":false,"rental_uris":{"android":"levelo://app?vid=468abae1-13a9-4e60-8e7c-104705afcb70","ios":"levelo://app?vid=468abae1-13a9-4e60-8e7c-104705afcb70"},"vehicle_type_id":"4","last_reported":1777389304,"current_range_meters":7200,"station_id":"ce4bh8p2rcd13ifvqeb0","pricing_plan_id":"cebpf4jnsgd1na2vs0mg"},{"bike_id":"3cc0b188-6c9d-4461-8f90-fb6761a16bdc","system_id":"levelo_inurba_marseille","lat":43.31163,"lon":5.38736,"is_reserved":false,"is_disabled":false,"rental_uris":{"android":"levelo://app?vid=3cc0b188-6c9d-4461-8f90-fb6761a16bdc","ios":"levelo://app?vid=3cc0b188-6c9d-4461-8f90-fb6761a16bdc"},"vehicle_type_id":"4","last_reported":1777389304,"current_range_meters":7200,"station_id":"ce4bgv12rcd13ifvqcp0","pricing_plan_id":"cebpf4jnsgd1na2vs0mg"},{"bike_id":"a23e7e44-c6c1-411f-9acf-173d4ad08236","system_id":"levelo_inurba_marseille","lat":43.2742,"lon":5.39406,"is_reserved":false,"is_disabled":false,"rental_uris":{"android":"levelo://app?vid=a23e7e44-c6c1-411f-9acf-173d4ad08236","ios":"levelo://app?vid=a23e7e44-c6c1-411f-9acf-173d4ad08236"},"vehicle_type_id":"4","last_reported":1777389304,"current_range_meters":7200,"station_id":"ce4bhdp2rcd13ifvqf20","pricing_plan_id":"cebpf4jnsgd1na2vs0mg"},{"bike_id":"28d8ad0c-7932-4171-9abe-0273246e4973","system_id":"levelo_inurba_marseille","lat":43.298007,"lon":5.385339,"is_reserved":false,"is_disabled":false,"rental_uris":{"android":"levelo://app?vid=28d8ad0c-7932-4171-9abe-0273246e4973","ios":"levelo://app?vid=28d8ad0c-7932-4171-9abe-0273246e4973"},"vehicle_type_id":"4","last_reported":1777389304,"current_range_meters":7200,"station_id":"","pricing_plan_id":"cebpf4jnsgd1na2vs0mg"},{"bike_id":"e95739bb-1255-4c8c-8ec8-ee8d9c764ba7","system_id":"levelo_inurba_marseille","lat":43.27381,"lon":5.3626,"is_reserved":false,"is_disabled":false,"rental_uris":{"android":"levelo://app?vid=e95739bb-1255-4c8c-8ec8-ee8d9c764ba7","ios":"levelo://app?vid=e95739bb-1255-4c8c-8ec8-ee8d9c764ba7"},"vehicle_type_id":"4","last_reported":1777389304,"current_range_meters":7200,"station_id":"ce4bhbh2rcd13ifvqeo0","pricing_plan_id":"cebpf4jnsgd1na2vs0mg"},{"bike_id":"d2276d1c-4dd8-4805-b674-72347073e05f","system_id":"levelo_inurba_marseille","lat":43.2886,"lon":5.42524,"is_reserved":false,"is_disabled":false,"rental_uris":{"android":"levelo://app?vid=d2276d1c-4dd8-4805-b674-72347073e05f","ios":"levelo://app?vid=d2276d1c-4dd8-4805-b674-72347073e05f"},"vehicle_type_id":"4","last_reported":1777389304,"current_range_meters":7200,"station_id":"st_d3b462108ojc7389ooeg","pricing_plan_id":"cebpf4jnsgd1na2vs0mg"},{"bike_id":"dbbe2078-be25-4fd7-9e93-9aa517701b9c","system_id":"levelo_inurba_marseille","lat":43.2965,"lon":5.37145,"is_reserved":false,"is_disabled":false,"rental_uris":{"android":"levelo://app?vid=dbbe2078-be25-4fd7-9e93-9aa517701b9c","ios":"levelo://app?vid=dbbe2078-be25-4fd7-9e93-9aa517701b9c"},"vehicle_type_id":"4","last_reported":1777389304,"current_range_meters":7200,"station_id":"ce4bgnh2rcd13ifvqc0g","pricing_plan_id":"cebpf4jnsgd1na2vs0mg"},{"bike_id":"1bf6bc57-f8be-4912-882e-8fb7d21ff70a","system_id":"levelo_inurba_marseille","lat":43.28933,"lon":5.38415,"is_reserved":false,"is_disabled":true,"rental_uris":{"android":"levelo://app?vid=1bf6bc57-f8be-4912-882e-8fb7d21ff70a","ios":"levelo://app?vid=1bf6bc57-f8be-4912-882e-8fb7d21ff70a"},"vehicle_type_id":"4","last_reported":1777389304,"current_range_meters":7200,"station_id":"ce4bh612rcd13ifvqe6g","pricing_plan_id":"cebpf4jnsgd1na2vs0mg"},{"bike_id":"56ac1c37-507d-45b5-b176-1a6e57683d4d","system_id":"levelo_inurba_marseille","lat":43.27375,"lon":5.3625,"is_reserved":false,"is_disabled":false,"rental_uris":{"android":"levelo://app?vid=56ac1c37-507d-45b5-b176-1a6e57683d4d","ios":"levelo://app?vid=56ac1c37-507d-45b5-b176-1a6e57683d4d"},"vehicle_type_id":"4","last_reported":1777389304,"current_range_meters":7200,"station_id":"ce4bhbh2rcd13ifvqeo0","pricing_plan_id":"cebpf4jnsgd1na2vs0mg"},{"bike_id":"f41ba7a7-44a8-4d66-be06-d19ff27913e8","system_id":"levelo_inurba_marseille","lat":43.29003,"lon":5.35621,"is_reserved":false,"is_disabled":false,"rental_uris":{"android":"levelo://app?vid=f41ba7a7-44a8-4d66-be06-d19ff27913e8","ios":"levelo://app?vid=f41ba7a7-44a8-4d66-be06-d19ff27913e8"},"vehicle_type_id":"4","last_reported":1777389304,"current_range_meters":7200,"station_id":"ce4bhb92rcd13ifvqen0","pricing_plan_id":"cebpf4jnsgd1na2vs0mg"},{"bike_id":"5438bd17-a68e-4392-afb1-a363a1923d62","system_id":"levelo_inurba_marseille","lat":43.28617,"lon":5.3987,"is_reserved":false,"is_disabled":false,"rental_uris":{"android":"levelo://app?vid=5438bd17-a68e-4392-afb1-a363a1923d62","ios":"levelo://app?vid=5438bd17-a68e-4392-afb1-a363a1923d62"},"vehicle_type_id":"4","last_reported":1777389304,"current_range_meters":7200,"station_id":"st_d4a7ka997mjs738ck50g","pricing_plan_id":"cebpf4jnsgd1na2vs0mg"},{"bike_id":"14e8562c-cd38-4655-8cd7-8392c45261ab","system_id":"levelo_inurba_marseille","lat":43.28375,"lon":5.39046,"is_reserved":false,"is_disabled":false,"rental_uris":{"android":"levelo://app?vid=14e8562c-cd38-4655-8cd7-8392c45261ab","ios":"levelo://app?vid=14e8562c-cd38-4655-8cd7-8392c45261ab"},"vehicle_type_id":"4","last_reported":1777389304,"current_range_meters":7200,"station_id":"","pricing_plan_id":"cebpf4jnsgd1na2vs0mg"},{"bike_id":"76907408-a8ff-4688-9cbf-66e48bb415e8","system_id":"levelo_inurba_marseille","lat":43.28689,"lon":5.4669,"is_reserved":false,"is_disabled":false,"rental_uris":{"android":"levelo://app?vid=76907408-a8ff-4688-9cbf-66e48bb415e8","ios":"levelo://app?vid=76907408-a8ff-4688-9cbf-66e48bb415e8"},"vehicle_type_id":"4","last_reported":1777389304,"current_range_meters":7200,"station_id":"st_d6tc3vkotcvc738tfjhg","pricing_plan_id":"cebpf4jnsgd1na2vs0mg"},{"bike_id":"2020c86b-acff-4815-b841-ec266398cf5e","system_id":"levelo_inurba_marseille","lat":43.28155,"lon":5.42647,"is_reserved":false,"is_disabled":false,"rental_uris":{"android":"levelo://app?vid=2020c86b-acff-4815-b841-ec266398cf5e","ios":"levelo://app?vid=2020c86b-acff-4815-b841-ec266398cf5e"},"vehicle_type_id":"4","last_reported":1777389304,"current_range_meters":7200,"station_id":"ce4bhnh2rcd13ifvqgug","pricing_plan_id":"cebpf4jnsgd1na2vs0mg"},{"bike_id":"8eb524af-3ca3-49bd-82ed-aa16d2c52ab7","system_id":"levelo_inurba_marseille","lat":43.22919,"lon":5.3538,"is_reserved":false,"is_disabled":false,"rental_uris":{"android":"levelo://app?vid=8eb524af-3ca3-49bd-82ed-aa16d2c52ab7","ios":"levelo://app?vid=8eb524af-3ca3-49bd-82ed-aa16d2c52ab7"},"vehicle_type_id":"4","last_reported":1777389304,"current_range_meters":7200,"station_id":"cpo3532slgdg3j2ikp40","pricing_plan_id":"cebpf4jnsgd1na2vs0mg"},{"bike_id":"f13c1412-9987-4b53-aa5c-79a6ecb2ba2d","system_id":"levelo_inurba_marseille","lat":43.32352,"lon":5.36745,"is_reserved":false,"is_disabled":false,"rental_uris":{"android":"levelo://app?vid=f13c1412-9987-4b53-aa5c-79a6ecb2ba2d","ios":"levelo://app?vid=f13c1412-9987-4b53-aa5c-79a6ecb2ba2d"},"vehicle_type_id":"4","last_reported":1777389304,"current_range_meters":7200,"station_id":"ce4bhsh2rcd13ifvqi2g","pricing_plan_id":"cebpf4jnsgd1na2vs0mg"},{"bike_id":"9f543810-4dfb-4951-9c10-acd2d2940820","system_id":"levelo_inurba_marseille","lat":43.2857,"lon":5.39488,"is_reserved":false,"is_disabled":true,"rental_uris":{"android":"levelo://app?vid=9f543810-4dfb-4951-9c10-acd2d2940820","ios":"levelo://app?vid=9f543810-4dfb-4951-9c10-acd2d2940820"},"vehicle_type_id":"4","last_reported":1777389304,"current_range_meters":7200,"station_id":"ce4bh292rcd13ifvqdg0","pricing_plan_id":"cebpf4jnsgd1na2vs0mg"},{"bike_id":"1102eaa2-e5ae-431f-a890-2b49c4f99091","system_id":"levelo_inurba_marseille","lat":43.28467,"lon":5.38434,"is_reserved":false,"is_disabled":false,"rental_uris":{"android":"levelo://app?vid=1102eaa2-e5ae-431f-a890-2b49c4f99091","ios":"levelo://app?vid=1102eaa2-e5ae-431f-a890-2b49c4f99091"},"vehicle_type_id":"4","last_reported":1777389304,"current_range_meters":7200,"station_id":"ce4bh512rcd13ifvqe3g","pricing_plan_id":"cebpf4jnsgd1na2vs0mg"},{"bike_id":"60dba6de-54c0-480e-929d-4ee08e29c2b6","system_id":"levelo_inurba_marseille","lat":43.31198,"lon":5.36875,"is_reserved":false,"is_disabled":false,"rental_uris":{"android":"levelo://app?vid=60dba6de-54c0-480e-929d-4ee08e29c2b6","ios":"levelo://app?vid=60dba6de-54c0-480e-929d-4ee08e29c2b6"},"vehicle_type_id":"4","last_reported":1777389304,"current_range_meters":7200,"station_id":"ce4bgl92rcd13ifvqbq0","pricing_plan_id":"cebpf4jnsgd1na2vs0mg"},{"bike_id":"227e4028-246b-4a4b-bf88-36b7ff5228dd","system_id":"levelo_inurba_marseille","lat":43.29598,"lon":5.37776,"is_reserved":false,"is_disabled":false,"rental_uris":{"android":"levelo://app?vid=227e4028-246b-4a4b-bf88-36b7ff5228dd","ios":"levelo://app?vid=227e4028-246b-4a4b-bf88-36b7ff5228dd"},"vehicle_type_id":"4","last_reported":1777389304,"current_range_meters":8000,"station_id":"","pricing_plan_id":"cebpf4jnsgd1na2vs0mg"},{"bike_id":"b4e349b1-3758-41c0-986d-367554a0653c","system_id":"levelo_inurba_marseille","lat":43.28033,"lon":5.36957,"is_reserved":false,"is_disabled":true,"rental_uris":{"android":"levelo://app?vid=b4e349b1-3758-41c0-986d-367554a0653c","ios":"levelo://app?vid=b4e349b1-3758-41c0-986d-367554a0653c"},"vehicle_type_id":"4","last_reported":1777389304,"current_range_meters":8000,"station_id":"ce4bha12rcd13ifvqef0","pricing_plan_id":"cebpf4jnsgd1na2vs0mg"},{"bike_id":"bcd67e65-43b0-4b23-bb5c-0bdd7484ac57","system_id":"levelo_inurba_marseille","lat":43.33173,"lon":5.37785,"is_reserved":false,"is_disabled":false,"rental_uris":{"android":"levelo://app?vid=bcd67e65-43b0-4b23-bb5c-0bdd7484ac57","ios":"levelo://app?vid=bcd67e65-43b0-4b23-bb5c-0bdd7484ac57"},"vehicle_type_id":"4","last_reported":1777389304,"current_range_meters":8000,"station_id":"","pricing_plan_id":"cebpf4jnsgd1na2vs0mg"},{"bike_id":"dabc5e28-b9df-4b1a-affa-f2e365a8b45b","system_id":"levelo_inurba_marseille","lat":43.32094,"lon":5.36825,"is_reserved":false,"is_disabled":false,"rental_uris":{"android":"levelo://app?vid=dabc5e28-b9df-4b1a-affa-f2e365a8b45b","ios":"levelo://app?vid=dabc5e28-b9df-4b1a-affa-f2e365a8b45b"},"vehicle_type_id":"4","last_reported":1777389304,"current_range_meters":8000,"station_id":"ce4bhrh2rcd13ifvqhug","pricing_plan_id":"cebpf4jnsgd1na2vs0mg"},{"bike_id":"4541a58b-5803-4873-8531-8182c7674429","system_id":"levelo_inurba_marseille","lat":43.28486,"lon":5.48407,"is_reserved":false,"is_disabled":false,"rental_uris":{"android":"levelo://app?vid=4541a58b-5803-4873-8531-8182c7674429","ios":"levelo://app?vid=4541a58b-5803-4873-8531-8182c7674429"},"vehicle_type_id":"4","last_reported":1777389304,"current_range_meters":8000,"station_id":"st_d3svhcjqgbts73a3dn0g","pricing_plan_id":"cebpf4jnsgd1na2vs0mg"},{"bike_id":"0a9402c4-4fa1-4264-b4e1-28e1589d5f41","system_id":"levelo_inurba_marseille","lat":43.30887,"lon":5.39664,"is_reserved":false,"is_disabled":false,"rental_uris":{"android":"levelo://app?vid=0a9402c4-4fa1-4264-b4e1-28e1589d5f41","ios":"levelo://app?vid=0a9402c4-4fa1-4264-b4e1-28e1589d5f41"},"vehicle_type_id":"4","last_reported":1777389304,"current_range_meters":8000,"station_id":"ce4bh012rcd13ifvqcv0","pricing_plan_id":"cebpf4jnsgd1na2vs0mg"},{"bike_id":"e1d26622-7491-4fdf-a6f0-77cbc7cac2ef","system_id":"levelo_inurba_marseille","lat":43.241713,"lon":5.364016,"is_reserved":false,"is_disabled":true,"rental_uris":{"android":"levelo://app?vid=e1d26622-7491-4fdf-a6f0-77cbc7cac2ef","ios":"levelo://app?vid=e1d26622-7491-4fdf-a6f0-77cbc7cac2ef"},"vehicle_type_id":"4","last_reported":1777389304,"current_range_meters":8000,"station_id":"cpo36qri1sfpv3e86is0","pricing_plan_id":"cebpf4jnsgd1na2vs0mg"},{"bike_id":"81e52b6e-bff7-4875-a0d8-d533ea21c465","system_id":"levelo_inurba_marseille","lat":43.28149,"lon":5.42654,"is_reserved":false,"is_disabled":false,"rental_uris":{"android":"levelo://app?vid=81e52b6e-bff7-4875-a0d8-d533ea21c465","ios":"levelo://app?vid=81e52b6e-bff7-4875-a0d8-d533ea21c465"},"vehicle_type_id":"4","last_reported":1777389304,"current_range_meters":8000,"station_id":"ce4bhnh2rcd13ifvqgug","pricing_plan_id":"cebpf4jnsgd1na2vs0mg"},{"bike_id":"e2605e88-9f7b-49cc-8a63-119a038d9512","system_id":"levelo_inurba_marseille","lat":43.25613,"lon":5.38585,"is_reserved":false,"is_disabled":false,"rental_uris":{"android":"levelo://app?vid=e2605e88-9f7b-49cc-8a63-119a038d9512","ios":"levelo://app?vid=e2605e88-9f7b-49cc-8a63-119a038d9512"},"vehicle_type_id":"4","last_reported":1777389304,"current_range_meters":8000,"station_id":"","pricing_plan_id":"cebpf4jnsgd1na2vs0mg"},{"bike_id":"11effbb2-3489-4e85-aec9-0e018fcdcc03","system_id":"levelo_inurba_marseille","lat":43.23204,"lon":5.35539,"is_reserved":false,"is_disabled":false,"rental_uris":{"android":"levelo://app?vid=11effbb2-3489-4e85-aec9-0e018fcdcc03","ios":"levelo://app?vid=11effbb2-3489-4e85-aec9-0e018fcdcc03"},"vehicle_type_id":"4","last_reported":1777389304,"current_range_meters":8000,"station_id":"ce4bhu92rcd13ifvqi70","pricing_plan_id":"cebpf4jnsgd1na2vs0mg"},{"bike_id":"99806040-7827-4535-b5b8-d9980815d667","system_id":"levelo_inurba_marseille","lat":43.2318,"lon":5.399888,"is_reserved":false,"is_disabled":false,"rental_uris":{"android":"levelo://app?vid=99806040-7827-4535-b5b8-d9980815d667","ios":"levelo://app?vid=99806040-7827-4535-b5b8-d9980815d667"},"vehicle_type_id":"4","last_reported":1777389304,"current_range_meters":8000,"station_id":"ce4bhn12rcd13ifvqgqg","pricing_plan_id":"cebpf4jnsgd1na2vs0mg"},{"bike_id":"fd020a14-b34c-403f-8969-4cb137037c74","system_id":"levelo_inurba_marseille","lat":43.268914,"lon":5.393948,"is_reserved":false,"is_disabled":false,"rental_uris":{"android":"levelo://app?vid=fd020a14-b34c-403f-8969-4cb137037c74","ios":"levelo://app?vid=fd020a14-b34c-403f-8969-4cb137037c74"},"vehicle_type_id":"4","last_reported":1777389304,"current_range_meters":8000,"station_id":"ce4bhhp2rcd13ifvqfm0","pricing_plan_id":"cebpf4jnsgd1na2vs0mg"},{"bike_id":"e116e98a-e7c1-4e2d-9ae3-1a759c33b548","system_id":"levelo_inurba_marseille","lat":43.337444,"lon":5.374475,"is_reserved":false,"is_disabled":false,"rental_uris":{"android":"levelo://app?vid=e116e98a-e7c1-4e2d-9ae3-1a759c33b548","ios":"levelo://app?vid=e116e98a-e7c1-4e2d-9ae3-1a759c33b548"},"vehicle_type_id":"4","last_reported":1777389304,"current_range_meters":8400,"station_id":"ce4bgop2rcd13ifvqc1g","pricing_plan_id":"cebpf4jnsgd1na2vs0mg"},{"bike_id":"3c348b42-0419-4415-b03e-4a38ce3990cf","system_id":"levelo_inurba_marseille","lat":43.27309,"lon":5.39096,"is_reserved":false,"is_disabled":false,"rental_uris":{"android":"levelo://app?vid=3c348b42-0419-4415-b03e-4a38ce3990cf","ios":"levelo://app?vid=3c348b42-0419-4415-b03e-4a38ce3990cf"},"vehicle_type_id":"4","last_reported":1777389304,"current_range_meters":8400,"station_id":"ce4bhgp2rcd13ifvqfe0","pricing_plan_id":"cebpf4jnsgd1na2vs0mg"},{"bike_id":"e5bb7b36-3320-4743-b52a-1c2ce5d0f148","system_id":"levelo_inurba_marseille","lat":43.23891,"lon":5.37468,"is_reserved":false,"is_disabled":false,"rental_uris":{"android":"levelo://app?vid=e5bb7b36-3320-4743-b52a-1c2ce5d0f148","ios":"levelo://app?vid=e5bb7b36-3320-4743-b52a-1c2ce5d0f148"},"vehicle_type_id":"4","last_reported":1777389304,"current_range_meters":8400,"station_id":"st_d6sm7csbq4hs73f8fpjg","pricing_plan_id":"cebpf4jnsgd1na2vs0mg"},{"bike_id":"e43e6601-2e16-471e-8f57-8abf089d636b","system_id":"levelo_inurba_marseille","lat":43.24473,"lon":5.42531,"is_reserved":false,"is_disabled":false,"rental_uris":{"android":"levelo://app?vid=e43e6601-2e16-471e-8f57-8abf089d636b","ios":"levelo://app?vid=e43e6601-2e16-471e-8f57-8abf089d636b"},"vehicle_type_id":"4","last_reported":1777389304,"current_range_meters":8400,"station_id":"st_d4a3vfp97mjs738cd8kg","pricing_plan_id":"cebpf4jnsgd1na2vs0mg"},{"bike_id":"db1ce482-ff07-4fb2-8e49-d8c3019b11e0","system_id":"levelo_inurba_marseille","lat":43.27975,"lon":5.41696,"is_reserved":false,"is_disabled":false,"rental_uris":{"android":"levelo://app?vid=db1ce482-ff07-4fb2-8e49-d8c3019b11e0","ios":"levelo://app?vid=db1ce482-ff07-4fb2-8e49-d8c3019b11e0"},"vehicle_type_id":"4","last_reported":1777389304,"current_range_meters":8400,"station_id":"ce4bho12rcd13ifvqh1g","pricing_plan_id":"cebpf4jnsgd1na2vs0mg"},{"bike_id":"23b9edcd-305b-48b3-b42b-c5b2d1a2cdca","system_id":"levelo_inurba_marseille","lat":43.27057,"lon":5.38648,"is_reserved":false,"is_disabled":false,"rental_uris":{"android":"levelo://app?vid=23b9edcd-305b-48b3-b42b-c5b2d1a2cdca","ios":"levelo://app?vid=23b9edcd-305b-48b3-b42b-c5b2d1a2cdca"},"vehicle_type_id":"4","last_reported":1777389304,"current_range_meters":8400,"station_id":"","pricing_plan_id":"cebpf4jnsgd1na2vs0mg"},{"bike_id":"f88372a2-f96b-41c8-b0b7-34b97fcbebb0","system_id":"levelo_inurba_marseille","lat":43.28628,"lon":5.351,"is_reserved":false,"is_disabled":false,"rental_uris":{"android":"levelo://app?vid=f88372a2-f96b-41c8-b0b7-34b97fcbebb0","ios":"levelo://app?vid=f88372a2-f96b-41c8-b0b7-34b97fcbebb0"},"vehicle_type_id":"4","last_reported":1777389304,"current_range_meters":8400,"station_id":"ce4bhch2rcd13ifvqeug","pricing_plan_id":"cebpf4jnsgd1na2vs0mg"},{"bike_id":"be57065c-9113-4431-89ed-b5834dedae7a","system_id":"levelo_inurba_marseille","lat":43.28565,"lon":5.39493,"is_reserved":false,"is_disabled":false,"rental_uris":{"android":"levelo://app?vid=be57065c-9113-4431-89ed-b5834dedae7a","ios":"levelo://app?vid=be57065c-9113-4431-89ed-b5834dedae7a"},"vehicle_type_id":"4","last_reported":1777389304,"current_range_meters":8400,"station_id":"ce4bh292rcd13ifvqdg0","pricing_plan_id":"cebpf4jnsgd1na2vs0mg"},{"bike_id":"4482accb-bd68-4c83-996a-e7415825adf0","system_id":"levelo_inurba_marseille","lat":43.31271,"lon":5.40175,"is_reserved":false,"is_disabled":false,"rental_uris":{"android":"levelo://app?vid=4482accb-bd68-4c83-996a-e7415825adf0","ios":"levelo://app?vid=4482accb-bd68-4c83-996a-e7415825adf0"},"vehicle_type_id":"4","last_reported":1777389304,"current_range_meters":8400,"station_id":"ce4bh092rcd13ifvqd30","pricing_plan_id":"cebpf4jnsgd1na2vs0mg"},{"bike_id":"8ddf78e6-7053-4f51-a052-cbf410efa6bf","system_id":"levelo_inurba_marseille","lat":43.31204,"lon":5.36862,"is_reserved":false,"is_disabled":false,"rental_uris":{"android":"levelo://app?vid=8ddf78e6-7053-4f51-a052-cbf410efa6bf","ios":"levelo://app?vid=8ddf78e6-7053-4f51-a052-cbf410efa6bf"},"vehicle_type_id":"4","last_reported":1777389304,"current_range_meters":8400,"station_id":"ce4bgl92rcd13ifvqbq0","pricing_plan_id":"cebpf4jnsgd1na2vs0mg"},{"bike_id":"ca5a9035-6738-4107-85f6-246dcd332345","system_id":"levelo_inurba_marseille","lat":43.26932,"lon":5.40267,"is_reserved":false,"is_disabled":false,"rental_uris":{"android":"levelo://app?vid=ca5a9035-6738-4107-85f6-246dcd332345","ios":"levelo://app?vid=ca5a9035-6738-4107-85f6-246dcd332345"},"vehicle_type_id":"4","last_reported":1777389304,"current_range_meters":8400,"station_id":"cjm6bp8fraef2m0cb0m0","pricing_plan_id":"cebpf4jnsgd1na2vs0mg"},{"bike_id":"ba8f88d0-eff0-482e-bdf6-248ce15d8bea","system_id":"levelo_inurba_marseille","lat":43.28257,"lon":5.35082,"is_reserved":false,"is_disabled":false,"rental_uris":{"android":"levelo://app?vid=ba8f88d0-eff0-482e-bdf6-248ce15d8bea","ios":"levelo://app?vid=ba8f88d0-eff0-482e-bdf6-248ce15d8bea"},"vehicle_type_id":"4","last_reported":1777389304,"current_range_meters":8400,"station_id":"ce4bhbp2rcd13ifvqerg","pricing_plan_id":"cebpf4jnsgd1na2vs0mg"},{"bike_id":"ccc64b12-fba8-4953-9e4c-789c15629674","system_id":"levelo_inurba_marseille","lat":43.23202,"lon":5.35072,"is_reserved":false,"is_disabled":false,"rental_uris":{"android":"levelo://app?vid=ccc64b12-fba8-4953-9e4c-789c15629674","ios":"levelo://app?vid=ccc64b12-fba8-4953-9e4c-789c15629674"},"vehicle_type_id":"4","last_reported":1777389304,"current_range_meters":8400,"station_id":"","pricing_plan_id":"cebpf4jnsgd1na2vs0mg"},{"bike_id":"935ae631-62e5-4693-b535-9dd7bdb514c3","system_id":"levelo_inurba_marseille","lat":43.29714,"lon":5.37675,"is_reserved":false,"is_disabled":false,"rental_uris":{"android":"levelo://app?vid=935ae631-62e5-4693-b535-9dd7bdb514c3","ios":"levelo://app?vid=935ae631-62e5-4693-b535-9dd7bdb514c3"},"vehicle_type_id":"4","last_reported":1777389304,"current_range_meters":8400,"station_id":"ce4bgkh2rcd13ifvqbl0","pricing_plan_id":"cebpf4jnsgd1na2vs0mg"},{"bike_id":"7411c997-4373-4930-94c6-bccc1a2fb4d9","system_id":"levelo_inurba_marseille","lat":43.30284,"lon":5.39925,"is_reserved":false,"is_disabled":false,"rental_uris":{"android":"levelo://app?vid=7411c997-4373-4930-94c6-bccc1a2fb4d9","ios":"levelo://app?vid=7411c997-4373-4930-94c6-bccc1a2fb4d9"},"vehicle_type_id":"4","last_reported":1777389304,"current_range_meters":8400,"station_id":"","pricing_plan_id":"cebpf4jnsgd1na2vs0mg"},{"bike_id":"568bd8fe-96e7-452e-a8f4-75da606f1240","system_id":"levelo_inurba_marseille","lat":43.23177,"lon":5.40045,"is_reserved":false,"is_disabled":false,"rental_uris":{"android":"levelo://app?vid=568bd8fe-96e7-452e-a8f4-75da606f1240","ios":"levelo://app?vid=568bd8fe-96e7-452e-a8f4-75da606f1240"},"vehicle_type_id":"4","last_reported":1777389304,"current_range_meters":8400,"station_id":"ce4bhn12rcd13ifvqgqg","pricing_plan_id":"cebpf4jnsgd1na2vs0mg"},{"bike_id":"f6a7d8d6-54c5-4d47-afbf-ba33f0821af9","system_id":"levelo_inurba_marseille","lat":43.246638,"lon":5.381571,"is_reserved":false,"is_disabled":false,"rental_uris":{"android":"levelo://app?vid=f6a7d8d6-54c5-4d47-afbf-ba33f0821af9","ios":"levelo://app?vid=f6a7d8d6-54c5-4d47-afbf-ba33f0821af9"},"vehicle_type_id":"4","last_reported":1777389304,"current_range_meters":8400,"station_id":"ce4bhih2rcd13ifvqfr0","pricing_plan_id":"cebpf4jnsgd1na2vs0mg"},{"bike_id":"7eecf6b1-8045-4ef8-ad93-b20dd9fba8d6","system_id":"levelo_inurba_marseille","lat":43.29623,"lon":5.37197,"is_reserved":false,"is_disabled":false,"rental_uris":{"android":"levelo://app?vid=7eecf6b1-8045-4ef8-ad93-b20dd9fba8d6","ios":"levelo://app?vid=7eecf6b1-8045-4ef8-ad93-b20dd9fba8d6"},"vehicle_type_id":"4","last_reported":1777389304,"current_range_meters":8800,"station_id":"ce4bgnh2rcd13ifvqc0g","pricing_plan_id":"cebpf4jnsgd1na2vs0mg"},{"bike_id":"08c5f967-9902-415b-910a-2806bfada4ef","system_id":"levelo_inurba_marseille","lat":43.24986,"lon":5.38951,"is_reserved":false,"is_disabled":false,"rental_uris":{"android":"levelo://app?vid=08c5f967-9902-415b-910a-2806bfada4ef","ios":"levelo://app?vid=08c5f967-9902-415b-910a-2806bfada4ef"},"vehicle_type_id":"4","last_reported":1777389304,"current_range_meters":8800,"station_id":"ce4bhgp2rcd13ifvqfd0","pricing_plan_id":"cebpf4jnsgd1na2vs0mg"},{"bike_id":"879e92af-a08b-4550-983a-fe38aeb5346f","system_id":"levelo_inurba_marseille","lat":43.32475,"lon":5.36552,"is_reserved":false,"is_disabled":false,"rental_uris":{"android":"levelo://app?vid=879e92af-a08b-4550-983a-fe38aeb5346f","ios":"levelo://app?vid=879e92af-a08b-4550-983a-fe38aeb5346f"},"vehicle_type_id":"4","last_reported":1777389304,"current_range_meters":8800,"station_id":"ce4bhs12rcd13ifvqhvg","pricing_plan_id":"cebpf4jnsgd1na2vs0mg"},{"bike_id":"c66f0dc9-c7b0-4370-a87a-7a5a98d6427e","system_id":"levelo_inurba_marseille","lat":43.27223,"lon":5.39204,"is_reserved":false,"is_disabled":false,"rental_uris":{"android":"levelo://app?vid=c66f0dc9-c7b0-4370-a87a-7a5a98d6427e","ios":"levelo://app?vid=c66f0dc9-c7b0-4370-a87a-7a5a98d6427e"},"vehicle_type_id":"4","last_reported":1777389304,"current_range_meters":8800,"station_id":"ce4bhhp2rcd13ifvqfm0","pricing_plan_id":"cebpf4jnsgd1na2vs0mg"},{"bike_id":"c5fb7c9c-a63a-49a1-8aed-b33f29d7e52d","system_id":"levelo_inurba_marseille","lat":43.24653,"lon":5.38914,"is_reserved":false,"is_disabled":false,"rental_uris":{"android":"levelo://app?vid=c5fb7c9c-a63a-49a1-8aed-b33f29d7e52d","ios":"levelo://app?vid=c5fb7c9c-a63a-49a1-8aed-b33f29d7e52d"},"vehicle_type_id":"4","last_reported":1777389304,"current_range_meters":8800,"station_id":"ce4bhg12rcd13ifvqf60","pricing_plan_id":"cebpf4jnsgd1na2vs0mg"},{"bike_id":"493cff01-3102-4562-ad75-78ad26b4d668","system_id":"levelo_inurba_marseille","lat":43.28917,"lon":5.38411,"is_reserved":false,"is_disabled":false,"rental_uris":{"android":"levelo://app?vid=493cff01-3102-4562-ad75-78ad26b4d668","ios":"levelo://app?vid=493cff01-3102-4562-ad75-78ad26b4d668"},"vehicle_type_id":"4","last_reported":1777389304,"current_range_meters":8800,"station_id":"ce4bh612rcd13ifvqe6g","pricing_plan_id":"cebpf4jnsgd1na2vs0mg"},{"bike_id":"e03a9553-f014-4591-84d1-bb481db182e5","system_id":"levelo_inurba_marseille","lat":43.28698,"lon":5.46702,"is_reserved":false,"is_disabled":false,"rental_uris":{"android":"levelo://app?vid=e03a9553-f014-4591-84d1-bb481db182e5","ios":"levelo://app?vid=e03a9553-f014-4591-84d1-bb481db182e5"},"vehicle_type_id":"4","last_reported":1777389304,"current_range_meters":8800,"station_id":"st_d6tc3vkotcvc738tfjhg","pricing_plan_id":"cebpf4jnsgd1na2vs0mg"},{"bike_id":"5cf5cac4-304b-4407-a8e5-357d3ab6bc0b","system_id":"levelo_inurba_marseille","lat":43.23896,"lon":5.37464,"is_reserved":false,"is_disabled":true,"rental_uris":{"android":"levelo://app?vid=5cf5cac4-304b-4407-a8e5-357d3ab6bc0b","ios":"levelo://app?vid=5cf5cac4-304b-4407-a8e5-357d3ab6bc0b"},"vehicle_type_id":"4","last_reported":1777389304,"current_range_meters":8800,"station_id":"st_d6sm7csbq4hs73f8fpjg","pricing_plan_id":"cebpf4jnsgd1na2vs0mg"},{"bike_id":"89b1e261-8bd7-4505-9408-5d07ec998890","system_id":"levelo_inurba_marseille","lat":43.26763,"lon":5.39422,"is_reserved":false,"is_disabled":false,"rental_uris":{"android":"levelo://app?vid=89b1e261-8bd7-4505-9408-5d07ec998890","ios":"levelo://app?vid=89b1e261-8bd7-4505-9408-5d07ec998890"},"vehicle_type_id":"4","last_reported":1777389304,"current_range_meters":8800,"station_id":"ce4bhip2rcd13ifvqft0","pricing_plan_id":"cebpf4jnsgd1na2vs0mg"},{"bike_id":"ef809088-19f7-4902-a559-51469dadba8c","system_id":"levelo_inurba_marseille","lat":43.27086,"lon":5.39101,"is_reserved":false,"is_disabled":false,"rental_uris":{"android":"levelo://app?vid=ef809088-19f7-4902-a559-51469dadba8c","ios":"levelo://app?vid=ef809088-19f7-4902-a559-51469dadba8c"},"vehicle_type_id":"4","last_reported":1777389304,"current_range_meters":8800,"station_id":"","pricing_plan_id":"cebpf4jnsgd1na2vs0mg"},{"bike_id":"f11e3633-986d-40f4-8b5f-6b5e41220dfc","system_id":"levelo_inurba_marseille","lat":43.31892,"lon":5.36807,"is_reserved":false,"is_disabled":false,"rental_uris":{"android":"levelo://app?vid=f11e3633-986d-40f4-8b5f-6b5e41220dfc","ios":"levelo://app?vid=f11e3633-986d-40f4-8b5f-6b5e41220dfc"},"vehicle_type_id":"4","last_reported":1777389304,"current_range_meters":8800,"station_id":"st_d6o2h0d0559c73evc1b0","pricing_plan_id":"cebpf4jnsgd1na2vs0mg"},{"bike_id":"97101e97-9dc1-46b9-aa51-c662f292853d","system_id":"levelo_inurba_marseille","lat":43.28145,"lon":5.4265,"is_reserved":false,"is_disabled":false,"rental_uris":{"android":"levelo://app?vid=97101e97-9dc1-46b9-aa51-c662f292853d","ios":"levelo://app?vid=97101e97-9dc1-46b9-aa51-c662f292853d"},"vehicle_type_id":"4","last_reported":1777389304,"current_range_meters":8800,"station_id":"ce4bhnh2rcd13ifvqgug","pricing_plan_id":"cebpf4jnsgd1na2vs0mg"},{"bike_id":"04d07930-42f0-4c92-9bce-6eaea7bbfac2","system_id":"levelo_inurba_marseille","lat":43.2959,"lon":5.38278,"is_reserved":false,"is_disabled":false,"rental_uris":{"android":"levelo://app?vid=04d07930-42f0-4c92-9bce-6eaea7bbfac2","ios":"levelo://app?vid=04d07930-42f0-4c92-9bce-6eaea7bbfac2"},"vehicle_type_id":"4","last_reported":1777389304,"current_range_meters":8800,"station_id":"","pricing_plan_id":"cebpf4jnsgd1na2vs0mg"},{"bike_id":"7fc1d52c-9c0a-472a-89bb-b88c172332d7","system_id":"levelo_inurba_marseille","lat":43.26771,"lon":5.39424,"is_reserved":false,"is_disabled":false,"rental_uris":{"android":"levelo://app?vid=7fc1d52c-9c0a-472a-89bb-b88c172332d7","ios":"levelo://app?vid=7fc1d52c-9c0a-472a-89bb-b88c172332d7"},"vehicle_type_id":"4","last_reported":1777389304,"current_range_meters":8800,"station_id":"ce4bhh12rcd13ifvqfg0","pricing_plan_id":"cebpf4jnsgd1na2vs0mg"},{"bike_id":"f85937b2-0ec4-4bc0-9c45-454acbb4424f","system_id":"levelo_inurba_marseille","lat":43.24941,"lon":5.40486,"is_reserved":false,"is_disabled":false,"rental_uris":{"android":"levelo://app?vid=f85937b2-0ec4-4bc0-9c45-454acbb4424f","ios":"levelo://app?vid=f85937b2-0ec4-4bc0-9c45-454acbb4424f"},"vehicle_type_id":"4","last_reported":1777389304,"current_range_meters":8800,"station_id":"st_d2ngiaodas8pm72gd1h0","pricing_plan_id":"cebpf4jnsgd1na2vs0mg"},{"bike_id":"fadbd9a5-2a49-4734-8db0-528994d97e40","system_id":"levelo_inurba_marseille","lat":43.29272,"lon":5.38362,"is_reserved":false,"is_disabled":false,"rental_uris":{"android":"levelo://app?vid=fadbd9a5-2a49-4734-8db0-528994d97e40","ios":"levelo://app?vid=fadbd9a5-2a49-4734-8db0-528994d97e40"},"vehicle_type_id":"4","last_reported":1777389304,"current_range_meters":8800,"station_id":"","pricing_plan_id":"cebpf4jnsgd1na2vs0mg"},{"bike_id":"5cd5dbc3-5780-42d7-96f3-a9ba0e928b8b","system_id":"levelo_inurba_marseille","lat":43.2861,"lon":5.37063,"is_reserved":false,"is_disabled":false,"rental_uris":{"android":"levelo://app?vid=5cd5dbc3-5780-42d7-96f3-a9ba0e928b8b","ios":"levelo://app?vid=5cd5dbc3-5780-42d7-96f3-a9ba0e928b8b"},"vehicle_type_id":"4","last_reported":1777389304,"current_range_meters":8800,"station_id":"ce4bht12rcd13ifvqi60","pricing_plan_id":"cebpf4jnsgd1na2vs0mg"},{"bike_id":"907b8f69-300c-4bd7-83bd-d4bf994973c9","system_id":"levelo_inurba_marseille","lat":43.30534,"lon":5.38425,"is_reserved":false,"is_disabled":false,"rental_uris":{"android":"levelo://app?vid=907b8f69-300c-4bd7-83bd-d4bf994973c9","ios":"levelo://app?vid=907b8f69-300c-4bd7-83bd-d4bf994973c9"},"vehicle_type_id":"4","last_reported":1777389304,"current_range_meters":8800,"station_id":"ce4bgg92rcd13ifvqb30","pricing_plan_id":"cebpf4jnsgd1na2vs0mg"},{"bike_id":"04ad3113-27a5-48ea-ae18-79eeaf0717d1","system_id":"levelo_inurba_marseille","lat":43.3034,"lon":5.41906,"is_reserved":false,"is_disabled":false,"rental_uris":{"android":"levelo://app?vid=04ad3113-27a5-48ea-ae18-79eeaf0717d1","ios":"levelo://app?vid=04ad3113-27a5-48ea-ae18-79eeaf0717d1"},"vehicle_type_id":"4","last_reported":1777389304,"current_range_meters":8800,"station_id":"ce4bhop2rcd13ifvqh7g","pricing_plan_id":"cebpf4jnsgd1na2vs0mg"},{"bike_id":"b43a56db-83cb-4005-b7c5-80087dffb94a","system_id":"levelo_inurba_marseille","lat":43.28694,"lon":5.46687,"is_reserved":false,"is_disabled":false,"rental_uris":{"android":"levelo://app?vid=b43a56db-83cb-4005-b7c5-80087dffb94a","ios":"levelo://app?vid=b43a56db-83cb-4005-b7c5-80087dffb94a"},"vehicle_type_id":"4","last_reported":1777389304,"current_range_meters":8800,"station_id":"st_d6tc3vkotcvc738tfjhg","pricing_plan_id":"cebpf4jnsgd1na2vs0mg"},{"bike_id":"bce10e63-f19e-4c3b-aaf0-cbc62b05f608","system_id":"levelo_inurba_marseille","lat":43.29278,"lon":5.3684,"is_reserved":false,"is_disabled":false,"rental_uris":{"android":"levelo://app?vid=bce10e63-f19e-4c3b-aaf0-cbc62b05f608","ios":"levelo://app?vid=bce10e63-f19e-4c3b-aaf0-cbc62b05f608"},"vehicle_type_id":"4","last_reported":1777389304,"current_range_meters":8800,"station_id":"ce4bhbp2rcd13ifvqesg","pricing_plan_id":"cebpf4jnsgd1na2vs0mg"},{"bike_id":"475b56ab-fd61-45ae-be40-05696313ed1d","system_id":"levelo_inurba_marseille","lat":43.29415,"lon":5.40179,"is_reserved":false,"is_disabled":true,"rental_uris":{"android":"levelo://app?vid=475b56ab-fd61-45ae-be40-05696313ed1d","ios":"levelo://app?vid=475b56ab-fd61-45ae-be40-05696313ed1d"},"vehicle_type_id":"4","last_reported":1777389304,"current_range_meters":8800,"station_id":"","pricing_plan_id":"cebpf4jnsgd1na2vs0mg"},{"bike_id":"a0faf62e-3fd3-41e6-8c3f-14765bb7d79d","system_id":"levelo_inurba_marseille","lat":43.29607,"lon":5.38017,"is_reserved":false,"is_disabled":false,"rental_uris":{"android":"levelo://app?vid=a0faf62e-3fd3-41e6-8c3f-14765bb7d79d","ios":"levelo://app?vid=a0faf62e-3fd3-41e6-8c3f-14765bb7d79d"},"vehicle_type_id":"4","last_reported":1777389304,"current_range_meters":8800,"station_id":"","pricing_plan_id":"cebpf4jnsgd1na2vs0mg"},{"bike_id":"b9c0ca4a-61af-4a0b-994f-7b554a71a91c","system_id":"levelo_inurba_marseille","lat":43.32365,"lon":5.36765,"is_reserved":false,"is_disabled":false,"rental_uris":{"android":"levelo://app?vid=b9c0ca4a-61af-4a0b-994f-7b554a71a91c","ios":"levelo://app?vid=b9c0ca4a-61af-4a0b-994f-7b554a71a91c"},"vehicle_type_id":"4","last_reported":1777389304,"current_range_meters":9200,"station_id":"ce4bhsh2rcd13ifvqi2g","pricing_plan_id":"cebpf4jnsgd1na2vs0mg"},{"bike_id":"28ec2429-3fba-4d12-a270-2f969e1eada4","system_id":"levelo_inurba_marseille","lat":43.24574,"lon":5.39354,"is_reserved":false,"is_disabled":false,"rental_uris":{"android":"levelo://app?vid=28ec2429-3fba-4d12-a270-2f969e1eada4","ios":"levelo://app?vid=28ec2429-3fba-4d12-a270-2f969e1eada4"},"vehicle_type_id":"4","last_reported":1777389304,"current_range_meters":9200,"station_id":"","pricing_plan_id":"cebpf4jnsgd1na2vs0mg"},{"bike_id":"5e661e87-328d-4b0e-b81c-5d79e82ca1eb","system_id":"levelo_inurba_marseille","lat":43.30558,"lon":5.36534,"is_reserved":false,"is_disabled":false,"rental_uris":{"android":"levelo://app?vid=5e661e87-328d-4b0e-b81c-5d79e82ca1eb","ios":"levelo://app?vid=5e661e87-328d-4b0e-b81c-5d79e82ca1eb"},"vehicle_type_id":"4","last_reported":1777389304,"current_range_meters":9200,"station_id":"ce4bgs12rcd13ifvqcag","pricing_plan_id":"cebpf4jnsgd1na2vs0mg"},{"bike_id":"c2fcc733-6492-4678-b97d-3fc84d1b63ea","system_id":"levelo_inurba_marseille","lat":43.3088,"lon":5.36915,"is_reserved":false,"is_disabled":false,"rental_uris":{"android":"levelo://app?vid=c2fcc733-6492-4678-b97d-3fc84d1b63ea","ios":"levelo://app?vid=c2fcc733-6492-4678-b97d-3fc84d1b63ea"},"vehicle_type_id":"4","last_reported":1777389304,"current_range_meters":9200,"station_id":"ce4bgn92rcd13ifvqbvg","pricing_plan_id":"cebpf4jnsgd1na2vs0mg"},{"bike_id":"ee5bca21-2a39-4c24-aced-c94d2451e251","system_id":"levelo_inurba_marseille","lat":43.27982,"lon":5.41663,"is_reserved":false,"is_disabled":false,"rental_uris":{"android":"levelo://app?vid=ee5bca21-2a39-4c24-aced-c94d2451e251","ios":"levelo://app?vid=ee5bca21-2a39-4c24-aced-c94d2451e251"},"vehicle_type_id":"4","last_reported":1777389304,"current_range_meters":9200,"station_id":"ce4bho12rcd13ifvqh1g","pricing_plan_id":"cebpf4jnsgd1na2vs0mg"},{"bike_id":"d8ed8289-69e9-4e21-809b-47a820f4cbed","system_id":"levelo_inurba_marseille","lat":43.26679,"lon":5.38245,"is_reserved":false,"is_disabled":false,"rental_uris":{"android":"levelo://app?vid=d8ed8289-69e9-4e21-809b-47a820f4cbed","ios":"levelo://app?vid=d8ed8289-69e9-4e21-809b-47a820f4cbed"},"vehicle_type_id":"4","last_reported":1777389304,"current_range_meters":9200,"station_id":"ce4bhg92rcd13ifvqf90","pricing_plan_id":"cebpf4jnsgd1na2vs0mg"},{"bike_id":"dbf6c680-c4d9-4e99-a8ba-f7dffecd5f63","system_id":"levelo_inurba_marseille","lat":43.28401,"lon":5.34985,"is_reserved":false,"is_disabled":false,"rental_uris":{"android":"levelo://app?vid=dbf6c680-c4d9-4e99-a8ba-f7dffecd5f63","ios":"levelo://app?vid=dbf6c680-c4d9-4e99-a8ba-f7dffecd5f63"},"vehicle_type_id":"4","last_reported":1777389304,"current_range_meters":9200,"station_id":"ce4bhbh2rcd13ifvqepg","pricing_plan_id":"cebpf4jnsgd1na2vs0mg"},{"bike_id":"2a9f517f-dc7e-442a-8a6e-b3ad6200cb4e","system_id":"levelo_inurba_marseille","lat":43.33544,"lon":5.3747,"is_reserved":false,"is_disabled":false,"rental_uris":{"android":"levelo://app?vid=2a9f517f-dc7e-442a-8a6e-b3ad6200cb4e","ios":"levelo://app?vid=2a9f517f-dc7e-442a-8a6e-b3ad6200cb4e"},"vehicle_type_id":"4","last_reported":1777389304,"current_range_meters":9200,"station_id":"st_d46tts09ee8s73dlu43g","pricing_plan_id":"cebpf4jnsgd1na2vs0mg"},{"bike_id":"551fb928-5a73-4836-b1ea-10d1423d61d2","system_id":"levelo_inurba_marseille","lat":43.29543,"lon":5.3753,"is_reserved":false,"is_disabled":false,"rental_uris":{"android":"levelo://app?vid=551fb928-5a73-4836-b1ea-10d1423d61d2","ios":"levelo://app?vid=551fb928-5a73-4836-b1ea-10d1423d61d2"},"vehicle_type_id":"4","last_reported":1777389304,"current_range_meters":9200,"station_id":"ce4bgkp2rcd13ifvqbmg","pricing_plan_id":"cebpf4jnsgd1na2vs0mg"},{"bike_id":"6dd2e697-3a0f-4a5c-a252-0f78a8da15ff","system_id":"levelo_inurba_marseille","lat":43.30312,"lon":5.40415,"is_reserved":false,"is_disabled":false,"rental_uris":{"android":"levelo://app?vid=6dd2e697-3a0f-4a5c-a252-0f78a8da15ff","ios":"levelo://app?vid=6dd2e697-3a0f-4a5c-a252-0f78a8da15ff"},"vehicle_type_id":"4","last_reported":1777389304,"current_range_meters":9200,"station_id":"ce4bh012rcd13ifvqd10","pricing_plan_id":"cebpf4jnsgd1na2vs0mg"},{"bike_id":"eb59b8bd-6708-4da0-8ef0-b17fd5347d1d","system_id":"levelo_inurba_marseille","lat":43.31414,"lon":5.367,"is_reserved":false,"is_disabled":false,"rental_uris":{"android":"levelo://app?vid=eb59b8bd-6708-4da0-8ef0-b17fd5347d1d","ios":"levelo://app?vid=eb59b8bd-6708-4da0-8ef0-b17fd5347d1d"},"vehicle_type_id":"4","last_reported":1777389304,"current_range_meters":9200,"station_id":"ce4bgr92rcd13ifvqc6g","pricing_plan_id":"cebpf4jnsgd1na2vs0mg"},{"bike_id":"e7b31dfc-97b3-407b-b98b-bfc3b0ab51a8","system_id":"levelo_inurba_marseille","lat":43.28614,"lon":5.35096,"is_reserved":false,"is_disabled":false,"rental_uris":{"android":"levelo://app?vid=e7b31dfc-97b3-407b-b98b-bfc3b0ab51a8","ios":"levelo://app?vid=e7b31dfc-97b3-407b-b98b-bfc3b0ab51a8"},"vehicle_type_id":"4","last_reported":1777389304,"current_range_meters":9200,"station_id":"ce4bhch2rcd13ifvqeug","pricing_plan_id":"cebpf4jnsgd1na2vs0mg"},{"bike_id":"5a082d0b-9dcd-4b27-b749-e7a082c3a4b6","system_id":"levelo_inurba_marseille","lat":43.25143,"lon":5.40462,"is_reserved":false,"is_disabled":false,"rental_uris":{"android":"levelo://app?vid=5a082d0b-9dcd-4b27-b749-e7a082c3a4b6","ios":"levelo://app?vid=5a082d0b-9dcd-4b27-b749-e7a082c3a4b6"},"vehicle_type_id":"4","last_reported":1777389304,"current_range_meters":9200,"station_id":"","pricing_plan_id":"cebpf4jnsgd1na2vs0mg"},{"bike_id":"65010c6b-26f0-4ad8-b6d9-a2be7775660c","system_id":"levelo_inurba_marseille","lat":43.25569,"lon":5.38236,"is_reserved":false,"is_disabled":false,"rental_uris":{"android":"levelo://app?vid=65010c6b-26f0-4ad8-b6d9-a2be7775660c","ios":"levelo://app?vid=65010c6b-26f0-4ad8-b6d9-a2be7775660c"},"vehicle_type_id":"4","last_reported":1777389304,"current_range_meters":9200,"station_id":"ce4bhih2rcd13ifvqfs0","pricing_plan_id":"cebpf4jnsgd1na2vs0mg"},{"bike_id":"8fbc6a93-8abc-4a9f-8b89-895031d7e24b","system_id":"levelo_inurba_marseille","lat":43.28153,"lon":5.42648,"is_reserved":false,"is_disabled":false,"rental_uris":{"android":"levelo://app?vid=8fbc6a93-8abc-4a9f-8b89-895031d7e24b","ios":"levelo://app?vid=8fbc6a93-8abc-4a9f-8b89-895031d7e24b"},"vehicle_type_id":"4","last_reported":1777389304,"current_range_meters":9200,"station_id":"ce4bhnh2rcd13ifvqgug","pricing_plan_id":"cebpf4jnsgd1na2vs0mg"},{"bike_id":"10d9d9af-be00-44b0-bd43-45e7d48e4782","system_id":"levelo_inurba_marseille","lat":43.2998,"lon":5.38501,"is_reserved":false,"is_disabled":false,"rental_uris":{"android":"levelo://app?vid=10d9d9af-be00-44b0-bd43-45e7d48e4782","ios":"levelo://app?vid=10d9d9af-be00-44b0-bd43-45e7d48e4782"},"vehicle_type_id":"4","last_reported":1777389304,"current_range_meters":9200,"station_id":"ce4bgj92rcd13ifvqbd0","pricing_plan_id":"cebpf4jnsgd1na2vs0mg"},{"bike_id":"b2f4375d-7e08-4ebd-b4b6-9f49c6fdecbb","system_id":"levelo_inurba_marseille","lat":43.21191,"lon":5.3507,"is_reserved":false,"is_disabled":false,"rental_uris":{"android":"levelo://app?vid=b2f4375d-7e08-4ebd-b4b6-9f49c6fdecbb","ios":"levelo://app?vid=b2f4375d-7e08-4ebd-b4b6-9f49c6fdecbb"},"vehicle_type_id":"4","last_reported":1777389304,"current_range_meters":9200,"station_id":"st_cvj6sg6p6f1abm77japg","pricing_plan_id":"cebpf4jnsgd1na2vs0mg"},{"bike_id":"ffc11b00-8bc8-4883-aaba-f8ff40da66ad","system_id":"levelo_inurba_marseille","lat":43.28077,"lon":5.39661,"is_reserved":false,"is_disabled":false,"rental_uris":{"android":"levelo://app?vid=ffc11b00-8bc8-4883-aaba-f8ff40da66ad","ios":"levelo://app?vid=ffc11b00-8bc8-4883-aaba-f8ff40da66ad"},"vehicle_type_id":"4","last_reported":1777389304,"current_range_meters":9200,"station_id":"ce4bho12rcd13ifvqh2g","pricing_plan_id":"cebpf4jnsgd1na2vs0mg"},{"bike_id":"870cf028-d317-4365-88b3-cfc8b2733cc6","system_id":"levelo_inurba_marseille","lat":43.28709,"lon":5.46649,"is_reserved":false,"is_disabled":false,"rental_uris":{"android":"levelo://app?vid=870cf028-d317-4365-88b3-cfc8b2733cc6","ios":"levelo://app?vid=870cf028-d317-4365-88b3-cfc8b2733cc6"},"vehicle_type_id":"4","last_reported":1777389304,"current_range_meters":9600,"station_id":"st_d6tc3vkotcvc738tfjhg","pricing_plan_id":"cebpf4jnsgd1na2vs0mg"},{"bike_id":"752a708a-d32b-4493-9075-adb254f815d8","system_id":"levelo_inurba_marseille","lat":43.2973,"lon":5.37695,"is_reserved":false,"is_disabled":false,"rental_uris":{"android":"levelo://app?vid=752a708a-d32b-4493-9075-adb254f815d8","ios":"levelo://app?vid=752a708a-d32b-4493-9075-adb254f815d8"},"vehicle_type_id":"4","last_reported":1777389304,"current_range_meters":9600,"station_id":"ce4bgkh2rcd13ifvqbl0","pricing_plan_id":"cebpf4jnsgd1na2vs0mg"},{"bike_id":"1e712c63-873e-4843-a64f-c213ea063b7b","system_id":"levelo_inurba_marseille","lat":43.31358,"lon":5.36773,"is_reserved":false,"is_disabled":false,"rental_uris":{"android":"levelo://app?vid=1e712c63-873e-4843-a64f-c213ea063b7b","ios":"levelo://app?vid=1e712c63-873e-4843-a64f-c213ea063b7b"},"vehicle_type_id":"4","last_reported":1777389304,"current_range_meters":9600,"station_id":"","pricing_plan_id":"cebpf4jnsgd1na2vs0mg"},{"bike_id":"c5d87c94-f8c8-47f4-ae84-ea0b6e6ae165","system_id":"levelo_inurba_marseille","lat":43.2627,"lon":5.38915,"is_reserved":false,"is_disabled":false,"rental_uris":{"android":"levelo://app?vid=c5d87c94-f8c8-47f4-ae84-ea0b6e6ae165","ios":"levelo://app?vid=c5d87c94-f8c8-47f4-ae84-ea0b6e6ae165"},"vehicle_type_id":"4","last_reported":1777389304,"current_range_meters":9600,"station_id":"","pricing_plan_id":"cebpf4jnsgd1na2vs0mg"},{"bike_id":"44620b1b-5f85-41e4-9394-c720a89b90ed","system_id":"levelo_inurba_marseille","lat":43.32079,"lon":5.41519,"is_reserved":false,"is_disabled":false,"rental_uris":{"android":"levelo://app?vid=44620b1b-5f85-41e4-9394-c720a89b90ed","ios":"levelo://app?vid=44620b1b-5f85-41e4-9394-c720a89b90ed"},"vehicle_type_id":"4","last_reported":1777389304,"current_range_meters":9600,"station_id":"","pricing_plan_id":"cebpf4jnsgd1na2vs0mg"},{"bike_id":"0d6f77c7-809a-415f-98db-4cd81f02eafb","system_id":"levelo_inurba_marseille","lat":43.23964,"lon":5.36634,"is_reserved":false,"is_disabled":false,"rental_uris":{"android":"levelo://app?vid=0d6f77c7-809a-415f-98db-4cd81f02eafb","ios":"levelo://app?vid=0d6f77c7-809a-415f-98db-4cd81f02eafb"},"vehicle_type_id":"4","last_reported":1777389304,"current_range_meters":9600,"station_id":"ce4bhi12rcd13ifvqfp0","pricing_plan_id":"cebpf4jnsgd1na2vs0mg"},{"bike_id":"2918ec89-555e-45a0-8785-863a2c165390","system_id":"levelo_inurba_marseille","lat":43.31206,"lon":5.36844,"is_reserved":false,"is_disabled":false,"rental_uris":{"android":"levelo://app?vid=2918ec89-555e-45a0-8785-863a2c165390","ios":"levelo://app?vid=2918ec89-555e-45a0-8785-863a2c165390"},"vehicle_type_id":"4","last_reported":1777389304,"current_range_meters":9600,"station_id":"ce4bgl92rcd13ifvqbq0","pricing_plan_id":"cebpf4jnsgd1na2vs0mg"},{"bike_id":"5b2cf4c1-5f8e-4fd9-a316-b3eadab7af3f","system_id":"levelo_inurba_marseille","lat":43.278832,"lon":5.409957,"is_reserved":false,"is_disabled":false,"rental_uris":{"android":"levelo://app?vid=5b2cf4c1-5f8e-4fd9-a316-b3eadab7af3f","ios":"levelo://app?vid=5b2cf4c1-5f8e-4fd9-a316-b3eadab7af3f"},"vehicle_type_id":"4","last_reported":1777389304,"current_range_meters":9600,"station_id":"ce4bhnp2rcd13ifvqh0g","pricing_plan_id":"cebpf4jnsgd1na2vs0mg"},{"bike_id":"1f4207bc-4da1-45d4-b369-68ef19d67ec4","system_id":"levelo_inurba_marseille","lat":43.31232,"lon":5.36865,"is_reserved":false,"is_disabled":false,"rental_uris":{"android":"levelo://app?vid=1f4207bc-4da1-45d4-b369-68ef19d67ec4","ios":"levelo://app?vid=1f4207bc-4da1-45d4-b369-68ef19d67ec4"},"vehicle_type_id":"4","last_reported":1777389304,"current_range_meters":9600,"station_id":"ce4bgl92rcd13ifvqbq0","pricing_plan_id":"cebpf4jnsgd1na2vs0mg"},{"bike_id":"edb13e5e-a37e-472e-9d77-0f99dc44a578","system_id":"levelo_inurba_marseille","lat":43.28102,"lon":5.37837,"is_reserved":false,"is_disabled":false,"rental_uris":{"android":"levelo://app?vid=edb13e5e-a37e-472e-9d77-0f99dc44a578","ios":"levelo://app?vid=edb13e5e-a37e-472e-9d77-0f99dc44a578"},"vehicle_type_id":"4","last_reported":1777389304,"current_range_meters":9600,"station_id":"ce4bha12rcd13ifvqee0","pricing_plan_id":"cebpf4jnsgd1na2vs0mg"},{"bike_id":"2c0808ca-959e-46d2-bd7d-5fa523a2fa9a","system_id":"levelo_inurba_marseille","lat":43.30642,"lon":5.43635,"is_reserved":false,"is_disabled":false,"rental_uris":{"android":"levelo://app?vid=2c0808ca-959e-46d2-bd7d-5fa523a2fa9a","ios":"levelo://app?vid=2c0808ca-959e-46d2-bd7d-5fa523a2fa9a"},"vehicle_type_id":"4","last_reported":1777389304,"current_range_meters":9600,"station_id":"","pricing_plan_id":"cebpf4jnsgd1na2vs0mg"},{"bike_id":"ef2f410f-463c-4127-8f21-3ae500dd4eda","system_id":"levelo_inurba_marseille","lat":43.28401,"lon":5.37506,"is_reserved":false,"is_disabled":true,"rental_uris":{"android":"levelo://app?vid=ef2f410f-463c-4127-8f21-3ae500dd4eda","ios":"levelo://app?vid=ef2f410f-463c-4127-8f21-3ae500dd4eda"},"vehicle_type_id":"4","last_reported":1777389304,"current_range_meters":9600,"station_id":"ce4bh412rcd13ifvqds0","pricing_plan_id":"cebpf4jnsgd1na2vs0mg"},{"bike_id":"5d411e32-c60a-4019-935b-8e92970257cd","system_id":"levelo_inurba_marseille","lat":43.28415,"lon":5.34993,"is_reserved":false,"is_disabled":false,"rental_uris":{"android":"levelo://app?vid=5d411e32-c60a-4019-935b-8e92970257cd","ios":"levelo://app?vid=5d411e32-c60a-4019-935b-8e92970257cd"},"vehicle_type_id":"4","last_reported":1777389304,"current_range_meters":9600,"station_id":"ce4bhbh2rcd13ifvqepg","pricing_plan_id":"cebpf4jnsgd1na2vs0mg"},{"bike_id":"14015fc9-b839-4138-b4d5-9a2f5afbe521","system_id":"levelo_inurba_marseille","lat":43.29162,"lon":5.42666,"is_reserved":false,"is_disabled":false,"rental_uris":{"android":"levelo://app?vid=14015fc9-b839-4138-b4d5-9a2f5afbe521","ios":"levelo://app?vid=14015fc9-b839-4138-b4d5-9a2f5afbe521"},"vehicle_type_id":"4","last_reported":1777389304,"current_range_meters":9600,"station_id":"","pricing_plan_id":"cebpf4jnsgd1na2vs0mg"},{"bike_id":"a80a75a8-d628-41b3-9fab-8b5e6dbd87e7","system_id":"levelo_inurba_marseille","lat":43.30594,"lon":5.37235,"is_reserved":false,"is_disabled":false,"rental_uris":{"android":"levelo://app?vid=a80a75a8-d628-41b3-9fab-8b5e6dbd87e7","ios":"levelo://app?vid=a80a75a8-d628-41b3-9fab-8b5e6dbd87e7"},"vehicle_type_id":"4","last_reported":1777389304,"current_range_meters":9600,"station_id":"ce4bgqh2rcd13ifvqc4g","pricing_plan_id":"cebpf4jnsgd1na2vs0mg"},{"bike_id":"c45111f7-227b-46ac-8496-6dcaf9e5f34b","system_id":"levelo_inurba_marseille","lat":43.28965,"lon":5.39703,"is_reserved":false,"is_disabled":false,"rental_uris":{"android":"levelo://app?vid=c45111f7-227b-46ac-8496-6dcaf9e5f34b","ios":"levelo://app?vid=c45111f7-227b-46ac-8496-6dcaf9e5f34b"},"vehicle_type_id":"4","last_reported":1777389304,"current_range_meters":9600,"station_id":"ce4bh3h2rcd13ifvqdn0","pricing_plan_id":"cebpf4jnsgd1na2vs0mg"},{"bike_id":"db3bdcf0-2fad-47e2-8f97-20b5fc43e7fd","system_id":"levelo_inurba_marseille","lat":43.2417,"lon":5.3641,"is_reserved":false,"is_disabled":false,"rental_uris":{"android":"levelo://app?vid=db3bdcf0-2fad-47e2-8f97-20b5fc43e7fd","ios":"levelo://app?vid=db3bdcf0-2fad-47e2-8f97-20b5fc43e7fd"},"vehicle_type_id":"4","last_reported":1777389304,"current_range_meters":10000,"station_id":"cpo36qri1sfpv3e86is0","pricing_plan_id":"cebpf4jnsgd1na2vs0mg"},{"bike_id":"7c7b6e2a-3046-445b-afcd-ff459f2d49a5","system_id":"levelo_inurba_marseille","lat":43.29971,"lon":5.38494,"is_reserved":false,"is_disabled":false,"rental_uris":{"android":"levelo://app?vid=7c7b6e2a-3046-445b-afcd-ff459f2d49a5","ios":"levelo://app?vid=7c7b6e2a-3046-445b-afcd-ff459f2d49a5"},"vehicle_type_id":"4","last_reported":1777389304,"current_range_meters":10000,"station_id":"ce4bgj92rcd13ifvqbd0","pricing_plan_id":"cebpf4jnsgd1na2vs0mg"},{"bike_id":"c5b11747-9480-4f76-becd-b3f69b042f65","system_id":"levelo_inurba_marseille","lat":43.30124,"lon":5.37432,"is_reserved":false,"is_disabled":false,"rental_uris":{"android":"levelo://app?vid=c5b11747-9480-4f76-becd-b3f69b042f65","ios":"levelo://app?vid=c5b11747-9480-4f76-becd-b3f69b042f65"},"vehicle_type_id":"4","last_reported":1777389304,"current_range_meters":10000,"station_id":"ce4bgs92rcd13ifvqcc0","pricing_plan_id":"cebpf4jnsgd1na2vs0mg"},{"bike_id":"0edc9327-203d-43de-bbdd-77bc081b733b","system_id":"levelo_inurba_marseille","lat":43.28617,"lon":5.35101,"is_reserved":false,"is_disabled":false,"rental_uris":{"android":"levelo://app?vid=0edc9327-203d-43de-bbdd-77bc081b733b","ios":"levelo://app?vid=0edc9327-203d-43de-bbdd-77bc081b733b"},"vehicle_type_id":"4","last_reported":1777389304,"current_range_meters":10000,"station_id":"ce4bhch2rcd13ifvqeug","pricing_plan_id":"cebpf4jnsgd1na2vs0mg"},{"bike_id":"8c2ebc41-7bef-4c6d-91ac-124371586248","system_id":"levelo_inurba_marseille","lat":43.25579,"lon":5.38233,"is_reserved":false,"is_disabled":false,"rental_uris":{"android":"levelo://app?vid=8c2ebc41-7bef-4c6d-91ac-124371586248","ios":"levelo://app?vid=8c2ebc41-7bef-4c6d-91ac-124371586248"},"vehicle_type_id":"4","last_reported":1777389304,"current_range_meters":10000,"station_id":"ce4bhih2rcd13ifvqfs0","pricing_plan_id":"cebpf4jnsgd1na2vs0mg"},{"bike_id":"ad016942-5b0b-44b8-ac1c-1b7068118d02","system_id":"levelo_inurba_marseille","lat":43.23215,"lon":5.35576,"is_reserved":false,"is_disabled":false,"rental_uris":{"android":"levelo://app?vid=ad016942-5b0b-44b8-ac1c-1b7068118d02","ios":"levelo://app?vid=ad016942-5b0b-44b8-ac1c-1b7068118d02"},"vehicle_type_id":"4","last_reported":1777389304,"current_range_meters":10000,"station_id":"ce4bhu92rcd13ifvqi70","pricing_plan_id":"cebpf4jnsgd1na2vs0mg"},{"bike_id":"4acfa0fe-a352-4b30-8f7d-81d281e0e999","system_id":"levelo_inurba_marseille","lat":43.27214,"lon":5.39222,"is_reserved":false,"is_disabled":false,"rental_uris":{"android":"levelo://app?vid=4acfa0fe-a352-4b30-8f7d-81d281e0e999","ios":"levelo://app?vid=4acfa0fe-a352-4b30-8f7d-81d281e0e999"},"vehicle_type_id":"4","last_reported":1777389304,"current_range_meters":10000,"station_id":"ce4bhhp2rcd13ifvqfm0","pricing_plan_id":"cebpf4jnsgd1na2vs0mg"},