{"last_updated":1744395214,"ttl":60,"version":"2.2","data":{"bikes":[{"bike_id":"f29e97d8-caaf-4ddc-9427-e4a0c1b05281","system_id":"levelo_inurba_marseille","lat":43.2867,"lon":5.36357,"is_reserved":false,"is_disabled":false,"rental_uris":{"android":"levelo://app?vid=f29e97d8-caaf-4ddc-9427-e4a0c1b05281","ios":"levelo://app?vid=f29e97d8-caaf-4ddc-9427-e4a0c1b05281"},"vehicle_type_id":"4","last_reported":1744395214,"current_range_meters":2800,"station_id":"ce4bhah2rcd13ifvqej0","pricing_plan_id":"cebpf4jnsgd1na2vs0mg"},{"bike_id":"3a03dcd2-729a-4bb8-8146-2e102cd92190","system_id":"levelo_inurba_marseille","lat":43.31363,"lon":5.38487,"is_reserved":false,"is_disabled":false,"rental_uris":{"android":"levelo://app?vid=3a03dcd2-729a-4bb8-8146-2e102cd92190","ios":"levelo://app?vid=3a03dcd2-729a-4bb8-8146-2e102cd92190"},"vehicle_type_id":"4","last_reported":1744395214,"current_range_meters":2000,"station_id":"ce4bgt92rcd13ifvqcf0","pricing_plan_id":"cebpf4jnsgd1na2vs0mg"},{"bike_id":"bfee554b-b491-4b4d-a5ac-5b98dd6cab74","system_id":"levelo_inurba_marseille","lat":43.23958,"lon":5.36633,"is_reserved":false,"is_disabled":false,"rental_uris":{"android":"levelo://app?vid=bfee554b-b491-4b4d-a5ac-5b98dd6cab74","ios":"levelo://app?vid=bfee554b-b491-4b4d-a5ac-5b98dd6cab74"},"vehicle_type_id":"4","last_reported":1744395214,"current_range_meters":2800,"station_id":"ce4bhi12rcd13ifvqfp0","pricing_plan_id":"cebpf4jnsgd1na2vs0mg"},{"bike_id":"f43acd85-9016-4fa3-b6da-77d2d01512b9","system_id":"levelo_inurba_marseille","lat":43.28708,"lon":5.39992,"is_reserved":false,"is_disabled":false,"rental_uris":{"android":"levelo://app?vid=f43acd85-9016-4fa3-b6da-77d2d01512b9","ios":"levelo://app?vid=f43acd85-9016-4fa3-b6da-77d2d01512b9"},"vehicle_type_id":"4","last_reported":1744395214,"current_range_meters":3200,"station_id":"ce4bho92rcd13ifvqh3g","pricing_plan_id":"cebpf4jnsgd1na2vs0mg"},{"bike_id":"c11bd364-2a60-4d84-b34c-98d74ba080c2","system_id":"levelo_inurba_marseille","lat":43.28494,"lon":5.38415,"is_reserved":false,"is_disabled":false,"rental_uris":{"android":"levelo://app?vid=c11bd364-2a60-4d84-b34c-98d74ba080c2","ios":"levelo://app?vid=c11bd364-2a60-4d84-b34c-98d74ba080c2"},"vehicle_type_id":"4","last_reported":1744395214,"current_range_meters":3200,"station_id":"ce4bh512rcd13ifvqe3g","pricing_plan_id":"cebpf4jnsgd1na2vs0mg"},{"bike_id":"4e2a5c4f-ccfe-4be7-964d-f3a765a025e3","system_id":"levelo_inurba_marseille","lat":43.292566,"lon":5.40903,"is_reserved":false,"is_disabled":false,"rental_uris":{"android":"levelo://app?vid=4e2a5c4f-ccfe-4be7-964d-f3a765a025e3","ios":"levelo://app?vid=4e2a5c4f-ccfe-4be7-964d-f3a765a025e3"},"vehicle_type_id":"4","last_reported":1744395214,"current_range_meters":3200,"station_id":"ce4bh2h2rcd13ifvqdh0","pricing_plan_id":"cebpf4jnsgd1na2vs0mg"},{"bike_id":"48d19698-5c1e-4613-ac8b-ff2131f4ce34","system_id":"levelo_inurba_marseille","lat":43.28086,"lon":5.39649,"is_reserved":false,"is_disabled":false,"rental_uris":{"android":"levelo://app?vid=48d19698-5c1e-4613-ac8b-ff2131f4ce34","ios":"levelo://app?vid=48d19698-5c1e-4613-ac8b-ff2131f4ce34"},"vehicle_type_id":"4","last_reported":1744395214,"current_range_meters":3200,"station_id":"ce4bho12rcd13ifvqh2g","pricing_plan_id":"cebpf4jnsgd1na2vs0mg"},{"bike_id":"07efc6ba-8c88-4447-997b-619352ce99d2","system_id":"levelo_inurba_marseille","lat":43.29517,"lon":5.39405,"is_reserved":false,"is_disabled":false,"rental_uris":{"android":"levelo://app?vid=07efc6ba-8c88-4447-997b-619352ce99d2","ios":"levelo://app?vid=07efc6ba-8c88-4447-997b-619352ce99d2"},"vehicle_type_id":"4","last_reported":1744395214,"current_range_meters":3200,"station_id":"ce4bh292rcd13ifvqdf0","pricing_plan_id":"cebpf4jnsgd1na2vs0mg"},{"bike_id":"1637b996-0fc4-48c4-902a-c2f509e6cb97","system_id":"levelo_inurba_marseille","lat":43.294144,"lon":5.378106,"is_reserved":false,"is_disabled":false,"rental_uris":{"android":"levelo://app?vid=1637b996-0fc4-48c4-902a-c2f509e6cb97","ios":"levelo://app?vid=1637b996-0fc4-48c4-902a-c2f509e6cb97"},"vehicle_type_id":"4","last_reported":1744395214,"current_range_meters":3200,"station_id":"ce4bgjh2rcd13ifvqbf0","pricing_plan_id":"cebpf4jnsgd1na2vs0mg"},{"bike_id":"55b36ace-5da4-48d6-9d5e-0867278a3b20","system_id":"levelo_inurba_marseille","lat":43.25004,"lon":5.38923,"is_reserved":false,"is_disabled":false,"rental_uris":{"android":"levelo://app?vid=55b36ace-5da4-48d6-9d5e-0867278a3b20","ios":"levelo://app?vid=55b36ace-5da4-48d6-9d5e-0867278a3b20"},"vehicle_type_id":"4","last_reported":1744395214,"current_range_meters":3200,"station_id":"ce4bhgp2rcd13ifvqfd0","pricing_plan_id":"cebpf4jnsgd1na2vs0mg"},{"bike_id":"9efbcfe7-283e-4ca9-b5c8-92c27e863b71","system_id":"levelo_inurba_marseille","lat":43.29268,"lon":5.38445,"is_reserved":false,"is_disabled":false,"rental_uris":{"android":"levelo://app?vid=9efbcfe7-283e-4ca9-b5c8-92c27e863b71","ios":"levelo://app?vid=9efbcfe7-283e-4ca9-b5c8-92c27e863b71"},"vehicle_type_id":"4","last_reported":1744395214,"current_range_meters":3200,"station_id":"ce4bh692rcd13ifvqea0","pricing_plan_id":"cebpf4jnsgd1na2vs0mg"},{"bike_id":"8876bb6f-718b-4e2b-a641-425e19acc0fc","system_id":"levelo_inurba_marseille","lat":43.27368,"lon":5.421925,"is_reserved":false,"is_disabled":false,"rental_uris":{"android":"levelo://app?vid=8876bb6f-718b-4e2b-a641-425e19acc0fc","ios":"levelo://app?vid=8876bb6f-718b-4e2b-a641-425e19acc0fc"},"vehicle_type_id":"4","last_reported":1744395214,"current_range_meters":3200,"station_id":"","pricing_plan_id":"cebpf4jnsgd1na2vs0mg"},{"bike_id":"962ff9ff-d4d3-45e1-900f-1635547d2b28","system_id":"levelo_inurba_marseille","lat":43.31698,"lon":5.40471,"is_reserved":false,"is_disabled":false,"rental_uris":{"android":"levelo://app?vid=962ff9ff-d4d3-45e1-900f-1635547d2b28","ios":"levelo://app?vid=962ff9ff-d4d3-45e1-900f-1635547d2b28"},"vehicle_type_id":"4","last_reported":1744395214,"current_range_meters":3600,"station_id":"ce4bh012rcd13ifvqd00","pricing_plan_id":"cebpf4jnsgd1na2vs0mg"},{"bike_id":"9b5ffd9c-f60c-4c7f-887d-f81e83ef9e21","system_id":"levelo_inurba_marseille","lat":43.31541,"lon":5.40374,"is_reserved":false,"is_disabled":false,"rental_uris":{"android":"levelo://app?vid=9b5ffd9c-f60c-4c7f-887d-f81e83ef9e21","ios":"levelo://app?vid=9b5ffd9c-f60c-4c7f-887d-f81e83ef9e21"},"vehicle_type_id":"4","last_reported":1744395214,"current_range_meters":3600,"station_id":"","pricing_plan_id":"cebpf4jnsgd1na2vs0mg"},{"bike_id":"33152505-c727-4231-a01f-f74add47508c","system_id":"levelo_inurba_marseille","lat":43.28666,"lon":5.36349,"is_reserved":false,"is_disabled":false,"rental_uris":{"android":"levelo://app?vid=33152505-c727-4231-a01f-f74add47508c","ios":"levelo://app?vid=33152505-c727-4231-a01f-f74add47508c"},"vehicle_type_id":"4","last_reported":1744395214,"current_range_meters":3600,"station_id":"ce4bhah2rcd13ifvqej0","pricing_plan_id":"cebpf4jnsgd1na2vs0mg"},{"bike_id":"f46117e7-1937-49d9-ac7d-2cff0f4515a7","system_id":"levelo_inurba_marseille","lat":43.292389,"lon":5.360525,"is_reserved":false,"is_disabled":false,"rental_uris":{"android":"levelo://app?vid=f46117e7-1937-49d9-ac7d-2cff0f4515a7","ios":"levelo://app?vid=f46117e7-1937-49d9-ac7d-2cff0f4515a7"},"vehicle_type_id":"4","last_reported":1744395214,"current_range_meters":3600,"station_id":"ce4bhbh2rcd13ifvqeqg","pricing_plan_id":"cebpf4jnsgd1na2vs0mg"},{"bike_id":"3420efff-a5c9-47ea-b410-dabfd2a28e3b","system_id":"levelo_inurba_marseille","lat":43.29031,"lon":5.37552,"is_reserved":false,"is_disabled":false,"rental_uris":{"android":"levelo://app?vid=3420efff-a5c9-47ea-b410-dabfd2a28e3b","ios":"levelo://app?vid=3420efff-a5c9-47ea-b410-dabfd2a28e3b"},"vehicle_type_id":"4","last_reported":1744395214,"current_range_meters":3600,"station_id":"ce4bh692rcd13ifvqe90","pricing_plan_id":"cebpf4jnsgd1na2vs0mg"},{"bike_id":"83c132b1-a954-4d5a-a32d-9f99af4faa3c","system_id":"levelo_inurba_marseille","lat":43.30928,"lon":5.41536,"is_reserved":false,"is_disabled":false,"rental_uris":{"android":"levelo://app?vid=83c132b1-a954-4d5a-a32d-9f99af4faa3c","ios":"levelo://app?vid=83c132b1-a954-4d5a-a32d-9f99af4faa3c"},"vehicle_type_id":"4","last_reported":1744395214,"current_range_meters":3600,"station_id":"","pricing_plan_id":"cebpf4jnsgd1na2vs0mg"},{"bike_id":"3736d1c7-d3ee-4b82-bfc8-df35d068fac3","system_id":"levelo_inurba_marseille","lat":43.29085,"lon":5.38125,"is_reserved":false,"is_disabled":false,"rental_uris":{"android":"levelo://app?vid=3736d1c7-d3ee-4b82-bfc8-df35d068fac3","ios":"levelo://app?vid=3736d1c7-d3ee-4b82-bfc8-df35d068fac3"},"vehicle_type_id":"4","last_reported":1744395214,"current_range_meters":3600,"station_id":"ce4bh512rcd13ifvqe2g","pricing_plan_id":"cebpf4jnsgd1na2vs0mg"},{"bike_id":"83950b26-0063-4f53-9555-6dccadbe297b","system_id":"levelo_inurba_marseille","lat":43.29417,"lon":5.386206,"is_reserved":false,"is_disabled":false,"rental_uris":{"android":"levelo://app?vid=83950b26-0063-4f53-9555-6dccadbe297b","ios":"levelo://app?vid=83950b26-0063-4f53-9555-6dccadbe297b"},"vehicle_type_id":"4","last_reported":1744395214,"current_range_meters":3600,"station_id":"ce4bh2h2rcd13ifvqdh0","pricing_plan_id":"cebpf4jnsgd1na2vs0mg"},{"bike_id":"f7468be2-3580-47d1-afe3-784343a605fa","system_id":"levelo_inurba_marseille","lat":43.29582,"lon":5.37497,"is_reserved":false,"is_disabled":false,"rental_uris":{"android":"levelo://app?vid=f7468be2-3580-47d1-afe3-784343a605fa","ios":"levelo://app?vid=f7468be2-3580-47d1-afe3-784343a605fa"},"vehicle_type_id":"4","last_reported":1744395214,"current_range_meters":3600,"station_id":"ce4bgh92rcd13ifvqb50","pricing_plan_id":"cebpf4jnsgd1na2vs0mg"},{"bike_id":"c073b0f2-de8c-4cd5-8093-56aa3207e1cd","system_id":"levelo_inurba_marseille","lat":43.29573,"lon":5.39975,"is_reserved":false,"is_disabled":false,"rental_uris":{"android":"levelo://app?vid=c073b0f2-de8c-4cd5-8093-56aa3207e1cd","ios":"levelo://app?vid=c073b0f2-de8c-4cd5-8093-56aa3207e1cd"},"vehicle_type_id":"4","last_reported":1744395214,"current_range_meters":3600,"station_id":"ce4bh312rcd13ifvqdj0","pricing_plan_id":"cebpf4jnsgd1na2vs0mg"},{"bike_id":"d2a413c7-ac48-403b-81b1-198cd91a79e0","system_id":"levelo_inurba_marseille","lat":43.293819,"lon":5.37862,"is_reserved":false,"is_disabled":false,"rental_uris":{"android":"levelo://app?vid=d2a413c7-ac48-403b-81b1-198cd91a79e0","ios":"levelo://app?vid=d2a413c7-ac48-403b-81b1-198cd91a79e0"},"vehicle_type_id":"4","last_reported":1744395214,"current_range_meters":3600,"station_id":"ce4bgjh2rcd13ifvqbf0","pricing_plan_id":"cebpf4jnsgd1na2vs0mg"},{"bike_id":"010164a6-34f0-4bf2-9337-60fa1b4075e1","system_id":"levelo_inurba_marseille","lat":43.2993,"lon":5.37472,"is_reserved":false,"is_disabled":false,"rental_uris":{"android":"levelo://app?vid=010164a6-34f0-4bf2-9337-60fa1b4075e1","ios":"levelo://app?vid=010164a6-34f0-4bf2-9337-60fa1b4075e1"},"vehicle_type_id":"4","last_reported":1744395214,"current_range_meters":4000,"station_id":"ce4bgjh2rcd13ifvqbg0","pricing_plan_id":"cebpf4jnsgd1na2vs0mg"},{"bike_id":"6caad283-aa95-4d3f-939b-de702d0b551e","system_id":"levelo_inurba_marseille","lat":43.2863,"lon":5.35099,"is_reserved":false,"is_disabled":false,"rental_uris":{"android":"levelo://app?vid=6caad283-aa95-4d3f-939b-de702d0b551e","ios":"levelo://app?vid=6caad283-aa95-4d3f-939b-de702d0b551e"},"vehicle_type_id":"4","last_reported":1744395214,"current_range_meters":4000,"station_id":"ce4bhch2rcd13ifvqeug","pricing_plan_id":"cebpf4jnsgd1na2vs0mg"},{"bike_id":"a5a7e515-279a-41fc-ba11-a62445552466","system_id":"levelo_inurba_marseille","lat":43.32291,"lon":5.38294,"is_reserved":false,"is_disabled":false,"rental_uris":{"android":"levelo://app?vid=a5a7e515-279a-41fc-ba11-a62445552466","ios":"levelo://app?vid=a5a7e515-279a-41fc-ba11-a62445552466"},"vehicle_type_id":"4","last_reported":1744395214,"current_range_meters":4000,"station_id":"ce4bhr12rcd13ifvqhqg","pricing_plan_id":"cebpf4jnsgd1na2vs0mg"},{"bike_id":"c3281357-7df7-463c-b8e9-3cd6bb47d6cc","system_id":"levelo_inurba_marseille","lat":43.3229,"lon":5.38258,"is_reserved":false,"is_disabled":false,"rental_uris":{"android":"levelo://app?vid=c3281357-7df7-463c-b8e9-3cd6bb47d6cc","ios":"levelo://app?vid=c3281357-7df7-463c-b8e9-3cd6bb47d6cc"},"vehicle_type_id":"4","last_reported":1744395214,"current_range_meters":4000,"station_id":"ce4bhr12rcd13ifvqhqg","pricing_plan_id":"cebpf4jnsgd1na2vs0mg"},{"bike_id":"73c208be-c679-4efb-80b1-8d62b1559a2a","system_id":"levelo_inurba_marseille","lat":43.24083,"lon":5.37752,"is_reserved":false,"is_disabled":false,"rental_uris":{"android":"levelo://app?vid=73c208be-c679-4efb-80b1-8d62b1559a2a","ios":"levelo://app?vid=73c208be-c679-4efb-80b1-8d62b1559a2a"},"vehicle_type_id":"4","last_reported":1744395214,"current_range_meters":4000,"station_id":"ce4bhnp2rcd13ifvqgvg","pricing_plan_id":"cebpf4jnsgd1na2vs0mg"},{"bike_id":"0f21e820-8393-4546-8419-ac6ae589e297","system_id":"levelo_inurba_marseille","lat":43.25867,"lon":5.39905,"is_reserved":false,"is_disabled":false,"rental_uris":{"android":"levelo://app?vid=0f21e820-8393-4546-8419-ac6ae589e297","ios":"levelo://app?vid=0f21e820-8393-4546-8419-ac6ae589e297"},"vehicle_type_id":"4","last_reported":1744395214,"current_range_meters":4000,"station_id":"ce4bhl92rcd13ifvqghg","pricing_plan_id":"cebpf4jnsgd1na2vs0mg"},{"bike_id":"a7c237be-f2e2-4ea1-bbc2-e254f67f3166","system_id":"levelo_inurba_marseille","lat":43.26193,"lon":5.37455,"is_reserved":false,"is_disabled":false,"rental_uris":{"android":"levelo://app?vid=a7c237be-f2e2-4ea1-bbc2-e254f67f3166","ios":"levelo://app?vid=a7c237be-f2e2-4ea1-bbc2-e254f67f3166"},"vehicle_type_id":"4","last_reported":1744395214,"current_range_meters":4400,"station_id":"ce4bhgp2rcd13ifvqfc0","pricing_plan_id":"cebpf4jnsgd1na2vs0mg"},{"bike_id":"8644da1a-3ebd-4c7a-9e51-e3e9ea9d5972","system_id":"levelo_inurba_marseille","lat":43.2871,"lon":5.39997,"is_reserved":false,"is_disabled":false,"rental_uris":{"android":"levelo://app?vid=8644da1a-3ebd-4c7a-9e51-e3e9ea9d5972","ios":"levelo://app?vid=8644da1a-3ebd-4c7a-9e51-e3e9ea9d5972"},"vehicle_type_id":"4","last_reported":1744395214,"current_range_meters":4400,"station_id":"ce4bho92rcd13ifvqh3g","pricing_plan_id":"cebpf4jnsgd1na2vs0mg"},{"bike_id":"ebbd7b09-2edb-4536-b873-8aea2d5e93a2","system_id":"levelo_inurba_marseille","lat":43.2862,"lon":5.35105,"is_reserved":false,"is_disabled":false,"rental_uris":{"android":"levelo://app?vid=ebbd7b09-2edb-4536-b873-8aea2d5e93a2","ios":"levelo://app?vid=ebbd7b09-2edb-4536-b873-8aea2d5e93a2"},"vehicle_type_id":"4","last_reported":1744395214,"current_range_meters":4400,"station_id":"ce4bhch2rcd13ifvqeug","pricing_plan_id":"cebpf4jnsgd1na2vs0mg"},{"bike_id":"e71c4a2e-df7b-49fe-9229-7c1f8dc5945a","system_id":"levelo_inurba_marseille","lat":43.291648,"lon":5.371483,"is_reserved":false,"is_disabled":false,"rental_uris":{"android":"levelo://app?vid=e71c4a2e-df7b-49fe-9229-7c1f8dc5945a","ios":"levelo://app?vid=e71c4a2e-df7b-49fe-9229-7c1f8dc5945a"},"vehicle_type_id":"4","last_reported":1744395214,"current_range_meters":4400,"station_id":"ce4bha92rcd13ifvqeh0","pricing_plan_id":"cebpf4jnsgd1na2vs0mg"},{"bike_id":"08740653-d1ba-49ee-b8e8-8ce5756d13b3","system_id":"levelo_inurba_marseille","lat":43.29417,"lon":5.38628,"is_reserved":false,"is_disabled":false,"rental_uris":{"android":"levelo://app?vid=08740653-d1ba-49ee-b8e8-8ce5756d13b3","ios":"levelo://app?vid=08740653-d1ba-49ee-b8e8-8ce5756d13b3"},"vehicle_type_id":"4","last_reported":1744395214,"current_range_meters":4400,"station_id":"ce4bh2h2rcd13ifvqdh0","pricing_plan_id":"cebpf4jnsgd1na2vs0mg"},{"bike_id":"4b10dd4c-cc50-4c00-ada7-132fdd88be25","system_id":"levelo_inurba_marseille","lat":43.29981,"lon":5.38492,"is_reserved":false,"is_disabled":false,"rental_uris":{"android":"levelo://app?vid=4b10dd4c-cc50-4c00-ada7-132fdd88be25","ios":"levelo://app?vid=4b10dd4c-cc50-4c00-ada7-132fdd88be25"},"vehicle_type_id":"4","last_reported":1744395214,"current_range_meters":4400,"station_id":"ce4bgj92rcd13ifvqbd0","pricing_plan_id":"cebpf4jnsgd1na2vs0mg"},{"bike_id":"77b7f3cd-39d7-472e-b1df-fa34a4841644","system_id":"levelo_inurba_marseille","lat":43.2808,"lon":5.39668,"is_reserved":false,"is_disabled":false,"rental_uris":{"android":"levelo://app?vid=77b7f3cd-39d7-472e-b1df-fa34a4841644","ios":"levelo://app?vid=77b7f3cd-39d7-472e-b1df-fa34a4841644"},"vehicle_type_id":"4","last_reported":1744395214,"current_range_meters":4400,"station_id":"ce4bho12rcd13ifvqh2g","pricing_plan_id":"cebpf4jnsgd1na2vs0mg"},{"bike_id":"9acb0c63-d119-4810-94aa-e306fdcee828","system_id":"levelo_inurba_marseille","lat":43.24172,"lon":5.36396,"is_reserved":false,"is_disabled":false,"rental_uris":{"android":"levelo://app?vid=9acb0c63-d119-4810-94aa-e306fdcee828","ios":"levelo://app?vid=9acb0c63-d119-4810-94aa-e306fdcee828"},"vehicle_type_id":"4","last_reported":1744395214,"current_range_meters":4800,"station_id":"cpo36qri1sfpv3e86is0","pricing_plan_id":"cebpf4jnsgd1na2vs0mg"},{"bike_id":"4a3e0919-27c2-445a-a961-2bd3243a227d","system_id":"levelo_inurba_marseille","lat":43.31636,"lon":5.37329,"is_reserved":false,"is_disabled":false,"rental_uris":{"android":"levelo://app?vid=4a3e0919-27c2-445a-a961-2bd3243a227d","ios":"levelo://app?vid=4a3e0919-27c2-445a-a961-2bd3243a227d"},"vehicle_type_id":"4","last_reported":1744395214,"current_range_meters":4800,"station_id":"","pricing_plan_id":"cebpf4jnsgd1na2vs0mg"},{"bike_id":"5b0c9f48-0e61-4321-84d2-66f76246e884","system_id":"levelo_inurba_marseille","lat":43.29443,"lon":5.39753,"is_reserved":false,"is_disabled":false,"rental_uris":{"android":"levelo://app?vid=5b0c9f48-0e61-4321-84d2-66f76246e884","ios":"levelo://app?vid=5b0c9f48-0e61-4321-84d2-66f76246e884"},"vehicle_type_id":"4","last_reported":1744395214,"current_range_meters":4800,"station_id":"ce4bh3h2rcd13ifvqdo0","pricing_plan_id":"cebpf4jnsgd1na2vs0mg"},{"bike_id":"4549eff7-c671-47a7-a88e-bb266845945d","system_id":"levelo_inurba_marseille","lat":43.28659,"lon":5.36341,"is_reserved":false,"is_disabled":false,"rental_uris":{"android":"levelo://app?vid=4549eff7-c671-47a7-a88e-bb266845945d","ios":"levelo://app?vid=4549eff7-c671-47a7-a88e-bb266845945d"},"vehicle_type_id":"4","last_reported":1744395214,"current_range_meters":4800,"station_id":"ce4bhah2rcd13ifvqej0","pricing_plan_id":"cebpf4jnsgd1na2vs0mg"},{"bike_id":"4a5f9e97-9f5d-4705-abfb-9468e8bd888d","system_id":"levelo_inurba_marseille","lat":43.29226,"lon":5.36062,"is_reserved":false,"is_disabled":false,"rental_uris":{"android":"levelo://app?vid=4a5f9e97-9f5d-4705-abfb-9468e8bd888d","ios":"levelo://app?vid=4a5f9e97-9f5d-4705-abfb-9468e8bd888d"},"vehicle_type_id":"4","last_reported":1744395214,"current_range_meters":4800,"station_id":"ce4bhbh2rcd13ifvqeqg","pricing_plan_id":"cebpf4jnsgd1na2vs0mg"},{"bike_id":"651398ac-c70b-4ad0-95aa-14f7c75e7554","system_id":"levelo_inurba_marseille","lat":43.28002,"lon":5.41666,"is_reserved":false,"is_disabled":false,"rental_uris":{"android":"levelo://app?vid=651398ac-c70b-4ad0-95aa-14f7c75e7554","ios":"levelo://app?vid=651398ac-c70b-4ad0-95aa-14f7c75e7554"},"vehicle_type_id":"4","last_reported":1744395214,"current_range_meters":4800,"station_id":"ce4bho12rcd13ifvqh1g","pricing_plan_id":"cebpf4jnsgd1na2vs0mg"},{"bike_id":"d410e93b-7324-47ca-81ba-320267f703e5","system_id":"levelo_inurba_marseille","lat":43.29861,"lon":5.36308,"is_reserved":false,"is_disabled":false,"rental_uris":{"android":"levelo://app?vid=d410e93b-7324-47ca-81ba-320267f703e5","ios":"levelo://app?vid=d410e93b-7324-47ca-81ba-320267f703e5"},"vehicle_type_id":"4","last_reported":1744395214,"current_range_meters":4800,"station_id":"ce4bgpp2rcd13ifvqc3g","pricing_plan_id":"cebpf4jnsgd1na2vs0mg"},{"bike_id":"80fc19a9-2081-4eff-bfef-54e536cabbbd","system_id":"levelo_inurba_marseille","lat":43.273823,"lon":5.39025,"is_reserved":false,"is_disabled":false,"rental_uris":{"android":"levelo://app?vid=80fc19a9-2081-4eff-bfef-54e536cabbbd","ios":"levelo://app?vid=80fc19a9-2081-4eff-bfef-54e536cabbbd"},"vehicle_type_id":"4","last_reported":1744395214,"current_range_meters":4800,"station_id":"ce4bhgp2rcd13ifvqfe0","pricing_plan_id":"cebpf4jnsgd1na2vs0mg"},{"bike_id":"51228f4a-bcf2-49e7-abd7-024b820f9e8c","system_id":"levelo_inurba_marseille","lat":43.29533,"lon":5.38551,"is_reserved":false,"is_disabled":false,"rental_uris":{"android":"levelo://app?vid=51228f4a-bcf2-49e7-abd7-024b820f9e8c","ios":"levelo://app?vid=51228f4a-bcf2-49e7-abd7-024b820f9e8c"},"vehicle_type_id":"4","last_reported":1744395214,"current_range_meters":4800,"station_id":"ce4bgih2rcd13ifvqba0","pricing_plan_id":"cebpf4jnsgd1na2vs0mg"},{"bike_id":"764c0d56-4e2d-4c8e-920e-80b3722cefee","system_id":"levelo_inurba_marseille","lat":43.28278,"lon":5.35072,"is_reserved":false,"is_disabled":false,"rental_uris":{"android":"levelo://app?vid=764c0d56-4e2d-4c8e-920e-80b3722cefee","ios":"levelo://app?vid=764c0d56-4e2d-4c8e-920e-80b3722cefee"},"vehicle_type_id":"4","last_reported":1744395214,"current_range_meters":2800,"station_id":"ce4bhbp2rcd13ifvqerg","pricing_plan_id":"cebpf4jnsgd1na2vs0mg"},{"bike_id":"1f1931dc-ca45-43df-bb99-8ca2d278bd56","system_id":"levelo_inurba_marseille","lat":43.24173,"lon":5.36402,"is_reserved":false,"is_disabled":false,"rental_uris":{"android":"levelo://app?vid=1f1931dc-ca45-43df-bb99-8ca2d278bd56","ios":"levelo://app?vid=1f1931dc-ca45-43df-bb99-8ca2d278bd56"},"vehicle_type_id":"4","last_reported":1744395214,"current_range_meters":5600,"station_id":"cpo36qri1sfpv3e86is0","pricing_plan_id":"cebpf4jnsgd1na2vs0mg"},{"bike_id":"11c7f740-9c07-4ae6-a604-5074f30626b2","system_id":"levelo_inurba_marseille","lat":43.31069,"lon":5.3836,"is_reserved":false,"is_disabled":false,"rental_uris":{"android":"levelo://app?vid=11c7f740-9c07-4ae6-a604-5074f30626b2","ios":"levelo://app?vid=11c7f740-9c07-4ae6-a604-5074f30626b2"},"vehicle_type_id":"4","last_reported":1744395214,"current_range_meters":5600,"station_id":"ce4bgv92rcd13ifvqcr0","pricing_plan_id":"cebpf4jnsgd1na2vs0mg"},{"bike_id":"5470a8dc-3b2b-43d4-82c3-3604f9446511","system_id":"levelo_inurba_marseille","lat":43.298524,"lon":5.36287,"is_reserved":false,"is_disabled":false,"rental_uris":{"android":"levelo://app?vid=5470a8dc-3b2b-43d4-82c3-3604f9446511","ios":"levelo://app?vid=5470a8dc-3b2b-43d4-82c3-3604f9446511"},"vehicle_type_id":"4","last_reported":1744395214,"current_range_meters":5600,"station_id":"ce4bgpp2rcd13ifvqc3g","pricing_plan_id":"cebpf4jnsgd1na2vs0mg"},{"bike_id":"d2940955-cd41-47a3-b7a3-6de7e0e1f369","system_id":"levelo_inurba_marseille","lat":43.27194,"lon":5.39184,"is_reserved":false,"is_disabled":false,"rental_uris":{"android":"levelo://app?vid=d2940955-cd41-47a3-b7a3-6de7e0e1f369","ios":"levelo://app?vid=d2940955-cd41-47a3-b7a3-6de7e0e1f369"},"vehicle_type_id":"4","last_reported":1744395214,"current_range_meters":5600,"station_id":"ce4bhhp2rcd13ifvqfm0","pricing_plan_id":"cebpf4jnsgd1na2vs0mg"},{"bike_id":"2de513a1-bc74-48e9-8afc-f033f664d7ee","system_id":"levelo_inurba_marseille","lat":43.29604,"lon":5.38104,"is_reserved":false,"is_disabled":false,"rental_uris":{"android":"levelo://app?vid=2de513a1-bc74-48e9-8afc-f033f664d7ee","ios":"levelo://app?vid=2de513a1-bc74-48e9-8afc-f033f664d7ee"},"vehicle_type_id":"4","last_reported":1744395214,"current_range_meters":5600,"station_id":"ce4bgl12rcd13ifvqbo0","pricing_plan_id":"cebpf4jnsgd1na2vs0mg"},{"bike_id":"14e9d228-910c-41cb-96fc-eae22c7befb3","system_id":"levelo_inurba_marseille","lat":43.273743,"lon":5.36261,"is_reserved":false,"is_disabled":false,"rental_uris":{"android":"levelo://app?vid=14e9d228-910c-41cb-96fc-eae22c7befb3","ios":"levelo://app?vid=14e9d228-910c-41cb-96fc-eae22c7befb3"},"vehicle_type_id":"4","last_reported":1744395214,"current_range_meters":5600,"station_id":"ce4bhbh2rcd13ifvqeo0","pricing_plan_id":"cebpf4jnsgd1na2vs0mg"},{"bike_id":"2636eb37-9c9a-411c-bb55-09d8fa9b86f4","system_id":"levelo_inurba_marseille","lat":43.29299,"lon":5.37465,"is_reserved":false,"is_disabled":false,"rental_uris":{"android":"levelo://app?vid=2636eb37-9c9a-411c-bb55-09d8fa9b86f4","ios":"levelo://app?vid=2636eb37-9c9a-411c-bb55-09d8fa9b86f4"},"vehicle_type_id":"4","last_reported":1744395214,"current_range_meters":4800,"station_id":"ce4bgi12rcd13ifvqb70","pricing_plan_id":"cebpf4jnsgd1na2vs0mg"},{"bike_id":"15e9efe5-d6e2-4790-bd2e-18d8717868ea","system_id":"levelo_inurba_marseille","lat":43.26936,"lon":5.3892,"is_reserved":false,"is_disabled":false,"rental_uris":{"android":"levelo://app?vid=15e9efe5-d6e2-4790-bd2e-18d8717868ea","ios":"levelo://app?vid=15e9efe5-d6e2-4790-bd2e-18d8717868ea"},"vehicle_type_id":"4","last_reported":1744395214,"current_range_meters":6000,"station_id":"ce4bhhh2rcd13ifvqfl0","pricing_plan_id":"cebpf4jnsgd1na2vs0mg"},{"bike_id":"af8cc229-8f77-46a7-bced-6e4b85036ba9","system_id":"levelo_inurba_marseille","lat":43.28713,"lon":5.36364,"is_reserved":false,"is_disabled":false,"rental_uris":{"android":"levelo://app?vid=af8cc229-8f77-46a7-bced-6e4b85036ba9","ios":"levelo://app?vid=af8cc229-8f77-46a7-bced-6e4b85036ba9"},"vehicle_type_id":"4","last_reported":1744395214,"current_range_meters":6000,"station_id":"ce4bhah2rcd13ifvqej0","pricing_plan_id":"cebpf4jnsgd1na2vs0mg"},{"bike_id":"acef04f2-7814-48e3-bbff-37fd6ce7f6ff","system_id":"levelo_inurba_marseille","lat":43.23179,"lon":5.39986,"is_reserved":false,"is_disabled":false,"rental_uris":{"android":"levelo://app?vid=acef04f2-7814-48e3-bbff-37fd6ce7f6ff","ios":"levelo://app?vid=acef04f2-7814-48e3-bbff-37fd6ce7f6ff"},"vehicle_type_id":"4","last_reported":1744395214,"current_range_meters":6000,"station_id":"ce4bhn12rcd13ifvqgqg","pricing_plan_id":"cebpf4jnsgd1na2vs0mg"},{"bike_id":"d0114574-e235-47d6-89ae-ff347e13ba86","system_id":"levelo_inurba_marseille","lat":43.29275,"lon":5.36844,"is_reserved":false,"is_disabled":false,"rental_uris":{"android":"levelo://app?vid=d0114574-e235-47d6-89ae-ff347e13ba86","ios":"levelo://app?vid=d0114574-e235-47d6-89ae-ff347e13ba86"},"vehicle_type_id":"4","last_reported":1744395214,"current_range_meters":6000,"station_id":"ce4bhbp2rcd13ifvqesg","pricing_plan_id":"cebpf4jnsgd1na2vs0mg"},{"bike_id":"ba93e2c4-b57c-4309-b209-878d304eab06","system_id":"levelo_inurba_marseille","lat":43.29979,"lon":5.37184,"is_reserved":false,"is_disabled":false,"rental_uris":{"android":"levelo://app?vid=ba93e2c4-b57c-4309-b209-878d304eab06","ios":"levelo://app?vid=ba93e2c4-b57c-4309-b209-878d304eab06"},"vehicle_type_id":"4","last_reported":1744395214,"current_range_meters":6400,"station_id":"ce4bgr92rcd13ifvqc7g","pricing_plan_id":"cebpf4jnsgd1na2vs0mg"},{"bike_id":"e10ef225-b5b3-4d41-a320-d645c11e4c64","system_id":"levelo_inurba_marseille","lat":43.31285,"lon":5.40165,"is_reserved":false,"is_disabled":false,"rental_uris":{"android":"levelo://app?vid=e10ef225-b5b3-4d41-a320-d645c11e4c64","ios":"levelo://app?vid=e10ef225-b5b3-4d41-a320-d645c11e4c64"},"vehicle_type_id":"4","last_reported":1744395214,"current_range_meters":6400,"station_id":"ce4bh092rcd13ifvqd30","pricing_plan_id":"cebpf4jnsgd1na2vs0mg"},{"bike_id":"78753a12-a38b-44a3-a48a-4707364dd1e2","system_id":"levelo_inurba_marseille","lat":43.29434,"lon":5.38616,"is_reserved":false,"is_disabled":false,"rental_uris":{"android":"levelo://app?vid=78753a12-a38b-44a3-a48a-4707364dd1e2","ios":"levelo://app?vid=78753a12-a38b-44a3-a48a-4707364dd1e2"},"vehicle_type_id":"4","last_reported":1744395214,"current_range_meters":6400,"station_id":"ce4bh2h2rcd13ifvqdh0","pricing_plan_id":"cebpf4jnsgd1na2vs0mg"},{"bike_id":"af92afc1-e315-4694-984f-2bf9aece1681","system_id":"levelo_inurba_marseille","lat":43.28621,"lon":5.37076,"is_reserved":false,"is_disabled":false,"rental_uris":{"android":"levelo://app?vid=af92afc1-e315-4694-984f-2bf9aece1681","ios":"levelo://app?vid=af92afc1-e315-4694-984f-2bf9aece1681"},"vehicle_type_id":"4","last_reported":1744395214,"current_range_meters":6400,"station_id":"ce4bht12rcd13ifvqi60","pricing_plan_id":"cebpf4jnsgd1na2vs0mg"},{"bike_id":"684eda09-d981-4549-b9bd-f757113ef132","system_id":"levelo_inurba_marseille","lat":43.28422,"lon":5.34992,"is_reserved":false,"is_disabled":false,"rental_uris":{"android":"levelo://app?vid=684eda09-d981-4549-b9bd-f757113ef132","ios":"levelo://app?vid=684eda09-d981-4549-b9bd-f757113ef132"},"vehicle_type_id":"4","last_reported":1744395214,"current_range_meters":6400,"station_id":"ce4bhbh2rcd13ifvqepg","pricing_plan_id":"cebpf4jnsgd1na2vs0mg"},{"bike_id":"b7120879-602b-4464-8313-0eef588e845e","system_id":"levelo_inurba_marseille","lat":43.28927,"lon":5.36409,"is_reserved":false,"is_disabled":false,"rental_uris":{"android":"levelo://app?vid=b7120879-602b-4464-8313-0eef588e845e","ios":"levelo://app?vid=b7120879-602b-4464-8313-0eef588e845e"},"vehicle_type_id":"4","last_reported":1744395214,"current_range_meters":6400,"station_id":"ce4bhc92rcd13ifvqetg","pricing_plan_id":"cebpf4jnsgd1na2vs0mg"},{"bike_id":"f4863796-bd25-47b2-9897-7ec9ce4d69fa","system_id":"levelo_inurba_marseille","lat":43.30281,"lon":5.37716,"is_reserved":false,"is_disabled":false,"rental_uris":{"android":"levelo://app?vid=f4863796-bd25-47b2-9897-7ec9ce4d69fa","ios":"levelo://app?vid=f4863796-bd25-47b2-9897-7ec9ce4d69fa"},"vehicle_type_id":"4","last_reported":1744395214,"current_range_meters":6400,"station_id":"ce4bguh2rcd13ifvqcj0","pricing_plan_id":"cebpf4jnsgd1na2vs0mg"},{"bike_id":"3d66fdbd-da20-4f97-b6ae-678f79383c72","system_id":"levelo_inurba_marseille","lat":43.27909,"lon":5.38017,"is_reserved":false,"is_disabled":false,"rental_uris":{"android":"levelo://app?vid=3d66fdbd-da20-4f97-b6ae-678f79383c72","ios":"levelo://app?vid=3d66fdbd-da20-4f97-b6ae-678f79383c72"},"vehicle_type_id":"4","last_reported":1744395214,"current_range_meters":6400,"station_id":"ce4bhf92rcd13ifvqf50","pricing_plan_id":"cebpf4jnsgd1na2vs0mg"},{"bike_id":"8a762d92-502c-4e6d-8537-a881b83582c0","system_id":"levelo_inurba_marseille","lat":43.29275,"lon":5.36849,"is_reserved":false,"is_disabled":false,"rental_uris":{"android":"levelo://app?vid=8a762d92-502c-4e6d-8537-a881b83582c0","ios":"levelo://app?vid=8a762d92-502c-4e6d-8537-a881b83582c0"},"vehicle_type_id":"4","last_reported":1744395214,"current_range_meters":6800,"station_id":"ce4bhbp2rcd13ifvqesg","pricing_plan_id":"cebpf4jnsgd1na2vs0mg"},{"bike_id":"bac330a6-ef29-42f9-a2be-f40785cea4a5","system_id":"levelo_inurba_marseille","lat":43.29268,"lon":5.38448,"is_reserved":false,"is_disabled":false,"rental_uris":{"android":"levelo://app?vid=bac330a6-ef29-42f9-a2be-f40785cea4a5","ios":"levelo://app?vid=bac330a6-ef29-42f9-a2be-f40785cea4a5"},"vehicle_type_id":"4","last_reported":1744395214,"current_range_meters":6800,"station_id":"ce4bh692rcd13ifvqea0","pricing_plan_id":"cebpf4jnsgd1na2vs0mg"},{"bike_id":"4ff1679e-bc8e-4761-91df-0343ca65d83d","system_id":"levelo_inurba_marseille","lat":43.24812,"lon":5.37459,"is_reserved":false,"is_disabled":false,"rental_uris":{"android":"levelo://app?vid=4ff1679e-bc8e-4761-91df-0343ca65d83d","ios":"levelo://app?vid=4ff1679e-bc8e-4761-91df-0343ca65d83d"},"vehicle_type_id":"4","last_reported":1744395214,"current_range_meters":6800,"station_id":"ce4bhgh2rcd13ifvqfb0","pricing_plan_id":"cebpf4jnsgd1na2vs0mg"},{"bike_id":"98ed9328-2f40-44c6-ab75-7124a28bb68d","system_id":"levelo_inurba_marseille","lat":43.28946,"lon":5.36639,"is_reserved":false,"is_disabled":false,"rental_uris":{"android":"levelo://app?vid=98ed9328-2f40-44c6-ab75-7124a28bb68d","ios":"levelo://app?vid=98ed9328-2f40-44c6-ab75-7124a28bb68d"},"vehicle_type_id":"4","last_reported":1744395214,"current_range_meters":6800,"station_id":"ce4bhap2rcd13ifvqek0","pricing_plan_id":"cebpf4jnsgd1na2vs0mg"},{"bike_id":"be0901b2-69ae-4110-bfbf-feb760f4d11e","system_id":"levelo_inurba_marseille","lat":43.31998,"lon":5.38176,"is_reserved":false,"is_disabled":false,"rental_uris":{"android":"levelo://app?vid=be0901b2-69ae-4110-bfbf-feb760f4d11e","ios":"levelo://app?vid=be0901b2-69ae-4110-bfbf-feb760f4d11e"},"vehicle_type_id":"4","last_reported":1744395214,"current_range_meters":6800,"station_id":"ce4bhr12rcd13ifvqhpg","pricing_plan_id":"cebpf4jnsgd1na2vs0mg"},{"bike_id":"180e7634-29b1-46e3-b37c-800891e5336f","system_id":"levelo_inurba_marseille","lat":43.31119,"lon":5.37772,"is_reserved":false,"is_disabled":false,"rental_uris":{"android":"levelo://app?vid=180e7634-29b1-46e3-b37c-800891e5336f","ios":"levelo://app?vid=180e7634-29b1-46e3-b37c-800891e5336f"},"vehicle_type_id":"4","last_reported":1744395214,"current_range_meters":7200,"station_id":"ce4bgt92rcd13ifvqcg0","pricing_plan_id":"cebpf4jnsgd1na2vs0mg"},{"bike_id":"1c3f09b7-443a-4996-88d3-086aa0e449c8","system_id":"levelo_inurba_marseille","lat":43.290459,"lon":5.355754,"is_reserved":false,"is_disabled":false,"rental_uris":{"android":"levelo://app?vid=1c3f09b7-443a-4996-88d3-086aa0e449c8","ios":"levelo://app?vid=1c3f09b7-443a-4996-88d3-086aa0e449c8"},"vehicle_type_id":"4","last_reported":1744395214,"current_range_meters":7200,"station_id":"ce4bgjh2rcd13ifvqbf0","pricing_plan_id":"cebpf4jnsgd1na2vs0mg"},{"bike_id":"32726013-757e-4d24-9225-04536f20d299","system_id":"levelo_inurba_marseille","lat":43.26234,"lon":5.37466,"is_reserved":false,"is_disabled":true,"rental_uris":{"android":"levelo://app?vid=32726013-757e-4d24-9225-04536f20d299","ios":"levelo://app?vid=32726013-757e-4d24-9225-04536f20d299"},"vehicle_type_id":"4","last_reported":1744395214,"current_range_meters":7200,"station_id":"","pricing_plan_id":"cebpf4jnsgd1na2vs0mg"},{"bike_id":"17fd4669-fc7f-4f26-9880-33d462aa22ef","system_id":"levelo_inurba_marseille","lat":43.29502,"lon":5.38518,"is_reserved":false,"is_disabled":false,"rental_uris":{"android":"levelo://app?vid=17fd4669-fc7f-4f26-9880-33d462aa22ef","ios":"levelo://app?vid=17fd4669-fc7f-4f26-9880-33d462aa22ef"},"vehicle_type_id":"4","last_reported":1744395214,"current_range_meters":7200,"station_id":"ce4bgih2rcd13ifvqba0","pricing_plan_id":"cebpf4jnsgd1na2vs0mg"},{"bike_id":"b3dfb2b2-c3e4-4cc3-aedd-b96d8a79bb3e","system_id":"levelo_inurba_marseille","lat":43.29264,"lon":5.38444,"is_reserved":false,"is_disabled":false,"rental_uris":{"android":"levelo://app?vid=b3dfb2b2-c3e4-4cc3-aedd-b96d8a79bb3e","ios":"levelo://app?vid=b3dfb2b2-c3e4-4cc3-aedd-b96d8a79bb3e"},"vehicle_type_id":"4","last_reported":1744395214,"current_range_meters":7200,"station_id":"ce4bh692rcd13ifvqea0","pricing_plan_id":"cebpf4jnsgd1na2vs0mg"},{"bike_id":"a8827283-5cb2-4c69-8f92-cabeabffb47c","system_id":"levelo_inurba_marseille","lat":43.24176,"lon":5.36416,"is_reserved":false,"is_disabled":false,"rental_uris":{"android":"levelo://app?vid=a8827283-5cb2-4c69-8f92-cabeabffb47c","ios":"levelo://app?vid=a8827283-5cb2-4c69-8f92-cabeabffb47c"},"vehicle_type_id":"4","last_reported":1744395214,"current_range_meters":7200,"station_id":"cpo36qri1sfpv3e86is0","pricing_plan_id":"cebpf4jnsgd1na2vs0mg"},{"bike_id":"de00ffad-7a4c-4b39-b9ef-076f634ed864","system_id":"levelo_inurba_marseille","lat":43.31338,"lon":5.39692,"is_reserved":false,"is_disabled":false,"rental_uris":{"android":"levelo://app?vid=de00ffad-7a4c-4b39-b9ef-076f634ed864","ios":"levelo://app?vid=de00ffad-7a4c-4b39-b9ef-076f634ed864"},"vehicle_type_id":"4","last_reported":1744395214,"current_range_meters":7200,"station_id":"ce4bgvp2rcd13ifvqcu0","pricing_plan_id":"cebpf4jnsgd1na2vs0mg"},{"bike_id":"58641589-8c24-4118-a86e-eea892869304","system_id":"levelo_inurba_marseille","lat":43.24184,"lon":5.39724,"is_reserved":false,"is_disabled":false,"rental_uris":{"android":"levelo://app?vid=58641589-8c24-4118-a86e-eea892869304","ios":"levelo://app?vid=58641589-8c24-4118-a86e-eea892869304"},"vehicle_type_id":"4","last_reported":1744395214,"current_range_meters":7200,"station_id":"ce4bhn12rcd13ifvqgpg","pricing_plan_id":"cebpf4jnsgd1na2vs0mg"},{"bike_id":"9b124832-5aac-48fc-ab26-489a32057271","system_id":"levelo_inurba_marseille","lat":43.255,"lon":5.37641,"is_reserved":false,"is_disabled":true,"rental_uris":{"android":"levelo://app?vid=9b124832-5aac-48fc-ab26-489a32057271","ios":"levelo://app?vid=9b124832-5aac-48fc-ab26-489a32057271"},"vehicle_type_id":"4","last_reported":1744395214,"current_range_meters":7200,"station_id":"ce4bhh12rcd13ifvqff0","pricing_plan_id":"cebpf4jnsgd1na2vs0mg"},{"bike_id":"ca047318-7c0d-4316-bc60-22bd92c29d16","system_id":"levelo_inurba_marseille","lat":43.286132,"lon":5.35111,"is_reserved":false,"is_disabled":false,"rental_uris":{"android":"levelo://app?vid=ca047318-7c0d-4316-bc60-22bd92c29d16","ios":"levelo://app?vid=ca047318-7c0d-4316-bc60-22bd92c29d16"},"vehicle_type_id":"4","last_reported":1744395214,"current_range_meters":7200,"station_id":"ce4bhch2rcd13ifvqeug","pricing_plan_id":"cebpf4jnsgd1na2vs0mg"},{"bike_id":"644b3197-0c32-4343-affc-6a2d9aa1b245","system_id":"levelo_inurba_marseille","lat":43.29528,"lon":5.38536,"is_reserved":false,"is_disabled":false,"rental_uris":{"android":"levelo://app?vid=644b3197-0c32-4343-affc-6a2d9aa1b245","ios":"levelo://app?vid=644b3197-0c32-4343-affc-6a2d9aa1b245"},"vehicle_type_id":"4","last_reported":1744395214,"current_range_meters":7200,"station_id":"ce4bgih2rcd13ifvqba0","pricing_plan_id":"cebpf4jnsgd1na2vs0mg"},{"bike_id":"2a139762-b432-4805-a06c-1d012964cce8","system_id":"levelo_inurba_marseille","lat":43.32289,"lon":5.38276,"is_reserved":false,"is_disabled":false,"rental_uris":{"android":"levelo://app?vid=2a139762-b432-4805-a06c-1d012964cce8","ios":"levelo://app?vid=2a139762-b432-4805-a06c-1d012964cce8"},"vehicle_type_id":"4","last_reported":1744395214,"current_range_meters":7200,"station_id":"ce4bhr12rcd13ifvqhqg","pricing_plan_id":"cebpf4jnsgd1na2vs0mg"},{"bike_id":"ed3cd1cf-26c2-40f9-9a13-2cff0b3756d0","system_id":"levelo_inurba_marseille","lat":43.27946,"lon":5.41042,"is_reserved":false,"is_disabled":false,"rental_uris":{"android":"levelo://app?vid=ed3cd1cf-26c2-40f9-9a13-2cff0b3756d0","ios":"levelo://app?vid=ed3cd1cf-26c2-40f9-9a13-2cff0b3756d0"},"vehicle_type_id":"4","last_reported":1744395214,"current_range_meters":8000,"station_id":"ce4bhnp2rcd13ifvqh0g","pricing_plan_id":"cebpf4jnsgd1na2vs0mg"},{"bike_id":"9f1f73e6-ac25-4533-8fb8-fdd47e332653","system_id":"levelo_inurba_marseille","lat":43.26236,"lon":5.40463,"is_reserved":false,"is_disabled":false,"rental_uris":{"android":"levelo://app?vid=9f1f73e6-ac25-4533-8fb8-fdd47e332653","ios":"levelo://app?vid=9f1f73e6-ac25-4533-8fb8-fdd47e332653"},"vehicle_type_id":"4","last_reported":1744395214,"current_range_meters":8000,"station_id":"ce4bhmh2rcd13ifvqgmg","pricing_plan_id":"cebpf4jnsgd1na2vs0mg"},{"bike_id":"29ca4be3-ca71-4e9e-bf10-d7adceca3975","system_id":"levelo_inurba_marseille","lat":43.28946,"lon":5.36643,"is_reserved":false,"is_disabled":false,"rental_uris":{"android":"levelo://app?vid=29ca4be3-ca71-4e9e-bf10-d7adceca3975","ios":"levelo://app?vid=29ca4be3-ca71-4e9e-bf10-d7adceca3975"},"vehicle_type_id":"4","last_reported":1744395214,"current_range_meters":8000,"station_id":"ce4bhap2rcd13ifvqek0","pricing_plan_id":"cebpf4jnsgd1na2vs0mg"},{"bike_id":"4f211b05-2cb6-4c6c-9e75-0267de8b5609","system_id":"levelo_inurba_marseille","lat":43.29019,"lon":5.3813,"is_reserved":false,"is_disabled":false,"rental_uris":{"android":"levelo://app?vid=4f211b05-2cb6-4c6c-9e75-0267de8b5609","ios":"levelo://app?vid=4f211b05-2cb6-4c6c-9e75-0267de8b5609"},"vehicle_type_id":"4","last_reported":1744395214,"current_range_meters":8000,"station_id":"ce4bh4p2rcd13ifvqe1g","pricing_plan_id":"cebpf4jnsgd1na2vs0mg"},{"bike_id":"a9f344a9-b5c4-4c6f-adc4-6177f6c8159a","system_id":"levelo_inurba_marseille","lat":43.32805,"lon":5.39757,"is_reserved":false,"is_disabled":false,"rental_uris":{"android":"levelo://app?vid=a9f344a9-b5c4-4c6f-adc4-6177f6c8159a","ios":"levelo://app?vid=a9f344a9-b5c4-4c6f-adc4-6177f6c8159a"},"vehicle_type_id":"4","last_reported":1744395214,"current_range_meters":8000,"station_id":"","pricing_plan_id":"cebpf4jnsgd1na2vs0mg"},{"bike_id":"81c07ffb-ae3f-44d0-aa9e-f1f89d1cb58d","system_id":"levelo_inurba_marseille","lat":43.298868,"lon":5.381032,"is_reserved":false,"is_disabled":false,"rental_uris":{"android":"levelo://app?vid=81c07ffb-ae3f-44d0-aa9e-f1f89d1cb58d","ios":"levelo://app?vid=81c07ffb-ae3f-44d0-aa9e-f1f89d1cb58d"},"vehicle_type_id":"4","last_reported":1744395214,"current_range_meters":8000,"station_id":"ce4bh192rcd13ifvqdb0","pricing_plan_id":"cebpf4jnsgd1na2vs0mg"},{"bike_id":"629f5387-f4ea-4ff5-8edc-1026cd3b6fa9","system_id":"levelo_inurba_marseille","lat":43.28012,"lon":5.41677,"is_reserved":false,"is_disabled":false,"rental_uris":{"android":"levelo://app?vid=629f5387-f4ea-4ff5-8edc-1026cd3b6fa9","ios":"levelo://app?vid=629f5387-f4ea-4ff5-8edc-1026cd3b6fa9"},"vehicle_type_id":"4","last_reported":1744395214,"current_range_meters":8000,"station_id":"ce4bho12rcd13ifvqh1g","pricing_plan_id":"cebpf4jnsgd1na2vs0mg"},{"bike_id":"744d9e13-4644-4443-baa0-d58aa61dc002","system_id":"levelo_inurba_marseille","lat":43.24813,"lon":5.37465,"is_reserved":false,"is_disabled":false,"rental_uris":{"android":"levelo://app?vid=744d9e13-4644-4443-baa0-d58aa61dc002","ios":"levelo://app?vid=744d9e13-4644-4443-baa0-d58aa61dc002"},"vehicle_type_id":"4","last_reported":1744395214,"current_range_meters":8400,"station_id":"ce4bhgh2rcd13ifvqfb0","pricing_plan_id":"cebpf4jnsgd1na2vs0mg"},{"bike_id":"0a95f64f-7b3c-4521-b1d7-c24c8cc9638c","system_id":"levelo_inurba_marseille","lat":43.29266,"lon":5.38452,"is_reserved":false,"is_disabled":false,"rental_uris":{"android":"levelo://app?vid=0a95f64f-7b3c-4521-b1d7-c24c8cc9638c","ios":"levelo://app?vid=0a95f64f-7b3c-4521-b1d7-c24c8cc9638c"},"vehicle_type_id":"4","last_reported":1744395214,"current_range_meters":8400,"station_id":"ce4bh692rcd13ifvqea0","pricing_plan_id":"cebpf4jnsgd1na2vs0mg"},{"bike_id":"442dc811-42b4-4bc7-ad29-d412932d95c5","system_id":"levelo_inurba_marseille","lat":43.24385,"lon":5.39647,"is_reserved":false,"is_disabled":false,"rental_uris":{"android":"levelo://app?vid=442dc811-42b4-4bc7-ad29-d412932d95c5","ios":"levelo://app?vid=442dc811-42b4-4bc7-ad29-d412932d95c5"},"vehicle_type_id":"4","last_reported":1744395214,"current_range_meters":8400,"station_id":"","pricing_plan_id":"cebpf4jnsgd1na2vs0mg"},{"bike_id":"8059e65e-9f98-40fc-8bd0-3f54c33bbcf5","system_id":"levelo_inurba_marseille","lat":43.28408,"lon":5.37532,"is_reserved":false,"is_disabled":false,"rental_uris":{"android":"levelo://app?vid=8059e65e-9f98-40fc-8bd0-3f54c33bbcf5","ios":"levelo://app?vid=8059e65e-9f98-40fc-8bd0-3f54c33bbcf5"},"vehicle_type_id":"4","last_reported":1744395214,"current_range_meters":8400,"station_id":"ce4bh412rcd13ifvqds0","pricing_plan_id":"cebpf4jnsgd1na2vs0mg"},{"bike_id":"8ca3bf26-3d9b-4a2b-b6f2-fd2b9e87b3e8","system_id":"levelo_inurba_marseille","lat":43.31706,"lon":5.40474,"is_reserved":false,"is_disabled":false,"rental_uris":{"android":"levelo://app?vid=8ca3bf26-3d9b-4a2b-b6f2-fd2b9e87b3e8","ios":"levelo://app?vid=8ca3bf26-3d9b-4a2b-b6f2-fd2b9e87b3e8"},"vehicle_type_id":"4","last_reported":1744395214,"current_range_meters":8400,"station_id":"ce4bh012rcd13ifvqd00","pricing_plan_id":"cebpf4jnsgd1na2vs0mg"},{"bike_id":"ce264260-b4bb-4b3e-8b71-12597f406c2e","system_id":"levelo_inurba_marseille","lat":43.28364,"lon":5.38634,"is_reserved":false,"is_disabled":false,"rental_uris":{"android":"levelo://app?vid=ce264260-b4bb-4b3e-8b71-12597f406c2e","ios":"levelo://app?vid=ce264260-b4bb-4b3e-8b71-12597f406c2e"},"vehicle_type_id":"4","last_reported":1744395214,"current_range_meters":8400,"station_id":"ce4bh492rcd13ifvqdvg","pricing_plan_id":"cebpf4jnsgd1na2vs0mg"},{"bike_id":"788921b6-d940-4926-b734-c4dbf07655e0","system_id":"levelo_inurba_marseille","lat":43.295289,"lon":5.374658,"is_reserved":false,"is_disabled":false,"rental_uris":{"android":"levelo://app?vid=788921b6-d940-4926-b734-c4dbf07655e0","ios":"levelo://app?vid=788921b6-d940-4926-b734-c4dbf07655e0"},"vehicle_type_id":"4","last_reported":1744395214,"current_range_meters":8400,"station_id":"ce4bgih2rcd13ifvqba0","pricing_plan_id":"cebpf4jnsgd1na2vs0mg"},{"bike_id":"32a9e707-c14a-4611-baeb-86228ad6373d","system_id":"levelo_inurba_marseille","lat":43.29415,"lon":5.38624,"is_reserved":false,"is_disabled":false,"rental_uris":{"android":"levelo://app?vid=32a9e707-c14a-4611-baeb-86228ad6373d","ios":"levelo://app?vid=32a9e707-c14a-4611-baeb-86228ad6373d"},"vehicle_type_id":"4","last_reported":1744395214,"current_range_meters":8400,"station_id":"ce4bh2h2rcd13ifvqdh0","pricing_plan_id":"cebpf4jnsgd1na2vs0mg"},{"bike_id":"eb4c813d-f8bd-41d6-abd8-b2b1dab6da62","system_id":"levelo_inurba_marseille","lat":43.28419,"lon":5.34986,"is_reserved":false,"is_disabled":false,"rental_uris":{"android":"levelo://app?vid=eb4c813d-f8bd-41d6-abd8-b2b1dab6da62","ios":"levelo://app?vid=eb4c813d-f8bd-41d6-abd8-b2b1dab6da62"},"vehicle_type_id":"4","last_reported":1744395214,"current_range_meters":8400,"station_id":"ce4bhbh2rcd13ifvqepg","pricing_plan_id":"cebpf4jnsgd1na2vs0mg"},{"bike_id":"27e7107e-e475-4cb7-88c8-f6435edb97c6","system_id":"levelo_inurba_marseille","lat":43.28434,"lon":5.35003,"is_reserved":false,"is_disabled":false,"rental_uris":{"android":"levelo://app?vid=27e7107e-e475-4cb7-88c8-f6435edb97c6","ios":"levelo://app?vid=27e7107e-e475-4cb7-88c8-f6435edb97c6"},"vehicle_type_id":"4","last_reported":1744395214,"current_range_meters":8400,"station_id":"ce4bhbh2rcd13ifvqepg","pricing_plan_id":"cebpf4jnsgd1na2vs0mg"},{"bike_id":"33a4e959-7c3f-4814-9b24-1108d1458a52","system_id":"levelo_inurba_marseille","lat":43.28152,"lon":5.42655,"is_reserved":false,"is_disabled":false,"rental_uris":{"android":"levelo://app?vid=33a4e959-7c3f-4814-9b24-1108d1458a52","ios":"levelo://app?vid=33a4e959-7c3f-4814-9b24-1108d1458a52"},"vehicle_type_id":"4","last_reported":1744395214,"current_range_meters":8400,"station_id":"ce4bhnh2rcd13ifvqgug","pricing_plan_id":"cebpf4jnsgd1na2vs0mg"},{"bike_id":"820eae00-4001-4b93-98cd-bfbd5fc6ebfe","system_id":"levelo_inurba_marseille","lat":43.26809,"lon":5.40272,"is_reserved":false,"is_disabled":false,"rental_uris":{"android":"levelo://app?vid=820eae00-4001-4b93-98cd-bfbd5fc6ebfe","ios":"levelo://app?vid=820eae00-4001-4b93-98cd-bfbd5fc6ebfe"},"vehicle_type_id":"4","last_reported":1744395214,"current_range_meters":8400,"station_id":"ce501612rcd8frsf0b60","pricing_plan_id":"cebpf4jnsgd1na2vs0mg"},{"bike_id":"d22acecf-4b34-48b9-b1f7-913e76484e75","system_id":"levelo_inurba_marseille","lat":43.29311,"lon":5.3718,"is_reserved":false,"is_disabled":false,"rental_uris":{"android":"levelo://app?vid=d22acecf-4b34-48b9-b1f7-913e76484e75","ios":"levelo://app?vid=d22acecf-4b34-48b9-b1f7-913e76484e75"},"vehicle_type_id":"4","last_reported":1744395214,"current_range_meters":8400,"station_id":"ce4bgh92rcd13ifvqb40","pricing_plan_id":"cebpf4jnsgd1na2vs0mg"},{"bike_id":"abaf8575-d5c4-4a53-8279-3451469d553f","system_id":"levelo_inurba_marseille","lat":43.28491,"lon":5.38565,"is_reserved":false,"is_disabled":false,"rental_uris":{"android":"levelo://app?vid=abaf8575-d5c4-4a53-8279-3451469d553f","ios":"levelo://app?vid=abaf8575-d5c4-4a53-8279-3451469d553f"},"vehicle_type_id":"4","last_reported":1744395214,"current_range_meters":8800,"station_id":"ce4bh8p2rcd13ifvqeb0","pricing_plan_id":"cebpf4jnsgd1na2vs0mg"},{"bike_id":"a2ade16d-8581-4078-8188-c6c37a970ede","system_id":"levelo_inurba_marseille","lat":43.29613,"lon":5.38091,"is_reserved":false,"is_disabled":false,"rental_uris":{"android":"levelo://app?vid=a2ade16d-8581-4078-8188-c6c37a970ede","ios":"levelo://app?vid=a2ade16d-8581-4078-8188-c6c37a970ede"},"vehicle_type_id":"4","last_reported":1744395214,"current_range_meters":8800,"station_id":"ce4bgl12rcd13ifvqbo0","pricing_plan_id":"cebpf4jnsgd1na2vs0mg"},{"bike_id":"f5fb5c6b-9b77-4d1a-8d94-024c8cda5c6e","system_id":"levelo_inurba_marseille","lat":43.25003,"lon":5.38933,"is_reserved":false,"is_disabled":false,"rental_uris":{"android":"levelo://app?vid=f5fb5c6b-9b77-4d1a-8d94-024c8cda5c6e","ios":"levelo://app?vid=f5fb5c6b-9b77-4d1a-8d94-024c8cda5c6e"},"vehicle_type_id":"4","last_reported":1744395214,"current_range_meters":8800,"station_id":"ce4bhgp2rcd13ifvqfd0","pricing_plan_id":"cebpf4jnsgd1na2vs0mg"},{"bike_id":"28ce3fc7-24e0-435f-8c79-7d026b4214a5","system_id":"levelo_inurba_marseille","lat":43.29529,"lon":5.38535,"is_reserved":false,"is_disabled":false,"rental_uris":{"android":"levelo://app?vid=28ce3fc7-24e0-435f-8c79-7d026b4214a5","ios":"levelo://app?vid=28ce3fc7-24e0-435f-8c79-7d026b4214a5"},"vehicle_type_id":"4","last_reported":1744395214,"current_range_meters":8800,"station_id":"ce4bgih2rcd13ifvqba0","pricing_plan_id":"cebpf4jnsgd1na2vs0mg"},{"bike_id":"eab6cbfa-cb8e-47d7-b0d6-226ab7facec7","system_id":"levelo_inurba_marseille","lat":43.31718,"lon":5.4235,"is_reserved":false,"is_disabled":true,"rental_uris":{"android":"levelo://app?vid=eab6cbfa-cb8e-47d7-b0d6-226ab7facec7","ios":"levelo://app?vid=eab6cbfa-cb8e-47d7-b0d6-226ab7facec7"},"vehicle_type_id":"4","last_reported":1744395214,"current_range_meters":8800,"station_id":"ce4bhp92rcd13ifvqhbg","pricing_plan_id":"cebpf4jnsgd1na2vs0mg"},{"bike_id":"856ccc33-ce09-4d5c-811a-18013f612504","system_id":"levelo_inurba_marseille","lat":43.286623,"lon":5.363443,"is_reserved":false,"is_disabled":false,"rental_uris":{"android":"levelo://app?vid=856ccc33-ce09-4d5c-811a-18013f612504","ios":"levelo://app?vid=856ccc33-ce09-4d5c-811a-18013f612504"},"vehicle_type_id":"4","last_reported":1744395214,"current_range_meters":9200,"station_id":"ce4bhah2rcd13ifvqej0","pricing_plan_id":"cebpf4jnsgd1na2vs0mg"},{"bike_id":"d9c7ac37-d3e0-4d92-b110-913c5923522e","system_id":"levelo_inurba_marseille","lat":43.297882,"lon":5.38087,"is_reserved":false,"is_disabled":false,"rental_uris":{"android":"levelo://app?vid=d9c7ac37-d3e0-4d92-b110-913c5923522e","ios":"levelo://app?vid=d9c7ac37-d3e0-4d92-b110-913c5923522e"},"vehicle_type_id":"4","last_reported":1744395214,"current_range_meters":9200,"station_id":"ce4bgip2rcd13ifvqbb0","pricing_plan_id":"cebpf4jnsgd1na2vs0mg"},{"bike_id":"6eedcc86-84d7-4a3a-84bc-07e71a31170c","system_id":"levelo_inurba_marseille","lat":43.31705,"lon":5.40451,"is_reserved":false,"is_disabled":false,"rental_uris":{"android":"levelo://app?vid=6eedcc86-84d7-4a3a-84bc-07e71a31170c","ios":"levelo://app?vid=6eedcc86-84d7-4a3a-84bc-07e71a31170c"},"vehicle_type_id":"4","last_reported":1744395214,"current_range_meters":9200,"station_id":"ce4bh012rcd13ifvqd00","pricing_plan_id":"cebpf4jnsgd1na2vs0mg"},{"bike_id":"e6a9ee71-9aa9-40e0-9afe-897c88fa9571","system_id":"levelo_inurba_marseille","lat":43.24182,"lon":5.36417,"is_reserved":false,"is_disabled":false,"rental_uris":{"android":"levelo://app?vid=e6a9ee71-9aa9-40e0-9afe-897c88fa9571","ios":"levelo://app?vid=e6a9ee71-9aa9-40e0-9afe-897c88fa9571"},"vehicle_type_id":"4","last_reported":1744395214,"current_range_meters":9200,"station_id":"cpo36qri1sfpv3e86is0","pricing_plan_id":"cebpf4jnsgd1na2vs0mg"},{"bike_id":"7a3a95ca-8666-42ad-bb39-3a056432da59","system_id":"levelo_inurba_marseille","lat":43.2922,"lon":5.36053,"is_reserved":false,"is_disabled":false,"rental_uris":{"android":"levelo://app?vid=7a3a95ca-8666-42ad-bb39-3a056432da59","ios":"levelo://app?vid=7a3a95ca-8666-42ad-bb39-3a056432da59"},"vehicle_type_id":"4","last_reported":1744395214,"current_range_meters":9200,"station_id":"ce4bhbh2rcd13ifvqeqg","pricing_plan_id":"cebpf4jnsgd1na2vs0mg"},{"bike_id":"c528a090-f9c5-4da8-a916-c4b63aace1f5","system_id":"levelo_inurba_marseille","lat":43.28084,"lon":5.39655,"is_reserved":false,"is_disabled":false,"rental_uris":{"android":"levelo://app?vid=c528a090-f9c5-4da8-a916-c4b63aace1f5","ios":"levelo://app?vid=c528a090-f9c5-4da8-a916-c4b63aace1f5"},"vehicle_type_id":"4","last_reported":1744395214,"current_range_meters":9200,"station_id":"ce4bho12rcd13ifvqh2g","pricing_plan_id":"cebpf4jnsgd1na2vs0mg"},{"bike_id":"ed7489f8-1c80-4776-b3d4-6eddb3920582","system_id":"levelo_inurba_marseille","lat":43.28847,"lon":5.39334,"is_reserved":false,"is_disabled":false,"rental_uris":{"android":"levelo://app?vid=ed7489f8-1c80-4776-b3d4-6eddb3920582","ios":"levelo://app?vid=ed7489f8-1c80-4776-b3d4-6eddb3920582"},"vehicle_type_id":"4","last_reported":1744395214,"current_range_meters":9200,"station_id":"ce4bh2p2rcd13ifvqdi0","pricing_plan_id":"cebpf4jnsgd1na2vs0mg"},{"bike_id":"52e0f718-e938-4435-8cd2-02a925563a63","system_id":"levelo_inurba_marseille","lat":43.286083,"lon":5.351024,"is_reserved":false,"is_disabled":false,"rental_uris":{"android":"levelo://app?vid=52e0f718-e938-4435-8cd2-02a925563a63","ios":"levelo://app?vid=52e0f718-e938-4435-8cd2-02a925563a63"},"vehicle_type_id":"4","last_reported":1744395214,"current_range_meters":9200,"station_id":"ce4bhch2rcd13ifvqeug","pricing_plan_id":"cebpf4jnsgd1na2vs0mg"},{"bike_id":"0caca7db-de71-446f-98f3-fdcdba6b4d4d","system_id":"levelo_inurba_marseille","lat":43.24813,"lon":5.37456,"is_reserved":false,"is_disabled":false,"rental_uris":{"android":"levelo://app?vid=0caca7db-de71-446f-98f3-fdcdba6b4d4d","ios":"levelo://app?vid=0caca7db-de71-446f-98f3-fdcdba6b4d4d"},"vehicle_type_id":"4","last_reported":1744395214,"current_range_meters":9200,"station_id":"ce4bhgh2rcd13ifvqfb0","pricing_plan_id":"cebpf4jnsgd1na2vs0mg"},{"bike_id":"02b5ad33-95a4-4745-b7f7-95d6f407b493","system_id":"levelo_inurba_marseille","lat":43.24167,"lon":5.36389,"is_reserved":false,"is_disabled":false,"rental_uris":{"android":"levelo://app?vid=02b5ad33-95a4-4745-b7f7-95d6f407b493","ios":"levelo://app?vid=02b5ad33-95a4-4745-b7f7-95d6f407b493"},"vehicle_type_id":"4","last_reported":1744395214,"current_range_meters":9600,"station_id":"cpo36qri1sfpv3e86is0","pricing_plan_id":"cebpf4jnsgd1na2vs0mg"},{"bike_id":"b2bba321-5d21-4c7b-961c-05e5a93b889f","system_id":"levelo_inurba_marseille","lat":43.29063,"lon":5.37159,"is_reserved":false,"is_disabled":false,"rental_uris":{"android":"levelo://app?vid=b2bba321-5d21-4c7b-961c-05e5a93b889f","ios":"levelo://app?vid=b2bba321-5d21-4c7b-961c-05e5a93b889f"},"vehicle_type_id":"4","last_reported":1744395214,"current_range_meters":9600,"station_id":"ce4bh5p2rcd13ifvqe4g","pricing_plan_id":"cebpf4jnsgd1na2vs0mg"},{"bike_id":"348c3600-3c4c-47cd-b576-44bc9995d7ef","system_id":"levelo_inurba_marseille","lat":43.271698,"lon":5.40552,"is_reserved":false,"is_disabled":false,"rental_uris":{"android":"levelo://app?vid=348c3600-3c4c-47cd-b576-44bc9995d7ef","ios":"levelo://app?vid=348c3600-3c4c-47cd-b576-44bc9995d7ef"},"vehicle_type_id":"4","last_reported":1744395214,"current_range_meters":9600,"station_id":"","pricing_plan_id":"cebpf4jnsgd1na2vs0mg"},{"bike_id":"99b08eb7-0f97-4890-866f-7a2c748eb454","system_id":"levelo_inurba_marseille","lat":43.28275,"lon":5.35074,"is_reserved":false,"is_disabled":false,"rental_uris":{"android":"levelo://app?vid=99b08eb7-0f97-4890-866f-7a2c748eb454","ios":"levelo://app?vid=99b08eb7-0f97-4890-866f-7a2c748eb454"},"vehicle_type_id":"4","last_reported":1744395214,"current_range_meters":9600,"station_id":"ce4bhbp2rcd13ifvqerg","pricing_plan_id":"cebpf4jnsgd1na2vs0mg"},{"bike_id":"fb1c666e-1ce5-4b78-ae28-c1283e402de3","system_id":"levelo_inurba_marseille","lat":43.29305,"lon":5.37465,"is_reserved":false,"is_disabled":false,"rental_uris":{"android":"levelo://app?vid=fb1c666e-1ce5-4b78-ae28-c1283e402de3","ios":"levelo://app?vid=fb1c666e-1ce5-4b78-ae28-c1283e402de3"},"vehicle_type_id":"4","last_reported":1744395214,"current_range_meters":9600,"station_id":"ce4bgi12rcd13ifvqb70","pricing_plan_id":"cebpf4jnsgd1na2vs0mg"},{"bike_id":"515e38b1-efa8-477a-b6e8-19f7b6379267","system_id":"levelo_inurba_marseille","lat":43.29421,"lon":5.38651,"is_reserved":false,"is_disabled":false,"rental_uris":{"android":"levelo://app?vid=515e38b1-efa8-477a-b6e8-19f7b6379267","ios":"levelo://app?vid=515e38b1-efa8-477a-b6e8-19f7b6379267"},"vehicle_type_id":"4","last_reported":1744395214,"current_range_meters":9600,"station_id":"ce4bh2h2rcd13ifvqdh0","pricing_plan_id":"cebpf4jnsgd1na2vs0mg"},{"bike_id":"9ffb15e3-d668-40f6-9262-ec832074fa0e","system_id":"levelo_inurba_marseille","lat":43.29195,"lon":5.35814,"is_reserved":false,"is_disabled":false,"rental_uris":{"android":"levelo://app?vid=9ffb15e3-d668-40f6-9262-ec832074fa0e","ios":"levelo://app?vid=9ffb15e3-d668-40f6-9262-ec832074fa0e"},"vehicle_type_id":"4","last_reported":1744395214,"current_range_meters":9600,"station_id":"ce4bhb12rcd13ifvqel0","pricing_plan_id":"cebpf4jnsgd1na2vs0mg"},{"bike_id":"457508c1-f60d-4bd2-bc15-a0cd5457630b","system_id":"levelo_inurba_marseille","lat":43.28934,"lon":5.36638,"is_reserved":false,"is_disabled":false,"rental_uris":{"android":"levelo://app?vid=457508c1-f60d-4bd2-bc15-a0cd5457630b","ios":"levelo://app?vid=457508c1-f60d-4bd2-bc15-a0cd5457630b"},"vehicle_type_id":"4","last_reported":1744395214,"current_range_meters":9600,"station_id":"ce4bhap2rcd13ifvqek0","pricing_plan_id":"cebpf4jnsgd1na2vs0mg"},{"bike_id":"adfabbc8-a1be-4724-af85-acd281dccc54","system_id":"levelo_inurba_marseille","lat":43.28137,"lon":5.42644,"is_reserved":false,"is_disabled":false,"rental_uris":{"android":"levelo://app?vid=adfabbc8-a1be-4724-af85-acd281dccc54","ios":"levelo://app?vid=adfabbc8-a1be-4724-af85-acd281dccc54"},"vehicle_type_id":"4","last_reported":1744395214,"current_range_meters":9600,"station_id":"ce4bhnh2rcd13ifvqgug","pricing_plan_id":"cebpf4jnsgd1na2vs0mg"},{"bike_id":"f877c338-6a42-44ca-96ac-666cdd4eb45d","system_id":"levelo_inurba_marseille","lat":43.29197,"lon":5.39324,"is_reserved":false,"is_disabled":false,"rental_uris":{"android":"levelo://app?vid=f877c338-6a42-44ca-96ac-666cdd4eb45d","ios":"levelo://app?vid=f877c338-6a42-44ca-96ac-666cdd4eb45d"},"vehicle_type_id":"4","last_reported":1744395214,"current_range_meters":9600,"station_id":"ce4bh192rcd13ifvqdd0","pricing_plan_id":"cebpf4jnsgd1na2vs0mg"},{"bike_id":"a8fb7889-c5f0-40d5-8854-1a41c2ceb681","system_id":"levelo_inurba_marseille","lat":43.29598,"lon":5.38089,"is_reserved":false,"is_disabled":false,"rental_uris":{"android":"levelo://app?vid=a8fb7889-c5f0-40d5-8854-1a41c2ceb681","ios":"levelo://app?vid=a8fb7889-c5f0-40d5-8854-1a41c2ceb681"},"vehicle_type_id":"4","last_reported":1744395214,"current_range_meters":10000,"station_id":"ce4bgl12rcd13ifvqbo0","pricing_plan_id":"cebpf4jnsgd1na2vs0mg"},{"bike_id":"96a461bf-7e3a-4871-9f5b-dddeae761267","system_id":"levelo_inurba_marseille","lat":43.27429,"lon":5.39413,"is_reserved":false,"is_disabled":false,"rental_uris":{"android":"levelo://app?vid=96a461bf-7e3a-4871-9f5b-dddeae761267","ios":"levelo://app?vid=96a461bf-7e3a-4871-9f5b-dddeae761267"},"vehicle_type_id":"4","last_reported":1744395214,"current_range_meters":10000,"station_id":"ce4bhdp2rcd13ifvqf20","pricing_plan_id":"cebpf4jnsgd1na2vs0mg"},{"bike_id":"41fcc547-f15f-4157-8213-6af94cca17a4","system_id":"levelo_inurba_marseille","lat":43.29432,"lon":5.38634,"is_reserved":false,"is_disabled":false,"rental_uris":{"android":"levelo://app?vid=41fcc547-f15f-4157-8213-6af94cca17a4","ios":"levelo://app?vid=41fcc547-f15f-4157-8213-6af94cca17a4"},"vehicle_type_id":"4","last_reported":1744395214,"current_range_meters":10000,"station_id":"ce4bh2h2rcd13ifvqdh0","pricing_plan_id":"cebpf4jnsgd1na2vs0mg"},{"bike_id":"72efb406-92de-42fc-8538-6ae43bbdf675","system_id":"levelo_inurba_marseille","lat":43.29949,"lon":5.384815,"is_reserved":false,"is_disabled":false,"rental_uris":{"android":"levelo://app?vid=72efb406-92de-42fc-8538-6ae43bbdf675","ios":"levelo://app?vid=72efb406-92de-42fc-8538-6ae43bbdf675"},"vehicle_type_id":"4","last_reported":1744395214,"current_range_meters":9600,"station_id":"ce4bgs12rcd13ifvqcag","pricing_plan_id":"cebpf4jnsgd1na2vs0mg"},{"bike_id":"20eb53d5-dc7b-4fbe-a6da-7e0a348438c0","system_id":"levelo_inurba_marseille","lat":43.27923,"lon":5.39588,"is_reserved":false,"is_disabled":true,"rental_uris":{"android":"levelo://app?vid=20eb53d5-dc7b-4fbe-a6da-7e0a348438c0","ios":"levelo://app?vid=20eb53d5-dc7b-4fbe-a6da-7e0a348438c0"},"vehicle_type_id":"4","last_reported":1744395214,"current_range_meters":10000,"station_id":"ce4bhf92rcd13ifvqf40","pricing_plan_id":"cebpf4jnsgd1na2vs0mg"},{"bike_id":"cc83a7aa-57a1-4769-9137-8531613b4691","system_id":"levelo_inurba_marseille","lat":43.31244,"lon":5.37309,"is_reserved":false,"is_disabled":false,"rental_uris":{"android":"levelo://app?vid=cc83a7aa-57a1-4769-9137-8531613b4691","ios":"levelo://app?vid=cc83a7aa-57a1-4769-9137-8531613b4691"},"vehicle_type_id":"4","last_reported":1744395214,"current_range_meters":10800,"station_id":"","pricing_plan_id":"cebpf4jnsgd1na2vs0mg"},{"bike_id":"b211b539-c8d9-4332-92a5-5eb122ed6756","system_id":"levelo_inurba_marseille","lat":43.30145,"lon":5.39883,"is_reserved":false,"is_disabled":false,"rental_uris":{"android":"levelo://app?vid=b211b539-c8d9-4332-92a5-5eb122ed6756","ios":"levelo://app?vid=b211b539-c8d9-4332-92a5-5eb122ed6756"},"vehicle_type_id":"4","last_reported":1744395214,"current_range_meters":10800,"station_id":"ce4bh0h2rcd13ifvqd40","pricing_plan_id":"cebpf4jnsgd1na2vs0mg"},{"bike_id":"2aca5061-7625-4ba9-940c-e57a927da3ef","system_id":"levelo_inurba_marseille","lat":43.239585,"lon":5.366364,"is_reserved":false,"is_disabled":false,"rental_uris":{"android":"levelo://app?vid=2aca5061-7625-4ba9-940c-e57a927da3ef","ios":"levelo://app?vid=2aca5061-7625-4ba9-940c-e57a927da3ef"},"vehicle_type_id":"4","last_reported":1744395214,"current_range_meters":10800,"station_id":"","pricing_plan_id":"cebpf4jnsgd1na2vs0mg"},{"bike_id":"e95173bf-5000-423b-8575-6fe8904045e9","system_id":"levelo_inurba_marseille","lat":43.29334,"lon":5.41155,"is_reserved":false,"is_disabled":false,"rental_uris":{"android":"levelo://app?vid=e95173bf-5000-423b-8575-6fe8904045e9","ios":"levelo://app?vid=e95173bf-5000-423b-8575-6fe8904045e9"},"vehicle_type_id":"4","last_reported":1744395214,"current_range_meters":10800,"station_id":"","pricing_plan_id":"cebpf4jnsgd1na2vs0mg"},{"bike_id":"94455896-0f19-4fae-bd72-9879f01fcd6e","system_id":"levelo_inurba_marseille","lat":43.29581,"lon":5.42302,"is_reserved":false,"is_disabled":true,"rental_uris":{"android":"levelo://app?vid=94455896-0f19-4fae-bd72-9879f01fcd6e","ios":"levelo://app?vid=94455896-0f19-4fae-bd72-9879f01fcd6e"},"vehicle_type_id":"4","last_reported":1744395214,"current_range_meters":10800,"station_id":"ce4bhph2rcd13ifvqhdg","pricing_plan_id":"cebpf4jnsgd1na2vs0mg"},{"bike_id":"bf349cec-998b-4ef6-a0d6-4c16e7592035","system_id":"levelo_inurba_marseille","lat":43.29035,"lon":5.3866,"is_reserved":false,"is_disabled":true,"rental_uris":{"android":"levelo://app?vid=bf349cec-998b-4ef6-a0d6-4c16e7592035","ios":"levelo://app?vid=bf349cec-998b-4ef6-a0d6-4c16e7592035"},"vehicle_type_id":"4","last_reported":1744395214,"current_range_meters":10800,"station_id":"ce4bh4p2rcd13ifvqe0g","pricing_plan_id":"cebpf4jnsgd1na2vs0mg"},{"bike_id":"5cbd6920-e86e-449a-9470-bc78d120719f","system_id":"levelo_inurba_marseille","lat":43.29268,"lon":5.38442,"is_reserved":false,"is_disabled":false,"rental_uris":{"android":"levelo://app?vid=5cbd6920-e86e-449a-9470-bc78d120719f","ios":"levelo://app?vid=5cbd6920-e86e-449a-9470-bc78d120719f"},"vehicle_type_id":"4","last_reported":1744395214,"current_range_meters":10800,"station_id":"ce4bh692rcd13ifvqea0","pricing_plan_id":"cebpf4jnsgd1na2vs0mg"},{"bike_id":"a9a33d43-0f08-4a2e-8958-87642685b6b6","system_id":"levelo_inurba_marseille","lat":43.29095,"lon":5.38138,"is_reserved":false,"is_disabled":false,"rental_uris":{"android":"levelo://app?vid=a9a33d43-0f08-4a2e-8958-87642685b6b6","ios":"levelo://app?vid=a9a33d43-0f08-4a2e-8958-87642685b6b6"},"vehicle_type_id":"4","last_reported":1744395214,"current_range_meters":10800,"station_id":"ce4bh512rcd13ifvqe2g","pricing_plan_id":"cebpf4jnsgd1na2vs0mg"},{"bike_id":"4fb90235-8809-4ede-a19c-01bbc5339eed","system_id":"levelo_inurba_marseille","lat":43.272665,"lon":5.406554,"is_reserved":false,"is_disabled":false,"rental_uris":{"android":"levelo://app?vid=4fb90235-8809-4ede-a19c-01bbc5339eed","ios":"levelo://app?vid=4fb90235-8809-4ede-a19c-01bbc5339eed"},"vehicle_type_id":"4","last_reported":1744395214,"current_range_meters":11200,"station_id":"ce4bhnh2rcd13ifvqgtg","pricing_plan_id":"cebpf4jnsgd1na2vs0mg"},{"bike_id":"1f979428-47f0-474c-8a26-228cffbb4dc5","system_id":"levelo_inurba_marseille","lat":43.25871,"lon":5.39917,"is_reserved":false,"is_disabled":false,"rental_uris":{"android":"levelo://app?vid=1f979428-47f0-474c-8a26-228cffbb4dc5","ios":"levelo://app?vid=1f979428-47f0-474c-8a26-228cffbb4dc5"},"vehicle_type_id":"4","last_reported":1744395214,"current_range_meters":11200,"station_id":"ce4bhl92rcd13ifvqghg","pricing_plan_id":"cebpf4jnsgd1na2vs0mg"},{"bike_id":"e6b68404-8b04-4a4a-a861-212f37a2ae15","system_id":"levelo_inurba_marseille","lat":43.24679,"lon":5.38156,"is_reserved":false,"is_disabled":false,"rental_uris":{"android":"levelo://app?vid=e6b68404-8b04-4a4a-a861-212f37a2ae15","ios":"levelo://app?vid=e6b68404-8b04-4a4a-a861-212f37a2ae15"},"vehicle_type_id":"4","last_reported":1744395214,"current_range_meters":11200,"station_id":"ce4bhih2rcd13ifvqfr0","pricing_plan_id":"cebpf4jnsgd1na2vs0mg"},{"bike_id":"effaadc0-80b5-466b-bdf3-46efe5cd9b80","system_id":"levelo_inurba_marseille","lat":43.29259,"lon":5.40905,"is_reserved":false,"is_disabled":false,"rental_uris":{"android":"levelo://app?vid=effaadc0-80b5-466b-bdf3-46efe5cd9b80","ios":"levelo://app?vid=effaadc0-80b5-466b-bdf3-46efe5cd9b80"},"vehicle_type_id":"4","last_reported":1744395214,"current_range_meters":11200,"station_id":"ce4bh192rcd13ifvqdc0","pricing_plan_id":"cebpf4jnsgd1na2vs0mg"},{"bike_id":"75a1726b-9625-498f-8d2b-0fbb8e209841","system_id":"levelo_inurba_marseille","lat":43.26817,"lon":5.40279,"is_reserved":false,"is_disabled":false,"rental_uris":{"android":"levelo://app?vid=75a1726b-9625-498f-8d2b-0fbb8e209841","ios":"levelo://app?vid=75a1726b-9625-498f-8d2b-0fbb8e209841"},"vehicle_type_id":"4","last_reported":1744395214,"current_range_meters":11200,"station_id":"ce501612rcd8frsf0b60","pricing_plan_id":"cebpf4jnsgd1na2vs0mg"},{"bike_id":"52971491-6343-4b2a-9641-f2de980d9420","system_id":"levelo_inurba_marseille","lat":43.30431,"lon":5.41301,"is_reserved":false,"is_disabled":false,"rental_uris":{"android":"levelo://app?vid=52971491-6343-4b2a-9641-f2de980d9420","ios":"levelo://app?vid=52971491-6343-4b2a-9641-f2de980d9420"},"vehicle_type_id":"4","last_reported":1744395214,"current_range_meters":11200,"station_id":"ce4bhop2rcd13ifvqh8g","pricing_plan_id":"cebpf4jnsgd1na2vs0mg"},{"bike_id":"3f08cc69-711e-4264-b923-68891203ffa4","system_id":"levelo_inurba_marseille","lat":43.32285,"lon":5.38243,"is_reserved":false,"is_disabled":false,"rental_uris":{"android":"levelo://app?vid=3f08cc69-711e-4264-b923-68891203ffa4","ios":"levelo://app?vid=3f08cc69-711e-4264-b923-68891203ffa4"},"vehicle_type_id":"4","last_reported":1744395214,"current_range_meters":11200,"station_id":"ce4bhr12rcd13ifvqhqg","pricing_plan_id":"cebpf4jnsgd1na2vs0mg"},{"bike_id":"4bd5f6c4-d9c4-4bdf-895a-8b83440fa650","system_id":"levelo_inurba_marseille","lat":43.31282,"lon":5.40168,"is_reserved":false,"is_disabled":false,"rental_uris":{"android":"levelo://app?vid=4bd5f6c4-d9c4-4bdf-895a-8b83440fa650","ios":"levelo://app?vid=4bd5f6c4-d9c4-4bdf-895a-8b83440fa650"},"vehicle_type_id":"4","last_reported":1744395214,"current_range_meters":11200,"station_id":"ce4bh092rcd13ifvqd30","pricing_plan_id":"cebpf4jnsgd1na2vs0mg"},{"bike_id":"a91217fc-974c-4825-b669-7bc95b9c8d7b","system_id":"levelo_inurba_marseille","lat":43.28156,"lon":5.42638,"is_reserved":false,"is_disabled":false,"rental_uris":{"android":"levelo://app?vid=a91217fc-974c-4825-b669-7bc95b9c8d7b","ios":"levelo://app?vid=a91217fc-974c-4825-b669-7bc95b9c8d7b"},"vehicle_type_id":"4","last_reported":1744395214,"current_range_meters":11200,"station_id":"ce4bhnh2rcd13ifvqgug","pricing_plan_id":"cebpf4jnsgd1na2vs0mg"},{"bike_id":"16fd30b1-cad6-4fc5-9de5-c7170be035f0","system_id":"levelo_inurba_marseille","lat":43.25721,"lon":5.41098,"is_reserved":false,"is_disabled":false,"rental_uris":{"android":"levelo://app?vid=16fd30b1-cad6-4fc5-9de5-c7170be035f0","ios":"levelo://app?vid=16fd30b1-cad6-4fc5-9de5-c7170be035f0"},"vehicle_type_id":"4","last_reported":1744395214,"current_range_meters":11200,"station_id":"ce4bhkp2rcd13ifvqgd0","pricing_plan_id":"cebpf4jnsgd1na2vs0mg"},{"bike_id":"30365dd0-576d-4e26-8ad9-bbe092b84875","system_id":"levelo_inurba_marseille","lat":43.308935,"lon":5.39669,"is_reserved":false,"is_disabled":false,"rental_uris":{"android":"levelo://app?vid=30365dd0-576d-4e26-8ad9-bbe092b84875","ios":"levelo://app?vid=30365dd0-576d-4e26-8ad9-bbe092b84875"},"vehicle_type_id":"4","last_reported":1744395214,"current_range_meters":11600,"station_id":"ce4bh012rcd13ifvqcv0","pricing_plan_id":"cebpf4jnsgd1na2vs0mg"},{"bike_id":"463b41fd-37bb-48c0-a6e4-12f737a3d7cf","system_id":"levelo_inurba_marseille","lat":43.26933,"lon":5.40269,"is_reserved":false,"is_disabled":true,"rental_uris":{"android":"levelo://app?vid=463b41fd-37bb-48c0-a6e4-12f737a3d7cf","ios":"levelo://app?vid=463b41fd-37bb-48c0-a6e4-12f737a3d7cf"},"vehicle_type_id":"4","last_reported":1744395214,"current_range_meters":11600,"station_id":"cjm6bp8fraef2m0cb0m0","pricing_plan_id":"cebpf4jnsgd1na2vs0mg"},{"bike_id":"feb04d1c-c2bd-4d38-91ca-a0075a753750","system_id":"levelo_inurba_marseille","lat":43.28421,"lon":5.34998,"is_reserved":false,"is_disabled":false,"rental_uris":{"android":"levelo://app?vid=feb04d1c-c2bd-4d38-91ca-a0075a753750","ios":"levelo://app?vid=feb04d1c-c2bd-4d38-91ca-a0075a753750"},"vehicle_type_id":"4","last_reported":1744395214,"current_range_meters":11600,"station_id":"ce4bhbh2rcd13ifvqepg","pricing_plan_id":"cebpf4jnsgd1na2vs0mg"},{"bike_id":"69af33a1-af9b-4f86-9a9e-1c4f939acc27","system_id":"levelo_inurba_marseille","lat":43.29537,"lon":5.38554,"is_reserved":false,"is_disabled":false,"rental_uris":{"android":"levelo://app?vid=69af33a1-af9b-4f86-9a9e-1c4f939acc27","ios":"levelo://app?vid=69af33a1-af9b-4f86-9a9e-1c4f939acc27"},"vehicle_type_id":"4","last_reported":1744395214,"current_range_meters":11600,"station_id":"ce4bgih2rcd13ifvqba0","pricing_plan_id":"cebpf4jnsgd1na2vs0mg"},{"bike_id":"72adaa87-94dc-4774-aca0-5147bc57bd16","system_id":"levelo_inurba_marseille","lat":43.260234,"lon":5.41739,"is_reserved":false,"is_disabled":false,"rental_uris":{"android":"levelo://app?vid=72adaa87-94dc-4774-aca0-5147bc57bd16","ios":"levelo://app?vid=72adaa87-94dc-4774-aca0-5147bc57bd16"},"vehicle_type_id":"4","last_reported":1744395214,"current_range_meters":11600,"station_id":"","pricing_plan_id":"cebpf4jnsgd1na2vs0mg"},{"bike_id":"84e97282-ecf3-43cd-8508-308ac1ff86f2","system_id":"levelo_inurba_marseille","lat":43.28035,"lon":5.36955,"is_reserved":false,"is_disabled":false,"rental_uris":{"android":"levelo://app?vid=84e97282-ecf3-43cd-8508-308ac1ff86f2","ios":"levelo://app?vid=84e97282-ecf3-43cd-8508-308ac1ff86f2"},"vehicle_type_id":"4","last_reported":1744395214,"current_range_meters":11600,"station_id":"ce4bha12rcd13ifvqef0","pricing_plan_id":"cebpf4jnsgd1na2vs0mg"},{"bike_id":"2d2e31a1-75bd-4ef3-8efc-056c6e4199ac","system_id":"levelo_inurba_marseille","lat":43.28619,"lon":5.35088,"is_reserved":false,"is_disabled":false,"rental_uris":{"android":"levelo://app?vid=2d2e31a1-75bd-4ef3-8efc-056c6e4199ac","ios":"levelo://app?vid=2d2e31a1-75bd-4ef3-8efc-056c6e4199ac"},"vehicle_type_id":"4","last_reported":1744395214,"current_range_meters":12000,"station_id":"ce4bhch2rcd13ifvqeug","pricing_plan_id":"cebpf4jnsgd1na2vs0mg"},{"bike_id":"ab7728fb-2112-45fe-a9fd-15cddbf6bac5","system_id":"levelo_inurba_marseille","lat":43.32367,"lon":5.38891,"is_reserved":false,"is_disabled":false,"rental_uris":{"android":"levelo://app?vid=ab7728fb-2112-45fe-a9fd-15cddbf6bac5","ios":"levelo://app?vid=ab7728fb-2112-45fe-a9fd-15cddbf6bac5"},"vehicle_type_id":"4","last_reported":1744395214,"current_range_meters":12000,"station_id":"ce4bhqp2rcd13ifvqhog","pricing_plan_id":"cebpf4jnsgd1na2vs0mg"},{"bike_id":"e4b62c16-c6d8-4608-ad09-dfdb9ba2c7e5","system_id":"levelo_inurba_marseille","lat":43.34144,"lon":5.40908,"is_reserved":false,"is_disabled":false,"rental_uris":{"android":"levelo://app?vid=e4b62c16-c6d8-4608-ad09-dfdb9ba2c7e5","ios":"levelo://app?vid=e4b62c16-c6d8-4608-ad09-dfdb9ba2c7e5"},"vehicle_type_id":"4","last_reported":1744395214,"current_range_meters":12000,"station_id":"ce4bhqh2rcd13ifvqhlg","pricing_plan_id":"cebpf4jnsgd1na2vs0mg"},{"bike_id":"b8230e81-2307-4a36-b35b-a19ad8a2340c","system_id":"levelo_inurba_marseille","lat":43.28428,"lon":5.35023,"is_reserved":false,"is_disabled":false,"rental_uris":{"android":"levelo://app?vid=b8230e81-2307-4a36-b35b-a19ad8a2340c","ios":"levelo://app?vid=b8230e81-2307-4a36-b35b-a19ad8a2340c"},"vehicle_type_id":"4","last_reported":1744395214,"current_range_meters":12000,"station_id":"ce4bhbh2rcd13ifvqepg","pricing_plan_id":"cebpf4jnsgd1na2vs0mg"},{"bike_id":"37d97235-47f4-4450-868f-009cbdd0c545","system_id":"levelo_inurba_marseille","lat":43.243951,"lon":5.370546,"is_reserved":false,"is_disabled":false,"rental_uris":{"android":"levelo://app?vid=37d97235-47f4-4450-868f-009cbdd0c545","ios":"levelo://app?vid=37d97235-47f4-4450-868f-009cbdd0c545"},"vehicle_type_id":"4","last_reported":1744395214,"current_range_meters":12000,"station_id":"ce4bhhh2rcd13ifvqfk0","pricing_plan_id":"cebpf4jnsgd1na2vs0mg"},{"bike_id":"b88fa9ec-2582-437f-be6c-dea1c6643beb","system_id":"levelo_inurba_marseille","lat":43.32274,"lon":5.38283,"is_reserved":false,"is_disabled":false,"rental_uris":{"android":"levelo://app?vid=b88fa9ec-2582-437f-be6c-dea1c6643beb","ios":"levelo://app?vid=b88fa9ec-2582-437f-be6c-dea1c6643beb"},"vehicle_type_id":"4","last_reported":1744395214,"current_range_meters":12000,"station_id":"ce4bhr12rcd13ifvqhqg","pricing_plan_id":"cebpf4jnsgd1na2vs0mg"},{"bike_id":"e361ab70-14ba-48b0-b938-8dfabf63d0c2","system_id":"levelo_inurba_marseille","lat":43.28424,"lon":5.3498,"is_reserved":false,"is_disabled":false,"rental_uris":{"android":"levelo://app?vid=e361ab70-14ba-48b0-b938-8dfabf63d0c2","ios":"levelo://app?vid=e361ab70-14ba-48b0-b938-8dfabf63d0c2"},"vehicle_type_id":"4","last_reported":1744395214,"current_range_meters":12000,"station_id":"ce4bhbh2rcd13ifvqepg","pricing_plan_id":"cebpf4jnsgd1na2vs0mg"},{"bike_id":"9b0093a9-79e0-4880-82c2-96b353b4de72","system_id":"levelo_inurba_marseille","lat":43.30344,"lon":5.40477,"is_reserved":false,"is_disabled":true,"rental_uris":{"android":"levelo://app?vid=9b0093a9-79e0-4880-82c2-96b353b4de72","ios":"levelo://app?vid=9b0093a9-79e0-4880-82c2-96b353b4de72"},"vehicle_type_id":"4","last_reported":1744395214,"current_range_meters":12000,"station_id":"ce4bh012rcd13ifvqd10","pricing_plan_id":"cebpf4jnsgd1na2vs0mg"},{"bike_id":"41f8f1e8-7603-4845-b014-fe9ba51c8c39","system_id":"levelo_inurba_marseille","lat":43.2861,"lon":5.35102,"is_reserved":false,"is_disabled":false,"rental_uris":{"android":"levelo://app?vid=41f8f1e8-7603-4845-b014-fe9ba51c8c39","ios":"levelo://app?vid=41f8f1e8-7603-4845-b014-fe9ba51c8c39"},"vehicle_type_id":"4","last_reported":1744395214,"current_range_meters":12400,"station_id":"ce4bhch2rcd13ifvqeug","pricing_plan_id":"cebpf4jnsgd1na2vs0mg"},{"bike_id":"12f552fb-128b-4f39-a171-4a4db7cfeac8","system_id":"levelo_inurba_marseille","lat":43.28426,"lon":5.34991,"is_reserved":false,"is_disabled":false,"rental_uris":{"android":"levelo://app?vid=12f552fb-128b-4f39-a171-4a4db7cfeac8","ios":"levelo://app?vid=12f552fb-128b-4f39-a171-4a4db7cfeac8"},"vehicle_type_id":"4","last_reported":1744395214,"current_range_meters":12400,"station_id":"ce4bhbh2rcd13ifvqepg","pricing_plan_id":"cebpf4jnsgd1na2vs0mg"},{"bike_id":"21a447ea-ff03-462e-acca-c1dab97e67ef","system_id":"levelo_inurba_marseille","lat":43.28937,"lon":5.36626,"is_reserved":false,"is_disabled":false,"rental_uris":{"android":"levelo://app?vid=21a447ea-ff03-462e-acca-c1dab97e67ef","ios":"levelo://app?vid=21a447ea-ff03-462e-acca-c1dab97e67ef"},"vehicle_type_id":"4","last_reported":1744395214,"current_range_meters":12400,"station_id":"ce4bhap2rcd13ifvqek0","pricing_plan_id":"cebpf4jnsgd1na2vs0mg"},{"bike_id":"d21733e5-1564-4c3d-8657-463d1eaf61b3","system_id":"levelo_inurba_marseille","lat":43.28448,"lon":5.34977,"is_reserved":false,"is_disabled":false,"rental_uris":{"android":"levelo://app?vid=d21733e5-1564-4c3d-8657-463d1eaf61b3","ios":"levelo://app?vid=d21733e5-1564-4c3d-8657-463d1eaf61b3"},"vehicle_type_id":"4","last_reported":1744395214,"current_range_meters":12400,"station_id":"ce4bhbh2rcd13ifvqepg","pricing_plan_id":"cebpf4jnsgd1na2vs0mg"},{"bike_id":"ed355894-a936-4473-b863-51de3ce07fce","system_id":"levelo_inurba_marseille","lat":43.24998,"lon":5.38933,"is_reserved":false,"is_disabled":false,"rental_uris":{"android":"levelo://app?vid=ed355894-a936-4473-b863-51de3ce07fce","ios":"levelo://app?vid=ed355894-a936-4473-b863-51de3ce07fce"},"vehicle_type_id":"4","last_reported":1744395214,"current_range_meters":12400,"station_id":"ce4bhgp2rcd13ifvqfd0","pricing_plan_id":"cebpf4jnsgd1na2vs0mg"},{"bike_id":"d67566f0-3412-4417-a7f2-309135cc008a","system_id":"levelo_inurba_marseille","lat":43.29533,"lon":5.38551,"is_reserved":false,"is_disabled":false,"rental_uris":{"android":"levelo://app?vid=d67566f0-3412-4417-a7f2-309135cc008a","ios":"levelo://app?vid=d67566f0-3412-4417-a7f2-309135cc008a"},"vehicle_type_id":"4","last_reported":1744395214,"current_range_meters":12400,"station_id":"ce4bgih2rcd13ifvqba0","pricing_plan_id":"cebpf4jnsgd1na2vs0mg"},{"bike_id":"c0342e0e-d073-4f74-b5aa-62369cbb8727","system_id":"levelo_inurba_marseille","lat":43.29295,"lon":5.37462,"is_reserved":false,"is_disabled":false,"rental_uris":{"android":"levelo://app?vid=c0342e0e-d073-4f74-b5aa-62369cbb8727","ios":"levelo://app?vid=c0342e0e-d073-4f74-b5aa-62369cbb8727"},"vehicle_type_id":"4","last_reported":1744395214,"current_range_meters":12400,"station_id":"ce4bgi12rcd13ifvqb70","pricing_plan_id":"cebpf4jnsgd1na2vs0mg"},{"bike_id":"6e811130-9158-4951-bdbb-6585e363fcd6","system_id":"levelo_inurba_marseille","lat":43.26578,"lon":5.39035,"is_reserved":false,"is_disabled":false,"rental_uris":{"android":"levelo://app?vid=6e811130-9158-4951-bdbb-6585e363fcd6","ios":"levelo://app?vid=6e811130-9158-4951-bdbb-6585e363fcd6"},"vehicle_type_id":"4","last_reported":1744395214,"current_range_meters":12800,"station_id":"ce4bhe12rcd13ifvqf30","pricing_plan_id":"cebpf4jnsgd1na2vs0mg"},{"bike_id":"d83056a7-bc1e-47b0-b485-d26f9289027b","system_id":"levelo_inurba_marseille","lat":43.29812,"lon":5.38085,"is_reserved":false,"is_disabled":false,"rental_uris":{"android":"levelo://app?vid=d83056a7-bc1e-47b0-b485-d26f9289027b","ios":"levelo://app?vid=d83056a7-bc1e-47b0-b485-d26f9289027b"},"vehicle_type_id":"4","last_reported":1744395214,"current_range_meters":12800,"station_id":"ce4bgip2rcd13ifvqbb0","pricing_plan_id":"cebpf4jnsgd1na2vs0mg"},{"bike_id":"0860623d-032e-4f05-8c83-cbca5158181b","system_id":"levelo_inurba_marseille","lat":43.27318,"lon":5.3908,"is_reserved":false,"is_disabled":false,"rental_uris":{"android":"levelo://app?vid=0860623d-032e-4f05-8c83-cbca5158181b","ios":"levelo://app?vid=0860623d-032e-4f05-8c83-cbca5158181b"},"vehicle_type_id":"4","last_reported":1744395214,"current_range_meters":12800,"station_id":"ce4bhgp2rcd13ifvqfe0","pricing_plan_id":"cebpf4jnsgd1na2vs0mg"},{"bike_id":"f21cce43-7e86-42c4-8a4d-3c922080ab5c","system_id":"levelo_inurba_marseille","lat":43.28936,"lon":5.36627,"is_reserved":false,"is_disabled":true,"rental_uris":{"android":"levelo://app?vid=f21cce43-7e86-42c4-8a4d-3c922080ab5c","ios":"levelo://app?vid=f21cce43-7e86-42c4-8a4d-3c922080ab5c"},"vehicle_type_id":"4","last_reported":1744395214,"current_range_meters":12800,"station_id":"ce4bhap2rcd13ifvqek0","pricing_plan_id":"cebpf4jnsgd1na2vs0mg"},{"bike_id":"4bcdcc82-d58d-4172-b626-a8c82408681c","system_id":"levelo_inurba_marseille","lat":43.31221,"lon":5.36826,"is_reserved":false,"is_disabled":true,"rental_uris":{"android":"levelo://app?vid=4bcdcc82-d58d-4172-b626-a8c82408681c","ios":"levelo://app?vid=4bcdcc82-d58d-4172-b626-a8c82408681c"},"vehicle_type_id":"4","last_reported":1744395214,"current_range_meters":12800,"station_id":"ce4bgl92rcd13ifvqbq0","pricing_plan_id":"cebpf4jnsgd1na2vs0mg"},{"bike_id":"411f282c-b696-41a4-888f-752e1134c529","system_id":"levelo_inurba_marseille","lat":43.26195,"lon":5.37453,"is_reserved":false,"is_disabled":true,"rental_uris":{"android":"levelo://app?vid=411f282c-b696-41a4-888f-752e1134c529","ios":"levelo://app?vid=411f282c-b696-41a4-888f-752e1134c529"},"vehicle_type_id":"4","last_reported":1744395214,"current_range_meters":12800,"station_id":"ce4bhgp2rcd13ifvqfc0","pricing_plan_id":"cebpf4jnsgd1na2vs0mg"},{"bike_id":"43e7c19a-c036-499b-bed9-0d0e6218e914","system_id":"levelo_inurba_marseille","lat":43.27899,"lon":5.38006,"is_reserved":false,"is_disabled":false,"rental_uris":{"android":"levelo://app?vid=43e7c19a-c036-499b-bed9-0d0e6218e914","ios":"levelo://app?vid=43e7c19a-c036-499b-bed9-0d0e6218e914"},"vehicle_type_id":"4","last_reported":1744395214,"current_range_meters":12800,"station_id":"ce4bhf92rcd13ifvqf50","pricing_plan_id":"cebpf4jnsgd1na2vs0mg"},{"bike_id":"35f26f4f-71d5-425e-a5e6-7472acb74e85","system_id":"levelo_inurba_marseille","lat":43.29846,"lon":5.39203,"is_reserved":false,"is_disabled":false,"rental_uris":{"android":"levelo://app?vid=35f26f4f-71d5-425e-a5e6-7472acb74e85","ios":"levelo://app?vid=35f26f4f-71d5-425e-a5e6-7472acb74e85"},"vehicle_type_id":"4","last_reported":1744395214,"current_range_meters":12800,"station_id":"","pricing_plan_id":"cebpf4jnsgd1na2vs0mg"},{"bike_id":"f6120f53-5d6d-4ba4-965e-9967dc40f4b7","system_id":"levelo_inurba_marseille","lat":43.28416,"lon":5.35011,"is_reserved":false,"is_disabled":false,"rental_uris":{"android":"levelo://app?vid=f6120f53-5d6d-4ba4-965e-9967dc40f4b7","ios":"levelo://app?vid=f6120f53-5d6d-4ba4-965e-9967dc40f4b7"},"vehicle_type_id":"4","last_reported":1744395214,"current_range_meters":13600,"station_id":"ce4bhbh2rcd13ifvqepg","pricing_plan_id":"cebpf4jnsgd1na2vs0mg"},{"bike_id":"67037355-5d97-4456-9fff-d65364dc237a","system_id":"levelo_inurba_marseille","lat":43.29843,"lon":5.36268,"is_reserved":false,"is_disabled":false,"rental_uris":{"android":"levelo://app?vid=67037355-5d97-4456-9fff-d65364dc237a","ios":"levelo://app?vid=67037355-5d97-4456-9fff-d65364dc237a"},"vehicle_type_id":"4","last_reported":1744395214,"current_range_meters":12800,"station_id":"ce4bgpp2rcd13ifvqc3g","pricing_plan_id":"cebpf4jnsgd1na2vs0mg"},{"bike_id":"4c893399-b4ed-40ed-a49f-713da320f269","system_id":"levelo_inurba_marseille","lat":43.29861,"lon":5.37841,"is_reserved":false,"is_disabled":false,"rental_uris":{"android":"levelo://app?vid=4c893399-b4ed-40ed-a49f-713da320f269","ios":"levelo://app?vid=4c893399-b4ed-40ed-a49f-713da320f269"},"vehicle_type_id":"4","last_reported":1744395214,"current_range_meters":13600,"station_id":"","pricing_plan_id":"cebpf4jnsgd1na2vs0mg"},{"bike_id":"d38e0e5e-1441-423a-9774-3196b1a1cb17","system_id":"levelo_inurba_marseille","lat":43.30037,"lon":5.3998,"is_reserved":false,"is_disabled":false,"rental_uris":{"android":"levelo://app?vid=d38e0e5e-1441-423a-9774-3196b1a1cb17","ios":"levelo://app?vid=d38e0e5e-1441-423a-9774-3196b1a1cb17"},"vehicle_type_id":"4","last_reported":1744395214,"current_range_meters":13600,"station_id":"","pricing_plan_id":"cebpf4jnsgd1na2vs0mg"},{"bike_id":"8c58f2fa-99e1-41f8-bf90-9c1648b679b1","system_id":"levelo_inurba_marseille","lat":43.27312,"lon":5.41471,"is_reserved":false,"is_disabled":false,"rental_uris":{"android":"levelo://app?vid=8c58f2fa-99e1-41f8-bf90-9c1648b679b1","ios":"levelo://app?vid=8c58f2fa-99e1-41f8-bf90-9c1648b679b1"},"vehicle_type_id":"4","last_reported":1744395214,"current_range_meters":13600,"station_id":"","pricing_plan_id":"cebpf4jnsgd1na2vs0mg"},{"bike_id":"c058fc56-26ab-4647-a0f2-5fe60cb06894","system_id":"levelo_inurba_marseille","lat":43.28358,"lon":5.381,"is_reserved":false,"is_disabled":false,"rental_uris":{"android":"levelo://app?vid=c058fc56-26ab-4647-a0f2-5fe60cb06894","ios":"levelo://app?vid=c058fc56-26ab-4647-a0f2-5fe60cb06894"},"vehicle_type_id":"4","last_reported":1744395214,"current_range_meters":14000,"station_id":"ce4bh412rcd13ifvqdr0","pricing_plan_id":"cebpf4jnsgd1na2vs0mg"},{"bike_id":"1b9b6a79-dfca-4e75-8b04-38e5ef4504cd","system_id":"levelo_inurba_marseille","lat":43.24816,"lon":5.37469,"is_reserved":false,"is_disabled":false,"rental_uris":{"android":"levelo://app?vid=1b9b6a79-dfca-4e75-8b04-38e5ef4504cd","ios":"levelo://app?vid=1b9b6a79-dfca-4e75-8b04-38e5ef4504cd"},"vehicle_type_id":"4","last_reported":1744395214,"current_range_meters":13600,"station_id":"ce4bhgh2rcd13ifvqfb0","pricing_plan_id":"cebpf4jnsgd1na2vs0mg"},{"bike_id":"1db3f027-3907-4a6a-880b-45e50db5828b","system_id":"levelo_inurba_marseille","lat":43.25492,"lon":5.37672,"is_reserved":false,"is_disabled":false,"rental_uris":{"android":"levelo://app?vid=1db3f027-3907-4a6a-880b-45e50db5828b","ios":"levelo://app?vid=1db3f027-3907-4a6a-880b-45e50db5828b"},"vehicle_type_id":"4","last_reported":1744395214,"current_range_meters":14000,"station_id":"ce4bhh12rcd13ifvqff0","pricing_plan_id":"cebpf4jnsgd1na2vs0mg"},{"bike_id":"83f12292-79b8-4ccc-b8e0-2ac65662ba20","system_id":"levelo_inurba_marseille","lat":43.29705,"lon":5.36614,"is_reserved":false,"is_disabled":false,"rental_uris":{"android":"levelo://app?vid=83f12292-79b8-4ccc-b8e0-2ac65662ba20","ios":"levelo://app?vid=83f12292-79b8-4ccc-b8e0-2ac65662ba20"},"vehicle_type_id":"4","last_reported":1744395214,"current_range_meters":14000,"station_id":"ce4bgn12rcd13ifvqbt0","pricing_plan_id":"cebpf4jnsgd1na2vs0mg"},{"bike_id":"f09fc59e-045e-4cc5-9bed-f2f0906ca6da","system_id":"levelo_inurba_marseille","lat":43.3014,"lon":5.37426,"is_reserved":false,"is_disabled":false,"rental_uris":{"android":"levelo://app?vid=f09fc59e-045e-4cc5-9bed-f2f0906ca6da","ios":"levelo://app?vid=f09fc59e-045e-4cc5-9bed-f2f0906ca6da"},"vehicle_type_id":"4","last_reported":1744395214,"current_range_meters":14000,"station_id":"ce4bgs92rcd13ifvqcc0","pricing_plan_id":"cebpf4jnsgd1na2vs0mg"},{"bike_id":"ca8e4f6f-3219-4976-9b2f-46fba33d767d","system_id":"levelo_inurba_marseille","lat":43.3081,"lon":5.3815,"is_reserved":false,"is_disabled":false,"rental_uris":{"android":"levelo://app?vid=ca8e4f6f-3219-4976-9b2f-46fba33d767d","ios":"levelo://app?vid=ca8e4f6f-3219-4976-9b2f-46fba33d767d"},"vehicle_type_id":"4","last_reported":1744395214,"current_range_meters":14400,"station_id":"ce4bgt12rcd13ifvqce0","pricing_plan_id":"cebpf4jnsgd1na2vs0mg"},{"bike_id":"3c42375e-40a8-4299-998a-f52ff6757bbf","system_id":"levelo_inurba_marseille","lat":43.29522,"lon":5.39045,"is_reserved":false,"is_disabled":false,"rental_uris":{"android":"levelo://app?vid=3c42375e-40a8-4299-998a-f52ff6757bbf","ios":"levelo://app?vid=3c42375e-40a8-4299-998a-f52ff6757bbf"},"vehicle_type_id":"4","last_reported":1744395214,"current_range_meters":14400,"station_id":"ce4bh3p2rcd13ifvqdp0","pricing_plan_id":"cebpf4jnsgd1na2vs0mg"},{"bike_id":"64fc5d7c-37d2-47da-b800-256014e86f80","system_id":"levelo_inurba_marseille","lat":43.31518,"lon":5.37335,"is_reserved":false,"is_disabled":false,"rental_uris":{"android":"levelo://app?vid=64fc5d7c-37d2-47da-b800-256014e86f80","ios":"levelo://app?vid=64fc5d7c-37d2-47da-b800-256014e86f80"},"vehicle_type_id":"4","last_reported":1744395214,"current_range_meters":14400,"station_id":"ce4bgt12rcd13ifvqcd0","pricing_plan_id":"cebpf4jnsgd1na2vs0mg"},{"bike_id":"4651fc10-fe57-460e-89c6-9ba891098581","system_id":"levelo_inurba_marseille","lat":43.24171,"lon":5.36378,"is_reserved":false,"is_disabled":false,"rental_uris":{"android":"levelo://app?vid=4651fc10-fe57-460e-89c6-9ba891098581","ios":"levelo://app?vid=4651fc10-fe57-460e-89c6-9ba891098581"},"vehicle_type_id":"4","last_reported":1744395214,"current_range_meters":14400,"station_id":"cpo36qri1sfpv3e86is0","pricing_plan_id":"cebpf4jnsgd1na2vs0mg"},{"bike_id":"378a7cb8-682c-458a-ad28-6ef7f200079f","system_id":"levelo_inurba_marseille","lat":43.29851,"lon":5.36273,"is_reserved":false,"is_disabled":false,"rental_uris":{"android":"levelo://app?vid=378a7cb8-682c-458a-ad28-6ef7f200079f","ios":"levelo://app?vid=378a7cb8-682c-458a-ad28-6ef7f200079f"},"vehicle_type_id":"4","last_reported":1744395214,"current_range_meters":14400,"station_id":"ce4bgpp2rcd13ifvqc3g","pricing_plan_id":"cebpf4jnsgd1na2vs0mg"},{"bike_id":"95f0fc83-9aa0-4e69-81f0-45a7ef3bf3e8","system_id":"levelo_inurba_marseille","lat":43.301636,"lon":5.380823,"is_reserved":false,"is_disabled":false,"rental_uris":{"android":"levelo://app?vid=95f0fc83-9aa0-4e69-81f0-45a7ef3bf3e8","ios":"levelo://app?vid=95f0fc83-9aa0-4e69-81f0-45a7ef3bf3e8"},"vehicle_type_id":"4","last_reported":1744395214,"current_range_meters":14400,"station_id":"ce4bh2h2rcd13ifvqdh0","pricing_plan_id":"cebpf4jnsgd1na2vs0mg"},{"bike_id":"dc6afb67-a3c7-4a7a-a55c-00399e8650ad","system_id":"levelo_inurba_marseille","lat":43.31226,"lon":5.3687,"is_reserved":false,"is_disabled":false,"rental_uris":{"android":"levelo://app?vid=dc6afb67-a3c7-4a7a-a55c-00399e8650ad","ios":"levelo://app?vid=dc6afb67-a3c7-4a7a-a55c-00399e8650ad"},"vehicle_type_id":"4","last_reported":1744395214,"current_range_meters":14400,"station_id":"ce4bgl92rcd13ifvqbq0","pricing_plan_id":"cebpf4jnsgd1na2vs0mg"},{"bike_id":"4b259fca-5cd1-4edd-ba1e-ec55c2540b85","system_id":"levelo_inurba_marseille","lat":43.28574,"lon":5.39512,"is_reserved":false,"is_disabled":false,"rental_uris":{"android":"levelo://app?vid=4b259fca-5cd1-4edd-ba1e-ec55c2540b85","ios":"levelo://app?vid=4b259fca-5cd1-4edd-ba1e-ec55c2540b85"},"vehicle_type_id":"4","last_reported":1744395214,"current_range_meters":14400,"station_id":"ce4bh292rcd13ifvqdg0","pricing_plan_id":"cebpf4jnsgd1na2vs0mg"},{"bike_id":"b6a7d1bd-ed7d-4b43-9334-1a592241068d","system_id":"levelo_inurba_marseille","lat":43.29974,"lon":5.37179,"is_reserved":false,"is_disabled":false,"rental_uris":{"android":"levelo://app?vid=b6a7d1bd-ed7d-4b43-9334-1a592241068d","ios":"levelo://app?vid=b6a7d1bd-ed7d-4b43-9334-1a592241068d"},"vehicle_type_id":"4","last_reported":1744395214,"current_range_meters":14400,"station_id":"ce4bgr92rcd13ifvqc7g","pricing_plan_id":"cebpf4jnsgd1na2vs0mg"},{"bike_id":"ef291804-1477-432e-b153-82ea15725418","system_id":"levelo_inurba_marseille","lat":43.33742,"lon":5.37454,"is_reserved":false,"is_disabled":false,"rental_uris":{"android":"levelo://app?vid=ef291804-1477-432e-b153-82ea15725418","ios":"levelo://app?vid=ef291804-1477-432e-b153-82ea15725418"},"vehicle_type_id":"4","last_reported":1744395214,"current_range_meters":14800,"station_id":"","pricing_plan_id":"cebpf4jnsgd1na2vs0mg"},{"bike_id":"bb1b9f68-f8f5-4517-8b05-9882f0bd1a18","system_id":"levelo_inurba_marseille","lat":43.28717,"lon":5.36062,"is_reserved":false,"is_disabled":false,"rental_uris":{"android":"levelo://app?vid=bb1b9f68-f8f5-4517-8b05-9882f0bd1a18","ios":"levelo://app?vid=bb1b9f68-f8f5-4517-8b05-9882f0bd1a18"},"vehicle_type_id":"4","last_reported":1744395214,"current_range_meters":14800,"station_id":"cki0cbj6b192h4jlfktg","pricing_plan_id":"cebpf4jnsgd1na2vs0mg"},{"bike_id":"147eaf06-2213-4017-921a-a25bf64a4ea3","system_id":"levelo_inurba_marseille","lat":43.28041,"lon":5.36953,"is_reserved":false,"is_disabled":false,"rental_uris":{"android":"levelo://app?vid=147eaf06-2213-4017-921a-a25bf64a4ea3","ios":"levelo://app?vid=147eaf06-2213-4017-921a-a25bf64a4ea3"},"vehicle_type_id":"4","last_reported":1744395214,"current_range_meters":14800,"station_id":"ce4bha12rcd13ifvqef0","pricing_plan_id":"cebpf4jnsgd1na2vs0mg"},{"bike_id":"742673e5-d763-4336-8aa9-c951a515a13a","system_id":"levelo_inurba_marseille","lat":43.28676,"lon":5.36361,"is_reserved":false,"is_disabled":false,"rental_uris":{"android":"levelo://app?vid=742673e5-d763-4336-8aa9-c951a515a13a","ios":"levelo://app?vid=742673e5-d763-4336-8aa9-c951a515a13a"},"vehicle_type_id":"4","last_reported":1744395214,"current_range_meters":4000,"station_id":"ce4bhah2rcd13ifvqej0","pricing_plan_id":"cebpf4jnsgd1na2vs0mg"},{"bike_id":"c3d9eb33-00cd-4b94-b625-b685a7ad95ff","system_id":"levelo_inurba_marseille","lat":43.29033,"lon":5.37556,"is_reserved":false,"is_disabled":false,"rental_uris":{"android":"levelo://app?vid=c3d9eb33-00cd-4b94-b625-b685a7ad95ff","ios":"levelo://app?vid=c3d9eb33-00cd-4b94-b625-b685a7ad95ff"},"vehicle_type_id":"4","last_reported":1744395214,"current_range_meters":15200,"station_id":"ce4bh692rcd13ifvqe90","pricing_plan_id":"cebpf4jnsgd1na2vs0mg"},{"bike_id":"75e2b980-ba0d-4b2d-9f57-da63b751df22","system_id":"levelo_inurba_marseille","lat":43.29262,"lon":5.38465,"is_reserved":false,"is_disabled":false,"rental_uris":{"android":"levelo://app?vid=75e2b980-ba0d-4b2d-9f57-da63b751df22","ios":"levelo://app?vid=75e2b980-ba0d-4b2d-9f57-da63b751df22"},"vehicle_type_id":"4","last_reported":1744395214,"current_range_meters":15200,"station_id":"ce4bh692rcd13ifvqea0","pricing_plan_id":"cebpf4jnsgd1na2vs0mg"},{"bike_id":"2473096a-dfc1-4573-87fc-a0162a53cb4c","system_id":"levelo_inurba_marseille","lat":43.28627,"lon":5.35098,"is_reserved":false,"is_disabled":false,"rental_uris":{"android":"levelo://app?vid=2473096a-dfc1-4573-87fc-a0162a53cb4c","ios":"levelo://app?vid=2473096a-dfc1-4573-87fc-a0162a53cb4c"},"vehicle_type_id":"4","last_reported":1744395214,"current_range_meters":15200,"station_id":"ce4bhch2rcd13ifvqeug","pricing_plan_id":"cebpf4jnsgd1na2vs0mg"},{"bike_id":"493cde9e-7859-4c26-a2e6-f744ee5d8553","system_id":"levelo_inurba_marseille","lat":43.29229,"lon":5.36062,"is_reserved":false,"is_disabled":false,"rental_uris":{"android":"levelo://app?vid=493cde9e-7859-4c26-a2e6-f744ee5d8553","ios":"levelo://app?vid=493cde9e-7859-4c26-a2e6-f744ee5d8553"},"vehicle_type_id":"4","last_reported":1744395214,"current_range_meters":15200,"station_id":"","pricing_plan_id":"cebpf4jnsgd1na2vs0mg"},{"bike_id":"13df045c-4976-47c9-a87b-a6a59a7f834a","system_id":"levelo_inurba_marseille","lat":43.29849,"lon":5.36292,"is_reserved":false,"is_disabled":false,"rental_uris":{"android":"levelo://app?vid=13df045c-4976-47c9-a87b-a6a59a7f834a","ios":"levelo://app?vid=13df045c-4976-47c9-a87b-a6a59a7f834a"},"vehicle_type_id":"4","last_reported":1744395214,"current_range_meters":15200,"station_id":"ce4bgpp2rcd13ifvqc3g","pricing_plan_id":"cebpf4jnsgd1na2vs0mg"},{"bike_id":"fada94ee-4770-424e-ae84-99e0a30f0067","system_id":"levelo_inurba_marseille","lat":43.24813,"lon":5.3746,"is_reserved":false,"is_disabled":false,"rental_uris":{"android":"levelo://app?vid=fada94ee-4770-424e-ae84-99e0a30f0067","ios":"levelo://app?vid=fada94ee-4770-424e-ae84-99e0a30f0067"},"vehicle_type_id":"4","last_reported":1744395214,"current_range_meters":15200,"station_id":"ce4bhgh2rcd13ifvqfb0","pricing_plan_id":"cebpf4jnsgd1na2vs0mg"},{"bike_id":"f2d51714-6acc-45b0-ad90-03def090f265","system_id":"levelo_inurba_marseille","lat":43.28425,"lon":5.3499,"is_reserved":false,"is_disabled":false,"rental_uris":{"android":"levelo://app?vid=f2d51714-6acc-45b0-ad90-03def090f265","ios":"levelo://app?vid=f2d51714-6acc-45b0-ad90-03def090f265"},"vehicle_type_id":"4","last_reported":1744395214,"current_range_meters":15200,"station_id":"ce4bhbh2rcd13ifvqepg","pricing_plan_id":"cebpf4jnsgd1na2vs0mg"},{"bike_id":"f94011a4-6e85-4dc7-a388-af85648d840c","system_id":"levelo_inurba_marseille","lat":43.28347,"lon":5.3809,"is_reserved":false,"is_disabled":false,"rental_uris":{"android":"levelo://app?vid=f94011a4-6e85-4dc7-a388-af85648d840c","ios":"levelo://app?vid=f94011a4-6e85-4dc7-a388-af85648d840c"},"vehicle_type_id":"4","last_reported":1744395214,"current_range_meters":15200,"station_id":"ce4bh412rcd13ifvqdr0","pricing_plan_id":"cebpf4jnsgd1na2vs0mg"},{"bike_id":"7c873a50-0a5c-4ba6-bd01-c190f37d1a81","system_id":"levelo_inurba_marseille","lat":43.28421,"lon":5.35225,"is_reserved":false,"is_disabled":false,"rental_uris":{"android":"levelo://app?vid=7c873a50-0a5c-4ba6-bd01-c190f37d1a81","ios":"levelo://app?vid=7c873a50-0a5c-4ba6-bd01-c190f37d1a81"},"vehicle_type_id":"4","last_reported":1744395214,"current_range_meters":16000,"station_id":"ce4bhbh2rcd13ifvqepg","pricing_plan_id":"cebpf4jnsgd1na2vs0mg"},{"bike_id":"a0cd8dfb-e03e-4bc5-b175-ce473079b960","system_id":"levelo_inurba_marseille","lat":43.28003,"lon":5.41655,"is_reserved":false,"is_disabled":false,"rental_uris":{"android":"levelo://app?vid=a0cd8dfb-e03e-4bc5-b175-ce473079b960","ios":"levelo://app?vid=a0cd8dfb-e03e-4bc5-b175-ce473079b960"},"vehicle_type_id":"4","last_reported":1744395214,"current_range_meters":16000,"station_id":"ce4bho12rcd13ifvqh1g","pricing_plan_id":"cebpf4jnsgd1na2vs0mg"},{"bike_id":"d56e54de-81ec-424c-a017-bd03f02d2b85","system_id":"levelo_inurba_marseille","lat":43.30439,"lon":5.397542,"is_reserved":false,"is_disabled":false,"rental_uris":{"android":"levelo://app?vid=d56e54de-81ec-424c-a017-bd03f02d2b85","ios":"levelo://app?vid=d56e54de-81ec-424c-a017-bd03f02d2b85"},"vehicle_type_id":"4","last_reported":1744395214,"current_range_meters":16000,"station_id":"ce4bh092rcd13ifvqd20","pricing_plan_id":"cebpf4jnsgd1na2vs0mg"},{"bike_id":"6d01f060-55b8-4ea7-b17e-6c464ffb58e2","system_id":"levelo_inurba_marseille","lat":43.286991,"lon":5.399785,"is_reserved":false,"is_disabled":false,"rental_uris":{"android":"levelo://app?vid=6d01f060-55b8-4ea7-b17e-6c464ffb58e2","ios":"levelo://app?vid=6d01f060-55b8-4ea7-b17e-6c464ffb58e2"},"vehicle_type_id":"4","last_reported":1744395214,"current_range_meters":16000,"station_id":"ce4bhnh2rcd13ifvqgtg","pricing_plan_id":"cebpf4jnsgd1na2vs0mg"},{"bike_id":"5b77a833-8185-45c2-9fe3-07eb40df54ca","system_id":"levelo_inurba_marseille","lat":43.33995,"lon":5.38057,"is_reserved":false,"is_disabled":false,"rental_uris":{"android":"levelo://app?vid=5b77a833-8185-45c2-9fe3-07eb40df54ca","ios":"levelo://app?vid=5b77a833-8185-45c2-9fe3-07eb40df54ca"},"vehicle_type_id":"4","last_reported":1744395214,"current_range_meters":16000,"station_id":"","pricing_plan_id":"cebpf4jnsgd1na2vs0mg"},{"bike_id":"cfa05593-02c0-4361-b7cb-d147d92b27a4","system_id":"levelo_inurba_marseille","lat":43.24161,"lon":5.36419,"is_reserved":false,"is_disabled":false,"rental_uris":{"android":"levelo://app?vid=cfa05593-02c0-4361-b7cb-d147d92b27a4","ios":"levelo://app?vid=cfa05593-02c0-4361-b7cb-d147d92b27a4"},"vehicle_type_id":"4","last_reported":1744395214,"current_range_meters":16400,"station_id":"cpo36qri1sfpv3e86is0","pricing_plan_id":"cebpf4jnsgd1na2vs0mg"},{"bike_id":"f7d1eee0-1715-419d-beac-1b98ec9e62ed","system_id":"levelo_inurba_marseille","lat":43.30949,"lon":5.39026,"is_reserved":false,"is_disabled":true,"rental_uris":{"android":"levelo://app?vid=f7d1eee0-1715-419d-beac-1b98ec9e62ed","ios":"levelo://app?vid=f7d1eee0-1715-419d-beac-1b98ec9e62ed"},"vehicle_type_id":"4","last_reported":1744395214,"current_range_meters":16400,"station_id":"ce4bgup2rcd13ifvqco0","pricing_plan_id":"cebpf4jnsgd1na2vs0mg"},{"bike_id":"c8c8866b-b132-4150-b7a8-e2ff9a27eae1","system_id":"levelo_inurba_marseille","lat":43.310776,"lon":5.383457,"is_reserved":false,"is_disabled":false,"rental_uris":{"android":"levelo://app?vid=c8c8866b-b132-4150-b7a8-e2ff9a27eae1","ios":"levelo://app?vid=c8c8866b-b132-4150-b7a8-e2ff9a27eae1"},"vehicle_type_id":"4","last_reported":1744395214,"current_range_meters":16400,"station_id":"ce4bgv92rcd13ifvqcr0","pricing_plan_id":"cebpf4jnsgd1na2vs0mg"},{"bike_id":"b10efb6c-63de-4673-9ba6-ecc63a29dc73","system_id":"levelo_inurba_marseille","lat":43.25509,"lon":5.37663,"is_reserved":false,"is_disabled":false,"rental_uris":{"android":"levelo://app?vid=b10efb6c-63de-4673-9ba6-ecc63a29dc73","ios":"levelo://app?vid=b10efb6c-63de-4673-9ba6-ecc63a29dc73"},"vehicle_type_id":"4","last_reported":1744395214,"current_range_meters":16400,"station_id":"ce4bhh12rcd13ifvqff0","pricing_plan_id":"cebpf4jnsgd1na2vs0mg"},{"bike_id":"52c9c183-130d-40a4-b323-35de68c02d3d","system_id":"levelo_inurba_marseille","lat":43.30899,"lon":5.36845,"is_reserved":false,"is_disabled":false,"rental_uris":{"android":"levelo://app?vid=52c9c183-130d-40a4-b323-35de68c02d3d","ios":"levelo://app?vid=52c9c183-130d-40a4-b323-35de68c02d3d"},"vehicle_type_id":"4","last_reported":1744395214,"current_range_meters":16400,"station_id":"ce4bgn92rcd13ifvqbvg","pricing_plan_id":"cebpf4jnsgd1na2vs0mg"},{"bike_id":"12515aa0-652d-4c50-9676-8a01d9157eb4","system_id":"levelo_inurba_marseille","lat":43.275757,"lon":5.384115,"is_reserved":false,"is_disabled":false,"rental_uris":{"android":"levelo://app?vid=12515aa0-652d-4c50-9676-8a01d9157eb4","ios":"levelo://app?vid=12515aa0-652d-4c50-9676-8a01d9157eb4"},