{"last_updated":1761812036,"ttl":60,"version":"2.2","data":{"bikes":[{"bike_id":"b00161fe-fd69-4d5c-bbcd-b67ce9e97ba9","system_id":"levelo_inurba_marseille","lat":43.337444,"lon":5.374475,"is_reserved":false,"is_disabled":false,"rental_uris":{"android":"levelo://app?vid=b00161fe-fd69-4d5c-bbcd-b67ce9e97ba9","ios":"levelo://app?vid=b00161fe-fd69-4d5c-bbcd-b67ce9e97ba9"},"vehicle_type_id":"4","last_reported":1761812036,"current_range_meters":0,"station_id":"","pricing_plan_id":"cebpf4jnsgd1na2vs0mg"},{"bike_id":"aacc01e3-6d9f-491a-b1ed-d10f639e29e2","system_id":"levelo_inurba_marseille","lat":43.337444,"lon":5.374475,"is_reserved":false,"is_disabled":false,"rental_uris":{"android":"levelo://app?vid=aacc01e3-6d9f-491a-b1ed-d10f639e29e2","ios":"levelo://app?vid=aacc01e3-6d9f-491a-b1ed-d10f639e29e2"},"vehicle_type_id":"4","last_reported":1761812036,"current_range_meters":0,"station_id":"","pricing_plan_id":"cebpf4jnsgd1na2vs0mg"},{"bike_id":"35ef2eb9-fe09-4124-a7ab-f792dcbd6ddc","system_id":"levelo_inurba_marseille","lat":43.337444,"lon":5.374475,"is_reserved":false,"is_disabled":false,"rental_uris":{"android":"levelo://app?vid=35ef2eb9-fe09-4124-a7ab-f792dcbd6ddc","ios":"levelo://app?vid=35ef2eb9-fe09-4124-a7ab-f792dcbd6ddc"},"vehicle_type_id":"4","last_reported":1761812036,"current_range_meters":0,"station_id":"","pricing_plan_id":"cebpf4jnsgd1na2vs0mg"},{"bike_id":"bc27d73f-60d0-452c-a53a-06c9bf9f8b70","system_id":"levelo_inurba_marseille","lat":43.337444,"lon":5.374475,"is_reserved":false,"is_disabled":false,"rental_uris":{"android":"levelo://app?vid=bc27d73f-60d0-452c-a53a-06c9bf9f8b70","ios":"levelo://app?vid=bc27d73f-60d0-452c-a53a-06c9bf9f8b70"},"vehicle_type_id":"4","last_reported":1761812036,"current_range_meters":0,"station_id":"","pricing_plan_id":"cebpf4jnsgd1na2vs0mg"},{"bike_id":"49ddb7e7-127c-434c-8992-2e05f2e3428d","system_id":"levelo_inurba_marseille","lat":43.337444,"lon":5.374475,"is_reserved":false,"is_disabled":false,"rental_uris":{"android":"levelo://app?vid=49ddb7e7-127c-434c-8992-2e05f2e3428d","ios":"levelo://app?vid=49ddb7e7-127c-434c-8992-2e05f2e3428d"},"vehicle_type_id":"4","last_reported":1761812036,"current_range_meters":0,"station_id":"","pricing_plan_id":"cebpf4jnsgd1na2vs0mg"},{"bike_id":"b3b460c5-2faa-45c2-8fde-7b54e8b4eaf5","system_id":"levelo_inurba_marseille","lat":43.337444,"lon":5.374475,"is_reserved":false,"is_disabled":false,"rental_uris":{"android":"levelo://app?vid=b3b460c5-2faa-45c2-8fde-7b54e8b4eaf5","ios":"levelo://app?vid=b3b460c5-2faa-45c2-8fde-7b54e8b4eaf5"},"vehicle_type_id":"4","last_reported":1761812036,"current_range_meters":0,"station_id":"","pricing_plan_id":"cebpf4jnsgd1na2vs0mg"},{"bike_id":"6b8eeff3-ec31-445f-be43-f1e3ba63fb37","system_id":"levelo_inurba_marseille","lat":43.337444,"lon":5.374475,"is_reserved":false,"is_disabled":false,"rental_uris":{"android":"levelo://app?vid=6b8eeff3-ec31-445f-be43-f1e3ba63fb37","ios":"levelo://app?vid=6b8eeff3-ec31-445f-be43-f1e3ba63fb37"},"vehicle_type_id":"4","last_reported":1761812036,"current_range_meters":0,"station_id":"","pricing_plan_id":"cebpf4jnsgd1na2vs0mg"},{"bike_id":"e0e86d10-d79a-47b9-82ad-a00ae7a62a8a","system_id":"levelo_inurba_marseille","lat":43.337444,"lon":5.374475,"is_reserved":false,"is_disabled":false,"rental_uris":{"android":"levelo://app?vid=e0e86d10-d79a-47b9-82ad-a00ae7a62a8a","ios":"levelo://app?vid=e0e86d10-d79a-47b9-82ad-a00ae7a62a8a"},"vehicle_type_id":"4","last_reported":1761812036,"current_range_meters":0,"station_id":"","pricing_plan_id":"cebpf4jnsgd1na2vs0mg"},{"bike_id":"548f1c45-4f2a-4cfe-b981-5bc1daecb21b","system_id":"levelo_inurba_marseille","lat":43.337444,"lon":5.374475,"is_reserved":false,"is_disabled":false,"rental_uris":{"android":"levelo://app?vid=548f1c45-4f2a-4cfe-b981-5bc1daecb21b","ios":"levelo://app?vid=548f1c45-4f2a-4cfe-b981-5bc1daecb21b"},"vehicle_type_id":"4","last_reported":1761812036,"current_range_meters":0,"station_id":"","pricing_plan_id":"cebpf4jnsgd1na2vs0mg"},{"bike_id":"1da71de9-4b81-4047-a28f-376406d108b8","system_id":"levelo_inurba_marseille","lat":43.337444,"lon":5.374475,"is_reserved":false,"is_disabled":false,"rental_uris":{"android":"levelo://app?vid=1da71de9-4b81-4047-a28f-376406d108b8","ios":"levelo://app?vid=1da71de9-4b81-4047-a28f-376406d108b8"},"vehicle_type_id":"4","last_reported":1761812036,"current_range_meters":0,"station_id":"","pricing_plan_id":"cebpf4jnsgd1na2vs0mg"},{"bike_id":"5260dce0-6ede-4de4-b006-1466527b5fbe","system_id":"levelo_inurba_marseille","lat":43.337444,"lon":5.374475,"is_reserved":false,"is_disabled":false,"rental_uris":{"android":"levelo://app?vid=5260dce0-6ede-4de4-b006-1466527b5fbe","ios":"levelo://app?vid=5260dce0-6ede-4de4-b006-1466527b5fbe"},"vehicle_type_id":"4","last_reported":1761812036,"current_range_meters":0,"station_id":"","pricing_plan_id":"cebpf4jnsgd1na2vs0mg"},{"bike_id":"fb1816a3-8e74-463a-88d2-d6b63cf0a426","system_id":"levelo_inurba_marseille","lat":43.337444,"lon":5.374475,"is_reserved":false,"is_disabled":false,"rental_uris":{"android":"levelo://app?vid=fb1816a3-8e74-463a-88d2-d6b63cf0a426","ios":"levelo://app?vid=fb1816a3-8e74-463a-88d2-d6b63cf0a426"},"vehicle_type_id":"4","last_reported":1761812036,"current_range_meters":0,"station_id":"","pricing_plan_id":"cebpf4jnsgd1na2vs0mg"},{"bike_id":"3c881d8d-608f-4c39-9df3-b2aa54f8afcf","system_id":"levelo_inurba_marseille","lat":43.337444,"lon":5.374475,"is_reserved":false,"is_disabled":false,"rental_uris":{"android":"levelo://app?vid=3c881d8d-608f-4c39-9df3-b2aa54f8afcf","ios":"levelo://app?vid=3c881d8d-608f-4c39-9df3-b2aa54f8afcf"},"vehicle_type_id":"4","last_reported":1761812036,"current_range_meters":0,"station_id":"","pricing_plan_id":"cebpf4jnsgd1na2vs0mg"},{"bike_id":"a26e4937-215f-44d2-a8de-a7d3ec75d32b","system_id":"levelo_inurba_marseille","lat":43.337444,"lon":5.374475,"is_reserved":false,"is_disabled":false,"rental_uris":{"android":"levelo://app?vid=a26e4937-215f-44d2-a8de-a7d3ec75d32b","ios":"levelo://app?vid=a26e4937-215f-44d2-a8de-a7d3ec75d32b"},"vehicle_type_id":"4","last_reported":1761812036,"current_range_meters":0,"station_id":"","pricing_plan_id":"cebpf4jnsgd1na2vs0mg"},{"bike_id":"fadc4e19-b9ad-4402-a5bc-a0eff5c2b634","system_id":"levelo_inurba_marseille","lat":43.337444,"lon":5.374475,"is_reserved":false,"is_disabled":false,"rental_uris":{"android":"levelo://app?vid=fadc4e19-b9ad-4402-a5bc-a0eff5c2b634","ios":"levelo://app?vid=fadc4e19-b9ad-4402-a5bc-a0eff5c2b634"},"vehicle_type_id":"4","last_reported":1761812036,"current_range_meters":0,"station_id":"","pricing_plan_id":"cebpf4jnsgd1na2vs0mg"},{"bike_id":"e294c151-4441-4e4a-a116-13c66dfb9429","system_id":"levelo_inurba_marseille","lat":43.337444,"lon":5.374475,"is_reserved":false,"is_disabled":false,"rental_uris":{"android":"levelo://app?vid=e294c151-4441-4e4a-a116-13c66dfb9429","ios":"levelo://app?vid=e294c151-4441-4e4a-a116-13c66dfb9429"},"vehicle_type_id":"4","last_reported":1761812036,"current_range_meters":0,"station_id":"","pricing_plan_id":"cebpf4jnsgd1na2vs0mg"},{"bike_id":"0baff1cc-f548-40f7-a934-77958566d6a5","system_id":"levelo_inurba_marseille","lat":43.337444,"lon":5.374475,"is_reserved":false,"is_disabled":false,"rental_uris":{"android":"levelo://app?vid=0baff1cc-f548-40f7-a934-77958566d6a5","ios":"levelo://app?vid=0baff1cc-f548-40f7-a934-77958566d6a5"},"vehicle_type_id":"4","last_reported":1761812036,"current_range_meters":0,"station_id":"","pricing_plan_id":"cebpf4jnsgd1na2vs0mg"},{"bike_id":"1310c5d0-e39d-4b9c-84d7-1872f297ff18","system_id":"levelo_inurba_marseille","lat":43.337444,"lon":5.374475,"is_reserved":false,"is_disabled":false,"rental_uris":{"android":"levelo://app?vid=1310c5d0-e39d-4b9c-84d7-1872f297ff18","ios":"levelo://app?vid=1310c5d0-e39d-4b9c-84d7-1872f297ff18"},"vehicle_type_id":"4","last_reported":1761812036,"current_range_meters":0,"station_id":"","pricing_plan_id":"cebpf4jnsgd1na2vs0mg"},{"bike_id":"01eaacf7-8682-4054-bf38-52456d06e6f6","system_id":"levelo_inurba_marseille","lat":43.337444,"lon":5.374475,"is_reserved":false,"is_disabled":false,"rental_uris":{"android":"levelo://app?vid=01eaacf7-8682-4054-bf38-52456d06e6f6","ios":"levelo://app?vid=01eaacf7-8682-4054-bf38-52456d06e6f6"},"vehicle_type_id":"4","last_reported":1761812036,"current_range_meters":0,"station_id":"","pricing_plan_id":"cebpf4jnsgd1na2vs0mg"},{"bike_id":"4dbab57a-b708-409a-b815-3b9a5d92f753","system_id":"levelo_inurba_marseille","lat":43.337444,"lon":5.374475,"is_reserved":false,"is_disabled":false,"rental_uris":{"android":"levelo://app?vid=4dbab57a-b708-409a-b815-3b9a5d92f753","ios":"levelo://app?vid=4dbab57a-b708-409a-b815-3b9a5d92f753"},"vehicle_type_id":"4","last_reported":1761812036,"current_range_meters":0,"station_id":"","pricing_plan_id":"cebpf4jnsgd1na2vs0mg"},{"bike_id":"00f1260a-63f9-4663-ac1e-51258f9213bd","system_id":"levelo_inurba_marseille","lat":43.337444,"lon":5.374475,"is_reserved":false,"is_disabled":false,"rental_uris":{"android":"levelo://app?vid=00f1260a-63f9-4663-ac1e-51258f9213bd","ios":"levelo://app?vid=00f1260a-63f9-4663-ac1e-51258f9213bd"},"vehicle_type_id":"4","last_reported":1761812036,"current_range_meters":0,"station_id":"","pricing_plan_id":"cebpf4jnsgd1na2vs0mg"},{"bike_id":"50aa746e-d71a-437c-bb7a-ed648a03f81b","system_id":"levelo_inurba_marseille","lat":43.337444,"lon":5.374475,"is_reserved":false,"is_disabled":false,"rental_uris":{"android":"levelo://app?vid=50aa746e-d71a-437c-bb7a-ed648a03f81b","ios":"levelo://app?vid=50aa746e-d71a-437c-bb7a-ed648a03f81b"},"vehicle_type_id":"4","last_reported":1761812036,"current_range_meters":0,"station_id":"","pricing_plan_id":"cebpf4jnsgd1na2vs0mg"},{"bike_id":"3e68cf6e-17b6-46f5-8b08-d049449e0ca4","system_id":"levelo_inurba_marseille","lat":43.337444,"lon":5.374475,"is_reserved":false,"is_disabled":false,"rental_uris":{"android":"levelo://app?vid=3e68cf6e-17b6-46f5-8b08-d049449e0ca4","ios":"levelo://app?vid=3e68cf6e-17b6-46f5-8b08-d049449e0ca4"},"vehicle_type_id":"4","last_reported":1761812036,"current_range_meters":0,"station_id":"","pricing_plan_id":"cebpf4jnsgd1na2vs0mg"},{"bike_id":"b06c4997-7e4f-467a-922f-92f2f2e27e9d","system_id":"levelo_inurba_marseille","lat":43.337444,"lon":5.374475,"is_reserved":false,"is_disabled":false,"rental_uris":{"android":"levelo://app?vid=b06c4997-7e4f-467a-922f-92f2f2e27e9d","ios":"levelo://app?vid=b06c4997-7e4f-467a-922f-92f2f2e27e9d"},"vehicle_type_id":"4","last_reported":1761812036,"current_range_meters":0,"station_id":"","pricing_plan_id":"cebpf4jnsgd1na2vs0mg"},{"bike_id":"bb49b980-4cfb-49a5-9add-f3f9d4fc6db5","system_id":"levelo_inurba_marseille","lat":43.337444,"lon":5.374475,"is_reserved":false,"is_disabled":false,"rental_uris":{"android":"levelo://app?vid=bb49b980-4cfb-49a5-9add-f3f9d4fc6db5","ios":"levelo://app?vid=bb49b980-4cfb-49a5-9add-f3f9d4fc6db5"},"vehicle_type_id":"4","last_reported":1761812036,"current_range_meters":0,"station_id":"","pricing_plan_id":"cebpf4jnsgd1na2vs0mg"},{"bike_id":"b97206fc-6c94-4378-926a-a788d4f71c09","system_id":"levelo_inurba_marseille","lat":43.337444,"lon":5.374475,"is_reserved":false,"is_disabled":false,"rental_uris":{"android":"levelo://app?vid=b97206fc-6c94-4378-926a-a788d4f71c09","ios":"levelo://app?vid=b97206fc-6c94-4378-926a-a788d4f71c09"},"vehicle_type_id":"4","last_reported":1761812036,"current_range_meters":0,"station_id":"","pricing_plan_id":"cebpf4jnsgd1na2vs0mg"},{"bike_id":"37d7ebf5-2b3d-4af3-a7cd-4f29f464d5a0","system_id":"levelo_inurba_marseille","lat":43.337444,"lon":5.374475,"is_reserved":false,"is_disabled":false,"rental_uris":{"android":"levelo://app?vid=37d7ebf5-2b3d-4af3-a7cd-4f29f464d5a0","ios":"levelo://app?vid=37d7ebf5-2b3d-4af3-a7cd-4f29f464d5a0"},"vehicle_type_id":"4","last_reported":1761812036,"current_range_meters":0,"station_id":"","pricing_plan_id":"cebpf4jnsgd1na2vs0mg"},{"bike_id":"4ce4318f-b763-4325-8589-2aecbcc80add","system_id":"levelo_inurba_marseille","lat":43.337444,"lon":5.374475,"is_reserved":false,"is_disabled":false,"rental_uris":{"android":"levelo://app?vid=4ce4318f-b763-4325-8589-2aecbcc80add","ios":"levelo://app?vid=4ce4318f-b763-4325-8589-2aecbcc80add"},"vehicle_type_id":"4","last_reported":1761812036,"current_range_meters":0,"station_id":"","pricing_plan_id":"cebpf4jnsgd1na2vs0mg"},{"bike_id":"a6a3a590-5c2a-4683-a516-e9f5572de0f8","system_id":"levelo_inurba_marseille","lat":43.337444,"lon":5.374475,"is_reserved":false,"is_disabled":false,"rental_uris":{"android":"levelo://app?vid=a6a3a590-5c2a-4683-a516-e9f5572de0f8","ios":"levelo://app?vid=a6a3a590-5c2a-4683-a516-e9f5572de0f8"},"vehicle_type_id":"4","last_reported":1761812036,"current_range_meters":0,"station_id":"","pricing_plan_id":"cebpf4jnsgd1na2vs0mg"},{"bike_id":"111bdd74-3ae9-48f5-979c-2e177e7747d9","system_id":"levelo_inurba_marseille","lat":43.337444,"lon":5.374475,"is_reserved":false,"is_disabled":false,"rental_uris":{"android":"levelo://app?vid=111bdd74-3ae9-48f5-979c-2e177e7747d9","ios":"levelo://app?vid=111bdd74-3ae9-48f5-979c-2e177e7747d9"},"vehicle_type_id":"4","last_reported":1761812036,"current_range_meters":0,"station_id":"","pricing_plan_id":"cebpf4jnsgd1na2vs0mg"},{"bike_id":"b9d871b8-65b0-40af-afa3-0bf2492a45a9","system_id":"levelo_inurba_marseille","lat":43.337444,"lon":5.374475,"is_reserved":false,"is_disabled":false,"rental_uris":{"android":"levelo://app?vid=b9d871b8-65b0-40af-afa3-0bf2492a45a9","ios":"levelo://app?vid=b9d871b8-65b0-40af-afa3-0bf2492a45a9"},"vehicle_type_id":"4","last_reported":1761812036,"current_range_meters":0,"station_id":"","pricing_plan_id":"cebpf4jnsgd1na2vs0mg"},{"bike_id":"5bec735e-fcf4-48c7-8bdc-29590fc410b1","system_id":"levelo_inurba_marseille","lat":43.337444,"lon":5.374475,"is_reserved":false,"is_disabled":false,"rental_uris":{"android":"levelo://app?vid=5bec735e-fcf4-48c7-8bdc-29590fc410b1","ios":"levelo://app?vid=5bec735e-fcf4-48c7-8bdc-29590fc410b1"},"vehicle_type_id":"4","last_reported":1761812036,"current_range_meters":0,"station_id":"","pricing_plan_id":"cebpf4jnsgd1na2vs0mg"},{"bike_id":"026e76ec-bb30-48a3-8407-a17635ff5e4d","system_id":"levelo_inurba_marseille","lat":43.337444,"lon":5.374475,"is_reserved":false,"is_disabled":false,"rental_uris":{"android":"levelo://app?vid=026e76ec-bb30-48a3-8407-a17635ff5e4d","ios":"levelo://app?vid=026e76ec-bb30-48a3-8407-a17635ff5e4d"},"vehicle_type_id":"4","last_reported":1761812036,"current_range_meters":0,"station_id":"","pricing_plan_id":"cebpf4jnsgd1na2vs0mg"},{"bike_id":"46d34bff-7ac4-476c-bd3e-8e7dba53c807","system_id":"levelo_inurba_marseille","lat":43.337444,"lon":5.374475,"is_reserved":false,"is_disabled":false,"rental_uris":{"android":"levelo://app?vid=46d34bff-7ac4-476c-bd3e-8e7dba53c807","ios":"levelo://app?vid=46d34bff-7ac4-476c-bd3e-8e7dba53c807"},"vehicle_type_id":"4","last_reported":1761812036,"current_range_meters":0,"station_id":"","pricing_plan_id":"cebpf4jnsgd1na2vs0mg"},{"bike_id":"2c7e37d6-d4ca-47ae-a0e0-a648dd4e1706","system_id":"levelo_inurba_marseille","lat":43.337444,"lon":5.374475,"is_reserved":false,"is_disabled":false,"rental_uris":{"android":"levelo://app?vid=2c7e37d6-d4ca-47ae-a0e0-a648dd4e1706","ios":"levelo://app?vid=2c7e37d6-d4ca-47ae-a0e0-a648dd4e1706"},"vehicle_type_id":"4","last_reported":1761812036,"current_range_meters":0,"station_id":"","pricing_plan_id":"cebpf4jnsgd1na2vs0mg"},{"bike_id":"94eee6a6-2463-4d2a-b222-3ef19356212a","system_id":"levelo_inurba_marseille","lat":43.337444,"lon":5.374475,"is_reserved":false,"is_disabled":false,"rental_uris":{"android":"levelo://app?vid=94eee6a6-2463-4d2a-b222-3ef19356212a","ios":"levelo://app?vid=94eee6a6-2463-4d2a-b222-3ef19356212a"},"vehicle_type_id":"4","last_reported":1761812036,"current_range_meters":0,"station_id":"","pricing_plan_id":"cebpf4jnsgd1na2vs0mg"},{"bike_id":"4592e008-320c-4bcd-ae3b-d140e613f684","system_id":"levelo_inurba_marseille","lat":43.337444,"lon":5.374475,"is_reserved":false,"is_disabled":false,"rental_uris":{"android":"levelo://app?vid=4592e008-320c-4bcd-ae3b-d140e613f684","ios":"levelo://app?vid=4592e008-320c-4bcd-ae3b-d140e613f684"},"vehicle_type_id":"4","last_reported":1761812036,"current_range_meters":0,"station_id":"","pricing_plan_id":"cebpf4jnsgd1na2vs0mg"},{"bike_id":"5807ce94-1b62-42db-8c77-9488accc83d5","system_id":"levelo_inurba_marseille","lat":43.337444,"lon":5.374475,"is_reserved":false,"is_disabled":false,"rental_uris":{"android":"levelo://app?vid=5807ce94-1b62-42db-8c77-9488accc83d5","ios":"levelo://app?vid=5807ce94-1b62-42db-8c77-9488accc83d5"},"vehicle_type_id":"4","last_reported":1761812036,"current_range_meters":0,"station_id":"","pricing_plan_id":"cebpf4jnsgd1na2vs0mg"},{"bike_id":"1880ebb9-7edb-463e-976b-226e958b9ebe","system_id":"levelo_inurba_marseille","lat":43.31097,"lon":5.37487,"is_reserved":false,"is_disabled":false,"rental_uris":{"android":"levelo://app?vid=1880ebb9-7edb-463e-976b-226e958b9ebe","ios":"levelo://app?vid=1880ebb9-7edb-463e-976b-226e958b9ebe"},"vehicle_type_id":"4","last_reported":1761812036,"current_range_meters":2800,"station_id":"ce4bgt12rcd13ifvqce0","pricing_plan_id":"cebpf4jnsgd1na2vs0mg"},{"bike_id":"3552da8a-a9ec-4038-b5e6-d71356b49896","system_id":"levelo_inurba_marseille","lat":43.255146,"lon":5.376597,"is_reserved":false,"is_disabled":false,"rental_uris":{"android":"levelo://app?vid=3552da8a-a9ec-4038-b5e6-d71356b49896","ios":"levelo://app?vid=3552da8a-a9ec-4038-b5e6-d71356b49896"},"vehicle_type_id":"4","last_reported":1761812036,"current_range_meters":2800,"station_id":"ce4bhh12rcd13ifvqff0","pricing_plan_id":"cebpf4jnsgd1na2vs0mg"},{"bike_id":"e2af772a-af25-45d6-9972-b722cc1e2820","system_id":"levelo_inurba_marseille","lat":43.30146,"lon":5.37422,"is_reserved":false,"is_disabled":false,"rental_uris":{"android":"levelo://app?vid=e2af772a-af25-45d6-9972-b722cc1e2820","ios":"levelo://app?vid=e2af772a-af25-45d6-9972-b722cc1e2820"},"vehicle_type_id":"4","last_reported":1761812036,"current_range_meters":2800,"station_id":"ce4bgs92rcd13ifvqcc0","pricing_plan_id":"cebpf4jnsgd1na2vs0mg"},{"bike_id":"94c62173-ee62-4282-be6a-fda2995c94fc","system_id":"levelo_inurba_marseille","lat":43.292633,"lon":5.384401,"is_reserved":false,"is_disabled":false,"rental_uris":{"android":"levelo://app?vid=94c62173-ee62-4282-be6a-fda2995c94fc","ios":"levelo://app?vid=94c62173-ee62-4282-be6a-fda2995c94fc"},"vehicle_type_id":"4","last_reported":1761812036,"current_range_meters":3200,"station_id":"","pricing_plan_id":"cebpf4jnsgd1na2vs0mg"},{"bike_id":"34a6505b-4395-498a-b923-f12aa363c542","system_id":"levelo_inurba_marseille","lat":43.22945,"lon":5.35367,"is_reserved":false,"is_disabled":false,"rental_uris":{"android":"levelo://app?vid=34a6505b-4395-498a-b923-f12aa363c542","ios":"levelo://app?vid=34a6505b-4395-498a-b923-f12aa363c542"},"vehicle_type_id":"4","last_reported":1761812036,"current_range_meters":3200,"station_id":"cpo3532slgdg3j2ikp40","pricing_plan_id":"cebpf4jnsgd1na2vs0mg"},{"bike_id":"ef7af1f1-a43d-40dd-b187-2708c0cc8da6","system_id":"levelo_inurba_marseille","lat":43.30546,"lon":5.36697,"is_reserved":false,"is_disabled":false,"rental_uris":{"android":"levelo://app?vid=ef7af1f1-a43d-40dd-b187-2708c0cc8da6","ios":"levelo://app?vid=ef7af1f1-a43d-40dd-b187-2708c0cc8da6"},"vehicle_type_id":"4","last_reported":1761812036,"current_range_meters":3200,"station_id":"ce4bgrp2rcd13ifvqc9g","pricing_plan_id":"cebpf4jnsgd1na2vs0mg"},{"bike_id":"4e6d12c8-46ca-4796-bdfb-60c53a31e7cc","system_id":"levelo_inurba_marseille","lat":43.29527,"lon":5.37503,"is_reserved":false,"is_disabled":false,"rental_uris":{"android":"levelo://app?vid=4e6d12c8-46ca-4796-bdfb-60c53a31e7cc","ios":"levelo://app?vid=4e6d12c8-46ca-4796-bdfb-60c53a31e7cc"},"vehicle_type_id":"4","last_reported":1761812036,"current_range_meters":3200,"station_id":"ce4bgkp2rcd13ifvqbmg","pricing_plan_id":"cebpf4jnsgd1na2vs0mg"},{"bike_id":"97d63067-2189-405e-99fa-15ac5938aa5c","system_id":"levelo_inurba_marseille","lat":43.26688,"lon":5.38274,"is_reserved":false,"is_disabled":false,"rental_uris":{"android":"levelo://app?vid=97d63067-2189-405e-99fa-15ac5938aa5c","ios":"levelo://app?vid=97d63067-2189-405e-99fa-15ac5938aa5c"},"vehicle_type_id":"4","last_reported":1761812036,"current_range_meters":3600,"station_id":"ce4bhg92rcd13ifvqf90","pricing_plan_id":"cebpf4jnsgd1na2vs0mg"},{"bike_id":"e5233de9-4880-4a9e-944d-8003303b0972","system_id":"levelo_inurba_marseille","lat":43.26939,"lon":5.38916,"is_reserved":false,"is_disabled":false,"rental_uris":{"android":"levelo://app?vid=e5233de9-4880-4a9e-944d-8003303b0972","ios":"levelo://app?vid=e5233de9-4880-4a9e-944d-8003303b0972"},"vehicle_type_id":"4","last_reported":1761812036,"current_range_meters":3600,"station_id":"ce4bhhh2rcd13ifvqfl0","pricing_plan_id":"cebpf4jnsgd1na2vs0mg"},{"bike_id":"b8201982-1840-4b0b-a6a4-4fd6b3a1565d","system_id":"levelo_inurba_marseille","lat":43.30288,"lon":5.37696,"is_reserved":false,"is_disabled":false,"rental_uris":{"android":"levelo://app?vid=b8201982-1840-4b0b-a6a4-4fd6b3a1565d","ios":"levelo://app?vid=b8201982-1840-4b0b-a6a4-4fd6b3a1565d"},"vehicle_type_id":"4","last_reported":1761812036,"current_range_meters":3600,"station_id":"ce4bguh2rcd13ifvqcj0","pricing_plan_id":"cebpf4jnsgd1na2vs0mg"},{"bike_id":"fa7d9a8f-3453-49ac-b0a9-9649704293ab","system_id":"levelo_inurba_marseille","lat":43.24657,"lon":5.43123,"is_reserved":false,"is_disabled":false,"rental_uris":{"android":"levelo://app?vid=fa7d9a8f-3453-49ac-b0a9-9649704293ab","ios":"levelo://app?vid=fa7d9a8f-3453-49ac-b0a9-9649704293ab"},"vehicle_type_id":"4","last_reported":1761812036,"current_range_meters":4000,"station_id":"st_d2m6c4gdas8pm72e190g","pricing_plan_id":"cebpf4jnsgd1na2vs0mg"},{"bike_id":"5493795e-4513-4fe8-9b7c-491e44f2071b","system_id":"levelo_inurba_marseille","lat":43.2985,"lon":5.36285,"is_reserved":false,"is_disabled":true,"rental_uris":{"android":"levelo://app?vid=5493795e-4513-4fe8-9b7c-491e44f2071b","ios":"levelo://app?vid=5493795e-4513-4fe8-9b7c-491e44f2071b"},"vehicle_type_id":"4","last_reported":1761812036,"current_range_meters":4000,"station_id":"ce4bgpp2rcd13ifvqc3g","pricing_plan_id":"cebpf4jnsgd1na2vs0mg"},{"bike_id":"2f5b1c35-1c14-4d80-851d-acae99ef10b6","system_id":"levelo_inurba_marseille","lat":43.274336,"lon":5.407775,"is_reserved":false,"is_disabled":false,"rental_uris":{"android":"levelo://app?vid=2f5b1c35-1c14-4d80-851d-acae99ef10b6","ios":"levelo://app?vid=2f5b1c35-1c14-4d80-851d-acae99ef10b6"},"vehicle_type_id":"4","last_reported":1761812036,"current_range_meters":4400,"station_id":"","pricing_plan_id":"cebpf4jnsgd1na2vs0mg"},{"bike_id":"fcbda71e-beef-44b8-af0b-5b5a1af57761","system_id":"levelo_inurba_marseille","lat":43.29979,"lon":5.37183,"is_reserved":false,"is_disabled":true,"rental_uris":{"android":"levelo://app?vid=fcbda71e-beef-44b8-af0b-5b5a1af57761","ios":"levelo://app?vid=fcbda71e-beef-44b8-af0b-5b5a1af57761"},"vehicle_type_id":"4","last_reported":1761812036,"current_range_meters":4400,"station_id":"ce4bgr92rcd13ifvqc7g","pricing_plan_id":"cebpf4jnsgd1na2vs0mg"},{"bike_id":"88a60918-618e-486a-a47e-b865cef4eea8","system_id":"levelo_inurba_marseille","lat":43.2985,"lon":5.36266,"is_reserved":false,"is_disabled":false,"rental_uris":{"android":"levelo://app?vid=88a60918-618e-486a-a47e-b865cef4eea8","ios":"levelo://app?vid=88a60918-618e-486a-a47e-b865cef4eea8"},"vehicle_type_id":"4","last_reported":1761812036,"current_range_meters":4800,"station_id":"ce4bgpp2rcd13ifvqc3g","pricing_plan_id":"cebpf4jnsgd1na2vs0mg"},{"bike_id":"e37f79e8-35cc-438a-a5a1-a9ba54980f71","system_id":"levelo_inurba_marseille","lat":43.260586,"lon":5.39395,"is_reserved":false,"is_disabled":false,"rental_uris":{"android":"levelo://app?vid=e37f79e8-35cc-438a-a5a1-a9ba54980f71","ios":"levelo://app?vid=e37f79e8-35cc-438a-a5a1-a9ba54980f71"},"vehicle_type_id":"4","last_reported":1761812036,"current_range_meters":4800,"station_id":"ce4bhh92rcd13ifvqfj0","pricing_plan_id":"cebpf4jnsgd1na2vs0mg"},{"bike_id":"94d2921f-3d63-4813-a698-2e2779c33248","system_id":"levelo_inurba_marseille","lat":43.23144,"lon":5.43726,"is_reserved":false,"is_disabled":false,"rental_uris":{"android":"levelo://app?vid=94d2921f-3d63-4813-a698-2e2779c33248","ios":"levelo://app?vid=94d2921f-3d63-4813-a698-2e2779c33248"},"vehicle_type_id":"4","last_reported":1761812036,"current_range_meters":4800,"station_id":"ce4bhmp2rcd13ifvqgog","pricing_plan_id":"cebpf4jnsgd1na2vs0mg"},{"bike_id":"d5ca831f-8041-403e-ada8-7b4196c3d5be","system_id":"levelo_inurba_marseille","lat":43.293714,"lon":5.379385,"is_reserved":false,"is_disabled":false,"rental_uris":{"android":"levelo://app?vid=d5ca831f-8041-403e-ada8-7b4196c3d5be","ios":"levelo://app?vid=d5ca831f-8041-403e-ada8-7b4196c3d5be"},"vehicle_type_id":"4","last_reported":1761812036,"current_range_meters":4800,"station_id":"","pricing_plan_id":"cebpf4jnsgd1na2vs0mg"},{"bike_id":"897d1025-cdde-48ec-9b73-6418bafdbbc5","system_id":"levelo_inurba_marseille","lat":43.28071,"lon":5.34753,"is_reserved":false,"is_disabled":false,"rental_uris":{"android":"levelo://app?vid=897d1025-cdde-48ec-9b73-6418bafdbbc5","ios":"levelo://app?vid=897d1025-cdde-48ec-9b73-6418bafdbbc5"},"vehicle_type_id":"4","last_reported":1761812036,"current_range_meters":5600,"station_id":"","pricing_plan_id":"cebpf4jnsgd1na2vs0mg"},{"bike_id":"6734ea4f-81f3-48a5-98ff-eb52308bd657","system_id":"levelo_inurba_marseille","lat":43.27939,"lon":5.41032,"is_reserved":false,"is_disabled":true,"rental_uris":{"android":"levelo://app?vid=6734ea4f-81f3-48a5-98ff-eb52308bd657","ios":"levelo://app?vid=6734ea4f-81f3-48a5-98ff-eb52308bd657"},"vehicle_type_id":"4","last_reported":1761812036,"current_range_meters":6000,"station_id":"ce4bhnp2rcd13ifvqh0g","pricing_plan_id":"cebpf4jnsgd1na2vs0mg"},{"bike_id":"e8cecdc3-ea04-4bed-a2e8-e4ef75d8bb5c","system_id":"levelo_inurba_marseille","lat":43.21767,"lon":5.34589,"is_reserved":false,"is_disabled":false,"rental_uris":{"android":"levelo://app?vid=e8cecdc3-ea04-4bed-a2e8-e4ef75d8bb5c","ios":"levelo://app?vid=e8cecdc3-ea04-4bed-a2e8-e4ef75d8bb5c"},"vehicle_type_id":"4","last_reported":1761812036,"current_range_meters":6000,"station_id":"st_cvj6r9ubvosntc0bgbag","pricing_plan_id":"cebpf4jnsgd1na2vs0mg"},{"bike_id":"48cc5a83-cf07-471a-9479-5a71011e485c","system_id":"levelo_inurba_marseille","lat":43.31344,"lon":5.36717,"is_reserved":false,"is_disabled":false,"rental_uris":{"android":"levelo://app?vid=48cc5a83-cf07-471a-9479-5a71011e485c","ios":"levelo://app?vid=48cc5a83-cf07-471a-9479-5a71011e485c"},"vehicle_type_id":"4","last_reported":1761812036,"current_range_meters":6400,"station_id":"ce4bgr92rcd13ifvqc6g","pricing_plan_id":"cebpf4jnsgd1na2vs0mg"},{"bike_id":"64a65f80-88f9-496a-8d42-62767ed3497b","system_id":"levelo_inurba_marseille","lat":43.32476,"lon":5.36579,"is_reserved":false,"is_disabled":false,"rental_uris":{"android":"levelo://app?vid=64a65f80-88f9-496a-8d42-62767ed3497b","ios":"levelo://app?vid=64a65f80-88f9-496a-8d42-62767ed3497b"},"vehicle_type_id":"4","last_reported":1761812036,"current_range_meters":6400,"station_id":"ce4bhs12rcd13ifvqhvg","pricing_plan_id":"cebpf4jnsgd1na2vs0mg"},{"bike_id":"14a8fab3-d0e9-41d7-b531-f1ff12e02e15","system_id":"levelo_inurba_marseille","lat":43.262257,"lon":5.404601,"is_reserved":false,"is_disabled":false,"rental_uris":{"android":"levelo://app?vid=14a8fab3-d0e9-41d7-b531-f1ff12e02e15","ios":"levelo://app?vid=14a8fab3-d0e9-41d7-b531-f1ff12e02e15"},"vehicle_type_id":"4","last_reported":1761812036,"current_range_meters":6400,"station_id":"ce4bhmh2rcd13ifvqgmg","pricing_plan_id":"cebpf4jnsgd1na2vs0mg"},{"bike_id":"1c7daf9a-a806-4d28-94b9-d80516de8d13","system_id":"levelo_inurba_marseille","lat":43.27978,"lon":5.38738,"is_reserved":false,"is_disabled":false,"rental_uris":{"android":"levelo://app?vid=1c7daf9a-a806-4d28-94b9-d80516de8d13","ios":"levelo://app?vid=1c7daf9a-a806-4d28-94b9-d80516de8d13"},"vehicle_type_id":"4","last_reported":1761812036,"current_range_meters":6400,"station_id":"ce4bhg12rcd13ifvqf80","pricing_plan_id":"cebpf4jnsgd1na2vs0mg"},{"bike_id":"031ba078-e36f-4ed3-889c-1fe60e3a92e8","system_id":"levelo_inurba_marseille","lat":43.27075,"lon":5.42276,"is_reserved":false,"is_disabled":false,"rental_uris":{"android":"levelo://app?vid=031ba078-e36f-4ed3-889c-1fe60e3a92e8","ios":"levelo://app?vid=031ba078-e36f-4ed3-889c-1fe60e3a92e8"},"vehicle_type_id":"4","last_reported":1761812036,"current_range_meters":6400,"station_id":"ce4bhk92rcd13ifvqgb0","pricing_plan_id":"cebpf4jnsgd1na2vs0mg"},{"bike_id":"60243453-fa0b-4ef2-8729-915a963bf8e0","system_id":"levelo_inurba_marseille","lat":43.287275,"lon":5.361047,"is_reserved":false,"is_disabled":false,"rental_uris":{"android":"levelo://app?vid=60243453-fa0b-4ef2-8729-915a963bf8e0","ios":"levelo://app?vid=60243453-fa0b-4ef2-8729-915a963bf8e0"},"vehicle_type_id":"4","last_reported":1761812036,"current_range_meters":6800,"station_id":"cki0cbj6b192h4jlfktg","pricing_plan_id":"cebpf4jnsgd1na2vs0mg"},{"bike_id":"50df84e0-f835-418a-9066-509642bbb74f","system_id":"levelo_inurba_marseille","lat":43.2873,"lon":5.36094,"is_reserved":false,"is_disabled":false,"rental_uris":{"android":"levelo://app?vid=50df84e0-f835-418a-9066-509642bbb74f","ios":"levelo://app?vid=50df84e0-f835-418a-9066-509642bbb74f"},"vehicle_type_id":"4","last_reported":1761812036,"current_range_meters":6800,"station_id":"cki0cbj6b192h4jlfktg","pricing_plan_id":"cebpf4jnsgd1na2vs0mg"},{"bike_id":"593da537-b6d9-4bba-8d71-0cf732e38cb8","system_id":"levelo_inurba_marseille","lat":43.241807,"lon":5.397328,"is_reserved":false,"is_disabled":false,"rental_uris":{"android":"levelo://app?vid=593da537-b6d9-4bba-8d71-0cf732e38cb8","ios":"levelo://app?vid=593da537-b6d9-4bba-8d71-0cf732e38cb8"},"vehicle_type_id":"4","last_reported":1761812036,"current_range_meters":6800,"station_id":"ce4bhn12rcd13ifvqgpg","pricing_plan_id":"cebpf4jnsgd1na2vs0mg"},{"bike_id":"236ed6a8-4798-4ef3-acec-cf7ae0b400bc","system_id":"levelo_inurba_marseille","lat":43.3054,"lon":5.36533,"is_reserved":false,"is_disabled":false,"rental_uris":{"android":"levelo://app?vid=236ed6a8-4798-4ef3-acec-cf7ae0b400bc","ios":"levelo://app?vid=236ed6a8-4798-4ef3-acec-cf7ae0b400bc"},"vehicle_type_id":"4","last_reported":1761812036,"current_range_meters":6800,"station_id":"ce4bgs12rcd13ifvqcag","pricing_plan_id":"cebpf4jnsgd1na2vs0mg"},{"bike_id":"f6adb9c1-4a78-4322-baec-aa5f6f5d93b6","system_id":"levelo_inurba_marseille","lat":43.337716,"lon":5.374484,"is_reserved":false,"is_disabled":false,"rental_uris":{"android":"levelo://app?vid=f6adb9c1-4a78-4322-baec-aa5f6f5d93b6","ios":"levelo://app?vid=f6adb9c1-4a78-4322-baec-aa5f6f5d93b6"},"vehicle_type_id":"4","last_reported":1761812036,"current_range_meters":6800,"station_id":"","pricing_plan_id":"cebpf4jnsgd1na2vs0mg"},{"bike_id":"a6b11317-5096-4771-88b3-44ac6f889799","system_id":"levelo_inurba_marseille","lat":43.29488,"lon":5.43309,"is_reserved":false,"is_disabled":false,"rental_uris":{"android":"levelo://app?vid=a6b11317-5096-4771-88b3-44ac6f889799","ios":"levelo://app?vid=a6b11317-5096-4771-88b3-44ac6f889799"},"vehicle_type_id":"4","last_reported":1761812036,"current_range_meters":7200,"station_id":"st_d3j5ugp08ojc73fj9d10","pricing_plan_id":"cebpf4jnsgd1na2vs0mg"},{"bike_id":"8332d995-7a21-4e07-9332-1dd3603a8bf8","system_id":"levelo_inurba_marseille","lat":43.28216,"lon":5.39032,"is_reserved":false,"is_disabled":false,"rental_uris":{"android":"levelo://app?vid=8332d995-7a21-4e07-9332-1dd3603a8bf8","ios":"levelo://app?vid=8332d995-7a21-4e07-9332-1dd3603a8bf8"},"vehicle_type_id":"4","last_reported":1761812036,"current_range_meters":7200,"station_id":"ce4bhn92rcd13ifvqgsg","pricing_plan_id":"cebpf4jnsgd1na2vs0mg"},{"bike_id":"3c24659b-122d-4f02-b5c3-d40c9acefd45","system_id":"levelo_inurba_marseille","lat":43.24679,"lon":5.38158,"is_reserved":false,"is_disabled":false,"rental_uris":{"android":"levelo://app?vid=3c24659b-122d-4f02-b5c3-d40c9acefd45","ios":"levelo://app?vid=3c24659b-122d-4f02-b5c3-d40c9acefd45"},"vehicle_type_id":"4","last_reported":1761812036,"current_range_meters":7200,"station_id":"ce4bhih2rcd13ifvqfr0","pricing_plan_id":"cebpf4jnsgd1na2vs0mg"},{"bike_id":"2faa34bf-11bd-4257-9aa2-d0d66cf0acc8","system_id":"levelo_inurba_marseille","lat":43.28454,"lon":5.35884,"is_reserved":false,"is_disabled":false,"rental_uris":{"android":"levelo://app?vid=2faa34bf-11bd-4257-9aa2-d0d66cf0acc8","ios":"levelo://app?vid=2faa34bf-11bd-4257-9aa2-d0d66cf0acc8"},"vehicle_type_id":"4","last_reported":1761812036,"current_range_meters":7200,"station_id":"ce4bhah2rcd13ifvqei0","pricing_plan_id":"cebpf4jnsgd1na2vs0mg"},{"bike_id":"ae8ebe94-fc0f-4409-8f77-39eb5c613a67","system_id":"levelo_inurba_marseille","lat":43.337444,"lon":5.374475,"is_reserved":false,"is_disabled":false,"rental_uris":{"android":"levelo://app?vid=ae8ebe94-fc0f-4409-8f77-39eb5c613a67","ios":"levelo://app?vid=ae8ebe94-fc0f-4409-8f77-39eb5c613a67"},"vehicle_type_id":"4","last_reported":1761812036,"current_range_meters":8000,"station_id":"","pricing_plan_id":"cebpf4jnsgd1na2vs0mg"},{"bike_id":"82c3d2c8-f0bf-446e-b125-018f07998329","system_id":"levelo_inurba_marseille","lat":43.327432,"lon":5.401036,"is_reserved":false,"is_disabled":false,"rental_uris":{"android":"levelo://app?vid=82c3d2c8-f0bf-446e-b125-018f07998329","ios":"levelo://app?vid=82c3d2c8-f0bf-446e-b125-018f07998329"},"vehicle_type_id":"4","last_reported":1761812036,"current_range_meters":8000,"station_id":"","pricing_plan_id":"cebpf4jnsgd1na2vs0mg"},{"bike_id":"5f63bd5a-98a8-4b17-b4b2-a2eab663b359","system_id":"levelo_inurba_marseille","lat":43.28147,"lon":5.403,"is_reserved":false,"is_disabled":false,"rental_uris":{"android":"levelo://app?vid=5f63bd5a-98a8-4b17-b4b2-a2eab663b359","ios":"levelo://app?vid=5f63bd5a-98a8-4b17-b4b2-a2eab663b359"},"vehicle_type_id":"4","last_reported":1761812036,"current_range_meters":8000,"station_id":"","pricing_plan_id":"cebpf4jnsgd1na2vs0mg"},{"bike_id":"80d6e761-244f-4776-a5a3-bd7eda8aca3d","system_id":"levelo_inurba_marseille","lat":43.27972,"lon":5.38748,"is_reserved":false,"is_disabled":false,"rental_uris":{"android":"levelo://app?vid=80d6e761-244f-4776-a5a3-bd7eda8aca3d","ios":"levelo://app?vid=80d6e761-244f-4776-a5a3-bd7eda8aca3d"},"vehicle_type_id":"4","last_reported":1761812036,"current_range_meters":8000,"station_id":"ce4bhg12rcd13ifvqf80","pricing_plan_id":"cebpf4jnsgd1na2vs0mg"},{"bike_id":"d03f6b0e-52f1-4b1d-aa37-63c36e7ad0bf","system_id":"levelo_inurba_marseille","lat":43.308799,"lon":5.372048,"is_reserved":false,"is_disabled":false,"rental_uris":{"android":"levelo://app?vid=d03f6b0e-52f1-4b1d-aa37-63c36e7ad0bf","ios":"levelo://app?vid=d03f6b0e-52f1-4b1d-aa37-63c36e7ad0bf"},"vehicle_type_id":"4","last_reported":1761812036,"current_range_meters":8400,"station_id":"ce4bguh2rcd13ifvqckg","pricing_plan_id":"cebpf4jnsgd1na2vs0mg"},{"bike_id":"fd09dbe7-0bec-431b-9705-875a0c7a7829","system_id":"levelo_inurba_marseille","lat":43.23045,"lon":5.35503,"is_reserved":false,"is_disabled":false,"rental_uris":{"android":"levelo://app?vid=fd09dbe7-0bec-431b-9705-875a0c7a7829","ios":"levelo://app?vid=fd09dbe7-0bec-431b-9705-875a0c7a7829"},"vehicle_type_id":"4","last_reported":1761812036,"current_range_meters":8400,"station_id":"cpo3342slgdg3j2ifvpg","pricing_plan_id":"cebpf4jnsgd1na2vs0mg"},{"bike_id":"cc9785b3-4d2a-4e77-a9bf-0754a67c5452","system_id":"levelo_inurba_marseille","lat":43.29588,"lon":5.37739,"is_reserved":false,"is_disabled":false,"rental_uris":{"android":"levelo://app?vid=cc9785b3-4d2a-4e77-a9bf-0754a67c5452","ios":"levelo://app?vid=cc9785b3-4d2a-4e77-a9bf-0754a67c5452"},"vehicle_type_id":"4","last_reported":1761812036,"current_range_meters":8400,"station_id":"ce4bgi92rcd13ifvqb90","pricing_plan_id":"cebpf4jnsgd1na2vs0mg"},{"bike_id":"d06e3321-b573-4866-b45b-346be881b72a","system_id":"levelo_inurba_marseille","lat":43.29709,"lon":5.37706,"is_reserved":false,"is_disabled":false,"rental_uris":{"android":"levelo://app?vid=d06e3321-b573-4866-b45b-346be881b72a","ios":"levelo://app?vid=d06e3321-b573-4866-b45b-346be881b72a"},"vehicle_type_id":"4","last_reported":1761812036,"current_range_meters":8400,"station_id":"ce4bgkh2rcd13ifvqbl0","pricing_plan_id":"cebpf4jnsgd1na2vs0mg"},{"bike_id":"b9a2948b-a285-4280-904d-8a9884efc62a","system_id":"levelo_inurba_marseille","lat":43.26793,"lon":5.39413,"is_reserved":false,"is_disabled":false,"rental_uris":{"android":"levelo://app?vid=b9a2948b-a285-4280-904d-8a9884efc62a","ios":"levelo://app?vid=b9a2948b-a285-4280-904d-8a9884efc62a"},"vehicle_type_id":"4","last_reported":1761812036,"current_range_meters":8400,"station_id":"ce4bhh12rcd13ifvqfg0","pricing_plan_id":"cebpf4jnsgd1na2vs0mg"},{"bike_id":"c425a5bf-ab10-4b97-bdb0-3a520f49a0a3","system_id":"levelo_inurba_marseille","lat":43.30531,"lon":5.36705,"is_reserved":false,"is_disabled":false,"rental_uris":{"android":"levelo://app?vid=c425a5bf-ab10-4b97-bdb0-3a520f49a0a3","ios":"levelo://app?vid=c425a5bf-ab10-4b97-bdb0-3a520f49a0a3"},"vehicle_type_id":"4","last_reported":1761812036,"current_range_meters":8400,"station_id":"ce4bgrp2rcd13ifvqc9g","pricing_plan_id":"cebpf4jnsgd1na2vs0mg"},{"bike_id":"5ab53029-d0cc-4cc5-806a-3f0498e31826","system_id":"levelo_inurba_marseille","lat":43.23161,"lon":5.43729,"is_reserved":false,"is_disabled":false,"rental_uris":{"android":"levelo://app?vid=5ab53029-d0cc-4cc5-806a-3f0498e31826","ios":"levelo://app?vid=5ab53029-d0cc-4cc5-806a-3f0498e31826"},"vehicle_type_id":"4","last_reported":1761812036,"current_range_meters":8400,"station_id":"ce4bhmp2rcd13ifvqgog","pricing_plan_id":"cebpf4jnsgd1na2vs0mg"},{"bike_id":"d02b1aa8-14fe-4c69-9587-7041c8ee53b4","system_id":"levelo_inurba_marseille","lat":43.26798,"lon":5.39404,"is_reserved":false,"is_disabled":false,"rental_uris":{"android":"levelo://app?vid=d02b1aa8-14fe-4c69-9587-7041c8ee53b4","ios":"levelo://app?vid=d02b1aa8-14fe-4c69-9587-7041c8ee53b4"},"vehicle_type_id":"4","last_reported":1761812036,"current_range_meters":8400,"station_id":"ce4bhh12rcd13ifvqfg0","pricing_plan_id":"cebpf4jnsgd1na2vs0mg"},{"bike_id":"57e585b3-bfcc-4fbd-9d8a-3a44bf05bf07","system_id":"levelo_inurba_marseille","lat":43.26701,"lon":5.41215,"is_reserved":false,"is_disabled":false,"rental_uris":{"android":"levelo://app?vid=57e585b3-bfcc-4fbd-9d8a-3a44bf05bf07","ios":"levelo://app?vid=57e585b3-bfcc-4fbd-9d8a-3a44bf05bf07"},"vehicle_type_id":"4","last_reported":1761812036,"current_range_meters":8400,"station_id":"","pricing_plan_id":"cebpf4jnsgd1na2vs0mg"},{"bike_id":"e9ee5ccc-04d3-4dfc-810d-bdc7196a27be","system_id":"levelo_inurba_marseille","lat":43.23165,"lon":5.43724,"is_reserved":false,"is_disabled":false,"rental_uris":{"android":"levelo://app?vid=e9ee5ccc-04d3-4dfc-810d-bdc7196a27be","ios":"levelo://app?vid=e9ee5ccc-04d3-4dfc-810d-bdc7196a27be"},"vehicle_type_id":"4","last_reported":1761812036,"current_range_meters":8400,"station_id":"ce4bhmp2rcd13ifvqgog","pricing_plan_id":"cebpf4jnsgd1na2vs0mg"},{"bike_id":"4f987844-352a-4305-86fb-88f60dde144a","system_id":"levelo_inurba_marseille","lat":43.307579,"lon":5.367828,"is_reserved":false,"is_disabled":false,"rental_uris":{"android":"levelo://app?vid=4f987844-352a-4305-86fb-88f60dde144a","ios":"levelo://app?vid=4f987844-352a-4305-86fb-88f60dde144a"},"vehicle_type_id":"4","last_reported":1761812036,"current_range_meters":8400,"station_id":"ce4bgn92rcd13ifvqbvg","pricing_plan_id":"cebpf4jnsgd1na2vs0mg"},{"bike_id":"457f447f-fc6e-4ace-81e0-e4b66b740b0f","system_id":"levelo_inurba_marseille","lat":43.28731,"lon":5.37932,"is_reserved":false,"is_disabled":false,"rental_uris":{"android":"levelo://app?vid=457f447f-fc6e-4ace-81e0-e4b66b740b0f","ios":"levelo://app?vid=457f447f-fc6e-4ace-81e0-e4b66b740b0f"},"vehicle_type_id":"4","last_reported":1761812036,"current_range_meters":8800,"station_id":"ce4bh9p2rcd13ifvqec0","pricing_plan_id":"cebpf4jnsgd1na2vs0mg"},{"bike_id":"1a34b5a4-3c1e-479b-b6f5-76f97d5c5c52","system_id":"levelo_inurba_marseille","lat":43.28531,"lon":5.441049,"is_reserved":false,"is_disabled":false,"rental_uris":{"android":"levelo://app?vid=1a34b5a4-3c1e-479b-b6f5-76f97d5c5c52","ios":"levelo://app?vid=1a34b5a4-3c1e-479b-b6f5-76f97d5c5c52"},"vehicle_type_id":"4","last_reported":1761812036,"current_range_meters":9200,"station_id":"st_d3j3df2ikq2c7380ej80","pricing_plan_id":"cebpf4jnsgd1na2vs0mg"},{"bike_id":"8f110091-ba83-42fd-a6da-d68a4fb67c0f","system_id":"levelo_inurba_marseille","lat":43.30945,"lon":5.39042,"is_reserved":false,"is_disabled":false,"rental_uris":{"android":"levelo://app?vid=8f110091-ba83-42fd-a6da-d68a4fb67c0f","ios":"levelo://app?vid=8f110091-ba83-42fd-a6da-d68a4fb67c0f"},"vehicle_type_id":"4","last_reported":1761812036,"current_range_meters":9200,"station_id":"ce4bgup2rcd13ifvqco0","pricing_plan_id":"cebpf4jnsgd1na2vs0mg"},{"bike_id":"39d53fc1-35c1-4976-af6a-5427e898ee4b","system_id":"levelo_inurba_marseille","lat":43.26231,"lon":5.40447,"is_reserved":false,"is_disabled":false,"rental_uris":{"android":"levelo://app?vid=39d53fc1-35c1-4976-af6a-5427e898ee4b","ios":"levelo://app?vid=39d53fc1-35c1-4976-af6a-5427e898ee4b"},"vehicle_type_id":"4","last_reported":1761812036,"current_range_meters":9200,"station_id":"ce4bhmh2rcd13ifvqgmg","pricing_plan_id":"cebpf4jnsgd1na2vs0mg"},{"bike_id":"0f0fabbb-9855-4c5f-9fd5-59505bcfcb89","system_id":"levelo_inurba_marseille","lat":43.299432,"lon":5.36553,"is_reserved":false,"is_disabled":false,"rental_uris":{"android":"levelo://app?vid=0f0fabbb-9855-4c5f-9fd5-59505bcfcb89","ios":"levelo://app?vid=0f0fabbb-9855-4c5f-9fd5-59505bcfcb89"},"vehicle_type_id":"4","last_reported":1761812036,"current_range_meters":9200,"station_id":"ce4bgm92rcd13ifvqbr0","pricing_plan_id":"cebpf4jnsgd1na2vs0mg"},{"bike_id":"b88480bc-d045-4dad-8391-aed34d4f22b1","system_id":"levelo_inurba_marseille","lat":43.30946,"lon":5.39031,"is_reserved":false,"is_disabled":false,"rental_uris":{"android":"levelo://app?vid=b88480bc-d045-4dad-8391-aed34d4f22b1","ios":"levelo://app?vid=b88480bc-d045-4dad-8391-aed34d4f22b1"},"vehicle_type_id":"4","last_reported":1761812036,"current_range_meters":9200,"station_id":"ce4bgup2rcd13ifvqco0","pricing_plan_id":"cebpf4jnsgd1na2vs0mg"},{"bike_id":"797dbf6e-c875-4edb-b947-674242f4bed3","system_id":"levelo_inurba_marseille","lat":43.25935,"lon":5.40903,"is_reserved":false,"is_disabled":false,"rental_uris":{"android":"levelo://app?vid=797dbf6e-c875-4edb-b947-674242f4bed3","ios":"levelo://app?vid=797dbf6e-c875-4edb-b947-674242f4bed3"},"vehicle_type_id":"4","last_reported":1761812036,"current_range_meters":9600,"station_id":"ce4bhm92rcd13ifvqglg","pricing_plan_id":"cebpf4jnsgd1na2vs0mg"},{"bike_id":"faee4aed-34d1-4e59-9f3e-bc2337688920","system_id":"levelo_inurba_marseille","lat":43.317171,"lon":5.43707,"is_reserved":false,"is_disabled":true,"rental_uris":{"android":"levelo://app?vid=faee4aed-34d1-4e59-9f3e-bc2337688920","ios":"levelo://app?vid=faee4aed-34d1-4e59-9f3e-bc2337688920"},"vehicle_type_id":"4","last_reported":1761812036,"current_range_meters":9600,"station_id":"ce4bhp92rcd13ifvqhcg","pricing_plan_id":"cebpf4jnsgd1na2vs0mg"},{"bike_id":"e3260d53-1f31-4048-a6b1-57d9b1375877","system_id":"levelo_inurba_marseille","lat":43.28536,"lon":5.44096,"is_reserved":false,"is_disabled":false,"rental_uris":{"android":"levelo://app?vid=e3260d53-1f31-4048-a6b1-57d9b1375877","ios":"levelo://app?vid=e3260d53-1f31-4048-a6b1-57d9b1375877"},"vehicle_type_id":"4","last_reported":1761812036,"current_range_meters":10000,"station_id":"st_d3j3df2ikq2c7380ej80","pricing_plan_id":"cebpf4jnsgd1na2vs0mg"},{"bike_id":"9e42d280-7811-4b74-93f1-464d65b7fada","system_id":"levelo_inurba_marseille","lat":43.299,"lon":5.39749,"is_reserved":false,"is_disabled":true,"rental_uris":{"android":"levelo://app?vid=9e42d280-7811-4b74-93f1-464d65b7fada","ios":"levelo://app?vid=9e42d280-7811-4b74-93f1-464d65b7fada"},"vehicle_type_id":"4","last_reported":1761812036,"current_range_meters":10000,"station_id":"ce4bh0h2rcd13ifvqd50","pricing_plan_id":"cebpf4jnsgd1na2vs0mg"},{"bike_id":"7e6a059e-f32e-4f21-93be-8ddbc01624ef","system_id":"levelo_inurba_marseille","lat":43.29979,"lon":5.37176,"is_reserved":false,"is_disabled":false,"rental_uris":{"android":"levelo://app?vid=7e6a059e-f32e-4f21-93be-8ddbc01624ef","ios":"levelo://app?vid=7e6a059e-f32e-4f21-93be-8ddbc01624ef"},"vehicle_type_id":"4","last_reported":1761812036,"current_range_meters":10000,"station_id":"ce4bgr92rcd13ifvqc7g","pricing_plan_id":"cebpf4jnsgd1na2vs0mg"},{"bike_id":"24e5a0a8-58a2-426f-91ec-88b72b7d8d2b","system_id":"levelo_inurba_marseille","lat":43.30098,"lon":5.39073,"is_reserved":false,"is_disabled":false,"rental_uris":{"android":"levelo://app?vid=24e5a0a8-58a2-426f-91ec-88b72b7d8d2b","ios":"levelo://app?vid=24e5a0a8-58a2-426f-91ec-88b72b7d8d2b"},"vehicle_type_id":"4","last_reported":1761812036,"current_range_meters":10000,"station_id":"ce4bh192rcd13ifvqdb0","pricing_plan_id":"cebpf4jnsgd1na2vs0mg"},{"bike_id":"9c2db901-419f-4575-8e96-32f4de422c3c","system_id":"levelo_inurba_marseille","lat":43.25843,"lon":5.39442,"is_reserved":false,"is_disabled":false,"rental_uris":{"android":"levelo://app?vid=9c2db901-419f-4575-8e96-32f4de422c3c","ios":"levelo://app?vid=9c2db901-419f-4575-8e96-32f4de422c3c"},"vehicle_type_id":"4","last_reported":1761812036,"current_range_meters":10000,"station_id":"ce4bhip2rcd13ifvqft0","pricing_plan_id":"cebpf4jnsgd1na2vs0mg"},{"bike_id":"f2490e6a-d59e-419e-ad90-25d5ce1a3314","system_id":"levelo_inurba_marseille","lat":43.28538,"lon":5.4411,"is_reserved":false,"is_disabled":false,"rental_uris":{"android":"levelo://app?vid=f2490e6a-d59e-419e-ad90-25d5ce1a3314","ios":"levelo://app?vid=f2490e6a-d59e-419e-ad90-25d5ce1a3314"},"vehicle_type_id":"4","last_reported":1761812036,"current_range_meters":10800,"station_id":"st_d3j3df2ikq2c7380ej80","pricing_plan_id":"cebpf4jnsgd1na2vs0mg"},{"bike_id":"4644b8ac-affa-4d50-b2ae-974d32d38290","system_id":"levelo_inurba_marseille","lat":43.30814,"lon":5.43542,"is_reserved":false,"is_disabled":false,"rental_uris":{"android":"levelo://app?vid=4644b8ac-affa-4d50-b2ae-974d32d38290","ios":"levelo://app?vid=4644b8ac-affa-4d50-b2ae-974d32d38290"},"vehicle_type_id":"4","last_reported":1761812036,"current_range_meters":10800,"station_id":"","pricing_plan_id":"cebpf4jnsgd1na2vs0mg"},{"bike_id":"3e824478-9e7f-4b49-a139-31e06709ef48","system_id":"levelo_inurba_marseille","lat":43.24076,"lon":5.37723,"is_reserved":false,"is_disabled":true,"rental_uris":{"android":"levelo://app?vid=3e824478-9e7f-4b49-a139-31e06709ef48","ios":"levelo://app?vid=3e824478-9e7f-4b49-a139-31e06709ef48"},"vehicle_type_id":"4","last_reported":1761812036,"current_range_meters":10800,"station_id":"ce4bhnp2rcd13ifvqgvg","pricing_plan_id":"cebpf4jnsgd1na2vs0mg"},{"bike_id":"cc16cf9b-46c5-4e80-840c-4fcc4f9a87b9","system_id":"levelo_inurba_marseille","lat":43.24807,"lon":5.37464,"is_reserved":false,"is_disabled":false,"rental_uris":{"android":"levelo://app?vid=cc16cf9b-46c5-4e80-840c-4fcc4f9a87b9","ios":"levelo://app?vid=cc16cf9b-46c5-4e80-840c-4fcc4f9a87b9"},"vehicle_type_id":"4","last_reported":1761812036,"current_range_meters":10800,"station_id":"ce4bhgh2rcd13ifvqfb0","pricing_plan_id":"cebpf4jnsgd1na2vs0mg"},{"bike_id":"a3a35106-60f3-4cbb-bb8c-eab7e2661743","system_id":"levelo_inurba_marseille","lat":43.25841,"lon":5.39437,"is_reserved":false,"is_disabled":false,"rental_uris":{"android":"levelo://app?vid=a3a35106-60f3-4cbb-bb8c-eab7e2661743","ios":"levelo://app?vid=a3a35106-60f3-4cbb-bb8c-eab7e2661743"},"vehicle_type_id":"4","last_reported":1761812036,"current_range_meters":11200,"station_id":"ce4bhip2rcd13ifvqft0","pricing_plan_id":"cebpf4jnsgd1na2vs0mg"},{"bike_id":"556c95c4-e39d-4a50-b32b-6e1b11658636","system_id":"levelo_inurba_marseille","lat":43.24168,"lon":5.36414,"is_reserved":false,"is_disabled":false,"rental_uris":{"android":"levelo://app?vid=556c95c4-e39d-4a50-b32b-6e1b11658636","ios":"levelo://app?vid=556c95c4-e39d-4a50-b32b-6e1b11658636"},"vehicle_type_id":"4","last_reported":1761812036,"current_range_meters":11200,"station_id":"cpo36qri1sfpv3e86is0","pricing_plan_id":"cebpf4jnsgd1na2vs0mg"},{"bike_id":"c989a09f-60cb-4393-b4c0-f79419d848c8","system_id":"levelo_inurba_marseille","lat":43.305328,"lon":5.366957,"is_reserved":false,"is_disabled":false,"rental_uris":{"android":"levelo://app?vid=c989a09f-60cb-4393-b4c0-f79419d848c8","ios":"levelo://app?vid=c989a09f-60cb-4393-b4c0-f79419d848c8"},"vehicle_type_id":"4","last_reported":1761812036,"current_range_meters":11200,"station_id":"ce4bgrp2rcd13ifvqc9g","pricing_plan_id":"cebpf4jnsgd1na2vs0mg"},{"bike_id":"6132fbb0-fb1f-4c42-a930-257bf68886c2","system_id":"levelo_inurba_marseille","lat":43.30915,"lon":5.36859,"is_reserved":false,"is_disabled":false,"rental_uris":{"android":"levelo://app?vid=6132fbb0-fb1f-4c42-a930-257bf68886c2","ios":"levelo://app?vid=6132fbb0-fb1f-4c42-a930-257bf68886c2"},"vehicle_type_id":"4","last_reported":1761812036,"current_range_meters":11600,"station_id":"ce4bgn92rcd13ifvqbvg","pricing_plan_id":"cebpf4jnsgd1na2vs0mg"},{"bike_id":"e2c32aec-4a25-41c3-9f3e-e8882f918d6d","system_id":"levelo_inurba_marseille","lat":43.25931,"lon":5.40904,"is_reserved":false,"is_disabled":false,"rental_uris":{"android":"levelo://app?vid=e2c32aec-4a25-41c3-9f3e-e8882f918d6d","ios":"levelo://app?vid=e2c32aec-4a25-41c3-9f3e-e8882f918d6d"},"vehicle_type_id":"4","last_reported":1761812036,"current_range_meters":11600,"station_id":"ce4bhm92rcd13ifvqglg","pricing_plan_id":"cebpf4jnsgd1na2vs0mg"},{"bike_id":"30d428d9-9449-4ff3-9e2b-1d54e8c19249","system_id":"levelo_inurba_marseille","lat":43.24637,"lon":5.43136,"is_reserved":false,"is_disabled":false,"rental_uris":{"android":"levelo://app?vid=30d428d9-9449-4ff3-9e2b-1d54e8c19249","ios":"levelo://app?vid=30d428d9-9449-4ff3-9e2b-1d54e8c19249"},"vehicle_type_id":"4","last_reported":1761812036,"current_range_meters":11600,"station_id":"st_d2m6c4gdas8pm72e190g","pricing_plan_id":"cebpf4jnsgd1na2vs0mg"},{"bike_id":"b74c92f3-4751-4b0d-9599-1203fef139e8","system_id":"levelo_inurba_marseille","lat":43.225613,"lon":5.416308,"is_reserved":false,"is_disabled":false,"rental_uris":{"android":"levelo://app?vid=b74c92f3-4751-4b0d-9599-1203fef139e8","ios":"levelo://app?vid=b74c92f3-4751-4b0d-9599-1203fef139e8"},"vehicle_type_id":"4","last_reported":1761812036,"current_range_meters":12000,"station_id":"st_d2o4gvlbi1j2169b742g","pricing_plan_id":"cebpf4jnsgd1na2vs0mg"},{"bike_id":"51bda6fc-6f79-4c69-ad96-da3c84c3401c","system_id":"levelo_inurba_marseille","lat":43.30532,"lon":5.36532,"is_reserved":false,"is_disabled":false,"rental_uris":{"android":"levelo://app?vid=51bda6fc-6f79-4c69-ad96-da3c84c3401c","ios":"levelo://app?vid=51bda6fc-6f79-4c69-ad96-da3c84c3401c"},"vehicle_type_id":"4","last_reported":1761812036,"current_range_meters":12000,"station_id":"ce4bgs12rcd13ifvqcag","pricing_plan_id":"cebpf4jnsgd1na2vs0mg"},{"bike_id":"f0adbc82-23c7-440d-a051-0c3132d5ec3f","system_id":"levelo_inurba_marseille","lat":43.297249,"lon":5.37664,"is_reserved":false,"is_disabled":false,"rental_uris":{"android":"levelo://app?vid=f0adbc82-23c7-440d-a051-0c3132d5ec3f","ios":"levelo://app?vid=f0adbc82-23c7-440d-a051-0c3132d5ec3f"},"vehicle_type_id":"4","last_reported":1761812036,"current_range_meters":12000,"station_id":"ce4bgkh2rcd13ifvqbl0","pricing_plan_id":"cebpf4jnsgd1na2vs0mg"},{"bike_id":"6defcef5-bde2-4337-af3e-89707155ebbd","system_id":"levelo_inurba_marseille","lat":43.28424,"lon":5.34996,"is_reserved":false,"is_disabled":false,"rental_uris":{"android":"levelo://app?vid=6defcef5-bde2-4337-af3e-89707155ebbd","ios":"levelo://app?vid=6defcef5-bde2-4337-af3e-89707155ebbd"},"vehicle_type_id":"4","last_reported":1761812036,"current_range_meters":12400,"station_id":"ce4bhbh2rcd13ifvqepg","pricing_plan_id":"cebpf4jnsgd1na2vs0mg"},{"bike_id":"3bd93217-aab0-420f-92d2-8e8a9d6cba6c","system_id":"levelo_inurba_marseille","lat":43.24393,"lon":5.37069,"is_reserved":false,"is_disabled":false,"rental_uris":{"android":"levelo://app?vid=3bd93217-aab0-420f-92d2-8e8a9d6cba6c","ios":"levelo://app?vid=3bd93217-aab0-420f-92d2-8e8a9d6cba6c"},"vehicle_type_id":"4","last_reported":1761812036,"current_range_meters":12400,"station_id":"ce4bhhh2rcd13ifvqfk0","pricing_plan_id":"cebpf4jnsgd1na2vs0mg"},{"bike_id":"83614dff-e07f-4e96-aec6-6218c09d73e1","system_id":"levelo_inurba_marseille","lat":43.295753,"lon":5.367391,"is_reserved":false,"is_disabled":false,"rental_uris":{"android":"levelo://app?vid=83614dff-e07f-4e96-aec6-6218c09d73e1","ios":"levelo://app?vid=83614dff-e07f-4e96-aec6-6218c09d73e1"},"vehicle_type_id":"4","last_reported":1761812036,"current_range_meters":12400,"station_id":"ce4bgph2rcd13ifvqc2g","pricing_plan_id":"cebpf4jnsgd1na2vs0mg"},{"bike_id":"00e5df0f-1cb7-420a-b470-616dc5cd7798","system_id":"levelo_inurba_marseille","lat":43.230589,"lon":5.354951,"is_reserved":false,"is_disabled":false,"rental_uris":{"android":"levelo://app?vid=00e5df0f-1cb7-420a-b470-616dc5cd7798","ios":"levelo://app?vid=00e5df0f-1cb7-420a-b470-616dc5cd7798"},"vehicle_type_id":"4","last_reported":1761812036,"current_range_meters":12400,"station_id":"cpo3342slgdg3j2ifvpg","pricing_plan_id":"cebpf4jnsgd1na2vs0mg"},{"bike_id":"3fe4cb5f-ebeb-46b8-a29b-bf8e9ee185ac","system_id":"levelo_inurba_marseille","lat":43.25941,"lon":5.40901,"is_reserved":false,"is_disabled":false,"rental_uris":{"android":"levelo://app?vid=3fe4cb5f-ebeb-46b8-a29b-bf8e9ee185ac","ios":"levelo://app?vid=3fe4cb5f-ebeb-46b8-a29b-bf8e9ee185ac"},"vehicle_type_id":"4","last_reported":1761812036,"current_range_meters":12400,"station_id":"ce4bhm92rcd13ifvqglg","pricing_plan_id":"cebpf4jnsgd1na2vs0mg"},{"bike_id":"39457fe9-f08e-4a74-a542-c3f8ab40e65c","system_id":"levelo_inurba_marseille","lat":43.30946,"lon":5.39026,"is_reserved":false,"is_disabled":false,"rental_uris":{"android":"levelo://app?vid=39457fe9-f08e-4a74-a542-c3f8ab40e65c","ios":"levelo://app?vid=39457fe9-f08e-4a74-a542-c3f8ab40e65c"},"vehicle_type_id":"4","last_reported":1761812036,"current_range_meters":12800,"station_id":"ce4bgup2rcd13ifvqco0","pricing_plan_id":"cebpf4jnsgd1na2vs0mg"},{"bike_id":"34e3b917-547a-42fd-85f2-e142380f8527","system_id":"levelo_inurba_marseille","lat":43.26684,"lon":5.38268,"is_reserved":false,"is_disabled":false,"rental_uris":{"android":"levelo://app?vid=34e3b917-547a-42fd-85f2-e142380f8527","ios":"levelo://app?vid=34e3b917-547a-42fd-85f2-e142380f8527"},"vehicle_type_id":"4","last_reported":1761812036,"current_range_meters":12800,"station_id":"ce4bhg92rcd13ifvqf90","pricing_plan_id":"cebpf4jnsgd1na2vs0mg"},{"bike_id":"f54d56bd-bf2c-48a7-a2b8-bdd3133044af","system_id":"levelo_inurba_marseille","lat":43.245519,"lon":5.395192,"is_reserved":false,"is_disabled":false,"rental_uris":{"android":"levelo://app?vid=f54d56bd-bf2c-48a7-a2b8-bdd3133044af","ios":"levelo://app?vid=f54d56bd-bf2c-48a7-a2b8-bdd3133044af"},"vehicle_type_id":"4","last_reported":1761812036,"current_range_meters":13600,"station_id":"ce4bhlp2rcd13ifvqgjg","pricing_plan_id":"cebpf4jnsgd1na2vs0mg"},{"bike_id":"76be96f0-2614-40d4-a63a-2984a119ec62","system_id":"levelo_inurba_marseille","lat":43.24163,"lon":5.36404,"is_reserved":false,"is_disabled":false,"rental_uris":{"android":"levelo://app?vid=76be96f0-2614-40d4-a63a-2984a119ec62","ios":"levelo://app?vid=76be96f0-2614-40d4-a63a-2984a119ec62"},"vehicle_type_id":"4","last_reported":1761812036,"current_range_meters":13600,"station_id":"cpo36qri1sfpv3e86is0","pricing_plan_id":"cebpf4jnsgd1na2vs0mg"},{"bike_id":"4353749e-abfe-4c80-a5e8-ba06b5fd7764","system_id":"levelo_inurba_marseille","lat":43.237975,"lon":5.366226,"is_reserved":false,"is_disabled":true,"rental_uris":{"android":"levelo://app?vid=4353749e-abfe-4c80-a5e8-ba06b5fd7764","ios":"levelo://app?vid=4353749e-abfe-4c80-a5e8-ba06b5fd7764"},"vehicle_type_id":"4","last_reported":1761812036,"current_range_meters":13600,"station_id":"st_d3nk18o9ro0c73en2l3g","pricing_plan_id":"cebpf4jnsgd1na2vs0mg"},{"bike_id":"9a47f147-cf75-4f32-8fd7-5af99662d3a5","system_id":"levelo_inurba_marseille","lat":43.25936,"lon":5.40904,"is_reserved":false,"is_disabled":false,"rental_uris":{"android":"levelo://app?vid=9a47f147-cf75-4f32-8fd7-5af99662d3a5","ios":"levelo://app?vid=9a47f147-cf75-4f32-8fd7-5af99662d3a5"},"vehicle_type_id":"4","last_reported":1761812036,"current_range_meters":13600,"station_id":"ce4bhm92rcd13ifvqglg","pricing_plan_id":"cebpf4jnsgd1na2vs0mg"},{"bike_id":"98f0f127-297b-45d0-bfe6-ffa7785d2197","system_id":"levelo_inurba_marseille","lat":43.267,"lon":5.38257,"is_reserved":false,"is_disabled":false,"rental_uris":{"android":"levelo://app?vid=98f0f127-297b-45d0-bfe6-ffa7785d2197","ios":"levelo://app?vid=98f0f127-297b-45d0-bfe6-ffa7785d2197"},"vehicle_type_id":"4","last_reported":1761812036,"current_range_meters":13600,"station_id":"ce4bhg92rcd13ifvqf90","pricing_plan_id":"cebpf4jnsgd1na2vs0mg"},{"bike_id":"a47ae016-4ab2-4b71-916a-aa63b42661a4","system_id":"levelo_inurba_marseille","lat":43.248072,"lon":5.374612,"is_reserved":false,"is_disabled":false,"rental_uris":{"android":"levelo://app?vid=a47ae016-4ab2-4b71-916a-aa63b42661a4","ios":"levelo://app?vid=a47ae016-4ab2-4b71-916a-aa63b42661a4"},"vehicle_type_id":"4","last_reported":1761812036,"current_range_meters":14400,"station_id":"ce4bhgh2rcd13ifvqfb0","pricing_plan_id":"cebpf4jnsgd1na2vs0mg"},{"bike_id":"8062c369-ff3b-4a48-b2ef-d270e82c4cf4","system_id":"levelo_inurba_marseille","lat":43.23068,"lon":5.35495,"is_reserved":false,"is_disabled":false,"rental_uris":{"android":"levelo://app?vid=8062c369-ff3b-4a48-b2ef-d270e82c4cf4","ios":"levelo://app?vid=8062c369-ff3b-4a48-b2ef-d270e82c4cf4"},"vehicle_type_id":"4","last_reported":1761812036,"current_range_meters":14400,"station_id":"cpo3342slgdg3j2ifvpg","pricing_plan_id":"cebpf4jnsgd1na2vs0mg"},{"bike_id":"5cc12b8b-17ea-496d-908c-4590727c4b79","system_id":"levelo_inurba_marseille","lat":43.24181,"lon":5.39734,"is_reserved":false,"is_disabled":false,"rental_uris":{"android":"levelo://app?vid=5cc12b8b-17ea-496d-908c-4590727c4b79","ios":"levelo://app?vid=5cc12b8b-17ea-496d-908c-4590727c4b79"},"vehicle_type_id":"4","last_reported":1761812036,"current_range_meters":14400,"station_id":"ce4bhn12rcd13ifvqgpg","pricing_plan_id":"cebpf4jnsgd1na2vs0mg"},{"bike_id":"5e3752b8-593e-46fd-9f2d-f8a706a78c86","system_id":"levelo_inurba_marseille","lat":43.25718,"lon":5.41097,"is_reserved":false,"is_disabled":false,"rental_uris":{"android":"levelo://app?vid=5e3752b8-593e-46fd-9f2d-f8a706a78c86","ios":"levelo://app?vid=5e3752b8-593e-46fd-9f2d-f8a706a78c86"},"vehicle_type_id":"4","last_reported":1761812036,"current_range_meters":14400,"station_id":"ce4bhkp2rcd13ifvqgd0","pricing_plan_id":"cebpf4jnsgd1na2vs0mg"},{"bike_id":"21149ae6-d2d5-4572-b8b7-172c30652746","system_id":"levelo_inurba_marseille","lat":43.24693,"lon":5.38165,"is_reserved":false,"is_disabled":false,"rental_uris":{"android":"levelo://app?vid=21149ae6-d2d5-4572-b8b7-172c30652746","ios":"levelo://app?vid=21149ae6-d2d5-4572-b8b7-172c30652746"},"vehicle_type_id":"4","last_reported":1761812036,"current_range_meters":14400,"station_id":"ce4bhih2rcd13ifvqfr0","pricing_plan_id":"cebpf4jnsgd1na2vs0mg"},{"bike_id":"75df00d1-b79d-4514-b45c-0d363788a217","system_id":"levelo_inurba_marseille","lat":43.32111,"lon":5.36773,"is_reserved":false,"is_disabled":false,"rental_uris":{"android":"levelo://app?vid=75df00d1-b79d-4514-b45c-0d363788a217","ios":"levelo://app?vid=75df00d1-b79d-4514-b45c-0d363788a217"},"vehicle_type_id":"4","last_reported":1761812036,"current_range_meters":14400,"station_id":"ce4bhrh2rcd13ifvqhug","pricing_plan_id":"cebpf4jnsgd1na2vs0mg"},{"bike_id":"3b7cd44b-d19a-4239-b84b-8015526911bd","system_id":"levelo_inurba_marseille","lat":43.317633,"lon":5.390142,"is_reserved":false,"is_disabled":false,"rental_uris":{"android":"levelo://app?vid=3b7cd44b-d19a-4239-b84b-8015526911bd","ios":"levelo://app?vid=3b7cd44b-d19a-4239-b84b-8015526911bd"},"vehicle_type_id":"4","last_reported":1761812036,"current_range_meters":14400,"station_id":"ce4bhqp2rcd13ifvqhng","pricing_plan_id":"cebpf4jnsgd1na2vs0mg"},{"bike_id":"08fe8e28-30e7-4060-bd13-066e444394fe","system_id":"levelo_inurba_marseille","lat":43.2832,"lon":5.41068,"is_reserved":false,"is_disabled":false,"rental_uris":{"android":"levelo://app?vid=08fe8e28-30e7-4060-bd13-066e444394fe","ios":"levelo://app?vid=08fe8e28-30e7-4060-bd13-066e444394fe"},"vehicle_type_id":"4","last_reported":1761812036,"current_range_meters":14400,"station_id":"","pricing_plan_id":"cebpf4jnsgd1na2vs0mg"},{"bike_id":"a4a81a3a-b1a5-4e69-b8f2-fc130ffc3362","system_id":"levelo_inurba_marseille","lat":43.26559,"lon":5.37297,"is_reserved":false,"is_disabled":false,"rental_uris":{"android":"levelo://app?vid=a4a81a3a-b1a5-4e69-b8f2-fc130ffc3362","ios":"levelo://app?vid=a4a81a3a-b1a5-4e69-b8f2-fc130ffc3362"},"vehicle_type_id":"4","last_reported":1761812036,"current_range_meters":14400,"station_id":"ce4bhg12rcd13ifvqf70","pricing_plan_id":"cebpf4jnsgd1na2vs0mg"},{"bike_id":"53b9ea54-1899-4571-ab75-8d3245809a5a","system_id":"levelo_inurba_marseille","lat":43.23057,"lon":5.354943,"is_reserved":false,"is_disabled":true,"rental_uris":{"android":"levelo://app?vid=53b9ea54-1899-4571-ab75-8d3245809a5a","ios":"levelo://app?vid=53b9ea54-1899-4571-ab75-8d3245809a5a"},"vehicle_type_id":"4","last_reported":1761812036,"current_range_meters":14400,"station_id":"cpo3342slgdg3j2ifvpg","pricing_plan_id":"cebpf4jnsgd1na2vs0mg"},{"bike_id":"d00da312-c40b-48c9-aee8-26374c425ea4","system_id":"levelo_inurba_marseille","lat":43.27549,"lon":5.41153,"is_reserved":false,"is_disabled":false,"rental_uris":{"android":"levelo://app?vid=d00da312-c40b-48c9-aee8-26374c425ea4","ios":"levelo://app?vid=d00da312-c40b-48c9-aee8-26374c425ea4"},"vehicle_type_id":"4","last_reported":1761812036,"current_range_meters":14400,"station_id":"","pricing_plan_id":"cebpf4jnsgd1na2vs0mg"},{"bike_id":"a86d27c2-696e-472b-911c-6468600e7222","system_id":"levelo_inurba_marseille","lat":43.30917,"lon":5.36847,"is_reserved":false,"is_disabled":false,"rental_uris":{"android":"levelo://app?vid=a86d27c2-696e-472b-911c-6468600e7222","ios":"levelo://app?vid=a86d27c2-696e-472b-911c-6468600e7222"},"vehicle_type_id":"4","last_reported":1761812036,"current_range_meters":14800,"station_id":"ce4bgn92rcd13ifvqbvg","pricing_plan_id":"cebpf4jnsgd1na2vs0mg"},{"bike_id":"69784158-23ce-4182-b68d-3b3e30a0474f","system_id":"levelo_inurba_marseille","lat":43.23784,"lon":5.36625,"is_reserved":false,"is_disabled":false,"rental_uris":{"android":"levelo://app?vid=69784158-23ce-4182-b68d-3b3e30a0474f","ios":"levelo://app?vid=69784158-23ce-4182-b68d-3b3e30a0474f"},"vehicle_type_id":"4","last_reported":1761812036,"current_range_meters":14800,"station_id":"st_d3nk18o9ro0c73en2l3g","pricing_plan_id":"cebpf4jnsgd1na2vs0mg"},{"bike_id":"52543899-2ab4-4112-8a15-7ef6c68aea10","system_id":"levelo_inurba_marseille","lat":43.29318,"lon":5.41073,"is_reserved":false,"is_disabled":false,"rental_uris":{"android":"levelo://app?vid=52543899-2ab4-4112-8a15-7ef6c68aea10","ios":"levelo://app?vid=52543899-2ab4-4112-8a15-7ef6c68aea10"},"vehicle_type_id":"4","last_reported":1761812036,"current_range_meters":14800,"station_id":"","pricing_plan_id":"cebpf4jnsgd1na2vs0mg"},{"bike_id":"fe558ef9-b17c-48a1-a5ed-0eedc149351e","system_id":"levelo_inurba_marseille","lat":43.2534,"lon":5.42168,"is_reserved":false,"is_disabled":false,"rental_uris":{"android":"levelo://app?vid=fe558ef9-b17c-48a1-a5ed-0eedc149351e","ios":"levelo://app?vid=fe558ef9-b17c-48a1-a5ed-0eedc149351e"},"vehicle_type_id":"4","last_reported":1761812036,"current_range_meters":15200,"station_id":"st_d2m65c5bi1j21697t3ng","pricing_plan_id":"cebpf4jnsgd1na2vs0mg"},{"bike_id":"3a499934-9140-435e-968f-fa10dd280f36","system_id":"levelo_inurba_marseille","lat":43.24641,"lon":5.43119,"is_reserved":false,"is_disabled":false,"rental_uris":{"android":"levelo://app?vid=3a499934-9140-435e-968f-fa10dd280f36","ios":"levelo://app?vid=3a499934-9140-435e-968f-fa10dd280f36"},"vehicle_type_id":"4","last_reported":1761812036,"current_range_meters":15200,"station_id":"st_d2m6c4gdas8pm72e190g","pricing_plan_id":"cebpf4jnsgd1na2vs0mg"},{"bike_id":"0c003ebf-0f85-4149-8935-7c08c6a5cd23","system_id":"levelo_inurba_marseille","lat":43.24166,"lon":5.36397,"is_reserved":false,"is_disabled":false,"rental_uris":{"android":"levelo://app?vid=0c003ebf-0f85-4149-8935-7c08c6a5cd23","ios":"levelo://app?vid=0c003ebf-0f85-4149-8935-7c08c6a5cd23"},"vehicle_type_id":"4","last_reported":1761812036,"current_range_meters":15200,"station_id":"cpo36qri1sfpv3e86is0","pricing_plan_id":"cebpf4jnsgd1na2vs0mg"},{"bike_id":"777ff719-548c-48c7-aa40-fa024ed1effa","system_id":"levelo_inurba_marseille","lat":43.2858,"lon":5.39492,"is_reserved":false,"is_disabled":false,"rental_uris":{"android":"levelo://app?vid=777ff719-548c-48c7-aa40-fa024ed1effa","ios":"levelo://app?vid=777ff719-548c-48c7-aa40-fa024ed1effa"},"vehicle_type_id":"4","last_reported":1761812036,"current_range_meters":15200,"station_id":"ce4bh292rcd13ifvqdg0","pricing_plan_id":"cebpf4jnsgd1na2vs0mg"},{"bike_id":"e7bf361e-2f17-4348-84fe-6fc5ea1d4f11","system_id":"levelo_inurba_marseille","lat":43.29583,"lon":5.36737,"is_reserved":false,"is_disabled":false,"rental_uris":{"android":"levelo://app?vid=e7bf361e-2f17-4348-84fe-6fc5ea1d4f11","ios":"levelo://app?vid=e7bf361e-2f17-4348-84fe-6fc5ea1d4f11"},"vehicle_type_id":"4","last_reported":1761812036,"current_range_meters":15200,"station_id":"ce4bgph2rcd13ifvqc2g","pricing_plan_id":"cebpf4jnsgd1na2vs0mg"},{"bike_id":"868c9f67-46db-40c2-8054-2388a5f9841e","system_id":"levelo_inurba_marseille","lat":43.32365,"lon":5.36717,"is_reserved":false,"is_disabled":false,"rental_uris":{"android":"levelo://app?vid=868c9f67-46db-40c2-8054-2388a5f9841e","ios":"levelo://app?vid=868c9f67-46db-40c2-8054-2388a5f9841e"},"vehicle_type_id":"4","last_reported":1761812036,"current_range_meters":15200,"station_id":"ce4bhsh2rcd13ifvqi2g","pricing_plan_id":"cebpf4jnsgd1na2vs0mg"},{"bike_id":"15e2c5dd-bae1-46fb-906a-d29fa37d6e53","system_id":"levelo_inurba_marseille","lat":43.313219,"lon":5.37277,"is_reserved":false,"is_disabled":false,"rental_uris":{"android":"levelo://app?vid=15e2c5dd-bae1-46fb-906a-d29fa37d6e53","ios":"levelo://app?vid=15e2c5dd-bae1-46fb-906a-d29fa37d6e53"},"vehicle_type_id":"4","last_reported":1761812036,"current_range_meters":15200,"station_id":"","pricing_plan_id":"cebpf4jnsgd1na2vs0mg"},{"bike_id":"38271bdc-29a6-475b-909c-e43ec5d3bc75","system_id":"levelo_inurba_marseille","lat":43.240676,"lon":5.377621,"is_reserved":false,"is_disabled":false,"rental_uris":{"android":"levelo://app?vid=38271bdc-29a6-475b-909c-e43ec5d3bc75","ios":"levelo://app?vid=38271bdc-29a6-475b-909c-e43ec5d3bc75"},"vehicle_type_id":"4","last_reported":1761812036,"current_range_meters":15200,"station_id":"ce4bhnp2rcd13ifvqgvg","pricing_plan_id":"cebpf4jnsgd1na2vs0mg"},{"bike_id":"95a65396-1418-48a2-ac4a-e0a3d4097870","system_id":"levelo_inurba_marseille","lat":43.24999,"lon":5.3893,"is_reserved":false,"is_disabled":false,"rental_uris":{"android":"levelo://app?vid=95a65396-1418-48a2-ac4a-e0a3d4097870","ios":"levelo://app?vid=95a65396-1418-48a2-ac4a-e0a3d4097870"},"vehicle_type_id":"4","last_reported":1761812036,"current_range_meters":16000,"station_id":"ce4bhgp2rcd13ifvqfd0","pricing_plan_id":"cebpf4jnsgd1na2vs0mg"},{"bike_id":"69ec8265-d991-49a2-81d7-afaddab5649b","system_id":"levelo_inurba_marseille","lat":43.293372,"lon":5.386427,"is_reserved":false,"is_disabled":false,"rental_uris":{"android":"levelo://app?vid=69ec8265-d991-49a2-81d7-afaddab5649b","ios":"levelo://app?vid=69ec8265-d991-49a2-81d7-afaddab5649b"},"vehicle_type_id":"4","last_reported":1761812036,"current_range_meters":16000,"station_id":"","pricing_plan_id":"cebpf4jnsgd1na2vs0mg"},{"bike_id":"a18dbf48-2c4d-4fa4-a4c5-c9871d73c9a0","system_id":"levelo_inurba_marseille","lat":43.301994,"lon":5.383462,"is_reserved":false,"is_disabled":false,"rental_uris":{"android":"levelo://app?vid=a18dbf48-2c4d-4fa4-a4c5-c9871d73c9a0","ios":"levelo://app?vid=a18dbf48-2c4d-4fa4-a4c5-c9871d73c9a0"},"vehicle_type_id":"4","last_reported":1761812036,"current_range_meters":16000,"station_id":"ce4bgup2rcd13ifvqcn0","pricing_plan_id":"cebpf4jnsgd1na2vs0mg"},{"bike_id":"b250a777-4b8d-4104-8d4d-4cf432814998","system_id":"levelo_inurba_marseille","lat":43.29357,"lon":5.37586,"is_reserved":false,"is_disabled":false,"rental_uris":{"android":"levelo://app?vid=b250a777-4b8d-4104-8d4d-4cf432814998","ios":"levelo://app?vid=b250a777-4b8d-4104-8d4d-4cf432814998"},"vehicle_type_id":"4","last_reported":1761812036,"current_range_meters":16000,"station_id":"","pricing_plan_id":"cebpf4jnsgd1na2vs0mg"},{"bike_id":"6fb1f061-9990-48f6-a8bb-b0ea7d10a6c2","system_id":"levelo_inurba_marseille","lat":43.2408,"lon":5.37749,"is_reserved":false,"is_disabled":false,"rental_uris":{"android":"levelo://app?vid=6fb1f061-9990-48f6-a8bb-b0ea7d10a6c2","ios":"levelo://app?vid=6fb1f061-9990-48f6-a8bb-b0ea7d10a6c2"},"vehicle_type_id":"4","last_reported":1761812036,"current_range_meters":16000,"station_id":"ce4bhnp2rcd13ifvqgvg","pricing_plan_id":"cebpf4jnsgd1na2vs0mg"},{"bike_id":"47515cc3-7999-4646-b140-9b73e932f5f5","system_id":"levelo_inurba_marseille","lat":43.33312,"lon":5.38466,"is_reserved":false,"is_disabled":false,"rental_uris":{"android":"levelo://app?vid=47515cc3-7999-4646-b140-9b73e932f5f5","ios":"levelo://app?vid=47515cc3-7999-4646-b140-9b73e932f5f5"},"vehicle_type_id":"4","last_reported":1761812036,"current_range_meters":16400,"station_id":"","pricing_plan_id":"cebpf4jnsgd1na2vs0mg"},{"bike_id":"f45ebf5f-52b6-4228-9ca8-b4703f7d9523","system_id":"levelo_inurba_marseille","lat":43.30147,"lon":5.3986,"is_reserved":false,"is_disabled":false,"rental_uris":{"android":"levelo://app?vid=f45ebf5f-52b6-4228-9ca8-b4703f7d9523","ios":"levelo://app?vid=f45ebf5f-52b6-4228-9ca8-b4703f7d9523"},"vehicle_type_id":"4","last_reported":1761812036,"current_range_meters":16400,"station_id":"ce4bh0h2rcd13ifvqd40","pricing_plan_id":"cebpf4jnsgd1na2vs0mg"},{"bike_id":"24cf1f73-de51-4115-a873-54587fef4dba","system_id":"levelo_inurba_marseille","lat":43.28704,"lon":5.39993,"is_reserved":false,"is_disabled":false,"rental_uris":{"android":"levelo://app?vid=24cf1f73-de51-4115-a873-54587fef4dba","ios":"levelo://app?vid=24cf1f73-de51-4115-a873-54587fef4dba"},"vehicle_type_id":"4","last_reported":1761812036,"current_range_meters":16400,"station_id":"ce4bho92rcd13ifvqh3g","pricing_plan_id":"cebpf4jnsgd1na2vs0mg"},{"bike_id":"8ff7698c-7e5c-4194-9f4c-b674091b39a8","system_id":"levelo_inurba_marseille","lat":43.279257,"lon":5.403879,"is_reserved":false,"is_disabled":false,"rental_uris":{"android":"levelo://app?vid=8ff7698c-7e5c-4194-9f4c-b674091b39a8","ios":"levelo://app?vid=8ff7698c-7e5c-4194-9f4c-b674091b39a8"},"vehicle_type_id":"4","last_reported":1761812036,"current_range_meters":16400,"station_id":"","pricing_plan_id":"cebpf4jnsgd1na2vs0mg"},{"bike_id":"a3be85a8-3026-4b14-88a9-fc9020d5df93","system_id":"levelo_inurba_marseille","lat":43.24947,"lon":5.404963,"is_reserved":false,"is_disabled":false,"rental_uris":{"android":"levelo://app?vid=a3be85a8-3026-4b14-88a9-fc9020d5df93","ios":"levelo://app?vid=a3be85a8-3026-4b14-88a9-fc9020d5df93"},"vehicle_type_id":"4","last_reported":1761812036,"current_range_meters":16400,"station_id":"st_d2ngiaodas8pm72gd1h0","pricing_plan_id":"cebpf4jnsgd1na2vs0mg"},{"bike_id":"03474086-ff8e-46e3-87e1-a24f0e6b47f0","system_id":"levelo_inurba_marseille","lat":43.24601,"lon":5.37534,"is_reserved":false,"is_disabled":false,"rental_uris":{"android":"levelo://app?vid=03474086-ff8e-46e3-87e1-a24f0e6b47f0","ios":"levelo://app?vid=03474086-ff8e-46e3-87e1-a24f0e6b47f0"},"vehicle_type_id":"4","last_reported":1761812036,"current_range_meters":16400,"station_id":"","pricing_plan_id":"cebpf4jnsgd1na2vs0mg"},{"bike_id":"17798230-b1f4-4830-9e3a-109241f9c381","system_id":"levelo_inurba_marseille","lat":43.30054,"lon":5.40395,"is_reserved":false,"is_disabled":false,"rental_uris":{"android":"levelo://app?vid=17798230-b1f4-4830-9e3a-109241f9c381","ios":"levelo://app?vid=17798230-b1f4-4830-9e3a-109241f9c381"},"vehicle_type_id":"4","last_reported":1761812036,"current_range_meters":16800,"station_id":"","pricing_plan_id":"cebpf4jnsgd1na2vs0mg"},{"bike_id":"9b93b5e1-c939-4745-bf85-2d21945442dc","system_id":"levelo_inurba_marseille","lat":43.299981,"lon":5.363978,"is_reserved":false,"is_disabled":false,"rental_uris":{"android":"levelo://app?vid=9b93b5e1-c939-4745-bf85-2d21945442dc","ios":"levelo://app?vid=9b93b5e1-c939-4745-bf85-2d21945442dc"},"vehicle_type_id":"4","last_reported":1761812036,"current_range_meters":16800,"station_id":"","pricing_plan_id":"cebpf4jnsgd1na2vs0mg"},{"bike_id":"5b275c21-ee14-4e1c-8123-fc6f049089e4","system_id":"levelo_inurba_marseille","lat":43.31231,"lon":5.36846,"is_reserved":false,"is_disabled":false,"rental_uris":{"android":"levelo://app?vid=5b275c21-ee14-4e1c-8123-fc6f049089e4","ios":"levelo://app?vid=5b275c21-ee14-4e1c-8123-fc6f049089e4"},"vehicle_type_id":"4","last_reported":1761812036,"current_range_meters":16800,"station_id":"ce4bgl92rcd13ifvqbq0","pricing_plan_id":"cebpf4jnsgd1na2vs0mg"},{"bike_id":"667a4a8e-bd76-4fb1-b40f-6d82b3d1d948","system_id":"levelo_inurba_marseille","lat":43.31766,"lon":5.39008,"is_reserved":false,"is_disabled":false,"rental_uris":{"android":"levelo://app?vid=667a4a8e-bd76-4fb1-b40f-6d82b3d1d948","ios":"levelo://app?vid=667a4a8e-bd76-4fb1-b40f-6d82b3d1d948"},"vehicle_type_id":"4","last_reported":1761812036,"current_range_meters":16800,"station_id":"ce4bhqp2rcd13ifvqhng","pricing_plan_id":"cebpf4jnsgd1na2vs0mg"},{"bike_id":"52a753d3-3ac4-4caa-88bc-c038122b2bbb","system_id":"levelo_inurba_marseille","lat":43.26223,"lon":5.40433,"is_reserved":false,"is_disabled":false,"rental_uris":{"android":"levelo://app?vid=52a753d3-3ac4-4caa-88bc-c038122b2bbb","ios":"levelo://app?vid=52a753d3-3ac4-4caa-88bc-c038122b2bbb"},"vehicle_type_id":"4","last_reported":1761812036,"current_range_meters":16800,"station_id":"ce4bhmh2rcd13ifvqgmg","pricing_plan_id":"cebpf4jnsgd1na2vs0mg"},{"bike_id":"fc4c86ba-a67d-4b95-9291-deea0443316f","system_id":"levelo_inurba_marseille","lat":43.308812,"lon":5.371916,"is_reserved":false,"is_disabled":false,"rental_uris":{"android":"levelo://app?vid=fc4c86ba-a67d-4b95-9291-deea0443316f","ios":"levelo://app?vid=fc4c86ba-a67d-4b95-9291-deea0443316f"},"vehicle_type_id":"4","last_reported":1761812036,"current_range_meters":17200,"station_id":"ce4bguh2rcd13ifvqckg","pricing_plan_id":"cebpf4jnsgd1na2vs0mg"},{"bike_id":"932ad1c2-4305-4dbf-ad9d-624ed36a7479","system_id":"levelo_inurba_marseille","lat":43.30107,"lon":5.38753,"is_reserved":false,"is_disabled":false,"rental_uris":{"android":"levelo://app?vid=932ad1c2-4305-4dbf-ad9d-624ed36a7479","ios":"levelo://app?vid=932ad1c2-4305-4dbf-ad9d-624ed36a7479"},"vehicle_type_id":"4","last_reported":1761812036,"current_range_meters":17200,"station_id":"","pricing_plan_id":"cebpf4jnsgd1na2vs0mg"},{"bike_id":"3e015a0c-489b-4c11-be52-20f33a65c819","system_id":"levelo_inurba_marseille","lat":43.33031,"lon":5.39242,"is_reserved":false,"is_disabled":false,"rental_uris":{"android":"levelo://app?vid=3e015a0c-489b-4c11-be52-20f33a65c819","ios":"levelo://app?vid=3e015a0c-489b-4c11-be52-20f33a65c819"},"vehicle_type_id":"4","last_reported":1761812036,"current_range_meters":17200,"station_id":"","pricing_plan_id":"cebpf4jnsgd1na2vs0mg"},{"bike_id":"201e2a4c-73e3-4f87-93fe-8854747b415c","system_id":"levelo_inurba_marseille","lat":43.30148,"lon":5.37419,"is_reserved":false,"is_disabled":false,"rental_uris":{"android":"levelo://app?vid=201e2a4c-73e3-4f87-93fe-8854747b415c","ios":"levelo://app?vid=201e2a4c-73e3-4f87-93fe-8854747b415c"},"vehicle_type_id":"4","last_reported":1761812036,"current_range_meters":17200,"station_id":"ce4bgs92rcd13ifvqcc0","pricing_plan_id":"cebpf4jnsgd1na2vs0mg"},{"bike_id":"7059abfa-bba6-43b2-8c14-96f92d7be186","system_id":"levelo_inurba_marseille","lat":43.309143,"lon":5.368475,"is_reserved":false,"is_disabled":false,"rental_uris":{"android":"levelo://app?vid=7059abfa-bba6-43b2-8c14-96f92d7be186","ios":"levelo://app?vid=7059abfa-bba6-43b2-8c14-96f92d7be186"},"vehicle_type_id":"4","last_reported":1761812036,"current_range_meters":17200,"station_id":"ce4bgn92rcd13ifvqbvg","pricing_plan_id":"cebpf4jnsgd1na2vs0mg"},{"bike_id":"0e7c56e4-e4a5-4592-a5c3-0912509a295d","system_id":"levelo_inurba_marseille","lat":43.26805,"lon":5.39374,"is_reserved":false,"is_disabled":false,"rental_uris":{"android":"levelo://app?vid=0e7c56e4-e4a5-4592-a5c3-0912509a295d","ios":"levelo://app?vid=0e7c56e4-e4a5-4592-a5c3-0912509a295d"},"vehicle_type_id":"4","last_reported":1761812036,"current_range_meters":17200,"station_id":"ce4bhh12rcd13ifvqfg0","pricing_plan_id":"cebpf4jnsgd1na2vs0mg"},{"bike_id":"2fd86c53-d195-4ab3-a5e6-984f6c0f4c38","system_id":"levelo_inurba_marseille","lat":43.26569,"lon":5.3733,"is_reserved":false,"is_disabled":false,"rental_uris":{"android":"levelo://app?vid=2fd86c53-d195-4ab3-a5e6-984f6c0f4c38","ios":"levelo://app?vid=2fd86c53-d195-4ab3-a5e6-984f6c0f4c38"},"vehicle_type_id":"4","last_reported":1761812036,"current_range_meters":17600,"station_id":"ce4bhg12rcd13ifvqf70","pricing_plan_id":"cebpf4jnsgd1na2vs0mg"},{"bike_id":"a4990639-2d75-4f2a-bbd2-ab8604a76c92","system_id":"levelo_inurba_marseille","lat":43.2873,"lon":5.37932,"is_reserved":false,"is_disabled":false,"rental_uris":{"android":"levelo://app?vid=a4990639-2d75-4f2a-bbd2-ab8604a76c92","ios":"levelo://app?vid=a4990639-2d75-4f2a-bbd2-ab8604a76c92"},"vehicle_type_id":"4","last_reported":1761812036,"current_range_meters":17600,"station_id":"ce4bh9p2rcd13ifvqec0","pricing_plan_id":"cebpf4jnsgd1na2vs0mg"},{"bike_id":"b42419cb-e4e7-4368-90a5-d65b599e764e","system_id":"levelo_inurba_marseille","lat":43.28617,"lon":5.35096,"is_reserved":false,"is_disabled":false,"rental_uris":{"android":"levelo://app?vid=b42419cb-e4e7-4368-90a5-d65b599e764e","ios":"levelo://app?vid=b42419cb-e4e7-4368-90a5-d65b599e764e"},"vehicle_type_id":"4","last_reported":1761812036,"current_range_meters":17600,"station_id":"ce4bhch2rcd13ifvqeug","pricing_plan_id":"cebpf4jnsgd1na2vs0mg"},{"bike_id":"88327406-ba65-4ce0-831c-3da476dbb691","system_id":"levelo_inurba_marseille","lat":43.23796,"lon":5.36634,"is_reserved":false,"is_disabled":false,"rental_uris":{"android":"levelo://app?vid=88327406-ba65-4ce0-831c-3da476dbb691","ios":"levelo://app?vid=88327406-ba65-4ce0-831c-3da476dbb691"},"vehicle_type_id":"4","last_reported":1761812036,"current_range_meters":17600,"station_id":"st_d3nk18o9ro0c73en2l3g","pricing_plan_id":"cebpf4jnsgd1na2vs0mg"},{"bike_id":"a24d557a-67d1-453d-8497-fdbe1e9e58db","system_id":"levelo_inurba_marseille","lat":43.24671,"lon":5.38173,"is_reserved":false,"is_disabled":false,"rental_uris":{"android":"levelo://app?vid=a24d557a-67d1-453d-8497-fdbe1e9e58db","ios":"levelo://app?vid=a24d557a-67d1-453d-8497-fdbe1e9e58db"},"vehicle_type_id":"4","last_reported":1761812036,"current_range_meters":17600,"station_id":"ce4bhih2rcd13ifvqfr0","pricing_plan_id":"cebpf4jnsgd1na2vs0mg"},{"bike_id":"1904b823-872a-4a74-8cf4-493a7f4ccf3a","system_id":"levelo_inurba_marseille","lat":43.29267,"lon":5.38454,"is_reserved":false,"is_disabled":true,"rental_uris":{"android":"levelo://app?vid=1904b823-872a-4a74-8cf4-493a7f4ccf3a","ios":"levelo://app?vid=1904b823-872a-4a74-8cf4-493a7f4ccf3a"},"vehicle_type_id":"4","last_reported":1761812036,"current_range_meters":17600,"station_id":"ce4bh692rcd13ifvqea0","pricing_plan_id":"cebpf4jnsgd1na2vs0mg"},{"bike_id":"1b4e444c-b4c2-4950-9891-1a96f5bc0caa","system_id":"levelo_inurba_marseille","lat":43.26232,"lon":5.40435,"is_reserved":false,"is_disabled":false,"rental_uris":{"android":"levelo://app?vid=1b4e444c-b4c2-4950-9891-1a96f5bc0caa","ios":"levelo://app?vid=1b4e444c-b4c2-4950-9891-1a96f5bc0caa"},"vehicle_type_id":"4","last_reported":1761812036,"current_range_meters":17600,"station_id":"ce4bhmh2rcd13ifvqgmg","pricing_plan_id":"cebpf4jnsgd1na2vs0mg"},{"bike_id":"c3dfa6a1-f8fd-4443-aae2-9345fe985eca","system_id":"levelo_inurba_marseille","lat":43.32475,"lon":5.3657,"is_reserved":false,"is_disabled":false,"rental_uris":{"android":"levelo://app?vid=c3dfa6a1-f8fd-4443-aae2-9345fe985eca","ios":"levelo://app?vid=c3dfa6a1-f8fd-4443-aae2-9345fe985eca"},"vehicle_type_id":"4","last_reported":1761812036,"current_range_meters":17600,"station_id":"ce4bhs12rcd13ifvqhvg","pricing_plan_id":"cebpf4jnsgd1na2vs0mg"},{"bike_id":"40c7e24f-ae6e-4686-a6c4-3f65258e5663","system_id":"levelo_inurba_marseille","lat":43.3122,"lon":5.36858,"is_reserved":false,"is_disabled":false,"rental_uris":{"android":"levelo://app?vid=40c7e24f-ae6e-4686-a6c4-3f65258e5663","ios":"levelo://app?vid=40c7e24f-ae6e-4686-a6c4-3f65258e5663"},"vehicle_type_id":"4","last_reported":1761812036,"current_range_meters":18000,"station_id":"ce4bgl92rcd13ifvqbq0","pricing_plan_id":"cebpf4jnsgd1na2vs0mg"},{"bike_id":"5ded5244-c35c-4135-9795-5698ab5e80a4","system_id":"levelo_inurba_marseille","lat":43.32676,"lon":5.40999,"is_reserved":false,"is_disabled":false,"rental_uris":{"android":"levelo://app?vid=5ded5244-c35c-4135-9795-5698ab5e80a4","ios":"levelo://app?vid=5ded5244-c35c-4135-9795-5698ab5e80a4"},"vehicle_type_id":"4","last_reported":1761812036,"current_range_meters":18000,"station_id":"ce4bhpp2rcd13ifvqhgg","pricing_plan_id":"cebpf4jnsgd1na2vs0mg"},{"bike_id":"9852e0a1-4995-4628-84f2-0d56389f5aef","system_id":"levelo_inurba_marseille","lat":43.317182,"lon":5.423972,"is_reserved":false,"is_disabled":false,"rental_uris":{"android":"levelo://app?vid=9852e0a1-4995-4628-84f2-0d56389f5aef","ios":"levelo://app?vid=9852e0a1-4995-4628-84f2-0d56389f5aef"},"vehicle_type_id":"4","last_reported":1761812036,"current_range_meters":18000,"station_id":"ce4bhp92rcd13ifvqhbg","pricing_plan_id":"cebpf4jnsgd1na2vs0mg"},{"bike_id":"1d16d20a-dbf1-4a69-8537-89211ea34b71","system_id":"levelo_inurba_marseille","lat":43.31282,"lon":5.37834,"is_reserved":false,"is_disabled":false,"rental_uris":{"android":"levelo://app?vid=1d16d20a-dbf1-4a69-8537-89211ea34b71","ios":"levelo://app?vid=1d16d20a-dbf1-4a69-8537-89211ea34b71"},"vehicle_type_id":"4","last_reported":1761812036,"current_range_meters":18000,"station_id":"","pricing_plan_id":"cebpf4jnsgd1na2vs0mg"},{"bike_id":"e5007143-0a21-4c85-a988-fb2101930b94","system_id":"levelo_inurba_marseille","lat":43.24083,"lon":5.37729,"is_reserved":false,"is_disabled":false,"rental_uris":{"android":"levelo://app?vid=e5007143-0a21-4c85-a988-fb2101930b94","ios":"levelo://app?vid=e5007143-0a21-4c85-a988-fb2101930b94"},"vehicle_type_id":"4","last_reported":1761812036,"current_range_meters":18000,"station_id":"ce4bhnp2rcd13ifvqgvg","pricing_plan_id":"cebpf4jnsgd1na2vs0mg"},{"bike_id":"216e46ca-be00-4e8e-a1e1-fb94531ee1ae","system_id":"levelo_inurba_marseille","lat":43.29561,"lon":5.42275,"is_reserved":false,"is_disabled":true,"rental_uris":{"android":"levelo://app?vid=216e46ca-be00-4e8e-a1e1-fb94531ee1ae","ios":"levelo://app?vid=216e46ca-be00-4e8e-a1e1-fb94531ee1ae"},"vehicle_type_id":"4","last_reported":1761812036,"current_range_meters":18800,"station_id":"ce4bhph2rcd13ifvqhdg","pricing_plan_id":"cebpf4jnsgd1na2vs0mg"},{"bike_id":"1ce0baa3-1ac8-410e-9137-57f18b2f4b33","system_id":"levelo_inurba_marseille","lat":43.2418,"lon":5.39726,"is_reserved":false,"is_disabled":false,"rental_uris":{"android":"levelo://app?vid=1ce0baa3-1ac8-410e-9137-57f18b2f4b33","ios":"levelo://app?vid=1ce0baa3-1ac8-410e-9137-57f18b2f4b33"},"vehicle_type_id":"4","last_reported":1761812036,"current_range_meters":18800,"station_id":"ce4bhn12rcd13ifvqgpg","pricing_plan_id":"cebpf4jnsgd1na2vs0mg"},{"bike_id":"da37f53a-6fba-41f3-b328-dd99ff26cf34","system_id":"levelo_inurba_marseille","lat":43.25813,"lon":5.39413,"is_reserved":false,"is_disabled":false,"rental_uris":{"android":"levelo://app?vid=da37f53a-6fba-41f3-b328-dd99ff26cf34","ios":"levelo://app?vid=da37f53a-6fba-41f3-b328-dd99ff26cf34"},"vehicle_type_id":"4","last_reported":1761812036,"current_range_meters":18800,"station_id":"","pricing_plan_id":"cebpf4jnsgd1na2vs0mg"},{"bike_id":"05a47c24-c74d-4482-aade-5974399cb310","system_id":"levelo_inurba_marseille","lat":43.29606,"lon":5.37672,"is_reserved":false,"is_disabled":false,"rental_uris":{"android":"levelo://app?vid=05a47c24-c74d-4482-aade-5974399cb310","ios":"levelo://app?vid=05a47c24-c74d-4482-aade-5974399cb310"},"vehicle_type_id":"4","last_reported":1761812036,"current_range_meters":18800,"station_id":"ce4bgi92rcd13ifvqb90","pricing_plan_id":"cebpf4jnsgd1na2vs0mg"},{"bike_id":"f6e41c21-0e74-476c-8273-8a6a7b44e6bc","system_id":"levelo_inurba_marseille","lat":43.30752,"lon":5.4245,"is_reserved":false,"is_disabled":false,"rental_uris":{"android":"levelo://app?vid=f6e41c21-0e74-476c-8273-8a6a7b44e6bc","ios":"levelo://app?vid=f6e41c21-0e74-476c-8273-8a6a7b44e6bc"},"vehicle_type_id":"4","last_reported":1761812036,"current_range_meters":18800,"station_id":"st_cvj6ca6bvosntc0bfgr0","pricing_plan_id":"cebpf4jnsgd1na2vs0mg"},{"bike_id":"0137dec7-abd2-4bb1-984c-0ba5484bca3b","system_id":"levelo_inurba_marseille","lat":43.33796,"lon":5.3745,"is_reserved":false,"is_disabled":false,"rental_uris":{"android":"levelo://app?vid=0137dec7-abd2-4bb1-984c-0ba5484bca3b","ios":"levelo://app?vid=0137dec7-abd2-4bb1-984c-0ba5484bca3b"},"vehicle_type_id":"4","last_reported":1761812036,"current_range_meters":18800,"station_id":"","pricing_plan_id":"cebpf4jnsgd1na2vs0mg"},{"bike_id":"23c552bf-5a64-43d0-b7e2-53ae82b6c4bb","system_id":"levelo_inurba_marseille","lat":43.302455,"lon":5.376814,"is_reserved":false,"is_disabled":false,"rental_uris":{"android":"levelo://app?vid=23c552bf-5a64-43d0-b7e2-53ae82b6c4bb","ios":"levelo://app?vid=23c552bf-5a64-43d0-b7e2-53ae82b6c4bb"},"vehicle_type_id":"4","last_reported":1761812036,"current_range_meters":19200,"station_id":"ce4bh412rcd13ifvqdr0","pricing_plan_id":"cebpf4jnsgd1na2vs0mg"},{"bike_id":"b653538f-d627-467c-b243-40ed0ed692ed","system_id":"levelo_inurba_marseille","lat":43.32476,"lon":5.36574,"is_reserved":false,"is_disabled":false,"rental_uris":{"android":"levelo://app?vid=b653538f-d627-467c-b243-40ed0ed692ed","ios":"levelo://app?vid=b653538f-d627-467c-b243-40ed0ed692ed"},"vehicle_type_id":"4","last_reported":1761812036,"current_range_meters":19200,"station_id":"ce4bhs12rcd13ifvqhvg","pricing_plan_id":"cebpf4jnsgd1na2vs0mg"},{"bike_id":"31bb2618-d2cf-4569-a501-3dbb3dadc507","system_id":"levelo_inurba_marseille","lat":43.30308,"lon":5.392061,"is_reserved":false,"is_disabled":false,"rental_uris":{"android":"levelo://app?vid=31bb2618-d2cf-4569-a501-3dbb3dadc507","ios":"levelo://app?vid=31bb2618-d2cf-4569-a501-3dbb3dadc507"},"vehicle_type_id":"4","last_reported":1761812036,"current_range_meters":19200,"station_id":"ce4bgkh2rcd13ifvqbk0","pricing_plan_id":"cebpf4jnsgd1na2vs0mg"},{"bike_id":"a4dac4fa-66e6-48be-a654-6e17cdc7ca0b","system_id":"levelo_inurba_marseille","lat":43.337571,"lon":5.374323,"is_reserved":false,"is_disabled":false,"rental_uris":{"android":"levelo://app?vid=a4dac4fa-66e6-48be-a654-6e17cdc7ca0b","ios":"levelo://app?vid=a4dac4fa-66e6-48be-a654-6e17cdc7ca0b"},"vehicle_type_id":"4","last_reported":1761812036,"current_range_meters":19200,"station_id":"","pricing_plan_id":"cebpf4jnsgd1na2vs0mg"},{"bike_id":"b3145fb6-fafb-4029-a4fc-58fd96331a6b","system_id":"levelo_inurba_marseille","lat":43.30595,"lon":5.39356,"is_reserved":false,"is_disabled":true,"rental_uris":{"android":"levelo://app?vid=b3145fb6-fafb-4029-a4fc-58fd96331a6b","ios":"levelo://app?vid=b3145fb6-fafb-4029-a4fc-58fd96331a6b"},"vehicle_type_id":"4","last_reported":1761812036,"current_range_meters":19200,"station_id":"ce4bh0p2rcd13ifvqd80","pricing_plan_id":"cebpf4jnsgd1na2vs0mg"},{"bike_id":"f80a0055-c873-4e76-98bc-f952a6f624c9","system_id":"levelo_inurba_marseille","lat":43.279372,"lon":5.410373,"is_reserved":false,"is_disabled":false,"rental_uris":{"android":"levelo://app?vid=f80a0055-c873-4e76-98bc-f952a6f624c9","ios":"levelo://app?vid=f80a0055-c873-4e76-98bc-f952a6f624c9"},"vehicle_type_id":"4","last_reported":1761812036,"current_range_meters":19200,"station_id":"ce4bhnp2rcd13ifvqh0g","pricing_plan_id":"cebpf4jnsgd1na2vs0mg"},{"bike_id":"cc221443-ff27-4eb4-8db7-6ec13cb296d2","system_id":"levelo_inurba_marseille","lat":43.2856,"lon":5.44115,"is_reserved":false,"is_disabled":false,"rental_uris":{"android":"levelo://app?vid=cc221443-ff27-4eb4-8db7-6ec13cb296d2","ios":"levelo://app?vid=cc221443-ff27-4eb4-8db7-6ec13cb296d2"},"vehicle_type_id":"4","last_reported":1761812036,"current_range_meters":19200,"station_id":"st_d3j3df2ikq2c7380ej80","pricing_plan_id":"cebpf4jnsgd1na2vs0mg"},{"bike_id":"ac054415-4e37-4567-b95e-73970b5e64bc","system_id":"levelo_inurba_marseille","lat":43.32488,"lon":5.36565,"is_reserved":false,"is_disabled":false,"rental_uris":{"android":"levelo://app?vid=ac054415-4e37-4567-b95e-73970b5e64bc","ios":"levelo://app?vid=ac054415-4e37-4567-b95e-73970b5e64bc"},"vehicle_type_id":"4","last_reported":1761812036,"current_range_meters":19200,"station_id":"ce4bhs12rcd13ifvqhvg","pricing_plan_id":"cebpf4jnsgd1na2vs0mg"},{"bike_id":"b8f404d3-62c4-4489-a471-d37212346558","system_id":"levelo_inurba_marseille","lat":43.310466,"lon":5.378789,"is_reserved":false,"is_disabled":false,"rental_uris":{"android":"levelo://app?vid=b8f404d3-62c4-4489-a471-d37212346558","ios":"levelo://app?vid=b8f404d3-62c4-4489-a471-d37212346558"},"vehicle_type_id":"4","last_reported":1761812036,"current_range_meters":19200,"station_id":"","pricing_plan_id":"cebpf4jnsgd1na2vs0mg"},{"bike_id":"2a0ad573-fdb7-46cb-8ef6-7d12545f2f0b","system_id":"levelo_inurba_marseille","lat":43.257086,"lon":5.411079,"is_reserved":false,"is_disabled":true,"rental_uris":{"android":"levelo://app?vid=2a0ad573-fdb7-46cb-8ef6-7d12545f2f0b","ios":"levelo://app?vid=2a0ad573-fdb7-46cb-8ef6-7d12545f2f0b"},"vehicle_type_id":"4","last_reported":1761812036,"current_range_meters":19200,"station_id":"ce4bhkp2rcd13ifvqgd0","pricing_plan_id":"cebpf4jnsgd1na2vs0mg"},{"bike_id":"32a35b9b-6aca-4b70-9bd2-e6acde4ddbcc","system_id":"levelo_inurba_marseille","lat":43.229323,"lon":5.353807,"is_reserved":false,"is_disabled":false,"rental_uris":{"android":"levelo://app?vid=32a35b9b-6aca-4b70-9bd2-e6acde4ddbcc","ios":"levelo://app?vid=32a35b9b-6aca-4b70-9bd2-e6acde4ddbcc"},"vehicle_type_id":"4","last_reported":1761812036,"current_range_meters":19200,"station_id":"cpo3532slgdg3j2ikp40","pricing_plan_id":"cebpf4jnsgd1na2vs0mg"},{"bike_id":"9eebcbf9-622f-4e01-9407-960fbde43ed9","system_id":"levelo_inurba_marseille","lat":43.295957,"lon":5.380967,"is_reserved":false,"is_disabled":false,"rental_uris":{"android":"levelo://app?vid=9eebcbf9-622f-4e01-9407-960fbde43ed9","ios":"levelo://app?vid=9eebcbf9-622f-4e01-9407-960fbde43ed9"},"vehicle_type_id":"4","last_reported":1761812036,"current_range_meters":19600,"station_id":"","pricing_plan_id":"cebpf4jnsgd1na2vs0mg"},{"bike_id":"7cd1c4c8-a30e-41c5-bb75-b12701b36b03","system_id":"levelo_inurba_marseille","lat":43.27927,"lon":5.41048,"is_reserved":false,"is_disabled":false,"rental_uris":{"android":"levelo://app?vid=7cd1c4c8-a30e-41c5-bb75-b12701b36b03","ios":"levelo://app?vid=7cd1c4c8-a30e-41c5-bb75-b12701b36b03"},"vehicle_type_id":"4","last_reported":1761812036,"current_range_meters":19600,"station_id":"ce4bhnp2rcd13ifvqh0g","pricing_plan_id":"cebpf4jnsgd1na2vs0mg"},{"bike_id":"c2d57bdc-63e0-452c-9017-7aa240e0c935","system_id":"levelo_inurba_marseille","lat":43.29094,"lon":5.38149,"is_reserved":false,"is_disabled":false,"rental_uris":{"android":"levelo://app?vid=c2d57bdc-63e0-452c-9017-7aa240e0c935","ios":"levelo://app?vid=c2d57bdc-63e0-452c-9017-7aa240e0c935"},"vehicle_type_id":"4","last_reported":1761812036,"current_range_meters":19600,"station_id":"ce4bh512rcd13ifvqe2g","pricing_plan_id":"cebpf4jnsgd1na2vs0mg"},{"bike_id":"2ef0b862-76cb-4bd2-bb6f-5c5aaaa5f9e5","system_id":"levelo_inurba_marseille","lat":43.259366,"lon":5.4091,"is_reserved":false,"is_disabled":false,"rental_uris":{"android":"levelo://app?vid=2ef0b862-76cb-4bd2-bb6f-5c5aaaa5f9e5","ios":"levelo://app?vid=2ef0b862-76cb-4bd2-bb6f-5c5aaaa5f9e5"},"vehicle_type_id":"4","last_reported":1761812036,"current_range_meters":19600,"station_id":"ce4bhm92rcd13ifvqglg","pricing_plan_id":"cebpf4jnsgd1na2vs0mg"},{"bike_id":"20c1c26d-be2a-4cac-8028-038f5ffc2f00","system_id":"levelo_inurba_marseille","lat":43.29281,"lon":5.36839,"is_reserved":false,"is_disabled":true,"rental_uris":{"android":"levelo://app?vid=20c1c26d-be2a-4cac-8028-038f5ffc2f00","ios":"levelo://app?vid=20c1c26d-be2a-4cac-8028-038f5ffc2f00"},"vehicle_type_id":"4","last_reported":1761812036,"current_range_meters":19600,"station_id":"ce4bhbp2rcd13ifvqesg","pricing_plan_id":"cebpf4jnsgd1na2vs0mg"},{"bike_id":"b22c42ff-4285-4504-9e58-c6df4a616eed","system_id":"levelo_inurba_marseille","lat":43.308938,"lon":5.372089,"is_reserved":false,"is_disabled":false,"rental_uris":{"android":"levelo://app?vid=b22c42ff-4285-4504-9e58-c6df4a616eed","ios":"levelo://app?vid=b22c42ff-4285-4504-9e58-c6df4a616eed"},"vehicle_type_id":"4","last_reported":1761812036,"current_range_meters":19600,"station_id":"ce4bguh2rcd13ifvqckg","pricing_plan_id":"cebpf4jnsgd1na2vs0mg"},{"bike_id":"48d3b96f-8416-4329-ac85-a1ebb32987c2","system_id":"levelo_inurba_marseille","lat":43.276635,"lon":5.388816,"is_reserved":false,"is_disabled":false,"rental_uris":{"android":"levelo://app?vid=48d3b96f-8416-4329-ac85-a1ebb32987c2","ios":"levelo://app?vid=48d3b96f-8416-4329-ac85-a1ebb32987c2"},"vehicle_type_id":"4","last_reported":1761812036,"current_range_meters":19600,"station_id":"ce4bhi12rcd13ifvqfo0","pricing_plan_id":"cebpf4jnsgd1na2vs0mg"},{"bike_id":"f7986849-5488-47e8-b8c2-0ebfdf9d8390","system_id":"levelo_inurba_marseille","lat":43.2467,"lon":5.38178,"is_reserved":false,"is_disabled":false,"rental_uris":{"android":"levelo://app?vid=f7986849-5488-47e8-b8c2-0ebfdf9d8390","ios":"levelo://app?vid=f7986849-5488-47e8-b8c2-0ebfdf9d8390"},"vehicle_type_id":"4","last_reported":1761812036,"current_range_meters":19600,"station_id":"ce4bhih2rcd13ifvqfr0","pricing_plan_id":"cebpf4jnsgd1na2vs0mg"},{"bike_id":"47db667e-53c6-4229-b45a-57b9871bdaa2","system_id":"levelo_inurba_marseille","lat":43.30161,"lon":5.38078,"is_reserved":false,"is_disabled":false,"rental_uris":{"android":"levelo://app?vid=47db667e-53c6-4229-b45a-57b9871bdaa2","ios":"levelo://app?vid=47db667e-53c6-4229-b45a-57b9871bdaa2"},"vehicle_type_id":"4","last_reported":1761812036,"current_range_meters":20000,"station_id":"ce4bgjp2rcd13ifvqbh0","pricing_plan_id":"cebpf4jnsgd1na2vs0mg"},{"bike_id":"66eefaa6-2260-4403-947e-145020f57760","system_id":"levelo_inurba_marseille","lat":43.29302,"lon":5.37422,"is_reserved":false,"is_disabled":false,"rental_uris":{"android":"levelo://app?vid=66eefaa6-2260-4403-947e-145020f57760","ios":"levelo://app?vid=66eefaa6-2260-4403-947e-145020f57760"},"vehicle_type_id":"4","last_reported":1761812036,"current_range_meters":20000,"station_id":"ce4bgi12rcd13ifvqb70","pricing_plan_id":"cebpf4jnsgd1na2vs0mg"},{"bike_id":"109e7431-8ac1-4a19-8296-4638c84490d8","system_id":"levelo_inurba_marseille","lat":43.304787,"lon":5.367679,"is_reserved":false,"is_disabled":false,"rental_uris":{"android":"levelo://app?vid=109e7431-8ac1-4a19-8296-4638c84490d8","ios":"levelo://app?vid=109e7431-8ac1-4a19-8296-4638c84490d8"},"vehicle_type_id":"4","last_reported":1761812036,"current_range_meters":20000,"station_id":"ce4bgs12rcd13ifvqcag","pricing_plan_id":"cebpf4jnsgd1na2vs0mg"},{"bike_id":"d3d9eb2c-e173-4dd3-a5b4-c18e58088276","system_id":"levelo_inurba_marseille","lat":43.30535,"lon":5.36712,"is_reserved":false,"is_disabled":false,"rental_uris":{"android":"levelo://app?vid=d3d9eb2c-e173-4dd3-a5b4-c18e58088276","ios":"levelo://app?vid=d3d9eb2c-e173-4dd3-a5b4-c18e58088276"},"vehicle_type_id":"4","last_reported":1761812036,"current_range_meters":20000,"station_id":"ce4bgrp2rcd13ifvqc9g","pricing_plan_id":"cebpf4jnsgd1na2vs0mg"},{"bike_id":"ee261a32-9de1-4b9e-a923-6c91e1e26176","system_id":"levelo_inurba_marseille","lat":43.284847,"lon":5.484006,"is_reserved":false,"is_disabled":false,"rental_uris":{"android":"levelo://app?vid=ee261a32-9de1-4b9e-a923-6c91e1e26176","ios":"levelo://app?vid=ee261a32-9de1-4b9e-a923-6c91e1e26176"},"vehicle_type_id":"4","last_reported":1761812036,"current_range_meters":20000,"station_id":"st_d3svhcjqgbts73a3dn0g","pricing_plan_id":"cebpf4jnsgd1na2vs0mg"},{"bike_id":"0a9abdf5-79f0-47db-9743-c4be71bd0ac0","system_id":"levelo_inurba_marseille","lat":43.30129,"lon":5.431147,"is_reserved":false,"is_disabled":false,"rental_uris":{"android":"levelo://app?vid=0a9abdf5-79f0-47db-9743-c4be71bd0ac0","ios":"levelo://app?vid=0a9abdf5-79f0-47db-9743-c4be71bd0ac0"},"vehicle_type_id":"4","last_reported":1761812036,"current_range_meters":20000,"station_id":"st_d3js3co5814s73ftftug","pricing_plan_id":"cebpf4jnsgd1na2vs0mg"},{"bike_id":"861500d6-0abe-4efa-a0b6-c629997e9d6e","system_id":"levelo_inurba_marseille","lat":43.276214,"lon":5.361101,"is_reserved":false,"is_disabled":false,"rental_uris":{"android":"levelo://app?vid=861500d6-0abe-4efa-a0b6-c629997e9d6e","ios":"levelo://app?vid=861500d6-0abe-4efa-a0b6-c629997e9d6e"},"vehicle_type_id":"4","last_reported":1761812036,"current_range_meters":20000,"station_id":"ce4bgj92rcd13ifvqbe0","pricing_plan_id":"cebpf4jnsgd1na2vs0mg"},{"bike_id":"4c45f3e6-22d5-42bb-a317-fb92a5d2691e","system_id":"levelo_inurba_marseille","lat":43.29034,"lon":5.39961,"is_reserved":false,"is_disabled":false,"rental_uris":{"android":"levelo://app?vid=4c45f3e6-22d5-42bb-a317-fb92a5d2691e","ios":"levelo://app?vid=4c45f3e6-22d5-42bb-a317-fb92a5d2691e"},"vehicle_type_id":"4","last_reported":1761812036,"current_range_meters":20000,"station_id":"ce4bh392rcd13ifvqdm0","pricing_plan_id":"cebpf4jnsgd1na2vs0mg"},{"bike_id":"82c059ed-9374-4639-927e-f4b6887fb2d4","system_id":"levelo_inurba_marseille","lat":43.30216,"lon":5.38203,"is_reserved":false,"is_disabled":false,"rental_uris":{"android":"levelo://app?vid=82c059ed-9374-4639-927e-f4b6887fb2d4","ios":"levelo://app?vid=82c059ed-9374-4639-927e-f4b6887fb2d4"},"vehicle_type_id":"4","last_reported":1761812036,"current_range_meters":20400,"station_id":"ce4bgjp2rcd13ifvqbh0","pricing_plan_id":"cebpf4jnsgd1na2vs0mg"},{"bike_id":"48e7814f-1d3d-42ed-88ac-d04d008bee19","system_id":"levelo_inurba_marseille","lat":43.25342,"lon":5.42166,"is_reserved":false,"is_disabled":false,"rental_uris":{"android":"levelo://app?vid=48e7814f-1d3d-42ed-88ac-d04d008bee19","ios":"levelo://app?vid=48e7814f-1d3d-42ed-88ac-d04d008bee19"},"vehicle_type_id":"4","last_reported":1761812036,"current_range_meters":20400,"station_id":"st_d2m65c5bi1j21697t3ng","pricing_plan_id":"cebpf4jnsgd1na2vs0mg"},{"bike_id":"4e89f900-fa5e-4b19-93e6-fdb81c8c80b1","system_id":"levelo_inurba_marseille","lat":43.298218,"lon":5.38244,"is_reserved":false,"is_disabled":true,"rental_uris":{"android":"levelo://app?vid=4e89f900-fa5e-4b19-93e6-fdb81c8c80b1","ios":"levelo://app?vid=4e89f900-fa5e-4b19-93e6-fdb81c8c80b1"},"vehicle_type_id":"4","last_reported":1761812036,"current_range_meters":20400,"station_id":"","pricing_plan_id":"cebpf4jnsgd1na2vs0mg"},{"bike_id":"93de821c-00b0-4c66-9b63-621771f2204a","system_id":"levelo_inurba_marseille","lat":43.25872,"lon":5.39894,"is_reserved":false,"is_disabled":false,"rental_uris":{"android":"levelo://app?vid=93de821c-00b0-4c66-9b63-621771f2204a","ios":"levelo://app?vid=93de821c-00b0-4c66-9b63-621771f2204a"},"vehicle_type_id":"4","last_reported":1761812036,"current_range_meters":20400,"station_id":"ce4bhl92rcd13ifvqghg","pricing_plan_id":"cebpf4jnsgd1na2vs0mg"},{"bike_id":"c803fb29-6900-4c1a-b20b-8da720d22e30","system_id":"levelo_inurba_marseille","lat":43.268556,"lon":5.40178,"is_reserved":false,"is_disabled":false,"rental_uris":{"android":"levelo://app?vid=c803fb29-6900-4c1a-b20b-8da720d22e30","ios":"levelo://app?vid=c803fb29-6900-4c1a-b20b-8da720d22e30"},"vehicle_type_id":"4","last_reported":1761812036,"current_range_meters":20400,"station_id":"ce4bhm92rcd13ifvqglg","pricing_plan_id":"cebpf4jnsgd1na2vs0mg"},{"bike_id":"91fab070-569c-458a-b7a9-ce203c556e30","system_id":"levelo_inurba_marseille","lat":43.212,"lon":5.35069,"is_reserved":false,"is_disabled":false,"rental_uris":{"android":"levelo://app?vid=91fab070-569c-458a-b7a9-ce203c556e30","ios":"levelo://app?vid=91fab070-569c-458a-b7a9-ce203c556e30"},