{"last_updated":1703066794,"ttl":30,"version":"2.2","data":{"bikes":[{"bike_id":"c5e2906e-a12b-49a2-9196-ab926cf8a9a4","system_id":"levelo_inurba_marseille","lat":43.31341,"lon":5.367098,"is_reserved":false,"is_disabled":false,"rental_uris":{"android":"levelo://app?vid=c5e2906e-a12b-49a2-9196-ab926cf8a9a4","ios":"levelo://app?vid=c5e2906e-a12b-49a2-9196-ab926cf8a9a4"},"vehicle_type_id":"4","last_reported":1703066794,"current_range_meters":30800,"station_id":"ce4bgr92rcd13ifvqc6g","pricing_plan_id":"free"},{"bike_id":"06200de9-b54a-4d19-839e-e15513ea2dc5","system_id":"levelo_inurba_marseille","lat":43.31341,"lon":5.367098,"is_reserved":false,"is_disabled":false,"rental_uris":{"android":"levelo://app?vid=06200de9-b54a-4d19-839e-e15513ea2dc5","ios":"levelo://app?vid=06200de9-b54a-4d19-839e-e15513ea2dc5"},"vehicle_type_id":"4","last_reported":1703066794,"current_range_meters":29600,"station_id":"ce4bgr92rcd13ifvqc6g","pricing_plan_id":"free"},{"bike_id":"962fbd30-7ff6-4284-bec5-6270eb564a1c","system_id":"levelo_inurba_marseille","lat":43.313391,"lon":5.36706,"is_reserved":false,"is_disabled":false,"rental_uris":{"android":"levelo://app?vid=962fbd30-7ff6-4284-bec5-6270eb564a1c","ios":"levelo://app?vid=962fbd30-7ff6-4284-bec5-6270eb564a1c"},"vehicle_type_id":"4","last_reported":1703066794,"current_range_meters":12800,"station_id":"ce4bgr92rcd13ifvqc6g","pricing_plan_id":"free"},{"bike_id":"90c66a98-cd21-4cd7-aaa1-f0052fab149a","system_id":"levelo_inurba_marseille","lat":43.31341,"lon":5.367098,"is_reserved":false,"is_disabled":false,"rental_uris":{"android":"levelo://app?vid=90c66a98-cd21-4cd7-aaa1-f0052fab149a","ios":"levelo://app?vid=90c66a98-cd21-4cd7-aaa1-f0052fab149a"},"vehicle_type_id":"4","last_reported":1703066794,"current_range_meters":2000,"station_id":"ce4bgr92rcd13ifvqc6g","pricing_plan_id":"free"},{"bike_id":"385c4116-b7eb-4dc1-8ab8-4cd9cad30c5b","system_id":"levelo_inurba_marseille","lat":43.31341,"lon":5.367098,"is_reserved":false,"is_disabled":false,"rental_uris":{"android":"levelo://app?vid=385c4116-b7eb-4dc1-8ab8-4cd9cad30c5b","ios":"levelo://app?vid=385c4116-b7eb-4dc1-8ab8-4cd9cad30c5b"},"vehicle_type_id":"4","last_reported":1703066794,"current_range_meters":31200,"station_id":"ce4bgr92rcd13ifvqc6g","pricing_plan_id":"free"},{"bike_id":"c85993cf-56a9-4974-93ef-b2f2282f54b8","system_id":"levelo_inurba_marseille","lat":43.313391,"lon":5.36706,"is_reserved":false,"is_disabled":false,"rental_uris":{"android":"levelo://app?vid=c85993cf-56a9-4974-93ef-b2f2282f54b8","ios":"levelo://app?vid=c85993cf-56a9-4974-93ef-b2f2282f54b8"},"vehicle_type_id":"4","last_reported":1703066794,"current_range_meters":19200,"station_id":"ce4bgr92rcd13ifvqc6g","pricing_plan_id":"free"},{"bike_id":"97b782f1-5690-4499-bd82-79dac7f90f45","system_id":"levelo_inurba_marseille","lat":43.313391,"lon":5.36706,"is_reserved":false,"is_disabled":false,"rental_uris":{"android":"levelo://app?vid=97b782f1-5690-4499-bd82-79dac7f90f45","ios":"levelo://app?vid=97b782f1-5690-4499-bd82-79dac7f90f45"},"vehicle_type_id":"4","last_reported":1703066794,"current_range_meters":20800,"station_id":"ce4bgr92rcd13ifvqc6g","pricing_plan_id":"free"},{"bike_id":"5581df76-9eaa-4cb1-9e64-a029de783903","system_id":"levelo_inurba_marseille","lat":43.31341,"lon":5.367098,"is_reserved":false,"is_disabled":false,"rental_uris":{"android":"levelo://app?vid=5581df76-9eaa-4cb1-9e64-a029de783903","ios":"levelo://app?vid=5581df76-9eaa-4cb1-9e64-a029de783903"},"vehicle_type_id":"4","last_reported":1703066794,"current_range_meters":18800,"station_id":"ce4bgr92rcd13ifvqc6g","pricing_plan_id":"free"},{"bike_id":"9d52a925-323b-4a5e-9c24-9e0718f8c66b","system_id":"levelo_inurba_marseille","lat":43.313391,"lon":5.36706,"is_reserved":false,"is_disabled":false,"rental_uris":{"android":"levelo://app?vid=9d52a925-323b-4a5e-9c24-9e0718f8c66b","ios":"levelo://app?vid=9d52a925-323b-4a5e-9c24-9e0718f8c66b"},"vehicle_type_id":"4","last_reported":1703066794,"current_range_meters":31600,"station_id":"ce4bgr92rcd13ifvqc6g","pricing_plan_id":"free"},{"bike_id":"5bf53713-9015-41ac-a733-030d364b249e","system_id":"levelo_inurba_marseille","lat":43.313391,"lon":5.36706,"is_reserved":false,"is_disabled":false,"rental_uris":{"android":"levelo://app?vid=5bf53713-9015-41ac-a733-030d364b249e","ios":"levelo://app?vid=5bf53713-9015-41ac-a733-030d364b249e"},"vehicle_type_id":"4","last_reported":1703066794,"current_range_meters":9200,"station_id":"ce4bgr92rcd13ifvqc6g","pricing_plan_id":"free"},{"bike_id":"6199905d-ffc5-4ede-bcc8-a21944ed6541","system_id":"levelo_inurba_marseille","lat":43.31341,"lon":5.367098,"is_reserved":false,"is_disabled":false,"rental_uris":{"android":"levelo://app?vid=6199905d-ffc5-4ede-bcc8-a21944ed6541","ios":"levelo://app?vid=6199905d-ffc5-4ede-bcc8-a21944ed6541"},"vehicle_type_id":"4","last_reported":1703066794,"current_range_meters":13200,"station_id":"ce4bgr92rcd13ifvqc6g","pricing_plan_id":"free"},{"bike_id":"dc02301a-e25b-4088-96c9-2c95bbdc42aa","system_id":"levelo_inurba_marseille","lat":43.31341,"lon":5.367098,"is_reserved":false,"is_disabled":false,"rental_uris":{"android":"levelo://app?vid=dc02301a-e25b-4088-96c9-2c95bbdc42aa","ios":"levelo://app?vid=dc02301a-e25b-4088-96c9-2c95bbdc42aa"},"vehicle_type_id":"4","last_reported":1703066794,"current_range_meters":31600,"station_id":"ce4bgr92rcd13ifvqc6g","pricing_plan_id":"free"},{"bike_id":"15c7edea-86ab-4b62-9286-30eaeca9bae0","system_id":"levelo_inurba_marseille","lat":43.31341,"lon":5.367098,"is_reserved":false,"is_disabled":false,"rental_uris":{"android":"levelo://app?vid=15c7edea-86ab-4b62-9286-30eaeca9bae0","ios":"levelo://app?vid=15c7edea-86ab-4b62-9286-30eaeca9bae0"},"vehicle_type_id":"4","last_reported":1703066794,"current_range_meters":31600,"station_id":"ce4bgr92rcd13ifvqc6g","pricing_plan_id":"free"},{"bike_id":"750035f0-8de4-44a2-a89b-a877f73e77ff","system_id":"levelo_inurba_marseille","lat":43.31341,"lon":5.367098,"is_reserved":false,"is_disabled":false,"rental_uris":{"android":"levelo://app?vid=750035f0-8de4-44a2-a89b-a877f73e77ff","ios":"levelo://app?vid=750035f0-8de4-44a2-a89b-a877f73e77ff"},"vehicle_type_id":"4","last_reported":1703066794,"current_range_meters":1200,"station_id":"ce4bgr92rcd13ifvqc6g","pricing_plan_id":"free"},{"bike_id":"041e6275-034f-4721-9f43-fb99d5c08c3c","system_id":"levelo_inurba_marseille","lat":43.313391,"lon":5.36706,"is_reserved":false,"is_disabled":false,"rental_uris":{"android":"levelo://app?vid=041e6275-034f-4721-9f43-fb99d5c08c3c","ios":"levelo://app?vid=041e6275-034f-4721-9f43-fb99d5c08c3c"},"vehicle_type_id":"4","last_reported":1703066794,"current_range_meters":21600,"station_id":"ce4bgr92rcd13ifvqc6g","pricing_plan_id":"free"},{"bike_id":"b02f8698-ab43-4514-915c-7ac2039754d7","system_id":"levelo_inurba_marseille","lat":43.313391,"lon":5.36706,"is_reserved":false,"is_disabled":false,"rental_uris":{"android":"levelo://app?vid=b02f8698-ab43-4514-915c-7ac2039754d7","ios":"levelo://app?vid=b02f8698-ab43-4514-915c-7ac2039754d7"},"vehicle_type_id":"4","last_reported":1703066794,"current_range_meters":0,"station_id":"ce4bgr92rcd13ifvqc6g","pricing_plan_id":"free"},{"bike_id":"4d43bb2d-c7fc-48e1-9fd2-2166803e880a","system_id":"levelo_inurba_marseille","lat":43.313391,"lon":5.36706,"is_reserved":false,"is_disabled":false,"rental_uris":{"android":"levelo://app?vid=4d43bb2d-c7fc-48e1-9fd2-2166803e880a","ios":"levelo://app?vid=4d43bb2d-c7fc-48e1-9fd2-2166803e880a"},"vehicle_type_id":"4","last_reported":1703066794,"current_range_meters":8400,"station_id":"ce4bgr92rcd13ifvqc6g","pricing_plan_id":"free"},{"bike_id":"86521b66-fd6f-4efd-8e38-0fbeb1b6ed02","system_id":"levelo_inurba_marseille","lat":43.313391,"lon":5.36706,"is_reserved":false,"is_disabled":false,"rental_uris":{"android":"levelo://app?vid=86521b66-fd6f-4efd-8e38-0fbeb1b6ed02","ios":"levelo://app?vid=86521b66-fd6f-4efd-8e38-0fbeb1b6ed02"},"vehicle_type_id":"4","last_reported":1703066794,"current_range_meters":23600,"station_id":"ce4bgr92rcd13ifvqc6g","pricing_plan_id":"free"},{"bike_id":"a8d5ba16-71a6-42eb-bd87-f3fc28468325","system_id":"levelo_inurba_marseille","lat":43.312239,"lon":5.368562,"is_reserved":false,"is_disabled":false,"rental_uris":{"android":"levelo://app?vid=a8d5ba16-71a6-42eb-bd87-f3fc28468325","ios":"levelo://app?vid=a8d5ba16-71a6-42eb-bd87-f3fc28468325"},"vehicle_type_id":"4","last_reported":1703066794,"current_range_meters":31200,"station_id":"ce4bgl92rcd13ifvqbq0","pricing_plan_id":"free"},{"bike_id":"cdc1f6b5-253b-459c-867e-da6142322fdc","system_id":"levelo_inurba_marseille","lat":43.312239,"lon":5.368562,"is_reserved":false,"is_disabled":false,"rental_uris":{"android":"levelo://app?vid=cdc1f6b5-253b-459c-867e-da6142322fdc","ios":"levelo://app?vid=cdc1f6b5-253b-459c-867e-da6142322fdc"},"vehicle_type_id":"4","last_reported":1703066794,"current_range_meters":22800,"station_id":"ce4bgl92rcd13ifvqbq0","pricing_plan_id":"free"},{"bike_id":"0df5cc50-0de0-4e34-9778-3761912559f7","system_id":"levelo_inurba_marseille","lat":43.312239,"lon":5.368562,"is_reserved":false,"is_disabled":false,"rental_uris":{"android":"levelo://app?vid=0df5cc50-0de0-4e34-9778-3761912559f7","ios":"levelo://app?vid=0df5cc50-0de0-4e34-9778-3761912559f7"},"vehicle_type_id":"4","last_reported":1703066794,"current_range_meters":27200,"station_id":"ce4bgl92rcd13ifvqbq0","pricing_plan_id":"free"},{"bike_id":"19d7187c-8b68-43b4-a011-e2111c86d3f4","system_id":"levelo_inurba_marseille","lat":43.309076,"lon":5.368465,"is_reserved":false,"is_disabled":false,"rental_uris":{"android":"levelo://app?vid=19d7187c-8b68-43b4-a011-e2111c86d3f4","ios":"levelo://app?vid=19d7187c-8b68-43b4-a011-e2111c86d3f4"},"vehicle_type_id":"4","last_reported":1703066794,"current_range_meters":27600,"station_id":"ce4bgn92rcd13ifvqbvg","pricing_plan_id":"free"},{"bike_id":"a5d97441-69da-47a7-befc-8b0468dc5882","system_id":"levelo_inurba_marseille","lat":43.309076,"lon":5.368465,"is_reserved":false,"is_disabled":false,"rental_uris":{"android":"levelo://app?vid=a5d97441-69da-47a7-befc-8b0468dc5882","ios":"levelo://app?vid=a5d97441-69da-47a7-befc-8b0468dc5882"},"vehicle_type_id":"4","last_reported":1703066794,"current_range_meters":23600,"station_id":"ce4bgn92rcd13ifvqbvg","pricing_plan_id":"free"},{"bike_id":"71695d16-2724-44d4-aaec-bf4108e95c6c","system_id":"levelo_inurba_marseille","lat":43.309076,"lon":5.368465,"is_reserved":false,"is_disabled":false,"rental_uris":{"android":"levelo://app?vid=71695d16-2724-44d4-aaec-bf4108e95c6c","ios":"levelo://app?vid=71695d16-2724-44d4-aaec-bf4108e95c6c"},"vehicle_type_id":"4","last_reported":1703066794,"current_range_meters":28000,"station_id":"ce4bgn92rcd13ifvqbvg","pricing_plan_id":"free"},{"bike_id":"16fe62ad-14e7-41ca-83a8-f5c4cdaa6a90","system_id":"levelo_inurba_marseille","lat":43.309076,"lon":5.368465,"is_reserved":false,"is_disabled":false,"rental_uris":{"android":"levelo://app?vid=16fe62ad-14e7-41ca-83a8-f5c4cdaa6a90","ios":"levelo://app?vid=16fe62ad-14e7-41ca-83a8-f5c4cdaa6a90"},"vehicle_type_id":"4","last_reported":1703066794,"current_range_meters":15600,"station_id":"ce4bgn92rcd13ifvqbvg","pricing_plan_id":"free"},{"bike_id":"af2242c6-3cfa-458c-8de6-984c2026785d","system_id":"levelo_inurba_marseille","lat":43.309076,"lon":5.368465,"is_reserved":false,"is_disabled":false,"rental_uris":{"android":"levelo://app?vid=af2242c6-3cfa-458c-8de6-984c2026785d","ios":"levelo://app?vid=af2242c6-3cfa-458c-8de6-984c2026785d"},"vehicle_type_id":"4","last_reported":1703066794,"current_range_meters":18400,"station_id":"ce4bgn92rcd13ifvqbvg","pricing_plan_id":"free"},{"bike_id":"86a11bf0-cb85-4e66-820f-6dc45e8d354e","system_id":"levelo_inurba_marseille","lat":43.309076,"lon":5.368465,"is_reserved":false,"is_disabled":false,"rental_uris":{"android":"levelo://app?vid=86a11bf0-cb85-4e66-820f-6dc45e8d354e","ios":"levelo://app?vid=86a11bf0-cb85-4e66-820f-6dc45e8d354e"},"vehicle_type_id":"4","last_reported":1703066794,"current_range_meters":28400,"station_id":"ce4bgn92rcd13ifvqbvg","pricing_plan_id":"free"},{"bike_id":"1c9c2674-9e54-4819-b17d-e04022c180db","system_id":"levelo_inurba_marseille","lat":43.309076,"lon":5.368465,"is_reserved":false,"is_disabled":false,"rental_uris":{"android":"levelo://app?vid=1c9c2674-9e54-4819-b17d-e04022c180db","ios":"levelo://app?vid=1c9c2674-9e54-4819-b17d-e04022c180db"},"vehicle_type_id":"4","last_reported":1703066794,"current_range_meters":30800,"station_id":"ce4bgn92rcd13ifvqbvg","pricing_plan_id":"free"},{"bike_id":"4aff95af-45e2-49b1-83fe-ad7f5fa6667c","system_id":"levelo_inurba_marseille","lat":43.309076,"lon":5.368465,"is_reserved":false,"is_disabled":false,"rental_uris":{"android":"levelo://app?vid=4aff95af-45e2-49b1-83fe-ad7f5fa6667c","ios":"levelo://app?vid=4aff95af-45e2-49b1-83fe-ad7f5fa6667c"},"vehicle_type_id":"4","last_reported":1703066794,"current_range_meters":31200,"station_id":"ce4bgn92rcd13ifvqbvg","pricing_plan_id":"free"},{"bike_id":"06059804-a84b-48ac-999b-28379326fec5","system_id":"levelo_inurba_marseille","lat":43.309076,"lon":5.368465,"is_reserved":false,"is_disabled":false,"rental_uris":{"android":"levelo://app?vid=06059804-a84b-48ac-999b-28379326fec5","ios":"levelo://app?vid=06059804-a84b-48ac-999b-28379326fec5"},"vehicle_type_id":"4","last_reported":1703066794,"current_range_meters":30000,"station_id":"ce4bgn92rcd13ifvqbvg","pricing_plan_id":"free"},{"bike_id":"bf7bf10f-53c3-468c-92ad-fab9731bc205","system_id":"levelo_inurba_marseille","lat":43.309076,"lon":5.368465,"is_reserved":false,"is_disabled":false,"rental_uris":{"android":"levelo://app?vid=bf7bf10f-53c3-468c-92ad-fab9731bc205","ios":"levelo://app?vid=bf7bf10f-53c3-468c-92ad-fab9731bc205"},"vehicle_type_id":"4","last_reported":1703066794,"current_range_meters":27200,"station_id":"ce4bgn92rcd13ifvqbvg","pricing_plan_id":"free"},{"bike_id":"4657fffc-ee94-4a82-ac10-6b95d387b3a3","system_id":"levelo_inurba_marseille","lat":43.309076,"lon":5.368465,"is_reserved":false,"is_disabled":false,"rental_uris":{"android":"levelo://app?vid=4657fffc-ee94-4a82-ac10-6b95d387b3a3","ios":"levelo://app?vid=4657fffc-ee94-4a82-ac10-6b95d387b3a3"},"vehicle_type_id":"4","last_reported":1703066794,"current_range_meters":31600,"station_id":"ce4bgn92rcd13ifvqbvg","pricing_plan_id":"free"},{"bike_id":"f102ec20-f63e-4f17-a402-2996ed87870c","system_id":"levelo_inurba_marseille","lat":43.309076,"lon":5.368465,"is_reserved":false,"is_disabled":false,"rental_uris":{"android":"levelo://app?vid=f102ec20-f63e-4f17-a402-2996ed87870c","ios":"levelo://app?vid=f102ec20-f63e-4f17-a402-2996ed87870c"},"vehicle_type_id":"4","last_reported":1703066794,"current_range_meters":18000,"station_id":"ce4bgn92rcd13ifvqbvg","pricing_plan_id":"free"},{"bike_id":"16cc9ae5-8017-4df7-a6aa-f9d8d9585d15","system_id":"levelo_inurba_marseille","lat":43.314811,"lon":5.373103,"is_reserved":false,"is_disabled":false,"rental_uris":{"android":"levelo://app?vid=16cc9ae5-8017-4df7-a6aa-f9d8d9585d15","ios":"levelo://app?vid=16cc9ae5-8017-4df7-a6aa-f9d8d9585d15"},"vehicle_type_id":"4","last_reported":1703066794,"current_range_meters":6000,"station_id":"ce4bgt12rcd13ifvqcd0","pricing_plan_id":"free"},{"bike_id":"3c9c6e5a-e9b6-48f6-83bf-05f293c07807","system_id":"levelo_inurba_marseille","lat":43.314811,"lon":5.373103,"is_reserved":false,"is_disabled":false,"rental_uris":{"android":"levelo://app?vid=3c9c6e5a-e9b6-48f6-83bf-05f293c07807","ios":"levelo://app?vid=3c9c6e5a-e9b6-48f6-83bf-05f293c07807"},"vehicle_type_id":"4","last_reported":1703066794,"current_range_meters":22400,"station_id":"ce4bgt12rcd13ifvqcd0","pricing_plan_id":"free"},{"bike_id":"3dee109f-c9f9-4afa-afba-692b11f8857f","system_id":"levelo_inurba_marseille","lat":43.314811,"lon":5.373103,"is_reserved":false,"is_disabled":false,"rental_uris":{"android":"levelo://app?vid=3dee109f-c9f9-4afa-afba-692b11f8857f","ios":"levelo://app?vid=3dee109f-c9f9-4afa-afba-692b11f8857f"},"vehicle_type_id":"4","last_reported":1703066794,"current_range_meters":30000,"station_id":"ce4bgt12rcd13ifvqcd0","pricing_plan_id":"free"},{"bike_id":"e82e2aa1-1d6e-4f70-ac47-e250fe3ab983","system_id":"levelo_inurba_marseille","lat":43.314811,"lon":5.373104,"is_reserved":false,"is_disabled":false,"rental_uris":{"android":"levelo://app?vid=e82e2aa1-1d6e-4f70-ac47-e250fe3ab983","ios":"levelo://app?vid=e82e2aa1-1d6e-4f70-ac47-e250fe3ab983"},"vehicle_type_id":"4","last_reported":1703066794,"current_range_meters":30400,"station_id":"ce4bgt12rcd13ifvqcd0","pricing_plan_id":"free"},{"bike_id":"dff2820b-7ec8-404e-bd8c-434d4291fc82","system_id":"levelo_inurba_marseille","lat":43.314811,"lon":5.373103,"is_reserved":false,"is_disabled":false,"rental_uris":{"android":"levelo://app?vid=dff2820b-7ec8-404e-bd8c-434d4291fc82","ios":"levelo://app?vid=dff2820b-7ec8-404e-bd8c-434d4291fc82"},"vehicle_type_id":"4","last_reported":1703066794,"current_range_meters":3200,"station_id":"ce4bgt12rcd13ifvqcd0","pricing_plan_id":"free"},{"bike_id":"8867c2d7-f6b4-4050-8448-6bae24a286c8","system_id":"levelo_inurba_marseille","lat":43.305368,"lon":5.367343,"is_reserved":false,"is_disabled":false,"rental_uris":{"android":"levelo://app?vid=8867c2d7-f6b4-4050-8448-6bae24a286c8","ios":"levelo://app?vid=8867c2d7-f6b4-4050-8448-6bae24a286c8"},"vehicle_type_id":"4","last_reported":1703066794,"current_range_meters":25200,"station_id":"ce4bgrp2rcd13ifvqc9g","pricing_plan_id":"free"},{"bike_id":"4b95994c-e128-418d-b3fe-1502b60fd2a1","system_id":"levelo_inurba_marseille","lat":43.30547,"lon":5.36544,"is_reserved":false,"is_disabled":false,"rental_uris":{"android":"levelo://app?vid=4b95994c-e128-418d-b3fe-1502b60fd2a1","ios":"levelo://app?vid=4b95994c-e128-418d-b3fe-1502b60fd2a1"},"vehicle_type_id":"4","last_reported":1703066794,"current_range_meters":1600,"station_id":"ce4bgs12rcd13ifvqcag","pricing_plan_id":"free"},{"bike_id":"6cd8b37d-a2ef-49bd-9daa-481faf21e029","system_id":"levelo_inurba_marseille","lat":43.305368,"lon":5.367343,"is_reserved":false,"is_disabled":false,"rental_uris":{"android":"levelo://app?vid=6cd8b37d-a2ef-49bd-9daa-481faf21e029","ios":"levelo://app?vid=6cd8b37d-a2ef-49bd-9daa-481faf21e029"},"vehicle_type_id":"4","last_reported":1703066794,"current_range_meters":11600,"station_id":"ce4bgrp2rcd13ifvqc9g","pricing_plan_id":"free"},{"bike_id":"38f27d59-0f58-40ea-8467-b40c5852117a","system_id":"levelo_inurba_marseille","lat":43.30547,"lon":5.36531,"is_reserved":false,"is_disabled":false,"rental_uris":{"android":"levelo://app?vid=38f27d59-0f58-40ea-8467-b40c5852117a","ios":"levelo://app?vid=38f27d59-0f58-40ea-8467-b40c5852117a"},"vehicle_type_id":"4","last_reported":1703066794,"current_range_meters":14000,"station_id":"ce4bgs12rcd13ifvqcag","pricing_plan_id":"free"},{"bike_id":"af934bb9-4450-4abc-a2fc-577eba17fcaf","system_id":"levelo_inurba_marseille","lat":43.305714,"lon":5.365633,"is_reserved":false,"is_disabled":false,"rental_uris":{"android":"levelo://app?vid=af934bb9-4450-4abc-a2fc-577eba17fcaf","ios":"levelo://app?vid=af934bb9-4450-4abc-a2fc-577eba17fcaf"},"vehicle_type_id":"4","last_reported":1703066794,"current_range_meters":26800,"station_id":"ce4bgs12rcd13ifvqcag","pricing_plan_id":"free"},{"bike_id":"996dcd82-0543-41eb-8e47-3c198bde9176","system_id":"levelo_inurba_marseille","lat":43.30542,"lon":5.36546,"is_reserved":false,"is_disabled":false,"rental_uris":{"android":"levelo://app?vid=996dcd82-0543-41eb-8e47-3c198bde9176","ios":"levelo://app?vid=996dcd82-0543-41eb-8e47-3c198bde9176"},"vehicle_type_id":"4","last_reported":1703066794,"current_range_meters":17200,"station_id":"ce4bgs12rcd13ifvqcag","pricing_plan_id":"free"},{"bike_id":"38455023-34ab-4f06-8bfd-11bd875c831f","system_id":"levelo_inurba_marseille","lat":43.305706,"lon":5.365654,"is_reserved":false,"is_disabled":false,"rental_uris":{"android":"levelo://app?vid=38455023-34ab-4f06-8bfd-11bd875c831f","ios":"levelo://app?vid=38455023-34ab-4f06-8bfd-11bd875c831f"},"vehicle_type_id":"4","last_reported":1703066794,"current_range_meters":3600,"station_id":"ce4bgs12rcd13ifvqcag","pricing_plan_id":"free"},{"bike_id":"b8d5b48e-95a4-4f1f-b78a-470bb9c5a65b","system_id":"levelo_inurba_marseille","lat":43.305368,"lon":5.367343,"is_reserved":false,"is_disabled":false,"rental_uris":{"android":"levelo://app?vid=b8d5b48e-95a4-4f1f-b78a-470bb9c5a65b","ios":"levelo://app?vid=b8d5b48e-95a4-4f1f-b78a-470bb9c5a65b"},"vehicle_type_id":"4","last_reported":1703066794,"current_range_meters":22400,"station_id":"ce4bgrp2rcd13ifvqc9g","pricing_plan_id":"free"},{"bike_id":"c9709d59-d019-4fda-86d2-75d48039f15a","system_id":"levelo_inurba_marseille","lat":43.305368,"lon":5.367343,"is_reserved":false,"is_disabled":false,"rental_uris":{"android":"levelo://app?vid=c9709d59-d019-4fda-86d2-75d48039f15a","ios":"levelo://app?vid=c9709d59-d019-4fda-86d2-75d48039f15a"},"vehicle_type_id":"4","last_reported":1703066794,"current_range_meters":21600,"station_id":"ce4bgrp2rcd13ifvqc9g","pricing_plan_id":"free"},{"bike_id":"21a87b11-b34e-4ac9-b840-399e42220625","system_id":"levelo_inurba_marseille","lat":43.305706,"lon":5.365654,"is_reserved":false,"is_disabled":false,"rental_uris":{"android":"levelo://app?vid=21a87b11-b34e-4ac9-b840-399e42220625","ios":"levelo://app?vid=21a87b11-b34e-4ac9-b840-399e42220625"},"vehicle_type_id":"4","last_reported":1703066794,"current_range_meters":32000,"station_id":"ce4bgs12rcd13ifvqcag","pricing_plan_id":"free"},{"bike_id":"3ac478f3-faea-4750-8ba5-fb7df802dcd7","system_id":"levelo_inurba_marseille","lat":43.30534,"lon":5.36554,"is_reserved":false,"is_disabled":false,"rental_uris":{"android":"levelo://app?vid=3ac478f3-faea-4750-8ba5-fb7df802dcd7","ios":"levelo://app?vid=3ac478f3-faea-4750-8ba5-fb7df802dcd7"},"vehicle_type_id":"4","last_reported":1703066794,"current_range_meters":18800,"station_id":"ce4bgs12rcd13ifvqcag","pricing_plan_id":"free"},{"bike_id":"fcf54c51-05e3-4f0e-b866-95757e00cd2b","system_id":"levelo_inurba_marseille","lat":43.305706,"lon":5.365654,"is_reserved":false,"is_disabled":false,"rental_uris":{"android":"levelo://app?vid=fcf54c51-05e3-4f0e-b866-95757e00cd2b","ios":"levelo://app?vid=fcf54c51-05e3-4f0e-b866-95757e00cd2b"},"vehicle_type_id":"4","last_reported":1703066794,"current_range_meters":22800,"station_id":"ce4bgs12rcd13ifvqcag","pricing_plan_id":"free"},{"bike_id":"f2f66771-a9ed-4764-94b1-e85642bec9ec","system_id":"levelo_inurba_marseille","lat":43.305706,"lon":5.365654,"is_reserved":false,"is_disabled":false,"rental_uris":{"android":"levelo://app?vid=f2f66771-a9ed-4764-94b1-e85642bec9ec","ios":"levelo://app?vid=f2f66771-a9ed-4764-94b1-e85642bec9ec"},"vehicle_type_id":"4","last_reported":1703066794,"current_range_meters":24800,"station_id":"ce4bgs12rcd13ifvqcag","pricing_plan_id":"free"},{"bike_id":"4253463a-9a67-4fe8-a1e4-bc288c9ed654","system_id":"levelo_inurba_marseille","lat":43.305368,"lon":5.367343,"is_reserved":false,"is_disabled":false,"rental_uris":{"android":"levelo://app?vid=4253463a-9a67-4fe8-a1e4-bc288c9ed654","ios":"levelo://app?vid=4253463a-9a67-4fe8-a1e4-bc288c9ed654"},"vehicle_type_id":"4","last_reported":1703066794,"current_range_meters":23200,"station_id":"ce4bgrp2rcd13ifvqc9g","pricing_plan_id":"free"},{"bike_id":"e19bf736-53fc-44c3-b9e8-8168a553ae68","system_id":"levelo_inurba_marseille","lat":43.305368,"lon":5.367343,"is_reserved":false,"is_disabled":false,"rental_uris":{"android":"levelo://app?vid=e19bf736-53fc-44c3-b9e8-8168a553ae68","ios":"levelo://app?vid=e19bf736-53fc-44c3-b9e8-8168a553ae68"},"vehicle_type_id":"4","last_reported":1703066794,"current_range_meters":19200,"station_id":"ce4bgrp2rcd13ifvqc9g","pricing_plan_id":"free"},{"bike_id":"227b19b3-a278-4dea-99dc-5c91f230706c","system_id":"levelo_inurba_marseille","lat":43.305706,"lon":5.365654,"is_reserved":false,"is_disabled":false,"rental_uris":{"android":"levelo://app?vid=227b19b3-a278-4dea-99dc-5c91f230706c","ios":"levelo://app?vid=227b19b3-a278-4dea-99dc-5c91f230706c"},"vehicle_type_id":"4","last_reported":1703066794,"current_range_meters":16400,"station_id":"ce4bgs12rcd13ifvqcag","pricing_plan_id":"free"},{"bike_id":"37b31663-8b2b-4239-be58-1641bed9f242","system_id":"levelo_inurba_marseille","lat":43.305368,"lon":5.367343,"is_reserved":false,"is_disabled":false,"rental_uris":{"android":"levelo://app?vid=37b31663-8b2b-4239-be58-1641bed9f242","ios":"levelo://app?vid=37b31663-8b2b-4239-be58-1641bed9f242"},"vehicle_type_id":"4","last_reported":1703066794,"current_range_meters":15200,"station_id":"ce4bgrp2rcd13ifvqc9g","pricing_plan_id":"free"},{"bike_id":"cd3d43fa-d362-472c-a540-0936ec66933b","system_id":"levelo_inurba_marseille","lat":43.30597,"lon":5.3723,"is_reserved":false,"is_disabled":false,"rental_uris":{"android":"levelo://app?vid=cd3d43fa-d362-472c-a540-0936ec66933b","ios":"levelo://app?vid=cd3d43fa-d362-472c-a540-0936ec66933b"},"vehicle_type_id":"4","last_reported":1703066794,"current_range_meters":17600,"station_id":"ce4bgqh2rcd13ifvqc4g","pricing_plan_id":"free"},{"bike_id":"74606ded-e064-46ca-af5c-503b20fdb12b","system_id":"levelo_inurba_marseille","lat":43.305989,"lon":5.37225,"is_reserved":false,"is_disabled":false,"rental_uris":{"android":"levelo://app?vid=74606ded-e064-46ca-af5c-503b20fdb12b","ios":"levelo://app?vid=74606ded-e064-46ca-af5c-503b20fdb12b"},"vehicle_type_id":"4","last_reported":1703066794,"current_range_meters":17600,"station_id":"ce4bgqh2rcd13ifvqc4g","pricing_plan_id":"free"},{"bike_id":"d202e56d-e7fe-49de-aec6-e6e507461775","system_id":"levelo_inurba_marseille","lat":43.303046,"lon":5.368981,"is_reserved":false,"is_disabled":false,"rental_uris":{"android":"levelo://app?vid=d202e56d-e7fe-49de-aec6-e6e507461775","ios":"levelo://app?vid=d202e56d-e7fe-49de-aec6-e6e507461775"},"vehicle_type_id":"4","last_reported":1703066794,"current_range_meters":28000,"station_id":"ce4bgqh2rcd13ifvqc5g","pricing_plan_id":"free"},{"bike_id":"3ccd4f18-197f-40a5-a788-d07e6d2cc98e","system_id":"levelo_inurba_marseille","lat":43.30195,"lon":5.36614,"is_reserved":false,"is_disabled":false,"rental_uris":{"android":"levelo://app?vid=3ccd4f18-197f-40a5-a788-d07e6d2cc98e","ios":"levelo://app?vid=3ccd4f18-197f-40a5-a788-d07e6d2cc98e"},"vehicle_type_id":"4","last_reported":1703066794,"current_range_meters":19600,"station_id":"ce4bgrh2rcd13ifvqc8g","pricing_plan_id":"free"},{"bike_id":"e517e29b-779e-4f92-bf96-4bccc8ca8c31","system_id":"levelo_inurba_marseille","lat":43.301889,"lon":5.366037,"is_reserved":false,"is_disabled":false,"rental_uris":{"android":"levelo://app?vid=e517e29b-779e-4f92-bf96-4bccc8ca8c31","ios":"levelo://app?vid=e517e29b-779e-4f92-bf96-4bccc8ca8c31"},"vehicle_type_id":"4","last_reported":1703066794,"current_range_meters":16800,"station_id":"ce4bgrh2rcd13ifvqc8g","pricing_plan_id":"free"},{"bike_id":"7d647eab-c99b-4f14-8de4-2f9abdd7dc86","system_id":"levelo_inurba_marseille","lat":43.301866,"lon":5.366126,"is_reserved":false,"is_disabled":false,"rental_uris":{"android":"levelo://app?vid=7d647eab-c99b-4f14-8de4-2f9abdd7dc86","ios":"levelo://app?vid=7d647eab-c99b-4f14-8de4-2f9abdd7dc86"},"vehicle_type_id":"4","last_reported":1703066794,"current_range_meters":31200,"station_id":"ce4bgrh2rcd13ifvqc8g","pricing_plan_id":"free"},{"bike_id":"e87e6e4b-3c1d-4815-aa39-751e45452f4d","system_id":"levelo_inurba_marseille","lat":43.301939,"lon":5.366286,"is_reserved":false,"is_disabled":false,"rental_uris":{"android":"levelo://app?vid=e87e6e4b-3c1d-4815-aa39-751e45452f4d","ios":"levelo://app?vid=e87e6e4b-3c1d-4815-aa39-751e45452f4d"},"vehicle_type_id":"4","last_reported":1703066794,"current_range_meters":18800,"station_id":"ce4bgrh2rcd13ifvqc8g","pricing_plan_id":"free"},{"bike_id":"01adfcef-5609-4c35-8ccd-39eca5c6f017","system_id":"levelo_inurba_marseille","lat":43.304606,"lon":5.379026,"is_reserved":false,"is_disabled":false,"rental_uris":{"android":"levelo://app?vid=01adfcef-5609-4c35-8ccd-39eca5c6f017","ios":"levelo://app?vid=01adfcef-5609-4c35-8ccd-39eca5c6f017"},"vehicle_type_id":"4","last_reported":1703066794,"current_range_meters":24400,"station_id":"ce4bgup2rcd13ifvqcn0","pricing_plan_id":"free"},{"bike_id":"ba3c4120-e19b-4688-9a8d-5ebf275a08a2","system_id":"levelo_inurba_marseille","lat":43.3028,"lon":5.3769,"is_reserved":false,"is_disabled":false,"rental_uris":{"android":"levelo://app?vid=ba3c4120-e19b-4688-9a8d-5ebf275a08a2","ios":"levelo://app?vid=ba3c4120-e19b-4688-9a8d-5ebf275a08a2"},"vehicle_type_id":"4","last_reported":1703066794,"current_range_meters":23600,"station_id":"ce4bguh2rcd13ifvqcj0","pricing_plan_id":"free"},{"bike_id":"4feb90d1-403f-4ae4-8dfa-eda8ac00e2a5","system_id":"levelo_inurba_marseille","lat":43.301429,"lon":5.37413,"is_reserved":false,"is_disabled":false,"rental_uris":{"android":"levelo://app?vid=4feb90d1-403f-4ae4-8dfa-eda8ac00e2a5","ios":"levelo://app?vid=4feb90d1-403f-4ae4-8dfa-eda8ac00e2a5"},"vehicle_type_id":"4","last_reported":1703066794,"current_range_meters":16400,"station_id":"ce4bgs92rcd13ifvqcc0","pricing_plan_id":"free"},{"bike_id":"e08eb783-5fa9-424c-9e68-1e1a6a57ebf4","system_id":"levelo_inurba_marseille","lat":43.301429,"lon":5.37413,"is_reserved":false,"is_disabled":false,"rental_uris":{"android":"levelo://app?vid=e08eb783-5fa9-424c-9e68-1e1a6a57ebf4","ios":"levelo://app?vid=e08eb783-5fa9-424c-9e68-1e1a6a57ebf4"},"vehicle_type_id":"4","last_reported":1703066794,"current_range_meters":20800,"station_id":"ce4bgs92rcd13ifvqcc0","pricing_plan_id":"free"},{"bike_id":"397e603a-0a4a-4bba-a3a8-d75bf061d1fe","system_id":"levelo_inurba_marseille","lat":43.313571,"lon":5.384829,"is_reserved":false,"is_disabled":false,"rental_uris":{"android":"levelo://app?vid=397e603a-0a4a-4bba-a3a8-d75bf061d1fe","ios":"levelo://app?vid=397e603a-0a4a-4bba-a3a8-d75bf061d1fe"},"vehicle_type_id":"4","last_reported":1703066794,"current_range_meters":5200,"station_id":"ce4bgt92rcd13ifvqcf0","pricing_plan_id":"free"},{"bike_id":"2fb55c13-ce51-4ed2-af2a-f23356d2ff7e","system_id":"levelo_inurba_marseille","lat":43.299222,"lon":5.365554,"is_reserved":false,"is_disabled":false,"rental_uris":{"android":"levelo://app?vid=2fb55c13-ce51-4ed2-af2a-f23356d2ff7e","ios":"levelo://app?vid=2fb55c13-ce51-4ed2-af2a-f23356d2ff7e"},"vehicle_type_id":"4","last_reported":1703066794,"current_range_meters":24400,"station_id":"ce4bgm92rcd13ifvqbr0","pricing_plan_id":"free"},{"bike_id":"95630a1a-2ad7-4a94-8c62-c8ae7b5974b5","system_id":"levelo_inurba_marseille","lat":43.298433,"lon":5.362774,"is_reserved":false,"is_disabled":false,"rental_uris":{"android":"levelo://app?vid=95630a1a-2ad7-4a94-8c62-c8ae7b5974b5","ios":"levelo://app?vid=95630a1a-2ad7-4a94-8c62-c8ae7b5974b5"},"vehicle_type_id":"4","last_reported":1703066794,"current_range_meters":25600,"station_id":"ce4bgpp2rcd13ifvqc3g","pricing_plan_id":"free"},{"bike_id":"332fcce0-3288-4b02-9cf4-25831a742c7b","system_id":"levelo_inurba_marseille","lat":43.298433,"lon":5.362774,"is_reserved":false,"is_disabled":false,"rental_uris":{"android":"levelo://app?vid=332fcce0-3288-4b02-9cf4-25831a742c7b","ios":"levelo://app?vid=332fcce0-3288-4b02-9cf4-25831a742c7b"},"vehicle_type_id":"4","last_reported":1703066794,"current_range_meters":31200,"station_id":"ce4bgpp2rcd13ifvqc3g","pricing_plan_id":"free"},{"bike_id":"340cc1da-6e0c-4f71-a23e-a1883a136ea6","system_id":"levelo_inurba_marseille","lat":43.298433,"lon":5.362774,"is_reserved":false,"is_disabled":false,"rental_uris":{"android":"levelo://app?vid=340cc1da-6e0c-4f71-a23e-a1883a136ea6","ios":"levelo://app?vid=340cc1da-6e0c-4f71-a23e-a1883a136ea6"},"vehicle_type_id":"4","last_reported":1703066794,"current_range_meters":27200,"station_id":"ce4bgpp2rcd13ifvqc3g","pricing_plan_id":"free"},{"bike_id":"ca0834b0-077b-48e5-8d61-d563b65c06e3","system_id":"levelo_inurba_marseille","lat":43.305468,"lon":5.384445,"is_reserved":false,"is_disabled":false,"rental_uris":{"android":"levelo://app?vid=ca0834b0-077b-48e5-8d61-d563b65c06e3","ios":"levelo://app?vid=ca0834b0-077b-48e5-8d61-d563b65c06e3"},"vehicle_type_id":"4","last_reported":1703066794,"current_range_meters":0,"station_id":"ce4bgg92rcd13ifvqb30","pricing_plan_id":"free"},{"bike_id":"32d22e7d-1094-4b20-bda2-6dc292bd89ff","system_id":"levelo_inurba_marseille","lat":43.299243,"lon":5.374807,"is_reserved":false,"is_disabled":false,"rental_uris":{"android":"levelo://app?vid=32d22e7d-1094-4b20-bda2-6dc292bd89ff","ios":"levelo://app?vid=32d22e7d-1094-4b20-bda2-6dc292bd89ff"},"vehicle_type_id":"4","last_reported":1703066794,"current_range_meters":18400,"station_id":"ce4bgjh2rcd13ifvqbg0","pricing_plan_id":"free"},{"bike_id":"04742fce-b899-4dfe-ab52-a05d5116e83a","system_id":"levelo_inurba_marseille","lat":43.322872,"lon":5.382756,"is_reserved":false,"is_disabled":false,"rental_uris":{"android":"levelo://app?vid=04742fce-b899-4dfe-ab52-a05d5116e83a","ios":"levelo://app?vid=04742fce-b899-4dfe-ab52-a05d5116e83a"},"vehicle_type_id":"4","last_reported":1703066794,"current_range_meters":29200,"station_id":"ce4bhr12rcd13ifvqhqg","pricing_plan_id":"free"},{"bike_id":"c22e4b9f-ba20-4a7c-a7c8-fd0a73d903e0","system_id":"levelo_inurba_marseille","lat":43.328284,"lon":5.366774,"is_reserved":false,"is_disabled":false,"rental_uris":{"android":"levelo://app?vid=c22e4b9f-ba20-4a7c-a7c8-fd0a73d903e0","ios":"levelo://app?vid=c22e4b9f-ba20-4a7c-a7c8-fd0a73d903e0"},"vehicle_type_id":"4","last_reported":1703066794,"current_range_meters":23600,"station_id":"ce4bhs92rcd13ifvqi0g","pricing_plan_id":"free"},{"bike_id":"2a8a59a2-86cc-48a9-8714-ae0edcb4d489","system_id":"levelo_inurba_marseille","lat":43.328286,"lon":5.366726,"is_reserved":false,"is_disabled":false,"rental_uris":{"android":"levelo://app?vid=2a8a59a2-86cc-48a9-8714-ae0edcb4d489","ios":"levelo://app?vid=2a8a59a2-86cc-48a9-8714-ae0edcb4d489"},"vehicle_type_id":"4","last_reported":1703066794,"current_range_meters":3600,"station_id":"ce4bhs92rcd13ifvqi0g","pricing_plan_id":"free"},{"bike_id":"eb8ebe7d-6983-4780-997c-9447c3c0c6e2","system_id":"levelo_inurba_marseille","lat":43.32829,"lon":5.36685,"is_reserved":false,"is_disabled":false,"rental_uris":{"android":"levelo://app?vid=eb8ebe7d-6983-4780-997c-9447c3c0c6e2","ios":"levelo://app?vid=eb8ebe7d-6983-4780-997c-9447c3c0c6e2"},"vehicle_type_id":"4","last_reported":1703066794,"current_range_meters":29200,"station_id":"ce4bhs92rcd13ifvqi0g","pricing_plan_id":"free"},{"bike_id":"c12df297-168e-4ca3-95d9-a300ff1ffbd9","system_id":"levelo_inurba_marseille","lat":43.328371,"lon":5.366909,"is_reserved":false,"is_disabled":false,"rental_uris":{"android":"levelo://app?vid=c12df297-168e-4ca3-95d9-a300ff1ffbd9","ios":"levelo://app?vid=c12df297-168e-4ca3-95d9-a300ff1ffbd9"},"vehicle_type_id":"4","last_reported":1703066794,"current_range_meters":30800,"station_id":"ce4bhs92rcd13ifvqi0g","pricing_plan_id":"free"},{"bike_id":"cb97846c-9508-4ec4-82fd-1a637ef7dd90","system_id":"levelo_inurba_marseille","lat":43.32831,"lon":5.36673,"is_reserved":false,"is_disabled":false,"rental_uris":{"android":"levelo://app?vid=cb97846c-9508-4ec4-82fd-1a637ef7dd90","ios":"levelo://app?vid=cb97846c-9508-4ec4-82fd-1a637ef7dd90"},"vehicle_type_id":"4","last_reported":1703066794,"current_range_meters":2000,"station_id":"ce4bhs92rcd13ifvqi0g","pricing_plan_id":"free"},{"bike_id":"3f4a7c0a-9bb3-46c1-bd5c-d0138c78b4a3","system_id":"levelo_inurba_marseille","lat":43.32832,"lon":5.36684,"is_reserved":false,"is_disabled":false,"rental_uris":{"android":"levelo://app?vid=3f4a7c0a-9bb3-46c1-bd5c-d0138c78b4a3","ios":"levelo://app?vid=3f4a7c0a-9bb3-46c1-bd5c-d0138c78b4a3"},"vehicle_type_id":"4","last_reported":1703066794,"current_range_meters":5600,"station_id":"ce4bhs92rcd13ifvqi0g","pricing_plan_id":"free"},{"bike_id":"48ebe570-3797-4c11-9550-8036b565ccb1","system_id":"levelo_inurba_marseille","lat":43.328323,"lon":5.366803,"is_reserved":false,"is_disabled":false,"rental_uris":{"android":"levelo://app?vid=48ebe570-3797-4c11-9550-8036b565ccb1","ios":"levelo://app?vid=48ebe570-3797-4c11-9550-8036b565ccb1"},"vehicle_type_id":"4","last_reported":1703066794,"current_range_meters":28400,"station_id":"ce4bhs92rcd13ifvqi0g","pricing_plan_id":"free"},{"bike_id":"23bb626d-892a-4cd1-87a1-9dbabcf614bf","system_id":"levelo_inurba_marseille","lat":43.297163,"lon":5.365866,"is_reserved":false,"is_disabled":false,"rental_uris":{"android":"levelo://app?vid=23bb626d-892a-4cd1-87a1-9dbabcf614bf","ios":"levelo://app?vid=23bb626d-892a-4cd1-87a1-9dbabcf614bf"},"vehicle_type_id":"4","last_reported":1703066794,"current_range_meters":23200,"station_id":"ce4bgn12rcd13ifvqbt0","pricing_plan_id":"free"},{"bike_id":"94d9f3f2-1f58-4a74-9d97-c2399078361d","system_id":"levelo_inurba_marseille","lat":43.2968,"lon":5.37291,"is_reserved":false,"is_disabled":false,"rental_uris":{"android":"levelo://app?vid=94d9f3f2-1f58-4a74-9d97-c2399078361d","ios":"levelo://app?vid=94d9f3f2-1f58-4a74-9d97-c2399078361d"},"vehicle_type_id":"4","last_reported":1703066794,"current_range_meters":29200,"station_id":"ce4bgk12rcd13ifvqbj0","pricing_plan_id":"free"},{"bike_id":"8ae19b2c-3abe-4d96-9b91-4687555d1f8c","system_id":"levelo_inurba_marseille","lat":43.29592,"lon":5.37,"is_reserved":false,"is_disabled":false,"rental_uris":{"android":"levelo://app?vid=8ae19b2c-3abe-4d96-9b91-4687555d1f8c","ios":"levelo://app?vid=8ae19b2c-3abe-4d96-9b91-4687555d1f8c"},"vehicle_type_id":"4","last_reported":1703066794,"current_range_meters":23200,"station_id":"","pricing_plan_id":"free"},{"bike_id":"6946ae17-1ab0-4f5d-a14b-192c59b4c343","system_id":"levelo_inurba_marseille","lat":43.309589,"lon":5.390258,"is_reserved":false,"is_disabled":false,"rental_uris":{"android":"levelo://app?vid=6946ae17-1ab0-4f5d-a14b-192c59b4c343","ios":"levelo://app?vid=6946ae17-1ab0-4f5d-a14b-192c59b4c343"},"vehicle_type_id":"4","last_reported":1703066794,"current_range_meters":18000,"station_id":"ce4bgup2rcd13ifvqco0","pricing_plan_id":"free"},{"bike_id":"98b47788-ccdb-4f07-b2bd-5fec96e5707d","system_id":"levelo_inurba_marseille","lat":43.317557,"lon":5.390173,"is_reserved":false,"is_disabled":false,"rental_uris":{"android":"levelo://app?vid=98b47788-ccdb-4f07-b2bd-5fec96e5707d","ios":"levelo://app?vid=98b47788-ccdb-4f07-b2bd-5fec96e5707d"},"vehicle_type_id":"4","last_reported":1703066794,"current_range_meters":800,"station_id":"ce4bhqp2rcd13ifvqhng","pricing_plan_id":"free"},{"bike_id":"8c4fa6df-927a-41b1-8fb1-9dac069dd028","system_id":"levelo_inurba_marseille","lat":43.317557,"lon":5.390173,"is_reserved":false,"is_disabled":false,"rental_uris":{"android":"levelo://app?vid=8c4fa6df-927a-41b1-8fb1-9dac069dd028","ios":"levelo://app?vid=8c4fa6df-927a-41b1-8fb1-9dac069dd028"},"vehicle_type_id":"4","last_reported":1703066794,"current_range_meters":31200,"station_id":"ce4bhqp2rcd13ifvqhng","pricing_plan_id":"free"},{"bike_id":"b041e015-21f2-44ae-a5b0-923fa3a9243f","system_id":"levelo_inurba_marseille","lat":43.317557,"lon":5.390173,"is_reserved":false,"is_disabled":false,"rental_uris":{"android":"levelo://app?vid=b041e015-21f2-44ae-a5b0-923fa3a9243f","ios":"levelo://app?vid=b041e015-21f2-44ae-a5b0-923fa3a9243f"},"vehicle_type_id":"4","last_reported":1703066794,"current_range_meters":16000,"station_id":"ce4bhqp2rcd13ifvqhng","pricing_plan_id":"free"},{"bike_id":"01276e74-7ce2-46bc-a138-48e1b801a77e","system_id":"levelo_inurba_marseille","lat":43.295748,"lon":5.37522,"is_reserved":false,"is_disabled":false,"rental_uris":{"android":"levelo://app?vid=01276e74-7ce2-46bc-a138-48e1b801a77e","ios":"levelo://app?vid=01276e74-7ce2-46bc-a138-48e1b801a77e"},"vehicle_type_id":"4","last_reported":1703066794,"current_range_meters":31200,"station_id":"ce4bgh92rcd13ifvqb50","pricing_plan_id":"free"},{"bike_id":"1a8774e7-606f-49b9-a8ff-e0a55d605c7e","system_id":"levelo_inurba_marseille","lat":43.298037,"lon":5.381066,"is_reserved":false,"is_disabled":false,"rental_uris":{"android":"levelo://app?vid=1a8774e7-606f-49b9-a8ff-e0a55d605c7e","ios":"levelo://app?vid=1a8774e7-606f-49b9-a8ff-e0a55d605c7e"},"vehicle_type_id":"4","last_reported":1703066794,"current_range_meters":19200,"station_id":"ce4bgip2rcd13ifvqbb0","pricing_plan_id":"free"},{"bike_id":"3b4689be-5e70-41b0-ba5e-76aca2f50c28","system_id":"levelo_inurba_marseille","lat":43.298037,"lon":5.381066,"is_reserved":false,"is_disabled":false,"rental_uris":{"android":"levelo://app?vid=3b4689be-5e70-41b0-ba5e-76aca2f50c28","ios":"levelo://app?vid=3b4689be-5e70-41b0-ba5e-76aca2f50c28"},"vehicle_type_id":"4","last_reported":1703066794,"current_range_meters":26400,"station_id":"ce4bgip2rcd13ifvqbb0","pricing_plan_id":"free"},{"bike_id":"46ad0bcc-06f7-48a1-894d-7792673f891b","system_id":"levelo_inurba_marseille","lat":43.295748,"lon":5.37522,"is_reserved":false,"is_disabled":false,"rental_uris":{"android":"levelo://app?vid=46ad0bcc-06f7-48a1-894d-7792673f891b","ios":"levelo://app?vid=46ad0bcc-06f7-48a1-894d-7792673f891b"},"vehicle_type_id":"4","last_reported":1703066794,"current_range_meters":25600,"station_id":"ce4bgh92rcd13ifvqb50","pricing_plan_id":"free"},{"bike_id":"2c677ce5-ea76-4e4a-ad89-8c32599476ab","system_id":"levelo_inurba_marseille","lat":43.297832,"lon":5.381156,"is_reserved":false,"is_disabled":false,"rental_uris":{"android":"levelo://app?vid=2c677ce5-ea76-4e4a-ad89-8c32599476ab","ios":"levelo://app?vid=2c677ce5-ea76-4e4a-ad89-8c32599476ab"},"vehicle_type_id":"4","last_reported":1703066794,"current_range_meters":0,"station_id":"ce4bgip2rcd13ifvqbb0","pricing_plan_id":"free"},{"bike_id":"1d57a3e4-9b00-428a-9c6a-59707d2f3166","system_id":"levelo_inurba_marseille","lat":43.295748,"lon":5.37522,"is_reserved":false,"is_disabled":false,"rental_uris":{"android":"levelo://app?vid=1d57a3e4-9b00-428a-9c6a-59707d2f3166","ios":"levelo://app?vid=1d57a3e4-9b00-428a-9c6a-59707d2f3166"},"vehicle_type_id":"4","last_reported":1703066794,"current_range_meters":9600,"station_id":"ce4bgh92rcd13ifvqb50","pricing_plan_id":"free"},{"bike_id":"54c1112c-ab26-4312-b97e-179cb9f3fd08","system_id":"levelo_inurba_marseille","lat":43.296277,"lon":5.377108,"is_reserved":false,"is_disabled":false,"rental_uris":{"android":"levelo://app?vid=54c1112c-ab26-4312-b97e-179cb9f3fd08","ios":"levelo://app?vid=54c1112c-ab26-4312-b97e-179cb9f3fd08"},"vehicle_type_id":"4","last_reported":1703066794,"current_range_meters":30000,"station_id":"ce4bgi92rcd13ifvqb90","pricing_plan_id":"free"},{"bike_id":"9e0cd074-c486-409a-afe6-e3bb37d4a3e2","system_id":"levelo_inurba_marseille","lat":43.296277,"lon":5.377108,"is_reserved":false,"is_disabled":false,"rental_uris":{"android":"levelo://app?vid=9e0cd074-c486-409a-afe6-e3bb37d4a3e2","ios":"levelo://app?vid=9e0cd074-c486-409a-afe6-e3bb37d4a3e2"},"vehicle_type_id":"4","last_reported":1703066794,"current_range_meters":16000,"station_id":"ce4bgi92rcd13ifvqb90","pricing_plan_id":"free"},{"bike_id":"1cd1ee91-58a5-46de-99eb-aeae4c213ecc","system_id":"levelo_inurba_marseille","lat":43.296277,"lon":5.377108,"is_reserved":false,"is_disabled":false,"rental_uris":{"android":"levelo://app?vid=1cd1ee91-58a5-46de-99eb-aeae4c213ecc","ios":"levelo://app?vid=1cd1ee91-58a5-46de-99eb-aeae4c213ecc"},"vehicle_type_id":"4","last_reported":1703066794,"current_range_meters":22800,"station_id":"ce4bgi92rcd13ifvqb90","pricing_plan_id":"free"},{"bike_id":"ea8492da-c0aa-43cb-bec9-342bdbd43b61","system_id":"levelo_inurba_marseille","lat":43.296277,"lon":5.377108,"is_reserved":false,"is_disabled":false,"rental_uris":{"android":"levelo://app?vid=ea8492da-c0aa-43cb-bec9-342bdbd43b61","ios":"levelo://app?vid=ea8492da-c0aa-43cb-bec9-342bdbd43b61"},"vehicle_type_id":"4","last_reported":1703066794,"current_range_meters":17200,"station_id":"ce4bgi92rcd13ifvqb90","pricing_plan_id":"free"},{"bike_id":"ed8503a7-f769-483c-8ecf-780e33efc8b0","system_id":"levelo_inurba_marseille","lat":43.296277,"lon":5.377108,"is_reserved":false,"is_disabled":false,"rental_uris":{"android":"levelo://app?vid=ed8503a7-f769-483c-8ecf-780e33efc8b0","ios":"levelo://app?vid=ed8503a7-f769-483c-8ecf-780e33efc8b0"},"vehicle_type_id":"4","last_reported":1703066794,"current_range_meters":6000,"station_id":"ce4bgi92rcd13ifvqb90","pricing_plan_id":"free"},{"bike_id":"77fbba59-28f4-45d8-bd2d-db21e9bbdf5d","system_id":"levelo_inurba_marseille","lat":43.299717,"lon":5.384845,"is_reserved":false,"is_disabled":false,"rental_uris":{"android":"levelo://app?vid=77fbba59-28f4-45d8-bd2d-db21e9bbdf5d","ios":"levelo://app?vid=77fbba59-28f4-45d8-bd2d-db21e9bbdf5d"},"vehicle_type_id":"4","last_reported":1703066794,"current_range_meters":15200,"station_id":"ce4bgj92rcd13ifvqbd0","pricing_plan_id":"free"},{"bike_id":"45e2e8a2-f5a3-424a-8c18-d23779ae6d47","system_id":"levelo_inurba_marseille","lat":43.299717,"lon":5.384845,"is_reserved":false,"is_disabled":false,"rental_uris":{"android":"levelo://app?vid=45e2e8a2-f5a3-424a-8c18-d23779ae6d47","ios":"levelo://app?vid=45e2e8a2-f5a3-424a-8c18-d23779ae6d47"},"vehicle_type_id":"4","last_reported":1703066794,"current_range_meters":24800,"station_id":"ce4bgj92rcd13ifvqbd0","pricing_plan_id":"free"},{"bike_id":"df78d9d5-4bcd-4863-8dcd-8db74f763742","system_id":"levelo_inurba_marseille","lat":43.295279,"lon":5.375048,"is_reserved":false,"is_disabled":false,"rental_uris":{"android":"levelo://app?vid=df78d9d5-4bcd-4863-8dcd-8db74f763742","ios":"levelo://app?vid=df78d9d5-4bcd-4863-8dcd-8db74f763742"},"vehicle_type_id":"4","last_reported":1703066794,"current_range_meters":15200,"station_id":"ce4bgkp2rcd13ifvqbmg","pricing_plan_id":"free"},{"bike_id":"4025df96-c433-4b2b-8127-ea9eea2f2ac4","system_id":"levelo_inurba_marseille","lat":43.29602,"lon":5.381084,"is_reserved":false,"is_disabled":false,"rental_uris":{"android":"levelo://app?vid=4025df96-c433-4b2b-8127-ea9eea2f2ac4","ios":"levelo://app?vid=4025df96-c433-4b2b-8127-ea9eea2f2ac4"},"vehicle_type_id":"4","last_reported":1703066794,"current_range_meters":22800,"station_id":"ce4bgl12rcd13ifvqbo0","pricing_plan_id":"free"},{"bike_id":"f5f961df-7d09-4878-8d4f-f1ff3fc305b5","system_id":"levelo_inurba_marseille","lat":43.293259,"lon":5.371586,"is_reserved":false,"is_disabled":false,"rental_uris":{"android":"levelo://app?vid=f5f961df-7d09-4878-8d4f-f1ff3fc305b5","ios":"levelo://app?vid=f5f961df-7d09-4878-8d4f-f1ff3fc305b5"},"vehicle_type_id":"4","last_reported":1703066794,"current_range_meters":30400,"station_id":"ce4bgh92rcd13ifvqb40","pricing_plan_id":"free"},{"bike_id":"05a2d2d3-40d8-47e3-9400-8b7aa3336789","system_id":"levelo_inurba_marseille","lat":43.293009,"lon":5.374584,"is_reserved":false,"is_disabled":false,"rental_uris":{"android":"levelo://app?vid=05a2d2d3-40d8-47e3-9400-8b7aa3336789","ios":"levelo://app?vid=05a2d2d3-40d8-47e3-9400-8b7aa3336789"},"vehicle_type_id":"4","last_reported":1703066794,"current_range_meters":30000,"station_id":"ce4bgi12rcd13ifvqb70","pricing_plan_id":"free"},{"bike_id":"24a9b42c-73dd-4f3a-b456-09aa740e891f","system_id":"levelo_inurba_marseille","lat":43.293009,"lon":5.374584,"is_reserved":false,"is_disabled":false,"rental_uris":{"android":"levelo://app?vid=24a9b42c-73dd-4f3a-b456-09aa740e891f","ios":"levelo://app?vid=24a9b42c-73dd-4f3a-b456-09aa740e891f"},"vehicle_type_id":"4","last_reported":1703066794,"current_range_meters":9600,"station_id":"ce4bgi12rcd13ifvqb70","pricing_plan_id":"free"},{"bike_id":"abe3b3a0-8ba5-42ae-9c66-24f6de55c28c","system_id":"levelo_inurba_marseille","lat":43.2936,"lon":5.37835,"is_reserved":false,"is_disabled":false,"rental_uris":{"android":"levelo://app?vid=abe3b3a0-8ba5-42ae-9c66-24f6de55c28c","ios":"levelo://app?vid=abe3b3a0-8ba5-42ae-9c66-24f6de55c28c"},"vehicle_type_id":"4","last_reported":1703066794,"current_range_meters":26400,"station_id":"ce4bgjh2rcd13ifvqbf0","pricing_plan_id":"free"},{"bike_id":"1c5d0aa1-a152-4606-ad26-67aaca6a2b29","system_id":"levelo_inurba_marseille","lat":43.29369,"lon":5.37833,"is_reserved":false,"is_disabled":false,"rental_uris":{"android":"levelo://app?vid=1c5d0aa1-a152-4606-ad26-67aaca6a2b29","ios":"levelo://app?vid=1c5d0aa1-a152-4606-ad26-67aaca6a2b29"},"vehicle_type_id":"4","last_reported":1703066794,"current_range_meters":25200,"station_id":"ce4bgjh2rcd13ifvqbf0","pricing_plan_id":"free"},{"bike_id":"564c108b-c945-49f6-b6fc-bdac89290ee7","system_id":"levelo_inurba_marseille","lat":43.2936,"lon":5.37835,"is_reserved":false,"is_disabled":false,"rental_uris":{"android":"levelo://app?vid=564c108b-c945-49f6-b6fc-bdac89290ee7","ios":"levelo://app?vid=564c108b-c945-49f6-b6fc-bdac89290ee7"},"vehicle_type_id":"4","last_reported":1703066794,"current_range_meters":31200,"station_id":"ce4bgjh2rcd13ifvqbf0","pricing_plan_id":"free"},{"bike_id":"c0ab17ba-d98f-427c-803b-eda8374f2ee9","system_id":"levelo_inurba_marseille","lat":43.292311,"lon":5.360731,"is_reserved":false,"is_disabled":false,"rental_uris":{"android":"levelo://app?vid=c0ab17ba-d98f-427c-803b-eda8374f2ee9","ios":"levelo://app?vid=c0ab17ba-d98f-427c-803b-eda8374f2ee9"},"vehicle_type_id":"4","last_reported":1703066794,"current_range_meters":15600,"station_id":"ce4bhbh2rcd13ifvqeqg","pricing_plan_id":"free"},{"bike_id":"83af9f1b-bf9d-4da2-b8be-fe6d2a5628b5","system_id":"levelo_inurba_marseille","lat":43.292311,"lon":5.360731,"is_reserved":false,"is_disabled":false,"rental_uris":{"android":"levelo://app?vid=83af9f1b-bf9d-4da2-b8be-fe6d2a5628b5","ios":"levelo://app?vid=83af9f1b-bf9d-4da2-b8be-fe6d2a5628b5"},"vehicle_type_id":"4","last_reported":1703066794,"current_range_meters":26400,"station_id":"ce4bhbh2rcd13ifvqeqg","pricing_plan_id":"free"},{"bike_id":"c624917b-98ab-4991-ba57-153146f36992","system_id":"levelo_inurba_marseille","lat":43.300961,"lon":5.390836,"is_reserved":false,"is_disabled":false,"rental_uris":{"android":"levelo://app?vid=c624917b-98ab-4991-ba57-153146f36992","ios":"levelo://app?vid=c624917b-98ab-4991-ba57-153146f36992"},"vehicle_type_id":"4","last_reported":1703066794,"current_range_meters":25200,"station_id":"","pricing_plan_id":"free"},{"bike_id":"02886ff7-a58e-45b2-bc47-c01302da162c","system_id":"levelo_inurba_marseille","lat":43.292311,"lon":5.360731,"is_reserved":false,"is_disabled":false,"rental_uris":{"android":"levelo://app?vid=02886ff7-a58e-45b2-bc47-c01302da162c","ios":"levelo://app?vid=02886ff7-a58e-45b2-bc47-c01302da162c"},"vehicle_type_id":"4","last_reported":1703066794,"current_range_meters":16800,"station_id":"ce4bhbh2rcd13ifvqeqg","pricing_plan_id":"free"},{"bike_id":"7b9e091e-fd21-4011-807b-87b6af3fe4a2","system_id":"levelo_inurba_marseille","lat":43.293009,"lon":5.374584,"is_reserved":false,"is_disabled":false,"rental_uris":{"android":"levelo://app?vid=7b9e091e-fd21-4011-807b-87b6af3fe4a2","ios":"levelo://app?vid=7b9e091e-fd21-4011-807b-87b6af3fe4a2"},"vehicle_type_id":"4","last_reported":1703066794,"current_range_meters":27600,"station_id":"ce4bgi12rcd13ifvqb70","pricing_plan_id":"free"},{"bike_id":"d334c886-b6e8-48a8-b49b-94a4bc9d2b2e","system_id":"levelo_inurba_marseille","lat":43.293009,"lon":5.374584,"is_reserved":false,"is_disabled":false,"rental_uris":{"android":"levelo://app?vid=d334c886-b6e8-48a8-b49b-94a4bc9d2b2e","ios":"levelo://app?vid=d334c886-b6e8-48a8-b49b-94a4bc9d2b2e"},"vehicle_type_id":"4","last_reported":1703066794,"current_range_meters":30000,"station_id":"ce4bgi12rcd13ifvqb70","pricing_plan_id":"free"},{"bike_id":"67dbc710-e248-4701-92da-b94e6f063a32","system_id":"levelo_inurba_marseille","lat":43.32297,"lon":5.39239,"is_reserved":false,"is_disabled":false,"rental_uris":{"android":"levelo://app?vid=67dbc710-e248-4701-92da-b94e6f063a32","ios":"levelo://app?vid=67dbc710-e248-4701-92da-b94e6f063a32"},"vehicle_type_id":"4","last_reported":1703066794,"current_range_meters":4800,"station_id":"","pricing_plan_id":"free"},{"bike_id":"3f93e709-53c4-4945-867d-319bae2df98c","system_id":"levelo_inurba_marseille","lat":43.293009,"lon":5.374584,"is_reserved":false,"is_disabled":false,"rental_uris":{"android":"levelo://app?vid=3f93e709-53c4-4945-867d-319bae2df98c","ios":"levelo://app?vid=3f93e709-53c4-4945-867d-319bae2df98c"},"vehicle_type_id":"4","last_reported":1703066794,"current_range_meters":26800,"station_id":"ce4bgi12rcd13ifvqb70","pricing_plan_id":"free"},{"bike_id":"c1108509-2d96-4eb9-b512-aa504d789aed","system_id":"levelo_inurba_marseille","lat":43.291671,"lon":5.371575,"is_reserved":false,"is_disabled":false,"rental_uris":{"android":"levelo://app?vid=c1108509-2d96-4eb9-b512-aa504d789aed","ios":"levelo://app?vid=c1108509-2d96-4eb9-b512-aa504d789aed"},"vehicle_type_id":"4","last_reported":1703066794,"current_range_meters":26800,"station_id":"ce4bha92rcd13ifvqeh0","pricing_plan_id":"free"},{"bike_id":"7b3fbb6a-e33b-4b53-b1fe-0dda781ff356","system_id":"levelo_inurba_marseille","lat":43.291675,"lon":5.371583,"is_reserved":false,"is_disabled":false,"rental_uris":{"android":"levelo://app?vid=7b3fbb6a-e33b-4b53-b1fe-0dda781ff356","ios":"levelo://app?vid=7b3fbb6a-e33b-4b53-b1fe-0dda781ff356"},"vehicle_type_id":"4","last_reported":1703066794,"current_range_meters":20000,"station_id":"ce4bha92rcd13ifvqeh0","pricing_plan_id":"free"},{"bike_id":"fb1bb806-ec38-4f1b-af36-627f24d577de","system_id":"levelo_inurba_marseille","lat":43.291675,"lon":5.371583,"is_reserved":false,"is_disabled":false,"rental_uris":{"android":"levelo://app?vid=fb1bb806-ec38-4f1b-af36-627f24d577de","ios":"levelo://app?vid=fb1bb806-ec38-4f1b-af36-627f24d577de"},"vehicle_type_id":"4","last_reported":1703066794,"current_range_meters":7200,"station_id":"ce4bha92rcd13ifvqeh0","pricing_plan_id":"free"},{"bike_id":"31bf2dfe-9987-4a78-bd4e-bbcca12d9fa0","system_id":"levelo_inurba_marseille","lat":43.309038,"lon":5.396546,"is_reserved":false,"is_disabled":false,"rental_uris":{"android":"levelo://app?vid=31bf2dfe-9987-4a78-bd4e-bbcca12d9fa0","ios":"levelo://app?vid=31bf2dfe-9987-4a78-bd4e-bbcca12d9fa0"},"vehicle_type_id":"4","last_reported":1703066794,"current_range_meters":16000,"station_id":"ce4bh012rcd13ifvqcv0","pricing_plan_id":"free"},{"bike_id":"da260ec5-8e5d-4519-9d44-1726ccda6f3c","system_id":"levelo_inurba_marseille","lat":43.309047,"lon":5.396551,"is_reserved":false,"is_disabled":false,"rental_uris":{"android":"levelo://app?vid=da260ec5-8e5d-4519-9d44-1726ccda6f3c","ios":"levelo://app?vid=da260ec5-8e5d-4519-9d44-1726ccda6f3c"},"vehicle_type_id":"4","last_reported":1703066794,"current_range_meters":13600,"station_id":"ce4bh012rcd13ifvqcv0","pricing_plan_id":"free"},{"bike_id":"929f05f0-7832-4754-ab9c-487b83bab4aa","system_id":"levelo_inurba_marseille","lat":43.290327,"lon":5.375711,"is_reserved":false,"is_disabled":false,"rental_uris":{"android":"levelo://app?vid=929f05f0-7832-4754-ab9c-487b83bab4aa","ios":"levelo://app?vid=929f05f0-7832-4754-ab9c-487b83bab4aa"},"vehicle_type_id":"4","last_reported":1703066794,"current_range_meters":22800,"station_id":"ce4bh692rcd13ifvqe90","pricing_plan_id":"free"},{"bike_id":"81ac3082-5aee-42b9-a732-ec3a19966a5f","system_id":"levelo_inurba_marseille","lat":43.289184,"lon":5.366408,"is_reserved":false,"is_disabled":false,"rental_uris":{"android":"levelo://app?vid=81ac3082-5aee-42b9-a732-ec3a19966a5f","ios":"levelo://app?vid=81ac3082-5aee-42b9-a732-ec3a19966a5f"},"vehicle_type_id":"4","last_reported":1703066794,"current_range_meters":18000,"station_id":"ce4bhap2rcd13ifvqek0","pricing_plan_id":"free"},{"bike_id":"98c5698d-d131-4d72-ba8c-fc30aefa52ef","system_id":"levelo_inurba_marseille","lat":43.289184,"lon":5.366408,"is_reserved":false,"is_disabled":false,"rental_uris":{"android":"levelo://app?vid=98c5698d-d131-4d72-ba8c-fc30aefa52ef","ios":"levelo://app?vid=98c5698d-d131-4d72-ba8c-fc30aefa52ef"},"vehicle_type_id":"4","last_reported":1703066794,"current_range_meters":2400,"station_id":"ce4bhap2rcd13ifvqek0","pricing_plan_id":"free"},{"bike_id":"05420817-072f-4797-81d3-a2cd6faf5f9b","system_id":"levelo_inurba_marseille","lat":43.289184,"lon":5.366408,"is_reserved":false,"is_disabled":false,"rental_uris":{"android":"levelo://app?vid=05420817-072f-4797-81d3-a2cd6faf5f9b","ios":"levelo://app?vid=05420817-072f-4797-81d3-a2cd6faf5f9b"},"vehicle_type_id":"4","last_reported":1703066794,"current_range_meters":23600,"station_id":"ce4bhap2rcd13ifvqek0","pricing_plan_id":"free"},{"bike_id":"2ba5df97-a547-474b-9269-8c4f03a8184b","system_id":"levelo_inurba_marseille","lat":43.290327,"lon":5.375711,"is_reserved":false,"is_disabled":false,"rental_uris":{"android":"levelo://app?vid=2ba5df97-a547-474b-9269-8c4f03a8184b","ios":"levelo://app?vid=2ba5df97-a547-474b-9269-8c4f03a8184b"},"vehicle_type_id":"4","last_reported":1703066794,"current_range_meters":23200,"station_id":"ce4bh692rcd13ifvqe90","pricing_plan_id":"free"},{"bike_id":"4aaab260-ab79-49f6-a8d8-0101fb451889","system_id":"levelo_inurba_marseille","lat":43.289468,"lon":5.363719,"is_reserved":false,"is_disabled":false,"rental_uris":{"android":"levelo://app?vid=4aaab260-ab79-49f6-a8d8-0101fb451889","ios":"levelo://app?vid=4aaab260-ab79-49f6-a8d8-0101fb451889"},"vehicle_type_id":"4","last_reported":1703066794,"current_range_meters":29600,"station_id":"ce4bhc92rcd13ifvqetg","pricing_plan_id":"free"},{"bike_id":"090843a4-3c2c-401c-a241-b7cdb506804a","system_id":"levelo_inurba_marseille","lat":43.29228,"lon":5.3834,"is_reserved":false,"is_disabled":false,"rental_uris":{"android":"levelo://app?vid=090843a4-3c2c-401c-a241-b7cdb506804a","ios":"levelo://app?vid=090843a4-3c2c-401c-a241-b7cdb506804a"},"vehicle_type_id":"4","last_reported":1703066794,"current_range_meters":23200,"station_id":"","pricing_plan_id":"free"},{"bike_id":"5f1f4916-e79c-41a6-95ce-170492c54f78","system_id":"levelo_inurba_marseille","lat":43.304274,"lon":5.397513,"is_reserved":false,"is_disabled":false,"rental_uris":{"android":"levelo://app?vid=5f1f4916-e79c-41a6-95ce-170492c54f78","ios":"levelo://app?vid=5f1f4916-e79c-41a6-95ce-170492c54f78"},"vehicle_type_id":"4","last_reported":1703066794,"current_range_meters":11600,"station_id":"ce4bh092rcd13ifvqd20","pricing_plan_id":"free"},{"bike_id":"39e98c13-8bf5-4359-b4b2-7b9441a1d969","system_id":"levelo_inurba_marseille","lat":43.330442,"lon":5.389148,"is_reserved":false,"is_disabled":false,"rental_uris":{"android":"levelo://app?vid=39e98c13-8bf5-4359-b4b2-7b9441a1d969","ios":"levelo://app?vid=39e98c13-8bf5-4359-b4b2-7b9441a1d969"},"vehicle_type_id":"4","last_reported":1703066794,"current_range_meters":26800,"station_id":"ce4bhr92rcd13ifvqhrg","pricing_plan_id":"free"},{"bike_id":"af195acd-3284-41fe-894e-44be6d8e1166","system_id":"levelo_inurba_marseille","lat":43.290103,"lon":5.356114,"is_reserved":false,"is_disabled":false,"rental_uris":{"android":"levelo://app?vid=af195acd-3284-41fe-894e-44be6d8e1166","ios":"levelo://app?vid=af195acd-3284-41fe-894e-44be6d8e1166"},"vehicle_type_id":"4","last_reported":1703066794,"current_range_meters":27200,"station_id":"ce4bhb92rcd13ifvqen0","pricing_plan_id":"free"},{"bike_id":"f4448175-330a-4b90-81b4-5e0095dba149","system_id":"levelo_inurba_marseille","lat":43.290104,"lon":5.356111,"is_reserved":false,"is_disabled":false,"rental_uris":{"android":"levelo://app?vid=f4448175-330a-4b90-81b4-5e0095dba149","ios":"levelo://app?vid=f4448175-330a-4b90-81b4-5e0095dba149"},"vehicle_type_id":"4","last_reported":1703066794,"current_range_meters":30800,"station_id":"ce4bhb92rcd13ifvqen0","pricing_plan_id":"free"},{"bike_id":"710a7097-3fe3-460c-a931-292119ee8a3a","system_id":"levelo_inurba_marseille","lat":43.295523,"lon":5.422926,"is_reserved":false,"is_disabled":false,"rental_uris":{"android":"levelo://app?vid=710a7097-3fe3-460c-a931-292119ee8a3a","ios":"levelo://app?vid=710a7097-3fe3-460c-a931-292119ee8a3a"},"vehicle_type_id":"4","last_reported":1703066794,"current_range_meters":7600,"station_id":"ce4bhph2rcd13ifvqhdg","pricing_plan_id":"free"},{"bike_id":"531acb0d-50cf-4b4b-9a21-72fe54ee97f3","system_id":"levelo_inurba_marseille","lat":43.289741,"lon":5.378306,"is_reserved":false,"is_disabled":false,"rental_uris":{"android":"levelo://app?vid=531acb0d-50cf-4b4b-9a21-72fe54ee97f3","ios":"levelo://app?vid=531acb0d-50cf-4b4b-9a21-72fe54ee97f3"},"vehicle_type_id":"4","last_reported":1703066794,"current_range_meters":30400,"station_id":"ce4bh9p2rcd13ifvqed0","pricing_plan_id":"free"},{"bike_id":"f12c32d2-dd69-4e65-bddc-a2733f53cbc5","system_id":"levelo_inurba_marseille","lat":43.28856,"lon":5.358371,"is_reserved":false,"is_disabled":false,"rental_uris":{"android":"levelo://app?vid=f12c32d2-dd69-4e65-bddc-a2733f53cbc5","ios":"levelo://app?vid=f12c32d2-dd69-4e65-bddc-a2733f53cbc5"},"vehicle_type_id":"4","last_reported":1703066794,"current_range_meters":20400,"station_id":"ce4bhb12rcd13ifvqem0","pricing_plan_id":"free"},{"bike_id":"98847685-03f2-432e-8d1c-f922dc648424","system_id":"levelo_inurba_marseille","lat":43.28856,"lon":5.358371,"is_reserved":false,"is_disabled":false,"rental_uris":{"android":"levelo://app?vid=98847685-03f2-432e-8d1c-f922dc648424","ios":"levelo://app?vid=98847685-03f2-432e-8d1c-f922dc648424"},"vehicle_type_id":"4","last_reported":1703066794,"current_range_meters":18000,"station_id":"ce4bhb12rcd13ifvqem0","pricing_plan_id":"free"},{"bike_id":"e325d832-2f8b-4eb7-843f-bbcb2531b63e","system_id":"levelo_inurba_marseille","lat":43.312609,"lon":5.401662,"is_reserved":false,"is_disabled":false,"rental_uris":{"android":"levelo://app?vid=e325d832-2f8b-4eb7-843f-bbcb2531b63e","ios":"levelo://app?vid=e325d832-2f8b-4eb7-843f-bbcb2531b63e"},"vehicle_type_id":"4","last_reported":1703066794,"current_range_meters":29600,"station_id":"ce4bh092rcd13ifvqd30","pricing_plan_id":"free"},{"bike_id":"8253abcd-b52e-4650-a2af-38e920e76174","system_id":"levelo_inurba_marseille","lat":43.33746,"lon":5.37445,"is_reserved":false,"is_disabled":false,"rental_uris":{"android":"levelo://app?vid=8253abcd-b52e-4650-a2af-38e920e76174","ios":"levelo://app?vid=8253abcd-b52e-4650-a2af-38e920e76174"},"vehicle_type_id":"4","last_reported":1703066794,"current_range_meters":28800,"station_id":"","pricing_plan_id":"free"},{"bike_id":"efc8b483-666b-48da-afa0-0447382868fd","system_id":"levelo_inurba_marseille","lat":43.337454,"lon":5.374725,"is_reserved":false,"is_disabled":false,"rental_uris":{"android":"levelo://app?vid=efc8b483-666b-48da-afa0-0447382868fd","ios":"levelo://app?vid=efc8b483-666b-48da-afa0-0447382868fd"},"vehicle_type_id":"4","last_reported":1703066794,"current_range_meters":27600,"station_id":"","pricing_plan_id":"free"},{"bike_id":"403c1361-abc8-4268-a3c9-bcc5633b980b","system_id":"levelo_inurba_marseille","lat":43.33758,"lon":5.37454,"is_reserved":false,"is_disabled":false,"rental_uris":{"android":"levelo://app?vid=403c1361-abc8-4268-a3c9-bcc5633b980b","ios":"levelo://app?vid=403c1361-abc8-4268-a3c9-bcc5633b980b"},"vehicle_type_id":"4","last_reported":1703066794,"current_range_meters":16400,"station_id":"","pricing_plan_id":"free"},{"bike_id":"bb121074-6add-44c4-999b-731676fd654c","system_id":"levelo_inurba_marseille","lat":43.33765,"lon":5.3749,"is_reserved":false,"is_disabled":false,"rental_uris":{"android":"levelo://app?vid=bb121074-6add-44c4-999b-731676fd654c","ios":"levelo://app?vid=bb121074-6add-44c4-999b-731676fd654c"},"vehicle_type_id":"4","last_reported":1703066794,"current_range_meters":27600,"station_id":"","pricing_plan_id":"free"},{"bike_id":"3c0b6a0f-b375-4c2b-9a2b-d7a728b1336b","system_id":"levelo_inurba_marseille","lat":43.33767,"lon":5.37479,"is_reserved":false,"is_disabled":false,"rental_uris":{"android":"levelo://app?vid=3c0b6a0f-b375-4c2b-9a2b-d7a728b1336b","ios":"levelo://app?vid=3c0b6a0f-b375-4c2b-9a2b-d7a728b1336b"},"vehicle_type_id":"4","last_reported":1703066794,"current_range_meters":20000,"station_id":"","pricing_plan_id":"free"},{"bike_id":"9866b68d-9525-417c-a620-7eb72185427c","system_id":"levelo_inurba_marseille","lat":43.30127,"lon":5.39867,"is_reserved":false,"is_disabled":false,"rental_uris":{"android":"levelo://app?vid=9866b68d-9525-417c-a620-7eb72185427c","ios":"levelo://app?vid=9866b68d-9525-417c-a620-7eb72185427c"},"vehicle_type_id":"4","last_reported":1703066794,"current_range_meters":17200,"station_id":"ce4bh0h2rcd13ifvqd40","pricing_plan_id":"free"},{"bike_id":"3609f89c-3889-45c6-9aaa-45f614634c53","system_id":"levelo_inurba_marseille","lat":43.287219,"lon":5.360869,"is_reserved":false,"is_disabled":false,"rental_uris":{"android":"levelo://app?vid=3609f89c-3889-45c6-9aaa-45f614634c53","ios":"levelo://app?vid=3609f89c-3889-45c6-9aaa-45f614634c53"},"vehicle_type_id":"4","last_reported":1703066794,"current_range_meters":0,"station_id":"cki0cbj6b192h4jlfktg","pricing_plan_id":"free"},{"bike_id":"13c9a91d-8756-47c6-8d9f-28f71c922fab","system_id":"levelo_inurba_marseille","lat":43.295196,"lon":5.39397,"is_reserved":false,"is_disabled":false,"rental_uris":{"android":"levelo://app?vid=13c9a91d-8756-47c6-8d9f-28f71c922fab","ios":"levelo://app?vid=13c9a91d-8756-47c6-8d9f-28f71c922fab"},"vehicle_type_id":"4","last_reported":1703066794,"current_range_meters":16000,"station_id":"ce4bh292rcd13ifvqdf0","pricing_plan_id":"free"},{"bike_id":"0925f1c1-0b64-4da4-b545-5a42cc99fa1d","system_id":"levelo_inurba_marseille","lat":43.286591,"lon":5.363346,"is_reserved":false,"is_disabled":false,"rental_uris":{"android":"levelo://app?vid=0925f1c1-0b64-4da4-b545-5a42cc99fa1d","ios":"levelo://app?vid=0925f1c1-0b64-4da4-b545-5a42cc99fa1d"},"vehicle_type_id":"4","last_reported":1703066794,"current_range_meters":25600,"station_id":"ce4bhah2rcd13ifvqej0","pricing_plan_id":"free"},{"bike_id":"bcf21e0c-8f54-4443-94ed-06a9c6d3f415","system_id":"levelo_inurba_marseille","lat":43.295194,"lon":5.39397,"is_reserved":false,"is_disabled":false,"rental_uris":{"android":"levelo://app?vid=bcf21e0c-8f54-4443-94ed-06a9c6d3f415","ios":"levelo://app?vid=bcf21e0c-8f54-4443-94ed-06a9c6d3f415"},"vehicle_type_id":"4","last_reported":1703066794,"current_range_meters":24800,"station_id":"ce4bh292rcd13ifvqdf0","pricing_plan_id":"free"},{"bike_id":"a88c3037-cfa6-42af-9ac6-c6eb24360caf","system_id":"levelo_inurba_marseille","lat":43.286961,"lon":5.373785,"is_reserved":false,"is_disabled":false,"rental_uris":{"android":"levelo://app?vid=a88c3037-cfa6-42af-9ac6-c6eb24360caf","ios":"levelo://app?vid=a88c3037-cfa6-42af-9ac6-c6eb24360caf"},"vehicle_type_id":"4","last_reported":1703066794,"current_range_meters":26400,"station_id":"ce4bh3p2rcd13ifvqdq0","pricing_plan_id":"free"},{"bike_id":"92eb8789-c24a-4ff0-b314-2a76ee0083b3","system_id":"levelo_inurba_marseille","lat":43.286961,"lon":5.373785,"is_reserved":false,"is_disabled":false,"rental_uris":{"android":"levelo://app?vid=92eb8789-c24a-4ff0-b314-2a76ee0083b3","ios":"levelo://app?vid=92eb8789-c24a-4ff0-b314-2a76ee0083b3"},"vehicle_type_id":"4","last_reported":1703066794,"current_range_meters":20800,"station_id":"ce4bh3p2rcd13ifvqdq0","pricing_plan_id":"free"},{"bike_id":"657577b9-aac4-4653-8b6b-22f49e62594d","system_id":"levelo_inurba_marseille","lat":43.286039,"lon":5.370679,"is_reserved":false,"is_disabled":false,"rental_uris":{"android":"levelo://app?vid=657577b9-aac4-4653-8b6b-22f49e62594d","ios":"levelo://app?vid=657577b9-aac4-4653-8b6b-22f49e62594d"},"vehicle_type_id":"4","last_reported":1703066794,"current_range_meters":14000,"station_id":"ce4bht12rcd13ifvqi60","pricing_plan_id":"free"},{"bike_id":"1a881723-cb57-46b3-ba42-5817e51fd8df","system_id":"levelo_inurba_marseille","lat":43.291994,"lon":5.392907,"is_reserved":false,"is_disabled":false,"rental_uris":{"android":"levelo://app?vid=1a881723-cb57-46b3-ba42-5817e51fd8df","ios":"levelo://app?vid=1a881723-cb57-46b3-ba42-5817e51fd8df"},"vehicle_type_id":"4","last_reported":1703066794,"current_range_meters":14800,"station_id":"ce4bh192rcd13ifvqdd0","pricing_plan_id":"free"},{"bike_id":"44901066-dbe5-4bcd-9ed9-49ea9652b40c","system_id":"levelo_inurba_marseille","lat":43.284538,"lon":5.358657,"is_reserved":false,"is_disabled":false,"rental_uris":{"android":"levelo://app?vid=44901066-dbe5-4bcd-9ed9-49ea9652b40c","ios":"levelo://app?vid=44901066-dbe5-4bcd-9ed9-49ea9652b40c"},"vehicle_type_id":"4","last_reported":1703066794,"current_range_meters":17600,"station_id":"ce4bhah2rcd13ifvqei0","pricing_plan_id":"free"},{"bike_id":"cc751a12-823c-4a3c-b021-3e0cd4a38be6","system_id":"levelo_inurba_marseille","lat":43.284538,"lon":5.358657,"is_reserved":false,"is_disabled":false,"rental_uris":{"android":"levelo://app?vid=cc751a12-823c-4a3c-b021-3e0cd4a38be6","ios":"levelo://app?vid=cc751a12-823c-4a3c-b021-3e0cd4a38be6"},"vehicle_type_id":"4","last_reported":1703066794,"current_range_meters":3200,"station_id":"ce4bhah2rcd13ifvqei0","pricing_plan_id":"free"},{"bike_id":"ec5229eb-b685-42e8-aff1-279f3eaf24bd","system_id":"levelo_inurba_marseille","lat":43.285856,"lon":5.350771,"is_reserved":false,"is_disabled":false,"rental_uris":{"android":"levelo://app?vid=ec5229eb-b685-42e8-aff1-279f3eaf24bd","ios":"levelo://app?vid=ec5229eb-b685-42e8-aff1-279f3eaf24bd"},"vehicle_type_id":"4","last_reported":1703066794,"current_range_meters":21600,"station_id":"ce4bhch2rcd13ifvqeug","pricing_plan_id":"free"},{"bike_id":"9da8fac5-64c9-4047-9f20-d8280d4a03a5","system_id":"levelo_inurba_marseille","lat":43.285856,"lon":5.350771,"is_reserved":false,"is_disabled":false,"rental_uris":{"android":"levelo://app?vid=9da8fac5-64c9-4047-9f20-d8280d4a03a5","ios":"levelo://app?vid=9da8fac5-64c9-4047-9f20-d8280d4a03a5"},"vehicle_type_id":"4","last_reported":1703066794,"current_range_meters":24000,"station_id":"ce4bhch2rcd13ifvqeug","pricing_plan_id":"free"},{"bike_id":"d01fcdac-7d59-46ae-9572-c69e6fb89425","system_id":"levelo_inurba_marseille","lat":43.285856,"lon":5.350771,"is_reserved":false,"is_disabled":false,"rental_uris":{"android":"levelo://app?vid=d01fcdac-7d59-46ae-9572-c69e6fb89425","ios":"levelo://app?vid=d01fcdac-7d59-46ae-9572-c69e6fb89425"},"vehicle_type_id":"4","last_reported":1703066794,"current_range_meters":21600,"station_id":"ce4bhch2rcd13ifvqeug","pricing_plan_id":"free"},{"bike_id":"5f0e7b91-fd31-48f9-882c-75e0788e850b","system_id":"levelo_inurba_marseille","lat":43.285848,"lon":5.350787,"is_reserved":false,"is_disabled":false,"rental_uris":{"android":"levelo://app?vid=5f0e7b91-fd31-48f9-882c-75e0788e850b","ios":"levelo://app?vid=5f0e7b91-fd31-48f9-882c-75e0788e850b"},"vehicle_type_id":"4","last_reported":1703066794,"current_range_meters":29200,"station_id":"ce4bhch2rcd13ifvqeug","pricing_plan_id":"free"},{"bike_id":"49964326-b440-4643-b68a-b7c2e002a950","system_id":"levelo_inurba_marseille","lat":43.285856,"lon":5.350771,"is_reserved":false,"is_disabled":false,"rental_uris":{"android":"levelo://app?vid=49964326-b440-4643-b68a-b7c2e002a950","ios":"levelo://app?vid=49964326-b440-4643-b68a-b7c2e002a950"},"vehicle_type_id":"4","last_reported":1703066794,"current_range_meters":31200,"station_id":"ce4bhch2rcd13ifvqeug","pricing_plan_id":"free"},{"bike_id":"4ef38a78-ea10-485e-b7cf-e8d05774cec2","system_id":"levelo_inurba_marseille","lat":43.285856,"lon":5.350771,"is_reserved":false,"is_disabled":false,"rental_uris":{"android":"levelo://app?vid=4ef38a78-ea10-485e-b7cf-e8d05774cec2","ios":"levelo://app?vid=4ef38a78-ea10-485e-b7cf-e8d05774cec2"},"vehicle_type_id":"4","last_reported":1703066794,"current_range_meters":27600,"station_id":"ce4bhch2rcd13ifvqeug","pricing_plan_id":"free"},{"bike_id":"8fb0b2e6-8e91-4b07-800c-25c67002088c","system_id":"levelo_inurba_marseille","lat":43.285848,"lon":5.350787,"is_reserved":false,"is_disabled":false,"rental_uris":{"android":"levelo://app?vid=8fb0b2e6-8e91-4b07-800c-25c67002088c","ios":"levelo://app?vid=8fb0b2e6-8e91-4b07-800c-25c67002088c"},"vehicle_type_id":"4","last_reported":1703066794,"current_range_meters":29600,"station_id":"ce4bhch2rcd13ifvqeug","pricing_plan_id":"free"},{"bike_id":"8bb81aac-e584-46ab-9cc2-8bf775151bdf","system_id":"levelo_inurba_marseille","lat":43.283998,"lon":5.375062,"is_reserved":false,"is_disabled":false,"rental_uris":{"android":"levelo://app?vid=8bb81aac-e584-46ab-9cc2-8bf775151bdf","ios":"levelo://app?vid=8bb81aac-e584-46ab-9cc2-8bf775151bdf"},"vehicle_type_id":"4","last_reported":1703066794,"current_range_meters":22000,"station_id":"ce4bh412rcd13ifvqds0","pricing_plan_id":"free"},{"bike_id":"8538e6dd-dbef-4a5a-a119-9a857fd021ad","system_id":"levelo_inurba_marseille","lat":43.33218,"lon":5.397067,"is_reserved":false,"is_disabled":false,"rental_uris":{"android":"levelo://app?vid=8538e6dd-dbef-4a5a-a119-9a857fd021ad","ios":"levelo://app?vid=8538e6dd-dbef-4a5a-a119-9a857fd021ad"},"vehicle_type_id":"4","last_reported":1703066794,"current_range_meters":0,"station_id":"","pricing_plan_id":"free"},{"bike_id":"c13bf9e5-a6ea-4594-84fa-e0e8494aa6cf","system_id":"levelo_inurba_marseille","lat":43.295713,"lon":5.399639,"is_reserved":false,"is_disabled":false,"rental_uris":{"android":"levelo://app?vid=c13bf9e5-a6ea-4594-84fa-e0e8494aa6cf","ios":"levelo://app?vid=c13bf9e5-a6ea-4594-84fa-e0e8494aa6cf"},"vehicle_type_id":"4","last_reported":1703066794,"current_range_meters":28000,"station_id":"ce4bh312rcd13ifvqdj0","pricing_plan_id":"free"},{"bike_id":"2575ff5e-4fba-4103-9284-a572df2972b0","system_id":"levelo_inurba_marseille","lat":43.295713,"lon":5.399639,"is_reserved":false,"is_disabled":false,"rental_uris":{"android":"levelo://app?vid=2575ff5e-4fba-4103-9284-a572df2972b0","ios":"levelo://app?vid=2575ff5e-4fba-4103-9284-a572df2972b0"},"vehicle_type_id":"4","last_reported":1703066794,"current_range_meters":16000,"station_id":"ce4bh312rcd13ifvqdj0","pricing_plan_id":"free"},{"bike_id":"50ee88ea-ea15-439e-9fc2-aac7ad4cb3d7","system_id":"levelo_inurba_marseille","lat":43.319179,"lon":5.407725,"is_reserved":false,"is_disabled":false,"rental_uris":{"android":"levelo://app?vid=50ee88ea-ea15-439e-9fc2-aac7ad4cb3d7","ios":"levelo://app?vid=50ee88ea-ea15-439e-9fc2-aac7ad4cb3d7"},"vehicle_type_id":"4","last_reported":1703066794,"current_range_meters":26800,"station_id":"ce4bhq12rcd13ifvqhig","pricing_plan_id":"free"},{"bike_id":"d6b33d0b-2d4d-4bc5-b92b-041fc5c3cad4","system_id":"levelo_inurba_marseille","lat":43.319179,"lon":5.407725,"is_reserved":false,"is_disabled":false,"rental_uris":{"android":"levelo://app?vid=d6b33d0b-2d4d-4bc5-b92b-041fc5c3cad4","ios":"levelo://app?vid=d6b33d0b-2d4d-4bc5-b92b-041fc5c3cad4"},"vehicle_type_id":"4","last_reported":1703066794,"current_range_meters":29200,"station_id":"ce4bhq12rcd13ifvqhig","pricing_plan_id":"free"},{"bike_id":"0e6bbc92-cec6-497f-ad89-d75d7e889db3","system_id":"levelo_inurba_marseille","lat":43.33717,"lon":5.391857,"is_reserved":false,"is_disabled":false,"rental_uris":{"android":"levelo://app?vid=0e6bbc92-cec6-497f-ad89-d75d7e889db3","ios":"levelo://app?vid=0e6bbc92-cec6-497f-ad89-d75d7e889db3"},"vehicle_type_id":"4","last_reported":1703066794,"current_range_meters":29200,"station_id":"ce4bhr92rcd13ifvqhsg","pricing_plan_id":"free"},{"bike_id":"ba39ecb4-b984-477f-87cf-fcce02f73044","system_id":"levelo_inurba_marseille","lat":43.323464,"lon":5.406297,"is_reserved":false,"is_disabled":false,"rental_uris":{"android":"levelo://app?vid=ba39ecb4-b984-477f-87cf-fcce02f73044","ios":"levelo://app?vid=ba39ecb4-b984-477f-87cf-fcce02f73044"},"vehicle_type_id":"4","last_reported":1703066794,"current_range_meters":21600,"station_id":"ce4bhq92rcd13ifvqhjg","pricing_plan_id":"free"},{"bike_id":"69705908-4b6a-4709-a265-798e5697b8bf","system_id":"levelo_inurba_marseille","lat":43.323464,"lon":5.406297,"is_reserved":false,"is_disabled":false,"rental_uris":{"android":"levelo://app?vid=69705908-4b6a-4709-a265-798e5697b8bf","ios":"levelo://app?vid=69705908-4b6a-4709-a265-798e5697b8bf"},"vehicle_type_id":"4","last_reported":1703066794,"current_range_meters":31200,"station_id":"ce4bhq92rcd13ifvqhjg","pricing_plan_id":"free"},{"bike_id":"d3b8a933-bb32-4027-8cd2-ea28e07b8fa8","system_id":"levelo_inurba_marseille","lat":43.337168,"lon":5.391825,"is_reserved":false,"is_disabled":false,"rental_uris":{"android":"levelo://app?vid=d3b8a933-bb32-4027-8cd2-ea28e07b8fa8","ios":"levelo://app?vid=d3b8a933-bb32-4027-8cd2-ea28e07b8fa8"},"vehicle_type_id":"4","last_reported":1703066794,"current_range_meters":19600,"station_id":"ce4bhr92rcd13ifvqhsg","pricing_plan_id":"free"},{"bike_id":"3e83e30f-f6a1-4110-a972-7b5ed76813f0","system_id":"levelo_inurba_marseille","lat":43.284793,"lon":5.384119,"is_reserved":false,"is_disabled":false,"rental_uris":{"android":"levelo://app?vid=3e83e30f-f6a1-4110-a972-7b5ed76813f0","ios":"levelo://app?vid=3e83e30f-f6a1-4110-a972-7b5ed76813f0"},"vehicle_type_id":"4","last_reported":1703066794,"current_range_meters":18400,"station_id":"ce4bh512rcd13ifvqe3g","pricing_plan_id":"free"},{"bike_id":"b3612eca-d74c-47b8-9a34-dca88f158e39","system_id":"levelo_inurba_marseille","lat":43.284217,"lon":5.349697,"is_reserved":false,"is_disabled":false,"rental_uris":{"android":"levelo://app?vid=b3612eca-d74c-47b8-9a34-dca88f158e39","ios":"levelo://app?vid=b3612eca-d74c-47b8-9a34-dca88f158e39"},"vehicle_type_id":"4","last_reported":1703066794,"current_range_meters":24000,"station_id":"ce4bhbh2rcd13ifvqepg","pricing_plan_id":"free"},{"bike_id":"2c7907b3-c901-4f29-becb-6395e1a50b59","system_id":"levelo_inurba_marseille","lat":43.284217,"lon":5.349697,"is_reserved":false,"is_disabled":false,"rental_uris":{"android":"levelo://app?vid=2c7907b3-c901-4f29-becb-6395e1a50b59","ios":"levelo://app?vid=2c7907b3-c901-4f29-becb-6395e1a50b59"},"vehicle_type_id":"4","last_reported":1703066794,"current_range_meters":31200,"station_id":"ce4bhbh2rcd13ifvqepg","pricing_plan_id":"free"},{"bike_id":"726979c8-c13b-4929-9cb5-2dffd4a3f969","system_id":"levelo_inurba_marseille","lat":43.284217,"lon":5.349697,"is_reserved":false,"is_disabled":false,"rental_uris":{"android":"levelo://app?vid=726979c8-c13b-4929-9cb5-2dffd4a3f969","ios":"levelo://app?vid=726979c8-c13b-4929-9cb5-2dffd4a3f969"},"vehicle_type_id":"4","last_reported":1703066794,"current_range_meters":14000,"station_id":"ce4bhbh2rcd13ifvqepg","pricing_plan_id":"free"},{"bike_id":"a1745661-722f-41b0-8dbc-7c6d297e9d7d","system_id":"levelo_inurba_marseille","lat":43.284217,"lon":5.349697,"is_reserved":false,"is_disabled":false,"rental_uris":{"android":"levelo://app?vid=a1745661-722f-41b0-8dbc-7c6d297e9d7d","ios":"levelo://app?vid=a1745661-722f-41b0-8dbc-7c6d297e9d7d"},"vehicle_type_id":"4","last_reported":1703066794,"current_range_meters":22000,"station_id":"ce4bhbh2rcd13ifvqepg","pricing_plan_id":"free"},{"bike_id":"f74a5aad-a9d7-4925-a298-2c2c08c44a5d","system_id":"levelo_inurba_marseille","lat":43.284217,"lon":5.349697,"is_reserved":false,"is_disabled":false,"rental_uris":{"android":"levelo://app?vid=f74a5aad-a9d7-4925-a298-2c2c08c44a5d","ios":"levelo://app?vid=f74a5aad-a9d7-4925-a298-2c2c08c44a5d"},"vehicle_type_id":"4","last_reported":1703066794,"current_range_meters":27200,"station_id":"ce4bhbh2rcd13ifvqepg","pricing_plan_id":"free"},{"bike_id":"93149546-b8fe-4f4c-8569-13fc229684a1","system_id":"levelo_inurba_marseille","lat":43.28411,"lon":5.38545,"is_reserved":false,"is_disabled":false,"rental_uris":{"android":"levelo://app?vid=93149546-b8fe-4f4c-8569-13fc229684a1","ios":"levelo://app?vid=93149546-b8fe-4f4c-8569-13fc229684a1"},"vehicle_type_id":"4","last_reported":1703066794,"current_range_meters":0,"station_id":"","pricing_plan_id":"free"},{"bike_id":"4e20dc5a-6f10-4419-bb65-d1864350d46c","system_id":"levelo_inurba_marseille","lat":43.283502,"lon":5.386471,"is_reserved":false,"is_disabled":false,"rental_uris":{"android":"levelo://app?vid=4e20dc5a-6f10-4419-bb65-d1864350d46c","ios":"levelo://app?vid=4e20dc5a-6f10-4419-bb65-d1864350d46c"},"vehicle_type_id":"4","last_reported":1703066794,"current_range_meters":22800,"station_id":"ce4bh492rcd13ifvqdvg","pricing_plan_id":"free"},{"bike_id":"a355e0b5-4591-4fbc-bafa-8065124e3808","system_id":"levelo_inurba_marseille","lat":43.28268,"lon":5.35056,"is_reserved":false,"is_disabled":false,"rental_uris":{"android":"levelo://app?vid=a355e0b5-4591-4fbc-bafa-8065124e3808","ios":"levelo://app?vid=a355e0b5-4591-4fbc-bafa-8065124e3808"},"vehicle_type_id":"4","last_reported":1703066794,"current_range_meters":13200,"station_id":"ce4bhbp2rcd13ifvqerg","pricing_plan_id":"free"},{"bike_id":"7415b361-4875-4231-90b5-c9caee2a9d88","system_id":"levelo_inurba_marseille","lat":43.282654,"lon":5.350602,"is_reserved":false,"is_disabled":false,"rental_uris":{"android":"levelo://app?vid=7415b361-4875-4231-90b5-c9caee2a9d88","ios":"levelo://app?vid=7415b361-4875-4231-90b5-c9caee2a9d88"},"vehicle_type_id":"4","last_reported":1703066794,"current_range_meters":23600,"station_id":"ce4bhbp2rcd13ifvqerg","pricing_plan_id":"free"},{"bike_id":"c7415e11-e360-4c0d-927f-3fa0a497d387","system_id":"levelo_inurba_marseille","lat":43.28039,"lon":5.369297,"is_reserved":false,"is_disabled":false,"rental_uris":{"android":"levelo://app?vid=c7415e11-e360-4c0d-927f-3fa0a497d387","ios":"levelo://app?vid=c7415e11-e360-4c0d-927f-3fa0a497d387"},"vehicle_type_id":"4","last_reported":1703066794,"current_range_meters":0,"station_id":"ce4bha12rcd13ifvqef0","pricing_plan_id":"free"},{"bike_id":"5aa49627-8802-48c4-80e4-92690f577f44","system_id":"levelo_inurba_marseille","lat":43.290412,"lon":5.399633,"is_reserved":false,"is_disabled":false,"rental_uris":{"android":"levelo://app?vid=5aa49627-8802-48c4-80e4-92690f577f44","ios":"levelo://app?vid=5aa49627-8802-48c4-80e4-92690f577f44"},"vehicle_type_id":"4","last_reported":1703066794,"current_range_meters":6400,"station_id":"ce4bh392rcd13ifvqdm0","pricing_plan_id":"free"},{"bike_id":"ab6802ee-ba48-41df-a81d-86df9aeafc0b","system_id":"levelo_inurba_marseille","lat":43.29041,"lon":5.399634,"is_reserved":false,"is_disabled":false,"rental_uris":{"android":"levelo://app?vid=ab6802ee-ba48-41df-a81d-86df9aeafc0b","ios":"levelo://app?vid=ab6802ee-ba48-41df-a81d-86df9aeafc0b"},"vehicle_type_id":"4","last_reported":1703066794,"current_range_meters":2000,"station_id":"ce4bh392rcd13ifvqdm0","pricing_plan_id":"free"},{"bike_id":"b75d14ed-9604-44b4-aa1f-643f25673755","system_id":"levelo_inurba_marseille","lat":43.296263,"lon":5.40601,"is_reserved":false,"is_disabled":false,"rental_uris":{"android":"levelo://app?vid=b75d14ed-9604-44b4-aa1f-643f25673755","ios":"levelo://app?vid=b75d14ed-9604-44b4-aa1f-643f25673755"},"vehicle_type_id":"4","last_reported":1703066794,"current_range_meters":21200,"station_id":"ce4bh0h2rcd13ifvqd60","pricing_plan_id":"free"},{"bike_id":"2d3844dc-fbbb-47b0-933b-387a1241a331","system_id":"levelo_inurba_marseille","lat":43.284462,"lon":5.392121,"is_reserved":false,"is_disabled":false,"rental_uris":{"android":"levelo://app?vid=2d3844dc-fbbb-47b0-933b-387a1241a331","ios":"levelo://app?vid=2d3844dc-fbbb-47b0-933b-387a1241a331"},"vehicle_type_id":"4","last_reported":1703066794,"current_range_meters":8400,"station_id":"ce4bhoh2rcd13ifvqh5g","pricing_plan_id":"free"},{"bike_id":"77f54929-d6f6-47db-b745-4521392b6f7a","system_id":"levelo_inurba_marseille","lat":43.284462,"lon":5.392121,"is_reserved":false,"is_disabled":false,"rental_uris":{"android":"levelo://app?vid=77f54929-d6f6-47db-b745-4521392b6f7a","ios":"levelo://app?vid=77f54929-d6f6-47db-b745-4521392b6f7a"},"vehicle_type_id":"4","last_reported":1703066794,"current_range_meters":18400,"station_id":"ce4bhoh2rcd13ifvqh5g","pricing_plan_id":"free"},{"bike_id":"d876af96-5744-47cb-86eb-5a0ecfae3873","system_id":"levelo_inurba_marseille","lat":43.304188,"lon":5.412904,"is_reserved":false,"is_disabled":false,"rental_uris":{"android":"levelo://app?vid=d876af96-5744-47cb-86eb-5a0ecfae3873","ios":"levelo://app?vid=d876af96-5744-47cb-86eb-5a0ecfae3873"},"vehicle_type_id":"4","last_reported":1703066794,"current_range_meters":31200,"station_id":"ce4bhop2rcd13ifvqh8g","pricing_plan_id":"free"},{"bike_id":"9c39c97d-8ed5-4d1e-a032-f1fe506fa938","system_id":"levelo_inurba_marseille","lat":43.287154,"lon":5.399979,"is_reserved":false,"is_disabled":false,"rental_uris":{"android":"levelo://app?vid=9c39c97d-8ed5-4d1e-a032-f1fe506fa938","ios":"levelo://app?vid=9c39c97d-8ed5-4d1e-a032-f1fe506fa938"},"vehicle_type_id":"4","last_reported":1703066794,"current_range_meters":16800,"station_id":"ce4bho92rcd13ifvqh3g","pricing_plan_id":"free"},{"bike_id":"f361576c-0657-4ed4-8f0d-e35c8dd42505","system_id":"levelo_inurba_marseille","lat":43.287107,"lon":5.399957,"is_reserved":false,"is_disabled":false,"rental_uris":{"android":"levelo://app?vid=f361576c-0657-4ed4-8f0d-e35c8dd42505","ios":"levelo://app?vid=f361576c-0657-4ed4-8f0d-e35c8dd42505"},"vehicle_type_id":"4","last_reported":1703066794,"current_range_meters":22000,"station_id":"ce4bho92rcd13ifvqh3g","pricing_plan_id":"free"},{"bike_id":"cb0668d4-d46c-4efe-a7e0-185ebe495ab4","system_id":"levelo_inurba_marseille","lat":43.280538,"lon":5.389176,"is_reserved":false,"is_disabled":false,"rental_uris":{"android":"levelo://app?vid=cb0668d4-d46c-4efe-a7e0-185ebe495ab4","ios":"levelo://app?vid=cb0668d4-d46c-4efe-a7e0-185ebe495ab4"},"vehicle_type_id":"4","last_reported":1703066794,"current_range_meters":8400,"station_id":"","pricing_plan_id":"free"},{"bike_id":"cae4be8c-9931-45a0-b1f5-eea5cab77a6f","system_id":"levelo_inurba_marseille","lat":43.320045,"lon":5.415048,"is_reserved":false,"is_disabled":false,"rental_uris":{"android":"levelo://app?vid=cae4be8c-9931-45a0-b1f5-eea5cab77a6f","ios":"levelo://app?vid=cae4be8c-9931-45a0-b1f5-eea5cab77a6f"},"vehicle_type_id":"4","last_reported":1703066794,"current_range_meters":26800,"station_id":"ce4bhq92rcd13ifvqhkg","pricing_plan_id":"free"},{"bike_id":"0936101b-6b11-4a99-acf4-9742d9eecb36","system_id":"levelo_inurba_marseille","lat":43.320045,"lon":5.415046,"is_reserved":false,"is_disabled":false,"rental_uris":{"android":"levelo://app?vid=0936101b-6b11-4a99-acf4-9742d9eecb36","ios":"levelo://app?vid=0936101b-6b11-4a99-acf4-9742d9eecb36"},"vehicle_type_id":"4","last_reported":1703066794,"current_range_meters":30000,"station_id":"ce4bhq92rcd13ifvqhkg","pricing_plan_id":"free"},{"bike_id":"ab381992-15af-4465-8f82-930a61d72613","system_id":"levelo_inurba_marseille","lat":43.325233,"lon":5.414318,"is_reserved":false,"is_disabled":false,"rental_uris":{"android":"levelo://app?vid=ab381992-15af-4465-8f82-930a61d72613","ios":"levelo://app?vid=ab381992-15af-4465-8f82-930a61d72613"},"vehicle_type_id":"4","last_reported":1703066794,"current_range_meters":2800,"station_id":"ce4bhq12rcd13ifvqhhg","pricing_plan_id":"free"},{"bike_id":"30969f41-666e-4fa7-98fc-9a50f431d74c","system_id":"levelo_inurba_marseille","lat":43.325233,"lon":5.414318,"is_reserved":false,"is_disabled":false,"rental_uris":{"android":"levelo://app?vid=30969f41-666e-4fa7-98fc-9a50f431d74c","ios":"levelo://app?vid=30969f41-666e-4fa7-98fc-9a50f431d74c"},"vehicle_type_id":"4","last_reported":1703066794,"current_range_meters":14800,"station_id":"ce4bhq12rcd13ifvqhhg","pricing_plan_id":"free"},{"bike_id":"ae97ba37-8759-486d-94a5-f27bc8d713dd","system_id":"levelo_inurba_marseille","lat":43.27618,"lon":5.361009,"is_reserved":false,"is_disabled":false,"rental_uris":{"android":"levelo://app?vid=ae97ba37-8759-486d-94a5-f27bc8d713dd","ios":"levelo://app?vid=ae97ba37-8759-486d-94a5-f27bc8d713dd"},"vehicle_type_id":"4","last_reported":1703066794,"current_range_meters":26000,"station_id":"ce4bgj92rcd13ifvqbe0","pricing_plan_id":"free"},{"bike_id":"6f33ed31-2cf3-4c0d-986d-ea050982e803","system_id":"levelo_inurba_marseille","lat":43.325243,"lon":5.414326,"is_reserved":false,"is_disabled":false,"rental_uris":{"android":"levelo://app?vid=6f33ed31-2cf3-4c0d-986d-ea050982e803","ios":"levelo://app?vid=6f33ed31-2cf3-4c0d-986d-ea050982e803"},"vehicle_type_id":"4","last_reported":1703066794,"current_range_meters":32000,"station_id":"ce4bhq12rcd13ifvqhhg","pricing_plan_id":"free"},{"bike_id":"a599dc31-bfb6-4645-b3ec-4f9eb09542eb","system_id":"levelo_inurba_marseille","lat":43.325243,"lon":5.414326,"is_reserved":false,"is_disabled":false,"rental_uris":{"android":"levelo://app?vid=a599dc31-bfb6-4645-b3ec-4f9eb09542eb","ios":"levelo://app?vid=a599dc31-bfb6-4645-b3ec-4f9eb09542eb"},"vehicle_type_id":"4","last_reported":1703066794,"current_range_meters":21600,"station_id":"ce4bhq12rcd13ifvqhhg","pricing_plan_id":"free"},{"bike_id":"ef0e4563-4e1b-4131-b65f-2e863e38a449","system_id":"levelo_inurba_marseille","lat":43.280784,"lon":5.396622,"is_reserved":false,"is_disabled":false,"rental_uris":{"android":"levelo://app?vid=ef0e4563-4e1b-4131-b65f-2e863e38a449","ios":"levelo://app?vid=ef0e4563-4e1b-4131-b65f-2e863e38a449"},"vehicle_type_id":"4","last_reported":1703066794,"current_range_meters":16400,"station_id":"ce4bho12rcd13ifvqh2g","pricing_plan_id":"free"},{"bike_id":"f1c2c6d6-fb76-4a49-8998-7610a1ec8923","system_id":"levelo_inurba_marseille","lat":43.303837,"lon":5.418724,"is_reserved":false,"is_disabled":false,"rental_uris":{"android":"levelo://app?vid=f1c2c6d6-fb76-4a49-8998-7610a1ec8923","ios":"levelo://app?vid=f1c2c6d6-fb76-4a49-8998-7610a1ec8923"},"vehicle_type_id":"4","last_reported":1703066794,"current_range_meters":11600,"station_id":"ce4bhop2rcd13ifvqh7g","pricing_plan_id":"free"},{"bike_id":"e049af33-c08d-4ab8-89db-e6212c08fc38","system_id":"levelo_inurba_marseille","lat":43.273613,"lon":5.362705,"is_reserved":false,"is_disabled":false,"rental_uris":{"android":"levelo://app?vid=e049af33-c08d-4ab8-89db-e6212c08fc38","ios":"levelo://app?vid=e049af33-c08d-4ab8-89db-e6212c08fc38"},"vehicle_type_id":"4","last_reported":1703066794,"current_range_meters":24000,"station_id":"ce4bhbh2rcd13ifvqeo0","pricing_plan_id":"free"},{"bike_id":"a453e506-6946-4623-9512-82735d696064","system_id":"levelo_inurba_marseille","lat":43.273609,"lon":5.362708,"is_reserved":false,"is_disabled":false,"rental_uris":{"android":"levelo://app?vid=a453e506-6946-4623-9512-82735d696064","ios":"levelo://app?vid=a453e506-6946-4623-9512-82735d696064"},"vehicle_type_id":"4","last_reported":1703066794,"current_range_meters":28800,"station_id":"ce4bhbh2rcd13ifvqeo0","pricing_plan_id":"free"},{"bike_id":"c21d8b79-8f7f-448f-bff8-d2d54c0cde2d","system_id":"levelo_inurba_marseille","lat":43.273613,"lon":5.362705,"is_reserved":false,"is_disabled":false,"rental_uris":{"android":"levelo://app?vid=c21d8b79-8f7f-448f-bff8-d2d54c0cde2d","ios":"levelo://app?vid=c21d8b79-8f7f-448f-bff8-d2d54c0cde2d"},"vehicle_type_id":"4","last_reported":1703066794,"current_range_meters":14400,"station_id":"ce4bhbh2rcd13ifvqeo0","pricing_plan_id":"free"},{"bike_id":"ff5ea9f5-739a-44c0-9a81-7afa87b68d76","system_id":"levelo_inurba_marseille","lat":43.33601,"lon":5.41031,"is_reserved":false,"is_disabled":false,"rental_uris":{"android":"levelo://app?vid=ff5ea9f5-739a-44c0-9a81-7afa87b68d76","ios":"levelo://app?vid=ff5ea9f5-739a-44c0-9a81-7afa87b68d76"},"vehicle_type_id":"4","last_reported":1703066794,"current_range_meters":26400,"station_id":"ce4bhqh2rcd13ifvqhmg","pricing_plan_id":"free"},{"bike_id":"1a01c908-86e6-4076-b9ac-6160ee3fce26","system_id":"levelo_inurba_marseille","lat":43.336134,"lon":5.410341,"is_reserved":false,"is_disabled":false,"rental_uris":{"android":"levelo://app?vid=1a01c908-86e6-4076-b9ac-6160ee3fce26","ios":"levelo://app?vid=1a01c908-86e6-4076-b9ac-6160ee3fce26"},"vehicle_type_id":"4","last_reported":1703066794,"current_range_meters":20800,"station_id":"ce4bhqh2rcd13ifvqhmg","pricing_plan_id":"free"},{"bike_id":"0e8c0e92-68c9-4d2d-bafe-e1d6778a1aae","system_id":"levelo_inurba_marseille","lat":43.336134,"lon":5.410341,"is_reserved":false,"is_disabled":false,"rental_uris":{"android":"levelo://app?vid=0e8c0e92-68c9-4d2d-bafe-e1d6778a1aae","ios":"levelo://app?vid=0e8c0e92-68c9-4d2d-bafe-e1d6778a1aae"},"vehicle_type_id":"4","last_reported":1703066794,"current_range_meters":14800,"station_id":"ce4bhqh2rcd13ifvqhmg","pricing_plan_id":"free"},{"bike_id":"6aeb72c6-7795-421e-8c99-8e89a08bfac6","system_id":"levelo_inurba_marseille","lat":43.317121,"lon":5.423936,"is_reserved":false,"is_disabled":false,"rental_uris":{"android":"levelo://app?vid=6aeb72c6-7795-421e-8c99-8e89a08bfac6","ios":"levelo://app?vid=6aeb72c6-7795-421e-8c99-8e89a08bfac6"},"vehicle_type_id":"4","last_reported":1703066794,"current_range_meters":30000,"station_id":"ce4bhp92rcd13ifvqhbg","pricing_plan_id":"free"},{"bike_id":"a5be1e0a-9870-48c1-b934-a7e079d58b9c","system_id":"levelo_inurba_marseille","lat":43.310785,"lon":5.424305,"is_reserved":false,"is_disabled":false,"rental_uris":{"android":"levelo://app?vid=a5be1e0a-9870-48c1-b934-a7e079d58b9c","ios":"levelo://app?vid=a5be1e0a-9870-48c1-b934-a7e079d58b9c"},"vehicle_type_id":"4","last_reported":1703066794,"current_range_meters":21200,"station_id":"ce4bhp92rcd13ifvqhag","pricing_plan_id":"free"},{"bike_id":"a186b623-a02e-4b49-b9f8-d08ed118be67","system_id":"levelo_inurba_marseille","lat":43.310785,"lon":5.424305,"is_reserved":false,"is_disabled":false,"rental_uris":{"android":"levelo://app?vid=a186b623-a02e-4b49-b9f8-d08ed118be67","ios":"levelo://app?vid=a186b623-a02e-4b49-b9f8-d08ed118be67"},"vehicle_type_id":"4","last_reported":1703066794,"current_range_meters":31600,"station_id":"ce4bhp92rcd13ifvqhag","pricing_plan_id":"free"},{"bike_id":"061ded04-92b0-4ac8-810c-8041c4969c76","system_id":"levelo_inurba_marseille","lat":43.340804,"lon":5.410219,"is_reserved":false,"is_disabled":false,"rental_uris":{"android":"levelo://app?vid=061ded04-92b0-4ac8-810c-8041c4969c76","ios":"levelo://app?vid=061ded04-92b0-4ac8-810c-8041c4969c76"},"vehicle_type_id":"4","last_reported":1703066794,"current_range_meters":31200,"station_id":"ce4bhqh2rcd13ifvqhlg","pricing_plan_id":"free"},{"bike_id":"974dc7db-ff3c-4554-8964-132f9db52d9b","system_id":"levelo_inurba_marseille","lat":43.276092,"lon":5.395289,"is_reserved":false,"is_disabled":false,"rental_uris":{"android":"levelo://app?vid=974dc7db-ff3c-4554-8964-132f9db52d9b","ios":"levelo://app?vid=974dc7db-ff3c-4554-8964-132f9db52d9b"},"vehicle_type_id":"4","last_reported":1703066794,"current_range_meters":4400,"station_id":"","pricing_plan_id":"free"},{"bike_id":"d667b3ab-6e18-4316-923f-429f0bbd82b3","system_id":"levelo_inurba_marseille","lat":43.304096,"lon":5.425385,"is_reserved":false,"is_disabled":false,"rental_uris":{"android":"levelo://app?vid=d667b3ab-6e18-4316-923f-429f0bbd82b3","ios":"levelo://app?vid=d667b3ab-6e18-4316-923f-429f0bbd82b3"},"vehicle_type_id":"4","last_reported":1703066794,"current_range_meters":20400,"station_id":"ce4bhoh2rcd13ifvqh6g","pricing_plan_id":"free"},{"bike_id":"20d24d8f-e0a6-4c49-afb4-dfd01309b431","system_id":"levelo_inurba_marseille","lat":43.304096,"lon":5.425385,"is_reserved":false,"is_disabled":false,"rental_uris":{"android":"levelo://app?vid=20d24d8f-e0a6-4c49-afb4-dfd01309b431","ios":"levelo://app?vid=20d24d8f-e0a6-4c49-afb4-dfd01309b431"},"vehicle_type_id":"4","last_reported":1703066794,"current_range_meters":24000,"station_id":"ce4bhoh2rcd13ifvqh6g","pricing_plan_id":"free"},{"bike_id":"8e1b92b1-b785-4008-a17c-2816212fd771","system_id":"levelo_inurba_marseille","lat":43.304096,"lon":5.425385,"is_reserved":false,"is_disabled":false,"rental_uris":{"android":"levelo://app?vid=8e1b92b1-b785-4008-a17c-2816212fd771","ios":"levelo://app?vid=8e1b92b1-b785-4008-a17c-2816212fd771"},"vehicle_type_id":"4","last_reported":1703066794,"current_range_meters":6400,"station_id":"ce4bhoh2rcd13ifvqh6g","pricing_plan_id":"free"},{"bike_id":"74ad3ea7-7faf-459c-94a5-6416f79bac0d","system_id":"levelo_inurba_marseille","lat":43.304096,"lon":5.425385,"is_reserved":false,"is_disabled":false,"rental_uris":{"android":"levelo://app?vid=74ad3ea7-7faf-459c-94a5-6416f79bac0d","ios":"levelo://app?vid=74ad3ea7-7faf-459c-94a5-6416f79bac0d"},"vehicle_type_id":"4","last_reported":1703066794,"current_range_meters":27600,"station_id":"ce4bhoh2rcd13ifvqh6g","pricing_plan_id":"free"},{"bike_id":"cc6f4ccb-a02c-4c62-8f36-93c11fae1473","system_id":"levelo_inurba_marseille","lat":43.304096,"lon":5.425385,"is_reserved":false,"is_disabled":false,"rental_uris":{"android":"levelo://app?vid=cc6f4ccb-a02c-4c62-8f36-93c11fae1473","ios":"levelo://app?vid=cc6f4ccb-a02c-4c62-8f36-93c11fae1473"},"vehicle_type_id":"4","last_reported":1703066794,"current_range_meters":800,"station_id":"ce4bhoh2rcd13ifvqh6g","pricing_plan_id":"free"},{"bike_id":"ca314493-3848-477b-95b3-e1722a7aef04","system_id":"levelo_inurba_marseille","lat":43.295163,"lon":5.422651,"is_reserved":false,"is_disabled":false,"rental_uris":{"android":"levelo://app?vid=ca314493-3848-477b-95b3-e1722a7aef04","ios":"levelo://app?vid=ca314493-3848-477b-95b3-e1722a7aef04"},"vehicle_type_id":"4","last_reported":1703066794,"current_range_meters":11600,"station_id":"ce4bhph2rcd13ifvqhdg","pricing_plan_id":"free"},{"bike_id":"9f57bae4-22f9-4fa3-9432-8554c4683813","system_id":"levelo_inurba_marseille","lat":43.295523,"lon":5.422926,"is_reserved":false,"is_disabled":false,"rental_uris":{"android":"levelo://app?vid=9f57bae4-22f9-4fa3-9432-8554c4683813","ios":"levelo://app?vid=9f57bae4-22f9-4fa3-9432-8554c4683813"},"vehicle_type_id":"4","last_reported":1703066794,"current_range_meters":27200,"station_id":"ce4bhph2rcd13ifvqhdg","pricing_plan_id":"free"},{"bike_id":"5d2e495c-be51-4705-b37e-5de8527f4cac","system_id":"levelo_inurba_marseille","lat":43.272116,"lon":5.391747,"is_reserved":false,"is_disabled":false,"rental_uris":{"android":"levelo://app?vid=5d2e495c-be51-4705-b37e-5de8527f4cac","ios":"levelo://app?vid=5d2e495c-be51-4705-b37e-5de8527f4cac"},"vehicle_type_id":"4","last_reported":1703066794,"current_range_meters":26000,"station_id":"ce4bhhp2rcd13ifvqfm0","pricing_plan_id":"free"},{"bike_id":"5219db9d-6748-4e3f-b95f-30eb61f4979d","system_id":"levelo_inurba_marseille","lat":43.27188,"lon":5.39224,"is_reserved":false,"is_disabled":false,"rental_uris":{"android":"levelo://app?vid=5219db9d-6748-4e3f-b95f-30eb61f4979d","ios":"levelo://app?vid=5219db9d-6748-4e3f-b95f-30eb61f4979d"},"vehicle_type_id":"4","last_reported":1703066794,"current_range_meters":6800,"station_id":"ce4bhhp2rcd13ifvqfm0","pricing_plan_id":"free"},{"bike_id":"86ba771b-8036-4328-8521-cd352f9677c5","system_id":"levelo_inurba_marseille","lat":43.27812,"lon":5.40707,"is_reserved":false,"is_disabled":false,"rental_uris":{"android":"levelo://app?vid=86ba771b-8036-4328-8521-cd352f9677c5","ios":"levelo://app?vid=86ba771b-8036-4328-8521-cd352f9677c5"},"vehicle_type_id":"4","last_reported":1703066794,"current_range_meters":0,"station_id":"ce4bhnh2rcd13ifvqgtg","pricing_plan_id":"free"},{"bike_id":"8df61413-f90e-4f02-80a3-807c0ceee60d","system_id":"levelo_inurba_marseille","lat":43.269467,"lon":5.386439,"is_reserved":false,"is_disabled":false,"rental_uris":{"android":"levelo://app?vid=8df61413-f90e-4f02-80a3-807c0ceee60d","ios":"levelo://app?vid=8df61413-f90e-4f02-80a3-807c0ceee60d"},"vehicle_type_id":"4","last_reported":1703066794,"current_range_meters":4400,"station_id":"ce4bhh92rcd13ifvqfh0","pricing_plan_id":"free"},{"bike_id":"91f4aecd-5d14-4b63-869d-1f7b80db8e11","system_id":"levelo_inurba_marseille","lat":43.269467,"lon":5.386439,"is_reserved":false,"is_disabled":false,"rental_uris":{"android":"levelo://app?vid=91f4aecd-5d14-4b63-869d-1f7b80db8e11","ios":"levelo://app?vid=91f4aecd-5d14-4b63-869d-1f7b80db8e11"},"vehicle_type_id":"4","last_reported":1703066794,"current_range_meters":12800,"station_id":"ce4bhh92rcd13ifvqfh0","pricing_plan_id":"free"},{"bike_id":"3a7b7ed9-5bc9-43da-9ea7-d9b8f31876ca","system_id":"levelo_inurba_marseille","lat":43.269467,"lon":5.386439,"is_reserved":false,"is_disabled":false,"rental_uris":{"android":"levelo://app?vid=3a7b7ed9-5bc9-43da-9ea7-d9b8f31876ca","ios":"levelo://app?vid=3a7b7ed9-5bc9-43da-9ea7-d9b8f31876ca"},"vehicle_type_id":"4","last_reported":1703066794,"current_range_meters":18000,"station_id":"ce4bhh92rcd13ifvqfh0","pricing_plan_id":"free"},{"bike_id":"9277261b-cc94-495b-b82e-75b0a9f4cc4c","system_id":"levelo_inurba_marseille","lat":43.269467,"lon":5.386439,"is_reserved":false,"is_disabled":false,"rental_uris":{"android":"levelo://app?vid=9277261b-cc94-495b-b82e-75b0a9f4cc4c","ios":"levelo://app?vid=9277261b-cc94-495b-b82e-75b0a9f4cc4c"},"vehicle_type_id":"4","last_reported":1703066794,"current_range_meters":24000,"station_id":"ce4bhh92rcd13ifvqfh0","pricing_plan_id":"free"},{"bike_id":"0a67ec83-8219-4663-815f-2fe241c66f50","system_id":"levelo_inurba_marseille","lat":43.299243,"lon":5.374807,"is_reserved":false,"is_disabled":false,"rental_uris":{"android":"levelo://app?vid=0a67ec83-8219-4663-815f-2fe241c66f50","ios":"levelo://app?vid=0a67ec83-8219-4663-815f-2fe241c66f50"},"vehicle_type_id":"4","last_reported":1703066794,"current_range_meters":22800,"station_id":"ce4bgjh2rcd13ifvqbg0","pricing_plan_id":"free"},