{"last_updated":1741428513,"ttl":60,"version":"2.2","data":{"bikes":[{"bike_id":"e3565dcf-4d34-49d7-919b-1234920ea466","system_id":"levelo_inurba_marseille","lat":43.33726,"lon":5.37481,"is_reserved":false,"is_disabled":false,"rental_uris":{"android":"levelo://app?vid=e3565dcf-4d34-49d7-919b-1234920ea466","ios":"levelo://app?vid=e3565dcf-4d34-49d7-919b-1234920ea466"},"vehicle_type_id":"4","last_reported":1741428513,"current_range_meters":37600,"station_id":"","pricing_plan_id":"cebpf4jnsgd1na2vs0mg"},{"bike_id":"ee1d2ad1-36ca-49dd-a328-f2a9a9994ecb","system_id":"levelo_inurba_marseille","lat":43.310869,"lon":5.38131,"is_reserved":false,"is_disabled":true,"rental_uris":{"android":"levelo://app?vid=ee1d2ad1-36ca-49dd-a328-f2a9a9994ecb","ios":"levelo://app?vid=ee1d2ad1-36ca-49dd-a328-f2a9a9994ecb"},"vehicle_type_id":"4","last_reported":1741428513,"current_range_meters":0,"station_id":"","pricing_plan_id":"cebpf4jnsgd1na2vs0mg"},{"bike_id":"55f1a346-655d-4ceb-961f-e11c032b07e0","system_id":"levelo_inurba_marseille","lat":43.33773,"lon":5.3744,"is_reserved":false,"is_disabled":true,"rental_uris":{"android":"levelo://app?vid=55f1a346-655d-4ceb-961f-e11c032b07e0","ios":"levelo://app?vid=55f1a346-655d-4ceb-961f-e11c032b07e0"},"vehicle_type_id":"4","last_reported":1741428513,"current_range_meters":0,"station_id":"","pricing_plan_id":"cebpf4jnsgd1na2vs0mg"},{"bike_id":"4a17d1b8-749f-4ead-8e77-3be80208c84b","system_id":"levelo_inurba_marseille","lat":43.281059,"lon":5.398739,"is_reserved":false,"is_disabled":true,"rental_uris":{"android":"levelo://app?vid=4a17d1b8-749f-4ead-8e77-3be80208c84b","ios":"levelo://app?vid=4a17d1b8-749f-4ead-8e77-3be80208c84b"},"vehicle_type_id":"4","last_reported":1741428513,"current_range_meters":0,"station_id":"","pricing_plan_id":"cebpf4jnsgd1na2vs0mg"},{"bike_id":"9c2a65ea-f853-4980-96dd-92ca8e872fcd","system_id":"levelo_inurba_marseille","lat":43.248912,"lon":5.409242,"is_reserved":false,"is_disabled":true,"rental_uris":{"android":"levelo://app?vid=9c2a65ea-f853-4980-96dd-92ca8e872fcd","ios":"levelo://app?vid=9c2a65ea-f853-4980-96dd-92ca8e872fcd"},"vehicle_type_id":"4","last_reported":1741428513,"current_range_meters":0,"station_id":"","pricing_plan_id":"cebpf4jnsgd1na2vs0mg"},{"bike_id":"1741511b-60cc-4e16-a400-86f1a2f026e8","system_id":"levelo_inurba_marseille","lat":43.29604,"lon":5.3773,"is_reserved":false,"is_disabled":true,"rental_uris":{"android":"levelo://app?vid=1741511b-60cc-4e16-a400-86f1a2f026e8","ios":"levelo://app?vid=1741511b-60cc-4e16-a400-86f1a2f026e8"},"vehicle_type_id":"4","last_reported":1741428513,"current_range_meters":0,"station_id":"ce4bgi92rcd13ifvqb90","pricing_plan_id":"cebpf4jnsgd1na2vs0mg"},{"bike_id":"1482147e-7fe5-474b-984b-558f0517efa6","system_id":"levelo_inurba_marseille","lat":43.27615,"lon":5.36117,"is_reserved":false,"is_disabled":true,"rental_uris":{"android":"levelo://app?vid=1482147e-7fe5-474b-984b-558f0517efa6","ios":"levelo://app?vid=1482147e-7fe5-474b-984b-558f0517efa6"},"vehicle_type_id":"4","last_reported":1741428513,"current_range_meters":0,"station_id":"ce4bgj92rcd13ifvqbe0","pricing_plan_id":"cebpf4jnsgd1na2vs0mg"},{"bike_id":"10ca76ad-b404-4ba8-815a-8c5a62697af1","system_id":"levelo_inurba_marseille","lat":43.3106,"lon":5.38359,"is_reserved":false,"is_disabled":true,"rental_uris":{"android":"levelo://app?vid=10ca76ad-b404-4ba8-815a-8c5a62697af1","ios":"levelo://app?vid=10ca76ad-b404-4ba8-815a-8c5a62697af1"},"vehicle_type_id":"4","last_reported":1741428513,"current_range_meters":0,"station_id":"ce4bgv92rcd13ifvqcr0","pricing_plan_id":"cebpf4jnsgd1na2vs0mg"},{"bike_id":"3d2663ad-5bc0-4037-83dd-bee79d731640","system_id":"levelo_inurba_marseille","lat":43.31275,"lon":5.40179,"is_reserved":false,"is_disabled":true,"rental_uris":{"android":"levelo://app?vid=3d2663ad-5bc0-4037-83dd-bee79d731640","ios":"levelo://app?vid=3d2663ad-5bc0-4037-83dd-bee79d731640"},"vehicle_type_id":"4","last_reported":1741428513,"current_range_meters":0,"station_id":"ce4bh092rcd13ifvqd30","pricing_plan_id":"cebpf4jnsgd1na2vs0mg"},{"bike_id":"1d281e35-0cd4-4aea-a850-238e009a3f05","system_id":"levelo_inurba_marseille","lat":43.27558,"lon":5.38438,"is_reserved":false,"is_disabled":true,"rental_uris":{"android":"levelo://app?vid=1d281e35-0cd4-4aea-a850-238e009a3f05","ios":"levelo://app?vid=1d281e35-0cd4-4aea-a850-238e009a3f05"},"vehicle_type_id":"4","last_reported":1741428513,"current_range_meters":0,"station_id":"ce4bhh92rcd13ifvqfi0","pricing_plan_id":"cebpf4jnsgd1na2vs0mg"},{"bike_id":"87eb28da-efd7-4b86-b5b6-5cd5eed95eb4","system_id":"levelo_inurba_marseille","lat":43.24662,"lon":5.38169,"is_reserved":false,"is_disabled":true,"rental_uris":{"android":"levelo://app?vid=87eb28da-efd7-4b86-b5b6-5cd5eed95eb4","ios":"levelo://app?vid=87eb28da-efd7-4b86-b5b6-5cd5eed95eb4"},"vehicle_type_id":"4","last_reported":1741428513,"current_range_meters":0,"station_id":"ce4bhih2rcd13ifvqfr0","pricing_plan_id":"cebpf4jnsgd1na2vs0mg"},{"bike_id":"6c3f18ad-4e8f-4578-a676-2e9a1c0e966b","system_id":"levelo_inurba_marseille","lat":43.31089,"lon":5.42435,"is_reserved":false,"is_disabled":true,"rental_uris":{"android":"levelo://app?vid=6c3f18ad-4e8f-4578-a676-2e9a1c0e966b","ios":"levelo://app?vid=6c3f18ad-4e8f-4578-a676-2e9a1c0e966b"},"vehicle_type_id":"4","last_reported":1741428513,"current_range_meters":0,"station_id":"ce4bhp92rcd13ifvqhag","pricing_plan_id":"cebpf4jnsgd1na2vs0mg"},{"bike_id":"84fd8a9d-d33c-4402-bbe4-001e62a7f660","system_id":"levelo_inurba_marseille","lat":43.2657,"lon":5.39873,"is_reserved":false,"is_disabled":true,"rental_uris":{"android":"levelo://app?vid=84fd8a9d-d33c-4402-bbe4-001e62a7f660","ios":"levelo://app?vid=84fd8a9d-d33c-4402-bbe4-001e62a7f660"},"vehicle_type_id":"4","last_reported":1741428513,"current_range_meters":400,"station_id":"","pricing_plan_id":"cebpf4jnsgd1na2vs0mg"},{"bike_id":"ed3e56e7-aa50-428a-b4d2-d4394c1cc748","system_id":"levelo_inurba_marseille","lat":43.26571,"lon":5.37322,"is_reserved":false,"is_disabled":true,"rental_uris":{"android":"levelo://app?vid=ed3e56e7-aa50-428a-b4d2-d4394c1cc748","ios":"levelo://app?vid=ed3e56e7-aa50-428a-b4d2-d4394c1cc748"},"vehicle_type_id":"4","last_reported":1741428513,"current_range_meters":400,"station_id":"ce4bhg12rcd13ifvqf70","pricing_plan_id":"cebpf4jnsgd1na2vs0mg"},{"bike_id":"041c15f3-060a-4468-9630-ea1d5e60ead1","system_id":"levelo_inurba_marseille","lat":43.27302,"lon":5.39098,"is_reserved":false,"is_disabled":true,"rental_uris":{"android":"levelo://app?vid=041c15f3-060a-4468-9630-ea1d5e60ead1","ios":"levelo://app?vid=041c15f3-060a-4468-9630-ea1d5e60ead1"},"vehicle_type_id":"4","last_reported":1741428513,"current_range_meters":400,"station_id":"ce4bhgp2rcd13ifvqfe0","pricing_plan_id":"cebpf4jnsgd1na2vs0mg"},{"bike_id":"d572b633-d5af-4df0-87b8-0a5b1819b02b","system_id":"levelo_inurba_marseille","lat":43.24177,"lon":5.39717,"is_reserved":false,"is_disabled":true,"rental_uris":{"android":"levelo://app?vid=d572b633-d5af-4df0-87b8-0a5b1819b02b","ios":"levelo://app?vid=d572b633-d5af-4df0-87b8-0a5b1819b02b"},"vehicle_type_id":"4","last_reported":1741428513,"current_range_meters":400,"station_id":"ce4bhn12rcd13ifvqgpg","pricing_plan_id":"cebpf4jnsgd1na2vs0mg"},{"bike_id":"1854d5bb-0e30-4ee5-8fd8-11d1aaa7167c","system_id":"levelo_inurba_marseille","lat":43.30928,"lon":5.40152,"is_reserved":false,"is_disabled":true,"rental_uris":{"android":"levelo://app?vid=1854d5bb-0e30-4ee5-8fd8-11d1aaa7167c","ios":"levelo://app?vid=1854d5bb-0e30-4ee5-8fd8-11d1aaa7167c"},"vehicle_type_id":"4","last_reported":1741428513,"current_range_meters":800,"station_id":"ce4bgvp2rcd13ifvqct0","pricing_plan_id":"cebpf4jnsgd1na2vs0mg"},{"bike_id":"fa6da118-2c64-4a87-9115-e8fccc33ea5d","system_id":"levelo_inurba_marseille","lat":43.27823,"lon":5.39212,"is_reserved":false,"is_disabled":true,"rental_uris":{"android":"levelo://app?vid=fa6da118-2c64-4a87-9115-e8fccc33ea5d","ios":"levelo://app?vid=fa6da118-2c64-4a87-9115-e8fccc33ea5d"},"vehicle_type_id":"4","last_reported":1741428513,"current_range_meters":800,"station_id":"ce4bhjp2rcd13ifvqga0","pricing_plan_id":"cebpf4jnsgd1na2vs0mg"},{"bike_id":"6a2cba80-c390-45cb-a386-17b5eb2ff411","system_id":"levelo_inurba_marseille","lat":43.2332,"lon":5.36171,"is_reserved":false,"is_disabled":true,"rental_uris":{"android":"levelo://app?vid=6a2cba80-c390-45cb-a386-17b5eb2ff411","ios":"levelo://app?vid=6a2cba80-c390-45cb-a386-17b5eb2ff411"},"vehicle_type_id":"4","last_reported":1741428513,"current_range_meters":1200,"station_id":"","pricing_plan_id":"cebpf4jnsgd1na2vs0mg"},{"bike_id":"3720e6df-c387-4f14-abc4-374f466c131f","system_id":"levelo_inurba_marseille","lat":43.23958,"lon":5.36632,"is_reserved":false,"is_disabled":true,"rental_uris":{"android":"levelo://app?vid=3720e6df-c387-4f14-abc4-374f466c131f","ios":"levelo://app?vid=3720e6df-c387-4f14-abc4-374f466c131f"},"vehicle_type_id":"4","last_reported":1741428513,"current_range_meters":1600,"station_id":"ce4bhi12rcd13ifvqfp0","pricing_plan_id":"cebpf4jnsgd1na2vs0mg"},{"bike_id":"398bcbcb-1f0f-408a-9eef-4c84f3b45bd6","system_id":"levelo_inurba_marseille","lat":43.2594,"lon":5.40903,"is_reserved":false,"is_disabled":true,"rental_uris":{"android":"levelo://app?vid=398bcbcb-1f0f-408a-9eef-4c84f3b45bd6","ios":"levelo://app?vid=398bcbcb-1f0f-408a-9eef-4c84f3b45bd6"},"vehicle_type_id":"4","last_reported":1741428513,"current_range_meters":1600,"station_id":"ce4bhm92rcd13ifvqglg","pricing_plan_id":"cebpf4jnsgd1na2vs0mg"},{"bike_id":"23b75f72-8aec-4a53-ad07-ed2e5f2358de","system_id":"levelo_inurba_marseille","lat":43.32466,"lon":5.36586,"is_reserved":false,"is_disabled":true,"rental_uris":{"android":"levelo://app?vid=23b75f72-8aec-4a53-ad07-ed2e5f2358de","ios":"levelo://app?vid=23b75f72-8aec-4a53-ad07-ed2e5f2358de"},"vehicle_type_id":"4","last_reported":1741428513,"current_range_meters":1600,"station_id":"ce4bhs12rcd13ifvqhvg","pricing_plan_id":"cebpf4jnsgd1na2vs0mg"},{"bike_id":"6afee792-b8c0-44c7-8804-f2d684e481c0","system_id":"levelo_inurba_marseille","lat":43.29412,"lon":5.38629,"is_reserved":false,"is_disabled":true,"rental_uris":{"android":"levelo://app?vid=6afee792-b8c0-44c7-8804-f2d684e481c0","ios":"levelo://app?vid=6afee792-b8c0-44c7-8804-f2d684e481c0"},"vehicle_type_id":"4","last_reported":1741428513,"current_range_meters":2000,"station_id":"ce4bh2h2rcd13ifvqdh0","pricing_plan_id":"cebpf4jnsgd1na2vs0mg"},{"bike_id":"914bbafb-3768-41ed-9924-1947bd4ab869","system_id":"levelo_inurba_marseille","lat":43.30147,"lon":5.38391,"is_reserved":false,"is_disabled":false,"rental_uris":{"android":"levelo://app?vid=914bbafb-3768-41ed-9924-1947bd4ab869","ios":"levelo://app?vid=914bbafb-3768-41ed-9924-1947bd4ab869"},"vehicle_type_id":"4","last_reported":1741428513,"current_range_meters":2800,"station_id":"","pricing_plan_id":"cebpf4jnsgd1na2vs0mg"},{"bike_id":"b22dbda2-c210-470a-a71e-6f4e283deb84","system_id":"levelo_inurba_marseille","lat":43.24545,"lon":5.39523,"is_reserved":false,"is_disabled":false,"rental_uris":{"android":"levelo://app?vid=b22dbda2-c210-470a-a71e-6f4e283deb84","ios":"levelo://app?vid=b22dbda2-c210-470a-a71e-6f4e283deb84"},"vehicle_type_id":"4","last_reported":1741428513,"current_range_meters":2800,"station_id":"ce4bhlp2rcd13ifvqgjg","pricing_plan_id":"cebpf4jnsgd1na2vs0mg"},{"bike_id":"0c339209-f8b5-41e6-8b08-67f692b6b7a8","system_id":"levelo_inurba_marseille","lat":43.33025,"lon":5.39047,"is_reserved":false,"is_disabled":false,"rental_uris":{"android":"levelo://app?vid=0c339209-f8b5-41e6-8b08-67f692b6b7a8","ios":"levelo://app?vid=0c339209-f8b5-41e6-8b08-67f692b6b7a8"},"vehicle_type_id":"4","last_reported":1741428513,"current_range_meters":2800,"station_id":"ce4bhr92rcd13ifvqhrg","pricing_plan_id":"cebpf4jnsgd1na2vs0mg"},{"bike_id":"24df224d-ffa5-472e-acc0-380979001d96","system_id":"levelo_inurba_marseille","lat":43.257194,"lon":5.411126,"is_reserved":false,"is_disabled":false,"rental_uris":{"android":"levelo://app?vid=24df224d-ffa5-472e-acc0-380979001d96","ios":"levelo://app?vid=24df224d-ffa5-472e-acc0-380979001d96"},"vehicle_type_id":"4","last_reported":1741428513,"current_range_meters":3200,"station_id":"ce4bhkp2rcd13ifvqgd0","pricing_plan_id":"cebpf4jnsgd1na2vs0mg"},{"bike_id":"c5d9a748-fb84-4751-9008-dc4467d9ed9a","system_id":"levelo_inurba_marseille","lat":43.23207,"lon":5.35562,"is_reserved":false,"is_disabled":false,"rental_uris":{"android":"levelo://app?vid=c5d9a748-fb84-4751-9008-dc4467d9ed9a","ios":"levelo://app?vid=c5d9a748-fb84-4751-9008-dc4467d9ed9a"},"vehicle_type_id":"4","last_reported":1741428513,"current_range_meters":3200,"station_id":"ce4bhu92rcd13ifvqi70","pricing_plan_id":"cebpf4jnsgd1na2vs0mg"},{"bike_id":"5a7dcbc3-86d4-4d96-8819-bfde5635cd39","system_id":"levelo_inurba_marseille","lat":43.313244,"lon":5.397008,"is_reserved":false,"is_disabled":false,"rental_uris":{"android":"levelo://app?vid=5a7dcbc3-86d4-4d96-8819-bfde5635cd39","ios":"levelo://app?vid=5a7dcbc3-86d4-4d96-8819-bfde5635cd39"},"vehicle_type_id":"4","last_reported":1741428513,"current_range_meters":3600,"station_id":"ce4bgvp2rcd13ifvqcu0","pricing_plan_id":"cebpf4jnsgd1na2vs0mg"},{"bike_id":"c9151ceb-fd35-4b40-9877-b7757062111e","system_id":"levelo_inurba_marseille","lat":43.27805,"lon":5.40704,"is_reserved":false,"is_disabled":false,"rental_uris":{"android":"levelo://app?vid=c9151ceb-fd35-4b40-9877-b7757062111e","ios":"levelo://app?vid=c9151ceb-fd35-4b40-9877-b7757062111e"},"vehicle_type_id":"4","last_reported":1741428513,"current_range_meters":3600,"station_id":"ce4bhnh2rcd13ifvqgtg","pricing_plan_id":"cebpf4jnsgd1na2vs0mg"},{"bike_id":"3763ca09-281c-481c-9755-79dce3edd104","system_id":"levelo_inurba_marseille","lat":43.3201,"lon":5.38156,"is_reserved":false,"is_disabled":false,"rental_uris":{"android":"levelo://app?vid=3763ca09-281c-481c-9755-79dce3edd104","ios":"levelo://app?vid=3763ca09-281c-481c-9755-79dce3edd104"},"vehicle_type_id":"4","last_reported":1741428513,"current_range_meters":3600,"station_id":"ce4bhr12rcd13ifvqhpg","pricing_plan_id":"cebpf4jnsgd1na2vs0mg"},{"bike_id":"ec10e820-64fd-41f7-b6f7-7e18c7b10635","system_id":"levelo_inurba_marseille","lat":43.30463,"lon":5.37903,"is_reserved":false,"is_disabled":false,"rental_uris":{"android":"levelo://app?vid=ec10e820-64fd-41f7-b6f7-7e18c7b10635","ios":"levelo://app?vid=ec10e820-64fd-41f7-b6f7-7e18c7b10635"},"vehicle_type_id":"4","last_reported":1741428513,"current_range_meters":4000,"station_id":"ce4bgup2rcd13ifvqcn0","pricing_plan_id":"cebpf4jnsgd1na2vs0mg"},{"bike_id":"8495c3cf-a59e-44b5-abd2-e8e604b025a5","system_id":"levelo_inurba_marseille","lat":43.2668,"lon":5.38267,"is_reserved":false,"is_disabled":false,"rental_uris":{"android":"levelo://app?vid=8495c3cf-a59e-44b5-abd2-e8e604b025a5","ios":"levelo://app?vid=8495c3cf-a59e-44b5-abd2-e8e604b025a5"},"vehicle_type_id":"4","last_reported":1741428513,"current_range_meters":4000,"station_id":"ce4bhg92rcd13ifvqf90","pricing_plan_id":"cebpf4jnsgd1na2vs0mg"},{"bike_id":"0d28db34-88c7-4e8d-9eb0-a5cb539c41bb","system_id":"levelo_inurba_marseille","lat":43.23963,"lon":5.36635,"is_reserved":false,"is_disabled":false,"rental_uris":{"android":"levelo://app?vid=0d28db34-88c7-4e8d-9eb0-a5cb539c41bb","ios":"levelo://app?vid=0d28db34-88c7-4e8d-9eb0-a5cb539c41bb"},"vehicle_type_id":"4","last_reported":1741428513,"current_range_meters":4000,"station_id":"ce4bhi12rcd13ifvqfp0","pricing_plan_id":"cebpf4jnsgd1na2vs0mg"},{"bike_id":"e82b73a7-d1ae-43c3-a107-e0b413d5ff48","system_id":"levelo_inurba_marseille","lat":43.32657,"lon":5.41,"is_reserved":false,"is_disabled":false,"rental_uris":{"android":"levelo://app?vid=e82b73a7-d1ae-43c3-a107-e0b413d5ff48","ios":"levelo://app?vid=e82b73a7-d1ae-43c3-a107-e0b413d5ff48"},"vehicle_type_id":"4","last_reported":1741428513,"current_range_meters":4000,"station_id":"ce4bhpp2rcd13ifvqhgg","pricing_plan_id":"cebpf4jnsgd1na2vs0mg"},{"bike_id":"43bc5e18-7bfb-4e30-b758-942e653f0d5a","system_id":"levelo_inurba_marseille","lat":43.24631,"lon":5.40276,"is_reserved":false,"is_disabled":false,"rental_uris":{"android":"levelo://app?vid=43bc5e18-7bfb-4e30-b758-942e653f0d5a","ios":"levelo://app?vid=43bc5e18-7bfb-4e30-b758-942e653f0d5a"},"vehicle_type_id":"4","last_reported":1741428513,"current_range_meters":4400,"station_id":"","pricing_plan_id":"cebpf4jnsgd1na2vs0mg"},{"bike_id":"bb3cad49-1f44-4ca8-8b53-a9a721609bc8","system_id":"levelo_inurba_marseille","lat":43.31355,"lon":5.39675,"is_reserved":false,"is_disabled":false,"rental_uris":{"android":"levelo://app?vid=bb3cad49-1f44-4ca8-8b53-a9a721609bc8","ios":"levelo://app?vid=bb3cad49-1f44-4ca8-8b53-a9a721609bc8"},"vehicle_type_id":"4","last_reported":1741428513,"current_range_meters":4400,"station_id":"ce4bgvp2rcd13ifvqcu0","pricing_plan_id":"cebpf4jnsgd1na2vs0mg"},{"bike_id":"6e55cb3d-1337-4aba-a677-1ed7fedf215a","system_id":"levelo_inurba_marseille","lat":43.26562,"lon":5.37283,"is_reserved":false,"is_disabled":false,"rental_uris":{"android":"levelo://app?vid=6e55cb3d-1337-4aba-a677-1ed7fedf215a","ios":"levelo://app?vid=6e55cb3d-1337-4aba-a677-1ed7fedf215a"},"vehicle_type_id":"4","last_reported":1741428513,"current_range_meters":4400,"station_id":"ce4bhg12rcd13ifvqf70","pricing_plan_id":"cebpf4jnsgd1na2vs0mg"},{"bike_id":"143b74fc-ab7b-4910-8495-ffc1ad22971d","system_id":"levelo_inurba_marseille","lat":43.25004,"lon":5.38932,"is_reserved":false,"is_disabled":false,"rental_uris":{"android":"levelo://app?vid=143b74fc-ab7b-4910-8495-ffc1ad22971d","ios":"levelo://app?vid=143b74fc-ab7b-4910-8495-ffc1ad22971d"},"vehicle_type_id":"4","last_reported":1741428513,"current_range_meters":4400,"station_id":"ce4bhgp2rcd13ifvqfd0","pricing_plan_id":"cebpf4jnsgd1na2vs0mg"},{"bike_id":"9d7de3e2-2e90-422b-8846-adb219c27a34","system_id":"levelo_inurba_marseille","lat":43.24665,"lon":5.38164,"is_reserved":false,"is_disabled":false,"rental_uris":{"android":"levelo://app?vid=9d7de3e2-2e90-422b-8846-adb219c27a34","ios":"levelo://app?vid=9d7de3e2-2e90-422b-8846-adb219c27a34"},"vehicle_type_id":"4","last_reported":1741428513,"current_range_meters":4400,"station_id":"ce4bhih2rcd13ifvqfr0","pricing_plan_id":"cebpf4jnsgd1na2vs0mg"},{"bike_id":"3332297b-ddda-468e-86eb-33cdac2c9b94","system_id":"levelo_inurba_marseille","lat":43.30389,"lon":5.41892,"is_reserved":false,"is_disabled":false,"rental_uris":{"android":"levelo://app?vid=3332297b-ddda-468e-86eb-33cdac2c9b94","ios":"levelo://app?vid=3332297b-ddda-468e-86eb-33cdac2c9b94"},"vehicle_type_id":"4","last_reported":1741428513,"current_range_meters":4400,"station_id":"ce4bhop2rcd13ifvqh7g","pricing_plan_id":"cebpf4jnsgd1na2vs0mg"},{"bike_id":"c7b856f3-5384-43d0-9239-d897a865fee4","system_id":"levelo_inurba_marseille","lat":43.2306,"lon":5.35497,"is_reserved":false,"is_disabled":false,"rental_uris":{"android":"levelo://app?vid=c7b856f3-5384-43d0-9239-d897a865fee4","ios":"levelo://app?vid=c7b856f3-5384-43d0-9239-d897a865fee4"},"vehicle_type_id":"4","last_reported":1741428513,"current_range_meters":4400,"station_id":"cpo3342slgdg3j2ifvpg","pricing_plan_id":"cebpf4jnsgd1na2vs0mg"},{"bike_id":"53ba06d6-3b6c-4f49-bc80-8f7e1937ded3","system_id":"levelo_inurba_marseille","lat":43.27921,"lon":5.41242,"is_reserved":false,"is_disabled":false,"rental_uris":{"android":"levelo://app?vid=53ba06d6-3b6c-4f49-bc80-8f7e1937ded3","ios":"levelo://app?vid=53ba06d6-3b6c-4f49-bc80-8f7e1937ded3"},"vehicle_type_id":"4","last_reported":1741428513,"current_range_meters":4800,"station_id":"","pricing_plan_id":"cebpf4jnsgd1na2vs0mg"},{"bike_id":"07ef0988-ff49-442c-a938-0dcb18e77445","system_id":"levelo_inurba_marseille","lat":43.2963,"lon":5.40592,"is_reserved":false,"is_disabled":false,"rental_uris":{"android":"levelo://app?vid=07ef0988-ff49-442c-a938-0dcb18e77445","ios":"levelo://app?vid=07ef0988-ff49-442c-a938-0dcb18e77445"},"vehicle_type_id":"4","last_reported":1741428513,"current_range_meters":4800,"station_id":"ce4bh0h2rcd13ifvqd60","pricing_plan_id":"cebpf4jnsgd1na2vs0mg"},{"bike_id":"b2193fbc-4d44-4184-baf1-7082e240db83","system_id":"levelo_inurba_marseille","lat":43.2293,"lon":5.35376,"is_reserved":false,"is_disabled":false,"rental_uris":{"android":"levelo://app?vid=b2193fbc-4d44-4184-baf1-7082e240db83","ios":"levelo://app?vid=b2193fbc-4d44-4184-baf1-7082e240db83"},"vehicle_type_id":"4","last_reported":1741428513,"current_range_meters":4800,"station_id":"cpo3532slgdg3j2ikp40","pricing_plan_id":"cebpf4jnsgd1na2vs0mg"},{"bike_id":"72ad35d5-229e-4395-b775-8a505aad1b5e","system_id":"levelo_inurba_marseille","lat":43.27608,"lon":5.36116,"is_reserved":false,"is_disabled":false,"rental_uris":{"android":"levelo://app?vid=72ad35d5-229e-4395-b775-8a505aad1b5e","ios":"levelo://app?vid=72ad35d5-229e-4395-b775-8a505aad1b5e"},"vehicle_type_id":"4","last_reported":1741428513,"current_range_meters":5600,"station_id":"ce4bgj92rcd13ifvqbe0","pricing_plan_id":"cebpf4jnsgd1na2vs0mg"},{"bike_id":"0716ed04-938e-4dcd-a63a-17cc415111ed","system_id":"levelo_inurba_marseille","lat":43.28484,"lon":5.38417,"is_reserved":false,"is_disabled":false,"rental_uris":{"android":"levelo://app?vid=0716ed04-938e-4dcd-a63a-17cc415111ed","ios":"levelo://app?vid=0716ed04-938e-4dcd-a63a-17cc415111ed"},"vehicle_type_id":"4","last_reported":1741428513,"current_range_meters":6000,"station_id":"ce4bh512rcd13ifvqe3g","pricing_plan_id":"cebpf4jnsgd1na2vs0mg"},{"bike_id":"4afdbfd0-98cd-490e-8f08-f8fabefa21b1","system_id":"levelo_inurba_marseille","lat":43.23956,"lon":5.36644,"is_reserved":false,"is_disabled":false,"rental_uris":{"android":"levelo://app?vid=4afdbfd0-98cd-490e-8f08-f8fabefa21b1","ios":"levelo://app?vid=4afdbfd0-98cd-490e-8f08-f8fabefa21b1"},"vehicle_type_id":"4","last_reported":1741428513,"current_range_meters":6400,"station_id":"ce4bhi12rcd13ifvqfp0","pricing_plan_id":"cebpf4jnsgd1na2vs0mg"},{"bike_id":"54868156-3501-4485-b64a-600156c1037f","system_id":"levelo_inurba_marseille","lat":43.24673,"lon":5.38162,"is_reserved":false,"is_disabled":false,"rental_uris":{"android":"levelo://app?vid=54868156-3501-4485-b64a-600156c1037f","ios":"levelo://app?vid=54868156-3501-4485-b64a-600156c1037f"},"vehicle_type_id":"4","last_reported":1741428513,"current_range_meters":6400,"station_id":"ce4bhih2rcd13ifvqfr0","pricing_plan_id":"cebpf4jnsgd1na2vs0mg"},{"bike_id":"b2cada68-d22d-4962-a15a-eab832155af1","system_id":"levelo_inurba_marseille","lat":43.31361,"lon":5.39651,"is_reserved":false,"is_disabled":false,"rental_uris":{"android":"levelo://app?vid=b2cada68-d22d-4962-a15a-eab832155af1","ios":"levelo://app?vid=b2cada68-d22d-4962-a15a-eab832155af1"},"vehicle_type_id":"4","last_reported":1741428513,"current_range_meters":6800,"station_id":"ce4bgvp2rcd13ifvqcu0","pricing_plan_id":"cebpf4jnsgd1na2vs0mg"},{"bike_id":"51510a95-54e3-4b84-9b22-bfa3391426f3","system_id":"levelo_inurba_marseille","lat":43.231916,"lon":5.355569,"is_reserved":false,"is_disabled":false,"rental_uris":{"android":"levelo://app?vid=51510a95-54e3-4b84-9b22-bfa3391426f3","ios":"levelo://app?vid=51510a95-54e3-4b84-9b22-bfa3391426f3"},"vehicle_type_id":"4","last_reported":1741428513,"current_range_meters":6800,"station_id":"ce4bhu92rcd13ifvqi70","pricing_plan_id":"cebpf4jnsgd1na2vs0mg"},{"bike_id":"62391f34-3130-43d3-9ff9-87e80b4db075","system_id":"levelo_inurba_marseille","lat":43.32135,"lon":5.36772,"is_reserved":false,"is_disabled":false,"rental_uris":{"android":"levelo://app?vid=62391f34-3130-43d3-9ff9-87e80b4db075","ios":"levelo://app?vid=62391f34-3130-43d3-9ff9-87e80b4db075"},"vehicle_type_id":"4","last_reported":1741428513,"current_range_meters":7200,"station_id":"","pricing_plan_id":"cebpf4jnsgd1na2vs0mg"},{"bike_id":"904a8371-ebed-45e5-8cc3-b64b65860481","system_id":"levelo_inurba_marseille","lat":43.31702,"lon":5.37778,"is_reserved":false,"is_disabled":false,"rental_uris":{"android":"levelo://app?vid=904a8371-ebed-45e5-8cc3-b64b65860481","ios":"levelo://app?vid=904a8371-ebed-45e5-8cc3-b64b65860481"},"vehicle_type_id":"4","last_reported":1741428513,"current_range_meters":7200,"station_id":"ce4bgth2rcd13ifvqch0","pricing_plan_id":"cebpf4jnsgd1na2vs0mg"},{"bike_id":"d9708d6d-83b9-47c9-a90c-62bff4505670","system_id":"levelo_inurba_marseille","lat":43.2749,"lon":5.4246,"is_reserved":false,"is_disabled":false,"rental_uris":{"android":"levelo://app?vid=d9708d6d-83b9-47c9-a90c-62bff4505670","ios":"levelo://app?vid=d9708d6d-83b9-47c9-a90c-62bff4505670"},"vehicle_type_id":"4","last_reported":1741428513,"current_range_meters":7200,"station_id":"ce4bhn92rcd13ifvqgrg","pricing_plan_id":"cebpf4jnsgd1na2vs0mg"},{"bike_id":"3f98584e-5ad0-423e-b2d6-5a89bfdb6a47","system_id":"levelo_inurba_marseille","lat":43.31367,"lon":5.3849,"is_reserved":false,"is_disabled":false,"rental_uris":{"android":"levelo://app?vid=3f98584e-5ad0-423e-b2d6-5a89bfdb6a47","ios":"levelo://app?vid=3f98584e-5ad0-423e-b2d6-5a89bfdb6a47"},"vehicle_type_id":"4","last_reported":1741428513,"current_range_meters":8000,"station_id":"ce4bgt92rcd13ifvqcf0","pricing_plan_id":"cebpf4jnsgd1na2vs0mg"},{"bike_id":"57a062bd-39ac-4dcc-a9a6-c2caa45e6924","system_id":"levelo_inurba_marseille","lat":43.30941,"lon":5.39059,"is_reserved":false,"is_disabled":false,"rental_uris":{"android":"levelo://app?vid=57a062bd-39ac-4dcc-a9a6-c2caa45e6924","ios":"levelo://app?vid=57a062bd-39ac-4dcc-a9a6-c2caa45e6924"},"vehicle_type_id":"4","last_reported":1741428513,"current_range_meters":8000,"station_id":"ce4bgup2rcd13ifvqco0","pricing_plan_id":"cebpf4jnsgd1na2vs0mg"},{"bike_id":"2cc8aa05-e7ba-4c0c-8e88-67537e60239e","system_id":"levelo_inurba_marseille","lat":43.31277,"lon":5.40168,"is_reserved":false,"is_disabled":false,"rental_uris":{"android":"levelo://app?vid=2cc8aa05-e7ba-4c0c-8e88-67537e60239e","ios":"levelo://app?vid=2cc8aa05-e7ba-4c0c-8e88-67537e60239e"},"vehicle_type_id":"4","last_reported":1741428513,"current_range_meters":8000,"station_id":"ce4bh092rcd13ifvqd30","pricing_plan_id":"cebpf4jnsgd1na2vs0mg"},{"bike_id":"6cb73f5d-ac48-4c3a-8024-c1d3532de501","system_id":"levelo_inurba_marseille","lat":43.28033,"lon":5.36941,"is_reserved":false,"is_disabled":false,"rental_uris":{"android":"levelo://app?vid=6cb73f5d-ac48-4c3a-8024-c1d3532de501","ios":"levelo://app?vid=6cb73f5d-ac48-4c3a-8024-c1d3532de501"},"vehicle_type_id":"4","last_reported":1741428513,"current_range_meters":8000,"station_id":"ce4bha12rcd13ifvqef0","pricing_plan_id":"cebpf4jnsgd1na2vs0mg"},{"bike_id":"086d469f-dff5-4ec5-8e53-42a42c799cc9","system_id":"levelo_inurba_marseille","lat":43.295547,"lon":5.422944,"is_reserved":false,"is_disabled":false,"rental_uris":{"android":"levelo://app?vid=086d469f-dff5-4ec5-8e53-42a42c799cc9","ios":"levelo://app?vid=086d469f-dff5-4ec5-8e53-42a42c799cc9"},"vehicle_type_id":"4","last_reported":1741428513,"current_range_meters":8000,"station_id":"ce4bhph2rcd13ifvqhdg","pricing_plan_id":"cebpf4jnsgd1na2vs0mg"},{"bike_id":"59ef7ab1-f072-4315-9e2a-a3482cc569d5","system_id":"levelo_inurba_marseille","lat":43.29897,"lon":5.43664,"is_reserved":false,"is_disabled":false,"rental_uris":{"android":"levelo://app?vid=59ef7ab1-f072-4315-9e2a-a3482cc569d5","ios":"levelo://app?vid=59ef7ab1-f072-4315-9e2a-a3482cc569d5"},"vehicle_type_id":"4","last_reported":1741428513,"current_range_meters":8000,"station_id":"ce4bhpp2rcd13ifvqhfg","pricing_plan_id":"cebpf4jnsgd1na2vs0mg"},{"bike_id":"bd1ca430-15b2-40f5-ab85-6f767aed8061","system_id":"levelo_inurba_marseille","lat":43.23046,"lon":5.3552,"is_reserved":false,"is_disabled":false,"rental_uris":{"android":"levelo://app?vid=bd1ca430-15b2-40f5-ab85-6f767aed8061","ios":"levelo://app?vid=bd1ca430-15b2-40f5-ab85-6f767aed8061"},"vehicle_type_id":"4","last_reported":1741428513,"current_range_meters":8000,"station_id":"cpo3342slgdg3j2ifvpg","pricing_plan_id":"cebpf4jnsgd1na2vs0mg"},{"bike_id":"7b62c62b-d961-49e1-afe1-b0b21a291801","system_id":"levelo_inurba_marseille","lat":43.2787,"lon":5.41749,"is_reserved":false,"is_disabled":false,"rental_uris":{"android":"levelo://app?vid=7b62c62b-d961-49e1-afe1-b0b21a291801","ios":"levelo://app?vid=7b62c62b-d961-49e1-afe1-b0b21a291801"},"vehicle_type_id":"4","last_reported":1741428513,"current_range_meters":8400,"station_id":"","pricing_plan_id":"cebpf4jnsgd1na2vs0mg"},{"bike_id":"a98ec2f5-e286-477c-9204-bbdc3c9d151d","system_id":"levelo_inurba_marseille","lat":43.29291,"lon":5.37439,"is_reserved":false,"is_disabled":false,"rental_uris":{"android":"levelo://app?vid=a98ec2f5-e286-477c-9204-bbdc3c9d151d","ios":"levelo://app?vid=a98ec2f5-e286-477c-9204-bbdc3c9d151d"},"vehicle_type_id":"4","last_reported":1741428513,"current_range_meters":8400,"station_id":"ce4bgi12rcd13ifvqb70","pricing_plan_id":"cebpf4jnsgd1na2vs0mg"},{"bike_id":"4670d8b4-1fd0-4e1d-9a1b-407bf705690e","system_id":"levelo_inurba_marseille","lat":43.29799,"lon":5.38051,"is_reserved":false,"is_disabled":false,"rental_uris":{"android":"levelo://app?vid=4670d8b4-1fd0-4e1d-9a1b-407bf705690e","ios":"levelo://app?vid=4670d8b4-1fd0-4e1d-9a1b-407bf705690e"},"vehicle_type_id":"4","last_reported":1741428513,"current_range_meters":8400,"station_id":"ce4bgip2rcd13ifvqbb0","pricing_plan_id":"cebpf4jnsgd1na2vs0mg"},{"bike_id":"5bf97ae3-2df7-4e00-adac-cd08f3c62be4","system_id":"levelo_inurba_marseille","lat":43.26949,"lon":5.38625,"is_reserved":false,"is_disabled":false,"rental_uris":{"android":"levelo://app?vid=5bf97ae3-2df7-4e00-adac-cd08f3c62be4","ios":"levelo://app?vid=5bf97ae3-2df7-4e00-adac-cd08f3c62be4"},"vehicle_type_id":"4","last_reported":1741428513,"current_range_meters":8400,"station_id":"ce4bhh92rcd13ifvqfh0","pricing_plan_id":"cebpf4jnsgd1na2vs0mg"},{"bike_id":"2ecb7199-e931-4fbf-8923-dc54abbab8ef","system_id":"levelo_inurba_marseille","lat":43.22903,"lon":5.35394,"is_reserved":false,"is_disabled":false,"rental_uris":{"android":"levelo://app?vid=2ecb7199-e931-4fbf-8923-dc54abbab8ef","ios":"levelo://app?vid=2ecb7199-e931-4fbf-8923-dc54abbab8ef"},"vehicle_type_id":"4","last_reported":1741428513,"current_range_meters":8400,"station_id":"cpo3532slgdg3j2ikp40","pricing_plan_id":"cebpf4jnsgd1na2vs0mg"},{"bike_id":"daa48c53-c5de-46aa-94fc-655cbd710c8c","system_id":"levelo_inurba_marseille","lat":43.22935,"lon":5.35381,"is_reserved":false,"is_disabled":false,"rental_uris":{"android":"levelo://app?vid=daa48c53-c5de-46aa-94fc-655cbd710c8c","ios":"levelo://app?vid=daa48c53-c5de-46aa-94fc-655cbd710c8c"},"vehicle_type_id":"4","last_reported":1741428513,"current_range_meters":8400,"station_id":"cpo3532slgdg3j2ikp40","pricing_plan_id":"cebpf4jnsgd1na2vs0mg"},{"bike_id":"60fba7df-4520-4d63-9c5b-9a7a002cedfb","system_id":"levelo_inurba_marseille","lat":43.28033,"lon":5.391297,"is_reserved":false,"is_disabled":false,"rental_uris":{"android":"levelo://app?vid=60fba7df-4520-4d63-9c5b-9a7a002cedfb","ios":"levelo://app?vid=60fba7df-4520-4d63-9c5b-9a7a002cedfb"},"vehicle_type_id":"4","last_reported":1741428513,"current_range_meters":8800,"station_id":"","pricing_plan_id":"cebpf4jnsgd1na2vs0mg"},{"bike_id":"6e495f08-0359-415b-a6d0-7827c5b65999","system_id":"levelo_inurba_marseille","lat":43.31048,"lon":5.38369,"is_reserved":false,"is_disabled":false,"rental_uris":{"android":"levelo://app?vid=6e495f08-0359-415b-a6d0-7827c5b65999","ios":"levelo://app?vid=6e495f08-0359-415b-a6d0-7827c5b65999"},"vehicle_type_id":"4","last_reported":1741428513,"current_range_meters":8800,"station_id":"ce4bgv92rcd13ifvqcr0","pricing_plan_id":"cebpf4jnsgd1na2vs0mg"},{"bike_id":"2f7d9f34-8c81-40c4-9800-77242899a452","system_id":"levelo_inurba_marseille","lat":43.26552,"lon":5.37299,"is_reserved":false,"is_disabled":false,"rental_uris":{"android":"levelo://app?vid=2f7d9f34-8c81-40c4-9800-77242899a452","ios":"levelo://app?vid=2f7d9f34-8c81-40c4-9800-77242899a452"},"vehicle_type_id":"4","last_reported":1741428513,"current_range_meters":8800,"station_id":"ce4bhg12rcd13ifvqf70","pricing_plan_id":"cebpf4jnsgd1na2vs0mg"},{"bike_id":"1afdf865-9f6c-4bea-99fe-f8f2d36b2395","system_id":"levelo_inurba_marseille","lat":43.262043,"lon":5.379255,"is_reserved":false,"is_disabled":false,"rental_uris":{"android":"levelo://app?vid=1afdf865-9f6c-4bea-99fe-f8f2d36b2395","ios":"levelo://app?vid=1afdf865-9f6c-4bea-99fe-f8f2d36b2395"},"vehicle_type_id":"4","last_reported":1741428513,"current_range_meters":8800,"station_id":"ce4bhjp2rcd13ifvqg90","pricing_plan_id":"cebpf4jnsgd1na2vs0mg"},{"bike_id":"4ce1148f-94dc-4742-8f6c-b798d2b0023b","system_id":"levelo_inurba_marseille","lat":43.27987,"lon":5.41656,"is_reserved":false,"is_disabled":false,"rental_uris":{"android":"levelo://app?vid=4ce1148f-94dc-4742-8f6c-b798d2b0023b","ios":"levelo://app?vid=4ce1148f-94dc-4742-8f6c-b798d2b0023b"},"vehicle_type_id":"4","last_reported":1741428513,"current_range_meters":8800,"station_id":"ce4bho12rcd13ifvqh1g","pricing_plan_id":"cebpf4jnsgd1na2vs0mg"},{"bike_id":"01a6afe2-d645-4130-8890-22799000c76a","system_id":"levelo_inurba_marseille","lat":43.27993,"lon":5.40022,"is_reserved":false,"is_disabled":false,"rental_uris":{"android":"levelo://app?vid=01a6afe2-d645-4130-8890-22799000c76a","ios":"levelo://app?vid=01a6afe2-d645-4130-8890-22799000c76a"},"vehicle_type_id":"4","last_reported":1741428513,"current_range_meters":8800,"station_id":"ce4bho92rcd13ifvqh4g","pricing_plan_id":"cebpf4jnsgd1na2vs0mg"},{"bike_id":"cbf0227f-ed2e-48cd-a1df-9d824882c0c4","system_id":"levelo_inurba_marseille","lat":43.23066,"lon":5.35492,"is_reserved":false,"is_disabled":false,"rental_uris":{"android":"levelo://app?vid=cbf0227f-ed2e-48cd-a1df-9d824882c0c4","ios":"levelo://app?vid=cbf0227f-ed2e-48cd-a1df-9d824882c0c4"},"vehicle_type_id":"4","last_reported":1741428513,"current_range_meters":8800,"station_id":"cpo3342slgdg3j2ifvpg","pricing_plan_id":"cebpf4jnsgd1na2vs0mg"},{"bike_id":"a6f5c80b-a199-4dba-a2bc-a099210e18e0","system_id":"levelo_inurba_marseille","lat":43.22928,"lon":5.35381,"is_reserved":false,"is_disabled":false,"rental_uris":{"android":"levelo://app?vid=a6f5c80b-a199-4dba-a2bc-a099210e18e0","ios":"levelo://app?vid=a6f5c80b-a199-4dba-a2bc-a099210e18e0"},"vehicle_type_id":"4","last_reported":1741428513,"current_range_meters":8800,"station_id":"cpo3532slgdg3j2ikp40","pricing_plan_id":"cebpf4jnsgd1na2vs0mg"},{"bike_id":"0e674cb4-f37d-4bd5-aaff-7ec953d386c6","system_id":"levelo_inurba_marseille","lat":43.24173,"lon":5.36401,"is_reserved":false,"is_disabled":false,"rental_uris":{"android":"levelo://app?vid=0e674cb4-f37d-4bd5-aaff-7ec953d386c6","ios":"levelo://app?vid=0e674cb4-f37d-4bd5-aaff-7ec953d386c6"},"vehicle_type_id":"4","last_reported":1741428513,"current_range_meters":9200,"station_id":"cpo36qri1sfpv3e86is0","pricing_plan_id":"cebpf4jnsgd1na2vs0mg"},{"bike_id":"4048f4cb-c79a-4e84-a8e6-068b2a53463d","system_id":"levelo_inurba_marseille","lat":43.29741,"lon":5.394,"is_reserved":false,"is_disabled":false,"rental_uris":{"android":"levelo://app?vid=4048f4cb-c79a-4e84-a8e6-068b2a53463d","ios":"levelo://app?vid=4048f4cb-c79a-4e84-a8e6-068b2a53463d"},"vehicle_type_id":"4","last_reported":1741428513,"current_range_meters":9600,"station_id":"","pricing_plan_id":"cebpf4jnsgd1na2vs0mg"},{"bike_id":"eefe66a8-9b10-4ded-8e0a-619e66601e02","system_id":"levelo_inurba_marseille","lat":43.29616,"lon":5.42608,"is_reserved":false,"is_disabled":false,"rental_uris":{"android":"levelo://app?vid=eefe66a8-9b10-4ded-8e0a-619e66601e02","ios":"levelo://app?vid=eefe66a8-9b10-4ded-8e0a-619e66601e02"},"vehicle_type_id":"4","last_reported":1741428513,"current_range_meters":9600,"station_id":"","pricing_plan_id":"cebpf4jnsgd1na2vs0mg"},{"bike_id":"c4dafe19-8718-4d3e-9392-4d036e728703","system_id":"levelo_inurba_marseille","lat":43.31323,"lon":5.39693,"is_reserved":false,"is_disabled":false,"rental_uris":{"android":"levelo://app?vid=c4dafe19-8718-4d3e-9392-4d036e728703","ios":"levelo://app?vid=c4dafe19-8718-4d3e-9392-4d036e728703"},"vehicle_type_id":"4","last_reported":1741428513,"current_range_meters":9600,"station_id":"ce4bgvp2rcd13ifvqcu0","pricing_plan_id":"cebpf4jnsgd1na2vs0mg"},{"bike_id":"3f4ad881-0613-4afd-b93e-6977f7ef95a2","system_id":"levelo_inurba_marseille","lat":43.27678,"lon":5.38867,"is_reserved":false,"is_disabled":false,"rental_uris":{"android":"levelo://app?vid=3f4ad881-0613-4afd-b93e-6977f7ef95a2","ios":"levelo://app?vid=3f4ad881-0613-4afd-b93e-6977f7ef95a2"},"vehicle_type_id":"4","last_reported":1741428513,"current_range_meters":9600,"station_id":"ce4bhi12rcd13ifvqfo0","pricing_plan_id":"cebpf4jnsgd1na2vs0mg"},{"bike_id":"e524bcef-a391-41b2-bad2-673eae53ea51","system_id":"levelo_inurba_marseille","lat":43.31722,"lon":5.43743,"is_reserved":false,"is_disabled":false,"rental_uris":{"android":"levelo://app?vid=e524bcef-a391-41b2-bad2-673eae53ea51","ios":"levelo://app?vid=e524bcef-a391-41b2-bad2-673eae53ea51"},"vehicle_type_id":"4","last_reported":1741428513,"current_range_meters":9600,"station_id":"ce4bhp92rcd13ifvqhcg","pricing_plan_id":"cebpf4jnsgd1na2vs0mg"},{"bike_id":"ae99eef4-0d01-432b-b9f3-30beda5f0e73","system_id":"levelo_inurba_marseille","lat":43.298979,"lon":5.436713,"is_reserved":false,"is_disabled":false,"rental_uris":{"android":"levelo://app?vid=ae99eef4-0d01-432b-b9f3-30beda5f0e73","ios":"levelo://app?vid=ae99eef4-0d01-432b-b9f3-30beda5f0e73"},"vehicle_type_id":"4","last_reported":1741428513,"current_range_meters":9600,"station_id":"ce4bhpp2rcd13ifvqhfg","pricing_plan_id":"cebpf4jnsgd1na2vs0mg"},{"bike_id":"61c09d27-c86f-4e2c-8748-a08be334f7d7","system_id":"levelo_inurba_marseille","lat":43.32482,"lon":5.36567,"is_reserved":false,"is_disabled":false,"rental_uris":{"android":"levelo://app?vid=61c09d27-c86f-4e2c-8748-a08be334f7d7","ios":"levelo://app?vid=61c09d27-c86f-4e2c-8748-a08be334f7d7"},"vehicle_type_id":"4","last_reported":1741428513,"current_range_meters":9600,"station_id":"ce4bhs12rcd13ifvqhvg","pricing_plan_id":"cebpf4jnsgd1na2vs0mg"},{"bike_id":"ef4f18f0-5d7c-4a79-9401-1da831ec4136","system_id":"levelo_inurba_marseille","lat":43.27369,"lon":5.36254,"is_reserved":false,"is_disabled":false,"rental_uris":{"android":"levelo://app?vid=ef4f18f0-5d7c-4a79-9401-1da831ec4136","ios":"levelo://app?vid=ef4f18f0-5d7c-4a79-9401-1da831ec4136"},"vehicle_type_id":"4","last_reported":1741428513,"current_range_meters":10000,"station_id":"ce4bhbh2rcd13ifvqeo0","pricing_plan_id":"cebpf4jnsgd1na2vs0mg"},{"bike_id":"f434f250-6f3b-4f81-87f7-8be1eb48cad2","system_id":"levelo_inurba_marseille","lat":43.257153,"lon":5.411099,"is_reserved":false,"is_disabled":false,"rental_uris":{"android":"levelo://app?vid=f434f250-6f3b-4f81-87f7-8be1eb48cad2","ios":"levelo://app?vid=f434f250-6f3b-4f81-87f7-8be1eb48cad2"},"vehicle_type_id":"4","last_reported":1741428513,"current_range_meters":10000,"station_id":"ce4bhkp2rcd13ifvqgd0","pricing_plan_id":"cebpf4jnsgd1na2vs0mg"},{"bike_id":"9b8789be-c150-4679-b8ba-e1d5e4639da2","system_id":"levelo_inurba_marseille","lat":43.25692,"lon":5.41092,"is_reserved":false,"is_disabled":false,"rental_uris":{"android":"levelo://app?vid=9b8789be-c150-4679-b8ba-e1d5e4639da2","ios":"levelo://app?vid=9b8789be-c150-4679-b8ba-e1d5e4639da2"},"vehicle_type_id":"4","last_reported":1741428513,"current_range_meters":10000,"station_id":"ce4bhkp2rcd13ifvqgd0","pricing_plan_id":"cebpf4jnsgd1na2vs0mg"},{"bike_id":"11e7fc3b-ed5a-4401-a0af-6e80583f87e8","system_id":"levelo_inurba_marseille","lat":43.27836,"lon":5.40709,"is_reserved":false,"is_disabled":false,"rental_uris":{"android":"levelo://app?vid=11e7fc3b-ed5a-4401-a0af-6e80583f87e8","ios":"levelo://app?vid=11e7fc3b-ed5a-4401-a0af-6e80583f87e8"},"vehicle_type_id":"4","last_reported":1741428513,"current_range_meters":10000,"station_id":"ce4bhnh2rcd13ifvqgtg","pricing_plan_id":"cebpf4jnsgd1na2vs0mg"},{"bike_id":"ba1993c2-4a65-43bb-a1cc-36e375788125","system_id":"levelo_inurba_marseille","lat":43.27996,"lon":5.400125,"is_reserved":false,"is_disabled":false,"rental_uris":{"android":"levelo://app?vid=ba1993c2-4a65-43bb-a1cc-36e375788125","ios":"levelo://app?vid=ba1993c2-4a65-43bb-a1cc-36e375788125"},"vehicle_type_id":"4","last_reported":1741428513,"current_range_meters":10000,"station_id":"ce4bho92rcd13ifvqh4g","pricing_plan_id":"cebpf4jnsgd1na2vs0mg"},{"bike_id":"55eac038-ab0c-411f-8503-d12d9500e797","system_id":"levelo_inurba_marseille","lat":43.323393,"lon":5.406294,"is_reserved":false,"is_disabled":false,"rental_uris":{"android":"levelo://app?vid=55eac038-ab0c-411f-8503-d12d9500e797","ios":"levelo://app?vid=55eac038-ab0c-411f-8503-d12d9500e797"},"vehicle_type_id":"4","last_reported":1741428513,"current_range_meters":10000,"station_id":"ce4bhq92rcd13ifvqhjg","pricing_plan_id":"cebpf4jnsgd1na2vs0mg"},{"bike_id":"fa626757-664e-4c1c-a59d-abffc20f4bf4","system_id":"levelo_inurba_marseille","lat":43.29867,"lon":5.39762,"is_reserved":false,"is_disabled":false,"rental_uris":{"android":"levelo://app?vid=fa626757-664e-4c1c-a59d-abffc20f4bf4","ios":"levelo://app?vid=fa626757-664e-4c1c-a59d-abffc20f4bf4"},"vehicle_type_id":"4","last_reported":1741428513,"current_range_meters":10800,"station_id":"ce4bh0h2rcd13ifvqd50","pricing_plan_id":"cebpf4jnsgd1na2vs0mg"},{"bike_id":"46a5c188-5b19-4928-bbc5-89c890ac45ec","system_id":"levelo_inurba_marseille","lat":43.29627,"lon":5.40598,"is_reserved":false,"is_disabled":false,"rental_uris":{"android":"levelo://app?vid=46a5c188-5b19-4928-bbc5-89c890ac45ec","ios":"levelo://app?vid=46a5c188-5b19-4928-bbc5-89c890ac45ec"},"vehicle_type_id":"4","last_reported":1741428513,"current_range_meters":10800,"station_id":"ce4bh0h2rcd13ifvqd60","pricing_plan_id":"cebpf4jnsgd1na2vs0mg"},{"bike_id":"4971b3ff-261f-40af-8f8b-2369ef77942a","system_id":"levelo_inurba_marseille","lat":43.26566,"lon":5.37306,"is_reserved":false,"is_disabled":false,"rental_uris":{"android":"levelo://app?vid=4971b3ff-261f-40af-8f8b-2369ef77942a","ios":"levelo://app?vid=4971b3ff-261f-40af-8f8b-2369ef77942a"},"vehicle_type_id":"4","last_reported":1741428513,"current_range_meters":11200,"station_id":"ce4bhg12rcd13ifvqf70","pricing_plan_id":"cebpf4jnsgd1na2vs0mg"},{"bike_id":"42a96660-5369-4d1c-976c-242db1fc067b","system_id":"levelo_inurba_marseille","lat":43.27211,"lon":5.39188,"is_reserved":false,"is_disabled":false,"rental_uris":{"android":"levelo://app?vid=42a96660-5369-4d1c-976c-242db1fc067b","ios":"levelo://app?vid=42a96660-5369-4d1c-976c-242db1fc067b"},"vehicle_type_id":"4","last_reported":1741428513,"current_range_meters":11200,"station_id":"ce4bhhp2rcd13ifvqfm0","pricing_plan_id":"cebpf4jnsgd1na2vs0mg"},{"bike_id":"e87fb8f5-d2a2-473a-8ac8-be7a5e3deb8c","system_id":"levelo_inurba_marseille","lat":43.23179,"lon":5.39994,"is_reserved":false,"is_disabled":false,"rental_uris":{"android":"levelo://app?vid=e87fb8f5-d2a2-473a-8ac8-be7a5e3deb8c","ios":"levelo://app?vid=e87fb8f5-d2a2-473a-8ac8-be7a5e3deb8c"},"vehicle_type_id":"4","last_reported":1741428513,"current_range_meters":11200,"station_id":"ce4bhn12rcd13ifvqgqg","pricing_plan_id":"cebpf4jnsgd1na2vs0mg"},{"bike_id":"5832083a-af6c-455b-9dbd-d8b68bd79a1e","system_id":"levelo_inurba_marseille","lat":43.29898,"lon":5.43668,"is_reserved":false,"is_disabled":false,"rental_uris":{"android":"levelo://app?vid=5832083a-af6c-455b-9dbd-d8b68bd79a1e","ios":"levelo://app?vid=5832083a-af6c-455b-9dbd-d8b68bd79a1e"},"vehicle_type_id":"4","last_reported":1741428513,"current_range_meters":11200,"station_id":"ce4bhpp2rcd13ifvqhfg","pricing_plan_id":"cebpf4jnsgd1na2vs0mg"},{"bike_id":"3c7cb629-a989-4010-917f-b6565022dddc","system_id":"levelo_inurba_marseille","lat":43.31334,"lon":5.3971,"is_reserved":false,"is_disabled":false,"rental_uris":{"android":"levelo://app?vid=3c7cb629-a989-4010-917f-b6565022dddc","ios":"levelo://app?vid=3c7cb629-a989-4010-917f-b6565022dddc"},"vehicle_type_id":"4","last_reported":1741428513,"current_range_meters":11600,"station_id":"ce4bgvp2rcd13ifvqcu0","pricing_plan_id":"cebpf4jnsgd1na2vs0mg"},{"bike_id":"f65866ea-210b-43f9-ab09-d4a011bfb709","system_id":"levelo_inurba_marseille","lat":43.27578,"lon":5.38423,"is_reserved":false,"is_disabled":false,"rental_uris":{"android":"levelo://app?vid=f65866ea-210b-43f9-ab09-d4a011bfb709","ios":"levelo://app?vid=f65866ea-210b-43f9-ab09-d4a011bfb709"},"vehicle_type_id":"4","last_reported":1741428513,"current_range_meters":11600,"station_id":"ce4bhh92rcd13ifvqfi0","pricing_plan_id":"cebpf4jnsgd1na2vs0mg"},{"bike_id":"b2c2514d-58df-4080-9acc-0a3325c87525","system_id":"levelo_inurba_marseille","lat":43.32361,"lon":5.36765,"is_reserved":false,"is_disabled":false,"rental_uris":{"android":"levelo://app?vid=b2c2514d-58df-4080-9acc-0a3325c87525","ios":"levelo://app?vid=b2c2514d-58df-4080-9acc-0a3325c87525"},"vehicle_type_id":"4","last_reported":1741428513,"current_range_meters":11600,"station_id":"ce4bhsh2rcd13ifvqi2g","pricing_plan_id":"cebpf4jnsgd1na2vs0mg"},{"bike_id":"30447585-6c03-4b57-97b0-06e621cec8d5","system_id":"levelo_inurba_marseille","lat":43.30119,"lon":5.3985,"is_reserved":false,"is_disabled":false,"rental_uris":{"android":"levelo://app?vid=30447585-6c03-4b57-97b0-06e621cec8d5","ios":"levelo://app?vid=30447585-6c03-4b57-97b0-06e621cec8d5"},"vehicle_type_id":"4","last_reported":1741428513,"current_range_meters":12400,"station_id":"ce4bh0h2rcd13ifvqd40","pricing_plan_id":"cebpf4jnsgd1na2vs0mg"},{"bike_id":"65d2271a-97b5-4913-95aa-cf77a293f0eb","system_id":"levelo_inurba_marseille","lat":43.26022,"lon":5.37551,"is_reserved":false,"is_disabled":false,"rental_uris":{"android":"levelo://app?vid=65d2271a-97b5-4913-95aa-cf77a293f0eb","ios":"levelo://app?vid=65d2271a-97b5-4913-95aa-cf77a293f0eb"},"vehicle_type_id":"4","last_reported":1741428513,"current_range_meters":12400,"station_id":"ce4bhgh2rcd13ifvqfa0","pricing_plan_id":"cebpf4jnsgd1na2vs0mg"},{"bike_id":"fbf804d7-6c73-46e9-abdb-acb74deb6dc4","system_id":"levelo_inurba_marseille","lat":43.23056,"lon":5.35492,"is_reserved":false,"is_disabled":false,"rental_uris":{"android":"levelo://app?vid=fbf804d7-6c73-46e9-abdb-acb74deb6dc4","ios":"levelo://app?vid=fbf804d7-6c73-46e9-abdb-acb74deb6dc4"},"vehicle_type_id":"4","last_reported":1741428513,"current_range_meters":12400,"station_id":"cpo3342slgdg3j2ifvpg","pricing_plan_id":"cebpf4jnsgd1na2vs0mg"},{"bike_id":"015e648a-d1ff-4c6a-9152-7789db5a33c9","system_id":"levelo_inurba_marseille","lat":43.29555,"lon":5.375,"is_reserved":false,"is_disabled":false,"rental_uris":{"android":"levelo://app?vid=015e648a-d1ff-4c6a-9152-7789db5a33c9","ios":"levelo://app?vid=015e648a-d1ff-4c6a-9152-7789db5a33c9"},"vehicle_type_id":"4","last_reported":1741428513,"current_range_meters":12800,"station_id":"ce4bgh92rcd13ifvqb50","pricing_plan_id":"cebpf4jnsgd1na2vs0mg"},{"bike_id":"7f2e78de-23f4-4838-9a10-bd97f26fb6fe","system_id":"levelo_inurba_marseille","lat":43.28613,"lon":5.35103,"is_reserved":false,"is_disabled":false,"rental_uris":{"android":"levelo://app?vid=7f2e78de-23f4-4838-9a10-bd97f26fb6fe","ios":"levelo://app?vid=7f2e78de-23f4-4838-9a10-bd97f26fb6fe"},"vehicle_type_id":"4","last_reported":1741428513,"current_range_meters":12800,"station_id":"ce4bhch2rcd13ifvqeug","pricing_plan_id":"cebpf4jnsgd1na2vs0mg"},{"bike_id":"9c6ab9a3-feb7-430a-a960-261142622847","system_id":"levelo_inurba_marseille","lat":43.33022,"lon":5.39037,"is_reserved":false,"is_disabled":false,"rental_uris":{"android":"levelo://app?vid=9c6ab9a3-feb7-430a-a960-261142622847","ios":"levelo://app?vid=9c6ab9a3-feb7-430a-a960-261142622847"},"vehicle_type_id":"4","last_reported":1741428513,"current_range_meters":12800,"station_id":"ce4bhr92rcd13ifvqhrg","pricing_plan_id":"cebpf4jnsgd1na2vs0mg"},{"bike_id":"c1c412b3-ae23-45ab-894a-fe5b494cc9e6","system_id":"levelo_inurba_marseille","lat":43.23182,"lon":5.35556,"is_reserved":false,"is_disabled":false,"rental_uris":{"android":"levelo://app?vid=c1c412b3-ae23-45ab-894a-fe5b494cc9e6","ios":"levelo://app?vid=c1c412b3-ae23-45ab-894a-fe5b494cc9e6"},"vehicle_type_id":"4","last_reported":1741428513,"current_range_meters":12800,"station_id":"ce4bhu92rcd13ifvqi70","pricing_plan_id":"cebpf4jnsgd1na2vs0mg"},{"bike_id":"f53974f9-72c7-4579-9a0f-11a25d725b12","system_id":"levelo_inurba_marseille","lat":43.29444,"lon":5.39752,"is_reserved":false,"is_disabled":false,"rental_uris":{"android":"levelo://app?vid=f53974f9-72c7-4579-9a0f-11a25d725b12","ios":"levelo://app?vid=f53974f9-72c7-4579-9a0f-11a25d725b12"},"vehicle_type_id":"4","last_reported":1741428513,"current_range_meters":13600,"station_id":"ce4bh3h2rcd13ifvqdo0","pricing_plan_id":"cebpf4jnsgd1na2vs0mg"},{"bike_id":"64801854-a715-4142-b129-a35c3d016949","system_id":"levelo_inurba_marseille","lat":43.29031,"lon":5.37569,"is_reserved":false,"is_disabled":false,"rental_uris":{"android":"levelo://app?vid=64801854-a715-4142-b129-a35c3d016949","ios":"levelo://app?vid=64801854-a715-4142-b129-a35c3d016949"},"vehicle_type_id":"4","last_reported":1741428513,"current_range_meters":13600,"station_id":"ce4bh692rcd13ifvqe90","pricing_plan_id":"cebpf4jnsgd1na2vs0mg"},{"bike_id":"cd64ad34-8fc1-411b-a7ef-ce6957cfbece","system_id":"levelo_inurba_marseille","lat":43.29004,"lon":5.35611,"is_reserved":false,"is_disabled":false,"rental_uris":{"android":"levelo://app?vid=cd64ad34-8fc1-411b-a7ef-ce6957cfbece","ios":"levelo://app?vid=cd64ad34-8fc1-411b-a7ef-ce6957cfbece"},"vehicle_type_id":"4","last_reported":1741428513,"current_range_meters":14000,"station_id":"ce4bhb92rcd13ifvqen0","pricing_plan_id":"cebpf4jnsgd1na2vs0mg"},{"bike_id":"7cc7a644-054d-48a2-858a-56210eecdf73","system_id":"levelo_inurba_marseille","lat":43.27921,"lon":5.3958,"is_reserved":false,"is_disabled":false,"rental_uris":{"android":"levelo://app?vid=7cc7a644-054d-48a2-858a-56210eecdf73","ios":"levelo://app?vid=7cc7a644-054d-48a2-858a-56210eecdf73"},"vehicle_type_id":"4","last_reported":1741428513,"current_range_meters":14000,"station_id":"ce4bhf92rcd13ifvqf40","pricing_plan_id":"cebpf4jnsgd1na2vs0mg"},{"bike_id":"5b3feac3-b03c-46f0-be7e-bd037d3dd045","system_id":"levelo_inurba_marseille","lat":43.25733,"lon":5.41107,"is_reserved":false,"is_disabled":false,"rental_uris":{"android":"levelo://app?vid=5b3feac3-b03c-46f0-be7e-bd037d3dd045","ios":"levelo://app?vid=5b3feac3-b03c-46f0-be7e-bd037d3dd045"},"vehicle_type_id":"4","last_reported":1741428513,"current_range_meters":14000,"station_id":"ce4bhkp2rcd13ifvqgd0","pricing_plan_id":"cebpf4jnsgd1na2vs0mg"},{"bike_id":"19bbe8da-d7df-496e-a677-cbaab925cf5e","system_id":"levelo_inurba_marseille","lat":43.24882,"lon":5.42523,"is_reserved":false,"is_disabled":false,"rental_uris":{"android":"levelo://app?vid=19bbe8da-d7df-496e-a677-cbaab925cf5e","ios":"levelo://app?vid=19bbe8da-d7df-496e-a677-cbaab925cf5e"},"vehicle_type_id":"4","last_reported":1741428513,"current_range_meters":14400,"station_id":"","pricing_plan_id":"cebpf4jnsgd1na2vs0mg"},{"bike_id":"8953e3db-0a7c-4820-82cf-b1a9f1e9d454","system_id":"levelo_inurba_marseille","lat":43.2842,"lon":5.34976,"is_reserved":false,"is_disabled":false,"rental_uris":{"android":"levelo://app?vid=8953e3db-0a7c-4820-82cf-b1a9f1e9d454","ios":"levelo://app?vid=8953e3db-0a7c-4820-82cf-b1a9f1e9d454"},"vehicle_type_id":"4","last_reported":1741428513,"current_range_meters":14400,"station_id":"ce4bhbh2rcd13ifvqepg","pricing_plan_id":"cebpf4jnsgd1na2vs0mg"},{"bike_id":"44a7b3b0-24c5-46e4-b546-8a3a642f13fa","system_id":"levelo_inurba_marseille","lat":43.30537,"lon":5.36559,"is_reserved":false,"is_disabled":false,"rental_uris":{"android":"levelo://app?vid=44a7b3b0-24c5-46e4-b546-8a3a642f13fa","ios":"levelo://app?vid=44a7b3b0-24c5-46e4-b546-8a3a642f13fa"},"vehicle_type_id":"4","last_reported":1741428513,"current_range_meters":15200,"station_id":"ce4bgs12rcd13ifvqcag","pricing_plan_id":"cebpf4jnsgd1na2vs0mg"},{"bike_id":"f5bc50e0-18ac-466f-a238-faccbb25bd95","system_id":"levelo_inurba_marseille","lat":43.30336,"lon":5.40436,"is_reserved":false,"is_disabled":false,"rental_uris":{"android":"levelo://app?vid=f5bc50e0-18ac-466f-a238-faccbb25bd95","ios":"levelo://app?vid=f5bc50e0-18ac-466f-a238-faccbb25bd95"},"vehicle_type_id":"4","last_reported":1741428513,"current_range_meters":15200,"station_id":"ce4bh012rcd13ifvqd10","pricing_plan_id":"cebpf4jnsgd1na2vs0mg"},{"bike_id":"860415d1-96b0-4ee8-b979-15ecd7df5d38","system_id":"levelo_inurba_marseille","lat":43.29269,"lon":5.36852,"is_reserved":false,"is_disabled":false,"rental_uris":{"android":"levelo://app?vid=860415d1-96b0-4ee8-b979-15ecd7df5d38","ios":"levelo://app?vid=860415d1-96b0-4ee8-b979-15ecd7df5d38"},"vehicle_type_id":"4","last_reported":1741428513,"current_range_meters":15200,"station_id":"ce4bhbp2rcd13ifvqesg","pricing_plan_id":"cebpf4jnsgd1na2vs0mg"},{"bike_id":"9a9b3760-6a59-412e-90e5-33c683f8be4e","system_id":"levelo_inurba_marseille","lat":43.2466,"lon":5.38168,"is_reserved":false,"is_disabled":false,"rental_uris":{"android":"levelo://app?vid=9a9b3760-6a59-412e-90e5-33c683f8be4e","ios":"levelo://app?vid=9a9b3760-6a59-412e-90e5-33c683f8be4e"},"vehicle_type_id":"4","last_reported":1741428513,"current_range_meters":15200,"station_id":"ce4bhih2rcd13ifvqfr0","pricing_plan_id":"cebpf4jnsgd1na2vs0mg"},{"bike_id":"1f72adc6-3d1a-4fad-a905-cb9dcd596e26","system_id":"levelo_inurba_marseille","lat":43.24567,"lon":5.43743,"is_reserved":false,"is_disabled":false,"rental_uris":{"android":"levelo://app?vid=1f72adc6-3d1a-4fad-a905-cb9dcd596e26","ios":"levelo://app?vid=1f72adc6-3d1a-4fad-a905-cb9dcd596e26"},"vehicle_type_id":"4","last_reported":1741428513,"current_range_meters":16000,"station_id":"","pricing_plan_id":"cebpf4jnsgd1na2vs0mg"},{"bike_id":"e864a5f8-5d09-44e4-ac13-510caec44d44","system_id":"levelo_inurba_marseille","lat":43.29855,"lon":5.3628,"is_reserved":false,"is_disabled":false,"rental_uris":{"android":"levelo://app?vid=e864a5f8-5d09-44e4-ac13-510caec44d44","ios":"levelo://app?vid=e864a5f8-5d09-44e4-ac13-510caec44d44"},"vehicle_type_id":"4","last_reported":1741428513,"current_range_meters":16400,"station_id":"ce4bgpp2rcd13ifvqc3g","pricing_plan_id":"cebpf4jnsgd1na2vs0mg"},{"bike_id":"0b6b8dd8-3450-4779-834c-499fd12aab96","system_id":"levelo_inurba_marseille","lat":43.27833,"lon":5.40732,"is_reserved":false,"is_disabled":false,"rental_uris":{"android":"levelo://app?vid=0b6b8dd8-3450-4779-834c-499fd12aab96","ios":"levelo://app?vid=0b6b8dd8-3450-4779-834c-499fd12aab96"},"vehicle_type_id":"4","last_reported":1741428513,"current_range_meters":16400,"station_id":"ce4bhnh2rcd13ifvqgtg","pricing_plan_id":"cebpf4jnsgd1na2vs0mg"},{"bike_id":"35c1791e-aa31-4855-b00e-94e87190641b","system_id":"levelo_inurba_marseille","lat":43.28001,"lon":5.41683,"is_reserved":false,"is_disabled":false,"rental_uris":{"android":"levelo://app?vid=35c1791e-aa31-4855-b00e-94e87190641b","ios":"levelo://app?vid=35c1791e-aa31-4855-b00e-94e87190641b"},"vehicle_type_id":"4","last_reported":1741428513,"current_range_meters":16400,"station_id":"ce4bho12rcd13ifvqh1g","pricing_plan_id":"cebpf4jnsgd1na2vs0mg"},{"bike_id":"276b8fa0-39d6-4080-8387-88943964b99f","system_id":"levelo_inurba_marseille","lat":43.33035,"lon":5.39038,"is_reserved":false,"is_disabled":false,"rental_uris":{"android":"levelo://app?vid=276b8fa0-39d6-4080-8387-88943964b99f","ios":"levelo://app?vid=276b8fa0-39d6-4080-8387-88943964b99f"},"vehicle_type_id":"4","last_reported":1741428513,"current_range_meters":16400,"station_id":"ce4bhr92rcd13ifvqhrg","pricing_plan_id":"cebpf4jnsgd1na2vs0mg"},{"bike_id":"7470f053-99e0-4222-a436-e5ac7880f722","system_id":"levelo_inurba_marseille","lat":43.22932,"lon":5.35376,"is_reserved":false,"is_disabled":false,"rental_uris":{"android":"levelo://app?vid=7470f053-99e0-4222-a436-e5ac7880f722","ios":"levelo://app?vid=7470f053-99e0-4222-a436-e5ac7880f722"},"vehicle_type_id":"4","last_reported":1741428513,"current_range_meters":16400,"station_id":"cpo3532slgdg3j2ikp40","pricing_plan_id":"cebpf4jnsgd1na2vs0mg"},{"bike_id":"d10f4563-0230-4e9a-817d-5d1c1f2e8988","system_id":"levelo_inurba_marseille","lat":43.31316,"lon":5.39727,"is_reserved":false,"is_disabled":false,"rental_uris":{"android":"levelo://app?vid=d10f4563-0230-4e9a-817d-5d1c1f2e8988","ios":"levelo://app?vid=d10f4563-0230-4e9a-817d-5d1c1f2e8988"},"vehicle_type_id":"4","last_reported":1741428513,"current_range_meters":16800,"station_id":"ce4bgvp2rcd13ifvqcu0","pricing_plan_id":"cebpf4jnsgd1na2vs0mg"},{"bike_id":"723c67fa-b4b3-48ca-834f-0eace723680b","system_id":"levelo_inurba_marseille","lat":43.26552,"lon":5.37286,"is_reserved":false,"is_disabled":false,"rental_uris":{"android":"levelo://app?vid=723c67fa-b4b3-48ca-834f-0eace723680b","ios":"levelo://app?vid=723c67fa-b4b3-48ca-834f-0eace723680b"},"vehicle_type_id":"4","last_reported":1741428513,"current_range_meters":16800,"station_id":"ce4bhg12rcd13ifvqf70","pricing_plan_id":"cebpf4jnsgd1na2vs0mg"},{"bike_id":"4b664321-c96e-41be-824b-61fa4d40dbb2","system_id":"levelo_inurba_marseille","lat":43.26036,"lon":5.37539,"is_reserved":false,"is_disabled":false,"rental_uris":{"android":"levelo://app?vid=4b664321-c96e-41be-824b-61fa4d40dbb2","ios":"levelo://app?vid=4b664321-c96e-41be-824b-61fa4d40dbb2"},"vehicle_type_id":"4","last_reported":1741428513,"current_range_meters":16800,"station_id":"ce4bhgh2rcd13ifvqfa0","pricing_plan_id":"cebpf4jnsgd1na2vs0mg"},{"bike_id":"89cdc5a5-a744-4269-a86d-3ed5ecc287d5","system_id":"levelo_inurba_marseille","lat":43.24188,"lon":5.39747,"is_reserved":false,"is_disabled":false,"rental_uris":{"android":"levelo://app?vid=89cdc5a5-a744-4269-a86d-3ed5ecc287d5","ios":"levelo://app?vid=89cdc5a5-a744-4269-a86d-3ed5ecc287d5"},"vehicle_type_id":"4","last_reported":1741428513,"current_range_meters":16800,"station_id":"ce4bhn12rcd13ifvqgpg","pricing_plan_id":"cebpf4jnsgd1na2vs0mg"},{"bike_id":"dc404e46-8217-49df-a9f9-0b1fb5b9d87a","system_id":"levelo_inurba_marseille","lat":43.27982,"lon":5.40426,"is_reserved":false,"is_disabled":false,"rental_uris":{"android":"levelo://app?vid=dc404e46-8217-49df-a9f9-0b1fb5b9d87a","ios":"levelo://app?vid=dc404e46-8217-49df-a9f9-0b1fb5b9d87a"},"vehicle_type_id":"4","last_reported":1741428513,"current_range_meters":17200,"station_id":"","pricing_plan_id":"cebpf4jnsgd1na2vs0mg"},{"bike_id":"c23aa3fd-5bcd-4f88-99e8-26d8b9786e18","system_id":"levelo_inurba_marseille","lat":43.30149,"lon":5.38096,"is_reserved":false,"is_disabled":false,"rental_uris":{"android":"levelo://app?vid=c23aa3fd-5bcd-4f88-99e8-26d8b9786e18","ios":"levelo://app?vid=c23aa3fd-5bcd-4f88-99e8-26d8b9786e18"},"vehicle_type_id":"4","last_reported":1741428513,"current_range_meters":17200,"station_id":"ce4bgjp2rcd13ifvqbh0","pricing_plan_id":"cebpf4jnsgd1na2vs0mg"},{"bike_id":"b3758c09-8ef4-4ac9-8312-1117f688c2e8","system_id":"levelo_inurba_marseille","lat":43.3016,"lon":5.39865,"is_reserved":false,"is_disabled":false,"rental_uris":{"android":"levelo://app?vid=b3758c09-8ef4-4ac9-8312-1117f688c2e8","ios":"levelo://app?vid=b3758c09-8ef4-4ac9-8312-1117f688c2e8"},"vehicle_type_id":"4","last_reported":1741428513,"current_range_meters":17200,"station_id":"ce4bh0h2rcd13ifvqd40","pricing_plan_id":"cebpf4jnsgd1na2vs0mg"},{"bike_id":"db18c68c-1e98-43e4-adcc-af61b1d5bf5d","system_id":"levelo_inurba_marseille","lat":43.28849,"lon":5.35842,"is_reserved":false,"is_disabled":false,"rental_uris":{"android":"levelo://app?vid=db18c68c-1e98-43e4-adcc-af61b1d5bf5d","ios":"levelo://app?vid=db18c68c-1e98-43e4-adcc-af61b1d5bf5d"},"vehicle_type_id":"4","last_reported":1741428513,"current_range_meters":17200,"station_id":"ce4bhb12rcd13ifvqem0","pricing_plan_id":"cebpf4jnsgd1na2vs0mg"},{"bike_id":"995b62e1-fe80-4936-a5f1-ffc9fa7d794b","system_id":"levelo_inurba_marseille","lat":43.28611,"lon":5.3511,"is_reserved":false,"is_disabled":false,"rental_uris":{"android":"levelo://app?vid=995b62e1-fe80-4936-a5f1-ffc9fa7d794b","ios":"levelo://app?vid=995b62e1-fe80-4936-a5f1-ffc9fa7d794b"},"vehicle_type_id":"4","last_reported":1741428513,"current_range_meters":17200,"station_id":"ce4bhch2rcd13ifvqeug","pricing_plan_id":"cebpf4jnsgd1na2vs0mg"},{"bike_id":"900570e9-b571-463d-adb9-2a6742257932","system_id":"levelo_inurba_marseille","lat":43.24412,"lon":5.37053,"is_reserved":false,"is_disabled":false,"rental_uris":{"android":"levelo://app?vid=900570e9-b571-463d-adb9-2a6742257932","ios":"levelo://app?vid=900570e9-b571-463d-adb9-2a6742257932"},"vehicle_type_id":"4","last_reported":1741428513,"current_range_meters":17200,"station_id":"ce4bhhh2rcd13ifvqfk0","pricing_plan_id":"cebpf4jnsgd1na2vs0mg"},{"bike_id":"1c0184c6-72ad-4860-a550-18c4478dfce6","system_id":"levelo_inurba_marseille","lat":43.27946,"lon":5.41046,"is_reserved":false,"is_disabled":false,"rental_uris":{"android":"levelo://app?vid=1c0184c6-72ad-4860-a550-18c4478dfce6","ios":"levelo://app?vid=1c0184c6-72ad-4860-a550-18c4478dfce6"},"vehicle_type_id":"4","last_reported":1741428513,"current_range_meters":17200,"station_id":"ce4bhnp2rcd13ifvqh0g","pricing_plan_id":"cebpf4jnsgd1na2vs0mg"},{"bike_id":"e9dab2ce-7c7d-40d2-82aa-ed5c703d86fd","system_id":"levelo_inurba_marseille","lat":43.32119,"lon":5.36793,"is_reserved":false,"is_disabled":false,"rental_uris":{"android":"levelo://app?vid=e9dab2ce-7c7d-40d2-82aa-ed5c703d86fd","ios":"levelo://app?vid=e9dab2ce-7c7d-40d2-82aa-ed5c703d86fd"},"vehicle_type_id":"4","last_reported":1741428513,"current_range_meters":17200,"station_id":"ce4bhrh2rcd13ifvqhug","pricing_plan_id":"cebpf4jnsgd1na2vs0mg"},{"bike_id":"deb81f77-c6e9-45d2-b680-8c00a5704cb4","system_id":"levelo_inurba_marseille","lat":43.3212,"lon":5.36787,"is_reserved":false,"is_disabled":false,"rental_uris":{"android":"levelo://app?vid=deb81f77-c6e9-45d2-b680-8c00a5704cb4","ios":"levelo://app?vid=deb81f77-c6e9-45d2-b680-8c00a5704cb4"},"vehicle_type_id":"4","last_reported":1741428513,"current_range_meters":17200,"station_id":"ce4bhrh2rcd13ifvqhug","pricing_plan_id":"cebpf4jnsgd1na2vs0mg"},{"bike_id":"5c26e072-dcb6-4be2-ae87-5882f051be6d","system_id":"levelo_inurba_marseille","lat":43.23061,"lon":5.35492,"is_reserved":false,"is_disabled":false,"rental_uris":{"android":"levelo://app?vid=5c26e072-dcb6-4be2-ae87-5882f051be6d","ios":"levelo://app?vid=5c26e072-dcb6-4be2-ae87-5882f051be6d"},"vehicle_type_id":"4","last_reported":1741428513,"current_range_meters":17200,"station_id":"cpo3342slgdg3j2ifvpg","pricing_plan_id":"cebpf4jnsgd1na2vs0mg"},{"bike_id":"2d201668-e0ff-4085-9ec0-5c082a94ad30","system_id":"levelo_inurba_marseille","lat":43.33794,"lon":5.37435,"is_reserved":false,"is_disabled":false,"rental_uris":{"android":"levelo://app?vid=2d201668-e0ff-4085-9ec0-5c082a94ad30","ios":"levelo://app?vid=2d201668-e0ff-4085-9ec0-5c082a94ad30"},"vehicle_type_id":"4","last_reported":1741428513,"current_range_meters":17600,"station_id":"","pricing_plan_id":"cebpf4jnsgd1na2vs0mg"},{"bike_id":"beb31d16-4d46-4836-a3b1-ce2031120e0a","system_id":"levelo_inurba_marseille","lat":43.29793,"lon":5.38082,"is_reserved":false,"is_disabled":false,"rental_uris":{"android":"levelo://app?vid=beb31d16-4d46-4836-a3b1-ce2031120e0a","ios":"levelo://app?vid=beb31d16-4d46-4836-a3b1-ce2031120e0a"},"vehicle_type_id":"4","last_reported":1741428513,"current_range_meters":17600,"station_id":"ce4bgip2rcd13ifvqbb0","pricing_plan_id":"cebpf4jnsgd1na2vs0mg"},{"bike_id":"314ad92b-893d-46d1-8bd4-e3add17e505e","system_id":"levelo_inurba_marseille","lat":43.30333,"lon":5.40451,"is_reserved":false,"is_disabled":false,"rental_uris":{"android":"levelo://app?vid=314ad92b-893d-46d1-8bd4-e3add17e505e","ios":"levelo://app?vid=314ad92b-893d-46d1-8bd4-e3add17e505e"},"vehicle_type_id":"4","last_reported":1741428513,"current_range_meters":17600,"station_id":"ce4bh012rcd13ifvqd10","pricing_plan_id":"cebpf4jnsgd1na2vs0mg"},{"bike_id":"e3604c2a-fed1-416a-8fc1-0d29ec7989a6","system_id":"levelo_inurba_marseille","lat":43.29629,"lon":5.40611,"is_reserved":false,"is_disabled":false,"rental_uris":{"android":"levelo://app?vid=e3604c2a-fed1-416a-8fc1-0d29ec7989a6","ios":"levelo://app?vid=e3604c2a-fed1-416a-8fc1-0d29ec7989a6"},"vehicle_type_id":"4","last_reported":1741428513,"current_range_meters":17600,"station_id":"ce4bh0h2rcd13ifvqd60","pricing_plan_id":"cebpf4jnsgd1na2vs0mg"},{"bike_id":"328cb1a5-549e-4406-96d7-c6149fc63564","system_id":"levelo_inurba_marseille","lat":43.29883,"lon":5.38906,"is_reserved":false,"is_disabled":false,"rental_uris":{"android":"levelo://app?vid=328cb1a5-549e-4406-96d7-c6149fc63564","ios":"levelo://app?vid=328cb1a5-549e-4406-96d7-c6149fc63564"},"vehicle_type_id":"4","last_reported":1741428513,"current_range_meters":17600,"station_id":"ce4bh392rcd13ifvqdl0","pricing_plan_id":"cebpf4jnsgd1na2vs0mg"},{"bike_id":"62f42a3b-8367-48ae-9dd8-9d068af010dd","system_id":"levelo_inurba_marseille","lat":43.26558,"lon":5.37311,"is_reserved":false,"is_disabled":false,"rental_uris":{"android":"levelo://app?vid=62f42a3b-8367-48ae-9dd8-9d068af010dd","ios":"levelo://app?vid=62f42a3b-8367-48ae-9dd8-9d068af010dd"},"vehicle_type_id":"4","last_reported":1741428513,"current_range_meters":17600,"station_id":"ce4bhg12rcd13ifvqf70","pricing_plan_id":"cebpf4jnsgd1na2vs0mg"},{"bike_id":"5dd6cf22-0651-47a0-8141-3aa4f0424536","system_id":"levelo_inurba_marseille","lat":43.27312,"lon":5.39078,"is_reserved":false,"is_disabled":false,"rental_uris":{"android":"levelo://app?vid=5dd6cf22-0651-47a0-8141-3aa4f0424536","ios":"levelo://app?vid=5dd6cf22-0651-47a0-8141-3aa4f0424536"},"vehicle_type_id":"4","last_reported":1741428513,"current_range_meters":17600,"station_id":"ce4bhgp2rcd13ifvqfe0","pricing_plan_id":"cebpf4jnsgd1na2vs0mg"},{"bike_id":"b0a568e0-6e25-48f4-92d3-ae22e537be97","system_id":"levelo_inurba_marseille","lat":43.27836,"lon":5.40717,"is_reserved":false,"is_disabled":false,"rental_uris":{"android":"levelo://app?vid=b0a568e0-6e25-48f4-92d3-ae22e537be97","ios":"levelo://app?vid=b0a568e0-6e25-48f4-92d3-ae22e537be97"},"vehicle_type_id":"4","last_reported":1741428513,"current_range_meters":17600,"station_id":"ce4bhnh2rcd13ifvqgtg","pricing_plan_id":"cebpf4jnsgd1na2vs0mg"},{"bike_id":"de9161da-4603-4122-876c-63adf821d616","system_id":"levelo_inurba_marseille","lat":43.32106,"lon":5.3676,"is_reserved":false,"is_disabled":false,"rental_uris":{"android":"levelo://app?vid=de9161da-4603-4122-876c-63adf821d616","ios":"levelo://app?vid=de9161da-4603-4122-876c-63adf821d616"},"vehicle_type_id":"4","last_reported":1741428513,"current_range_meters":17600,"station_id":"ce4bhrh2rcd13ifvqhug","pricing_plan_id":"cebpf4jnsgd1na2vs0mg"},{"bike_id":"99e69bf6-dc57-4127-a1aa-9a36825d1a88","system_id":"levelo_inurba_marseille","lat":43.32368,"lon":5.36783,"is_reserved":false,"is_disabled":false,"rental_uris":{"android":"levelo://app?vid=99e69bf6-dc57-4127-a1aa-9a36825d1a88","ios":"levelo://app?vid=99e69bf6-dc57-4127-a1aa-9a36825d1a88"},"vehicle_type_id":"4","last_reported":1741428513,"current_range_meters":17600,"station_id":"ce4bhsh2rcd13ifvqi2g","pricing_plan_id":"cebpf4jnsgd1na2vs0mg"},{"bike_id":"98d6b5e7-ab8a-48b4-a847-7124bae4afc6","system_id":"levelo_inurba_marseille","lat":43.23059,"lon":5.35495,"is_reserved":false,"is_disabled":false,"rental_uris":{"android":"levelo://app?vid=98d6b5e7-ab8a-48b4-a847-7124bae4afc6","ios":"levelo://app?vid=98d6b5e7-ab8a-48b4-a847-7124bae4afc6"},"vehicle_type_id":"4","last_reported":1741428513,"current_range_meters":17600,"station_id":"cpo3342slgdg3j2ifvpg","pricing_plan_id":"cebpf4jnsgd1na2vs0mg"},{"bike_id":"a71f5391-91f9-4d09-a601-92c62e162a41","system_id":"levelo_inurba_marseille","lat":43.29335,"lon":5.37991,"is_reserved":false,"is_disabled":false,"rental_uris":{"android":"levelo://app?vid=a71f5391-91f9-4d09-a601-92c62e162a41","ios":"levelo://app?vid=a71f5391-91f9-4d09-a601-92c62e162a41"},"vehicle_type_id":"4","last_reported":1741428513,"current_range_meters":18000,"station_id":"","pricing_plan_id":"cebpf4jnsgd1na2vs0mg"},{"bike_id":"1baeb851-e64e-441e-a1da-d8c7fa9b89db","system_id":"levelo_inurba_marseille","lat":43.29599,"lon":5.37737,"is_reserved":false,"is_disabled":false,"rental_uris":{"android":"levelo://app?vid=1baeb851-e64e-441e-a1da-d8c7fa9b89db","ios":"levelo://app?vid=1baeb851-e64e-441e-a1da-d8c7fa9b89db"},"vehicle_type_id":"4","last_reported":1741428513,"current_range_meters":18000,"station_id":"ce4bgi92rcd13ifvqb90","pricing_plan_id":"cebpf4jnsgd1na2vs0mg"},{"bike_id":"2bd0f735-b05d-497c-bf49-5069cf3001ba","system_id":"levelo_inurba_marseille","lat":43.299,"lon":5.37468,"is_reserved":false,"is_disabled":false,"rental_uris":{"android":"levelo://app?vid=2bd0f735-b05d-497c-bf49-5069cf3001ba","ios":"levelo://app?vid=2bd0f735-b05d-497c-bf49-5069cf3001ba"},"vehicle_type_id":"4","last_reported":1741428513,"current_range_meters":18000,"station_id":"ce4bgjh2rcd13ifvqbg0","pricing_plan_id":"cebpf4jnsgd1na2vs0mg"},{"bike_id":"e1a0293b-333d-4a97-9af3-0c51ffe4ad6e","system_id":"levelo_inurba_marseille","lat":43.26666,"lon":5.38235,"is_reserved":false,"is_disabled":false,"rental_uris":{"android":"levelo://app?vid=e1a0293b-333d-4a97-9af3-0c51ffe4ad6e","ios":"levelo://app?vid=e1a0293b-333d-4a97-9af3-0c51ffe4ad6e"},"vehicle_type_id":"4","last_reported":1741428513,"current_range_meters":18000,"station_id":"ce4bhg92rcd13ifvqf90","pricing_plan_id":"cebpf4jnsgd1na2vs0mg"},{"bike_id":"0870f34e-c39c-42ef-b55c-648d40b4d508","system_id":"levelo_inurba_marseille","lat":43.27999,"lon":5.40013,"is_reserved":false,"is_disabled":false,"rental_uris":{"android":"levelo://app?vid=0870f34e-c39c-42ef-b55c-648d40b4d508","ios":"levelo://app?vid=0870f34e-c39c-42ef-b55c-648d40b4d508"},"vehicle_type_id":"4","last_reported":1741428513,"current_range_meters":18000,"station_id":"ce4bho92rcd13ifvqh4g","pricing_plan_id":"cebpf4jnsgd1na2vs0mg"},{"bike_id":"d60e2ba2-9d3a-4067-8d8a-3ebb91302584","system_id":"levelo_inurba_marseille","lat":43.29294,"lon":5.37789,"is_reserved":false,"is_disabled":false,"rental_uris":{"android":"levelo://app?vid=d60e2ba2-9d3a-4067-8d8a-3ebb91302584","ios":"levelo://app?vid=d60e2ba2-9d3a-4067-8d8a-3ebb91302584"},"vehicle_type_id":"4","last_reported":1741428513,"current_range_meters":18800,"station_id":"","pricing_plan_id":"cebpf4jnsgd1na2vs0mg"},{"bike_id":"921cc60f-3a80-4769-af75-2ce305b66efd","system_id":"levelo_inurba_marseille","lat":43.29681,"lon":5.37293,"is_reserved":false,"is_disabled":false,"rental_uris":{"android":"levelo://app?vid=921cc60f-3a80-4769-af75-2ce305b66efd","ios":"levelo://app?vid=921cc60f-3a80-4769-af75-2ce305b66efd"},"vehicle_type_id":"4","last_reported":1741428513,"current_range_meters":18800,"station_id":"ce4bgk12rcd13ifvqbj0","pricing_plan_id":"cebpf4jnsgd1na2vs0mg"},{"bike_id":"7f963301-df90-4303-b263-933cdfcaf613","system_id":"levelo_inurba_marseille","lat":43.2985,"lon":5.36291,"is_reserved":false,"is_disabled":false,"rental_uris":{"android":"levelo://app?vid=7f963301-df90-4303-b263-933cdfcaf613","ios":"levelo://app?vid=7f963301-df90-4303-b263-933cdfcaf613"},"vehicle_type_id":"4","last_reported":1741428513,"current_range_meters":18800,"station_id":"ce4bgpp2rcd13ifvqc3g","pricing_plan_id":"cebpf4jnsgd1na2vs0mg"},{"bike_id":"7ae4cc03-86f2-424c-af59-36324aeefa46","system_id":"levelo_inurba_marseille","lat":43.30594,"lon":5.37203,"is_reserved":false,"is_disabled":false,"rental_uris":{"android":"levelo://app?vid=7ae4cc03-86f2-424c-af59-36324aeefa46","ios":"levelo://app?vid=7ae4cc03-86f2-424c-af59-36324aeefa46"},"vehicle_type_id":"4","last_reported":1741428513,"current_range_meters":18800,"station_id":"ce4bgqh2rcd13ifvqc4g","pricing_plan_id":"cebpf4jnsgd1na2vs0mg"},{"bike_id":"963e5b74-b3b6-4847-bed5-417427f99ddd","system_id":"levelo_inurba_marseille","lat":43.30689,"lon":5.38253,"is_reserved":false,"is_disabled":false,"rental_uris":{"android":"levelo://app?vid=963e5b74-b3b6-4847-bed5-417427f99ddd","ios":"levelo://app?vid=963e5b74-b3b6-4847-bed5-417427f99ddd"},"vehicle_type_id":"4","last_reported":1741428513,"current_range_meters":18800,"station_id":"ce4bgt12rcd13ifvqce0","pricing_plan_id":"cebpf4jnsgd1na2vs0mg"},{"bike_id":"a436ab59-d5bf-4504-babb-3bb8a063366a","system_id":"levelo_inurba_marseille","lat":43.28617,"lon":5.3511,"is_reserved":false,"is_disabled":false,"rental_uris":{"android":"levelo://app?vid=a436ab59-d5bf-4504-babb-3bb8a063366a","ios":"levelo://app?vid=a436ab59-d5bf-4504-babb-3bb8a063366a"},"vehicle_type_id":"4","last_reported":1741428513,"current_range_meters":18800,"station_id":"ce4bhch2rcd13ifvqeug","pricing_plan_id":"cebpf4jnsgd1na2vs0mg"},{"bike_id":"5daf32e0-ab85-45e7-b292-2a0a67920f4b","system_id":"levelo_inurba_marseille","lat":43.261961,"lon":5.374486,"is_reserved":false,"is_disabled":false,"rental_uris":{"android":"levelo://app?vid=5daf32e0-ab85-45e7-b292-2a0a67920f4b","ios":"levelo://app?vid=5daf32e0-ab85-45e7-b292-2a0a67920f4b"},"vehicle_type_id":"4","last_reported":1741428513,"current_range_meters":18800,"station_id":"ce4bhgp2rcd13ifvqfc0","pricing_plan_id":"cebpf4jnsgd1na2vs0mg"},{"bike_id":"83563c1c-bef7-4eab-bee7-f6756eeed608","system_id":"levelo_inurba_marseille","lat":43.25579,"lon":5.38248,"is_reserved":false,"is_disabled":false,"rental_uris":{"android":"levelo://app?vid=83563c1c-bef7-4eab-bee7-f6756eeed608","ios":"levelo://app?vid=83563c1c-bef7-4eab-bee7-f6756eeed608"},"vehicle_type_id":"4","last_reported":1741428513,"current_range_meters":18800,"station_id":"ce4bhih2rcd13ifvqfs0","pricing_plan_id":"cebpf4jnsgd1na2vs0mg"},{"bike_id":"e0ddd106-a55f-477a-ab46-cbf84d9e96c8","system_id":"levelo_inurba_marseille","lat":43.30367,"lon":5.41882,"is_reserved":false,"is_disabled":false,"rental_uris":{"android":"levelo://app?vid=e0ddd106-a55f-477a-ab46-cbf84d9e96c8","ios":"levelo://app?vid=e0ddd106-a55f-477a-ab46-cbf84d9e96c8"},"vehicle_type_id":"4","last_reported":1741428513,"current_range_meters":18800,"station_id":"ce4bhop2rcd13ifvqh7g","pricing_plan_id":"cebpf4jnsgd1na2vs0mg"},{"bike_id":"25b778c2-7102-4dfe-8b16-b15e62a28bb6","system_id":"levelo_inurba_marseille","lat":43.31115,"lon":5.37764,"is_reserved":false,"is_disabled":false,"rental_uris":{"android":"levelo://app?vid=25b778c2-7102-4dfe-8b16-b15e62a28bb6","ios":"levelo://app?vid=25b778c2-7102-4dfe-8b16-b15e62a28bb6"},"vehicle_type_id":"4","last_reported":1741428513,"current_range_meters":19200,"station_id":"ce4bgt92rcd13ifvqcg0","pricing_plan_id":"cebpf4jnsgd1na2vs0mg"},{"bike_id":"5a90c755-5607-4bf6-a7b2-4afdeca917ec","system_id":"levelo_inurba_marseille","lat":43.26557,"lon":5.37285,"is_reserved":false,"is_disabled":false,"rental_uris":{"android":"levelo://app?vid=5a90c755-5607-4bf6-a7b2-4afdeca917ec","ios":"levelo://app?vid=5a90c755-5607-4bf6-a7b2-4afdeca917ec"},"vehicle_type_id":"4","last_reported":1741428513,"current_range_meters":19200,"station_id":"ce4bhg12rcd13ifvqf70","pricing_plan_id":"cebpf4jnsgd1na2vs0mg"},{"bike_id":"f8da97ff-638c-4c8a-9c05-1b2bf994ed31","system_id":"levelo_inurba_marseille","lat":43.25504,"lon":5.37653,"is_reserved":false,"is_disabled":false,"rental_uris":{"android":"levelo://app?vid=f8da97ff-638c-4c8a-9c05-1b2bf994ed31","ios":"levelo://app?vid=f8da97ff-638c-4c8a-9c05-1b2bf994ed31"},"vehicle_type_id":"4","last_reported":1741428513,"current_range_meters":19200,"station_id":"ce4bhh12rcd13ifvqff0","pricing_plan_id":"cebpf4jnsgd1na2vs0mg"},{"bike_id":"0e536ed8-d572-4ff0-9d7e-e544a4129f31","system_id":"levelo_inurba_marseille","lat":43.29217,"lon":5.36053,"is_reserved":false,"is_disabled":false,"rental_uris":{"android":"levelo://app?vid=0e536ed8-d572-4ff0-9d7e-e544a4129f31","ios":"levelo://app?vid=0e536ed8-d572-4ff0-9d7e-e544a4129f31"},"vehicle_type_id":"4","last_reported":1741428513,"current_range_meters":19600,"station_id":"ce4bhbh2rcd13ifvqeqg","pricing_plan_id":"cebpf4jnsgd1na2vs0mg"},{"bike_id":"8579e54f-565e-4025-a73c-88723bee831d","system_id":"levelo_inurba_marseille","lat":43.231897,"lon":5.399954,"is_reserved":false,"is_disabled":false,"rental_uris":{"android":"levelo://app?vid=8579e54f-565e-4025-a73c-88723bee831d","ios":"levelo://app?vid=8579e54f-565e-4025-a73c-88723bee831d"},"vehicle_type_id":"4","last_reported":1741428513,"current_range_meters":19600,"station_id":"ce4bhn12rcd13ifvqgqg","pricing_plan_id":"cebpf4jnsgd1na2vs0mg"},{"bike_id":"931fd3db-4767-4222-9848-0306bba9a6b8","system_id":"levelo_inurba_marseille","lat":43.2406,"lon":5.37754,"is_reserved":false,"is_disabled":false,"rental_uris":{"android":"levelo://app?vid=931fd3db-4767-4222-9848-0306bba9a6b8","ios":"levelo://app?vid=931fd3db-4767-4222-9848-0306bba9a6b8"},"vehicle_type_id":"4","last_reported":1741428513,"current_range_meters":19600,"station_id":"ce4bhnp2rcd13ifvqgvg","pricing_plan_id":"cebpf4jnsgd1na2vs0mg"},{"bike_id":"b1e189d2-cc2d-4bbc-9210-3d18e5683801","system_id":"levelo_inurba_marseille","lat":43.2695,"lon":5.40243,"is_reserved":false,"is_disabled":false,"rental_uris":{"android":"levelo://app?vid=b1e189d2-cc2d-4bbc-9210-3d18e5683801","ios":"levelo://app?vid=b1e189d2-cc2d-4bbc-9210-3d18e5683801"},"vehicle_type_id":"4","last_reported":1741428513,"current_range_meters":19600,"station_id":"cjm6bp8fraef2m0cb0m0","pricing_plan_id":"cebpf4jnsgd1na2vs0mg"},{"bike_id":"17a6db54-ef2f-4511-a085-5bcf0dc414a8","system_id":"levelo_inurba_marseille","lat":43.241662,"lon":5.363933,"is_reserved":false,"is_disabled":false,"rental_uris":{"android":"levelo://app?vid=17a6db54-ef2f-4511-a085-5bcf0dc414a8","ios":"levelo://app?vid=17a6db54-ef2f-4511-a085-5bcf0dc414a8"},"vehicle_type_id":"4","last_reported":1741428513,"current_range_meters":19600,"station_id":"cpo36qri1sfpv3e86is0","pricing_plan_id":"cebpf4jnsgd1na2vs0mg"},{"bike_id":"1e6d9e11-3759-4343-b0e7-b87ed52f7c03","system_id":"levelo_inurba_marseille","lat":43.31131,"lon":5.37775,"is_reserved":false,"is_disabled":false,"rental_uris":{"android":"levelo://app?vid=1e6d9e11-3759-4343-b0e7-b87ed52f7c03","ios":"levelo://app?vid=1e6d9e11-3759-4343-b0e7-b87ed52f7c03"},"vehicle_type_id":"4","last_reported":1741428513,"current_range_meters":20000,"station_id":"ce4bgt92rcd13ifvqcg0","pricing_plan_id":"cebpf4jnsgd1na2vs0mg"},{"bike_id":"4bf8c8da-7cb4-4f7c-b6be-80ba60f45c9c","system_id":"levelo_inurba_marseille","lat":43.28477,"lon":5.3858,"is_reserved":false,"is_disabled":false,"rental_uris":{"android":"levelo://app?vid=4bf8c8da-7cb4-4f7c-b6be-80ba60f45c9c","ios":"levelo://app?vid=4bf8c8da-7cb4-4f7c-b6be-80ba60f45c9c"},"vehicle_type_id":"4","last_reported":1741428513,"current_range_meters":20000,"station_id":"ce4bh8p2rcd13ifvqeb0","pricing_plan_id":"cebpf4jnsgd1na2vs0mg"},{"bike_id":"ab2dcbe1-b86b-4ab0-98e5-4db9b2784d7e","system_id":"levelo_inurba_marseille","lat":43.29183,"lon":5.35809,"is_reserved":false,"is_disabled":false,"rental_uris":{"android":"levelo://app?vid=ab2dcbe1-b86b-4ab0-98e5-4db9b2784d7e","ios":"levelo://app?vid=ab2dcbe1-b86b-4ab0-98e5-4db9b2784d7e"},"vehicle_type_id":"4","last_reported":1741428513,"current_range_meters":20000,"station_id":"ce4bhb12rcd13ifvqel0","pricing_plan_id":"cebpf4jnsgd1na2vs0mg"},{"bike_id":"6575a723-3df0-467c-b609-a80f4bb1ec8d","system_id":"levelo_inurba_marseille","lat":43.23186,"lon":5.39987,"is_reserved":false,"is_disabled":false,"rental_uris":{"android":"levelo://app?vid=6575a723-3df0-467c-b609-a80f4bb1ec8d","ios":"levelo://app?vid=6575a723-3df0-467c-b609-a80f4bb1ec8d"},"vehicle_type_id":"4","last_reported":1741428513,"current_range_meters":20000,"station_id":"ce4bhn12rcd13ifvqgqg","pricing_plan_id":"cebpf4jnsgd1na2vs0mg"},{"bike_id":"3ed0c8ba-c7f7-40d8-9403-a3f96d6af6b9","system_id":"levelo_inurba_marseille","lat":43.32359,"lon":5.36749,"is_reserved":false,"is_disabled":false,"rental_uris":{"android":"levelo://app?vid=3ed0c8ba-c7f7-40d8-9403-a3f96d6af6b9","ios":"levelo://app?vid=3ed0c8ba-c7f7-40d8-9403-a3f96d6af6b9"},"vehicle_type_id":"4","last_reported":1741428513,"current_range_meters":20000,"station_id":"ce4bhsh2rcd13ifvqi2g","pricing_plan_id":"cebpf4jnsgd1na2vs0mg"},{"bike_id":"7f08542c-3622-4bee-8852-d0974c0ec085","system_id":"levelo_inurba_marseille","lat":43.24168,"lon":5.36403,"is_reserved":false,"is_disabled":false,"rental_uris":{"android":"levelo://app?vid=7f08542c-3622-4bee-8852-d0974c0ec085","ios":"levelo://app?vid=7f08542c-3622-4bee-8852-d0974c0ec085"},"vehicle_type_id":"4","last_reported":1741428513,"current_range_meters":20000,"station_id":"cpo36qri1sfpv3e86is0","pricing_plan_id":"cebpf4jnsgd1na2vs0mg"},{"bike_id":"59170c8b-cf45-45fd-b866-bc5f81d256b2","system_id":"levelo_inurba_marseille","lat":43.26508,"lon":5.39588,"is_reserved":false,"is_disabled":false,"rental_uris":{"android":"levelo://app?vid=59170c8b-cf45-45fd-b866-bc5f81d256b2","ios":"levelo://app?vid=59170c8b-cf45-45fd-b866-bc5f81d256b2"},"vehicle_type_id":"4","last_reported":1741428513,"current_range_meters":20400,"station_id":"ce4bhi12rcd13ifvqfq0","pricing_plan_id":"cebpf4jnsgd1na2vs0mg"},{"bike_id":"6997f8ad-4f57-4205-ae4a-11a2264eb071","system_id":"levelo_inurba_marseille","lat":43.25868,"lon":5.39899,"is_reserved":false,"is_disabled":false,"rental_uris":{"android":"levelo://app?vid=6997f8ad-4f57-4205-ae4a-11a2264eb071","ios":"levelo://app?vid=6997f8ad-4f57-4205-ae4a-11a2264eb071"},"vehicle_type_id":"4","last_reported":1741428513,"current_range_meters":20400,"station_id":"ce4bhl92rcd13ifvqghg","pricing_plan_id":"cebpf4jnsgd1na2vs0mg"},{"bike_id":"91fb1aa6-d7ae-4d49-a9dc-1822ae013a8e","system_id":"levelo_inurba_marseille","lat":43.23179,"lon":5.39993,"is_reserved":false,"is_disabled":false,"rental_uris":{"android":"levelo://app?vid=91fb1aa6-d7ae-4d49-a9dc-1822ae013a8e","ios":"levelo://app?vid=91fb1aa6-d7ae-4d49-a9dc-1822ae013a8e"},"vehicle_type_id":"4","last_reported":1741428513,"current_range_meters":20400,"station_id":"ce4bhn12rcd13ifvqgqg","pricing_plan_id":"cebpf4jnsgd1na2vs0mg"},{"bike_id":"91ce4676-d8b6-4401-a97d-e8ec284f4793","system_id":"levelo_inurba_marseille","lat":43.27992,"lon":5.41664,"is_reserved":false,"is_disabled":false,"rental_uris":{"android":"levelo://app?vid=91ce4676-d8b6-4401-a97d-e8ec284f4793","ios":"levelo://app?vid=91ce4676-d8b6-4401-a97d-e8ec284f4793"},"vehicle_type_id":"4","last_reported":1741428513,"current_range_meters":20400,"station_id":"ce4bho12rcd13ifvqh1g","pricing_plan_id":"cebpf4jnsgd1na2vs0mg"},{"bike_id":"ffc3f79b-8b39-4be3-b9cc-a0195519e5ca","system_id":"levelo_inurba_marseille","lat":43.27992,"lon":5.41662,"is_reserved":false,"is_disabled":false,"rental_uris":{"android":"levelo://app?vid=ffc3f79b-8b39-4be3-b9cc-a0195519e5ca","ios":"levelo://app?vid=ffc3f79b-8b39-4be3-b9cc-a0195519e5ca"},"vehicle_type_id":"4","last_reported":1741428513,"current_range_meters":20400,"station_id":"ce4bho12rcd13ifvqh1g","pricing_plan_id":"cebpf4jnsgd1na2vs0mg"},{"bike_id":"b98073ec-5e2d-4178-9620-47c51d37e565","system_id":"levelo_inurba_marseille","lat":43.32368,"lon":5.36767,"is_reserved":false,"is_disabled":false,"rental_uris":{"android":"levelo://app?vid=b98073ec-5e2d-4178-9620-47c51d37e565","ios":"levelo://app?vid=b98073ec-5e2d-4178-9620-47c51d37e565"},"vehicle_type_id":"4","last_reported":1741428513,"current_range_meters":20400,"station_id":"ce4bhsh2rcd13ifvqi2g","pricing_plan_id":"cebpf4jnsgd1na2vs0mg"},{"bike_id":"bfba6cd9-ad3e-4716-8861-d623ef85fe73","system_id":"levelo_inurba_marseille","lat":43.29563,"lon":5.37514,"is_reserved":false,"is_disabled":false,"rental_uris":{"android":"levelo://app?vid=bfba6cd9-ad3e-4716-8861-d623ef85fe73","ios":"levelo://app?vid=bfba6cd9-ad3e-4716-8861-d623ef85fe73"},"vehicle_type_id":"4","last_reported":1741428513,"current_range_meters":20800,"station_id":"ce4bgh92rcd13ifvqb50","pricing_plan_id":"cebpf4jnsgd1na2vs0mg"},{"bike_id":"f3d14dc1-381d-4389-9ff0-b57a7eb918ba","system_id":"levelo_inurba_marseille","lat":43.29293,"lon":5.37454,"is_reserved":false,"is_disabled":false,"rental_uris":{"android":"levelo://app?vid=f3d14dc1-381d-4389-9ff0-b57a7eb918ba","ios":"levelo://app?vid=f3d14dc1-381d-4389-9ff0-b57a7eb918ba"},"vehicle_type_id":"4","last_reported":1741428513,"current_range_meters":20800,"station_id":"ce4bgi12rcd13ifvqb70","pricing_plan_id":"cebpf4jnsgd1na2vs0mg"},{"bike_id":"60079d15-2d0e-418f-be2f-017d46cf5037","system_id":"levelo_inurba_marseille","lat":43.27624,"lon":5.3613,"is_reserved":false,"is_disabled":false,"rental_uris":{"android":"levelo://app?vid=60079d15-2d0e-418f-be2f-017d46cf5037","ios":"levelo://app?vid=60079d15-2d0e-418f-be2f-017d46cf5037"},"vehicle_type_id":"4","last_reported":1741428513,"current_range_meters":20800,"station_id":"ce4bgj92rcd13ifvqbe0","pricing_plan_id":"cebpf4jnsgd1na2vs0mg"},{"bike_id":"928cc8f4-da5c-41ee-8939-1cf529baf38c","system_id":"levelo_inurba_marseille","lat":43.30459,"lon":5.37902,"is_reserved":false,"is_disabled":false,"rental_uris":{"android":"levelo://app?vid=928cc8f4-da5c-41ee-8939-1cf529baf38c","ios":"levelo://app?vid=928cc8f4-da5c-41ee-8939-1cf529baf38c"},"vehicle_type_id":"4","last_reported":1741428513,"current_range_meters":20800,"station_id":"ce4bgup2rcd13ifvqcn0","pricing_plan_id":"cebpf4jnsgd1na2vs0mg"},{"bike_id":"2713c23c-3cb2-4abb-9de2-07459d6b186f","system_id":"levelo_inurba_marseille","lat":43.28614,"lon":5.35119,"is_reserved":false,"is_disabled":false,"rental_uris":{"android":"levelo://app?vid=2713c23c-3cb2-4abb-9de2-07459d6b186f","ios":"levelo://app?vid=2713c23c-3cb2-4abb-9de2-07459d6b186f"},"vehicle_type_id":"4","last_reported":1741428513,"current_range_meters":20800,"station_id":"ce4bhch2rcd13ifvqeug","pricing_plan_id":"cebpf4jnsgd1na2vs0mg"},{"bike_id":"2a822956-0f1d-41d7-accf-1c7948bf20ab","system_id":"levelo_inurba_marseille","lat":43.28619,"lon":5.35104,"is_reserved":false,"is_disabled":false,"rental_uris":{"android":"levelo://app?vid=2a822956-0f1d-41d7-accf-1c7948bf20ab","ios":"levelo://app?vid=2a822956-0f1d-41d7-accf-1c7948bf20ab"},"vehicle_type_id":"4","last_reported":1741428513,"current_range_meters":20800,"station_id":"ce4bhch2rcd13ifvqeug","pricing_plan_id":"cebpf4jnsgd1na2vs0mg"},{"bike_id":"0fb1dce2-7349-43ab-aac6-d61e02f469de","system_id":"levelo_inurba_marseille","lat":43.27916,"lon":5.39579,"is_reserved":false,"is_disabled":false,"rental_uris":{"android":"levelo://app?vid=0fb1dce2-7349-43ab-aac6-d61e02f469de","ios":"levelo://app?vid=0fb1dce2-7349-43ab-aac6-d61e02f469de"},"vehicle_type_id":"4","last_reported":1741428513,"current_range_meters":20800,"station_id":"ce4bhf92rcd13ifvqf40","pricing_plan_id":"cebpf4jnsgd1na2vs0mg"},{"bike_id":"4ebe3593-30db-4ef3-af34-3b84c6a8c4c6","system_id":"levelo_inurba_marseille","lat":43.26922,"lon":5.38924,"is_reserved":false,"is_disabled":false,"rental_uris":{"android":"levelo://app?vid=4ebe3593-30db-4ef3-af34-3b84c6a8c4c6","ios":"levelo://app?vid=4ebe3593-30db-4ef3-af34-3b84c6a8c4c6"},"vehicle_type_id":"4","last_reported":1741428513,"current_range_meters":20800,"station_id":"ce4bhhh2rcd13ifvqfl0","pricing_plan_id":"cebpf4jnsgd1na2vs0mg"},{"bike_id":"c4d9a9dd-3c98-4133-ac82-31eb06e47ea4","system_id":"levelo_inurba_marseille","lat":43.27202,"lon":5.3919,"is_reserved":false,"is_disabled":false,"rental_uris":{"android":"levelo://app?vid=c4d9a9dd-3c98-4133-ac82-31eb06e47ea4","ios":"levelo://app?vid=c4d9a9dd-3c98-4133-ac82-31eb06e47ea4"},"vehicle_type_id":"4","last_reported":1741428513,"current_range_meters":20800,"station_id":"ce4bhhp2rcd13ifvqfm0","pricing_plan_id":"cebpf4jnsgd1na2vs0mg"},{"bike_id":"40f15c61-3075-442e-8381-c7a78a2f5322","system_id":"levelo_inurba_marseille","lat":43.23193,"lon":5.35547,"is_reserved":false,"is_disabled":false,"rental_uris":{"android":"levelo://app?vid=40f15c61-3075-442e-8381-c7a78a2f5322","ios":"levelo://app?vid=40f15c61-3075-442e-8381-c7a78a2f5322"},"vehicle_type_id":"4","last_reported":1741428513,"current_range_meters":20800,"station_id":"ce4bhu92rcd13ifvqi70","pricing_plan_id":"cebpf4jnsgd1na2vs0mg"},{"bike_id":"2f784e8a-1b4b-4354-9d28-5d48b4cb428d","system_id":"levelo_inurba_marseille","lat":43.29248,"lon":5.37615,"is_reserved":false,"is_disabled":false,"rental_uris":{"android":"levelo://app?vid=2f784e8a-1b4b-4354-9d28-5d48b4cb428d","ios":"levelo://app?vid=2f784e8a-1b4b-4354-9d28-5d48b4cb428d"},"vehicle_type_id":"4","last_reported":1741428513,"current_range_meters":21600,"station_id":"ce4bgi12rcd13ifvqb80","pricing_plan_id":"cebpf4jnsgd1na2vs0mg"},{"bike_id":"de25db68-f3a4-4979-819a-f6a0b208b800","system_id":"levelo_inurba_marseille","lat":43.29606,"lon":5.37735,"is_reserved":false,"is_disabled":false,"rental_uris":{"android":"levelo://app?vid=de25db68-f3a4-4979-819a-f6a0b208b800","ios":"levelo://app?vid=de25db68-f3a4-4979-819a-f6a0b208b800"},"vehicle_type_id":"4","last_reported":1741428513,"current_range_meters":21600,"station_id":"ce4bgi92rcd13ifvqb90","pricing_plan_id":"cebpf4jnsgd1na2vs0mg"},{"bike_id":"a7ef8a89-2984-4370-87e1-173fa796e976","system_id":"levelo_inurba_marseille","lat":43.30297,"lon":5.3689,"is_reserved":false,"is_disabled":false,"rental_uris":{"android":"levelo://app?vid=a7ef8a89-2984-4370-87e1-173fa796e976","ios":"levelo://app?vid=a7ef8a89-2984-4370-87e1-173fa796e976"},"vehicle_type_id":"4","last_reported":1741428513,"current_range_meters":21600,"station_id":"ce4bgqh2rcd13ifvqc5g","pricing_plan_id":"cebpf4jnsgd1na2vs0mg"},{"bike_id":"ca776a98-d27c-4246-9bab-87bc40a06067","system_id":"levelo_inurba_marseille","lat":43.31351,"lon":5.39676,"is_reserved":false,"is_disabled":false,"rental_uris":{"android":"levelo://app?vid=ca776a98-d27c-4246-9bab-87bc40a06067","ios":"levelo://app?vid=ca776a98-d27c-4246-9bab-87bc40a06067"},"vehicle_type_id":"4","last_reported":1741428513,"current_range_meters":21600,"station_id":"ce4bgvp2rcd13ifvqcu0","pricing_plan_id":"cebpf4jnsgd1na2vs0mg"},{"bike_id":"a3edbd35-b6c1-4f09-afd4-417e5b3d6b7b","system_id":"levelo_inurba_marseille","lat":43.28426,"lon":5.34983,"is_reserved":false,"is_disabled":false,"rental_uris":{"android":"levelo://app?vid=a3edbd35-b6c1-4f09-afd4-417e5b3d6b7b","ios":"levelo://app?vid=a3edbd35-b6c1-4f09-afd4-417e5b3d6b7b"},"vehicle_type_id":"4","last_reported":1741428513,"current_range_meters":21600,"station_id":"ce4bhbh2rcd13ifvqepg","pricing_plan_id":"cebpf4jnsgd1na2vs0mg"},{"bike_id":"bc162718-68c0-4f54-8e91-1aeb22607c45","system_id":"levelo_inurba_marseille","lat":43.27206,"lon":5.39179,"is_reserved":false,"is_disabled":false,"rental_uris":{"android":"levelo://app?vid=bc162718-68c0-4f54-8e91-1aeb22607c45","ios":"levelo://app?vid=bc162718-68c0-4f54-8e91-1aeb22607c45"},"vehicle_type_id":"4","last_reported":1741428513,"current_range_meters":21600,"station_id":"ce4bhhp2rcd13ifvqfm0","pricing_plan_id":"cebpf4jnsgd1na2vs0mg"},{"bike_id":"5da688d2-8e15-4a8a-9d87-a20f25906e55","system_id":"levelo_inurba_marseille","lat":43.24169,"lon":5.39738,"is_reserved":false,"is_disabled":false,"rental_uris":{"android":"levelo://app?vid=5da688d2-8e15-4a8a-9d87-a20f25906e55","ios":"levelo://app?vid=5da688d2-8e15-4a8a-9d87-a20f25906e55"},"vehicle_type_id":"4","last_reported":1741428513,"current_range_meters":21600,"station_id":"ce4bhn12rcd13ifvqgpg","pricing_plan_id":"cebpf4jnsgd1na2vs0mg"},{"bike_id":"79e726be-47ab-4c47-b9ed-611819679b12","system_id":"levelo_inurba_marseille","lat":43.268,"lon":5.40253,"is_reserved":false,"is_disabled":false,"rental_uris":{"android":"levelo://app?vid=79e726be-47ab-4c47-b9ed-611819679b12","ios":"levelo://app?vid=79e726be-47ab-4c47-b9ed-611819679b12"},"vehicle_type_id":"4","last_reported":1741428513,"current_range_meters":21600,"station_id":"ce501612rcd8frsf0b60","pricing_plan_id":"cebpf4jnsgd1na2vs0mg"},{"bike_id":"32d6224f-3720-4fe2-bc93-7516a3099209","system_id":"levelo_inurba_marseille","lat":43.2692,"lon":5.40247,"is_reserved":false,"is_disabled":false,"rental_uris":{"android":"levelo://app?vid=32d6224f-3720-4fe2-bc93-7516a3099209","ios":"levelo://app?vid=32d6224f-3720-4fe2-bc93-7516a3099209"},"vehicle_type_id":"4","last_reported":1741428513,"current_range_meters":21600,"station_id":"cjm6bp8fraef2m0cb0m0","pricing_plan_id":"cebpf4jnsgd1na2vs0mg"},{"bike_id":"3976e046-2519-4049-b73b-e7fb590ad9e3","system_id":"levelo_inurba_marseille","lat":43.29518,"lon":5.37503,"is_reserved":false,"is_disabled":false,"rental_uris":{"android":"levelo://app?vid=3976e046-2519-4049-b73b-e7fb590ad9e3","ios":"levelo://app?vid=3976e046-2519-4049-b73b-e7fb590ad9e3"},"vehicle_type_id":"4","last_reported":1741428513,"current_range_meters":22000,"station_id":"ce4bgkp2rcd13ifvqbmg","pricing_plan_id":"cebpf4jnsgd1na2vs0mg"},{"bike_id":"aacce519-54e3-4dd8-a60f-417f7fb7a027","system_id":"levelo_inurba_marseille","lat":43.31363,"lon":5.39666,"is_reserved":false,"is_disabled":false,"rental_uris":{"android":"levelo://app?vid=aacce519-54e3-4dd8-a60f-417f7fb7a027","ios":"levelo://app?vid=aacce519-54e3-4dd8-a60f-417f7fb7a027"},"vehicle_type_id":"4","last_reported":1741428513,"current_range_meters":22000,"station_id":"ce4bgvp2rcd13ifvqcu0","pricing_plan_id":"cebpf4jnsgd1na2vs0mg"},{"bike_id":"ef17aa4d-e682-4b85-ab6d-0cdefd088648","system_id":"levelo_inurba_marseille","lat":43.25005,"lon":5.38941,"is_reserved":false,"is_disabled":false,"rental_uris":{"android":"levelo://app?vid=ef17aa4d-e682-4b85-ab6d-0cdefd088648","ios":"levelo://app?vid=ef17aa4d-e682-4b85-ab6d-0cdefd088648"},"vehicle_type_id":"4","last_reported":1741428513,"current_range_meters":22000,"station_id":"ce4bhgp2rcd13ifvqfd0","pricing_plan_id":"cebpf4jnsgd1na2vs0mg"},{"bike_id":"7c3db1e2-223a-4bf0-9c84-874eb67e7afd","system_id":"levelo_inurba_marseille","lat":43.26487,"lon":5.3957,"is_reserved":false,"is_disabled":false,"rental_uris":{"android":"levelo://app?vid=7c3db1e2-223a-4bf0-9c84-874eb67e7afd","ios":"levelo://app?vid=7c3db1e2-223a-4bf0-9c84-874eb67e7afd"},"vehicle_type_id":"4","last_reported":1741428513,"current_range_meters":22000,"station_id":"ce4bhi12rcd13ifvqfq0","pricing_plan_id":"cebpf4jnsgd1na2vs0mg"},{"bike_id":"991029b2-cb7c-40d7-a8f6-9252093111df","system_id":"levelo_inurba_marseille","lat":43.27943,"lon":5.41041,"is_reserved":false,"is_disabled":false,"rental_uris":{"android":"levelo://app?vid=991029b2-cb7c-40d7-a8f6-9252093111df","ios":"levelo://app?vid=991029b2-cb7c-40d7-a8f6-9252093111df"},"vehicle_type_id":"4","last_reported":1741428513,"current_range_meters":22000,"station_id":"ce4bhnp2rcd13ifvqh0g","pricing_plan_id":"cebpf4jnsgd1na2vs0mg"},{"bike_id":"da1a101a-d4dc-47f7-94ec-bb8e77983502","system_id":"levelo_inurba_marseille","lat":43.34141,"lon":5.40914,"is_reserved":false,"is_disabled":false,"rental_uris":{"android":"levelo://app?vid=da1a101a-d4dc-47f7-94ec-bb8e77983502","ios":"levelo://app?vid=da1a101a-d4dc-47f7-94ec-bb8e77983502"},"vehicle_type_id":"4","last_reported":1741428513,"current_range_meters":22000,"station_id":"ce4bhqh2rcd13ifvqhlg","pricing_plan_id":"cebpf4jnsgd1na2vs0mg"},{"bike_id":"e318ebc1-1026-44c5-ad39-3774f79fc813","system_id":"levelo_inurba_marseille","lat":43.32475,"lon":5.36568,"is_reserved":false,"is_disabled":false,"rental_uris":{"android":"levelo://app?vid=e318ebc1-1026-44c5-ad39-3774f79fc813","ios":"levelo://app?vid=e318ebc1-1026-44c5-ad39-3774f79fc813"},"vehicle_type_id":"4","last_reported":1741428513,"current_range_meters":22000,"station_id":"ce4bhs12rcd13ifvqhvg","pricing_plan_id":"cebpf4jnsgd1na2vs0mg"},{"bike_id":"04459c79-f987-4676-9769-4bf321be1579","system_id":"levelo_inurba_marseille","lat":43.28535,"lon":5.38018,"is_reserved":false,"is_disabled":false,"rental_uris":{"android":"levelo://app?vid=04459c79-f987-4676-9769-4bf321be1579","ios":"levelo://app?vid=04459c79-f987-4676-9769-4bf321be1579"},"vehicle_type_id":"4","last_reported":1741428513,"current_range_meters":22400,"station_id":"","pricing_plan_id":"cebpf4jnsgd1na2vs0mg"},{"bike_id":"9825cbb7-35f8-4a35-9ab3-9bb5cd380f50","system_id":"levelo_inurba_marseille","lat":43.2732,"lon":5.39134,"is_reserved":false,"is_disabled":false,"rental_uris":{"android":"levelo://app?vid=9825cbb7-35f8-4a35-9ab3-9bb5cd380f50","ios":"levelo://app?vid=9825cbb7-35f8-4a35-9ab3-9bb5cd380f50"},"vehicle_type_id":"4","last_reported":1741428513,"current_range_meters":22400,"station_id":"","pricing_plan_id":"cebpf4jnsgd1na2vs0mg"},{"bike_id":"dd4b1e83-a2f1-414f-9bf0-567bfb504e15","system_id":"levelo_inurba_marseille","lat":43.29591,"lon":5.37502,"is_reserved":false,"is_disabled":false,"rental_uris":{"android":"levelo://app?vid=dd4b1e83-a2f1-414f-9bf0-567bfb504e15","ios":"levelo://app?vid=dd4b1e83-a2f1-414f-9bf0-567bfb504e15"},"vehicle_type_id":"4","last_reported":1741428513,"current_range_meters":22400,"station_id":"ce4bgh92rcd13ifvqb50","pricing_plan_id":"cebpf4jnsgd1na2vs0mg"},{"bike_id":"5a052328-58ce-47ac-b728-c25cdc596bb3","system_id":"levelo_inurba_marseille","lat":43.29986,"lon":5.38514,"is_reserved":false,"is_disabled":false,"rental_uris":{"android":"levelo://app?vid=5a052328-58ce-47ac-b728-c25cdc596bb3","ios":"levelo://app?vid=5a052328-58ce-47ac-b728-c25cdc596bb3"},"vehicle_type_id":"4","last_reported":1741428513,"current_range_meters":22400,"station_id":"ce4bgj92rcd13ifvqbd0","pricing_plan_id":"cebpf4jnsgd1na2vs0mg"},{"bike_id":"20857114-e6e2-4858-bac9-17b8fb2d6601","system_id":"levelo_inurba_marseille","lat":43.26547,"lon":5.373376,"is_reserved":false,"is_disabled":false,"rental_uris":{"android":"levelo://app?vid=20857114-e6e2-4858-bac9-17b8fb2d6601","ios":"levelo://app?vid=20857114-e6e2-4858-bac9-17b8fb2d6601"},"vehicle_type_id":"4","last_reported":1741428513,"current_range_meters":22400,"station_id":"ce4bhg12rcd13ifvqf70","pricing_plan_id":"cebpf4jnsgd1na2vs0mg"},{"bike_id":"e72765df-32b0-43ca-b2de-a29722b94da5","system_id":"levelo_inurba_marseille","lat":43.28706,"lon":5.39984,"is_reserved":false,"is_disabled":false,"rental_uris":{"android":"levelo://app?vid=e72765df-32b0-43ca-b2de-a29722b94da5","ios":"levelo://app?vid=e72765df-32b0-43ca-b2de-a29722b94da5"},"vehicle_type_id":"4","last_reported":1741428513,"current_range_meters":22400,"station_id":"ce4bho92rcd13ifvqh3g","pricing_plan_id":"cebpf4jnsgd1na2vs0mg"},{"bike_id":"4813ee45-b9ee-4539-b83f-aacd8cee2f9c","system_id":"levelo_inurba_marseille","lat":43.232,"lon":5.35551,"is_reserved":false,"is_disabled":false,"rental_uris":{"android":"levelo://app?vid=4813ee45-b9ee-4539-b83f-aacd8cee2f9c","ios":"levelo://app?vid=4813ee45-b9ee-4539-b83f-aacd8cee2f9c"},"vehicle_type_id":"4","last_reported":1741428513,"current_range_meters":22400,"station_id":"ce4bhu92rcd13ifvqi70","pricing_plan_id":"cebpf4jnsgd1na2vs0mg"},{"bike_id":"45add6bd-af50-4375-9796-e9403a5c27b5","system_id":"levelo_inurba_marseille","lat":43.253389,"lon":5.376596,"is_reserved":false,"is_disabled":false,"rental_uris":{"android":"levelo://app?vid=45add6bd-af50-4375-9796-e9403a5c27b5","ios":"levelo://app?vid=45add6bd-af50-4375-9796-e9403a5c27b5"},"vehicle_type_id":"4","last_reported":1741428513,"current_range_meters":22800,"station_id":"","pricing_plan_id":"cebpf4jnsgd1na2vs0mg"},{"bike_id":"582c89fb-f8f1-4dc2-8fa0-387f285c3f5b","system_id":"levelo_inurba_marseille","lat":43.32307,"lon":5.37552,"is_reserved":false,"is_disabled":false,"rental_uris":{"android":"levelo://app?vid=582c89fb-f8f1-4dc2-8fa0-387f285c3f5b","ios":"levelo://app?vid=582c89fb-f8f1-4dc2-8fa0-387f285c3f5b"},"vehicle_type_id":"4","last_reported":1741428513,"current_range_meters":22800,"station_id":"","pricing_plan_id":"cebpf4jnsgd1na2vs0mg"},{"bike_id":"9ed8bd2c-a337-4888-981f-c735695e7f2d","system_id":"levelo_inurba_marseille","lat":43.29709,"lon":5.37707,"is_reserved":false,"is_disabled":false,"rental_uris":{"android":"levelo://app?vid=9ed8bd2c-a337-4888-981f-c735695e7f2d","ios":"levelo://app?vid=9ed8bd2c-a337-4888-981f-c735695e7f2d"},"vehicle_type_id":"4","last_reported":1741428513,"current_range_meters":22800,"station_id":"ce4bgkh2rcd13ifvqbl0","pricing_plan_id":"cebpf4jnsgd1na2vs0mg"},{"bike_id":"8d61a121-1063-4b09-976a-d5d22f7f10f8","system_id":"levelo_inurba_marseille","lat":43.29576,"lon":5.36785,"is_reserved":false,"is_disabled":false,"rental_uris":{"android":"levelo://app?vid=8d61a121-1063-4b09-976a-d5d22f7f10f8","ios":"levelo://app?vid=8d61a121-1063-4b09-976a-d5d22f7f10f8"},"vehicle_type_id":"4","last_reported":1741428513,"current_range_meters":22800,"station_id":"ce4bgph2rcd13ifvqc2g","pricing_plan_id":"cebpf4jnsgd1na2vs0mg"},{"bike_id":"90a1ee3c-a390-473d-a212-a7a88e1a7482","system_id":"levelo_inurba_marseille","lat":43.24391,"lon":5.37066,"is_reserved":false,"is_disabled":false,"rental_uris":{"android":"levelo://app?vid=90a1ee3c-a390-473d-a212-a7a88e1a7482","ios":"levelo://app?vid=90a1ee3c-a390-473d-a212-a7a88e1a7482"},"vehicle_type_id":"4","last_reported":1741428513,"current_range_meters":22800,"station_id":"ce4bhhh2rcd13ifvqfk0","pricing_plan_id":"cebpf4jnsgd1na2vs0mg"},{"bike_id":"63541393-182c-420b-8fc3-f48b56acc5ed","system_id":"levelo_inurba_marseille","lat":43.27206,"lon":5.39176,"is_reserved":false,"is_disabled":false,"rental_uris":{"android":"levelo://app?vid=63541393-182c-420b-8fc3-f48b56acc5ed","ios":"levelo://app?vid=63541393-182c-420b-8fc3-f48b56acc5ed"},"vehicle_type_id":"4","last_reported":1741428513,"current_range_meters":22800,"station_id":"ce4bhhp2rcd13ifvqfm0","pricing_plan_id":"cebpf4jnsgd1na2vs0mg"},