{"last_updated":1737821345,"ttl":60,"version":"2.2","data":{"bikes":[{"bike_id":"3a347103-1ba4-4e0d-a63f-3fd1b8c887ed","system_id":"levelo_inurba_marseille","lat":43.26213,"lon":5.37441,"is_reserved":false,"is_disabled":false,"rental_uris":{"android":"levelo://app?vid=3a347103-1ba4-4e0d-a63f-3fd1b8c887ed","ios":"levelo://app?vid=3a347103-1ba4-4e0d-a63f-3fd1b8c887ed"},"vehicle_type_id":"4","last_reported":1737821345,"current_range_meters":36400,"station_id":"ce4bhgp2rcd13ifvqfc0","pricing_plan_id":"cebpf4jnsgd1na2vs0mg"},{"bike_id":"d2761b5d-d954-42ab-98b1-5cfb383757cf","system_id":"levelo_inurba_marseille","lat":43.32048,"lon":5.41553,"is_reserved":false,"is_disabled":false,"rental_uris":{"android":"levelo://app?vid=d2761b5d-d954-42ab-98b1-5cfb383757cf","ios":"levelo://app?vid=d2761b5d-d954-42ab-98b1-5cfb383757cf"},"vehicle_type_id":"4","last_reported":1737821345,"current_range_meters":24800,"station_id":"ce4bhq92rcd13ifvqhkg","pricing_plan_id":"cebpf4jnsgd1na2vs0mg"},{"bike_id":"e3724a69-e55d-4ddd-a9b5-2e7a98144808","system_id":"levelo_inurba_marseille","lat":43.2984,"lon":5.36335,"is_reserved":false,"is_disabled":false,"rental_uris":{"android":"levelo://app?vid=e3724a69-e55d-4ddd-a9b5-2e7a98144808","ios":"levelo://app?vid=e3724a69-e55d-4ddd-a9b5-2e7a98144808"},"vehicle_type_id":"4","last_reported":1737821345,"current_range_meters":25200,"station_id":"ce4bgpp2rcd13ifvqc3g","pricing_plan_id":"cebpf4jnsgd1na2vs0mg"},{"bike_id":"22fdda07-29f7-4097-aa7c-457566d3caba","system_id":"levelo_inurba_marseille","lat":43.25079,"lon":5.39534,"is_reserved":false,"is_disabled":false,"rental_uris":{"android":"levelo://app?vid=22fdda07-29f7-4097-aa7c-457566d3caba","ios":"levelo://app?vid=22fdda07-29f7-4097-aa7c-457566d3caba"},"vehicle_type_id":"4","last_reported":1737821345,"current_range_meters":28800,"station_id":"ce4bhm12rcd13ifvqgkg","pricing_plan_id":"cebpf4jnsgd1na2vs0mg"},{"bike_id":"653f0531-1b83-4b78-8ac6-2c9005a5eae7","system_id":"levelo_inurba_marseille","lat":43.29616,"lon":5.37704,"is_reserved":false,"is_disabled":false,"rental_uris":{"android":"levelo://app?vid=653f0531-1b83-4b78-8ac6-2c9005a5eae7","ios":"levelo://app?vid=653f0531-1b83-4b78-8ac6-2c9005a5eae7"},"vehicle_type_id":"4","last_reported":1737821345,"current_range_meters":38800,"station_id":"ce4bgi92rcd13ifvqb90","pricing_plan_id":"cebpf4jnsgd1na2vs0mg"},{"bike_id":"441c4df3-5487-4633-893d-903b6ae24ed1","system_id":"levelo_inurba_marseille","lat":43.29481,"lon":5.39453,"is_reserved":false,"is_disabled":false,"rental_uris":{"android":"levelo://app?vid=441c4df3-5487-4633-893d-903b6ae24ed1","ios":"levelo://app?vid=441c4df3-5487-4633-893d-903b6ae24ed1"},"vehicle_type_id":"4","last_reported":1737821345,"current_range_meters":36000,"station_id":"ce4bh292rcd13ifvqdf0","pricing_plan_id":"cebpf4jnsgd1na2vs0mg"},{"bike_id":"f27962d7-2fd4-4794-b771-0341224112da","system_id":"levelo_inurba_marseille","lat":43.26568,"lon":5.39005,"is_reserved":false,"is_disabled":false,"rental_uris":{"android":"levelo://app?vid=f27962d7-2fd4-4794-b771-0341224112da","ios":"levelo://app?vid=f27962d7-2fd4-4794-b771-0341224112da"},"vehicle_type_id":"4","last_reported":1737821345,"current_range_meters":13600,"station_id":"ce4bhe12rcd13ifvqf30","pricing_plan_id":"cebpf4jnsgd1na2vs0mg"},{"bike_id":"58d9e3df-28a3-4560-b2cd-4d33fefbd544","system_id":"levelo_inurba_marseille","lat":43.28339,"lon":5.38107,"is_reserved":false,"is_disabled":true,"rental_uris":{"android":"levelo://app?vid=58d9e3df-28a3-4560-b2cd-4d33fefbd544","ios":"levelo://app?vid=58d9e3df-28a3-4560-b2cd-4d33fefbd544"},"vehicle_type_id":"4","last_reported":1737821345,"current_range_meters":22400,"station_id":"ce4bh412rcd13ifvqdr0","pricing_plan_id":"cebpf4jnsgd1na2vs0mg"},{"bike_id":"6b4c5826-d30b-4b25-93cf-9a29002ca732","system_id":"levelo_inurba_marseille","lat":43.29873,"lon":5.38904,"is_reserved":false,"is_disabled":false,"rental_uris":{"android":"levelo://app?vid=6b4c5826-d30b-4b25-93cf-9a29002ca732","ios":"levelo://app?vid=6b4c5826-d30b-4b25-93cf-9a29002ca732"},"vehicle_type_id":"4","last_reported":1737821345,"current_range_meters":9600,"station_id":"ce4bh392rcd13ifvqdl0","pricing_plan_id":"cebpf4jnsgd1na2vs0mg"},{"bike_id":"4914872c-162c-4b5d-a9af-cff65f389580","system_id":"levelo_inurba_marseille","lat":43.29609,"lon":5.381068,"is_reserved":false,"is_disabled":true,"rental_uris":{"android":"levelo://app?vid=4914872c-162c-4b5d-a9af-cff65f389580","ios":"levelo://app?vid=4914872c-162c-4b5d-a9af-cff65f389580"},"vehicle_type_id":"4","last_reported":1737821345,"current_range_meters":0,"station_id":"ce4bgl12rcd13ifvqbo0","pricing_plan_id":"cebpf4jnsgd1na2vs0mg"},{"bike_id":"b6150503-a57c-4b90-82fe-1cf198873b0e","system_id":"levelo_inurba_marseille","lat":43.30145,"lon":5.37431,"is_reserved":false,"is_disabled":false,"rental_uris":{"android":"levelo://app?vid=b6150503-a57c-4b90-82fe-1cf198873b0e","ios":"levelo://app?vid=b6150503-a57c-4b90-82fe-1cf198873b0e"},"vehicle_type_id":"4","last_reported":1737821345,"current_range_meters":36000,"station_id":"ce4bgs92rcd13ifvqcc0","pricing_plan_id":"cebpf4jnsgd1na2vs0mg"},{"bike_id":"79db0bdf-63a6-45b5-92ea-ac0d7d080995","system_id":"levelo_inurba_marseille","lat":43.30551,"lon":5.36537,"is_reserved":false,"is_disabled":true,"rental_uris":{"android":"levelo://app?vid=79db0bdf-63a6-45b5-92ea-ac0d7d080995","ios":"levelo://app?vid=79db0bdf-63a6-45b5-92ea-ac0d7d080995"},"vehicle_type_id":"4","last_reported":1737821345,"current_range_meters":1200,"station_id":"ce4bgs12rcd13ifvqcag","pricing_plan_id":"cebpf4jnsgd1na2vs0mg"},{"bike_id":"b1279c7a-1446-4139-9aa3-d2ea00fcb203","system_id":"levelo_inurba_marseille","lat":43.3255,"lon":5.41471,"is_reserved":false,"is_disabled":false,"rental_uris":{"android":"levelo://app?vid=b1279c7a-1446-4139-9aa3-d2ea00fcb203","ios":"levelo://app?vid=b1279c7a-1446-4139-9aa3-d2ea00fcb203"},"vehicle_type_id":"4","last_reported":1737821345,"current_range_meters":36800,"station_id":"ce4bhq12rcd13ifvqhhg","pricing_plan_id":"cebpf4jnsgd1na2vs0mg"},{"bike_id":"3262fc34-6064-4df1-8010-73e7159688ea","system_id":"levelo_inurba_marseille","lat":43.25112,"lon":5.40327,"is_reserved":false,"is_disabled":false,"rental_uris":{"android":"levelo://app?vid=3262fc34-6064-4df1-8010-73e7159688ea","ios":"levelo://app?vid=3262fc34-6064-4df1-8010-73e7159688ea"},"vehicle_type_id":"4","last_reported":1737821345,"current_range_meters":38800,"station_id":"ce4bhlh2rcd13ifvqgig","pricing_plan_id":"cebpf4jnsgd1na2vs0mg"},{"bike_id":"5f5b88cc-8a22-49ba-b336-77fe57700c7e","system_id":"levelo_inurba_marseille","lat":43.29796,"lon":5.3811,"is_reserved":false,"is_disabled":false,"rental_uris":{"android":"levelo://app?vid=5f5b88cc-8a22-49ba-b336-77fe57700c7e","ios":"levelo://app?vid=5f5b88cc-8a22-49ba-b336-77fe57700c7e"},"vehicle_type_id":"4","last_reported":1737821345,"current_range_meters":38400,"station_id":"ce4bgip2rcd13ifvqbb0","pricing_plan_id":"cebpf4jnsgd1na2vs0mg"},{"bike_id":"457dbd0e-8f95-45e9-8ae6-40b39a5ca596","system_id":"levelo_inurba_marseille","lat":43.231964,"lon":5.355568,"is_reserved":false,"is_disabled":false,"rental_uris":{"android":"levelo://app?vid=457dbd0e-8f95-45e9-8ae6-40b39a5ca596","ios":"levelo://app?vid=457dbd0e-8f95-45e9-8ae6-40b39a5ca596"},"vehicle_type_id":"4","last_reported":1737821345,"current_range_meters":4000,"station_id":"ce4bhu92rcd13ifvqi70","pricing_plan_id":"cebpf4jnsgd1na2vs0mg"},{"bike_id":"e5a30d51-78ea-43cc-a39d-c28354fa034e","system_id":"levelo_inurba_marseille","lat":43.29897,"lon":5.38142,"is_reserved":false,"is_disabled":false,"rental_uris":{"android":"levelo://app?vid=e5a30d51-78ea-43cc-a39d-c28354fa034e","ios":"levelo://app?vid=e5a30d51-78ea-43cc-a39d-c28354fa034e"},"vehicle_type_id":"4","last_reported":1737821345,"current_range_meters":34000,"station_id":"ce4bgj12rcd13ifvqbc0","pricing_plan_id":"cebpf4jnsgd1na2vs0mg"},{"bike_id":"34fd7956-88f6-4bc0-8512-2636610900a4","system_id":"levelo_inurba_marseille","lat":43.2319,"lon":5.35552,"is_reserved":false,"is_disabled":false,"rental_uris":{"android":"levelo://app?vid=34fd7956-88f6-4bc0-8512-2636610900a4","ios":"levelo://app?vid=34fd7956-88f6-4bc0-8512-2636610900a4"},"vehicle_type_id":"4","last_reported":1737821345,"current_range_meters":0,"station_id":"ce4bhu92rcd13ifvqi70","pricing_plan_id":"cebpf4jnsgd1na2vs0mg"},{"bike_id":"9d5ccda8-3701-45d5-9f90-ad50ba3514f0","system_id":"levelo_inurba_marseille","lat":43.28415,"lon":5.34991,"is_reserved":false,"is_disabled":false,"rental_uris":{"android":"levelo://app?vid=9d5ccda8-3701-45d5-9f90-ad50ba3514f0","ios":"levelo://app?vid=9d5ccda8-3701-45d5-9f90-ad50ba3514f0"},"vehicle_type_id":"4","last_reported":1737821345,"current_range_meters":24800,"station_id":"ce4bhbh2rcd13ifvqepg","pricing_plan_id":"cebpf4jnsgd1na2vs0mg"},{"bike_id":"b8dabcf6-0a30-4ef3-864d-5a2b0008cb16","system_id":"levelo_inurba_marseille","lat":43.31702,"lon":5.4369,"is_reserved":false,"is_disabled":false,"rental_uris":{"android":"levelo://app?vid=b8dabcf6-0a30-4ef3-864d-5a2b0008cb16","ios":"levelo://app?vid=b8dabcf6-0a30-4ef3-864d-5a2b0008cb16"},"vehicle_type_id":"4","last_reported":1737821345,"current_range_meters":17200,"station_id":"ce4bhp92rcd13ifvqhcg","pricing_plan_id":"cebpf4jnsgd1na2vs0mg"},{"bike_id":"d06b6dd8-7b26-4e14-8483-8f8817ba9baf","system_id":"levelo_inurba_marseille","lat":43.32055,"lon":5.41529,"is_reserved":false,"is_disabled":false,"rental_uris":{"android":"levelo://app?vid=d06b6dd8-7b26-4e14-8483-8f8817ba9baf","ios":"levelo://app?vid=d06b6dd8-7b26-4e14-8483-8f8817ba9baf"},"vehicle_type_id":"4","last_reported":1737821345,"current_range_meters":36400,"station_id":"ce4bhq92rcd13ifvqhkg","pricing_plan_id":"cebpf4jnsgd1na2vs0mg"},{"bike_id":"74e364cc-2306-441e-81f3-ee04e55cb71d","system_id":"levelo_inurba_marseille","lat":43.323625,"lon":5.36757,"is_reserved":false,"is_disabled":false,"rental_uris":{"android":"levelo://app?vid=74e364cc-2306-441e-81f3-ee04e55cb71d","ios":"levelo://app?vid=74e364cc-2306-441e-81f3-ee04e55cb71d"},"vehicle_type_id":"4","last_reported":1737821345,"current_range_meters":3200,"station_id":"ce4bhsh2rcd13ifvqi2g","pricing_plan_id":"cebpf4jnsgd1na2vs0mg"},{"bike_id":"6c656a30-f69a-42b1-a09a-f34a34ccdccd","system_id":"levelo_inurba_marseille","lat":43.29526,"lon":5.38552,"is_reserved":false,"is_disabled":true,"rental_uris":{"android":"levelo://app?vid=6c656a30-f69a-42b1-a09a-f34a34ccdccd","ios":"levelo://app?vid=6c656a30-f69a-42b1-a09a-f34a34ccdccd"},"vehicle_type_id":"4","last_reported":1737821345,"current_range_meters":1600,"station_id":"ce4bgih2rcd13ifvqba0","pricing_plan_id":"cebpf4jnsgd1na2vs0mg"},{"bike_id":"19fff28a-36d5-4675-9d79-9415d5a8db52","system_id":"levelo_inurba_marseille","lat":43.25492,"lon":5.37653,"is_reserved":false,"is_disabled":false,"rental_uris":{"android":"levelo://app?vid=19fff28a-36d5-4675-9d79-9415d5a8db52","ios":"levelo://app?vid=19fff28a-36d5-4675-9d79-9415d5a8db52"},"vehicle_type_id":"4","last_reported":1737821345,"current_range_meters":38800,"station_id":"ce4bhh12rcd13ifvqff0","pricing_plan_id":"cebpf4jnsgd1na2vs0mg"},{"bike_id":"4e4c21f1-31be-4bf3-860c-01436ea78d15","system_id":"levelo_inurba_marseille","lat":43.27374,"lon":5.36249,"is_reserved":false,"is_disabled":false,"rental_uris":{"android":"levelo://app?vid=4e4c21f1-31be-4bf3-860c-01436ea78d15","ios":"levelo://app?vid=4e4c21f1-31be-4bf3-860c-01436ea78d15"},"vehicle_type_id":"4","last_reported":1737821345,"current_range_meters":7200,"station_id":"ce4bhbh2rcd13ifvqeo0","pricing_plan_id":"cebpf4jnsgd1na2vs0mg"},{"bike_id":"8f065bce-99a2-4c27-a9d1-fe978a2a8ee0","system_id":"levelo_inurba_marseille","lat":43.29101,"lon":5.38154,"is_reserved":false,"is_disabled":false,"rental_uris":{"android":"levelo://app?vid=8f065bce-99a2-4c27-a9d1-fe978a2a8ee0","ios":"levelo://app?vid=8f065bce-99a2-4c27-a9d1-fe978a2a8ee0"},"vehicle_type_id":"4","last_reported":1737821345,"current_range_meters":4000,"station_id":"ce4bh512rcd13ifvqe2g","pricing_plan_id":"cebpf4jnsgd1na2vs0mg"},{"bike_id":"e9b18d33-2c32-4c0b-bac5-aee7380b5154","system_id":"levelo_inurba_marseille","lat":43.25086,"lon":5.39527,"is_reserved":false,"is_disabled":false,"rental_uris":{"android":"levelo://app?vid=e9b18d33-2c32-4c0b-bac5-aee7380b5154","ios":"levelo://app?vid=e9b18d33-2c32-4c0b-bac5-aee7380b5154"},"vehicle_type_id":"4","last_reported":1737821345,"current_range_meters":25600,"station_id":"ce4bhm12rcd13ifvqgkg","pricing_plan_id":"cebpf4jnsgd1na2vs0mg"},{"bike_id":"2dde1f1c-4dc9-4033-bf0d-6771e7af02b4","system_id":"levelo_inurba_marseille","lat":43.26204,"lon":5.37447,"is_reserved":false,"is_disabled":false,"rental_uris":{"android":"levelo://app?vid=2dde1f1c-4dc9-4033-bf0d-6771e7af02b4","ios":"levelo://app?vid=2dde1f1c-4dc9-4033-bf0d-6771e7af02b4"},"vehicle_type_id":"4","last_reported":1737821345,"current_range_meters":12000,"station_id":"ce4bhgp2rcd13ifvqfc0","pricing_plan_id":"cebpf4jnsgd1na2vs0mg"},{"bike_id":"7ff41bb0-58bb-4e7a-856f-2a2aba66f15e","system_id":"levelo_inurba_marseille","lat":43.31699,"lon":5.43711,"is_reserved":false,"is_disabled":false,"rental_uris":{"android":"levelo://app?vid=7ff41bb0-58bb-4e7a-856f-2a2aba66f15e","ios":"levelo://app?vid=7ff41bb0-58bb-4e7a-856f-2a2aba66f15e"},"vehicle_type_id":"4","last_reported":1737821345,"current_range_meters":38800,"station_id":"ce4bhp92rcd13ifvqhcg","pricing_plan_id":"cebpf4jnsgd1na2vs0mg"},{"bike_id":"23e17fbf-081c-4e5e-a7b3-bf90902de0cd","system_id":"levelo_inurba_marseille","lat":43.24997,"lon":5.3893,"is_reserved":false,"is_disabled":false,"rental_uris":{"android":"levelo://app?vid=23e17fbf-081c-4e5e-a7b3-bf90902de0cd","ios":"levelo://app?vid=23e17fbf-081c-4e5e-a7b3-bf90902de0cd"},"vehicle_type_id":"4","last_reported":1737821345,"current_range_meters":24400,"station_id":"ce4bhgp2rcd13ifvqfd0","pricing_plan_id":"cebpf4jnsgd1na2vs0mg"},{"bike_id":"b8c7ac08-94bb-4c1a-be59-442ad905fc87","system_id":"levelo_inurba_marseille","lat":43.292408,"lon":5.366033,"is_reserved":false,"is_disabled":false,"rental_uris":{"android":"levelo://app?vid=b8c7ac08-94bb-4c1a-be59-442ad905fc87","ios":"levelo://app?vid=b8c7ac08-94bb-4c1a-be59-442ad905fc87"},"vehicle_type_id":"4","last_reported":1737821345,"current_range_meters":34000,"station_id":"","pricing_plan_id":"cebpf4jnsgd1na2vs0mg"},{"bike_id":"47344f6b-c478-4169-9f67-1f0e1752d440","system_id":"levelo_inurba_marseille","lat":43.25581,"lon":5.38229,"is_reserved":false,"is_disabled":false,"rental_uris":{"android":"levelo://app?vid=47344f6b-c478-4169-9f67-1f0e1752d440","ios":"levelo://app?vid=47344f6b-c478-4169-9f67-1f0e1752d440"},"vehicle_type_id":"4","last_reported":1737821345,"current_range_meters":38400,"station_id":"ce4bhih2rcd13ifvqfs0","pricing_plan_id":"cebpf4jnsgd1na2vs0mg"},{"bike_id":"bfee4b9b-d663-4bb9-9f4d-af89be2efc52","system_id":"levelo_inurba_marseille","lat":43.29692,"lon":5.37316,"is_reserved":false,"is_disabled":false,"rental_uris":{"android":"levelo://app?vid=bfee4b9b-d663-4bb9-9f4d-af89be2efc52","ios":"levelo://app?vid=bfee4b9b-d663-4bb9-9f4d-af89be2efc52"},"vehicle_type_id":"4","last_reported":1737821345,"current_range_meters":24000,"station_id":"ce4bgk12rcd13ifvqbj0","pricing_plan_id":"cebpf4jnsgd1na2vs0mg"},{"bike_id":"1261b509-8885-4cc1-a428-b6274d9a5c58","system_id":"levelo_inurba_marseille","lat":43.29268,"lon":5.36843,"is_reserved":false,"is_disabled":true,"rental_uris":{"android":"levelo://app?vid=1261b509-8885-4cc1-a428-b6274d9a5c58","ios":"levelo://app?vid=1261b509-8885-4cc1-a428-b6274d9a5c58"},"vehicle_type_id":"4","last_reported":1737821345,"current_range_meters":400,"station_id":"ce4bhbp2rcd13ifvqesg","pricing_plan_id":"cebpf4jnsgd1na2vs0mg"},{"bike_id":"d97b23ac-1532-416d-97a4-ebdf3acd4687","system_id":"levelo_inurba_marseille","lat":43.28415,"lon":5.35002,"is_reserved":false,"is_disabled":false,"rental_uris":{"android":"levelo://app?vid=d97b23ac-1532-416d-97a4-ebdf3acd4687","ios":"levelo://app?vid=d97b23ac-1532-416d-97a4-ebdf3acd4687"},"vehicle_type_id":"4","last_reported":1737821345,"current_range_meters":24800,"station_id":"ce4bhbh2rcd13ifvqepg","pricing_plan_id":"cebpf4jnsgd1na2vs0mg"},{"bike_id":"6ddc8812-b1c0-45b1-a0a4-1bb4640b8f87","system_id":"levelo_inurba_marseille","lat":43.29888,"lon":5.38898,"is_reserved":false,"is_disabled":false,"rental_uris":{"android":"levelo://app?vid=6ddc8812-b1c0-45b1-a0a4-1bb4640b8f87","ios":"levelo://app?vid=6ddc8812-b1c0-45b1-a0a4-1bb4640b8f87"},"vehicle_type_id":"4","last_reported":1737821345,"current_range_meters":20000,"station_id":"ce4bh392rcd13ifvqdl0","pricing_plan_id":"cebpf4jnsgd1na2vs0mg"},{"bike_id":"4d9988bf-622b-4ca9-af9c-cd0d788f0490","system_id":"levelo_inurba_marseille","lat":43.29539,"lon":5.38538,"is_reserved":false,"is_disabled":false,"rental_uris":{"android":"levelo://app?vid=4d9988bf-622b-4ca9-af9c-cd0d788f0490","ios":"levelo://app?vid=4d9988bf-622b-4ca9-af9c-cd0d788f0490"},"vehicle_type_id":"4","last_reported":1737821345,"current_range_meters":19600,"station_id":"ce4bgih2rcd13ifvqba0","pricing_plan_id":"cebpf4jnsgd1na2vs0mg"},{"bike_id":"8019714b-4192-4a2f-9c28-3618de92e0e8","system_id":"levelo_inurba_marseille","lat":43.2656,"lon":5.37276,"is_reserved":false,"is_disabled":true,"rental_uris":{"android":"levelo://app?vid=8019714b-4192-4a2f-9c28-3618de92e0e8","ios":"levelo://app?vid=8019714b-4192-4a2f-9c28-3618de92e0e8"},"vehicle_type_id":"4","last_reported":1737821345,"current_range_meters":400,"station_id":"ce4bhg12rcd13ifvqf70","pricing_plan_id":"cebpf4jnsgd1na2vs0mg"},{"bike_id":"e0c13295-ccd0-4a2d-870d-119981de1b76","system_id":"levelo_inurba_marseille","lat":43.270756,"lon":5.389538,"is_reserved":false,"is_disabled":true,"rental_uris":{"android":"levelo://app?vid=e0c13295-ccd0-4a2d-870d-119981de1b76","ios":"levelo://app?vid=e0c13295-ccd0-4a2d-870d-119981de1b76"},"vehicle_type_id":"4","last_reported":1737821345,"current_range_meters":1200,"station_id":"ce4bhhp2rcd13ifvqfm0","pricing_plan_id":"cebpf4jnsgd1na2vs0mg"},{"bike_id":"eaee1b0f-f06d-45f6-a98c-ea80c9270f5e","system_id":"levelo_inurba_marseille","lat":43.27376,"lon":5.3627,"is_reserved":false,"is_disabled":true,"rental_uris":{"android":"levelo://app?vid=eaee1b0f-f06d-45f6-a98c-ea80c9270f5e","ios":"levelo://app?vid=eaee1b0f-f06d-45f6-a98c-ea80c9270f5e"},"vehicle_type_id":"4","last_reported":1737821345,"current_range_meters":0,"station_id":"ce4bhbh2rcd13ifvqeo0","pricing_plan_id":"cebpf4jnsgd1na2vs0mg"},{"bike_id":"6a161c6d-52f3-40be-9313-f40d749690bc","system_id":"levelo_inurba_marseille","lat":43.2985,"lon":5.36287,"is_reserved":false,"is_disabled":false,"rental_uris":{"android":"levelo://app?vid=6a161c6d-52f3-40be-9313-f40d749690bc","ios":"levelo://app?vid=6a161c6d-52f3-40be-9313-f40d749690bc"},"vehicle_type_id":"4","last_reported":1737821345,"current_range_meters":14800,"station_id":"ce4bgpp2rcd13ifvqc3g","pricing_plan_id":"cebpf4jnsgd1na2vs0mg"},{"bike_id":"8255dbbf-6c45-432a-91ed-9addf8fa8ef1","system_id":"levelo_inurba_marseille","lat":43.27371,"lon":5.36268,"is_reserved":false,"is_disabled":false,"rental_uris":{"android":"levelo://app?vid=8255dbbf-6c45-432a-91ed-9addf8fa8ef1","ios":"levelo://app?vid=8255dbbf-6c45-432a-91ed-9addf8fa8ef1"},"vehicle_type_id":"4","last_reported":1737821345,"current_range_meters":28400,"station_id":"ce4bhbh2rcd13ifvqeo0","pricing_plan_id":"cebpf4jnsgd1na2vs0mg"},{"bike_id":"e3b402d4-2650-4d9a-9898-255703226966","system_id":"levelo_inurba_marseille","lat":43.29299,"lon":5.37462,"is_reserved":false,"is_disabled":false,"rental_uris":{"android":"levelo://app?vid=e3b402d4-2650-4d9a-9898-255703226966","ios":"levelo://app?vid=e3b402d4-2650-4d9a-9898-255703226966"},"vehicle_type_id":"4","last_reported":1737821345,"current_range_meters":18000,"station_id":"ce4bgi12rcd13ifvqb70","pricing_plan_id":"cebpf4jnsgd1na2vs0mg"},{"bike_id":"a839e865-5412-490f-8eb2-f13d86232218","system_id":"levelo_inurba_marseille","lat":43.28626,"lon":5.35095,"is_reserved":false,"is_disabled":false,"rental_uris":{"android":"levelo://app?vid=a839e865-5412-490f-8eb2-f13d86232218","ios":"levelo://app?vid=a839e865-5412-490f-8eb2-f13d86232218"},"vehicle_type_id":"4","last_reported":1737821345,"current_range_meters":38800,"station_id":"ce4bhch2rcd13ifvqeug","pricing_plan_id":"cebpf4jnsgd1na2vs0mg"},{"bike_id":"bf3c03cd-7438-4933-8f22-68c815fbf96c","system_id":"levelo_inurba_marseille","lat":43.28615,"lon":5.35102,"is_reserved":false,"is_disabled":false,"rental_uris":{"android":"levelo://app?vid=bf3c03cd-7438-4933-8f22-68c815fbf96c","ios":"levelo://app?vid=bf3c03cd-7438-4933-8f22-68c815fbf96c"},"vehicle_type_id":"4","last_reported":1737821345,"current_range_meters":38800,"station_id":"ce4bhch2rcd13ifvqeug","pricing_plan_id":"cebpf4jnsgd1na2vs0mg"},{"bike_id":"14248f95-a545-4d71-b374-7d6e5ecd67cc","system_id":"levelo_inurba_marseille","lat":43.28426,"lon":5.3498,"is_reserved":false,"is_disabled":false,"rental_uris":{"android":"levelo://app?vid=14248f95-a545-4d71-b374-7d6e5ecd67cc","ios":"levelo://app?vid=14248f95-a545-4d71-b374-7d6e5ecd67cc"},"vehicle_type_id":"4","last_reported":1737821345,"current_range_meters":11200,"station_id":"ce4bhbh2rcd13ifvqepg","pricing_plan_id":"cebpf4jnsgd1na2vs0mg"},{"bike_id":"13dc015c-d4b0-48a7-8322-1ba8d004d3d6","system_id":"levelo_inurba_marseille","lat":43.30884,"lon":5.39645,"is_reserved":false,"is_disabled":false,"rental_uris":{"android":"levelo://app?vid=13dc015c-d4b0-48a7-8322-1ba8d004d3d6","ios":"levelo://app?vid=13dc015c-d4b0-48a7-8322-1ba8d004d3d6"},"vehicle_type_id":"4","last_reported":1737821345,"current_range_meters":8000,"station_id":"ce4bh012rcd13ifvqcv0","pricing_plan_id":"cebpf4jnsgd1na2vs0mg"},{"bike_id":"c70ba9fb-ee5a-49dd-869a-fc8291ac16ed","system_id":"levelo_inurba_marseille","lat":43.24181,"lon":5.39722,"is_reserved":false,"is_disabled":false,"rental_uris":{"android":"levelo://app?vid=c70ba9fb-ee5a-49dd-869a-fc8291ac16ed","ios":"levelo://app?vid=c70ba9fb-ee5a-49dd-869a-fc8291ac16ed"},"vehicle_type_id":"4","last_reported":1737821345,"current_range_meters":26000,"station_id":"ce4bhn12rcd13ifvqgpg","pricing_plan_id":"cebpf4jnsgd1na2vs0mg"},{"bike_id":"e9d77ffd-9e5a-4a4e-8816-1bc2e78786f8","system_id":"levelo_inurba_marseille","lat":43.30593,"lon":5.37219,"is_reserved":false,"is_disabled":false,"rental_uris":{"android":"levelo://app?vid=e9d77ffd-9e5a-4a4e-8816-1bc2e78786f8","ios":"levelo://app?vid=e9d77ffd-9e5a-4a4e-8816-1bc2e78786f8"},"vehicle_type_id":"4","last_reported":1737821345,"current_range_meters":8000,"station_id":"ce4bgqh2rcd13ifvqc4g","pricing_plan_id":"cebpf4jnsgd1na2vs0mg"},{"bike_id":"c54f5b2e-f783-418a-8119-a38c5ea2c0aa","system_id":"levelo_inurba_marseille","lat":43.28995,"lon":5.35604,"is_reserved":false,"is_disabled":true,"rental_uris":{"android":"levelo://app?vid=c54f5b2e-f783-418a-8119-a38c5ea2c0aa","ios":"levelo://app?vid=c54f5b2e-f783-418a-8119-a38c5ea2c0aa"},"vehicle_type_id":"4","last_reported":1737821345,"current_range_meters":9200,"station_id":"ce4bhb92rcd13ifvqen0","pricing_plan_id":"cebpf4jnsgd1na2vs0mg"},{"bike_id":"9838cc78-2b53-49d3-ae13-82df62c4fd64","system_id":"levelo_inurba_marseille","lat":43.284254,"lon":5.409396,"is_reserved":false,"is_disabled":true,"rental_uris":{"android":"levelo://app?vid=9838cc78-2b53-49d3-ae13-82df62c4fd64","ios":"levelo://app?vid=9838cc78-2b53-49d3-ae13-82df62c4fd64"},"vehicle_type_id":"4","last_reported":1737821345,"current_range_meters":0,"station_id":"","pricing_plan_id":"cebpf4jnsgd1na2vs0mg"},{"bike_id":"cd2c3e6b-4e99-4030-8f38-99ce34b03608","system_id":"levelo_inurba_marseille","lat":43.26567,"lon":5.39002,"is_reserved":false,"is_disabled":true,"rental_uris":{"android":"levelo://app?vid=cd2c3e6b-4e99-4030-8f38-99ce34b03608","ios":"levelo://app?vid=cd2c3e6b-4e99-4030-8f38-99ce34b03608"},"vehicle_type_id":"4","last_reported":1737821345,"current_range_meters":800,"station_id":"ce4bhe12rcd13ifvqf30","pricing_plan_id":"cebpf4jnsgd1na2vs0mg"},{"bike_id":"ccacf458-b58c-41c0-bf7a-108159e80b90","system_id":"levelo_inurba_marseille","lat":43.31682,"lon":5.40477,"is_reserved":false,"is_disabled":false,"rental_uris":{"android":"levelo://app?vid=ccacf458-b58c-41c0-bf7a-108159e80b90","ios":"levelo://app?vid=ccacf458-b58c-41c0-bf7a-108159e80b90"},"vehicle_type_id":"4","last_reported":1737821345,"current_range_meters":22800,"station_id":"ce4bh012rcd13ifvqd00","pricing_plan_id":"cebpf4jnsgd1na2vs0mg"},{"bike_id":"bf096a89-ee72-4f37-85bd-7b3cf9f0cb41","system_id":"levelo_inurba_marseille","lat":43.337243,"lon":5.391908,"is_reserved":false,"is_disabled":false,"rental_uris":{"android":"levelo://app?vid=bf096a89-ee72-4f37-85bd-7b3cf9f0cb41","ios":"levelo://app?vid=bf096a89-ee72-4f37-85bd-7b3cf9f0cb41"},"vehicle_type_id":"4","last_reported":1737821345,"current_range_meters":30800,"station_id":"ce4bhr92rcd13ifvqhsg","pricing_plan_id":"cebpf4jnsgd1na2vs0mg"},{"bike_id":"66d1f8cf-8260-44c6-89e8-aa09a832fe98","system_id":"levelo_inurba_marseille","lat":43.24671,"lon":5.38147,"is_reserved":false,"is_disabled":false,"rental_uris":{"android":"levelo://app?vid=66d1f8cf-8260-44c6-89e8-aa09a832fe98","ios":"levelo://app?vid=66d1f8cf-8260-44c6-89e8-aa09a832fe98"},"vehicle_type_id":"4","last_reported":1737821345,"current_range_meters":38800,"station_id":"ce4bhih2rcd13ifvqfr0","pricing_plan_id":"cebpf4jnsgd1na2vs0mg"},{"bike_id":"c2378bb1-796c-4edf-bf87-198266dfa5e8","system_id":"levelo_inurba_marseille","lat":43.23192,"lon":5.35551,"is_reserved":false,"is_disabled":false,"rental_uris":{"android":"levelo://app?vid=c2378bb1-796c-4edf-bf87-198266dfa5e8","ios":"levelo://app?vid=c2378bb1-796c-4edf-bf87-198266dfa5e8"},"vehicle_type_id":"4","last_reported":1737821345,"current_range_meters":5600,"station_id":"ce4bhu92rcd13ifvqi70","pricing_plan_id":"cebpf4jnsgd1na2vs0mg"},{"bike_id":"55484666-3036-4f10-9cf4-3205ec5b4812","system_id":"levelo_inurba_marseille","lat":43.26564,"lon":5.39022,"is_reserved":false,"is_disabled":true,"rental_uris":{"android":"levelo://app?vid=55484666-3036-4f10-9cf4-3205ec5b4812","ios":"levelo://app?vid=55484666-3036-4f10-9cf4-3205ec5b4812"},"vehicle_type_id":"4","last_reported":1737821345,"current_range_meters":0,"station_id":"ce4bhe12rcd13ifvqf30","pricing_plan_id":"cebpf4jnsgd1na2vs0mg"},{"bike_id":"d69cf1fa-59ad-4f44-a9fb-82fbbe1b6b05","system_id":"levelo_inurba_marseille","lat":43.30792,"lon":5.43527,"is_reserved":false,"is_disabled":false,"rental_uris":{"android":"levelo://app?vid=d69cf1fa-59ad-4f44-a9fb-82fbbe1b6b05","ios":"levelo://app?vid=d69cf1fa-59ad-4f44-a9fb-82fbbe1b6b05"},"vehicle_type_id":"4","last_reported":1737821345,"current_range_meters":28000,"station_id":"ce4bhph2rcd13ifvqheg","pricing_plan_id":"cebpf4jnsgd1na2vs0mg"},{"bike_id":"f6e2a664-8ca3-4446-8dcf-4e69c7308a82","system_id":"levelo_inurba_marseille","lat":43.2861,"lon":5.351,"is_reserved":false,"is_disabled":false,"rental_uris":{"android":"levelo://app?vid=f6e2a664-8ca3-4446-8dcf-4e69c7308a82","ios":"levelo://app?vid=f6e2a664-8ca3-4446-8dcf-4e69c7308a82"},"vehicle_type_id":"4","last_reported":1737821345,"current_range_meters":38800,"station_id":"ce4bhch2rcd13ifvqeug","pricing_plan_id":"cebpf4jnsgd1na2vs0mg"},{"bike_id":"91ce876b-fa38-4947-94f7-5ac1649bdafa","system_id":"levelo_inurba_marseille","lat":43.30555,"lon":5.36522,"is_reserved":false,"is_disabled":false,"rental_uris":{"android":"levelo://app?vid=91ce876b-fa38-4947-94f7-5ac1649bdafa","ios":"levelo://app?vid=91ce876b-fa38-4947-94f7-5ac1649bdafa"},"vehicle_type_id":"4","last_reported":1737821345,"current_range_meters":11600,"station_id":"ce4bgs12rcd13ifvqcag","pricing_plan_id":"cebpf4jnsgd1na2vs0mg"},{"bike_id":"2e0a8b86-b457-48a0-8577-213b01080398","system_id":"levelo_inurba_marseille","lat":43.23192,"lon":5.35548,"is_reserved":false,"is_disabled":false,"rental_uris":{"android":"levelo://app?vid=2e0a8b86-b457-48a0-8577-213b01080398","ios":"levelo://app?vid=2e0a8b86-b457-48a0-8577-213b01080398"},"vehicle_type_id":"4","last_reported":1737821345,"current_range_meters":39200,"station_id":"ce4bhu92rcd13ifvqi70","pricing_plan_id":"cebpf4jnsgd1na2vs0mg"},{"bike_id":"a7cf4467-440c-4bb8-a849-e8f193507576","system_id":"levelo_inurba_marseille","lat":43.29728,"lon":5.37665,"is_reserved":false,"is_disabled":false,"rental_uris":{"android":"levelo://app?vid=a7cf4467-440c-4bb8-a849-e8f193507576","ios":"levelo://app?vid=a7cf4467-440c-4bb8-a849-e8f193507576"},"vehicle_type_id":"4","last_reported":1737821345,"current_range_meters":31200,"station_id":"ce4bgkh2rcd13ifvqbl0","pricing_plan_id":"cebpf4jnsgd1na2vs0mg"},{"bike_id":"e82397ad-f05a-47b8-82e7-cc53537eb579","system_id":"levelo_inurba_marseille","lat":43.24993,"lon":5.38943,"is_reserved":false,"is_disabled":false,"rental_uris":{"android":"levelo://app?vid=e82397ad-f05a-47b8-82e7-cc53537eb579","ios":"levelo://app?vid=e82397ad-f05a-47b8-82e7-cc53537eb579"},"vehicle_type_id":"4","last_reported":1737821345,"current_range_meters":9600,"station_id":"ce4bhgp2rcd13ifvqfd0","pricing_plan_id":"cebpf4jnsgd1na2vs0mg"},{"bike_id":"d1b8c70c-6352-4a32-b19e-4017c4a4e2ac","system_id":"levelo_inurba_marseille","lat":43.28661,"lon":5.36349,"is_reserved":false,"is_disabled":false,"rental_uris":{"android":"levelo://app?vid=d1b8c70c-6352-4a32-b19e-4017c4a4e2ac","ios":"levelo://app?vid=d1b8c70c-6352-4a32-b19e-4017c4a4e2ac"},"vehicle_type_id":"4","last_reported":1737821345,"current_range_meters":12800,"station_id":"ce4bhah2rcd13ifvqej0","pricing_plan_id":"cebpf4jnsgd1na2vs0mg"},{"bike_id":"87a5bed0-aef1-423b-bd85-fe44fdeeb863","system_id":"levelo_inurba_marseille","lat":43.33726,"lon":5.39179,"is_reserved":false,"is_disabled":false,"rental_uris":{"android":"levelo://app?vid=87a5bed0-aef1-423b-bd85-fe44fdeeb863","ios":"levelo://app?vid=87a5bed0-aef1-423b-bd85-fe44fdeeb863"},"vehicle_type_id":"4","last_reported":1737821345,"current_range_meters":37600,"station_id":"ce4bhr92rcd13ifvqhsg","pricing_plan_id":"cebpf4jnsgd1na2vs0mg"},{"bike_id":"7bd5f868-66e3-45e1-be95-6aefbe1524e1","system_id":"levelo_inurba_marseille","lat":43.25006,"lon":5.38911,"is_reserved":false,"is_disabled":false,"rental_uris":{"android":"levelo://app?vid=7bd5f868-66e3-45e1-be95-6aefbe1524e1","ios":"levelo://app?vid=7bd5f868-66e3-45e1-be95-6aefbe1524e1"},"vehicle_type_id":"4","last_reported":1737821345,"current_range_meters":38800,"station_id":"ce4bhgp2rcd13ifvqfd0","pricing_plan_id":"cebpf4jnsgd1na2vs0mg"},{"bike_id":"1a0283d6-4303-47ef-936b-0acb68dc294f","system_id":"levelo_inurba_marseille","lat":43.26201,"lon":5.3792,"is_reserved":false,"is_disabled":false,"rental_uris":{"android":"levelo://app?vid=1a0283d6-4303-47ef-936b-0acb68dc294f","ios":"levelo://app?vid=1a0283d6-4303-47ef-936b-0acb68dc294f"},"vehicle_type_id":"4","last_reported":1737821345,"current_range_meters":7200,"station_id":"ce4bhjp2rcd13ifvqg90","pricing_plan_id":"cebpf4jnsgd1na2vs0mg"},{"bike_id":"4fde9b23-6c32-485b-8024-4decdadf4a80","system_id":"levelo_inurba_marseille","lat":43.26955,"lon":5.38626,"is_reserved":false,"is_disabled":false,"rental_uris":{"android":"levelo://app?vid=4fde9b23-6c32-485b-8024-4decdadf4a80","ios":"levelo://app?vid=4fde9b23-6c32-485b-8024-4decdadf4a80"},"vehicle_type_id":"4","last_reported":1737821345,"current_range_meters":37600,"station_id":"ce4bhh92rcd13ifvqfh0","pricing_plan_id":"cebpf4jnsgd1na2vs0mg"},{"bike_id":"0d1bc3ab-81ef-4256-9f95-330ffa84dc72","system_id":"levelo_inurba_marseille","lat":43.26942,"lon":5.40245,"is_reserved":false,"is_disabled":false,"rental_uris":{"android":"levelo://app?vid=0d1bc3ab-81ef-4256-9f95-330ffa84dc72","ios":"levelo://app?vid=0d1bc3ab-81ef-4256-9f95-330ffa84dc72"},"vehicle_type_id":"4","last_reported":1737821345,"current_range_meters":19600,"station_id":"cjm6bp8fraef2m0cb0m0","pricing_plan_id":"cebpf4jnsgd1na2vs0mg"},{"bike_id":"69969fe3-7cb2-401a-9ccd-171b68503212","system_id":"levelo_inurba_marseille","lat":43.29718,"lon":5.37706,"is_reserved":false,"is_disabled":false,"rental_uris":{"android":"levelo://app?vid=69969fe3-7cb2-401a-9ccd-171b68503212","ios":"levelo://app?vid=69969fe3-7cb2-401a-9ccd-171b68503212"},"vehicle_type_id":"4","last_reported":1737821345,"current_range_meters":18800,"station_id":"ce4bgkh2rcd13ifvqbl0","pricing_plan_id":"cebpf4jnsgd1na2vs0mg"},{"bike_id":"38f21755-fecd-4714-b7e8-fcdf19677865","system_id":"levelo_inurba_marseille","lat":43.29556,"lon":5.37509,"is_reserved":false,"is_disabled":false,"rental_uris":{"android":"levelo://app?vid=38f21755-fecd-4714-b7e8-fcdf19677865","ios":"levelo://app?vid=38f21755-fecd-4714-b7e8-fcdf19677865"},"vehicle_type_id":"4","last_reported":1737821345,"current_range_meters":10800,"station_id":"ce4bgh92rcd13ifvqb50","pricing_plan_id":"cebpf4jnsgd1na2vs0mg"},{"bike_id":"024aaa43-98dc-4f3b-bcfc-6594e26f63d6","system_id":"levelo_inurba_marseille","lat":43.33727,"lon":5.3919,"is_reserved":false,"is_disabled":false,"rental_uris":{"android":"levelo://app?vid=024aaa43-98dc-4f3b-bcfc-6594e26f63d6","ios":"levelo://app?vid=024aaa43-98dc-4f3b-bcfc-6594e26f63d6"},"vehicle_type_id":"4","last_reported":1737821345,"current_range_meters":34800,"station_id":"ce4bhr92rcd13ifvqhsg","pricing_plan_id":"cebpf4jnsgd1na2vs0mg"},{"bike_id":"395d53fe-00f3-42aa-ac35-e228422101b3","system_id":"levelo_inurba_marseille","lat":43.28433,"lon":5.39202,"is_reserved":false,"is_disabled":false,"rental_uris":{"android":"levelo://app?vid=395d53fe-00f3-42aa-ac35-e228422101b3","ios":"levelo://app?vid=395d53fe-00f3-42aa-ac35-e228422101b3"},"vehicle_type_id":"4","last_reported":1737821345,"current_range_meters":2800,"station_id":"ce4bhoh2rcd13ifvqh5g","pricing_plan_id":"cebpf4jnsgd1na2vs0mg"},{"bike_id":"c959572c-6974-4ed4-8889-654758c49222","system_id":"levelo_inurba_marseille","lat":43.2657,"lon":5.39008,"is_reserved":false,"is_disabled":true,"rental_uris":{"android":"levelo://app?vid=c959572c-6974-4ed4-8889-654758c49222","ios":"levelo://app?vid=c959572c-6974-4ed4-8889-654758c49222"},"vehicle_type_id":"4","last_reported":1737821345,"current_range_meters":800,"station_id":"ce4bhe12rcd13ifvqf30","pricing_plan_id":"cebpf4jnsgd1na2vs0mg"},{"bike_id":"9d847ad0-ef54-4fc6-8d0a-9543630ebbba","system_id":"levelo_inurba_marseille","lat":43.27973,"lon":5.40029,"is_reserved":false,"is_disabled":false,"rental_uris":{"android":"levelo://app?vid=9d847ad0-ef54-4fc6-8d0a-9543630ebbba","ios":"levelo://app?vid=9d847ad0-ef54-4fc6-8d0a-9543630ebbba"},"vehicle_type_id":"4","last_reported":1737821345,"current_range_meters":38800,"station_id":"ce4bho92rcd13ifvqh4g","pricing_plan_id":"cebpf4jnsgd1na2vs0mg"},{"bike_id":"90b8a1b1-ad54-458d-9362-f5197bbdf048","system_id":"levelo_inurba_marseille","lat":43.22944,"lon":5.35367,"is_reserved":false,"is_disabled":false,"rental_uris":{"android":"levelo://app?vid=90b8a1b1-ad54-458d-9362-f5197bbdf048","ios":"levelo://app?vid=90b8a1b1-ad54-458d-9362-f5197bbdf048"},"vehicle_type_id":"4","last_reported":1737821345,"current_range_meters":38800,"station_id":"cpo3532slgdg3j2ikp40","pricing_plan_id":"cebpf4jnsgd1na2vs0mg"},{"bike_id":"53035af4-ce28-4b9e-9322-5b8d4befc56f","system_id":"levelo_inurba_marseille","lat":43.2956,"lon":5.42292,"is_reserved":false,"is_disabled":false,"rental_uris":{"android":"levelo://app?vid=53035af4-ce28-4b9e-9322-5b8d4befc56f","ios":"levelo://app?vid=53035af4-ce28-4b9e-9322-5b8d4befc56f"},"vehicle_type_id":"4","last_reported":1737821345,"current_range_meters":38800,"station_id":"ce4bhph2rcd13ifvqhdg","pricing_plan_id":"cebpf4jnsgd1na2vs0mg"},{"bike_id":"5d94a5f3-6724-45da-a6b8-1c6ad20706f4","system_id":"levelo_inurba_marseille","lat":43.27619,"lon":5.36116,"is_reserved":false,"is_disabled":false,"rental_uris":{"android":"levelo://app?vid=5d94a5f3-6724-45da-a6b8-1c6ad20706f4","ios":"levelo://app?vid=5d94a5f3-6724-45da-a6b8-1c6ad20706f4"},"vehicle_type_id":"4","last_reported":1737821345,"current_range_meters":28000,"station_id":"ce4bgj92rcd13ifvqbe0","pricing_plan_id":"cebpf4jnsgd1na2vs0mg"},{"bike_id":"a6597385-9383-425f-a8fc-59647c9374cd","system_id":"levelo_inurba_marseille","lat":43.30536,"lon":5.36548,"is_reserved":false,"is_disabled":false,"rental_uris":{"android":"levelo://app?vid=a6597385-9383-425f-a8fc-59647c9374cd","ios":"levelo://app?vid=a6597385-9383-425f-a8fc-59647c9374cd"},"vehicle_type_id":"4","last_reported":1737821345,"current_range_meters":27200,"station_id":"ce4bgs12rcd13ifvqcag","pricing_plan_id":"cebpf4jnsgd1na2vs0mg"},{"bike_id":"dfc006d3-d445-49d4-98fe-6b9da20935ab","system_id":"levelo_inurba_marseille","lat":43.24999,"lon":5.38928,"is_reserved":false,"is_disabled":false,"rental_uris":{"android":"levelo://app?vid=dfc006d3-d445-49d4-98fe-6b9da20935ab","ios":"levelo://app?vid=dfc006d3-d445-49d4-98fe-6b9da20935ab"},"vehicle_type_id":"4","last_reported":1737821345,"current_range_meters":38800,"station_id":"ce4bhgp2rcd13ifvqfd0","pricing_plan_id":"cebpf4jnsgd1na2vs0mg"},{"bike_id":"71576a90-b342-47be-9f27-c68c4c51f661","system_id":"levelo_inurba_marseille","lat":43.29262,"lon":5.3844,"is_reserved":false,"is_disabled":false,"rental_uris":{"android":"levelo://app?vid=71576a90-b342-47be-9f27-c68c4c51f661","ios":"levelo://app?vid=71576a90-b342-47be-9f27-c68c4c51f661"},"vehicle_type_id":"4","last_reported":1737821345,"current_range_meters":6800,"station_id":"ce4bh692rcd13ifvqea0","pricing_plan_id":"cebpf4jnsgd1na2vs0mg"},{"bike_id":"4b8ec53a-4302-4c0b-a150-579b0b069b80","system_id":"levelo_inurba_marseille","lat":43.29843,"lon":5.36274,"is_reserved":false,"is_disabled":false,"rental_uris":{"android":"levelo://app?vid=4b8ec53a-4302-4c0b-a150-579b0b069b80","ios":"levelo://app?vid=4b8ec53a-4302-4c0b-a150-579b0b069b80"},"vehicle_type_id":"4","last_reported":1737821345,"current_range_meters":38800,"station_id":"ce4bgpp2rcd13ifvqc3g","pricing_plan_id":"cebpf4jnsgd1na2vs0mg"},{"bike_id":"a4ddab3c-f87c-4edc-9ac3-669b77960c0d","system_id":"levelo_inurba_marseille","lat":43.30641,"lon":5.40087,"is_reserved":false,"is_disabled":false,"rental_uris":{"android":"levelo://app?vid=a4ddab3c-f87c-4edc-9ac3-669b77960c0d","ios":"levelo://app?vid=a4ddab3c-f87c-4edc-9ac3-669b77960c0d"},"vehicle_type_id":"4","last_reported":1737821345,"current_range_meters":38400,"station_id":"ce4bh112rcd13ifvqda0","pricing_plan_id":"cebpf4jnsgd1na2vs0mg"},{"bike_id":"ebbb6dd1-ea2a-4b9e-a0fd-f2fc38df1042","system_id":"levelo_inurba_marseille","lat":43.25002,"lon":5.38934,"is_reserved":false,"is_disabled":true,"rental_uris":{"android":"levelo://app?vid=ebbb6dd1-ea2a-4b9e-a0fd-f2fc38df1042","ios":"levelo://app?vid=ebbb6dd1-ea2a-4b9e-a0fd-f2fc38df1042"},"vehicle_type_id":"4","last_reported":1737821345,"current_range_meters":0,"station_id":"ce4bhgp2rcd13ifvqfd0","pricing_plan_id":"cebpf4jnsgd1na2vs0mg"},{"bike_id":"12457c21-2ca5-47e0-ad9e-11835189b19d","system_id":"levelo_inurba_marseille","lat":43.26238,"lon":5.37422,"is_reserved":false,"is_disabled":true,"rental_uris":{"android":"levelo://app?vid=12457c21-2ca5-47e0-ad9e-11835189b19d","ios":"levelo://app?vid=12457c21-2ca5-47e0-ad9e-11835189b19d"},"vehicle_type_id":"4","last_reported":1737821345,"current_range_meters":800,"station_id":"ce4bhgp2rcd13ifvqfc0","pricing_plan_id":"cebpf4jnsgd1na2vs0mg"},{"bike_id":"f76a8511-1638-4bbc-81b6-3e86daf501f9","system_id":"levelo_inurba_marseille","lat":43.29228,"lon":5.36457,"is_reserved":false,"is_disabled":true,"rental_uris":{"android":"levelo://app?vid=f76a8511-1638-4bbc-81b6-3e86daf501f9","ios":"levelo://app?vid=f76a8511-1638-4bbc-81b6-3e86daf501f9"},"vehicle_type_id":"4","last_reported":1737821345,"current_range_meters":0,"station_id":"","pricing_plan_id":"cebpf4jnsgd1na2vs0mg"},{"bike_id":"d30b3783-8233-407d-9dc8-76ac03b68013","system_id":"levelo_inurba_marseille","lat":43.298,"lon":5.38115,"is_reserved":false,"is_disabled":false,"rental_uris":{"android":"levelo://app?vid=d30b3783-8233-407d-9dc8-76ac03b68013","ios":"levelo://app?vid=d30b3783-8233-407d-9dc8-76ac03b68013"},"vehicle_type_id":"4","last_reported":1737821345,"current_range_meters":7200,"station_id":"ce4bgip2rcd13ifvqbb0","pricing_plan_id":"cebpf4jnsgd1na2vs0mg"},{"bike_id":"0af52f93-e2ad-4e70-93eb-a6c272fbfbe2","system_id":"levelo_inurba_marseille","lat":43.3124,"lon":5.36886,"is_reserved":false,"is_disabled":false,"rental_uris":{"android":"levelo://app?vid=0af52f93-e2ad-4e70-93eb-a6c272fbfbe2","ios":"levelo://app?vid=0af52f93-e2ad-4e70-93eb-a6c272fbfbe2"},"vehicle_type_id":"4","last_reported":1737821345,"current_range_meters":38400,"station_id":"ce4bgl92rcd13ifvqbq0","pricing_plan_id":"cebpf4jnsgd1na2vs0mg"},{"bike_id":"1f294e00-a118-4716-9c5b-16cfaf03e70e","system_id":"levelo_inurba_marseille","lat":43.28412,"lon":5.3499,"is_reserved":false,"is_disabled":false,"rental_uris":{"android":"levelo://app?vid=1f294e00-a118-4716-9c5b-16cfaf03e70e","ios":"levelo://app?vid=1f294e00-a118-4716-9c5b-16cfaf03e70e"},"vehicle_type_id":"4","last_reported":1737821345,"current_range_meters":28800,"station_id":"ce4bhbh2rcd13ifvqepg","pricing_plan_id":"cebpf4jnsgd1na2vs0mg"},{"bike_id":"024cd548-3349-4b5a-9af8-2c3d415d44b0","system_id":"levelo_inurba_marseille","lat":43.28267,"lon":5.35096,"is_reserved":false,"is_disabled":false,"rental_uris":{"android":"levelo://app?vid=024cd548-3349-4b5a-9af8-2c3d415d44b0","ios":"levelo://app?vid=024cd548-3349-4b5a-9af8-2c3d415d44b0"},"vehicle_type_id":"4","last_reported":1737821345,"current_range_meters":10000,"station_id":"ce4bhbp2rcd13ifvqerg","pricing_plan_id":"cebpf4jnsgd1na2vs0mg"},{"bike_id":"99e5a445-cdc2-4210-a04c-7608d52032be","system_id":"levelo_inurba_marseille","lat":43.31161,"lon":5.3692,"is_reserved":false,"is_disabled":true,"rental_uris":{"android":"levelo://app?vid=99e5a445-cdc2-4210-a04c-7608d52032be","ios":"levelo://app?vid=99e5a445-cdc2-4210-a04c-7608d52032be"},"vehicle_type_id":"4","last_reported":1737821345,"current_range_meters":0,"station_id":"","pricing_plan_id":"cebpf4jnsgd1na2vs0mg"},{"bike_id":"ea9efea7-3086-4c43-9efe-130cd6b2f106","system_id":"levelo_inurba_marseille","lat":43.24179,"lon":5.39727,"is_reserved":false,"is_disabled":false,"rental_uris":{"android":"levelo://app?vid=ea9efea7-3086-4c43-9efe-130cd6b2f106","ios":"levelo://app?vid=ea9efea7-3086-4c43-9efe-130cd6b2f106"},"vehicle_type_id":"4","last_reported":1737821345,"current_range_meters":29600,"station_id":"ce4bhn12rcd13ifvqgpg","pricing_plan_id":"cebpf4jnsgd1na2vs0mg"},{"bike_id":"d54e7416-9133-47cb-bc55-3d590b1f98b8","system_id":"levelo_inurba_marseille","lat":43.28658,"lon":5.36338,"is_reserved":false,"is_disabled":true,"rental_uris":{"android":"levelo://app?vid=d54e7416-9133-47cb-bc55-3d590b1f98b8","ios":"levelo://app?vid=d54e7416-9133-47cb-bc55-3d590b1f98b8"},"vehicle_type_id":"4","last_reported":1737821345,"current_range_meters":0,"station_id":"ce4bhah2rcd13ifvqej0","pricing_plan_id":"cebpf4jnsgd1na2vs0mg"},{"bike_id":"57c70a1e-3417-40c8-a330-5d6598b77653","system_id":"levelo_inurba_marseille","lat":43.31098,"lon":5.37265,"is_reserved":false,"is_disabled":false,"rental_uris":{"android":"levelo://app?vid=57c70a1e-3417-40c8-a330-5d6598b77653","ios":"levelo://app?vid=57c70a1e-3417-40c8-a330-5d6598b77653"},"vehicle_type_id":"4","last_reported":1737821345,"current_range_meters":32400,"station_id":"","pricing_plan_id":"cebpf4jnsgd1na2vs0mg"},{"bike_id":"8f418039-64b4-4f8b-9b93-bbb14214da89","system_id":"levelo_inurba_marseille","lat":43.31721,"lon":5.37737,"is_reserved":false,"is_disabled":false,"rental_uris":{"android":"levelo://app?vid=8f418039-64b4-4f8b-9b93-bbb14214da89","ios":"levelo://app?vid=8f418039-64b4-4f8b-9b93-bbb14214da89"},"vehicle_type_id":"4","last_reported":1737821345,"current_range_meters":16000,"station_id":"ce4bgth2rcd13ifvqch0","pricing_plan_id":"cebpf4jnsgd1na2vs0mg"},{"bike_id":"4ba17b62-67ad-47d4-ae06-50d84fbf1296","system_id":"levelo_inurba_marseille","lat":43.29898,"lon":5.43659,"is_reserved":false,"is_disabled":false,"rental_uris":{"android":"levelo://app?vid=4ba17b62-67ad-47d4-ae06-50d84fbf1296","ios":"levelo://app?vid=4ba17b62-67ad-47d4-ae06-50d84fbf1296"},"vehicle_type_id":"4","last_reported":1737821345,"current_range_meters":12000,"station_id":"ce4bhpp2rcd13ifvqhfg","pricing_plan_id":"cebpf4jnsgd1na2vs0mg"},{"bike_id":"1c35c755-8b1c-439e-8798-f1a001a3969d","system_id":"levelo_inurba_marseille","lat":43.28099,"lon":5.37867,"is_reserved":false,"is_disabled":true,"rental_uris":{"android":"levelo://app?vid=1c35c755-8b1c-439e-8798-f1a001a3969d","ios":"levelo://app?vid=1c35c755-8b1c-439e-8798-f1a001a3969d"},"vehicle_type_id":"4","last_reported":1737821345,"current_range_meters":0,"station_id":"ce4bha12rcd13ifvqee0","pricing_plan_id":"cebpf4jnsgd1na2vs0mg"},{"bike_id":"b120051c-3c3b-4fbc-b032-4697985ac9bb","system_id":"levelo_inurba_marseille","lat":43.31885,"lon":5.40738,"is_reserved":false,"is_disabled":false,"rental_uris":{"android":"levelo://app?vid=b120051c-3c3b-4fbc-b032-4697985ac9bb","ios":"levelo://app?vid=b120051c-3c3b-4fbc-b032-4697985ac9bb"},"vehicle_type_id":"4","last_reported":1737821345,"current_range_meters":24400,"station_id":"ce4bhq12rcd13ifvqhig","pricing_plan_id":"cebpf4jnsgd1na2vs0mg"},{"bike_id":"31829f7a-f0aa-403e-8542-caa9d0e5ce58","system_id":"levelo_inurba_marseille","lat":43.28,"lon":5.41666,"is_reserved":false,"is_disabled":false,"rental_uris":{"android":"levelo://app?vid=31829f7a-f0aa-403e-8542-caa9d0e5ce58","ios":"levelo://app?vid=31829f7a-f0aa-403e-8542-caa9d0e5ce58"},"vehicle_type_id":"4","last_reported":1737821345,"current_range_meters":38000,"station_id":"ce4bho12rcd13ifvqh1g","pricing_plan_id":"cebpf4jnsgd1na2vs0mg"},{"bike_id":"a52be7e3-d6aa-415e-9d96-0b58ca4d9055","system_id":"levelo_inurba_marseille","lat":43.29968,"lon":5.38492,"is_reserved":false,"is_disabled":false,"rental_uris":{"android":"levelo://app?vid=a52be7e3-d6aa-415e-9d96-0b58ca4d9055","ios":"levelo://app?vid=a52be7e3-d6aa-415e-9d96-0b58ca4d9055"},"vehicle_type_id":"4","last_reported":1737821345,"current_range_meters":2800,"station_id":"ce4bgj92rcd13ifvqbd0","pricing_plan_id":"cebpf4jnsgd1na2vs0mg"},{"bike_id":"bce09769-02dc-489a-bcd7-84421f3b354f","system_id":"levelo_inurba_marseille","lat":43.32384,"lon":5.38854,"is_reserved":false,"is_disabled":false,"rental_uris":{"android":"levelo://app?vid=bce09769-02dc-489a-bcd7-84421f3b354f","ios":"levelo://app?vid=bce09769-02dc-489a-bcd7-84421f3b354f"},"vehicle_type_id":"4","last_reported":1737821345,"current_range_meters":18000,"station_id":"ce4bhqp2rcd13ifvqhog","pricing_plan_id":"cebpf4jnsgd1na2vs0mg"},{"bike_id":"3a50cba4-791e-4240-a3e9-a38905811f0f","system_id":"levelo_inurba_marseille","lat":43.27065,"lon":5.40265,"is_reserved":false,"is_disabled":false,"rental_uris":{"android":"levelo://app?vid=3a50cba4-791e-4240-a3e9-a38905811f0f","ios":"levelo://app?vid=3a50cba4-791e-4240-a3e9-a38905811f0f"},"vehicle_type_id":"4","last_reported":1737821345,"current_range_meters":8400,"station_id":"ce4bhk92rcd13ifvqgc0","pricing_plan_id":"cebpf4jnsgd1na2vs0mg"},{"bike_id":"b96c22ba-a4c6-4ca8-b881-a2a2972e9bc2","system_id":"levelo_inurba_marseille","lat":43.26033,"lon":5.37551,"is_reserved":false,"is_disabled":true,"rental_uris":{"android":"levelo://app?vid=b96c22ba-a4c6-4ca8-b881-a2a2972e9bc2","ios":"levelo://app?vid=b96c22ba-a4c6-4ca8-b881-a2a2972e9bc2"},"vehicle_type_id":"4","last_reported":1737821345,"current_range_meters":36400,"station_id":"ce4bhgh2rcd13ifvqfa0","pricing_plan_id":"cebpf4jnsgd1na2vs0mg"},{"bike_id":"f491d9c2-444f-4ed3-b72a-c0c6bed5c56c","system_id":"levelo_inurba_marseille","lat":43.27572,"lon":5.38409,"is_reserved":false,"is_disabled":false,"rental_uris":{"android":"levelo://app?vid=f491d9c2-444f-4ed3-b72a-c0c6bed5c56c","ios":"levelo://app?vid=f491d9c2-444f-4ed3-b72a-c0c6bed5c56c"},"vehicle_type_id":"4","last_reported":1737821345,"current_range_meters":9600,"station_id":"ce4bhh92rcd13ifvqfi0","pricing_plan_id":"cebpf4jnsgd1na2vs0mg"},{"bike_id":"e2a5603d-1cbe-4fb6-ad4a-f71fbdaf199f","system_id":"levelo_inurba_marseille","lat":43.28264,"lon":5.35083,"is_reserved":false,"is_disabled":false,"rental_uris":{"android":"levelo://app?vid=e2a5603d-1cbe-4fb6-ad4a-f71fbdaf199f","ios":"levelo://app?vid=e2a5603d-1cbe-4fb6-ad4a-f71fbdaf199f"},"vehicle_type_id":"4","last_reported":1737821345,"current_range_meters":22800,"station_id":"ce4bhbp2rcd13ifvqerg","pricing_plan_id":"cebpf4jnsgd1na2vs0mg"},{"bike_id":"61b47e9b-25c8-42e5-af8c-bf0d8b986628","system_id":"levelo_inurba_marseille","lat":43.29284,"lon":5.36844,"is_reserved":false,"is_disabled":false,"rental_uris":{"android":"levelo://app?vid=61b47e9b-25c8-42e5-af8c-bf0d8b986628","ios":"levelo://app?vid=61b47e9b-25c8-42e5-af8c-bf0d8b986628"},"vehicle_type_id":"4","last_reported":1737821345,"current_range_meters":12800,"station_id":"ce4bhbp2rcd13ifvqesg","pricing_plan_id":"cebpf4jnsgd1na2vs0mg"},{"bike_id":"1346ff93-9ddb-4093-aa5d-b6cb09dfef3c","system_id":"levelo_inurba_marseille","lat":43.2846,"lon":5.3683,"is_reserved":false,"is_disabled":true,"rental_uris":{"android":"levelo://app?vid=1346ff93-9ddb-4093-aa5d-b6cb09dfef3c","ios":"levelo://app?vid=1346ff93-9ddb-4093-aa5d-b6cb09dfef3c"},"vehicle_type_id":"4","last_reported":1737821345,"current_range_meters":0,"station_id":"","pricing_plan_id":"cebpf4jnsgd1na2vs0mg"},{"bike_id":"7ff0d39e-e566-4a5f-8c6b-19040e479c43","system_id":"levelo_inurba_marseille","lat":43.29226,"lon":5.3606,"is_reserved":false,"is_disabled":false,"rental_uris":{"android":"levelo://app?vid=7ff0d39e-e566-4a5f-8c6b-19040e479c43","ios":"levelo://app?vid=7ff0d39e-e566-4a5f-8c6b-19040e479c43"},"vehicle_type_id":"4","last_reported":1737821345,"current_range_meters":36400,"station_id":"ce4bhbh2rcd13ifvqeqg","pricing_plan_id":"cebpf4jnsgd1na2vs0mg"},{"bike_id":"e478c5f4-7d6a-49b2-983e-0fc446c91566","system_id":"levelo_inurba_marseille","lat":43.28621,"lon":5.35119,"is_reserved":false,"is_disabled":false,"rental_uris":{"android":"levelo://app?vid=e478c5f4-7d6a-49b2-983e-0fc446c91566","ios":"levelo://app?vid=e478c5f4-7d6a-49b2-983e-0fc446c91566"},"vehicle_type_id":"4","last_reported":1737821345,"current_range_meters":27600,"station_id":"ce4bhch2rcd13ifvqeug","pricing_plan_id":"cebpf4jnsgd1na2vs0mg"},{"bike_id":"356c444f-e992-4c1e-bfda-b4c9d6e8f1bf","system_id":"levelo_inurba_marseille","lat":43.2781,"lon":5.40709,"is_reserved":false,"is_disabled":false,"rental_uris":{"android":"levelo://app?vid=356c444f-e992-4c1e-bfda-b4c9d6e8f1bf","ios":"levelo://app?vid=356c444f-e992-4c1e-bfda-b4c9d6e8f1bf"},"vehicle_type_id":"4","last_reported":1737821345,"current_range_meters":20800,"station_id":"ce4bhnh2rcd13ifvqgtg","pricing_plan_id":"cebpf4jnsgd1na2vs0mg"},{"bike_id":"d0b97dd4-6015-4f42-b5f6-8f3b6c506949","system_id":"levelo_inurba_marseille","lat":43.29554,"lon":5.42281,"is_reserved":false,"is_disabled":false,"rental_uris":{"android":"levelo://app?vid=d0b97dd4-6015-4f42-b5f6-8f3b6c506949","ios":"levelo://app?vid=d0b97dd4-6015-4f42-b5f6-8f3b6c506949"},"vehicle_type_id":"4","last_reported":1737821345,"current_range_meters":38000,"station_id":"ce4bhph2rcd13ifvqhdg","pricing_plan_id":"cebpf4jnsgd1na2vs0mg"},{"bike_id":"d5665470-c1b3-45e5-80ac-4df7d60c2564","system_id":"levelo_inurba_marseille","lat":43.32115,"lon":5.36782,"is_reserved":false,"is_disabled":false,"rental_uris":{"android":"levelo://app?vid=d5665470-c1b3-45e5-80ac-4df7d60c2564","ios":"levelo://app?vid=d5665470-c1b3-45e5-80ac-4df7d60c2564"},"vehicle_type_id":"4","last_reported":1737821345,"current_range_meters":32400,"station_id":"ce4bhrh2rcd13ifvqhug","pricing_plan_id":"cebpf4jnsgd1na2vs0mg"},{"bike_id":"5658bf19-5e40-4edf-ac7a-3999a5207afd","system_id":"levelo_inurba_marseille","lat":43.23194,"lon":5.35555,"is_reserved":false,"is_disabled":false,"rental_uris":{"android":"levelo://app?vid=5658bf19-5e40-4edf-ac7a-3999a5207afd","ios":"levelo://app?vid=5658bf19-5e40-4edf-ac7a-3999a5207afd"},"vehicle_type_id":"4","last_reported":1737821345,"current_range_meters":6800,"station_id":"ce4bhu92rcd13ifvqi70","pricing_plan_id":"cebpf4jnsgd1na2vs0mg"},{"bike_id":"6a1b531e-85ae-4e5a-a4e9-f3412dcc6fec","system_id":"levelo_inurba_marseille","lat":43.299713,"lon":5.371775,"is_reserved":false,"is_disabled":false,"rental_uris":{"android":"levelo://app?vid=6a1b531e-85ae-4e5a-a4e9-f3412dcc6fec","ios":"levelo://app?vid=6a1b531e-85ae-4e5a-a4e9-f3412dcc6fec"},"vehicle_type_id":"4","last_reported":1737821345,"current_range_meters":32800,"station_id":"ce4bgr92rcd13ifvqc7g","pricing_plan_id":"cebpf4jnsgd1na2vs0mg"},{"bike_id":"c0816cea-d6ad-48b9-9219-c1d6b41ea962","system_id":"levelo_inurba_marseille","lat":43.26214,"lon":5.37441,"is_reserved":false,"is_disabled":false,"rental_uris":{"android":"levelo://app?vid=c0816cea-d6ad-48b9-9219-c1d6b41ea962","ios":"levelo://app?vid=c0816cea-d6ad-48b9-9219-c1d6b41ea962"},"vehicle_type_id":"4","last_reported":1737821345,"current_range_meters":8800,"station_id":"ce4bhgp2rcd13ifvqfc0","pricing_plan_id":"cebpf4jnsgd1na2vs0mg"},{"bike_id":"d6cc0d41-998f-4491-8a43-de10cb632b50","system_id":"levelo_inurba_marseille","lat":43.2861,"lon":5.37059,"is_reserved":false,"is_disabled":false,"rental_uris":{"android":"levelo://app?vid=d6cc0d41-998f-4491-8a43-de10cb632b50","ios":"levelo://app?vid=d6cc0d41-998f-4491-8a43-de10cb632b50"},"vehicle_type_id":"4","last_reported":1737821345,"current_range_meters":9200,"station_id":"ce4bht12rcd13ifvqi60","pricing_plan_id":"cebpf4jnsgd1na2vs0mg"},{"bike_id":"7a84fa89-d629-4532-82f1-b70076392810","system_id":"levelo_inurba_marseille","lat":43.28857,"lon":5.35868,"is_reserved":false,"is_disabled":true,"rental_uris":{"android":"levelo://app?vid=7a84fa89-d629-4532-82f1-b70076392810","ios":"levelo://app?vid=7a84fa89-d629-4532-82f1-b70076392810"},"vehicle_type_id":"4","last_reported":1737821345,"current_range_meters":0,"station_id":"ce4bhb12rcd13ifvqem0","pricing_plan_id":"cebpf4jnsgd1na2vs0mg"},{"bike_id":"3052f05b-1e3e-46b9-a27b-1a3bcf1d5d84","system_id":"levelo_inurba_marseille","lat":43.28499,"lon":5.38578,"is_reserved":false,"is_disabled":true,"rental_uris":{"android":"levelo://app?vid=3052f05b-1e3e-46b9-a27b-1a3bcf1d5d84","ios":"levelo://app?vid=3052f05b-1e3e-46b9-a27b-1a3bcf1d5d84"},"vehicle_type_id":"4","last_reported":1737821345,"current_range_meters":800,"station_id":"ce4bh8p2rcd13ifvqeb0","pricing_plan_id":"cebpf4jnsgd1na2vs0mg"},{"bike_id":"be96e9a9-dde0-4956-8ae3-53fadb316047","system_id":"levelo_inurba_marseille","lat":43.29306,"lon":5.37172,"is_reserved":false,"is_disabled":false,"rental_uris":{"android":"levelo://app?vid=be96e9a9-dde0-4956-8ae3-53fadb316047","ios":"levelo://app?vid=be96e9a9-dde0-4956-8ae3-53fadb316047"},"vehicle_type_id":"4","last_reported":1737821345,"current_range_meters":38000,"station_id":"ce4bgh92rcd13ifvqb40","pricing_plan_id":"cebpf4jnsgd1na2vs0mg"},{"bike_id":"479cb780-8c58-44a6-99d3-0353db3a07bb","system_id":"levelo_inurba_marseille","lat":43.30812,"lon":5.43522,"is_reserved":false,"is_disabled":false,"rental_uris":{"android":"levelo://app?vid=479cb780-8c58-44a6-99d3-0353db3a07bb","ios":"levelo://app?vid=479cb780-8c58-44a6-99d3-0353db3a07bb"},"vehicle_type_id":"4","last_reported":1737821345,"current_range_meters":37600,"station_id":"ce4bhph2rcd13ifvqheg","pricing_plan_id":"cebpf4jnsgd1na2vs0mg"},{"bike_id":"6df622cf-2b94-459d-83ad-09577dedd11f","system_id":"levelo_inurba_marseille","lat":43.32044,"lon":5.41545,"is_reserved":false,"is_disabled":false,"rental_uris":{"android":"levelo://app?vid=6df622cf-2b94-459d-83ad-09577dedd11f","ios":"levelo://app?vid=6df622cf-2b94-459d-83ad-09577dedd11f"},"vehicle_type_id":"4","last_reported":1737821345,"current_range_meters":16400,"station_id":"ce4bhq92rcd13ifvqhkg","pricing_plan_id":"cebpf4jnsgd1na2vs0mg"},{"bike_id":"58ed6f03-7ed4-4271-86f8-70f27bd2b590","system_id":"levelo_inurba_marseille","lat":43.30428,"lon":5.41274,"is_reserved":false,"is_disabled":false,"rental_uris":{"android":"levelo://app?vid=58ed6f03-7ed4-4271-86f8-70f27bd2b590","ios":"levelo://app?vid=58ed6f03-7ed4-4271-86f8-70f27bd2b590"},"vehicle_type_id":"4","last_reported":1737821345,"current_range_meters":14800,"station_id":"ce4bhop2rcd13ifvqh8g","pricing_plan_id":"cebpf4jnsgd1na2vs0mg"},{"bike_id":"9f5ef00e-1f5d-4a4c-b17f-ec0fd2052c5a","system_id":"levelo_inurba_marseille","lat":43.31757,"lon":5.39018,"is_reserved":false,"is_disabled":true,"rental_uris":{"android":"levelo://app?vid=9f5ef00e-1f5d-4a4c-b17f-ec0fd2052c5a","ios":"levelo://app?vid=9f5ef00e-1f5d-4a4c-b17f-ec0fd2052c5a"},"vehicle_type_id":"4","last_reported":1737821345,"current_range_meters":0,"station_id":"ce4bhqp2rcd13ifvqhng","pricing_plan_id":"cebpf4jnsgd1na2vs0mg"},{"bike_id":"88a6e4d7-fda8-4a6d-8242-2876576cf83b","system_id":"levelo_inurba_marseille","lat":43.25862,"lon":5.39894,"is_reserved":false,"is_disabled":false,"rental_uris":{"android":"levelo://app?vid=88a6e4d7-fda8-4a6d-8242-2876576cf83b","ios":"levelo://app?vid=88a6e4d7-fda8-4a6d-8242-2876576cf83b"},"vehicle_type_id":"4","last_reported":1737821345,"current_range_meters":23200,"station_id":"ce4bhl92rcd13ifvqghg","pricing_plan_id":"cebpf4jnsgd1na2vs0mg"},{"bike_id":"14549f3c-9b93-4dce-b64e-10da7e275aeb","system_id":"levelo_inurba_marseille","lat":43.31254,"lon":5.36868,"is_reserved":false,"is_disabled":false,"rental_uris":{"android":"levelo://app?vid=14549f3c-9b93-4dce-b64e-10da7e275aeb","ios":"levelo://app?vid=14549f3c-9b93-4dce-b64e-10da7e275aeb"},"vehicle_type_id":"4","last_reported":1737821345,"current_range_meters":34800,"station_id":"ce4bgl92rcd13ifvqbq0","pricing_plan_id":"cebpf4jnsgd1na2vs0mg"},{"bike_id":"e84ea28d-d6c1-4a23-bfa5-fecf89bc2a9f","system_id":"levelo_inurba_marseille","lat":43.32477,"lon":5.36562,"is_reserved":false,"is_disabled":false,"rental_uris":{"android":"levelo://app?vid=e84ea28d-d6c1-4a23-bfa5-fecf89bc2a9f","ios":"levelo://app?vid=e84ea28d-d6c1-4a23-bfa5-fecf89bc2a9f"},"vehicle_type_id":"4","last_reported":1737821345,"current_range_meters":35600,"station_id":"ce4bhs12rcd13ifvqhvg","pricing_plan_id":"cebpf4jnsgd1na2vs0mg"},{"bike_id":"bb9f9ddc-25ef-4b8a-90e2-1646724919de","system_id":"levelo_inurba_marseille","lat":43.24064,"lon":5.3775,"is_reserved":false,"is_disabled":false,"rental_uris":{"android":"levelo://app?vid=bb9f9ddc-25ef-4b8a-90e2-1646724919de","ios":"levelo://app?vid=bb9f9ddc-25ef-4b8a-90e2-1646724919de"},"vehicle_type_id":"4","last_reported":1737821345,"current_range_meters":34800,"station_id":"ce4bhnp2rcd13ifvqgvg","pricing_plan_id":"cebpf4jnsgd1na2vs0mg"},{"bike_id":"57823e25-308b-4f11-a2b6-a7f52902c1c5","system_id":"levelo_inurba_marseille","lat":43.30807,"lon":5.38162,"is_reserved":false,"is_disabled":true,"rental_uris":{"android":"levelo://app?vid=57823e25-308b-4f11-a2b6-a7f52902c1c5","ios":"levelo://app?vid=57823e25-308b-4f11-a2b6-a7f52902c1c5"},"vehicle_type_id":"4","last_reported":1737821345,"current_range_meters":30000,"station_id":"ce4bgt12rcd13ifvqce0","pricing_plan_id":"cebpf4jnsgd1na2vs0mg"},{"bike_id":"787fabc3-eb91-469a-81b6-44a6fdcc4a9b","system_id":"levelo_inurba_marseille","lat":43.2307,"lon":5.35509,"is_reserved":false,"is_disabled":true,"rental_uris":{"android":"levelo://app?vid=787fabc3-eb91-469a-81b6-44a6fdcc4a9b","ios":"levelo://app?vid=787fabc3-eb91-469a-81b6-44a6fdcc4a9b"},"vehicle_type_id":"4","last_reported":1737821345,"current_range_meters":800,"station_id":"cpo3342slgdg3j2ifvpg","pricing_plan_id":"cebpf4jnsgd1na2vs0mg"},{"bike_id":"bd002190-7253-4748-ac67-ef72549b7175","system_id":"levelo_inurba_marseille","lat":43.3247,"lon":5.36543,"is_reserved":false,"is_disabled":false,"rental_uris":{"android":"levelo://app?vid=bd002190-7253-4748-ac67-ef72549b7175","ios":"levelo://app?vid=bd002190-7253-4748-ac67-ef72549b7175"},"vehicle_type_id":"4","last_reported":1737821345,"current_range_meters":17600,"station_id":"ce4bhs12rcd13ifvqhvg","pricing_plan_id":"cebpf4jnsgd1na2vs0mg"},{"bike_id":"aba1ed8a-607f-44b9-aede-571f57cbf5a6","system_id":"levelo_inurba_marseille","lat":43.25576,"lon":5.38225,"is_reserved":false,"is_disabled":false,"rental_uris":{"android":"levelo://app?vid=aba1ed8a-607f-44b9-aede-571f57cbf5a6","ios":"levelo://app?vid=aba1ed8a-607f-44b9-aede-571f57cbf5a6"},"vehicle_type_id":"4","last_reported":1737821345,"current_range_meters":38000,"station_id":"ce4bhih2rcd13ifvqfs0","pricing_plan_id":"cebpf4jnsgd1na2vs0mg"},{"bike_id":"1e328aaf-06e5-4767-a395-a9b21576497f","system_id":"levelo_inurba_marseille","lat":43.29781,"lon":5.37125,"is_reserved":false,"is_disabled":true,"rental_uris":{"android":"levelo://app?vid=1e328aaf-06e5-4767-a395-a9b21576497f","ios":"levelo://app?vid=1e328aaf-06e5-4767-a395-a9b21576497f"},"vehicle_type_id":"4","last_reported":1737821345,"current_range_meters":22400,"station_id":"ce4bgop2rcd13ifvqc1g","pricing_plan_id":"cebpf4jnsgd1na2vs0mg"},{"bike_id":"9d9e580e-55d1-45ef-9ebd-01f1444e9e27","system_id":"levelo_inurba_marseille","lat":43.30141,"lon":5.37415,"is_reserved":false,"is_disabled":false,"rental_uris":{"android":"levelo://app?vid=9d9e580e-55d1-45ef-9ebd-01f1444e9e27","ios":"levelo://app?vid=9d9e580e-55d1-45ef-9ebd-01f1444e9e27"},"vehicle_type_id":"4","last_reported":1737821345,"current_range_meters":24800,"station_id":"ce4bgs92rcd13ifvqcc0","pricing_plan_id":"cebpf4jnsgd1na2vs0mg"},{"bike_id":"a6da11aa-cb09-4191-a454-c3a90a627542","system_id":"levelo_inurba_marseille","lat":43.25873,"lon":5.39897,"is_reserved":false,"is_disabled":false,"rental_uris":{"android":"levelo://app?vid=a6da11aa-cb09-4191-a454-c3a90a627542","ios":"levelo://app?vid=a6da11aa-cb09-4191-a454-c3a90a627542"},"vehicle_type_id":"4","last_reported":1737821345,"current_range_meters":6000,"station_id":"ce4bhl92rcd13ifvqghg","pricing_plan_id":"cebpf4jnsgd1na2vs0mg"},{"bike_id":"ea624404-124a-4128-9041-089ad79942c5","system_id":"levelo_inurba_marseille","lat":43.29551,"lon":5.42285,"is_reserved":false,"is_disabled":false,"rental_uris":{"android":"levelo://app?vid=ea624404-124a-4128-9041-089ad79942c5","ios":"levelo://app?vid=ea624404-124a-4128-9041-089ad79942c5"},"vehicle_type_id":"4","last_reported":1737821345,"current_range_meters":31200,"station_id":"ce4bhph2rcd13ifvqhdg","pricing_plan_id":"cebpf4jnsgd1na2vs0mg"},{"bike_id":"662826ac-353a-4d90-b4d6-b01a8f2632b2","system_id":"levelo_inurba_marseille","lat":43.22937,"lon":5.3539,"is_reserved":false,"is_disabled":false,"rental_uris":{"android":"levelo://app?vid=662826ac-353a-4d90-b4d6-b01a8f2632b2","ios":"levelo://app?vid=662826ac-353a-4d90-b4d6-b01a8f2632b2"},"vehicle_type_id":"4","last_reported":1737821345,"current_range_meters":38800,"station_id":"cpo3532slgdg3j2ikp40","pricing_plan_id":"cebpf4jnsgd1na2vs0mg"},{"bike_id":"de4c65a4-913d-4b9a-a7f2-e9c278b686e9","system_id":"levelo_inurba_marseille","lat":43.29795,"lon":5.38094,"is_reserved":false,"is_disabled":false,"rental_uris":{"android":"levelo://app?vid=de4c65a4-913d-4b9a-a7f2-e9c278b686e9","ios":"levelo://app?vid=de4c65a4-913d-4b9a-a7f2-e9c278b686e9"},"vehicle_type_id":"4","last_reported":1737821345,"current_range_meters":38000,"station_id":"ce4bgip2rcd13ifvqbb0","pricing_plan_id":"cebpf4jnsgd1na2vs0mg"},{"bike_id":"163b0be8-f1db-4665-a41b-823b767c63a6","system_id":"levelo_inurba_marseille","lat":43.2694,"lon":5.40246,"is_reserved":false,"is_disabled":false,"rental_uris":{"android":"levelo://app?vid=163b0be8-f1db-4665-a41b-823b767c63a6","ios":"levelo://app?vid=163b0be8-f1db-4665-a41b-823b767c63a6"},"vehicle_type_id":"4","last_reported":1737821345,"current_range_meters":36400,"station_id":"cjm6bp8fraef2m0cb0m0","pricing_plan_id":"cebpf4jnsgd1na2vs0mg"},{"bike_id":"12aeff06-ed5b-4de1-98db-f858b670f49a","system_id":"levelo_inurba_marseille","lat":43.26203,"lon":5.3793,"is_reserved":false,"is_disabled":false,"rental_uris":{"android":"levelo://app?vid=12aeff06-ed5b-4de1-98db-f858b670f49a","ios":"levelo://app?vid=12aeff06-ed5b-4de1-98db-f858b670f49a"},"vehicle_type_id":"4","last_reported":1737821345,"current_range_meters":14800,"station_id":"ce4bhjp2rcd13ifvqg90","pricing_plan_id":"cebpf4jnsgd1na2vs0mg"},{"bike_id":"2cadf354-5c71-4dd8-ab00-2c0fa05f1da5","system_id":"levelo_inurba_marseille","lat":43.28666,"lon":5.3635,"is_reserved":false,"is_disabled":false,"rental_uris":{"android":"levelo://app?vid=2cadf354-5c71-4dd8-ab00-2c0fa05f1da5","ios":"levelo://app?vid=2cadf354-5c71-4dd8-ab00-2c0fa05f1da5"},"vehicle_type_id":"4","last_reported":1737821345,"current_range_meters":39200,"station_id":"ce4bhah2rcd13ifvqej0","pricing_plan_id":"cebpf4jnsgd1na2vs0mg"},{"bike_id":"1a486dfb-4f43-462d-abba-165c0765fcbc","system_id":"levelo_inurba_marseille","lat":43.28468,"lon":5.35881,"is_reserved":false,"is_disabled":false,"rental_uris":{"android":"levelo://app?vid=1a486dfb-4f43-462d-abba-165c0765fcbc","ios":"levelo://app?vid=1a486dfb-4f43-462d-abba-165c0765fcbc"},"vehicle_type_id":"4","last_reported":1737821345,"current_range_meters":38800,"station_id":"ce4bhah2rcd13ifvqei0","pricing_plan_id":"cebpf4jnsgd1na2vs0mg"},{"bike_id":"889c3c46-17e0-4e79-bda3-64c8e57e03cf","system_id":"levelo_inurba_marseille","lat":43.29804,"lon":5.40415,"is_reserved":false,"is_disabled":false,"rental_uris":{"android":"levelo://app?vid=889c3c46-17e0-4e79-bda3-64c8e57e03cf","ios":"levelo://app?vid=889c3c46-17e0-4e79-bda3-64c8e57e03cf"},"vehicle_type_id":"4","last_reported":1737821345,"current_range_meters":38800,"station_id":"ce4bh112rcd13ifvqd90","pricing_plan_id":"cebpf4jnsgd1na2vs0mg"},{"bike_id":"552dc025-aadc-4b02-a827-48512030e298","system_id":"levelo_inurba_marseille","lat":43.30548,"lon":5.36528,"is_reserved":false,"is_disabled":false,"rental_uris":{"android":"levelo://app?vid=552dc025-aadc-4b02-a827-48512030e298","ios":"levelo://app?vid=552dc025-aadc-4b02-a827-48512030e298"},"vehicle_type_id":"4","last_reported":1737821345,"current_range_meters":5600,"station_id":"ce4bgs12rcd13ifvqcag","pricing_plan_id":"cebpf4jnsgd1na2vs0mg"},{"bike_id":"4fd81f51-66cd-49c2-8173-f14e49403f39","system_id":"levelo_inurba_marseille","lat":43.28106,"lon":5.37837,"is_reserved":false,"is_disabled":false,"rental_uris":{"android":"levelo://app?vid=4fd81f51-66cd-49c2-8173-f14e49403f39","ios":"levelo://app?vid=4fd81f51-66cd-49c2-8173-f14e49403f39"},"vehicle_type_id":"4","last_reported":1737821345,"current_range_meters":19200,"station_id":"ce4bha12rcd13ifvqee0","pricing_plan_id":"cebpf4jnsgd1na2vs0mg"},{"bike_id":"7532e7c4-2524-427b-b547-730d4ba49800","system_id":"levelo_inurba_marseille","lat":43.28418,"lon":5.37522,"is_reserved":false,"is_disabled":true,"rental_uris":{"android":"levelo://app?vid=7532e7c4-2524-427b-b547-730d4ba49800","ios":"levelo://app?vid=7532e7c4-2524-427b-b547-730d4ba49800"},"vehicle_type_id":"4","last_reported":1737821345,"current_range_meters":0,"station_id":"ce4bh412rcd13ifvqds0","pricing_plan_id":"cebpf4jnsgd1na2vs0mg"},{"bike_id":"03deefff-87ac-4b19-8932-093032a2512e","system_id":"levelo_inurba_marseille","lat":43.32285,"lon":5.3828,"is_reserved":false,"is_disabled":false,"rental_uris":{"android":"levelo://app?vid=03deefff-87ac-4b19-8932-093032a2512e","ios":"levelo://app?vid=03deefff-87ac-4b19-8932-093032a2512e"},"vehicle_type_id":"4","last_reported":1737821345,"current_range_meters":34000,"station_id":"ce4bhr12rcd13ifvqhqg","pricing_plan_id":"cebpf4jnsgd1na2vs0mg"},{"bike_id":"eece5cfa-324b-4f7e-b6f8-f2cfdc2c2158","system_id":"levelo_inurba_marseille","lat":43.28002,"lon":5.40013,"is_reserved":false,"is_disabled":false,"rental_uris":{"android":"levelo://app?vid=eece5cfa-324b-4f7e-b6f8-f2cfdc2c2158","ios":"levelo://app?vid=eece5cfa-324b-4f7e-b6f8-f2cfdc2c2158"},"vehicle_type_id":"4","last_reported":1737821345,"current_range_meters":20800,"station_id":"ce4bho92rcd13ifvqh4g","pricing_plan_id":"cebpf4jnsgd1na2vs0mg"},{"bike_id":"9c35a641-d8de-4ad6-aa48-5402a47894a7","system_id":"levelo_inurba_marseille","lat":43.32657,"lon":5.40982,"is_reserved":false,"is_disabled":false,"rental_uris":{"android":"levelo://app?vid=9c35a641-d8de-4ad6-aa48-5402a47894a7","ios":"levelo://app?vid=9c35a641-d8de-4ad6-aa48-5402a47894a7"},"vehicle_type_id":"4","last_reported":1737821345,"current_range_meters":34800,"station_id":"ce4bhpp2rcd13ifvqhgg","pricing_plan_id":"cebpf4jnsgd1na2vs0mg"},{"bike_id":"258e6798-08f1-4042-a334-2465a7133c40","system_id":"levelo_inurba_marseille","lat":43.25483,"lon":5.37654,"is_reserved":false,"is_disabled":false,"rental_uris":{"android":"levelo://app?vid=258e6798-08f1-4042-a334-2465a7133c40","ios":"levelo://app?vid=258e6798-08f1-4042-a334-2465a7133c40"},"vehicle_type_id":"4","last_reported":1737821345,"current_range_meters":3200,"station_id":"ce4bhh12rcd13ifvqff0","pricing_plan_id":"cebpf4jnsgd1na2vs0mg"},{"bike_id":"1b961552-d77a-4e68-b07c-bb1bfa7f2db8","system_id":"levelo_inurba_marseille","lat":43.29838,"lon":5.36251,"is_reserved":false,"is_disabled":false,"rental_uris":{"android":"levelo://app?vid=1b961552-d77a-4e68-b07c-bb1bfa7f2db8","ios":"levelo://app?vid=1b961552-d77a-4e68-b07c-bb1bfa7f2db8"},"vehicle_type_id":"4","last_reported":1737821345,"current_range_meters":38800,"station_id":"ce4bgpp2rcd13ifvqc3g","pricing_plan_id":"cebpf4jnsgd1na2vs0mg"},{"bike_id":"0db958fd-9d8d-47d4-8dd9-c0ab6d763bb4","system_id":"levelo_inurba_marseille","lat":43.30813,"lon":5.43525,"is_reserved":false,"is_disabled":false,"rental_uris":{"android":"levelo://app?vid=0db958fd-9d8d-47d4-8dd9-c0ab6d763bb4","ios":"levelo://app?vid=0db958fd-9d8d-47d4-8dd9-c0ab6d763bb4"},"vehicle_type_id":"4","last_reported":1737821345,"current_range_meters":25200,"station_id":"ce4bhph2rcd13ifvqheg","pricing_plan_id":"cebpf4jnsgd1na2vs0mg"},{"bike_id":"6a9e34c1-9f2c-44ed-af34-4f040d9ae6f3","system_id":"levelo_inurba_marseille","lat":43.29547,"lon":5.42282,"is_reserved":false,"is_disabled":false,"rental_uris":{"android":"levelo://app?vid=6a9e34c1-9f2c-44ed-af34-4f040d9ae6f3","ios":"levelo://app?vid=6a9e34c1-9f2c-44ed-af34-4f040d9ae6f3"},"vehicle_type_id":"4","last_reported":1737821345,"current_range_meters":22400,"station_id":"ce4bhph2rcd13ifvqhdg","pricing_plan_id":"cebpf4jnsgd1na2vs0mg"},{"bike_id":"7f94b57f-e0f8-45f0-8394-4dedd17df1a0","system_id":"levelo_inurba_marseille","lat":43.28451,"lon":5.39176,"is_reserved":false,"is_disabled":true,"rental_uris":{"android":"levelo://app?vid=7f94b57f-e0f8-45f0-8394-4dedd17df1a0","ios":"levelo://app?vid=7f94b57f-e0f8-45f0-8394-4dedd17df1a0"},"vehicle_type_id":"4","last_reported":1737821345,"current_range_meters":0,"station_id":"ce4bhoh2rcd13ifvqh5g","pricing_plan_id":"cebpf4jnsgd1na2vs0mg"},{"bike_id":"2be8a331-aa36-47dc-8b74-552cdddd45db","system_id":"levelo_inurba_marseille","lat":43.30545,"lon":5.36538,"is_reserved":false,"is_disabled":false,"rental_uris":{"android":"levelo://app?vid=2be8a331-aa36-47dc-8b74-552cdddd45db","ios":"levelo://app?vid=2be8a331-aa36-47dc-8b74-552cdddd45db"},"vehicle_type_id":"4","last_reported":1737821345,"current_range_meters":33600,"station_id":"ce4bgs12rcd13ifvqcag","pricing_plan_id":"cebpf4jnsgd1na2vs0mg"},{"bike_id":"f9c62656-c213-4d37-bccf-53ca245dbdbd","system_id":"levelo_inurba_marseille","lat":43.33022,"lon":5.39058,"is_reserved":false,"is_disabled":false,"rental_uris":{"android":"levelo://app?vid=f9c62656-c213-4d37-bccf-53ca245dbdbd","ios":"levelo://app?vid=f9c62656-c213-4d37-bccf-53ca245dbdbd"},"vehicle_type_id":"4","last_reported":1737821345,"current_range_meters":11600,"station_id":"ce4bhr92rcd13ifvqhrg","pricing_plan_id":"cebpf4jnsgd1na2vs0mg"},{"bike_id":"26d3de6a-b7db-4cd7-885c-9cb71bb28aa5","system_id":"levelo_inurba_marseille","lat":43.27367,"lon":5.36259,"is_reserved":false,"is_disabled":false,"rental_uris":{"android":"levelo://app?vid=26d3de6a-b7db-4cd7-885c-9cb71bb28aa5","ios":"levelo://app?vid=26d3de6a-b7db-4cd7-885c-9cb71bb28aa5"},"vehicle_type_id":"4","last_reported":1737821345,"current_range_meters":38800,"station_id":"ce4bhbh2rcd13ifvqeo0","pricing_plan_id":"cebpf4jnsgd1na2vs0mg"},{"bike_id":"0c21f865-7b69-4aae-b926-535c6e7e0c30","system_id":"levelo_inurba_marseille","lat":43.25106,"lon":5.40332,"is_reserved":false,"is_disabled":false,"rental_uris":{"android":"levelo://app?vid=0c21f865-7b69-4aae-b926-535c6e7e0c30","ios":"levelo://app?vid=0c21f865-7b69-4aae-b926-535c6e7e0c30"},"vehicle_type_id":"4","last_reported":1737821345,"current_range_meters":38800,"station_id":"ce4bhlh2rcd13ifvqgig","pricing_plan_id":"cebpf4jnsgd1na2vs0mg"},{"bike_id":"7c78a755-c7f5-4f07-a96b-621451d47948","system_id":"levelo_inurba_marseille","lat":43.29901,"lon":5.43667,"is_reserved":false,"is_disabled":false,"rental_uris":{"android":"levelo://app?vid=7c78a755-c7f5-4f07-a96b-621451d47948","ios":"levelo://app?vid=7c78a755-c7f5-4f07-a96b-621451d47948"},"vehicle_type_id":"4","last_reported":1737821345,"current_range_meters":36000,"station_id":"ce4bhpp2rcd13ifvqhfg","pricing_plan_id":"cebpf4jnsgd1na2vs0mg"},{"bike_id":"c69d1b2a-5537-4cf0-8c1d-991576479533","system_id":"levelo_inurba_marseille","lat":43.29167,"lon":5.37163,"is_reserved":false,"is_disabled":true,"rental_uris":{"android":"levelo://app?vid=c69d1b2a-5537-4cf0-8c1d-991576479533","ios":"levelo://app?vid=c69d1b2a-5537-4cf0-8c1d-991576479533"},"vehicle_type_id":"4","last_reported":1737821345,"current_range_meters":400,"station_id":"ce4bha92rcd13ifvqeh0","pricing_plan_id":"cebpf4jnsgd1na2vs0mg"},{"bike_id":"a9d8de31-0dd9-4943-a5a7-a41649763c7b","system_id":"levelo_inurba_marseille","lat":43.26206,"lon":5.37437,"is_reserved":false,"is_disabled":false,"rental_uris":{"android":"levelo://app?vid=a9d8de31-0dd9-4943-a5a7-a41649763c7b","ios":"levelo://app?vid=a9d8de31-0dd9-4943-a5a7-a41649763c7b"},"vehicle_type_id":"4","last_reported":1737821345,"current_range_meters":16400,"station_id":"ce4bhgp2rcd13ifvqfc0","pricing_plan_id":"cebpf4jnsgd1na2vs0mg"},{"bike_id":"d66fc045-5910-4695-b884-47052bbcf37b","system_id":"levelo_inurba_marseille","lat":43.30551,"lon":5.36528,"is_reserved":false,"is_disabled":false,"rental_uris":{"android":"levelo://app?vid=d66fc045-5910-4695-b884-47052bbcf37b","ios":"levelo://app?vid=d66fc045-5910-4695-b884-47052bbcf37b"},"vehicle_type_id":"4","last_reported":1737821345,"current_range_meters":27200,"station_id":"ce4bgs12rcd13ifvqcag","pricing_plan_id":"cebpf4jnsgd1na2vs0mg"},{"bike_id":"8586a018-4fea-4b1c-99a3-10529402c58c","system_id":"levelo_inurba_marseille","lat":43.29202,"lon":5.39323,"is_reserved":false,"is_disabled":false,"rental_uris":{"android":"levelo://app?vid=8586a018-4fea-4b1c-99a3-10529402c58c","ios":"levelo://app?vid=8586a018-4fea-4b1c-99a3-10529402c58c"},"vehicle_type_id":"4","last_reported":1737821345,"current_range_meters":3600,"station_id":"ce4bh192rcd13ifvqdd0","pricing_plan_id":"cebpf4jnsgd1na2vs0mg"},{"bike_id":"ed83662a-59b3-4bfc-a7f6-ab6d700ed54d","system_id":"levelo_inurba_marseille","lat":43.27617,"lon":5.36118,"is_reserved":false,"is_disabled":false,"rental_uris":{"android":"levelo://app?vid=ed83662a-59b3-4bfc-a7f6-ab6d700ed54d","ios":"levelo://app?vid=ed83662a-59b3-4bfc-a7f6-ab6d700ed54d"},"vehicle_type_id":"4","last_reported":1737821345,"current_range_meters":11600,"station_id":"ce4bgj92rcd13ifvqbe0","pricing_plan_id":"cebpf4jnsgd1na2vs0mg"},{"bike_id":"a48a4fa8-387b-4ecc-bc7a-c3f07822bf47","system_id":"levelo_inurba_marseille","lat":43.26601,"lon":5.3727,"is_reserved":false,"is_disabled":false,"rental_uris":{"android":"levelo://app?vid=a48a4fa8-387b-4ecc-bc7a-c3f07822bf47","ios":"levelo://app?vid=a48a4fa8-387b-4ecc-bc7a-c3f07822bf47"},"vehicle_type_id":"4","last_reported":1737821345,"current_range_meters":11600,"station_id":"","pricing_plan_id":"cebpf4jnsgd1na2vs0mg"},{"bike_id":"c1d942e2-a6de-4958-9395-579cc65e2439","system_id":"levelo_inurba_marseille","lat":43.31359,"lon":5.38488,"is_reserved":false,"is_disabled":false,"rental_uris":{"android":"levelo://app?vid=c1d942e2-a6de-4958-9395-579cc65e2439","ios":"levelo://app?vid=c1d942e2-a6de-4958-9395-579cc65e2439"},"vehicle_type_id":"4","last_reported":1737821345,"current_range_meters":6000,"station_id":"ce4bgt92rcd13ifvqcf0","pricing_plan_id":"cebpf4jnsgd1na2vs0mg"},{"bike_id":"7efe2e23-4eb5-42e6-bdfe-af45bc849b33","system_id":"levelo_inurba_marseille","lat":43.2511,"lon":5.4032,"is_reserved":false,"is_disabled":false,"rental_uris":{"android":"levelo://app?vid=7efe2e23-4eb5-42e6-bdfe-af45bc849b33","ios":"levelo://app?vid=7efe2e23-4eb5-42e6-bdfe-af45bc849b33"},"vehicle_type_id":"4","last_reported":1737821345,"current_range_meters":7200,"station_id":"ce4bhlh2rcd13ifvqgig","pricing_plan_id":"cebpf4jnsgd1na2vs0mg"},{"bike_id":"8fd0082a-8558-471d-bd5c-8f2bb03de120","system_id":"levelo_inurba_marseille","lat":43.28716,"lon":5.39978,"is_reserved":false,"is_disabled":true,"rental_uris":{"android":"levelo://app?vid=8fd0082a-8558-471d-bd5c-8f2bb03de120","ios":"levelo://app?vid=8fd0082a-8558-471d-bd5c-8f2bb03de120"},"vehicle_type_id":"4","last_reported":1737821345,"current_range_meters":30000,"station_id":"ce4bho92rcd13ifvqh3g","pricing_plan_id":"cebpf4jnsgd1na2vs0mg"},{"bike_id":"b7c4d013-6539-40c1-b7d8-8b4151ca3c0c","system_id":"levelo_inurba_marseille","lat":43.29717,"lon":5.379,"is_reserved":false,"is_disabled":false,"rental_uris":{"android":"levelo://app?vid=b7c4d013-6539-40c1-b7d8-8b4151ca3c0c","ios":"levelo://app?vid=b7c4d013-6539-40c1-b7d8-8b4151ca3c0c"},"vehicle_type_id":"4","last_reported":1737821345,"current_range_meters":5600,"station_id":"","pricing_plan_id":"cebpf4jnsgd1na2vs0mg"},{"bike_id":"c176098d-ddec-48fd-92f9-beab1541433f","system_id":"levelo_inurba_marseille","lat":43.28936,"lon":5.3664,"is_reserved":false,"is_disabled":false,"rental_uris":{"android":"levelo://app?vid=c176098d-ddec-48fd-92f9-beab1541433f","ios":"levelo://app?vid=c176098d-ddec-48fd-92f9-beab1541433f"},"vehicle_type_id":"4","last_reported":1737821345,"current_range_meters":38800,"station_id":"ce4bhap2rcd13ifvqek0","pricing_plan_id":"cebpf4jnsgd1na2vs0mg"},{"bike_id":"08fc771d-4572-4ccd-82e8-cd527975f4d8","system_id":"levelo_inurba_marseille","lat":43.28158,"lon":5.42638,"is_reserved":false,"is_disabled":false,"rental_uris":{"android":"levelo://app?vid=08fc771d-4572-4ccd-82e8-cd527975f4d8","ios":"levelo://app?vid=08fc771d-4572-4ccd-82e8-cd527975f4d8"},"vehicle_type_id":"4","last_reported":1737821345,"current_range_meters":9200,"station_id":"ce4bhnh2rcd13ifvqgug","pricing_plan_id":"cebpf4jnsgd1na2vs0mg"},{"bike_id":"1c28195d-f547-43d2-8ace-05286fd2e160","system_id":"levelo_inurba_marseille","lat":43.30612,"lon":5.37221,"is_reserved":false,"is_disabled":false,"rental_uris":{"android":"levelo://app?vid=1c28195d-f547-43d2-8ace-05286fd2e160","ios":"levelo://app?vid=1c28195d-f547-43d2-8ace-05286fd2e160"},"vehicle_type_id":"4","last_reported":1737821345,"current_range_meters":28000,"station_id":"ce4bgqh2rcd13ifvqc4g","pricing_plan_id":"cebpf4jnsgd1na2vs0mg"},{"bike_id":"73d27b13-6621-4778-b1e2-880fe74c6cc8","system_id":"levelo_inurba_marseille","lat":43.29784,"lon":5.38092,"is_reserved":false,"is_disabled":false,"rental_uris":{"android":"levelo://app?vid=73d27b13-6621-4778-b1e2-880fe74c6cc8","ios":"levelo://app?vid=73d27b13-6621-4778-b1e2-880fe74c6cc8"},"vehicle_type_id":"4","last_reported":1737821345,"current_range_meters":38800,"station_id":"ce4bgip2rcd13ifvqbb0","pricing_plan_id":"cebpf4jnsgd1na2vs0mg"},{"bike_id":"b996c87f-d903-42b5-80db-0cef1eda72fd","system_id":"levelo_inurba_marseille","lat":43.23064,"lon":5.35486,"is_reserved":false,"is_disabled":false,"rental_uris":{"android":"levelo://app?vid=b996c87f-d903-42b5-80db-0cef1eda72fd","ios":"levelo://app?vid=b996c87f-d903-42b5-80db-0cef1eda72fd"},"vehicle_type_id":"4","last_reported":1737821345,"current_range_meters":8800,"station_id":"cpo3342slgdg3j2ifvpg","pricing_plan_id":"cebpf4jnsgd1na2vs0mg"},{"bike_id":"be53c260-a001-4b11-b900-95f9161ea13d","system_id":"levelo_inurba_marseille","lat":43.30593,"lon":5.37227,"is_reserved":false,"is_disabled":false,"rental_uris":{"android":"levelo://app?vid=be53c260-a001-4b11-b900-95f9161ea13d","ios":"levelo://app?vid=be53c260-a001-4b11-b900-95f9161ea13d"},"vehicle_type_id":"4","last_reported":1737821345,"current_range_meters":34000,"station_id":"ce4bgqh2rcd13ifvqc4g","pricing_plan_id":"cebpf4jnsgd1na2vs0mg"},{"bike_id":"9f0c46f0-4fb9-4e17-b4b9-e5ede73a87dc","system_id":"levelo_inurba_marseille","lat":43.32376,"lon":5.38909,"is_reserved":false,"is_disabled":false,"rental_uris":{"android":"levelo://app?vid=9f0c46f0-4fb9-4e17-b4b9-e5ede73a87dc","ios":"levelo://app?vid=9f0c46f0-4fb9-4e17-b4b9-e5ede73a87dc"},"vehicle_type_id":"4","last_reported":1737821345,"current_range_meters":28800,"station_id":"ce4bhqp2rcd13ifvqhog","pricing_plan_id":"cebpf4jnsgd1na2vs0mg"},{"bike_id":"882e4d97-ad36-4f32-b0ee-359384324109","system_id":"levelo_inurba_marseille","lat":43.29944,"lon":5.38118,"is_reserved":false,"is_disabled":false,"rental_uris":{"android":"levelo://app?vid=882e4d97-ad36-4f32-b0ee-359384324109","ios":"levelo://app?vid=882e4d97-ad36-4f32-b0ee-359384324109"},"vehicle_type_id":"4","last_reported":1737821345,"current_range_meters":32400,"station_id":"","pricing_plan_id":"cebpf4jnsgd1na2vs0mg"},{"bike_id":"2b67e1d5-ff21-4c00-b4f6-956c4a136377","system_id":"levelo_inurba_marseille","lat":43.28452,"lon":5.35887,"is_reserved":false,"is_disabled":false,"rental_uris":{"android":"levelo://app?vid=2b67e1d5-ff21-4c00-b4f6-956c4a136377","ios":"levelo://app?vid=2b67e1d5-ff21-4c00-b4f6-956c4a136377"},"vehicle_type_id":"4","last_reported":1737821345,"current_range_meters":38800,"station_id":"ce4bhah2rcd13ifvqei0","pricing_plan_id":"cebpf4jnsgd1na2vs0mg"},{"bike_id":"8d4ddec4-c5b1-4949-8b22-91bcf0236bb4","system_id":"levelo_inurba_marseille","lat":43.24638,"lon":5.3888,"is_reserved":false,"is_disabled":false,"rental_uris":{"android":"levelo://app?vid=8d4ddec4-c5b1-4949-8b22-91bcf0236bb4","ios":"levelo://app?vid=8d4ddec4-c5b1-4949-8b22-91bcf0236bb4"},"vehicle_type_id":"4","last_reported":1737821345,"current_range_meters":38800,"station_id":"ce4bhg12rcd13ifvqf60","pricing_plan_id":"cebpf4jnsgd1na2vs0mg"},{"bike_id":"32fb2d86-334a-4eb7-b932-de44131a0d48","system_id":"levelo_inurba_marseille","lat":43.2973,"lon":5.37708,"is_reserved":false,"is_disabled":false,"rental_uris":{"android":"levelo://app?vid=32fb2d86-334a-4eb7-b932-de44131a0d48","ios":"levelo://app?vid=32fb2d86-334a-4eb7-b932-de44131a0d48"},"vehicle_type_id":"4","last_reported":1737821345,"current_range_meters":36400,"station_id":"ce4bgkh2rcd13ifvqbl0","pricing_plan_id":"cebpf4jnsgd1na2vs0mg"},{"bike_id":"18470566-fe48-47d7-9c35-3751bec3cd8b","system_id":"levelo_inurba_marseille","lat":43.2957,"lon":5.3997,"is_reserved":false,"is_disabled":true,"rental_uris":{"android":"levelo://app?vid=18470566-fe48-47d7-9c35-3751bec3cd8b","ios":"levelo://app?vid=18470566-fe48-47d7-9c35-3751bec3cd8b"},"vehicle_type_id":"4","last_reported":1737821345,"current_range_meters":28800,"station_id":"ce4bh312rcd13ifvqdj0","pricing_plan_id":"cebpf4jnsgd1na2vs0mg"},{"bike_id":"ec30b5e6-3e22-4c6e-991d-6218cd7acfad","system_id":"levelo_inurba_marseille","lat":43.30798,"lon":5.38143,"is_reserved":false,"is_disabled":false,"rental_uris":{"android":"levelo://app?vid=ec30b5e6-3e22-4c6e-991d-6218cd7acfad","ios":"levelo://app?vid=ec30b5e6-3e22-4c6e-991d-6218cd7acfad"},"vehicle_type_id":"4","last_reported":1737821345,"current_range_meters":18000,"station_id":"ce4bgt12rcd13ifvqce0","pricing_plan_id":"cebpf4jnsgd1na2vs0mg"},{"bike_id":"16cba4e1-cb10-44ef-b1a1-eca95385335f","system_id":"levelo_inurba_marseille","lat":43.28416,"lon":5.34989,"is_reserved":false,"is_disabled":true,"rental_uris":{"android":"levelo://app?vid=16cba4e1-cb10-44ef-b1a1-eca95385335f","ios":"levelo://app?vid=16cba4e1-cb10-44ef-b1a1-eca95385335f"},"vehicle_type_id":"4","last_reported":1737821345,"current_range_meters":16400,"station_id":"ce4bhbh2rcd13ifvqepg","pricing_plan_id":"cebpf4jnsgd1na2vs0mg"},{"bike_id":"fee1ac8f-fe44-4315-b4c7-a1c6ff4fbe35","system_id":"levelo_inurba_marseille","lat":43.290781,"lon":5.371778,"is_reserved":false,"is_disabled":false,"rental_uris":{"android":"levelo://app?vid=fee1ac8f-fe44-4315-b4c7-a1c6ff4fbe35","ios":"levelo://app?vid=fee1ac8f-fe44-4315-b4c7-a1c6ff4fbe35"},"vehicle_type_id":"4","last_reported":1737821345,"current_range_meters":28000,"station_id":"ce4bhc92rcd13ifvqetg","pricing_plan_id":"cebpf4jnsgd1na2vs0mg"},{"bike_id":"8fc5f132-29ed-47c1-bff0-bf17728d82ae","system_id":"levelo_inurba_marseille","lat":43.29394,"lon":5.37852,"is_reserved":false,"is_disabled":true,"rental_uris":{"android":"levelo://app?vid=8fc5f132-29ed-47c1-bff0-bf17728d82ae","ios":"levelo://app?vid=8fc5f132-29ed-47c1-bff0-bf17728d82ae"},"vehicle_type_id":"4","last_reported":1737821345,"current_range_meters":38000,"station_id":"ce4bgjh2rcd13ifvqbf0","pricing_plan_id":"cebpf4jnsgd1na2vs0mg"},{"bike_id":"bd71b0ef-1909-491b-9b34-ec914ebd43eb","system_id":"levelo_inurba_marseille","lat":43.31684,"lon":5.37731,"is_reserved":false,"is_disabled":false,"rental_uris":{"android":"levelo://app?vid=bd71b0ef-1909-491b-9b34-ec914ebd43eb","ios":"levelo://app?vid=bd71b0ef-1909-491b-9b34-ec914ebd43eb"},"vehicle_type_id":"4","last_reported":1737821345,"current_range_meters":38400,"station_id":"ce4bgth2rcd13ifvqch0","pricing_plan_id":"cebpf4jnsgd1na2vs0mg"},{"bike_id":"c16d00c1-2940-4df7-9a7c-69f7d70e0cd8","system_id":"levelo_inurba_marseille","lat":43.28612,"lon":5.35107,"is_reserved":false,"is_disabled":false,"rental_uris":{"android":"levelo://app?vid=c16d00c1-2940-4df7-9a7c-69f7d70e0cd8","ios":"levelo://app?vid=c16d00c1-2940-4df7-9a7c-69f7d70e0cd8"},"vehicle_type_id":"4","last_reported":1737821345,"current_range_meters":17600,"station_id":"ce4bhch2rcd13ifvqeug","pricing_plan_id":"cebpf4jnsgd1na2vs0mg"},{"bike_id":"c18b10af-b2f5-4b56-972a-91fb04736951","system_id":"levelo_inurba_marseille","lat":43.30545,"lon":5.36529,"is_reserved":false,"is_disabled":false,"rental_uris":{"android":"levelo://app?vid=c18b10af-b2f5-4b56-972a-91fb04736951","ios":"levelo://app?vid=c18b10af-b2f5-4b56-972a-91fb04736951"},"vehicle_type_id":"4","last_reported":1737821345,"current_range_meters":22400,"station_id":"ce4bgs12rcd13ifvqcag","pricing_plan_id":"cebpf4jnsgd1na2vs0mg"},{"bike_id":"aff6960a-afc5-4f41-b601-80cc96e81e06","system_id":"levelo_inurba_marseille","lat":43.26031,"lon":5.37539,"is_reserved":false,"is_disabled":false,"rental_uris":{"android":"levelo://app?vid=aff6960a-afc5-4f41-b601-80cc96e81e06","ios":"levelo://app?vid=aff6960a-afc5-4f41-b601-80cc96e81e06"},"vehicle_type_id":"4","last_reported":1737821345,"current_range_meters":19600,"station_id":"ce4bhgh2rcd13ifvqfa0","pricing_plan_id":"cebpf4jnsgd1na2vs0mg"},{"bike_id":"b903f8f1-6325-41ae-8102-c0ae64059491","system_id":"levelo_inurba_marseille","lat":43.26683,"lon":5.38274,"is_reserved":false,"is_disabled":false,"rental_uris":{"android":"levelo://app?vid=b903f8f1-6325-41ae-8102-c0ae64059491","ios":"levelo://app?vid=b903f8f1-6325-41ae-8102-c0ae64059491"},"vehicle_type_id":"4","last_reported":1737821345,"current_range_meters":38400,"station_id":"ce4bhg92rcd13ifvqf90","pricing_plan_id":"cebpf4jnsgd1na2vs0mg"},{"bike_id":"dabe322e-f4ad-436f-98ee-9df8878eefac","system_id":"levelo_inurba_marseille","lat":43.28934,"lon":5.36639,"is_reserved":false,"is_disabled":false,"rental_uris":{"android":"levelo://app?vid=dabe322e-f4ad-436f-98ee-9df8878eefac","ios":"levelo://app?vid=dabe322e-f4ad-436f-98ee-9df8878eefac"},"vehicle_type_id":"4","last_reported":1737821345,"current_range_meters":32400,"station_id":"ce4bhap2rcd13ifvqek0","pricing_plan_id":"cebpf4jnsgd1na2vs0mg"},{"bike_id":"f108216e-1724-4096-b96b-2a02813290b2","system_id":"levelo_inurba_marseille","lat":43.27971,"lon":5.38731,"is_reserved":false,"is_disabled":false,"rental_uris":{"android":"levelo://app?vid=f108216e-1724-4096-b96b-2a02813290b2","ios":"levelo://app?vid=f108216e-1724-4096-b96b-2a02813290b2"},"vehicle_type_id":"4","last_reported":1737821345,"current_range_meters":38000,"station_id":"ce4bhg12rcd13ifvqf80","pricing_plan_id":"cebpf4jnsgd1na2vs0mg"},{"bike_id":"f4a67fd7-7ba0-462e-b321-724410a83bc3","system_id":"levelo_inurba_marseille","lat":43.28611,"lon":5.35102,"is_reserved":false,"is_disabled":true,"rental_uris":{"android":"levelo://app?vid=f4a67fd7-7ba0-462e-b321-724410a83bc3","ios":"levelo://app?vid=f4a67fd7-7ba0-462e-b321-724410a83bc3"},"vehicle_type_id":"4","last_reported":1737821345,"current_range_meters":16800,"station_id":"ce4bhch2rcd13ifvqeug","pricing_plan_id":"cebpf4jnsgd1na2vs0mg"},{"bike_id":"1007c761-747c-4ec5-9619-538da810f159","system_id":"levelo_inurba_marseille","lat":43.28561,"lon":5.38523,"is_reserved":false,"is_disabled":false,"rental_uris":{"android":"levelo://app?vid=1007c761-747c-4ec5-9619-538da810f159","ios":"levelo://app?vid=1007c761-747c-4ec5-9619-538da810f159"},"vehicle_type_id":"4","last_reported":1737821345,"current_range_meters":2800,"station_id":"","pricing_plan_id":"cebpf4jnsgd1na2vs0mg"},{"bike_id":"1ef1003d-aecf-4f9e-85a7-6c3e8f13f1c0","system_id":"levelo_inurba_marseille","lat":43.22932,"lon":5.35378,"is_reserved":false,"is_disabled":false,"rental_uris":{"android":"levelo://app?vid=1ef1003d-aecf-4f9e-85a7-6c3e8f13f1c0","ios":"levelo://app?vid=1ef1003d-aecf-4f9e-85a7-6c3e8f13f1c0"},"vehicle_type_id":"4","last_reported":1737821345,"current_range_meters":38000,"station_id":"cpo3532slgdg3j2ikp40","pricing_plan_id":"cebpf4jnsgd1na2vs0mg"},{"bike_id":"6ee647fe-6362-49a2-96f2-9f53a49d877d","system_id":"levelo_inurba_marseille","lat":43.293,"lon":5.37435,"is_reserved":false,"is_disabled":false,"rental_uris":{"android":"levelo://app?vid=6ee647fe-6362-49a2-96f2-9f53a49d877d","ios":"levelo://app?vid=6ee647fe-6362-49a2-96f2-9f53a49d877d"},"vehicle_type_id":"4","last_reported":1737821345,"current_range_meters":36400,"station_id":"ce4bgi12rcd13ifvqb70","pricing_plan_id":"cebpf4jnsgd1na2vs0mg"},{"bike_id":"7779e28d-a91b-493e-83cf-08a9195c73c5","system_id":"levelo_inurba_marseille","lat":43.29274,"lon":5.36843,"is_reserved":false,"is_disabled":false,"rental_uris":{"android":"levelo://app?vid=7779e28d-a91b-493e-83cf-08a9195c73c5","ios":"levelo://app?vid=7779e28d-a91b-493e-83cf-08a9195c73c5"},"vehicle_type_id":"4","last_reported":1737821345,"current_range_meters":2800,"station_id":"ce4bhbp2rcd13ifvqesg","pricing_plan_id":"cebpf4jnsgd1na2vs0mg"},{"bike_id":"a429b57d-452d-4623-b8d1-c6c8eb545a68","system_id":"levelo_inurba_marseille","lat":43.28278,"lon":5.35086,"is_reserved":false,"is_disabled":false,"rental_uris":{"android":"levelo://app?vid=a429b57d-452d-4623-b8d1-c6c8eb545a68","ios":"levelo://app?vid=a429b57d-452d-4623-b8d1-c6c8eb545a68"},"vehicle_type_id":"4","last_reported":1737821345,"current_range_meters":30400,"station_id":"ce4bhbp2rcd13ifvqerg","pricing_plan_id":"cebpf4jnsgd1na2vs0mg"},{"bike_id":"fadfe1b0-7fd5-4d7f-84cc-b87419bb6bfa","system_id":"levelo_inurba_marseille","lat":43.33613,"lon":5.41033,"is_reserved":false,"is_disabled":false,"rental_uris":{"android":"levelo://app?vid=fadfe1b0-7fd5-4d7f-84cc-b87419bb6bfa","ios":"levelo://app?vid=fadfe1b0-7fd5-4d7f-84cc-b87419bb6bfa"},"vehicle_type_id":"4","last_reported":1737821345,"current_range_meters":38400,"station_id":"ce4bhqh2rcd13ifvqhmg","pricing_plan_id":"cebpf4jnsgd1na2vs0mg"},{"bike_id":"5c995afd-2cd1-49c1-8bf9-110c6b679d80","system_id":"levelo_inurba_marseille","lat":43.24056,"lon":5.37744,"is_reserved":false,"is_disabled":false,"rental_uris":{"android":"levelo://app?vid=5c995afd-2cd1-49c1-8bf9-110c6b679d80","ios":"levelo://app?vid=5c995afd-2cd1-49c1-8bf9-110c6b679d80"},"vehicle_type_id":"4","last_reported":1737821345,"current_range_meters":7200,"station_id":"ce4bhnp2rcd13ifvqgvg","pricing_plan_id":"cebpf4jnsgd1na2vs0mg"},{"bike_id":"496dc01f-0296-4272-b3aa-6d788c2b1587","system_id":"levelo_inurba_marseille","lat":43.27375,"lon":5.36256,"is_reserved":false,"is_disabled":false,"rental_uris":{"android":"levelo://app?vid=496dc01f-0296-4272-b3aa-6d788c2b1587","ios":"levelo://app?vid=496dc01f-0296-4272-b3aa-6d788c2b1587"},"vehicle_type_id":"4","last_reported":1737821345,"current_range_meters":20000,"station_id":"ce4bhbh2rcd13ifvqeo0","pricing_plan_id":"cebpf4jnsgd1na2vs0mg"},{"bike_id":"b64d880e-4583-44f0-8c16-3495e23cf3e5","system_id":"levelo_inurba_marseille","lat":43.29893,"lon":5.43666,"is_reserved":false,"is_disabled":false,"rental_uris":{"android":"levelo://app?vid=b64d880e-4583-44f0-8c16-3495e23cf3e5","ios":"levelo://app?vid=b64d880e-4583-44f0-8c16-3495e23cf3e5"},"vehicle_type_id":"4","last_reported":1737821345,"current_range_meters":24000,"station_id":"ce4bhpp2rcd13ifvqhfg","pricing_plan_id":"cebpf4jnsgd1na2vs0mg"},{"bike_id":"564fbf69-c610-4420-93b9-6fe0149a8dda","system_id":"levelo_inurba_marseille","lat":43.27819,"lon":5.4071,"is_reserved":false,"is_disabled":false,"rental_uris":{"android":"levelo://app?vid=564fbf69-c610-4420-93b9-6fe0149a8dda","ios":"levelo://app?vid=564fbf69-c610-4420-93b9-6fe0149a8dda"},"vehicle_type_id":"4","last_reported":1737821345,"current_range_meters":16800,"station_id":"ce4bhnh2rcd13ifvqgtg","pricing_plan_id":"cebpf4jnsgd1na2vs0mg"},{"bike_id":"268d2e08-a3fe-4076-9609-82d7a315e77a","system_id":"levelo_inurba_marseille","lat":43.32288,"lon":5.38273,"is_reserved":false,"is_disabled":false,"rental_uris":{"android":"levelo://app?vid=268d2e08-a3fe-4076-9609-82d7a315e77a","ios":"levelo://app?vid=268d2e08-a3fe-4076-9609-82d7a315e77a"},"vehicle_type_id":"4","last_reported":1737821345,"current_range_meters":36400,"station_id":"ce4bhr12rcd13ifvqhqg","pricing_plan_id":"cebpf4jnsgd1na2vs0mg"},{"bike_id":"0de45ba2-8898-4726-9d13-763ab185713c","system_id":"levelo_inurba_marseille","lat":43.26948,"lon":5.38627,"is_reserved":false,"is_disabled":false,"rental_uris":{"android":"levelo://app?vid=0de45ba2-8898-4726-9d13-763ab185713c","ios":"levelo://app?vid=0de45ba2-8898-4726-9d13-763ab185713c"},"vehicle_type_id":"4","last_reported":1737821345,"current_range_meters":32000,"station_id":"ce4bhh92rcd13ifvqfh0","pricing_plan_id":"cebpf4jnsgd1na2vs0mg"},{"bike_id":"f80d01d0-a712-409a-8ab3-b8a044fec525","system_id":"levelo_inurba_marseille","lat":43.25837,"lon":5.39942,"is_reserved":false,"is_disabled":true,"rental_uris":{"android":"levelo://app?vid=f80d01d0-a712-409a-8ab3-b8a044fec525","ios":"levelo://app?vid=f80d01d0-a712-409a-8ab3-b8a044fec525"},"vehicle_type_id":"4","last_reported":1737821345,"current_range_meters":38000,"station_id":"","pricing_plan_id":"cebpf4jnsgd1na2vs0mg"},{"bike_id":"1d883918-1797-4468-8ff6-e8c3b477f0bc","system_id":"levelo_inurba_marseille","lat":43.25117,"lon":5.40315,"is_reserved":false,"is_disabled":false,"rental_uris":{"android":"levelo://app?vid=1d883918-1797-4468-8ff6-e8c3b477f0bc","ios":"levelo://app?vid=1d883918-1797-4468-8ff6-e8c3b477f0bc"},"vehicle_type_id":"4","last_reported":1737821345,"current_range_meters":17600,"station_id":"ce4bhlh2rcd13ifvqgig","pricing_plan_id":"cebpf4jnsgd1na2vs0mg"},{"bike_id":"af75b12e-4cc9-482e-b0e8-c1975b1adea0","system_id":"levelo_inurba_marseille","lat":43.30085,"lon":5.39102,"is_reserved":false,"is_disabled":false,"rental_uris":{"android":"levelo://app?vid=af75b12e-4cc9-482e-b0e8-c1975b1adea0","ios":"levelo://app?vid=af75b12e-4cc9-482e-b0e8-c1975b1adea0"},"vehicle_type_id":"4","last_reported":1737821345,"current_range_meters":36800,"station_id":"ce4bh192rcd13ifvqdb0","pricing_plan_id":"cebpf4jnsgd1na2vs0mg"},{"bike_id":"9c5149dd-b82c-447e-8b27-8c2fc0cb58a6","system_id":"levelo_inurba_marseille","lat":43.298526,"lon":5.362814,"is_reserved":false,"is_disabled":false,"rental_uris":{"android":"levelo://app?vid=9c5149dd-b82c-447e-8b27-8c2fc0cb58a6","ios":"levelo://app?vid=9c5149dd-b82c-447e-8b27-8c2fc0cb58a6"},"vehicle_type_id":"4","last_reported":1737821345,"current_range_meters":27200,"station_id":"ce4bgpp2rcd13ifvqc3g","pricing_plan_id":"cebpf4jnsgd1na2vs0mg"},{"bike_id":"c50cf93a-6b59-47ad-b33e-2c9c3fe13678","system_id":"levelo_inurba_marseille","lat":43.30464,"lon":5.36938,"is_reserved":false,"is_disabled":false,"rental_uris":{"android":"levelo://app?vid=c50cf93a-6b59-47ad-b33e-2c9c3fe13678","ios":"levelo://app?vid=c50cf93a-6b59-47ad-b33e-2c9c3fe13678"},"vehicle_type_id":"4","last_reported":1737821345,"current_range_meters":4000,"station_id":"","pricing_plan_id":"cebpf4jnsgd1na2vs0mg"},{"bike_id":"ac6cea7c-f0c5-43cb-8b7f-69ede3888e10","system_id":"levelo_inurba_marseille","lat":43.32482,"lon":5.36575,"is_reserved":false,"is_disabled":false,"rental_uris":{"android":"levelo://app?vid=ac6cea7c-f0c5-43cb-8b7f-69ede3888e10","ios":"levelo://app?vid=ac6cea7c-f0c5-43cb-8b7f-69ede3888e10"},"vehicle_type_id":"4","last_reported":1737821345,"current_range_meters":37600,"station_id":"ce4bhs12rcd13ifvqhvg","pricing_plan_id":"cebpf4jnsgd1na2vs0mg"},{"bike_id":"c60dcd33-fc4e-4a8f-a65b-3191b49bc04f","system_id":"levelo_inurba_marseille","lat":43.29061,"lon":5.37164,"is_reserved":false,"is_disabled":false,"rental_uris":{"android":"levelo://app?vid=c60dcd33-fc4e-4a8f-a65b-3191b49bc04f","ios":"levelo://app?vid=c60dcd33-fc4e-4a8f-a65b-3191b49bc04f"},"vehicle_type_id":"4","last_reported":1737821345,"current_range_meters":37600,"station_id":"ce4bh5p2rcd13ifvqe4g","pricing_plan_id":"cebpf4jnsgd1na2vs0mg"},{"bike_id":"a0144781-05b8-4d83-bbc9-fc2e4ea9d075","system_id":"levelo_inurba_marseille","lat":43.30422,"lon":5.41282,"is_reserved":false,"is_disabled":false,"rental_uris":{"android":"levelo://app?vid=a0144781-05b8-4d83-bbc9-fc2e4ea9d075","ios":"levelo://app?vid=a0144781-05b8-4d83-bbc9-fc2e4ea9d075"},"vehicle_type_id":"4","last_reported":1737821345,"current_range_meters":38800,"station_id":"ce4bhop2rcd13ifvqh8g","pricing_plan_id":"cebpf4jnsgd1na2vs0mg"},{"bike_id":"421962b1-e9b5-4248-8c61-fcd576606a31","system_id":"levelo_inurba_marseille","lat":43.29326,"lon":5.41161,"is_reserved":false,"is_disabled":false,"rental_uris":{"android":"levelo://app?vid=421962b1-e9b5-4248-8c61-fcd576606a31","ios":"levelo://app?vid=421962b1-e9b5-4248-8c61-fcd576606a31"},"vehicle_type_id":"4","last_reported":1737821345,"current_range_meters":4400,"station_id":"","pricing_plan_id":"cebpf4jnsgd1na2vs0mg"},{"bike_id":"40393f6b-50f0-4b54-b009-08aa857086ed","system_id":"levelo_inurba_marseille","lat":43.30632,"lon":5.40072,"is_reserved":false,"is_disabled":false,"rental_uris":{"android":"levelo://app?vid=40393f6b-50f0-4b54-b009-08aa857086ed","ios":"levelo://app?vid=40393f6b-50f0-4b54-b009-08aa857086ed"},"vehicle_type_id":"4","last_reported":1737821345,"current_range_meters":36400,"station_id":"ce4bh112rcd13ifvqda0","pricing_plan_id":"cebpf4jnsgd1na2vs0mg"},{"bike_id":"58c22710-0fe6-474e-9381-6600a6aefe34","system_id":"levelo_inurba_marseille","lat":43.26927,"lon":5.38923,"is_reserved":false,"is_disabled":false,"rental_uris":{"android":"levelo://app?vid=58c22710-0fe6-474e-9381-6600a6aefe34","ios":"levelo://app?vid=58c22710-0fe6-474e-9381-6600a6aefe34"},"vehicle_type_id":"4","last_reported":1737821345,"current_range_meters":12000,"station_id":"ce4bhhh2rcd13ifvqfl0","pricing_plan_id":"cebpf4jnsgd1na2vs0mg"},{"bike_id":"a1f5beb6-d8e0-46ab-b76f-679b3402e686","system_id":"levelo_inurba_marseille","lat":43.28407,"lon":5.37514,"is_reserved":false,"is_disabled":true,"rental_uris":{"android":"levelo://app?vid=a1f5beb6-d8e0-46ab-b76f-679b3402e686","ios":"levelo://app?vid=a1f5beb6-d8e0-46ab-b76f-679b3402e686"},"vehicle_type_id":"4","last_reported":1737821345,"current_range_meters":10000,"station_id":"ce4bh412rcd13ifvqds0","pricing_plan_id":"cebpf4jnsgd1na2vs0mg"},{"bike_id":"ddefa3fe-2b23-4281-adfa-70072071e9ea","system_id":"levelo_inurba_marseille","lat":43.26215,"lon":5.37442,"is_reserved":false,"is_disabled":false,"rental_uris":{"android":"levelo://app?vid=ddefa3fe-2b23-4281-adfa-70072071e9ea","ios":"levelo://app?vid=ddefa3fe-2b23-4281-adfa-70072071e9ea"},"vehicle_type_id":"4","last_reported":1737821345,"current_range_meters":6400,"station_id":"ce4bhgp2rcd13ifvqfc0","pricing_plan_id":"cebpf4jnsgd1na2vs0mg"},{"bike_id":"e35106cb-8e96-4f8a-bc1e-b53dde67af15","system_id":"levelo_inurba_marseille","lat":43.29779,"lon":5.39341,"is_reserved":false,"is_disabled":false,"rental_uris":{"android":"levelo://app?vid=e35106cb-8e96-4f8a-bc1e-b53dde67af15","ios":"levelo://app?vid=e35106cb-8e96-4f8a-bc1e-b53dde67af15"},"vehicle_type_id":"4","last_reported":1737821345,"current_range_meters":39200,"station_id":"chh1huq6cuj3fo74tm60","pricing_plan_id":"cebpf4jnsgd1na2vs0mg"},{"bike_id":"92159b53-9eff-4b9a-9f2c-7294f81b84b0","system_id":"levelo_inurba_marseille","lat":43.29296,"lon":5.37446,"is_reserved":false,"is_disabled":false,"rental_uris":{"android":"levelo://app?vid=92159b53-9eff-4b9a-9f2c-7294f81b84b0","ios":"levelo://app?vid=92159b53-9eff-4b9a-9f2c-7294f81b84b0"},"vehicle_type_id":"4","last_reported":1737821345,"current_range_meters":38800,"station_id":"ce4bgi12rcd13ifvqb70","pricing_plan_id":"cebpf4jnsgd1na2vs0mg"},