{"last_updated":1745428163,"ttl":60,"version":"2.2","data":{"bikes":[{"bike_id":"fdacfc02-30b5-4b9d-93f5-fcb83b11cde8","system_id":"levelo_inurba_marseille","lat":43.29625,"lon":5.37178,"is_reserved":false,"is_disabled":false,"rental_uris":{"android":"levelo://app?vid=fdacfc02-30b5-4b9d-93f5-fcb83b11cde8","ios":"levelo://app?vid=fdacfc02-30b5-4b9d-93f5-fcb83b11cde8"},"vehicle_type_id":"4","last_reported":1745428163,"current_range_meters":2800,"station_id":"ce4bgnh2rcd13ifvqc0g","pricing_plan_id":"cebpf4jnsgd1na2vs0mg"},{"bike_id":"f512558a-a5b8-40ca-936f-a6d63e6b336d","system_id":"levelo_inurba_marseille","lat":43.29798,"lon":5.38046,"is_reserved":false,"is_disabled":false,"rental_uris":{"android":"levelo://app?vid=f512558a-a5b8-40ca-936f-a6d63e6b336d","ios":"levelo://app?vid=f512558a-a5b8-40ca-936f-a6d63e6b336d"},"vehicle_type_id":"4","last_reported":1745428163,"current_range_meters":2800,"station_id":"ce4bgip2rcd13ifvqbb0","pricing_plan_id":"cebpf4jnsgd1na2vs0mg"},{"bike_id":"84cb25aa-2882-4c17-a283-e6e13b720348","system_id":"levelo_inurba_marseille","lat":43.29515,"lon":5.39043,"is_reserved":false,"is_disabled":false,"rental_uris":{"android":"levelo://app?vid=84cb25aa-2882-4c17-a283-e6e13b720348","ios":"levelo://app?vid=84cb25aa-2882-4c17-a283-e6e13b720348"},"vehicle_type_id":"4","last_reported":1745428163,"current_range_meters":2000,"station_id":"","pricing_plan_id":"cebpf4jnsgd1na2vs0mg"},{"bike_id":"ae6dd9ab-2e30-4181-993e-6d14ad986f48","system_id":"levelo_inurba_marseille","lat":43.28426,"lon":5.34985,"is_reserved":false,"is_disabled":true,"rental_uris":{"android":"levelo://app?vid=ae6dd9ab-2e30-4181-993e-6d14ad986f48","ios":"levelo://app?vid=ae6dd9ab-2e30-4181-993e-6d14ad986f48"},"vehicle_type_id":"4","last_reported":1745428163,"current_range_meters":2800,"station_id":"ce4bhbh2rcd13ifvqepg","pricing_plan_id":"cebpf4jnsgd1na2vs0mg"},{"bike_id":"d04b2a1f-ce20-4c45-8740-e84c09d0b167","system_id":"levelo_inurba_marseille","lat":43.28672,"lon":5.38669,"is_reserved":false,"is_disabled":false,"rental_uris":{"android":"levelo://app?vid=d04b2a1f-ce20-4c45-8740-e84c09d0b167","ios":"levelo://app?vid=d04b2a1f-ce20-4c45-8740-e84c09d0b167"},"vehicle_type_id":"4","last_reported":1745428163,"current_range_meters":2800,"station_id":"ce4bh492rcd13ifvqdug","pricing_plan_id":"cebpf4jnsgd1na2vs0mg"},{"bike_id":"b4a304d6-b19e-493f-b790-a1eea36d2364","system_id":"levelo_inurba_marseille","lat":43.29622,"lon":5.37736,"is_reserved":false,"is_disabled":false,"rental_uris":{"android":"levelo://app?vid=b4a304d6-b19e-493f-b790-a1eea36d2364","ios":"levelo://app?vid=b4a304d6-b19e-493f-b790-a1eea36d2364"},"vehicle_type_id":"4","last_reported":1745428163,"current_range_meters":2800,"station_id":"ce4bgi92rcd13ifvqb90","pricing_plan_id":"cebpf4jnsgd1na2vs0mg"},{"bike_id":"06084835-accf-430b-8c9d-72050d8d91f8","system_id":"levelo_inurba_marseille","lat":43.30788,"lon":5.37651,"is_reserved":false,"is_disabled":false,"rental_uris":{"android":"levelo://app?vid=06084835-accf-430b-8c9d-72050d8d91f8","ios":"levelo://app?vid=06084835-accf-430b-8c9d-72050d8d91f8"},"vehicle_type_id":"4","last_reported":1745428163,"current_range_meters":2800,"station_id":"ce4bgv92rcd13ifvqcq0","pricing_plan_id":"cebpf4jnsgd1na2vs0mg"},{"bike_id":"544d30ed-f48b-4d37-b305-d40ba56fdd2e","system_id":"levelo_inurba_marseille","lat":43.2919,"lon":5.39333,"is_reserved":false,"is_disabled":false,"rental_uris":{"android":"levelo://app?vid=544d30ed-f48b-4d37-b305-d40ba56fdd2e","ios":"levelo://app?vid=544d30ed-f48b-4d37-b305-d40ba56fdd2e"},"vehicle_type_id":"4","last_reported":1745428163,"current_range_meters":3200,"station_id":"ce4bh192rcd13ifvqdd0","pricing_plan_id":"cebpf4jnsgd1na2vs0mg"},{"bike_id":"2ce9a553-e332-41ab-a917-78d94faf4e21","system_id":"levelo_inurba_marseille","lat":43.29969,"lon":5.37183,"is_reserved":false,"is_disabled":false,"rental_uris":{"android":"levelo://app?vid=2ce9a553-e332-41ab-a917-78d94faf4e21","ios":"levelo://app?vid=2ce9a553-e332-41ab-a917-78d94faf4e21"},"vehicle_type_id":"4","last_reported":1745428163,"current_range_meters":3200,"station_id":"ce4bgr92rcd13ifvqc7g","pricing_plan_id":"cebpf4jnsgd1na2vs0mg"},{"bike_id":"1a51ffb1-9a79-4bec-9ba5-e3a8a916919c","system_id":"levelo_inurba_marseille","lat":43.283478,"lon":5.381011,"is_reserved":false,"is_disabled":true,"rental_uris":{"android":"levelo://app?vid=1a51ffb1-9a79-4bec-9ba5-e3a8a916919c","ios":"levelo://app?vid=1a51ffb1-9a79-4bec-9ba5-e3a8a916919c"},"vehicle_type_id":"4","last_reported":1745428163,"current_range_meters":3200,"station_id":"ce4bh512rcd13ifvqe3g","pricing_plan_id":"cebpf4jnsgd1na2vs0mg"},{"bike_id":"3113f046-4d22-444e-af2b-05e3bc153c8c","system_id":"levelo_inurba_marseille","lat":43.27991,"lon":5.40005,"is_reserved":false,"is_disabled":false,"rental_uris":{"android":"levelo://app?vid=3113f046-4d22-444e-af2b-05e3bc153c8c","ios":"levelo://app?vid=3113f046-4d22-444e-af2b-05e3bc153c8c"},"vehicle_type_id":"4","last_reported":1745428163,"current_range_meters":3200,"station_id":"ce4bho92rcd13ifvqh4g","pricing_plan_id":"cebpf4jnsgd1na2vs0mg"},{"bike_id":"b6a102bd-fd6e-4437-9af6-dba02f365db5","system_id":"levelo_inurba_marseille","lat":43.29918,"lon":5.43664,"is_reserved":false,"is_disabled":false,"rental_uris":{"android":"levelo://app?vid=b6a102bd-fd6e-4437-9af6-dba02f365db5","ios":"levelo://app?vid=b6a102bd-fd6e-4437-9af6-dba02f365db5"},"vehicle_type_id":"4","last_reported":1745428163,"current_range_meters":3200,"station_id":"ce4bhpp2rcd13ifvqhfg","pricing_plan_id":"cebpf4jnsgd1na2vs0mg"},{"bike_id":"6baf3b2e-be97-4fc1-a42c-a12adc56befe","system_id":"levelo_inurba_marseille","lat":43.25112,"lon":5.40328,"is_reserved":false,"is_disabled":false,"rental_uris":{"android":"levelo://app?vid=6baf3b2e-be97-4fc1-a42c-a12adc56befe","ios":"levelo://app?vid=6baf3b2e-be97-4fc1-a42c-a12adc56befe"},"vehicle_type_id":"4","last_reported":1745428163,"current_range_meters":3200,"station_id":"ce4bhlh2rcd13ifvqgig","pricing_plan_id":"cebpf4jnsgd1na2vs0mg"},{"bike_id":"f656d84a-8682-4c01-84a4-d62c8ecd28d0","system_id":"levelo_inurba_marseille","lat":43.30614,"lon":5.40063,"is_reserved":false,"is_disabled":false,"rental_uris":{"android":"levelo://app?vid=f656d84a-8682-4c01-84a4-d62c8ecd28d0","ios":"levelo://app?vid=f656d84a-8682-4c01-84a4-d62c8ecd28d0"},"vehicle_type_id":"4","last_reported":1745428163,"current_range_meters":3200,"station_id":"ce4bh112rcd13ifvqda0","pricing_plan_id":"cebpf4jnsgd1na2vs0mg"},{"bike_id":"7bd00d87-2782-420d-a15c-1eadd7ee7e4f","system_id":"levelo_inurba_marseille","lat":43.2495,"lon":5.39095,"is_reserved":false,"is_disabled":false,"rental_uris":{"android":"levelo://app?vid=7bd00d87-2782-420d-a15c-1eadd7ee7e4f","ios":"levelo://app?vid=7bd00d87-2782-420d-a15c-1eadd7ee7e4f"},"vehicle_type_id":"4","last_reported":1745428163,"current_range_meters":3200,"station_id":"","pricing_plan_id":"cebpf4jnsgd1na2vs0mg"},{"bike_id":"86cde705-58f6-4625-adc4-4911f41cc453","system_id":"levelo_inurba_marseille","lat":43.255,"lon":5.37649,"is_reserved":false,"is_disabled":false,"rental_uris":{"android":"levelo://app?vid=86cde705-58f6-4625-adc4-4911f41cc453","ios":"levelo://app?vid=86cde705-58f6-4625-adc4-4911f41cc453"},"vehicle_type_id":"4","last_reported":1745428163,"current_range_meters":3600,"station_id":"ce4bhh12rcd13ifvqff0","pricing_plan_id":"cebpf4jnsgd1na2vs0mg"},{"bike_id":"86240d78-1b8a-4002-ae3e-df751bab167b","system_id":"levelo_inurba_marseille","lat":43.28036,"lon":5.36954,"is_reserved":false,"is_disabled":false,"rental_uris":{"android":"levelo://app?vid=86240d78-1b8a-4002-ae3e-df751bab167b","ios":"levelo://app?vid=86240d78-1b8a-4002-ae3e-df751bab167b"},"vehicle_type_id":"4","last_reported":1745428163,"current_range_meters":3200,"station_id":"ce4bha12rcd13ifvqef0","pricing_plan_id":"cebpf4jnsgd1na2vs0mg"},{"bike_id":"9f41c846-b6dc-4615-9602-25afdfbc10e8","system_id":"levelo_inurba_marseille","lat":43.33024,"lon":5.39043,"is_reserved":false,"is_disabled":false,"rental_uris":{"android":"levelo://app?vid=9f41c846-b6dc-4615-9602-25afdfbc10e8","ios":"levelo://app?vid=9f41c846-b6dc-4615-9602-25afdfbc10e8"},"vehicle_type_id":"4","last_reported":1745428163,"current_range_meters":4000,"station_id":"ce4bhr92rcd13ifvqhrg","pricing_plan_id":"cebpf4jnsgd1na2vs0mg"},{"bike_id":"6246d66f-bf7f-4a2f-9dee-fa0ed9cfdaf6","system_id":"levelo_inurba_marseille","lat":43.27072,"lon":5.42277,"is_reserved":false,"is_disabled":false,"rental_uris":{"android":"levelo://app?vid=6246d66f-bf7f-4a2f-9dee-fa0ed9cfdaf6","ios":"levelo://app?vid=6246d66f-bf7f-4a2f-9dee-fa0ed9cfdaf6"},"vehicle_type_id":"4","last_reported":1745428163,"current_range_meters":4000,"station_id":"ce4bhk92rcd13ifvqgb0","pricing_plan_id":"cebpf4jnsgd1na2vs0mg"},{"bike_id":"57003990-d251-4d03-8505-1698dca4e2dc","system_id":"levelo_inurba_marseille","lat":43.316923,"lon":5.374817,"is_reserved":false,"is_disabled":false,"rental_uris":{"android":"levelo://app?vid=57003990-d251-4d03-8505-1698dca4e2dc","ios":"levelo://app?vid=57003990-d251-4d03-8505-1698dca4e2dc"},"vehicle_type_id":"4","last_reported":1745428163,"current_range_meters":3600,"station_id":"ce4bgth2rcd13ifvqch0","pricing_plan_id":"cebpf4jnsgd1na2vs0mg"},{"bike_id":"3fe6b1ed-7c1a-4f46-8661-f7319424b9f6","system_id":"levelo_inurba_marseille","lat":43.29226,"lon":5.36071,"is_reserved":false,"is_disabled":false,"rental_uris":{"android":"levelo://app?vid=3fe6b1ed-7c1a-4f46-8661-f7319424b9f6","ios":"levelo://app?vid=3fe6b1ed-7c1a-4f46-8661-f7319424b9f6"},"vehicle_type_id":"4","last_reported":1745428163,"current_range_meters":3600,"station_id":"ce4bhbh2rcd13ifvqeqg","pricing_plan_id":"cebpf4jnsgd1na2vs0mg"},{"bike_id":"6a125dea-8547-40b7-85b6-fe98a26139f7","system_id":"levelo_inurba_marseille","lat":43.28705,"lon":5.37403,"is_reserved":false,"is_disabled":false,"rental_uris":{"android":"levelo://app?vid=6a125dea-8547-40b7-85b6-fe98a26139f7","ios":"levelo://app?vid=6a125dea-8547-40b7-85b6-fe98a26139f7"},"vehicle_type_id":"4","last_reported":1745428163,"current_range_meters":4400,"station_id":"ce4bh3p2rcd13ifvqdq0","pricing_plan_id":"cebpf4jnsgd1na2vs0mg"},{"bike_id":"d3e43848-7bee-4eb6-813a-004774c3f7b5","system_id":"levelo_inurba_marseille","lat":43.29847,"lon":5.36277,"is_reserved":false,"is_disabled":false,"rental_uris":{"android":"levelo://app?vid=d3e43848-7bee-4eb6-813a-004774c3f7b5","ios":"levelo://app?vid=d3e43848-7bee-4eb6-813a-004774c3f7b5"},"vehicle_type_id":"4","last_reported":1745428163,"current_range_meters":4400,"station_id":"ce4bgpp2rcd13ifvqc3g","pricing_plan_id":"cebpf4jnsgd1na2vs0mg"},{"bike_id":"2ab74eb3-85d7-480f-bafd-bce168d00f4c","system_id":"levelo_inurba_marseille","lat":43.32476,"lon":5.36573,"is_reserved":false,"is_disabled":false,"rental_uris":{"android":"levelo://app?vid=2ab74eb3-85d7-480f-bafd-bce168d00f4c","ios":"levelo://app?vid=2ab74eb3-85d7-480f-bafd-bce168d00f4c"},"vehicle_type_id":"4","last_reported":1745428163,"current_range_meters":4400,"station_id":"ce4bhs12rcd13ifvqhvg","pricing_plan_id":"cebpf4jnsgd1na2vs0mg"},{"bike_id":"3ba6f829-bea0-4f6c-ae9e-7c6de9ebd0ca","system_id":"levelo_inurba_marseille","lat":43.31066,"lon":5.38344,"is_reserved":false,"is_disabled":false,"rental_uris":{"android":"levelo://app?vid=3ba6f829-bea0-4f6c-ae9e-7c6de9ebd0ca","ios":"levelo://app?vid=3ba6f829-bea0-4f6c-ae9e-7c6de9ebd0ca"},"vehicle_type_id":"4","last_reported":1745428163,"current_range_meters":4400,"station_id":"ce4bgv92rcd13ifvqcr0","pricing_plan_id":"cebpf4jnsgd1na2vs0mg"},{"bike_id":"7d1ee47f-957c-4b3a-a0a5-894449a0078c","system_id":"levelo_inurba_marseille","lat":43.30175,"lon":5.36608,"is_reserved":false,"is_disabled":false,"rental_uris":{"android":"levelo://app?vid=7d1ee47f-957c-4b3a-a0a5-894449a0078c","ios":"levelo://app?vid=7d1ee47f-957c-4b3a-a0a5-894449a0078c"},"vehicle_type_id":"4","last_reported":1745428163,"current_range_meters":4400,"station_id":"ce4bgrh2rcd13ifvqc8g","pricing_plan_id":"cebpf4jnsgd1na2vs0mg"},{"bike_id":"ef2a78b7-1bd4-4f8c-a6b8-63a02826ca73","system_id":"levelo_inurba_marseille","lat":43.28383,"lon":5.38643,"is_reserved":false,"is_disabled":false,"rental_uris":{"android":"levelo://app?vid=ef2a78b7-1bd4-4f8c-a6b8-63a02826ca73","ios":"levelo://app?vid=ef2a78b7-1bd4-4f8c-a6b8-63a02826ca73"},"vehicle_type_id":"4","last_reported":1745428163,"current_range_meters":4800,"station_id":"ce4bh492rcd13ifvqdvg","pricing_plan_id":"cebpf4jnsgd1na2vs0mg"},{"bike_id":"2f3cf5af-6c4d-4998-af91-17949b81c6f4","system_id":"levelo_inurba_marseille","lat":43.290327,"lon":5.385997,"is_reserved":false,"is_disabled":false,"rental_uris":{"android":"levelo://app?vid=2f3cf5af-6c4d-4998-af91-17949b81c6f4","ios":"levelo://app?vid=2f3cf5af-6c4d-4998-af91-17949b81c6f4"},"vehicle_type_id":"4","last_reported":1745428163,"current_range_meters":4800,"station_id":"ce4bh4p2rcd13ifvqe0g","pricing_plan_id":"cebpf4jnsgd1na2vs0mg"},{"bike_id":"452dd2ad-06aa-48d3-a4a0-0126a9e765e8","system_id":"levelo_inurba_marseille","lat":43.23957,"lon":5.36642,"is_reserved":false,"is_disabled":false,"rental_uris":{"android":"levelo://app?vid=452dd2ad-06aa-48d3-a4a0-0126a9e765e8","ios":"levelo://app?vid=452dd2ad-06aa-48d3-a4a0-0126a9e765e8"},"vehicle_type_id":"4","last_reported":1745428163,"current_range_meters":4800,"station_id":"ce4bhi12rcd13ifvqfp0","pricing_plan_id":"cebpf4jnsgd1na2vs0mg"},{"bike_id":"935cd94a-50ec-408d-8793-33a2fa4bc7b2","system_id":"levelo_inurba_marseille","lat":43.29935,"lon":5.36553,"is_reserved":false,"is_disabled":false,"rental_uris":{"android":"levelo://app?vid=935cd94a-50ec-408d-8793-33a2fa4bc7b2","ios":"levelo://app?vid=935cd94a-50ec-408d-8793-33a2fa4bc7b2"},"vehicle_type_id":"4","last_reported":1745428163,"current_range_meters":4800,"station_id":"ce4bgm92rcd13ifvqbr0","pricing_plan_id":"cebpf4jnsgd1na2vs0mg"},{"bike_id":"c4ac7ab5-de28-4a5a-bb7e-b616aabde7c9","system_id":"levelo_inurba_marseille","lat":43.29527,"lon":5.394,"is_reserved":false,"is_disabled":false,"rental_uris":{"android":"levelo://app?vid=c4ac7ab5-de28-4a5a-bb7e-b616aabde7c9","ios":"levelo://app?vid=c4ac7ab5-de28-4a5a-bb7e-b616aabde7c9"},"vehicle_type_id":"4","last_reported":1745428163,"current_range_meters":4800,"station_id":"ce4bh292rcd13ifvqdf0","pricing_plan_id":"cebpf4jnsgd1na2vs0mg"},{"bike_id":"d22ea4f2-8f98-44d3-90ff-4f9c723e6d2a","system_id":"levelo_inurba_marseille","lat":43.239433,"lon":5.366682,"is_reserved":false,"is_disabled":false,"rental_uris":{"android":"levelo://app?vid=d22ea4f2-8f98-44d3-90ff-4f9c723e6d2a","ios":"levelo://app?vid=d22ea4f2-8f98-44d3-90ff-4f9c723e6d2a"},"vehicle_type_id":"4","last_reported":1745428163,"current_range_meters":4800,"station_id":"ce4bhi12rcd13ifvqfp0","pricing_plan_id":"cebpf4jnsgd1na2vs0mg"},{"bike_id":"eb637155-e4d2-4cf1-9549-9fd4cb3bfc1b","system_id":"levelo_inurba_marseille","lat":43.27987,"lon":5.40029,"is_reserved":false,"is_disabled":false,"rental_uris":{"android":"levelo://app?vid=eb637155-e4d2-4cf1-9549-9fd4cb3bfc1b","ios":"levelo://app?vid=eb637155-e4d2-4cf1-9549-9fd4cb3bfc1b"},"vehicle_type_id":"4","last_reported":1745428163,"current_range_meters":5600,"station_id":"ce4bho92rcd13ifvqh4g","pricing_plan_id":"cebpf4jnsgd1na2vs0mg"},{"bike_id":"d6efbe66-573b-4f8a-b683-74329d4f9a34","system_id":"levelo_inurba_marseille","lat":43.29846,"lon":5.3627,"is_reserved":false,"is_disabled":false,"rental_uris":{"android":"levelo://app?vid=d6efbe66-573b-4f8a-b683-74329d4f9a34","ios":"levelo://app?vid=d6efbe66-573b-4f8a-b683-74329d4f9a34"},"vehicle_type_id":"4","last_reported":1745428163,"current_range_meters":4800,"station_id":"ce4bgpp2rcd13ifvqc3g","pricing_plan_id":"cebpf4jnsgd1na2vs0mg"},{"bike_id":"203e8995-d19a-45a2-831d-7ca13c6a66d5","system_id":"levelo_inurba_marseille","lat":43.2998,"lon":5.37189,"is_reserved":false,"is_disabled":false,"rental_uris":{"android":"levelo://app?vid=203e8995-d19a-45a2-831d-7ca13c6a66d5","ios":"levelo://app?vid=203e8995-d19a-45a2-831d-7ca13c6a66d5"},"vehicle_type_id":"4","last_reported":1745428163,"current_range_meters":5600,"station_id":"ce4bgr92rcd13ifvqc7g","pricing_plan_id":"cebpf4jnsgd1na2vs0mg"},{"bike_id":"52d5af6f-0463-4216-9140-be150d56d492","system_id":"levelo_inurba_marseille","lat":43.30654,"lon":5.40075,"is_reserved":false,"is_disabled":false,"rental_uris":{"android":"levelo://app?vid=52d5af6f-0463-4216-9140-be150d56d492","ios":"levelo://app?vid=52d5af6f-0463-4216-9140-be150d56d492"},"vehicle_type_id":"4","last_reported":1745428163,"current_range_meters":5600,"station_id":"ce4bh112rcd13ifvqda0","pricing_plan_id":"cebpf4jnsgd1na2vs0mg"},{"bike_id":"6cdf78e5-d312-42f7-a4ef-e64d6f3149ee","system_id":"levelo_inurba_marseille","lat":43.32325,"lon":5.40601,"is_reserved":false,"is_disabled":false,"rental_uris":{"android":"levelo://app?vid=6cdf78e5-d312-42f7-a4ef-e64d6f3149ee","ios":"levelo://app?vid=6cdf78e5-d312-42f7-a4ef-e64d6f3149ee"},"vehicle_type_id":"4","last_reported":1745428163,"current_range_meters":5600,"station_id":"ce4bhq92rcd13ifvqhjg","pricing_plan_id":"cebpf4jnsgd1na2vs0mg"},{"bike_id":"53e76e69-542e-498c-be3c-54ee74e28889","system_id":"levelo_inurba_marseille","lat":43.29722,"lon":5.36627,"is_reserved":false,"is_disabled":true,"rental_uris":{"android":"levelo://app?vid=53e76e69-542e-498c-be3c-54ee74e28889","ios":"levelo://app?vid=53e76e69-542e-498c-be3c-54ee74e28889"},"vehicle_type_id":"4","last_reported":1745428163,"current_range_meters":6000,"station_id":"ce4bgn12rcd13ifvqbt0","pricing_plan_id":"cebpf4jnsgd1na2vs0mg"},{"bike_id":"fb410e5a-aadb-41e8-a7dc-cb03995fe1ac","system_id":"levelo_inurba_marseille","lat":43.27618,"lon":5.36107,"is_reserved":false,"is_disabled":false,"rental_uris":{"android":"levelo://app?vid=fb410e5a-aadb-41e8-a7dc-cb03995fe1ac","ios":"levelo://app?vid=fb410e5a-aadb-41e8-a7dc-cb03995fe1ac"},"vehicle_type_id":"4","last_reported":1745428163,"current_range_meters":6400,"station_id":"ce4bgj92rcd13ifvqbe0","pricing_plan_id":"cebpf4jnsgd1na2vs0mg"},{"bike_id":"8d2789be-d356-436f-bee5-111c80e6604e","system_id":"levelo_inurba_marseille","lat":43.24173,"lon":5.36389,"is_reserved":false,"is_disabled":false,"rental_uris":{"android":"levelo://app?vid=8d2789be-d356-436f-bee5-111c80e6604e","ios":"levelo://app?vid=8d2789be-d356-436f-bee5-111c80e6604e"},"vehicle_type_id":"4","last_reported":1745428163,"current_range_meters":6400,"station_id":"cpo36qri1sfpv3e86is0","pricing_plan_id":"cebpf4jnsgd1na2vs0mg"},{"bike_id":"47d502b2-4ccf-49d1-8731-1781249b8372","system_id":"levelo_inurba_marseille","lat":43.29263,"lon":5.38434,"is_reserved":false,"is_disabled":false,"rental_uris":{"android":"levelo://app?vid=47d502b2-4ccf-49d1-8731-1781249b8372","ios":"levelo://app?vid=47d502b2-4ccf-49d1-8731-1781249b8372"},"vehicle_type_id":"4","last_reported":1745428163,"current_range_meters":6400,"station_id":"ce4bh692rcd13ifvqea0","pricing_plan_id":"cebpf4jnsgd1na2vs0mg"},{"bike_id":"32381c22-dc9c-452f-9bb0-9f6dfd3c0a18","system_id":"levelo_inurba_marseille","lat":43.27179,"lon":5.40996,"is_reserved":false,"is_disabled":false,"rental_uris":{"android":"levelo://app?vid=32381c22-dc9c-452f-9bb0-9f6dfd3c0a18","ios":"levelo://app?vid=32381c22-dc9c-452f-9bb0-9f6dfd3c0a18"},"vehicle_type_id":"4","last_reported":1745428163,"current_range_meters":6400,"station_id":"ce4bhl12rcd13ifvqgf0","pricing_plan_id":"cebpf4jnsgd1na2vs0mg"},{"bike_id":"6b7c067c-e4ae-46d3-8703-213f5b8b7cee","system_id":"levelo_inurba_marseille","lat":43.29708,"lon":5.36616,"is_reserved":false,"is_disabled":false,"rental_uris":{"android":"levelo://app?vid=6b7c067c-e4ae-46d3-8703-213f5b8b7cee","ios":"levelo://app?vid=6b7c067c-e4ae-46d3-8703-213f5b8b7cee"},"vehicle_type_id":"4","last_reported":1745428163,"current_range_meters":6800,"station_id":"ce4bgn12rcd13ifvqbt0","pricing_plan_id":"cebpf4jnsgd1na2vs0mg"},{"bike_id":"c52f77ae-077c-414b-9907-e819fbb6cccb","system_id":"levelo_inurba_marseille","lat":43.28945,"lon":5.36637,"is_reserved":false,"is_disabled":false,"rental_uris":{"android":"levelo://app?vid=c52f77ae-077c-414b-9907-e819fbb6cccb","ios":"levelo://app?vid=c52f77ae-077c-414b-9907-e819fbb6cccb"},"vehicle_type_id":"4","last_reported":1745428163,"current_range_meters":6800,"station_id":"ce4bhap2rcd13ifvqek0","pricing_plan_id":"cebpf4jnsgd1na2vs0mg"},{"bike_id":"0c66661e-7964-4366-95cf-80d32b8dbd44","system_id":"levelo_inurba_marseille","lat":43.30313,"lon":5.40451,"is_reserved":false,"is_disabled":false,"rental_uris":{"android":"levelo://app?vid=0c66661e-7964-4366-95cf-80d32b8dbd44","ios":"levelo://app?vid=0c66661e-7964-4366-95cf-80d32b8dbd44"},"vehicle_type_id":"4","last_reported":1745428163,"current_range_meters":6800,"station_id":"ce4bh012rcd13ifvqd10","pricing_plan_id":"cebpf4jnsgd1na2vs0mg"},{"bike_id":"c3b376fc-f121-4a37-ab7d-0971ecf608f1","system_id":"levelo_inurba_marseille","lat":43.24996,"lon":5.38934,"is_reserved":false,"is_disabled":false,"rental_uris":{"android":"levelo://app?vid=c3b376fc-f121-4a37-ab7d-0971ecf608f1","ios":"levelo://app?vid=c3b376fc-f121-4a37-ab7d-0971ecf608f1"},"vehicle_type_id":"4","last_reported":1745428163,"current_range_meters":6800,"station_id":"ce4bhgp2rcd13ifvqfd0","pricing_plan_id":"cebpf4jnsgd1na2vs0mg"},{"bike_id":"682b3edc-f4a0-45ac-b7e9-a553d51f08bd","system_id":"levelo_inurba_marseille","lat":43.29757,"lon":5.39323,"is_reserved":false,"is_disabled":false,"rental_uris":{"android":"levelo://app?vid=682b3edc-f4a0-45ac-b7e9-a553d51f08bd","ios":"levelo://app?vid=682b3edc-f4a0-45ac-b7e9-a553d51f08bd"},"vehicle_type_id":"4","last_reported":1745428163,"current_range_meters":6800,"station_id":"chh1huq6cuj3fo74tm60","pricing_plan_id":"cebpf4jnsgd1na2vs0mg"},{"bike_id":"e04d4fac-1d15-4171-8864-7e55c7dcc393","system_id":"levelo_inurba_marseille","lat":43.29961,"lon":5.38492,"is_reserved":false,"is_disabled":false,"rental_uris":{"android":"levelo://app?vid=e04d4fac-1d15-4171-8864-7e55c7dcc393","ios":"levelo://app?vid=e04d4fac-1d15-4171-8864-7e55c7dcc393"},"vehicle_type_id":"4","last_reported":1745428163,"current_range_meters":6800,"station_id":"ce4bgj92rcd13ifvqbd0","pricing_plan_id":"cebpf4jnsgd1na2vs0mg"},{"bike_id":"d18433bc-32e7-44f8-abf9-1348b4d0a903","system_id":"levelo_inurba_marseille","lat":43.28674,"lon":5.38683,"is_reserved":false,"is_disabled":false,"rental_uris":{"android":"levelo://app?vid=d18433bc-32e7-44f8-abf9-1348b4d0a903","ios":"levelo://app?vid=d18433bc-32e7-44f8-abf9-1348b4d0a903"},"vehicle_type_id":"4","last_reported":1745428163,"current_range_meters":6800,"station_id":"ce4bh492rcd13ifvqdug","pricing_plan_id":"cebpf4jnsgd1na2vs0mg"},{"bike_id":"82fc01ec-3cd1-42db-833a-c05aed2e116f","system_id":"levelo_inurba_marseille","lat":43.28447,"lon":5.39208,"is_reserved":false,"is_disabled":false,"rental_uris":{"android":"levelo://app?vid=82fc01ec-3cd1-42db-833a-c05aed2e116f","ios":"levelo://app?vid=82fc01ec-3cd1-42db-833a-c05aed2e116f"},"vehicle_type_id":"4","last_reported":1745428163,"current_range_meters":6800,"station_id":"ce4bhoh2rcd13ifvqh5g","pricing_plan_id":"cebpf4jnsgd1na2vs0mg"},{"bike_id":"ef905253-30ff-4763-99e6-f04b0777790a","system_id":"levelo_inurba_marseille","lat":43.231948,"lon":5.355402,"is_reserved":false,"is_disabled":false,"rental_uris":{"android":"levelo://app?vid=ef905253-30ff-4763-99e6-f04b0777790a","ios":"levelo://app?vid=ef905253-30ff-4763-99e6-f04b0777790a"},"vehicle_type_id":"4","last_reported":1745428163,"current_range_meters":6800,"station_id":"ce4bhu92rcd13ifvqi70","pricing_plan_id":"cebpf4jnsgd1na2vs0mg"},{"bike_id":"90382375-6a90-4999-b880-89950b9fef87","system_id":"levelo_inurba_marseille","lat":43.261915,"lon":5.374285,"is_reserved":false,"is_disabled":false,"rental_uris":{"android":"levelo://app?vid=90382375-6a90-4999-b880-89950b9fef87","ios":"levelo://app?vid=90382375-6a90-4999-b880-89950b9fef87"},"vehicle_type_id":"4","last_reported":1745428163,"current_range_meters":6800,"station_id":"ce4bhmp2rcd13ifvqgog","pricing_plan_id":"cebpf4jnsgd1na2vs0mg"},{"bike_id":"c27524c7-5834-4ba1-8469-f1e5d798b1b8","system_id":"levelo_inurba_marseille","lat":43.23154,"lon":5.43709,"is_reserved":false,"is_disabled":false,"rental_uris":{"android":"levelo://app?vid=c27524c7-5834-4ba1-8469-f1e5d798b1b8","ios":"levelo://app?vid=c27524c7-5834-4ba1-8469-f1e5d798b1b8"},"vehicle_type_id":"4","last_reported":1745428163,"current_range_meters":6800,"station_id":"ce4bhmp2rcd13ifvqgog","pricing_plan_id":"cebpf4jnsgd1na2vs0mg"},{"bike_id":"c94e26c1-7575-4802-86ec-0bd6f82482cc","system_id":"levelo_inurba_marseille","lat":43.2863,"lon":5.37078,"is_reserved":false,"is_disabled":false,"rental_uris":{"android":"levelo://app?vid=c94e26c1-7575-4802-86ec-0bd6f82482cc","ios":"levelo://app?vid=c94e26c1-7575-4802-86ec-0bd6f82482cc"},"vehicle_type_id":"4","last_reported":1745428163,"current_range_meters":7200,"station_id":"ce4bht12rcd13ifvqi60","pricing_plan_id":"cebpf4jnsgd1na2vs0mg"},{"bike_id":"e88ac0aa-172e-418f-9134-2e3c247b5863","system_id":"levelo_inurba_marseille","lat":43.239693,"lon":5.366342,"is_reserved":false,"is_disabled":false,"rental_uris":{"android":"levelo://app?vid=e88ac0aa-172e-418f-9134-2e3c247b5863","ios":"levelo://app?vid=e88ac0aa-172e-418f-9134-2e3c247b5863"},"vehicle_type_id":"4","last_reported":1745428163,"current_range_meters":7200,"station_id":"ce4bhi12rcd13ifvqfp0","pricing_plan_id":"cebpf4jnsgd1na2vs0mg"},{"bike_id":"c474eba8-e508-456a-9d70-9d5353c1eea4","system_id":"levelo_inurba_marseille","lat":43.26066,"lon":5.39396,"is_reserved":false,"is_disabled":false,"rental_uris":{"android":"levelo://app?vid=c474eba8-e508-456a-9d70-9d5353c1eea4","ios":"levelo://app?vid=c474eba8-e508-456a-9d70-9d5353c1eea4"},"vehicle_type_id":"4","last_reported":1745428163,"current_range_meters":7200,"station_id":"ce4bhh92rcd13ifvqfj0","pricing_plan_id":"cebpf4jnsgd1na2vs0mg"},{"bike_id":"c617af14-4f2a-4d9e-8ceb-e8c7332d193e","system_id":"levelo_inurba_marseille","lat":43.26495,"lon":5.39542,"is_reserved":false,"is_disabled":false,"rental_uris":{"android":"levelo://app?vid=c617af14-4f2a-4d9e-8ceb-e8c7332d193e","ios":"levelo://app?vid=c617af14-4f2a-4d9e-8ceb-e8c7332d193e"},"vehicle_type_id":"4","last_reported":1745428163,"current_range_meters":7200,"station_id":"ce4bhi12rcd13ifvqfq0","pricing_plan_id":"cebpf4jnsgd1na2vs0mg"},{"bike_id":"a0514dd9-0742-48dc-be62-c9142a513bf8","system_id":"levelo_inurba_marseille","lat":43.29557,"lon":5.42289,"is_reserved":false,"is_disabled":false,"rental_uris":{"android":"levelo://app?vid=a0514dd9-0742-48dc-be62-c9142a513bf8","ios":"levelo://app?vid=a0514dd9-0742-48dc-be62-c9142a513bf8"},"vehicle_type_id":"4","last_reported":1745428163,"current_range_meters":7200,"station_id":"ce4bhph2rcd13ifvqhdg","pricing_plan_id":"cebpf4jnsgd1na2vs0mg"},{"bike_id":"6c031af0-691b-446c-9018-9086acae8c64","system_id":"levelo_inurba_marseille","lat":43.26561,"lon":5.39025,"is_reserved":false,"is_disabled":false,"rental_uris":{"android":"levelo://app?vid=6c031af0-691b-446c-9018-9086acae8c64","ios":"levelo://app?vid=6c031af0-691b-446c-9018-9086acae8c64"},"vehicle_type_id":"4","last_reported":1745428163,"current_range_meters":7200,"station_id":"ce4bhe12rcd13ifvqf30","pricing_plan_id":"cebpf4jnsgd1na2vs0mg"},{"bike_id":"6ac611be-fa2e-4c81-a0a1-f825b8d54730","system_id":"levelo_inurba_marseille","lat":43.23064,"lon":5.3552,"is_reserved":false,"is_disabled":false,"rental_uris":{"android":"levelo://app?vid=6ac611be-fa2e-4c81-a0a1-f825b8d54730","ios":"levelo://app?vid=6ac611be-fa2e-4c81-a0a1-f825b8d54730"},"vehicle_type_id":"4","last_reported":1745428163,"current_range_meters":7200,"station_id":"cpo3342slgdg3j2ifvpg","pricing_plan_id":"cebpf4jnsgd1na2vs0mg"},{"bike_id":"5ca8bd46-6df4-4517-b492-4db6adb70654","system_id":"levelo_inurba_marseille","lat":43.28865,"lon":5.35877,"is_reserved":false,"is_disabled":false,"rental_uris":{"android":"levelo://app?vid=5ca8bd46-6df4-4517-b492-4db6adb70654","ios":"levelo://app?vid=5ca8bd46-6df4-4517-b492-4db6adb70654"},"vehicle_type_id":"4","last_reported":1745428163,"current_range_meters":8000,"station_id":"ce4bhb12rcd13ifvqem0","pricing_plan_id":"cebpf4jnsgd1na2vs0mg"},{"bike_id":"e37792a6-f349-4512-8625-113ccd6f5c99","system_id":"levelo_inurba_marseille","lat":43.27988,"lon":5.40025,"is_reserved":false,"is_disabled":true,"rental_uris":{"android":"levelo://app?vid=e37792a6-f349-4512-8625-113ccd6f5c99","ios":"levelo://app?vid=e37792a6-f349-4512-8625-113ccd6f5c99"},"vehicle_type_id":"4","last_reported":1745428163,"current_range_meters":8000,"station_id":"ce4bho92rcd13ifvqh4g","pricing_plan_id":"cebpf4jnsgd1na2vs0mg"},{"bike_id":"867400d7-2ccd-4c88-ab12-d529a4964fd0","system_id":"levelo_inurba_marseille","lat":43.28071,"lon":5.39651,"is_reserved":false,"is_disabled":false,"rental_uris":{"android":"levelo://app?vid=867400d7-2ccd-4c88-ab12-d529a4964fd0","ios":"levelo://app?vid=867400d7-2ccd-4c88-ab12-d529a4964fd0"},"vehicle_type_id":"4","last_reported":1745428163,"current_range_meters":8000,"station_id":"ce4bho12rcd13ifvqh2g","pricing_plan_id":"cebpf4jnsgd1na2vs0mg"},{"bike_id":"e3faff49-751f-459c-bf8f-2e627533cade","system_id":"levelo_inurba_marseille","lat":43.29034,"lon":5.3865,"is_reserved":false,"is_disabled":false,"rental_uris":{"android":"levelo://app?vid=e3faff49-751f-459c-bf8f-2e627533cade","ios":"levelo://app?vid=e3faff49-751f-459c-bf8f-2e627533cade"},"vehicle_type_id":"4","last_reported":1745428163,"current_range_meters":8000,"station_id":"ce4bh4p2rcd13ifvqe0g","pricing_plan_id":"cebpf4jnsgd1na2vs0mg"},{"bike_id":"032e6eee-a7a3-418a-8322-d8e2ab0f9b46","system_id":"levelo_inurba_marseille","lat":43.31169,"lon":5.40247,"is_reserved":false,"is_disabled":false,"rental_uris":{"android":"levelo://app?vid=032e6eee-a7a3-418a-8322-d8e2ab0f9b46","ios":"levelo://app?vid=032e6eee-a7a3-418a-8322-d8e2ab0f9b46"},"vehicle_type_id":"4","last_reported":1745428163,"current_range_meters":8400,"station_id":"","pricing_plan_id":"cebpf4jnsgd1na2vs0mg"},{"bike_id":"822f0306-f1cb-4395-8ead-3691a9b6cdc1","system_id":"levelo_inurba_marseille","lat":43.29518,"lon":5.39401,"is_reserved":false,"is_disabled":false,"rental_uris":{"android":"levelo://app?vid=822f0306-f1cb-4395-8ead-3691a9b6cdc1","ios":"levelo://app?vid=822f0306-f1cb-4395-8ead-3691a9b6cdc1"},"vehicle_type_id":"4","last_reported":1745428163,"current_range_meters":8400,"station_id":"ce4bh292rcd13ifvqdf0","pricing_plan_id":"cebpf4jnsgd1na2vs0mg"},{"bike_id":"a7a45274-6b8b-4f4e-8a10-ee5a3c1a6a1b","system_id":"levelo_inurba_marseille","lat":43.2318,"lon":5.39986,"is_reserved":false,"is_disabled":false,"rental_uris":{"android":"levelo://app?vid=a7a45274-6b8b-4f4e-8a10-ee5a3c1a6a1b","ios":"levelo://app?vid=a7a45274-6b8b-4f4e-8a10-ee5a3c1a6a1b"},"vehicle_type_id":"4","last_reported":1745428163,"current_range_meters":8400,"station_id":"ce4bhn12rcd13ifvqgqg","pricing_plan_id":"cebpf4jnsgd1na2vs0mg"},{"bike_id":"a1544348-a029-4b3e-923b-1430d10844c0","system_id":"levelo_inurba_marseille","lat":43.27369,"lon":5.36264,"is_reserved":false,"is_disabled":false,"rental_uris":{"android":"levelo://app?vid=a1544348-a029-4b3e-923b-1430d10844c0","ios":"levelo://app?vid=a1544348-a029-4b3e-923b-1430d10844c0"},"vehicle_type_id":"4","last_reported":1745428163,"current_range_meters":8800,"station_id":"ce4bhbh2rcd13ifvqeo0","pricing_plan_id":"cebpf4jnsgd1na2vs0mg"},{"bike_id":"8b304200-71a5-47a8-8fac-11df9a465afc","system_id":"levelo_inurba_marseille","lat":43.27619,"lon":5.36107,"is_reserved":false,"is_disabled":false,"rental_uris":{"android":"levelo://app?vid=8b304200-71a5-47a8-8fac-11df9a465afc","ios":"levelo://app?vid=8b304200-71a5-47a8-8fac-11df9a465afc"},"vehicle_type_id":"4","last_reported":1745428163,"current_range_meters":8800,"station_id":"ce4bgj92rcd13ifvqbe0","pricing_plan_id":"cebpf4jnsgd1na2vs0mg"},{"bike_id":"61034bff-863b-4f17-b306-04653b14a109","system_id":"levelo_inurba_marseille","lat":43.30921,"lon":5.40149,"is_reserved":false,"is_disabled":true,"rental_uris":{"android":"levelo://app?vid=61034bff-863b-4f17-b306-04653b14a109","ios":"levelo://app?vid=61034bff-863b-4f17-b306-04653b14a109"},"vehicle_type_id":"4","last_reported":1745428163,"current_range_meters":8800,"station_id":"ce4bgvp2rcd13ifvqct0","pricing_plan_id":"cebpf4jnsgd1na2vs0mg"},{"bike_id":"cdaf4975-c73c-44c1-8f57-a0af73c240d3","system_id":"levelo_inurba_marseille","lat":43.28545,"lon":5.35051,"is_reserved":false,"is_disabled":false,"rental_uris":{"android":"levelo://app?vid=cdaf4975-c73c-44c1-8f57-a0af73c240d3","ios":"levelo://app?vid=cdaf4975-c73c-44c1-8f57-a0af73c240d3"},"vehicle_type_id":"4","last_reported":1745428163,"current_range_meters":8800,"station_id":"ce4bhch2rcd13ifvqeug","pricing_plan_id":"cebpf4jnsgd1na2vs0mg"},{"bike_id":"49c0f902-eac7-4a79-adf0-d142aff51e11","system_id":"levelo_inurba_marseille","lat":43.24162,"lon":5.36408,"is_reserved":false,"is_disabled":false,"rental_uris":{"android":"levelo://app?vid=49c0f902-eac7-4a79-adf0-d142aff51e11","ios":"levelo://app?vid=49c0f902-eac7-4a79-adf0-d142aff51e11"},"vehicle_type_id":"4","last_reported":1745428163,"current_range_meters":8800,"station_id":"cpo36qri1sfpv3e86is0","pricing_plan_id":"cebpf4jnsgd1na2vs0mg"},{"bike_id":"7d7c18c3-1ea2-4e11-9fa4-78c666046a95","system_id":"levelo_inurba_marseille","lat":43.29062,"lon":5.38613,"is_reserved":false,"is_disabled":false,"rental_uris":{"android":"levelo://app?vid=7d7c18c3-1ea2-4e11-9fa4-78c666046a95","ios":"levelo://app?vid=7d7c18c3-1ea2-4e11-9fa4-78c666046a95"},"vehicle_type_id":"4","last_reported":1745428163,"current_range_meters":9200,"station_id":"ce4bh4p2rcd13ifvqe0g","pricing_plan_id":"cebpf4jnsgd1na2vs0mg"},{"bike_id":"6ee18928-c0a9-46f4-bb94-38ccc3b3ef0a","system_id":"levelo_inurba_marseille","lat":43.295337,"lon":5.372854,"is_reserved":false,"is_disabled":false,"rental_uris":{"android":"levelo://app?vid=6ee18928-c0a9-46f4-bb94-38ccc3b3ef0a","ios":"levelo://app?vid=6ee18928-c0a9-46f4-bb94-38ccc3b3ef0a"},"vehicle_type_id":"4","last_reported":1745428163,"current_range_meters":9200,"station_id":"ce4bgph2rcd13ifvqc2g","pricing_plan_id":"cebpf4jnsgd1na2vs0mg"},{"bike_id":"4b5ad419-2a9e-4292-b343-3486796c2a93","system_id":"levelo_inurba_marseille","lat":43.28703,"lon":5.37389,"is_reserved":false,"is_disabled":false,"rental_uris":{"android":"levelo://app?vid=4b5ad419-2a9e-4292-b343-3486796c2a93","ios":"levelo://app?vid=4b5ad419-2a9e-4292-b343-3486796c2a93"},"vehicle_type_id":"4","last_reported":1745428163,"current_range_meters":9200,"station_id":"ce4bh3p2rcd13ifvqdq0","pricing_plan_id":"cebpf4jnsgd1na2vs0mg"},{"bike_id":"9ee5f8cb-d245-4070-9222-19efc3d14237","system_id":"levelo_inurba_marseille","lat":43.28997,"lon":5.37843,"is_reserved":false,"is_disabled":false,"rental_uris":{"android":"levelo://app?vid=9ee5f8cb-d245-4070-9222-19efc3d14237","ios":"levelo://app?vid=9ee5f8cb-d245-4070-9222-19efc3d14237"},"vehicle_type_id":"4","last_reported":1745428163,"current_range_meters":8800,"station_id":"ce4bh9p2rcd13ifvqed0","pricing_plan_id":"cebpf4jnsgd1na2vs0mg"},{"bike_id":"9e413059-7cf1-4bcb-94d0-d441a1bc78ba","system_id":"levelo_inurba_marseille","lat":43.28717,"lon":5.37428,"is_reserved":false,"is_disabled":false,"rental_uris":{"android":"levelo://app?vid=9e413059-7cf1-4bcb-94d0-d441a1bc78ba","ios":"levelo://app?vid=9e413059-7cf1-4bcb-94d0-d441a1bc78ba"},"vehicle_type_id":"4","last_reported":1745428163,"current_range_meters":9200,"station_id":"ce4bh3p2rcd13ifvqdq0","pricing_plan_id":"cebpf4jnsgd1na2vs0mg"},{"bike_id":"82b8d0ce-1803-451b-ad21-f2f8263e9fc3","system_id":"levelo_inurba_marseille","lat":43.29583,"lon":5.36739,"is_reserved":false,"is_disabled":false,"rental_uris":{"android":"levelo://app?vid=82b8d0ce-1803-451b-ad21-f2f8263e9fc3","ios":"levelo://app?vid=82b8d0ce-1803-451b-ad21-f2f8263e9fc3"},"vehicle_type_id":"4","last_reported":1745428163,"current_range_meters":8800,"station_id":"ce4bgph2rcd13ifvqc2g","pricing_plan_id":"cebpf4jnsgd1na2vs0mg"},{"bike_id":"fbb6be43-75ac-4697-af84-df6581464ee0","system_id":"levelo_inurba_marseille","lat":43.23959,"lon":5.36638,"is_reserved":false,"is_disabled":false,"rental_uris":{"android":"levelo://app?vid=fbb6be43-75ac-4697-af84-df6581464ee0","ios":"levelo://app?vid=fbb6be43-75ac-4697-af84-df6581464ee0"},"vehicle_type_id":"4","last_reported":1745428163,"current_range_meters":9200,"station_id":"ce4bhi12rcd13ifvqfp0","pricing_plan_id":"cebpf4jnsgd1na2vs0mg"},{"bike_id":"8143f2c3-0f26-4671-8d34-3b8f60c50acb","system_id":"levelo_inurba_marseille","lat":43.29058,"lon":5.37162,"is_reserved":false,"is_disabled":false,"rental_uris":{"android":"levelo://app?vid=8143f2c3-0f26-4671-8d34-3b8f60c50acb","ios":"levelo://app?vid=8143f2c3-0f26-4671-8d34-3b8f60c50acb"},"vehicle_type_id":"4","last_reported":1745428163,"current_range_meters":9200,"station_id":"ce4bh5p2rcd13ifvqe4g","pricing_plan_id":"cebpf4jnsgd1na2vs0mg"},{"bike_id":"1295ca28-5f82-46d9-8a75-6de6496cf32f","system_id":"levelo_inurba_marseille","lat":43.288568,"lon":5.39324,"is_reserved":false,"is_disabled":false,"rental_uris":{"android":"levelo://app?vid=1295ca28-5f82-46d9-8a75-6de6496cf32f","ios":"levelo://app?vid=1295ca28-5f82-46d9-8a75-6de6496cf32f"},"vehicle_type_id":"4","last_reported":1745428163,"current_range_meters":9600,"station_id":"ce4bh2p2rcd13ifvqdi0","pricing_plan_id":"cebpf4jnsgd1na2vs0mg"},{"bike_id":"2444db48-73b9-4f67-9dc6-6e8bcceff093","system_id":"levelo_inurba_marseille","lat":43.2978,"lon":5.38135,"is_reserved":false,"is_disabled":true,"rental_uris":{"android":"levelo://app?vid=2444db48-73b9-4f67-9dc6-6e8bcceff093","ios":"levelo://app?vid=2444db48-73b9-4f67-9dc6-6e8bcceff093"},"vehicle_type_id":"4","last_reported":1745428163,"current_range_meters":9600,"station_id":"ce4bgip2rcd13ifvqbb0","pricing_plan_id":"cebpf4jnsgd1na2vs0mg"},{"bike_id":"69c2dddc-d9e3-4950-b385-0cb1f32d18bc","system_id":"levelo_inurba_marseille","lat":43.28001,"lon":5.40005,"is_reserved":false,"is_disabled":false,"rental_uris":{"android":"levelo://app?vid=69c2dddc-d9e3-4950-b385-0cb1f32d18bc","ios":"levelo://app?vid=69c2dddc-d9e3-4950-b385-0cb1f32d18bc"},"vehicle_type_id":"4","last_reported":1745428163,"current_range_meters":9600,"station_id":"ce4bho92rcd13ifvqh4g","pricing_plan_id":"cebpf4jnsgd1na2vs0mg"},{"bike_id":"53d95e04-b41c-4971-8010-29c7e7af8bdc","system_id":"levelo_inurba_marseille","lat":43.28851,"lon":5.35881,"is_reserved":false,"is_disabled":false,"rental_uris":{"android":"levelo://app?vid=53d95e04-b41c-4971-8010-29c7e7af8bdc","ios":"levelo://app?vid=53d95e04-b41c-4971-8010-29c7e7af8bdc"},"vehicle_type_id":"4","last_reported":1745428163,"current_range_meters":9600,"station_id":"ce4bhb12rcd13ifvqem0","pricing_plan_id":"cebpf4jnsgd1na2vs0mg"},{"bike_id":"482aa0b7-6f57-4fe2-9ef8-9de5b9b9835f","system_id":"levelo_inurba_marseille","lat":43.31328,"lon":5.39698,"is_reserved":false,"is_disabled":false,"rental_uris":{"android":"levelo://app?vid=482aa0b7-6f57-4fe2-9ef8-9de5b9b9835f","ios":"levelo://app?vid=482aa0b7-6f57-4fe2-9ef8-9de5b9b9835f"},"vehicle_type_id":"4","last_reported":1745428163,"current_range_meters":9600,"station_id":"ce4bgvp2rcd13ifvqcu0","pricing_plan_id":"cebpf4jnsgd1na2vs0mg"},{"bike_id":"1780b1fd-113e-4b95-a483-e0cb2074c4c6","system_id":"levelo_inurba_marseille","lat":43.29853,"lon":5.36303,"is_reserved":false,"is_disabled":false,"rental_uris":{"android":"levelo://app?vid=1780b1fd-113e-4b95-a483-e0cb2074c4c6","ios":"levelo://app?vid=1780b1fd-113e-4b95-a483-e0cb2074c4c6"},"vehicle_type_id":"4","last_reported":1745428163,"current_range_meters":9600,"station_id":"ce4bgpp2rcd13ifvqc3g","pricing_plan_id":"cebpf4jnsgd1na2vs0mg"},{"bike_id":"22d01123-49c8-4009-8009-ebb5bbc995be","system_id":"levelo_inurba_marseille","lat":43.32596,"lon":5.40352,"is_reserved":false,"is_disabled":false,"rental_uris":{"android":"levelo://app?vid=22d01123-49c8-4009-8009-ebb5bbc995be","ios":"levelo://app?vid=22d01123-49c8-4009-8009-ebb5bbc995be"},"vehicle_type_id":"4","last_reported":1745428163,"current_range_meters":10000,"station_id":"","pricing_plan_id":"cebpf4jnsgd1na2vs0mg"},{"bike_id":"02454ba3-bfbb-4b7c-abb6-c41a4631537e","system_id":"levelo_inurba_marseille","lat":43.30093,"lon":5.39082,"is_reserved":false,"is_disabled":false,"rental_uris":{"android":"levelo://app?vid=02454ba3-bfbb-4b7c-abb6-c41a4631537e","ios":"levelo://app?vid=02454ba3-bfbb-4b7c-abb6-c41a4631537e"},"vehicle_type_id":"4","last_reported":1745428163,"current_range_meters":10000,"station_id":"ce4bh192rcd13ifvqdb0","pricing_plan_id":"cebpf4jnsgd1na2vs0mg"},{"bike_id":"63f05607-703b-4e1a-9db7-6a5d773c5145","system_id":"levelo_inurba_marseille","lat":43.289738,"lon":5.378374,"is_reserved":false,"is_disabled":false,"rental_uris":{"android":"levelo://app?vid=63f05607-703b-4e1a-9db7-6a5d773c5145","ios":"levelo://app?vid=63f05607-703b-4e1a-9db7-6a5d773c5145"},"vehicle_type_id":"4","last_reported":1745428163,"current_range_meters":10000,"station_id":"ce4bh9p2rcd13ifvqed0","pricing_plan_id":"cebpf4jnsgd1na2vs0mg"},{"bike_id":"6baba112-e8c3-412a-9449-7fa599f86eb0","system_id":"levelo_inurba_marseille","lat":43.27992,"lon":5.40022,"is_reserved":false,"is_disabled":false,"rental_uris":{"android":"levelo://app?vid=6baba112-e8c3-412a-9449-7fa599f86eb0","ios":"levelo://app?vid=6baba112-e8c3-412a-9449-7fa599f86eb0"},"vehicle_type_id":"4","last_reported":1745428163,"current_range_meters":10000,"station_id":"ce4bho92rcd13ifvqh4g","pricing_plan_id":"cebpf4jnsgd1na2vs0mg"},{"bike_id":"ec350b30-9b32-4c5f-aa22-3a10fc683fe2","system_id":"levelo_inurba_marseille","lat":43.29335,"lon":5.43502,"is_reserved":false,"is_disabled":false,"rental_uris":{"android":"levelo://app?vid=ec350b30-9b32-4c5f-aa22-3a10fc683fe2","ios":"levelo://app?vid=ec350b30-9b32-4c5f-aa22-3a10fc683fe2"},"vehicle_type_id":"4","last_reported":1745428163,"current_range_meters":10000,"station_id":"","pricing_plan_id":"cebpf4jnsgd1na2vs0mg"},{"bike_id":"bf407441-85fb-481d-b77f-de29280b9230","system_id":"levelo_inurba_marseille","lat":43.28945,"lon":5.36636,"is_reserved":false,"is_disabled":false,"rental_uris":{"android":"levelo://app?vid=bf407441-85fb-481d-b77f-de29280b9230","ios":"levelo://app?vid=bf407441-85fb-481d-b77f-de29280b9230"},"vehicle_type_id":"4","last_reported":1745428163,"current_range_meters":10000,"station_id":"ce4bhap2rcd13ifvqek0","pricing_plan_id":"cebpf4jnsgd1na2vs0mg"},{"bike_id":"b41b629b-77de-4cf5-933e-0d93fc0c7949","system_id":"levelo_inurba_marseille","lat":43.29535,"lon":5.39051,"is_reserved":false,"is_disabled":false,"rental_uris":{"android":"levelo://app?vid=b41b629b-77de-4cf5-933e-0d93fc0c7949","ios":"levelo://app?vid=b41b629b-77de-4cf5-933e-0d93fc0c7949"},"vehicle_type_id":"4","last_reported":1745428163,"current_range_meters":11200,"station_id":"ce4bh3p2rcd13ifvqdp0","pricing_plan_id":"cebpf4jnsgd1na2vs0mg"},{"bike_id":"ee6fe346-129a-4352-b7c7-aefa1e451c7a","system_id":"levelo_inurba_marseille","lat":43.306548,"lon":5.400778,"is_reserved":false,"is_disabled":true,"rental_uris":{"android":"levelo://app?vid=ee6fe346-129a-4352-b7c7-aefa1e451c7a","ios":"levelo://app?vid=ee6fe346-129a-4352-b7c7-aefa1e451c7a"},"vehicle_type_id":"4","last_reported":1745428163,"current_range_meters":10800,"station_id":"ce4bh112rcd13ifvqda0","pricing_plan_id":"cebpf4jnsgd1na2vs0mg"},{"bike_id":"92c3b340-d069-4f1c-b55b-44c52f19597b","system_id":"levelo_inurba_marseille","lat":43.28261,"lon":5.37786,"is_reserved":false,"is_disabled":false,"rental_uris":{"android":"levelo://app?vid=92c3b340-d069-4f1c-b55b-44c52f19597b","ios":"levelo://app?vid=92c3b340-d069-4f1c-b55b-44c52f19597b"},"vehicle_type_id":"4","last_reported":1745428163,"current_range_meters":10800,"station_id":"","pricing_plan_id":"cebpf4jnsgd1na2vs0mg"},{"bike_id":"8799b860-8aa4-4faa-9d42-4e98cddfcafd","system_id":"levelo_inurba_marseille","lat":43.30147,"lon":5.37429,"is_reserved":false,"is_disabled":false,"rental_uris":{"android":"levelo://app?vid=8799b860-8aa4-4faa-9d42-4e98cddfcafd","ios":"levelo://app?vid=8799b860-8aa4-4faa-9d42-4e98cddfcafd"},"vehicle_type_id":"4","last_reported":1745428163,"current_range_meters":10800,"station_id":"ce4bgs92rcd13ifvqcc0","pricing_plan_id":"cebpf4jnsgd1na2vs0mg"},{"bike_id":"2b443141-dcae-40fb-bc2b-202ffba061dc","system_id":"levelo_inurba_marseille","lat":43.2828,"lon":5.35059,"is_reserved":false,"is_disabled":false,"rental_uris":{"android":"levelo://app?vid=2b443141-dcae-40fb-bc2b-202ffba061dc","ios":"levelo://app?vid=2b443141-dcae-40fb-bc2b-202ffba061dc"},"vehicle_type_id":"4","last_reported":1745428163,"current_range_meters":10800,"station_id":"ce4bhbp2rcd13ifvqerg","pricing_plan_id":"cebpf4jnsgd1na2vs0mg"},{"bike_id":"dd039c6d-bc53-4aea-8d28-8d905de3ed63","system_id":"levelo_inurba_marseille","lat":43.28859,"lon":5.35853,"is_reserved":false,"is_disabled":false,"rental_uris":{"android":"levelo://app?vid=dd039c6d-bc53-4aea-8d28-8d905de3ed63","ios":"levelo://app?vid=dd039c6d-bc53-4aea-8d28-8d905de3ed63"},"vehicle_type_id":"4","last_reported":1745428163,"current_range_meters":10800,"station_id":"ce4bhb12rcd13ifvqem0","pricing_plan_id":"cebpf4jnsgd1na2vs0mg"},{"bike_id":"9c325fd4-f154-4a48-857e-569f4cc367f9","system_id":"levelo_inurba_marseille","lat":43.22961,"lon":5.3541,"is_reserved":false,"is_disabled":false,"rental_uris":{"android":"levelo://app?vid=9c325fd4-f154-4a48-857e-569f4cc367f9","ios":"levelo://app?vid=9c325fd4-f154-4a48-857e-569f4cc367f9"},"vehicle_type_id":"4","last_reported":1745428163,"current_range_meters":10800,"station_id":"cpo3532slgdg3j2ikp40","pricing_plan_id":"cebpf4jnsgd1na2vs0mg"},{"bike_id":"cee626a2-f5b2-4add-be0a-8e3d6bbcd3b1","system_id":"levelo_inurba_marseille","lat":43.30194,"lon":5.36634,"is_reserved":false,"is_disabled":false,"rental_uris":{"android":"levelo://app?vid=cee626a2-f5b2-4add-be0a-8e3d6bbcd3b1","ios":"levelo://app?vid=cee626a2-f5b2-4add-be0a-8e3d6bbcd3b1"},"vehicle_type_id":"4","last_reported":1745428163,"current_range_meters":10800,"station_id":"ce4bgrh2rcd13ifvqc8g","pricing_plan_id":"cebpf4jnsgd1na2vs0mg"},{"bike_id":"733c3d62-64d7-4c68-a5cc-1fd16854bc66","system_id":"levelo_inurba_marseille","lat":43.24164,"lon":5.36403,"is_reserved":false,"is_disabled":false,"rental_uris":{"android":"levelo://app?vid=733c3d62-64d7-4c68-a5cc-1fd16854bc66","ios":"levelo://app?vid=733c3d62-64d7-4c68-a5cc-1fd16854bc66"},"vehicle_type_id":"4","last_reported":1745428163,"current_range_meters":11200,"station_id":"cpo36qri1sfpv3e86is0","pricing_plan_id":"cebpf4jnsgd1na2vs0mg"},{"bike_id":"eb838373-4162-4b88-886f-cba2423cffac","system_id":"levelo_inurba_marseille","lat":43.28614,"lon":5.35107,"is_reserved":false,"is_disabled":false,"rental_uris":{"android":"levelo://app?vid=eb838373-4162-4b88-886f-cba2423cffac","ios":"levelo://app?vid=eb838373-4162-4b88-886f-cba2423cffac"},"vehicle_type_id":"4","last_reported":1745428163,"current_range_meters":11200,"station_id":"ce4bhch2rcd13ifvqeug","pricing_plan_id":"cebpf4jnsgd1na2vs0mg"},{"bike_id":"1e27e77e-8708-4435-a55b-9e2803758be2","system_id":"levelo_inurba_marseille","lat":43.2439,"lon":5.37062,"is_reserved":false,"is_disabled":false,"rental_uris":{"android":"levelo://app?vid=1e27e77e-8708-4435-a55b-9e2803758be2","ios":"levelo://app?vid=1e27e77e-8708-4435-a55b-9e2803758be2"},"vehicle_type_id":"4","last_reported":1745428163,"current_range_meters":10800,"station_id":"ce4bhhh2rcd13ifvqfk0","pricing_plan_id":"cebpf4jnsgd1na2vs0mg"},{"bike_id":"e1361521-459f-48c7-8627-406bb9c646da","system_id":"levelo_inurba_marseille","lat":43.23956,"lon":5.36658,"is_reserved":false,"is_disabled":false,"rental_uris":{"android":"levelo://app?vid=e1361521-459f-48c7-8627-406bb9c646da","ios":"levelo://app?vid=e1361521-459f-48c7-8627-406bb9c646da"},"vehicle_type_id":"4","last_reported":1745428163,"current_range_meters":11200,"station_id":"ce4bhi12rcd13ifvqfp0","pricing_plan_id":"cebpf4jnsgd1na2vs0mg"},{"bike_id":"b96d48d5-fc65-423b-9a30-5d2c864e8939","system_id":"levelo_inurba_marseille","lat":43.22529,"lon":5.34794,"is_reserved":false,"is_disabled":false,"rental_uris":{"android":"levelo://app?vid=b96d48d5-fc65-423b-9a30-5d2c864e8939","ios":"levelo://app?vid=b96d48d5-fc65-423b-9a30-5d2c864e8939"},"vehicle_type_id":"4","last_reported":1745428163,"current_range_meters":11600,"station_id":"st_cvj5dfep6f1abm77gieg","pricing_plan_id":"cebpf4jnsgd1na2vs0mg"},{"bike_id":"03bbc5db-7780-4675-a80f-8f0f510ae625","system_id":"levelo_inurba_marseille","lat":43.27993,"lon":5.4002,"is_reserved":false,"is_disabled":false,"rental_uris":{"android":"levelo://app?vid=03bbc5db-7780-4675-a80f-8f0f510ae625","ios":"levelo://app?vid=03bbc5db-7780-4675-a80f-8f0f510ae625"},"vehicle_type_id":"4","last_reported":1745428163,"current_range_meters":11600,"station_id":"ce4bho92rcd13ifvqh4g","pricing_plan_id":"cebpf4jnsgd1na2vs0mg"},{"bike_id":"bfc57060-bf96-4e1e-978c-0c15aaef2b8b","system_id":"levelo_inurba_marseille","lat":43.29884,"lon":5.43664,"is_reserved":false,"is_disabled":false,"rental_uris":{"android":"levelo://app?vid=bfc57060-bf96-4e1e-978c-0c15aaef2b8b","ios":"levelo://app?vid=bfc57060-bf96-4e1e-978c-0c15aaef2b8b"},"vehicle_type_id":"4","last_reported":1745428163,"current_range_meters":11600,"station_id":"ce4bhpp2rcd13ifvqhfg","pricing_plan_id":"cebpf4jnsgd1na2vs0mg"},{"bike_id":"d6a00241-8f25-44db-ac6d-8e84872db2a8","system_id":"levelo_inurba_marseille","lat":43.33718,"lon":5.39213,"is_reserved":false,"is_disabled":false,"rental_uris":{"android":"levelo://app?vid=d6a00241-8f25-44db-ac6d-8e84872db2a8","ios":"levelo://app?vid=d6a00241-8f25-44db-ac6d-8e84872db2a8"},"vehicle_type_id":"4","last_reported":1745428163,"current_range_meters":11600,"station_id":"ce4bhr92rcd13ifvqhsg","pricing_plan_id":"cebpf4jnsgd1na2vs0mg"},{"bike_id":"abd226a8-d003-4133-b9d2-b7c952b7ead1","system_id":"levelo_inurba_marseille","lat":43.2307,"lon":5.3551,"is_reserved":false,"is_disabled":false,"rental_uris":{"android":"levelo://app?vid=abd226a8-d003-4133-b9d2-b7c952b7ead1","ios":"levelo://app?vid=abd226a8-d003-4133-b9d2-b7c952b7ead1"},"vehicle_type_id":"4","last_reported":1745428163,"current_range_meters":11600,"station_id":"cpo3342slgdg3j2ifvpg","pricing_plan_id":"cebpf4jnsgd1na2vs0mg"},{"bike_id":"a80271ac-37a2-4a58-b93a-4819d11329b5","system_id":"levelo_inurba_marseille","lat":43.2945,"lon":5.39761,"is_reserved":false,"is_disabled":false,"rental_uris":{"android":"levelo://app?vid=a80271ac-37a2-4a58-b93a-4819d11329b5","ios":"levelo://app?vid=a80271ac-37a2-4a58-b93a-4819d11329b5"},"vehicle_type_id":"4","last_reported":1745428163,"current_range_meters":11600,"station_id":"ce4bh3h2rcd13ifvqdo0","pricing_plan_id":"cebpf4jnsgd1na2vs0mg"},{"bike_id":"1a40ffa4-afe1-42ee-b8f0-2ba069cf92ad","system_id":"levelo_inurba_marseille","lat":43.23195,"lon":5.35554,"is_reserved":false,"is_disabled":false,"rental_uris":{"android":"levelo://app?vid=1a40ffa4-afe1-42ee-b8f0-2ba069cf92ad","ios":"levelo://app?vid=1a40ffa4-afe1-42ee-b8f0-2ba069cf92ad"},"vehicle_type_id":"4","last_reported":1745428163,"current_range_meters":11600,"station_id":"ce4bhu92rcd13ifvqi70","pricing_plan_id":"cebpf4jnsgd1na2vs0mg"},{"bike_id":"7cb503d8-a3ee-4291-8d4b-648ba2f1137c","system_id":"levelo_inurba_marseille","lat":43.24216,"lon":5.36376,"is_reserved":false,"is_disabled":false,"rental_uris":{"android":"levelo://app?vid=7cb503d8-a3ee-4291-8d4b-648ba2f1137c","ios":"levelo://app?vid=7cb503d8-a3ee-4291-8d4b-648ba2f1137c"},"vehicle_type_id":"4","last_reported":1745428163,"current_range_meters":11600,"station_id":"cpo36qri1sfpv3e86is0","pricing_plan_id":"cebpf4jnsgd1na2vs0mg"},{"bike_id":"5546f93c-c7eb-4a36-b1e9-022b7fc99074","system_id":"levelo_inurba_marseille","lat":43.23191,"lon":5.35552,"is_reserved":false,"is_disabled":false,"rental_uris":{"android":"levelo://app?vid=5546f93c-c7eb-4a36-b1e9-022b7fc99074","ios":"levelo://app?vid=5546f93c-c7eb-4a36-b1e9-022b7fc99074"},"vehicle_type_id":"4","last_reported":1745428163,"current_range_meters":12000,"station_id":"ce4bhu92rcd13ifvqi70","pricing_plan_id":"cebpf4jnsgd1na2vs0mg"},{"bike_id":"8fb44261-49c3-4680-b8bd-36f293c27199","system_id":"levelo_inurba_marseille","lat":43.24072,"lon":5.37763,"is_reserved":false,"is_disabled":false,"rental_uris":{"android":"levelo://app?vid=8fb44261-49c3-4680-b8bd-36f293c27199","ios":"levelo://app?vid=8fb44261-49c3-4680-b8bd-36f293c27199"},"vehicle_type_id":"4","last_reported":1745428163,"current_range_meters":12000,"station_id":"ce4bhnp2rcd13ifvqgvg","pricing_plan_id":"cebpf4jnsgd1na2vs0mg"},{"bike_id":"1b8b7145-49a7-4fe1-96a2-72a1d6e84a54","system_id":"levelo_inurba_marseille","lat":43.23063,"lon":5.3549,"is_reserved":false,"is_disabled":false,"rental_uris":{"android":"levelo://app?vid=1b8b7145-49a7-4fe1-96a2-72a1d6e84a54","ios":"levelo://app?vid=1b8b7145-49a7-4fe1-96a2-72a1d6e84a54"},"vehicle_type_id":"4","last_reported":1745428163,"current_range_meters":12000,"station_id":"cpo3342slgdg3j2ifvpg","pricing_plan_id":"cebpf4jnsgd1na2vs0mg"},{"bike_id":"730c7476-95c4-4e18-a1b3-3a935e74be04","system_id":"levelo_inurba_marseille","lat":43.29023,"lon":5.37563,"is_reserved":false,"is_disabled":true,"rental_uris":{"android":"levelo://app?vid=730c7476-95c4-4e18-a1b3-3a935e74be04","ios":"levelo://app?vid=730c7476-95c4-4e18-a1b3-3a935e74be04"},"vehicle_type_id":"4","last_reported":1745428163,"current_range_meters":12400,"station_id":"ce4bh692rcd13ifvqe90","pricing_plan_id":"cebpf4jnsgd1na2vs0mg"},{"bike_id":"aae50840-6434-4060-bb4a-4efa90def363","system_id":"levelo_inurba_marseille","lat":43.29259,"lon":5.40899,"is_reserved":false,"is_disabled":false,"rental_uris":{"android":"levelo://app?vid=aae50840-6434-4060-bb4a-4efa90def363","ios":"levelo://app?vid=aae50840-6434-4060-bb4a-4efa90def363"},"vehicle_type_id":"4","last_reported":1745428163,"current_range_meters":12400,"station_id":"ce4bh192rcd13ifvqdc0","pricing_plan_id":"cebpf4jnsgd1na2vs0mg"},{"bike_id":"0679d435-57a4-4793-8cef-b47d6f6a8ccc","system_id":"levelo_inurba_marseille","lat":43.29899,"lon":5.43673,"is_reserved":false,"is_disabled":false,"rental_uris":{"android":"levelo://app?vid=0679d435-57a4-4793-8cef-b47d6f6a8ccc","ios":"levelo://app?vid=0679d435-57a4-4793-8cef-b47d6f6a8ccc"},"vehicle_type_id":"4","last_reported":1745428163,"current_range_meters":12400,"station_id":"ce4bhpp2rcd13ifvqhfg","pricing_plan_id":"cebpf4jnsgd1na2vs0mg"},{"bike_id":"86b49123-e1d0-4309-a4ef-b643a991314f","system_id":"levelo_inurba_marseille","lat":43.29807,"lon":5.38095,"is_reserved":false,"is_disabled":false,"rental_uris":{"android":"levelo://app?vid=86b49123-e1d0-4309-a4ef-b643a991314f","ios":"levelo://app?vid=86b49123-e1d0-4309-a4ef-b643a991314f"},"vehicle_type_id":"4","last_reported":1745428163,"current_range_meters":12400,"station_id":"ce4bgip2rcd13ifvqbb0","pricing_plan_id":"cebpf4jnsgd1na2vs0mg"},{"bike_id":"2796e020-fb7e-48d4-ad6e-ca24cf288300","system_id":"levelo_inurba_marseille","lat":43.286437,"lon":5.385547,"is_reserved":false,"is_disabled":false,"rental_uris":{"android":"levelo://app?vid=2796e020-fb7e-48d4-ad6e-ca24cf288300","ios":"levelo://app?vid=2796e020-fb7e-48d4-ad6e-ca24cf288300"},"vehicle_type_id":"4","last_reported":1745428163,"current_range_meters":12400,"station_id":"ce4bh612rcd13ifvqe6g","pricing_plan_id":"cebpf4jnsgd1na2vs0mg"},{"bike_id":"c9ccb3cf-bdec-4a1f-a771-0ce0fafc55b9","system_id":"levelo_inurba_marseille","lat":43.2962,"lon":5.37165,"is_reserved":false,"is_disabled":false,"rental_uris":{"android":"levelo://app?vid=c9ccb3cf-bdec-4a1f-a771-0ce0fafc55b9","ios":"levelo://app?vid=c9ccb3cf-bdec-4a1f-a771-0ce0fafc55b9"},"vehicle_type_id":"4","last_reported":1745428163,"current_range_meters":12400,"station_id":"ce4bgnh2rcd13ifvqc0g","pricing_plan_id":"cebpf4jnsgd1na2vs0mg"},{"bike_id":"bc61835e-036d-47cf-a88f-0b3f1879f560","system_id":"levelo_inurba_marseille","lat":43.30789,"lon":5.38159,"is_reserved":false,"is_disabled":false,"rental_uris":{"android":"levelo://app?vid=bc61835e-036d-47cf-a88f-0b3f1879f560","ios":"levelo://app?vid=bc61835e-036d-47cf-a88f-0b3f1879f560"},"vehicle_type_id":"4","last_reported":1745428163,"current_range_meters":12400,"station_id":"ce4bgt12rcd13ifvqce0","pricing_plan_id":"cebpf4jnsgd1na2vs0mg"},{"bike_id":"e761027d-86ee-4b7b-bd52-e9f535f31915","system_id":"levelo_inurba_marseille","lat":43.27175,"lon":5.40998,"is_reserved":false,"is_disabled":false,"rental_uris":{"android":"levelo://app?vid=e761027d-86ee-4b7b-bd52-e9f535f31915","ios":"levelo://app?vid=e761027d-86ee-4b7b-bd52-e9f535f31915"},"vehicle_type_id":"4","last_reported":1745428163,"current_range_meters":12400,"station_id":"ce4bhl12rcd13ifvqgf0","pricing_plan_id":"cebpf4jnsgd1na2vs0mg"},{"bike_id":"89bd3ba9-f704-48d9-bed6-d4b8dc2e0668","system_id":"levelo_inurba_marseille","lat":43.28851,"lon":5.35885,"is_reserved":false,"is_disabled":false,"rental_uris":{"android":"levelo://app?vid=89bd3ba9-f704-48d9-bed6-d4b8dc2e0668","ios":"levelo://app?vid=89bd3ba9-f704-48d9-bed6-d4b8dc2e0668"},"vehicle_type_id":"4","last_reported":1745428163,"current_range_meters":13600,"station_id":"ce4bhb12rcd13ifvqem0","pricing_plan_id":"cebpf4jnsgd1na2vs0mg"},{"bike_id":"33e040e0-30df-455b-8b4d-d96f6cf4bc70","system_id":"levelo_inurba_marseille","lat":43.31713,"lon":5.37742,"is_reserved":false,"is_disabled":false,"rental_uris":{"android":"levelo://app?vid=33e040e0-30df-455b-8b4d-d96f6cf4bc70","ios":"levelo://app?vid=33e040e0-30df-455b-8b4d-d96f6cf4bc70"},"vehicle_type_id":"4","last_reported":1745428163,"current_range_meters":13600,"station_id":"ce4bgth2rcd13ifvqch0","pricing_plan_id":"cebpf4jnsgd1na2vs0mg"},{"bike_id":"ae2607c9-27d0-4814-bc50-d40a7c41d115","system_id":"levelo_inurba_marseille","lat":43.30182,"lon":5.39336,"is_reserved":false,"is_disabled":false,"rental_uris":{"android":"levelo://app?vid=ae2607c9-27d0-4814-bc50-d40a7c41d115","ios":"levelo://app?vid=ae2607c9-27d0-4814-bc50-d40a7c41d115"},"vehicle_type_id":"4","last_reported":1745428163,"current_range_meters":13600,"station_id":"","pricing_plan_id":"cebpf4jnsgd1na2vs0mg"},{"bike_id":"527ab9af-1602-4e3b-a3d5-77f5acec1ebf","system_id":"levelo_inurba_marseille","lat":43.26187,"lon":5.37457,"is_reserved":false,"is_disabled":true,"rental_uris":{"android":"levelo://app?vid=527ab9af-1602-4e3b-a3d5-77f5acec1ebf","ios":"levelo://app?vid=527ab9af-1602-4e3b-a3d5-77f5acec1ebf"},"vehicle_type_id":"4","last_reported":1745428163,"current_range_meters":13600,"station_id":"ce4bhgp2rcd13ifvqfc0","pricing_plan_id":"cebpf4jnsgd1na2vs0mg"},{"bike_id":"9ee08d8e-7acb-4453-9289-a7d64e0d4891","system_id":"levelo_inurba_marseille","lat":43.28415,"lon":5.37516,"is_reserved":false,"is_disabled":false,"rental_uris":{"android":"levelo://app?vid=9ee08d8e-7acb-4453-9289-a7d64e0d4891","ios":"levelo://app?vid=9ee08d8e-7acb-4453-9289-a7d64e0d4891"},"vehicle_type_id":"4","last_reported":1745428163,"current_range_meters":13600,"station_id":"ce4bh412rcd13ifvqds0","pricing_plan_id":"cebpf4jnsgd1na2vs0mg"},{"bike_id":"5c0e3d0d-672f-44d2-80c8-96d026e6039a","system_id":"levelo_inurba_marseille","lat":43.26556,"lon":5.372818,"is_reserved":false,"is_disabled":false,"rental_uris":{"android":"levelo://app?vid=5c0e3d0d-672f-44d2-80c8-96d026e6039a","ios":"levelo://app?vid=5c0e3d0d-672f-44d2-80c8-96d026e6039a"},"vehicle_type_id":"4","last_reported":1745428163,"current_range_meters":14000,"station_id":"","pricing_plan_id":"cebpf4jnsgd1na2vs0mg"},{"bike_id":"469d074b-8234-4326-be23-2db90492d9d2","system_id":"levelo_inurba_marseille","lat":43.28607,"lon":5.3512,"is_reserved":false,"is_disabled":false,"rental_uris":{"android":"levelo://app?vid=469d074b-8234-4326-be23-2db90492d9d2","ios":"levelo://app?vid=469d074b-8234-4326-be23-2db90492d9d2"},"vehicle_type_id":"4","last_reported":1745428163,"current_range_meters":14000,"station_id":"ce4bhch2rcd13ifvqeug","pricing_plan_id":"cebpf4jnsgd1na2vs0mg"},{"bike_id":"2ddb7626-06dc-4abf-976e-19ce121be91c","system_id":"levelo_inurba_marseille","lat":43.31711,"lon":5.37759,"is_reserved":false,"is_disabled":false,"rental_uris":{"android":"levelo://app?vid=2ddb7626-06dc-4abf-976e-19ce121be91c","ios":"levelo://app?vid=2ddb7626-06dc-4abf-976e-19ce121be91c"},"vehicle_type_id":"4","last_reported":1745428163,"current_range_meters":14000,"station_id":"ce4bgth2rcd13ifvqch0","pricing_plan_id":"cebpf4jnsgd1na2vs0mg"},{"bike_id":"57c4ed40-9323-4f81-b44f-130041142d66","system_id":"levelo_inurba_marseille","lat":43.28866,"lon":5.35858,"is_reserved":false,"is_disabled":false,"rental_uris":{"android":"levelo://app?vid=57c4ed40-9323-4f81-b44f-130041142d66","ios":"levelo://app?vid=57c4ed40-9323-4f81-b44f-130041142d66"},"vehicle_type_id":"4","last_reported":1745428163,"current_range_meters":14000,"station_id":"ce4bhb12rcd13ifvqem0","pricing_plan_id":"cebpf4jnsgd1na2vs0mg"},{"bike_id":"97615783-719f-47b5-a321-7323b6f44d71","system_id":"levelo_inurba_marseille","lat":43.29047,"lon":5.38645,"is_reserved":false,"is_disabled":false,"rental_uris":{"android":"levelo://app?vid=97615783-719f-47b5-a321-7323b6f44d71","ios":"levelo://app?vid=97615783-719f-47b5-a321-7323b6f44d71"},"vehicle_type_id":"4","last_reported":1745428163,"current_range_meters":14400,"station_id":"ce4bh4p2rcd13ifvqe0g","pricing_plan_id":"cebpf4jnsgd1na2vs0mg"},{"bike_id":"37b35303-5d8c-4ced-b29f-2dd857f38134","system_id":"levelo_inurba_marseille","lat":43.29541,"lon":5.38568,"is_reserved":false,"is_disabled":false,"rental_uris":{"android":"levelo://app?vid=37b35303-5d8c-4ced-b29f-2dd857f38134","ios":"levelo://app?vid=37b35303-5d8c-4ced-b29f-2dd857f38134"},"vehicle_type_id":"4","last_reported":1745428163,"current_range_meters":14400,"station_id":"ce4bgih2rcd13ifvqba0","pricing_plan_id":"cebpf4jnsgd1na2vs0mg"},{"bike_id":"ffab6142-64b0-44f9-9503-6954087d76af","system_id":"levelo_inurba_marseille","lat":43.29255,"lon":5.40909,"is_reserved":false,"is_disabled":false,"rental_uris":{"android":"levelo://app?vid=ffab6142-64b0-44f9-9503-6954087d76af","ios":"levelo://app?vid=ffab6142-64b0-44f9-9503-6954087d76af"},"vehicle_type_id":"4","last_reported":1745428163,"current_range_meters":14000,"station_id":"ce4bh192rcd13ifvqdc0","pricing_plan_id":"cebpf4jnsgd1na2vs0mg"},{"bike_id":"358634ea-3251-4107-886f-95ee872a57a7","system_id":"levelo_inurba_marseille","lat":43.24692,"lon":5.3814,"is_reserved":false,"is_disabled":false,"rental_uris":{"android":"levelo://app?vid=358634ea-3251-4107-886f-95ee872a57a7","ios":"levelo://app?vid=358634ea-3251-4107-886f-95ee872a57a7"},"vehicle_type_id":"4","last_reported":1745428163,"current_range_meters":14400,"station_id":"ce4bhih2rcd13ifvqfr0","pricing_plan_id":"cebpf4jnsgd1na2vs0mg"},{"bike_id":"3c809e62-f408-47e2-985a-9b30e85624db","system_id":"levelo_inurba_marseille","lat":43.29266,"lon":5.37623,"is_reserved":false,"is_disabled":false,"rental_uris":{"android":"levelo://app?vid=3c809e62-f408-47e2-985a-9b30e85624db","ios":"levelo://app?vid=3c809e62-f408-47e2-985a-9b30e85624db"},"vehicle_type_id":"4","last_reported":1745428163,"current_range_meters":14800,"station_id":"ce4bgi12rcd13ifvqb80","pricing_plan_id":"cebpf4jnsgd1na2vs0mg"},{"bike_id":"d30abb48-2889-43ff-b4e8-cab592d0c072","system_id":"levelo_inurba_marseille","lat":43.28606,"lon":5.35131,"is_reserved":false,"is_disabled":false,"rental_uris":{"android":"levelo://app?vid=d30abb48-2889-43ff-b4e8-cab592d0c072","ios":"levelo://app?vid=d30abb48-2889-43ff-b4e8-cab592d0c072"},"vehicle_type_id":"4","last_reported":1745428163,"current_range_meters":14800,"station_id":"ce4bhch2rcd13ifvqeug","pricing_plan_id":"cebpf4jnsgd1na2vs0mg"},{"bike_id":"aebfb5ae-bf07-4ae3-9b08-2434047d6949","system_id":"levelo_inurba_marseille","lat":43.2979,"lon":5.37655,"is_reserved":false,"is_disabled":false,"rental_uris":{"android":"levelo://app?vid=aebfb5ae-bf07-4ae3-9b08-2434047d6949","ios":"levelo://app?vid=aebfb5ae-bf07-4ae3-9b08-2434047d6949"},"vehicle_type_id":"4","last_reported":1745428163,"current_range_meters":14800,"station_id":"","pricing_plan_id":"cebpf4jnsgd1na2vs0mg"},{"bike_id":"37d23316-e530-4790-ba00-fca33161d4b9","system_id":"levelo_inurba_marseille","lat":43.302,"lon":5.36635,"is_reserved":false,"is_disabled":false,"rental_uris":{"android":"levelo://app?vid=37d23316-e530-4790-ba00-fca33161d4b9","ios":"levelo://app?vid=37d23316-e530-4790-ba00-fca33161d4b9"},"vehicle_type_id":"4","last_reported":1745428163,"current_range_meters":14800,"station_id":"ce4bgrh2rcd13ifvqc8g","pricing_plan_id":"cebpf4jnsgd1na2vs0mg"},{"bike_id":"a92e41fe-6c3a-4791-9ade-679105edaf4a","system_id":"levelo_inurba_marseille","lat":43.31078,"lon":5.38364,"is_reserved":false,"is_disabled":false,"rental_uris":{"android":"levelo://app?vid=a92e41fe-6c3a-4791-9ade-679105edaf4a","ios":"levelo://app?vid=a92e41fe-6c3a-4791-9ade-679105edaf4a"},"vehicle_type_id":"4","last_reported":1745428163,"current_range_meters":14800,"station_id":"ce4bgv92rcd13ifvqcr0","pricing_plan_id":"cebpf4jnsgd1na2vs0mg"},{"bike_id":"46374c49-3adc-4c5a-8966-e00f056c0d57","system_id":"levelo_inurba_marseille","lat":43.27846,"lon":5.35442,"is_reserved":false,"is_disabled":false,"rental_uris":{"android":"levelo://app?vid=46374c49-3adc-4c5a-8966-e00f056c0d57","ios":"levelo://app?vid=46374c49-3adc-4c5a-8966-e00f056c0d57"},"vehicle_type_id":"4","last_reported":1745428163,"current_range_meters":15200,"station_id":"","pricing_plan_id":"cebpf4jnsgd1na2vs0mg"},{"bike_id":"aeef9cf4-303b-4764-ae8e-93b09a580e14","system_id":"levelo_inurba_marseille","lat":43.33604,"lon":5.41036,"is_reserved":false,"is_disabled":false,"rental_uris":{"android":"levelo://app?vid=aeef9cf4-303b-4764-ae8e-93b09a580e14","ios":"levelo://app?vid=aeef9cf4-303b-4764-ae8e-93b09a580e14"},"vehicle_type_id":"4","last_reported":1745428163,"current_range_meters":15200,"station_id":"ce4bhqh2rcd13ifvqhmg","pricing_plan_id":"cebpf4jnsgd1na2vs0mg"},{"bike_id":"446e8f43-51b3-42cb-a124-b890b880a090","system_id":"levelo_inurba_marseille","lat":43.281547,"lon":5.426394,"is_reserved":false,"is_disabled":false,"rental_uris":{"android":"levelo://app?vid=446e8f43-51b3-42cb-a124-b890b880a090","ios":"levelo://app?vid=446e8f43-51b3-42cb-a124-b890b880a090"},"vehicle_type_id":"4","last_reported":1745428163,"current_range_meters":15200,"station_id":"ce4bhnh2rcd13ifvqgug","pricing_plan_id":"cebpf4jnsgd1na2vs0mg"},{"bike_id":"30e08c8c-a2b6-45d6-9704-9460af4f4d07","system_id":"levelo_inurba_marseille","lat":43.31078,"lon":5.42429,"is_reserved":false,"is_disabled":false,"rental_uris":{"android":"levelo://app?vid=30e08c8c-a2b6-45d6-9704-9460af4f4d07","ios":"levelo://app?vid=30e08c8c-a2b6-45d6-9704-9460af4f4d07"},"vehicle_type_id":"4","last_reported":1745428163,"current_range_meters":15200,"station_id":"ce4bhp92rcd13ifvqhag","pricing_plan_id":"cebpf4jnsgd1na2vs0mg"},{"bike_id":"f31bee90-1c13-4189-9679-0326782d9854","system_id":"levelo_inurba_marseille","lat":43.31756,"lon":5.39015,"is_reserved":false,"is_disabled":false,"rental_uris":{"android":"levelo://app?vid=f31bee90-1c13-4189-9679-0326782d9854","ios":"levelo://app?vid=f31bee90-1c13-4189-9679-0326782d9854"},"vehicle_type_id":"4","last_reported":1745428163,"current_range_meters":16000,"station_id":"ce4bhqp2rcd13ifvqhng","pricing_plan_id":"cebpf4jnsgd1na2vs0mg"},{"bike_id":"162104c9-c9c3-41e8-9022-0f16a6a968c6","system_id":"levelo_inurba_marseille","lat":43.33007,"lon":5.39052,"is_reserved":false,"is_disabled":false,"rental_uris":{"android":"levelo://app?vid=162104c9-c9c3-41e8-9022-0f16a6a968c6","ios":"levelo://app?vid=162104c9-c9c3-41e8-9022-0f16a6a968c6"},"vehicle_type_id":"4","last_reported":1745428163,"current_range_meters":16000,"station_id":"ce4bhr92rcd13ifvqhrg","pricing_plan_id":"cebpf4jnsgd1na2vs0mg"},{"bike_id":"11ce02ec-5de1-4d28-b35b-b9d2498a4135","system_id":"levelo_inurba_marseille","lat":43.23077,"lon":5.35525,"is_reserved":false,"is_disabled":false,"rental_uris":{"android":"levelo://app?vid=11ce02ec-5de1-4d28-b35b-b9d2498a4135","ios":"levelo://app?vid=11ce02ec-5de1-4d28-b35b-b9d2498a4135"},"vehicle_type_id":"4","last_reported":1745428163,"current_range_meters":16000,"station_id":"cpo3342slgdg3j2ifvpg","pricing_plan_id":"cebpf4jnsgd1na2vs0mg"},{"bike_id":"0036d791-14e2-4147-8fda-3c9435197e50","system_id":"levelo_inurba_marseille","lat":43.28732,"lon":5.36108,"is_reserved":false,"is_disabled":false,"rental_uris":{"android":"levelo://app?vid=0036d791-14e2-4147-8fda-3c9435197e50","ios":"levelo://app?vid=0036d791-14e2-4147-8fda-3c9435197e50"},"vehicle_type_id":"4","last_reported":1745428163,"current_range_meters":16000,"station_id":"cki0cbj6b192h4jlfktg","pricing_plan_id":"cebpf4jnsgd1na2vs0mg"},{"bike_id":"58cb3674-6754-492c-a7de-3ce3917afbe0","system_id":"levelo_inurba_marseille","lat":43.29962,"lon":5.41317,"is_reserved":false,"is_disabled":false,"rental_uris":{"android":"levelo://app?vid=58cb3674-6754-492c-a7de-3ce3917afbe0","ios":"levelo://app?vid=58cb3674-6754-492c-a7de-3ce3917afbe0"},"vehicle_type_id":"4","last_reported":1745428163,"current_range_meters":16000,"station_id":"ce4bhp12rcd13ifvqh9g","pricing_plan_id":"cebpf4jnsgd1na2vs0mg"},{"bike_id":"d49f3938-90a1-4482-aef8-0e40c24b5bcd","system_id":"levelo_inurba_marseille","lat":43.3189,"lon":5.40732,"is_reserved":false,"is_disabled":false,"rental_uris":{"android":"levelo://app?vid=d49f3938-90a1-4482-aef8-0e40c24b5bcd","ios":"levelo://app?vid=d49f3938-90a1-4482-aef8-0e40c24b5bcd"},"vehicle_type_id":"4","last_reported":1745428163,"current_range_meters":16000,"station_id":"ce4bhq12rcd13ifvqhig","pricing_plan_id":"cebpf4jnsgd1na2vs0mg"},{"bike_id":"0cc64a17-6499-4c13-9af4-3f227b287cec","system_id":"levelo_inurba_marseille","lat":43.311152,"lon":5.377656,"is_reserved":false,"is_disabled":false,"rental_uris":{"android":"levelo://app?vid=0cc64a17-6499-4c13-9af4-3f227b287cec","ios":"levelo://app?vid=0cc64a17-6499-4c13-9af4-3f227b287cec"},"vehicle_type_id":"4","last_reported":1745428163,"current_range_meters":16000,"station_id":"ce4bgt92rcd13ifvqcg0","pricing_plan_id":"cebpf4jnsgd1na2vs0mg"},{"bike_id":"eaedb804-0e7c-4c63-a1b3-fcbc9ec36df3","system_id":"levelo_inurba_marseille","lat":43.28693,"lon":5.37392,"is_reserved":false,"is_disabled":false,"rental_uris":{"android":"levelo://app?vid=eaedb804-0e7c-4c63-a1b3-fcbc9ec36df3","ios":"levelo://app?vid=eaedb804-0e7c-4c63-a1b3-fcbc9ec36df3"},"vehicle_type_id":"4","last_reported":1745428163,"current_range_meters":16400,"station_id":"ce4bh3p2rcd13ifvqdq0","pricing_plan_id":"cebpf4jnsgd1na2vs0mg"},{"bike_id":"cba2ae11-3413-4e6c-b08f-155bac2c82da","system_id":"levelo_inurba_marseille","lat":43.28612,"lon":5.35125,"is_reserved":false,"is_disabled":false,"rental_uris":{"android":"levelo://app?vid=cba2ae11-3413-4e6c-b08f-155bac2c82da","ios":"levelo://app?vid=cba2ae11-3413-4e6c-b08f-155bac2c82da"},"vehicle_type_id":"4","last_reported":1745428163,"current_range_meters":16400,"station_id":"ce4bhch2rcd13ifvqeug","pricing_plan_id":"cebpf4jnsgd1na2vs0mg"},{"bike_id":"29c27f6c-b172-4d99-add3-c74bdfc6be20","system_id":"levelo_inurba_marseille","lat":43.33032,"lon":5.39064,"is_reserved":false,"is_disabled":false,"rental_uris":{"android":"levelo://app?vid=29c27f6c-b172-4d99-add3-c74bdfc6be20","ios":"levelo://app?vid=29c27f6c-b172-4d99-add3-c74bdfc6be20"},"vehicle_type_id":"4","last_reported":1745428163,"current_range_meters":16800,"station_id":"ce4bhr92rcd13ifvqhrg","pricing_plan_id":"cebpf4jnsgd1na2vs0mg"},{"bike_id":"fbf1128d-6697-492f-b7ad-4c5ceecc57b7","system_id":"levelo_inurba_marseille","lat":43.28466,"lon":5.38432,"is_reserved":false,"is_disabled":false,"rental_uris":{"android":"levelo://app?vid=fbf1128d-6697-492f-b7ad-4c5ceecc57b7","ios":"levelo://app?vid=fbf1128d-6697-492f-b7ad-4c5ceecc57b7"},"vehicle_type_id":"4","last_reported":1745428163,"current_range_meters":16800,"station_id":"ce4bh512rcd13ifvqe3g","pricing_plan_id":"cebpf4jnsgd1na2vs0mg"},{"bike_id":"7d2633a5-2cb0-46eb-8c00-357bd5fadfef","system_id":"levelo_inurba_marseille","lat":43.25492,"lon":5.37668,"is_reserved":false,"is_disabled":true,"rental_uris":{"android":"levelo://app?vid=7d2633a5-2cb0-46eb-8c00-357bd5fadfef","ios":"levelo://app?vid=7d2633a5-2cb0-46eb-8c00-357bd5fadfef"},"vehicle_type_id":"4","last_reported":1745428163,"current_range_meters":16800,"station_id":"ce4bhh12rcd13ifvqff0","pricing_plan_id":"cebpf4jnsgd1na2vs0mg"},{"bike_id":"415b2609-c0ae-472a-aa20-d8c246fb2a5e","system_id":"levelo_inurba_marseille","lat":43.31707,"lon":5.37745,"is_reserved":false,"is_disabled":false,"rental_uris":{"android":"levelo://app?vid=415b2609-c0ae-472a-aa20-d8c246fb2a5e","ios":"levelo://app?vid=415b2609-c0ae-472a-aa20-d8c246fb2a5e"},"vehicle_type_id":"4","last_reported":1745428163,"current_range_meters":16800,"station_id":"ce4bgth2rcd13ifvqch0","pricing_plan_id":"cebpf4jnsgd1na2vs0mg"},{"bike_id":"755abc1a-f797-479c-8e88-5f59f436c9d9","system_id":"levelo_inurba_marseille","lat":43.23969,"lon":5.3664,"is_reserved":false,"is_disabled":true,"rental_uris":{"android":"levelo://app?vid=755abc1a-f797-479c-8e88-5f59f436c9d9","ios":"levelo://app?vid=755abc1a-f797-479c-8e88-5f59f436c9d9"},"vehicle_type_id":"4","last_reported":1745428163,"current_range_meters":16800,"station_id":"ce4bhi12rcd13ifvqfp0","pricing_plan_id":"cebpf4jnsgd1na2vs0mg"},{"bike_id":"3a202545-87fb-4359-93b0-ad562316a278","system_id":"levelo_inurba_marseille","lat":43.292,"lon":5.39326,"is_reserved":false,"is_disabled":false,"rental_uris":{"android":"levelo://app?vid=3a202545-87fb-4359-93b0-ad562316a278","ios":"levelo://app?vid=3a202545-87fb-4359-93b0-ad562316a278"},"vehicle_type_id":"4","last_reported":1745428163,"current_range_meters":17200,"station_id":"ce4bh192rcd13ifvqdd0","pricing_plan_id":"cebpf4jnsgd1na2vs0mg"},{"bike_id":"a54cb894-0880-437f-92a9-8b3c5f7451fa","system_id":"levelo_inurba_marseille","lat":43.31721,"lon":5.43715,"is_reserved":false,"is_disabled":false,"rental_uris":{"android":"levelo://app?vid=a54cb894-0880-437f-92a9-8b3c5f7451fa","ios":"levelo://app?vid=a54cb894-0880-437f-92a9-8b3c5f7451fa"},"vehicle_type_id":"4","last_reported":1745428163,"current_range_meters":16800,"station_id":"ce4bhp92rcd13ifvqhcg","pricing_plan_id":"cebpf4jnsgd1na2vs0mg"},{"bike_id":"7c3f6f1c-c667-496c-89b0-c066f96c7931","system_id":"levelo_inurba_marseille","lat":43.28422,"lon":5.34998,"is_reserved":false,"is_disabled":false,"rental_uris":{"android":"levelo://app?vid=7c3f6f1c-c667-496c-89b0-c066f96c7931","ios":"levelo://app?vid=7c3f6f1c-c667-496c-89b0-c066f96c7931"},"vehicle_type_id":"4","last_reported":1745428163,"current_range_meters":17200,"station_id":"ce4bhbh2rcd13ifvqepg","pricing_plan_id":"cebpf4jnsgd1na2vs0mg"},{"bike_id":"4d254271-a537-418a-9fac-f4d9f50ddd73","system_id":"levelo_inurba_marseille","lat":43.27972,"lon":5.38755,"is_reserved":false,"is_disabled":false,"rental_uris":{"android":"levelo://app?vid=4d254271-a537-418a-9fac-f4d9f50ddd73","ios":"levelo://app?vid=4d254271-a537-418a-9fac-f4d9f50ddd73"},"vehicle_type_id":"4","last_reported":1745428163,"current_range_meters":17200,"station_id":"ce4bhg12rcd13ifvqf80","pricing_plan_id":"cebpf4jnsgd1na2vs0mg"},{"bike_id":"ee354981-1331-4223-a45e-4b1b7261b1e3","system_id":"levelo_inurba_marseille","lat":43.33414,"lon":5.40056,"is_reserved":false,"is_disabled":false,"rental_uris":{"android":"levelo://app?vid=ee354981-1331-4223-a45e-4b1b7261b1e3","ios":"levelo://app?vid=ee354981-1331-4223-a45e-4b1b7261b1e3"},"vehicle_type_id":"4","last_reported":1745428163,"current_range_meters":17200,"station_id":"","pricing_plan_id":"cebpf4jnsgd1na2vs0mg"},{"bike_id":"62a25eca-0859-46e7-b4a6-52d1221845fc","system_id":"levelo_inurba_marseille","lat":43.28263,"lon":5.35081,"is_reserved":false,"is_disabled":false,"rental_uris":{"android":"levelo://app?vid=62a25eca-0859-46e7-b4a6-52d1221845fc","ios":"levelo://app?vid=62a25eca-0859-46e7-b4a6-52d1221845fc"},"vehicle_type_id":"4","last_reported":1745428163,"current_range_meters":17200,"station_id":"ce4bhbp2rcd13ifvqerg","pricing_plan_id":"cebpf4jnsgd1na2vs0mg"},{"bike_id":"7489a429-3def-4314-b2fd-69eb5685941d","system_id":"levelo_inurba_marseille","lat":43.29887,"lon":5.36853,"is_reserved":false,"is_disabled":false,"rental_uris":{"android":"levelo://app?vid=7489a429-3def-4314-b2fd-69eb5685941d","ios":"levelo://app?vid=7489a429-3def-4314-b2fd-69eb5685941d"},"vehicle_type_id":"4","last_reported":1745428163,"current_range_meters":17200,"station_id":"","pricing_plan_id":"cebpf4jnsgd1na2vs0mg"},{"bike_id":"8dff3327-c704-4870-8401-73b9c1029785","system_id":"levelo_inurba_marseille","lat":43.25872,"lon":5.39929,"is_reserved":false,"is_disabled":true,"rental_uris":{"android":"levelo://app?vid=8dff3327-c704-4870-8401-73b9c1029785","ios":"levelo://app?vid=8dff3327-c704-4870-8401-73b9c1029785"},"vehicle_type_id":"4","last_reported":1745428163,"current_range_meters":17600,"station_id":"ce4bhl92rcd13ifvqghg","pricing_plan_id":"cebpf4jnsgd1na2vs0mg"},{"bike_id":"d14bbe39-3680-4a1c-a115-359332b42826","system_id":"levelo_inurba_marseille","lat":43.29035,"lon":5.38623,"is_reserved":false,"is_disabled":false,"rental_uris":{"android":"levelo://app?vid=d14bbe39-3680-4a1c-a115-359332b42826","ios":"levelo://app?vid=d14bbe39-3680-4a1c-a115-359332b42826"},"vehicle_type_id":"4","last_reported":1745428163,"current_range_meters":17600,"station_id":"ce4bh4p2rcd13ifvqe0g","pricing_plan_id":"cebpf4jnsgd1na2vs0mg"},{"bike_id":"094e7cad-3c45-4db5-84d9-10a74c782100","system_id":"levelo_inurba_marseille","lat":43.32366,"lon":5.3761,"is_reserved":false,"is_disabled":false,"rental_uris":{"android":"levelo://app?vid=094e7cad-3c45-4db5-84d9-10a74c782100","ios":"levelo://app?vid=094e7cad-3c45-4db5-84d9-10a74c782100"},"vehicle_type_id":"4","last_reported":1745428163,"current_range_meters":17600,"station_id":"","pricing_plan_id":"cebpf4jnsgd1na2vs0mg"},{"bike_id":"37c73af9-ec95-460b-a8f7-009e1e99972e","system_id":"levelo_inurba_marseille","lat":43.2558,"lon":5.38232,"is_reserved":false,"is_disabled":false,"rental_uris":{"android":"levelo://app?vid=37c73af9-ec95-460b-a8f7-009e1e99972e","ios":"levelo://app?vid=37c73af9-ec95-460b-a8f7-009e1e99972e"},"vehicle_type_id":"4","last_reported":1745428163,"current_range_meters":17600,"station_id":"ce4bhih2rcd13ifvqfs0","pricing_plan_id":"cebpf4jnsgd1na2vs0mg"},{"bike_id":"8ab2ed8d-364c-4252-a36f-2dad9a4f2a15","system_id":"levelo_inurba_marseille","lat":43.23967,"lon":5.36636,"is_reserved":false,"is_disabled":false,"rental_uris":{"android":"levelo://app?vid=8ab2ed8d-364c-4252-a36f-2dad9a4f2a15","ios":"levelo://app?vid=8ab2ed8d-364c-4252-a36f-2dad9a4f2a15"},"vehicle_type_id":"4","last_reported":1745428163,"current_range_meters":17600,"station_id":"ce4bhi12rcd13ifvqfp0","pricing_plan_id":"cebpf4jnsgd1na2vs0mg"},{"bike_id":"cc8cd6c1-fc86-43c6-b9fa-88ecc643a862","system_id":"levelo_inurba_marseille","lat":43.27942,"lon":5.4105,"is_reserved":false,"is_disabled":false,"rental_uris":{"android":"levelo://app?vid=cc8cd6c1-fc86-43c6-b9fa-88ecc643a862","ios":"levelo://app?vid=cc8cd6c1-fc86-43c6-b9fa-88ecc643a862"},"vehicle_type_id":"4","last_reported":1745428163,"current_range_meters":17600,"station_id":"ce4bhnp2rcd13ifvqh0g","pricing_plan_id":"cebpf4jnsgd1na2vs0mg"},{"bike_id":"fa8a552a-d2d3-4e8d-8d8e-02bdba037836","system_id":"levelo_inurba_marseille","lat":43.23068,"lon":5.3549,"is_reserved":false,"is_disabled":false,"rental_uris":{"android":"levelo://app?vid=fa8a552a-d2d3-4e8d-8d8e-02bdba037836","ios":"levelo://app?vid=fa8a552a-d2d3-4e8d-8d8e-02bdba037836"},"vehicle_type_id":"4","last_reported":1745428163,"current_range_meters":17600,"station_id":"cpo3342slgdg3j2ifvpg","pricing_plan_id":"cebpf4jnsgd1na2vs0mg"},{"bike_id":"8f6644e0-2b2b-4dd8-bfe9-b1a9b5eaaed5","system_id":"levelo_inurba_marseille","lat":43.28591,"lon":5.37072,"is_reserved":false,"is_disabled":false,"rental_uris":{"android":"levelo://app?vid=8f6644e0-2b2b-4dd8-bfe9-b1a9b5eaaed5","ios":"levelo://app?vid=8f6644e0-2b2b-4dd8-bfe9-b1a9b5eaaed5"},"vehicle_type_id":"4","last_reported":1745428163,"current_range_meters":17600,"station_id":"ce4bht12rcd13ifvqi60","pricing_plan_id":"cebpf4jnsgd1na2vs0mg"},{"bike_id":"f5701052-e589-4724-a953-94accf6600cc","system_id":"levelo_inurba_marseille","lat":43.28425,"lon":5.37539,"is_reserved":false,"is_disabled":false,"rental_uris":{"android":"levelo://app?vid=f5701052-e589-4724-a953-94accf6600cc","ios":"levelo://app?vid=f5701052-e589-4724-a953-94accf6600cc"},"vehicle_type_id":"4","last_reported":1745428163,"current_range_meters":18000,"station_id":"ce4bh412rcd13ifvqds0","pricing_plan_id":"cebpf4jnsgd1na2vs0mg"},{"bike_id":"f9b2337b-8625-4c1b-8df1-074fcd154835","system_id":"levelo_inurba_marseille","lat":43.24079,"lon":5.37759,"is_reserved":false,"is_disabled":false,"rental_uris":{"android":"levelo://app?vid=f9b2337b-8625-4c1b-8df1-074fcd154835","ios":"levelo://app?vid=f9b2337b-8625-4c1b-8df1-074fcd154835"},"vehicle_type_id":"4","last_reported":1745428163,"current_range_meters":18000,"station_id":"ce4bhnp2rcd13ifvqgvg","pricing_plan_id":"cebpf4jnsgd1na2vs0mg"},{"bike_id":"b217c7a4-92b6-4872-91fa-f2c2827250cc","system_id":"levelo_inurba_marseille","lat":43.28855,"lon":5.39239,"is_reserved":false,"is_disabled":false,"rental_uris":{"android":"levelo://app?vid=b217c7a4-92b6-4872-91fa-f2c2827250cc","ios":"levelo://app?vid=b217c7a4-92b6-4872-91fa-f2c2827250cc"},"vehicle_type_id":"4","last_reported":1745428163,"current_range_meters":18000,"station_id":"","pricing_plan_id":"cebpf4jnsgd1na2vs0mg"},{"bike_id":"92436a68-11ab-49ab-8128-76f9b3e750cf","system_id":"levelo_inurba_marseille","lat":43.24803,"lon":5.37458,"is_reserved":false,"is_disabled":false,"rental_uris":{"android":"levelo://app?vid=92436a68-11ab-49ab-8128-76f9b3e750cf","ios":"levelo://app?vid=92436a68-11ab-49ab-8128-76f9b3e750cf"},"vehicle_type_id":"4","last_reported":1745428163,"current_range_meters":18000,"station_id":"ce4bhgh2rcd13ifvqfb0","pricing_plan_id":"cebpf4jnsgd1na2vs0mg"},{"bike_id":"a23fc630-fba5-420d-a54f-7e7eb6cc4798","system_id":"levelo_inurba_marseille","lat":43.28459,"lon":5.35874,"is_reserved":false,"is_disabled":false,"rental_uris":{"android":"levelo://app?vid=a23fc630-fba5-420d-a54f-7e7eb6cc4798","ios":"levelo://app?vid=a23fc630-fba5-420d-a54f-7e7eb6cc4798"},"vehicle_type_id":"4","last_reported":1745428163,"current_range_meters":18000,"station_id":"ce4bhah2rcd13ifvqei0","pricing_plan_id":"cebpf4jnsgd1na2vs0mg"},{"bike_id":"8ccd286b-7f5c-4ced-999e-3572daa686a3","system_id":"levelo_inurba_marseille","lat":43.29906,"lon":5.43668,"is_reserved":false,"is_disabled":false,"rental_uris":{"android":"levelo://app?vid=8ccd286b-7f5c-4ced-999e-3572daa686a3","ios":"levelo://app?vid=8ccd286b-7f5c-4ced-999e-3572daa686a3"},"vehicle_type_id":"4","last_reported":1745428163,"current_range_meters":18800,"station_id":"ce4bhpp2rcd13ifvqhfg","pricing_plan_id":"cebpf4jnsgd1na2vs0mg"},{"bike_id":"47c28173-9994-4cfe-a290-df0c87408a03","system_id":"levelo_inurba_marseille","lat":43.23188,"lon":5.39981,"is_reserved":false,"is_disabled":false,"rental_uris":{"android":"levelo://app?vid=47c28173-9994-4cfe-a290-df0c87408a03","ios":"levelo://app?vid=47c28173-9994-4cfe-a290-df0c87408a03"},"vehicle_type_id":"4","last_reported":1745428163,"current_range_meters":18800,"station_id":"ce4bhn12rcd13ifvqgqg","pricing_plan_id":"cebpf4jnsgd1na2vs0mg"},{"bike_id":"f77ff247-dda1-4996-9576-8d16c2dd9342","system_id":"levelo_inurba_marseille","lat":43.28937,"lon":5.36641,"is_reserved":false,"is_disabled":false,"rental_uris":{"android":"levelo://app?vid=f77ff247-dda1-4996-9576-8d16c2dd9342","ios":"levelo://app?vid=f77ff247-dda1-4996-9576-8d16c2dd9342"},"vehicle_type_id":"4","last_reported":1745428163,"current_range_meters":18800,"station_id":"ce4bhap2rcd13ifvqek0","pricing_plan_id":"cebpf4jnsgd1na2vs0mg"},{"bike_id":"1fab36c5-10cf-47b9-9b50-b9723495d2b3","system_id":"levelo_inurba_marseille","lat":43.31754,"lon":5.3902,"is_reserved":false,"is_disabled":false,"rental_uris":{"android":"levelo://app?vid=1fab36c5-10cf-47b9-9b50-b9723495d2b3","ios":"levelo://app?vid=1fab36c5-10cf-47b9-9b50-b9723495d2b3"},"vehicle_type_id":"4","last_reported":1745428163,"current_range_meters":18800,"station_id":"ce4bhqp2rcd13ifvqhng","pricing_plan_id":"cebpf4jnsgd1na2vs0mg"},{"bike_id":"4f68919f-000c-4a19-8495-0f5b6db98860","system_id":"levelo_inurba_marseille","lat":43.24657,"lon":5.38159,"is_reserved":false,"is_disabled":false,"rental_uris":{"android":"levelo://app?vid=4f68919f-000c-4a19-8495-0f5b6db98860","ios":"levelo://app?vid=4f68919f-000c-4a19-8495-0f5b6db98860"},"vehicle_type_id":"4","last_reported":1745428163,"current_range_meters":19200,"station_id":"ce4bhih2rcd13ifvqfr0","pricing_plan_id":"cebpf4jnsgd1na2vs0mg"},{"bike_id":"befab4b7-1b10-42d2-8c8f-c43e1f788367","system_id":"levelo_inurba_marseille","lat":43.31274,"lon":5.40177,"is_reserved":false,"is_disabled":false,"rental_uris":{"android":"levelo://app?vid=befab4b7-1b10-42d2-8c8f-c43e1f788367","ios":"levelo://app?vid=befab4b7-1b10-42d2-8c8f-c43e1f788367"},"vehicle_type_id":"4","last_reported":1745428163,"current_range_meters":19200,"station_id":"ce4bh092rcd13ifvqd30","pricing_plan_id":"cebpf4jnsgd1na2vs0mg"},{"bike_id":"ab660249-0742-4ee6-9f3c-cbf7eabd0145","system_id":"levelo_inurba_marseille","lat":43.28618,"lon":5.37077,"is_reserved":false,"is_disabled":false,"rental_uris":{"android":"levelo://app?vid=ab660249-0742-4ee6-9f3c-cbf7eabd0145","ios":"levelo://app?vid=ab660249-0742-4ee6-9f3c-cbf7eabd0145"},"vehicle_type_id":"4","last_reported":1745428163,"current_range_meters":19200,"station_id":"ce4bht12rcd13ifvqi60","pricing_plan_id":"cebpf4jnsgd1na2vs0mg"},{"bike_id":"91253bf4-28be-43fd-a6b5-9e5107287967","system_id":"levelo_inurba_marseille","lat":43.29419,"lon":5.38631,"is_reserved":false,"is_disabled":false,"rental_uris":{"android":"levelo://app?vid=91253bf4-28be-43fd-a6b5-9e5107287967","ios":"levelo://app?vid=91253bf4-28be-43fd-a6b5-9e5107287967"},"vehicle_type_id":"4","last_reported":1745428163,"current_range_meters":19200,"station_id":"ce4bh2h2rcd13ifvqdh0","pricing_plan_id":"cebpf4jnsgd1na2vs0mg"},{"bike_id":"6d51da42-143e-4c42-8c35-29bec0272d31","system_id":"levelo_inurba_marseille","lat":43.28001,"lon":5.40019,"is_reserved":false,"is_disabled":false,"rental_uris":{"android":"levelo://app?vid=6d51da42-143e-4c42-8c35-29bec0272d31","ios":"levelo://app?vid=6d51da42-143e-4c42-8c35-29bec0272d31"},"vehicle_type_id":"4","last_reported":1745428163,"current_range_meters":19200,"station_id":"ce4bho92rcd13ifvqh4g","pricing_plan_id":"cebpf4jnsgd1na2vs0mg"},{"bike_id":"334c6f92-13fa-4dea-9481-687f7c46de84","system_id":"levelo_inurba_marseille","lat":43.32665,"lon":5.36711,"is_reserved":false,"is_disabled":false,"rental_uris":{"android":"levelo://app?vid=334c6f92-13fa-4dea-9481-687f7c46de84","ios":"levelo://app?vid=334c6f92-13fa-4dea-9481-687f7c46de84"},"vehicle_type_id":"4","last_reported":1745428163,"current_range_meters":19200,"station_id":"ce4bhhh2rcd13ifvqfk0","pricing_plan_id":"cebpf4jnsgd1na2vs0mg"},{"bike_id":"b9ab971b-48e9-415a-bfac-c8c4c0adc9e9","system_id":"levelo_inurba_marseille","lat":43.24806,"lon":5.37454,"is_reserved":false,"is_disabled":false,"rental_uris":{"android":"levelo://app?vid=b9ab971b-48e9-415a-bfac-c8c4c0adc9e9","ios":"levelo://app?vid=b9ab971b-48e9-415a-bfac-c8c4c0adc9e9"},"vehicle_type_id":"4","last_reported":1745428163,"current_range_meters":19200,"station_id":"ce4bhgh2rcd13ifvqfb0","pricing_plan_id":"cebpf4jnsgd1na2vs0mg"},{"bike_id":"6fa93a30-9477-472b-911d-f334fbcc0d65","system_id":"levelo_inurba_marseille","lat":43.30153,"lon":5.38777,"is_reserved":false,"is_disabled":true,"rental_uris":{"android":"levelo://app?vid=6fa93a30-9477-472b-911d-f334fbcc0d65","ios":"levelo://app?vid=6fa93a30-9477-472b-911d-f334fbcc0d65"},"vehicle_type_id":"4","last_reported":1745428163,"current_range_meters":19200,"station_id":"ce4bghh2rcd13ifvqb60","pricing_plan_id":"cebpf4jnsgd1na2vs0mg"},{"bike_id":"5ad047a9-eb2f-4006-9e14-52687e44fd72","system_id":"levelo_inurba_marseille","lat":43.24801,"lon":5.37453,"is_reserved":false,"is_disabled":false,"rental_uris":{"android":"levelo://app?vid=5ad047a9-eb2f-4006-9e14-52687e44fd72","ios":"levelo://app?vid=5ad047a9-eb2f-4006-9e14-52687e44fd72"},"vehicle_type_id":"4","last_reported":1745428163,"current_range_meters":19200,"station_id":"ce4bhgh2rcd13ifvqfb0","pricing_plan_id":"cebpf4jnsgd1na2vs0mg"},{"bike_id":"65c1ab97-e609-42c0-8df5-7099afd3d45c","system_id":"levelo_inurba_marseille","lat":43.26034,"lon":5.37555,"is_reserved":false,"is_disabled":false,"rental_uris":{"android":"levelo://app?vid=65c1ab97-e609-42c0-8df5-7099afd3d45c","ios":"levelo://app?vid=65c1ab97-e609-42c0-8df5-7099afd3d45c"},"vehicle_type_id":"4","last_reported":1745428163,"current_range_meters":19200,"station_id":"ce4bhgh2rcd13ifvqfa0","pricing_plan_id":"cebpf4jnsgd1na2vs0mg"},{"bike_id":"d69b4840-a48c-46aa-8de4-1073f19f4178","system_id":"levelo_inurba_marseille","lat":43.28277,"lon":5.35072,"is_reserved":false,"is_disabled":true,"rental_uris":{"android":"levelo://app?vid=d69b4840-a48c-46aa-8de4-1073f19f4178","ios":"levelo://app?vid=d69b4840-a48c-46aa-8de4-1073f19f4178"},"vehicle_type_id":"4","last_reported":1745428163,"current_range_meters":19200,"station_id":"ce4bhbp2rcd13ifvqerg","pricing_plan_id":"cebpf4jnsgd1na2vs0mg"},{"bike_id":"e2b13041-1dec-4ad6-891d-4995309c5068","system_id":"levelo_inurba_marseille","lat":43.31693,"lon":5.40478,"is_reserved":false,"is_disabled":false,"rental_uris":{"android":"levelo://app?vid=e2b13041-1dec-4ad6-891d-4995309c5068","ios":"levelo://app?vid=e2b13041-1dec-4ad6-891d-4995309c5068"},"vehicle_type_id":"4","last_reported":1745428163,"current_range_meters":19200,"station_id":"ce4bh012rcd13ifvqd00","pricing_plan_id":"cebpf4jnsgd1na2vs0mg"},{"bike_id":"585be2c4-8ce3-4508-ae2f-82dbb7b47f4d","system_id":"levelo_inurba_marseille","lat":43.29023,"lon":5.38636,"is_reserved":false,"is_disabled":false,"rental_uris":{"android":"levelo://app?vid=585be2c4-8ce3-4508-ae2f-82dbb7b47f4d","ios":"levelo://app?vid=585be2c4-8ce3-4508-ae2f-82dbb7b47f4d"},"vehicle_type_id":"4","last_reported":1745428163,"current_range_meters":19600,"station_id":"ce4bh4p2rcd13ifvqe0g","pricing_plan_id":"cebpf4jnsgd1na2vs0mg"},{"bike_id":"68d0ae5a-e8ca-4cca-8a98-a96c8c381da2","system_id":"levelo_inurba_marseille","lat":43.29827,"lon":5.36303,"is_reserved":false,"is_disabled":false,"rental_uris":{"android":"levelo://app?vid=68d0ae5a-e8ca-4cca-8a98-a96c8c381da2","ios":"levelo://app?vid=68d0ae5a-e8ca-4cca-8a98-a96c8c381da2"},"vehicle_type_id":"4","last_reported":1745428163,"current_range_meters":19600,"station_id":"ce4bgpp2rcd13ifvqc3g","pricing_plan_id":"cebpf4jnsgd1na2vs0mg"},{"bike_id":"5dd12b3b-eef7-4dab-a6de-2ed4ff99da38","system_id":"levelo_inurba_marseille","lat":43.29061,"lon":5.37556,"is_reserved":false,"is_disabled":true,"rental_uris":{"android":"levelo://app?vid=5dd12b3b-eef7-4dab-a6de-2ed4ff99da38","ios":"levelo://app?vid=5dd12b3b-eef7-4dab-a6de-2ed4ff99da38"},"vehicle_type_id":"4","last_reported":1745428163,"current_range_meters":19600,"station_id":"ce4bh692rcd13ifvqe90","pricing_plan_id":"cebpf4jnsgd1na2vs0mg"},{"bike_id":"8b43b1fb-5cab-4db8-ae05-f66514d8855e","system_id":"levelo_inurba_marseille","lat":43.31313,"lon":5.37315,"is_reserved":false,"is_disabled":false,"rental_uris":{"android":"levelo://app?vid=8b43b1fb-5cab-4db8-ae05-f66514d8855e","ios":"levelo://app?vid=8b43b1fb-5cab-4db8-ae05-f66514d8855e"},"vehicle_type_id":"4","last_reported":1745428163,"current_range_meters":19600,"station_id":"","pricing_plan_id":"cebpf4jnsgd1na2vs0mg"},{"bike_id":"d67e280a-f708-44d7-ac1f-37a8ebf5003e","system_id":"levelo_inurba_marseille","lat":43.30199,"lon":5.39392,"is_reserved":false,"is_disabled":false,"rental_uris":{"android":"levelo://app?vid=d67e280a-f708-44d7-ac1f-37a8ebf5003e","ios":"levelo://app?vid=d67e280a-f708-44d7-ac1f-37a8ebf5003e"},"vehicle_type_id":"4","last_reported":1745428163,"current_range_meters":19600,"station_id":"","pricing_plan_id":"cebpf4jnsgd1na2vs0mg"},{"bike_id":"fccfb157-688a-49af-992a-1ce9f178a3c3","system_id":"levelo_inurba_marseille","lat":43.22932,"lon":5.35385,"is_reserved":false,"is_disabled":false,"rental_uris":{"android":"levelo://app?vid=fccfb157-688a-49af-992a-1ce9f178a3c3","ios":"levelo://app?vid=fccfb157-688a-49af-992a-1ce9f178a3c3"},"vehicle_type_id":"4","last_reported":1745428163,"current_range_meters":19600,"station_id":"cpo3532slgdg3j2ikp40","pricing_plan_id":"cebpf4jnsgd1na2vs0mg"},{"bike_id":"19b1e669-c0ec-46a9-8c21-4f491a13468c","system_id":"levelo_inurba_marseille","lat":43.29538,"lon":5.38549,"is_reserved":false,"is_disabled":true,"rental_uris":{"android":"levelo://app?vid=19b1e669-c0ec-46a9-8c21-4f491a13468c","ios":"levelo://app?vid=19b1e669-c0ec-46a9-8c21-4f491a13468c"},"vehicle_type_id":"4","last_reported":1745428163,"current_range_meters":20000,"station_id":"ce4bgih2rcd13ifvqba0","pricing_plan_id":"cebpf4jnsgd1na2vs0mg"},{"bike_id":"a5856b95-9e19-4436-b973-344e5d5dcbd8","system_id":"levelo_inurba_marseille","lat":43.24156,"lon":5.36454,"is_reserved":false,"is_disabled":false,"rental_uris":{"android":"levelo://app?vid=a5856b95-9e19-4436-b973-344e5d5dcbd8","ios":"levelo://app?vid=a5856b95-9e19-4436-b973-344e5d5dcbd8"},"vehicle_type_id":"4","last_reported":1745428163,"current_range_meters":20000,"station_id":"cpo36qri1sfpv3e86is0","pricing_plan_id":"cebpf4jnsgd1na2vs0mg"},{"bike_id":"144934a9-4887-4184-9c83-792dd443d3af","system_id":"levelo_inurba_marseille","lat":43.27173,"lon":5.40991,"is_reserved":false,"is_disabled":false,"rental_uris":{"android":"levelo://app?vid=144934a9-4887-4184-9c83-792dd443d3af","ios":"levelo://app?vid=144934a9-4887-4184-9c83-792dd443d3af"},"vehicle_type_id":"4","last_reported":1745428163,"current_range_meters":20000,"station_id":"ce4bhl12rcd13ifvqgf0","pricing_plan_id":"cebpf4jnsgd1na2vs0mg"},{"bike_id":"ab8406b2-4f8d-4381-8821-3db52b0a4d4d","system_id":"levelo_inurba_marseille","lat":43.27354,"lon":5.37849,"is_reserved":false,"is_disabled":false,"rental_uris":{"android":"levelo://app?vid=ab8406b2-4f8d-4381-8821-3db52b0a4d4d","ios":"levelo://app?vid=ab8406b2-4f8d-4381-8821-3db52b0a4d4d"},"vehicle_type_id":"4","last_reported":1745428163,"current_range_meters":20000,"station_id":"","pricing_plan_id":"cebpf4jnsgd1na2vs0mg"},{"bike_id":"423199f6-9e29-4029-863e-fb3896235bfe","system_id":"levelo_inurba_marseille","lat":43.31876,"lon":5.4073,"is_reserved":false,"is_disabled":false,"rental_uris":{"android":"levelo://app?vid=423199f6-9e29-4029-863e-fb3896235bfe","ios":"levelo://app?vid=423199f6-9e29-4029-863e-fb3896235bfe"},"vehicle_type_id":"4","last_reported":1745428163,"current_range_meters":20000,"station_id":"ce4bhq12rcd13ifvqhig","pricing_plan_id":"cebpf4jnsgd1na2vs0mg"},{"bike_id":"16e65b69-479f-4679-b4df-15e02e1bcf5e","system_id":"levelo_inurba_marseille","lat":43.272773,"lon":5.391981,"is_reserved":false,"is_disabled":false,"rental_uris":{"android":"levelo://app?vid=16e65b69-479f-4679-b4df-15e02e1bcf5e","ios":"levelo://app?vid=16e65b69-479f-4679-b4df-15e02e1bcf5e"},"vehicle_type_id":"4","last_reported":1745428163,"current_range_meters":20000,"station_id":"ce4bhnh2rcd13ifvqgtg","pricing_plan_id":"cebpf4jnsgd1na2vs0mg"},{"bike_id":"5a0fddb1-7b1f-4a0c-96a2-fe273b29a8de","system_id":"levelo_inurba_marseille","lat":43.28617,"lon":5.35105,"is_reserved":false,"is_disabled":false,"rental_uris":{"android":"levelo://app?vid=5a0fddb1-7b1f-4a0c-96a2-fe273b29a8de","ios":"levelo://app?vid=5a0fddb1-7b1f-4a0c-96a2-fe273b29a8de"},"vehicle_type_id":"4","last_reported":1745428163,"current_range_meters":20000,"station_id":"ce4bhch2rcd13ifvqeug","pricing_plan_id":"cebpf4jnsgd1na2vs0mg"},{"bike_id":"0af8a95b-59f7-4343-8e35-40d51dc39f3b","system_id":"levelo_inurba_marseille","lat":43.2866,"lon":5.36351,"is_reserved":false,"is_disabled":false,"rental_uris":{"android":"levelo://app?vid=0af8a95b-59f7-4343-8e35-40d51dc39f3b","ios":"levelo://app?vid=0af8a95b-59f7-4343-8e35-40d51dc39f3b"},"vehicle_type_id":"4","last_reported":1745428163,"current_range_meters":20000,"station_id":"ce4bhah2rcd13ifvqej0","pricing_plan_id":"cebpf4jnsgd1na2vs0mg"},{"bike_id":"96f95ec8-2ec8-4f85-847e-9992741b9ee1","system_id":"levelo_inurba_marseille","lat":43.31091,"lon":5.38366,"is_reserved":false,"is_disabled":false,"rental_uris":{"android":"levelo://app?vid=96f95ec8-2ec8-4f85-847e-9992741b9ee1","ios":"levelo://app?vid=96f95ec8-2ec8-4f85-847e-9992741b9ee1"},"vehicle_type_id":"4","last_reported":1745428163,"current_range_meters":20000,"station_id":"ce4bgv92rcd13ifvqcr0","pricing_plan_id":"cebpf4jnsgd1na2vs0mg"},{"bike_id":"b8516600-adaf-4c6e-a067-9eeaf84dcd63","system_id":"levelo_inurba_marseille","lat":43.27969,"lon":5.38754,"is_reserved":false,"is_disabled":false,"rental_uris":{"android":"levelo://app?vid=b8516600-adaf-4c6e-a067-9eeaf84dcd63","ios":"levelo://app?vid=b8516600-adaf-4c6e-a067-9eeaf84dcd63"},"vehicle_type_id":"4","last_reported":1745428163,"current_range_meters":20400,"station_id":"ce4bhg12rcd13ifvqf80","pricing_plan_id":"cebpf4jnsgd1na2vs0mg"},{"bike_id":"a72c7776-ec10-4b32-8a49-4ac08a30614a","system_id":"levelo_inurba_marseille","lat":43.24078,"lon":5.37759,"is_reserved":false,"is_disabled":false,"rental_uris":{"android":"levelo://app?vid=a72c7776-ec10-4b32-8a49-4ac08a30614a","ios":"levelo://app?vid=a72c7776-ec10-4b32-8a49-4ac08a30614a"},"vehicle_type_id":"4","last_reported":1745428163,"current_range_meters":20400,"station_id":"ce4bhnp2rcd13ifvqgvg","pricing_plan_id":"cebpf4jnsgd1na2vs0mg"},{"bike_id":"396a3d41-9754-4acf-aa46-c0426eec218f","system_id":"levelo_inurba_marseille","lat":43.29848,"lon":5.36269,"is_reserved":false,"is_disabled":false,"rental_uris":{"android":"levelo://app?vid=396a3d41-9754-4acf-aa46-c0426eec218f","ios":"levelo://app?vid=396a3d41-9754-4acf-aa46-c0426eec218f"},"vehicle_type_id":"4","last_reported":1745428163,"current_range_meters":20400,"station_id":"ce4bgpp2rcd13ifvqc3g","pricing_plan_id":"cebpf4jnsgd1na2vs0mg"},{"bike_id":"2dd4662c-27e8-4a79-b21a-8bae35d45a8b","system_id":"levelo_inurba_marseille","lat":43.290339,"lon":5.386524,"is_reserved":false,"is_disabled":false,"rental_uris":{"android":"levelo://app?vid=2dd4662c-27e8-4a79-b21a-8bae35d45a8b","ios":"levelo://app?vid=2dd4662c-27e8-4a79-b21a-8bae35d45a8b"},"vehicle_type_id":"4","last_reported":1745428163,"current_range_meters":20400,"station_id":"ce4bh4p2rcd13ifvqe0g","pricing_plan_id":"cebpf4jnsgd1na2vs0mg"},{"bike_id":"3eadb79b-1000-47ae-b1f6-00209c7644ca","system_id":"levelo_inurba_marseille","lat":43.28004,"lon":5.40023,"is_reserved":false,"is_disabled":false,"rental_uris":{"android":"levelo://app?vid=3eadb79b-1000-47ae-b1f6-00209c7644ca","ios":"levelo://app?vid=3eadb79b-1000-47ae-b1f6-00209c7644ca"},"vehicle_type_id":"4","last_reported":1745428163,"current_range_meters":20400,"station_id":"ce4bho92rcd13ifvqh4g","pricing_plan_id":"cebpf4jnsgd1na2vs0mg"},{"bike_id":"83ce8635-e014-4d4b-b4bb-5f7a1fac789e","system_id":"levelo_inurba_marseille","lat":43.267155,"lon":5.383125,"is_reserved":false,"is_disabled":true,"rental_uris":{"android":"levelo://app?vid=83ce8635-e014-4d4b-b4bb-5f7a1fac789e","ios":"levelo://app?vid=83ce8635-e014-4d4b-b4bb-5f7a1fac789e"},"vehicle_type_id":"4","last_reported":1745428163,"current_range_meters":20400,"station_id":"ce4bhg92rcd13ifvqf90","pricing_plan_id":"cebpf4jnsgd1na2vs0mg"},{"bike_id":"4f024dc9-cff3-401c-813e-1ab8132a698a","system_id":"levelo_inurba_marseille","lat":43.292806,"lon":5.368564,"is_reserved":false,"is_disabled":false,"rental_uris":{"android":"levelo://app?vid=4f024dc9-cff3-401c-813e-1ab8132a698a","ios":"levelo://app?vid=4f024dc9-cff3-401c-813e-1ab8132a698a"},"vehicle_type_id":"4","last_reported":1745428163,"current_range_meters":20400,"station_id":"ce4bgs92rcd13ifvqcc0","pricing_plan_id":"cebpf4jnsgd1na2vs0mg"},{"bike_id":"a9fe0e8b-723a-481a-90e9-42e15e814fe5","system_id":"levelo_inurba_marseille","lat":43.292926,"lon":5.409245,"is_reserved":false,"is_disabled":false,"rental_uris":{"android":"levelo://app?vid=a9fe0e8b-723a-481a-90e9-42e15e814fe5","ios":"levelo://app?vid=a9fe0e8b-723a-481a-90e9-42e15e814fe5"},"vehicle_type_id":"4","last_reported":1745428163,"current_range_meters":20400,"station_id":"ce4bh692rcd13ifvqe90","pricing_plan_id":"cebpf4jnsgd1na2vs0mg"},{"bike_id":"a3f1ea47-d3d5-45ef-883d-e683a2159a66","system_id":"levelo_inurba_marseille","lat":43.29709,"lon":5.37669,"is_reserved":false,"is_disabled":false,"rental_uris":{"android":"levelo://app?vid=a3f1ea47-d3d5-45ef-883d-e683a2159a66","ios":"levelo://app?vid=a3f1ea47-d3d5-45ef-883d-e683a2159a66"},"vehicle_type_id":"4","last_reported":1745428163,"current_range_meters":20400,"station_id":"ce4bgkh2rcd13ifvqbl0","pricing_plan_id":"cebpf4jnsgd1na2vs0mg"},