{"last_updated":1746684923,"ttl":60,"version":"2.2","data":{"bikes":[{"bike_id":"92725351-a1ce-45d5-a552-16c91880da90","system_id":"levelo_inurba_marseille","lat":43.3107,"lon":5.38355,"is_reserved":false,"is_disabled":false,"rental_uris":{"android":"levelo://app?vid=92725351-a1ce-45d5-a552-16c91880da90","ios":"levelo://app?vid=92725351-a1ce-45d5-a552-16c91880da90"},"vehicle_type_id":"4","last_reported":1746684923,"current_range_meters":2800,"station_id":"ce4bgv92rcd13ifvqcr0","pricing_plan_id":"cebpf4jnsgd1na2vs0mg"},{"bike_id":"8c508fc8-6a83-404e-a8bf-0f571e14aa4a","system_id":"levelo_inurba_marseille","lat":43.30289,"lon":5.39223,"is_reserved":false,"is_disabled":false,"rental_uris":{"android":"levelo://app?vid=8c508fc8-6a83-404e-a8bf-0f571e14aa4a","ios":"levelo://app?vid=8c508fc8-6a83-404e-a8bf-0f571e14aa4a"},"vehicle_type_id":"4","last_reported":1746684923,"current_range_meters":2000,"station_id":"ce4bgkh2rcd13ifvqbk0","pricing_plan_id":"cebpf4jnsgd1na2vs0mg"},{"bike_id":"c9592205-9409-4f74-aed1-7c4141a58caa","system_id":"levelo_inurba_marseille","lat":43.27132,"lon":5.36362,"is_reserved":false,"is_disabled":false,"rental_uris":{"android":"levelo://app?vid=c9592205-9409-4f74-aed1-7c4141a58caa","ios":"levelo://app?vid=c9592205-9409-4f74-aed1-7c4141a58caa"},"vehicle_type_id":"4","last_reported":1746684923,"current_range_meters":3200,"station_id":"","pricing_plan_id":"cebpf4jnsgd1na2vs0mg"},{"bike_id":"45aaad29-61be-4b55-a624-2b9190511697","system_id":"levelo_inurba_marseille","lat":43.284049,"lon":5.375234,"is_reserved":false,"is_disabled":false,"rental_uris":{"android":"levelo://app?vid=45aaad29-61be-4b55-a624-2b9190511697","ios":"levelo://app?vid=45aaad29-61be-4b55-a624-2b9190511697"},"vehicle_type_id":"4","last_reported":1746684923,"current_range_meters":3600,"station_id":"ce4bh412rcd13ifvqds0","pricing_plan_id":"cebpf4jnsgd1na2vs0mg"},{"bike_id":"5f89e5d8-8e5e-4a6d-901c-70aafb0a905d","system_id":"levelo_inurba_marseille","lat":43.292387,"lon":5.373864,"is_reserved":false,"is_disabled":false,"rental_uris":{"android":"levelo://app?vid=5f89e5d8-8e5e-4a6d-901c-70aafb0a905d","ios":"levelo://app?vid=5f89e5d8-8e5e-4a6d-901c-70aafb0a905d"},"vehicle_type_id":"4","last_reported":1746684923,"current_range_meters":3600,"station_id":"","pricing_plan_id":"cebpf4jnsgd1na2vs0mg"},{"bike_id":"78d6cd42-7367-40db-afa3-81e38969457f","system_id":"levelo_inurba_marseille","lat":43.30152,"lon":5.398774,"is_reserved":false,"is_disabled":false,"rental_uris":{"android":"levelo://app?vid=78d6cd42-7367-40db-afa3-81e38969457f","ios":"levelo://app?vid=78d6cd42-7367-40db-afa3-81e38969457f"},"vehicle_type_id":"4","last_reported":1746684923,"current_range_meters":3600,"station_id":"ce4bh0h2rcd13ifvqd40","pricing_plan_id":"cebpf4jnsgd1na2vs0mg"},{"bike_id":"705f1f6f-d92c-4df1-a512-943b0bf79900","system_id":"levelo_inurba_marseille","lat":43.22498,"lon":5.3479,"is_reserved":false,"is_disabled":false,"rental_uris":{"android":"levelo://app?vid=705f1f6f-d92c-4df1-a512-943b0bf79900","ios":"levelo://app?vid=705f1f6f-d92c-4df1-a512-943b0bf79900"},"vehicle_type_id":"4","last_reported":1746684923,"current_range_meters":3600,"station_id":"st_cvj5dfep6f1abm77gieg","pricing_plan_id":"cebpf4jnsgd1na2vs0mg"},{"bike_id":"4ffe4636-e089-4bed-8651-8a5d07b6f76b","system_id":"levelo_inurba_marseille","lat":43.31689,"lon":5.40461,"is_reserved":false,"is_disabled":false,"rental_uris":{"android":"levelo://app?vid=4ffe4636-e089-4bed-8651-8a5d07b6f76b","ios":"levelo://app?vid=4ffe4636-e089-4bed-8651-8a5d07b6f76b"},"vehicle_type_id":"4","last_reported":1746684923,"current_range_meters":4400,"station_id":"ce4bh012rcd13ifvqd00","pricing_plan_id":"cebpf4jnsgd1na2vs0mg"},{"bike_id":"20df77e6-82af-4985-a758-f199a5ee3ab6","system_id":"levelo_inurba_marseille","lat":43.28422,"lon":5.37525,"is_reserved":false,"is_disabled":false,"rental_uris":{"android":"levelo://app?vid=20df77e6-82af-4985-a758-f199a5ee3ab6","ios":"levelo://app?vid=20df77e6-82af-4985-a758-f199a5ee3ab6"},"vehicle_type_id":"4","last_reported":1746684923,"current_range_meters":4800,"station_id":"ce4bh412rcd13ifvqds0","pricing_plan_id":"cebpf4jnsgd1na2vs0mg"},{"bike_id":"ed73c925-7bf6-4dc2-a66b-c9129a7d6a52","system_id":"levelo_inurba_marseille","lat":43.289089,"lon":5.384071,"is_reserved":false,"is_disabled":false,"rental_uris":{"android":"levelo://app?vid=ed73c925-7bf6-4dc2-a66b-c9129a7d6a52","ios":"levelo://app?vid=ed73c925-7bf6-4dc2-a66b-c9129a7d6a52"},"vehicle_type_id":"4","last_reported":1746684923,"current_range_meters":4000,"station_id":"ce4bh492rcd13ifvqdug","pricing_plan_id":"cebpf4jnsgd1na2vs0mg"},{"bike_id":"406e84c6-4b16-44c2-b175-144ad146b8ce","system_id":"levelo_inurba_marseille","lat":43.29076,"lon":5.37136,"is_reserved":false,"is_disabled":false,"rental_uris":{"android":"levelo://app?vid=406e84c6-4b16-44c2-b175-144ad146b8ce","ios":"levelo://app?vid=406e84c6-4b16-44c2-b175-144ad146b8ce"},"vehicle_type_id":"4","last_reported":1746684923,"current_range_meters":4400,"station_id":"ce4bh5p2rcd13ifvqe4g","pricing_plan_id":"cebpf4jnsgd1na2vs0mg"},{"bike_id":"6be85270-949b-41b0-bafa-6a9ac2af25b4","system_id":"levelo_inurba_marseille","lat":43.324,"lon":5.39001,"is_reserved":false,"is_disabled":true,"rental_uris":{"android":"levelo://app?vid=6be85270-949b-41b0-bafa-6a9ac2af25b4","ios":"levelo://app?vid=6be85270-949b-41b0-bafa-6a9ac2af25b4"},"vehicle_type_id":"4","last_reported":1746684923,"current_range_meters":4800,"station_id":"","pricing_plan_id":"cebpf4jnsgd1na2vs0mg"},{"bike_id":"e9e7a0df-60d9-4b9d-8f7d-4be6a1ec3714","system_id":"levelo_inurba_marseille","lat":43.29005,"lon":5.35611,"is_reserved":false,"is_disabled":false,"rental_uris":{"android":"levelo://app?vid=e9e7a0df-60d9-4b9d-8f7d-4be6a1ec3714","ios":"levelo://app?vid=e9e7a0df-60d9-4b9d-8f7d-4be6a1ec3714"},"vehicle_type_id":"4","last_reported":1746684923,"current_range_meters":4800,"station_id":"ce4bhb92rcd13ifvqen0","pricing_plan_id":"cebpf4jnsgd1na2vs0mg"},{"bike_id":"1496fd3b-8e15-4e17-813d-5cc0107c427c","system_id":"levelo_inurba_marseille","lat":43.30927,"lon":5.40163,"is_reserved":false,"is_disabled":false,"rental_uris":{"android":"levelo://app?vid=1496fd3b-8e15-4e17-813d-5cc0107c427c","ios":"levelo://app?vid=1496fd3b-8e15-4e17-813d-5cc0107c427c"},"vehicle_type_id":"4","last_reported":1746684923,"current_range_meters":5600,"station_id":"ce4bgvp2rcd13ifvqct0","pricing_plan_id":"cebpf4jnsgd1na2vs0mg"},{"bike_id":"ebcb5402-009b-4a85-a64a-1ddb8811c73b","system_id":"levelo_inurba_marseille","lat":43.3024,"lon":5.40091,"is_reserved":false,"is_disabled":true,"rental_uris":{"android":"levelo://app?vid=ebcb5402-009b-4a85-a64a-1ddb8811c73b","ios":"levelo://app?vid=ebcb5402-009b-4a85-a64a-1ddb8811c73b"},"vehicle_type_id":"4","last_reported":1746684923,"current_range_meters":5600,"station_id":"ce4bgvh2rcd13ifvqcs0","pricing_plan_id":"cebpf4jnsgd1na2vs0mg"},{"bike_id":"f0c95ea1-4fc5-467b-9fcd-175e60806ba9","system_id":"levelo_inurba_marseille","lat":43.307737,"lon":5.376576,"is_reserved":false,"is_disabled":false,"rental_uris":{"android":"levelo://app?vid=f0c95ea1-4fc5-467b-9fcd-175e60806ba9","ios":"levelo://app?vid=f0c95ea1-4fc5-467b-9fcd-175e60806ba9"},"vehicle_type_id":"4","last_reported":1746684923,"current_range_meters":5600,"station_id":"ce4bgv92rcd13ifvqcq0","pricing_plan_id":"cebpf4jnsgd1na2vs0mg"},{"bike_id":"88f90c5c-6128-4b9d-bb34-6e1b40933e50","system_id":"levelo_inurba_marseille","lat":43.282965,"lon":5.432249,"is_reserved":false,"is_disabled":false,"rental_uris":{"android":"levelo://app?vid=88f90c5c-6128-4b9d-bb34-6e1b40933e50","ios":"levelo://app?vid=88f90c5c-6128-4b9d-bb34-6e1b40933e50"},"vehicle_type_id":"4","last_reported":1746684923,"current_range_meters":5600,"station_id":"","pricing_plan_id":"cebpf4jnsgd1na2vs0mg"},{"bike_id":"2eb3c6b8-2801-4650-907a-e3f09f8c5ba1","system_id":"levelo_inurba_marseille","lat":43.31173,"lon":5.38701,"is_reserved":false,"is_disabled":false,"rental_uris":{"android":"levelo://app?vid=2eb3c6b8-2801-4650-907a-e3f09f8c5ba1","ios":"levelo://app?vid=2eb3c6b8-2801-4650-907a-e3f09f8c5ba1"},"vehicle_type_id":"4","last_reported":1746684923,"current_range_meters":6000,"station_id":"ce4bgv12rcd13ifvqcp0","pricing_plan_id":"cebpf4jnsgd1na2vs0mg"},{"bike_id":"649893a6-80b1-49ae-b6ca-bf7c45c9c074","system_id":"levelo_inurba_marseille","lat":43.24181,"lon":5.3973,"is_reserved":false,"is_disabled":false,"rental_uris":{"android":"levelo://app?vid=649893a6-80b1-49ae-b6ca-bf7c45c9c074","ios":"levelo://app?vid=649893a6-80b1-49ae-b6ca-bf7c45c9c074"},"vehicle_type_id":"4","last_reported":1746684923,"current_range_meters":6000,"station_id":"ce4bhn12rcd13ifvqgpg","pricing_plan_id":"cebpf4jnsgd1na2vs0mg"},{"bike_id":"e16a169d-ac6f-418c-a095-9a9b0792d8ff","system_id":"levelo_inurba_marseille","lat":43.284514,"lon":5.358937,"is_reserved":false,"is_disabled":false,"rental_uris":{"android":"levelo://app?vid=e16a169d-ac6f-418c-a095-9a9b0792d8ff","ios":"levelo://app?vid=e16a169d-ac6f-418c-a095-9a9b0792d8ff"},"vehicle_type_id":"4","last_reported":1746684923,"current_range_meters":6000,"station_id":"ce4bhah2rcd13ifvqei0","pricing_plan_id":"cebpf4jnsgd1na2vs0mg"},{"bike_id":"7fc497f0-f2cb-4eae-91fe-c25c43380474","system_id":"levelo_inurba_marseille","lat":43.26807,"lon":5.40263,"is_reserved":false,"is_disabled":true,"rental_uris":{"android":"levelo://app?vid=7fc497f0-f2cb-4eae-91fe-c25c43380474","ios":"levelo://app?vid=7fc497f0-f2cb-4eae-91fe-c25c43380474"},"vehicle_type_id":"4","last_reported":1746684923,"current_range_meters":6000,"station_id":"ce501612rcd8frsf0b60","pricing_plan_id":"cebpf4jnsgd1na2vs0mg"},{"bike_id":"e0553937-f215-4976-8af2-171073a472f8","system_id":"levelo_inurba_marseille","lat":43.25113,"lon":5.40326,"is_reserved":false,"is_disabled":false,"rental_uris":{"android":"levelo://app?vid=e0553937-f215-4976-8af2-171073a472f8","ios":"levelo://app?vid=e0553937-f215-4976-8af2-171073a472f8"},"vehicle_type_id":"4","last_reported":1746684923,"current_range_meters":6000,"station_id":"ce4bhlh2rcd13ifvqgig","pricing_plan_id":"cebpf4jnsgd1na2vs0mg"},{"bike_id":"aa6eaa6f-a172-4a31-8500-b76476b59cb3","system_id":"levelo_inurba_marseille","lat":43.23165,"lon":5.39998,"is_reserved":false,"is_disabled":false,"rental_uris":{"android":"levelo://app?vid=aa6eaa6f-a172-4a31-8500-b76476b59cb3","ios":"levelo://app?vid=aa6eaa6f-a172-4a31-8500-b76476b59cb3"},"vehicle_type_id":"4","last_reported":1746684923,"current_range_meters":6400,"station_id":"ce4bhn12rcd13ifvqgqg","pricing_plan_id":"cebpf4jnsgd1na2vs0mg"},{"bike_id":"082b5772-10bb-4282-bdbf-aa00094bbf28","system_id":"levelo_inurba_marseille","lat":43.2707,"lon":5.40265,"is_reserved":false,"is_disabled":false,"rental_uris":{"android":"levelo://app?vid=082b5772-10bb-4282-bdbf-aa00094bbf28","ios":"levelo://app?vid=082b5772-10bb-4282-bdbf-aa00094bbf28"},"vehicle_type_id":"4","last_reported":1746684923,"current_range_meters":6400,"station_id":"ce4bhk92rcd13ifvqgc0","pricing_plan_id":"cebpf4jnsgd1na2vs0mg"},{"bike_id":"550a0abb-925d-499a-8bb1-f4f2c932bb08","system_id":"levelo_inurba_marseille","lat":43.23962,"lon":5.36641,"is_reserved":false,"is_disabled":true,"rental_uris":{"android":"levelo://app?vid=550a0abb-925d-499a-8bb1-f4f2c932bb08","ios":"levelo://app?vid=550a0abb-925d-499a-8bb1-f4f2c932bb08"},"vehicle_type_id":"4","last_reported":1746684923,"current_range_meters":6400,"station_id":"ce4bhi12rcd13ifvqfp0","pricing_plan_id":"cebpf4jnsgd1na2vs0mg"},{"bike_id":"0e10e92a-439e-4081-803c-5f351bcf88ef","system_id":"levelo_inurba_marseille","lat":43.27949,"lon":5.41038,"is_reserved":false,"is_disabled":false,"rental_uris":{"android":"levelo://app?vid=0e10e92a-439e-4081-803c-5f351bcf88ef","ios":"levelo://app?vid=0e10e92a-439e-4081-803c-5f351bcf88ef"},"vehicle_type_id":"4","last_reported":1746684923,"current_range_meters":6800,"station_id":"ce4bhnp2rcd13ifvqh0g","pricing_plan_id":"cebpf4jnsgd1na2vs0mg"},{"bike_id":"04a2f6ac-433a-4861-8556-795d51ded105","system_id":"levelo_inurba_marseille","lat":43.28614,"lon":5.35106,"is_reserved":false,"is_disabled":false,"rental_uris":{"android":"levelo://app?vid=04a2f6ac-433a-4861-8556-795d51ded105","ios":"levelo://app?vid=04a2f6ac-433a-4861-8556-795d51ded105"},"vehicle_type_id":"4","last_reported":1746684923,"current_range_meters":6800,"station_id":"ce4bhch2rcd13ifvqeug","pricing_plan_id":"cebpf4jnsgd1na2vs0mg"},{"bike_id":"9d03e3b9-cc02-47cb-8220-42e752a6ad34","system_id":"levelo_inurba_marseille","lat":43.297726,"lon":5.459981,"is_reserved":false,"is_disabled":false,"rental_uris":{"android":"levelo://app?vid=9d03e3b9-cc02-47cb-8220-42e752a6ad34","ios":"levelo://app?vid=9d03e3b9-cc02-47cb-8220-42e752a6ad34"},"vehicle_type_id":"4","last_reported":1746684923,"current_range_meters":6800,"station_id":"","pricing_plan_id":"cebpf4jnsgd1na2vs0mg"},{"bike_id":"96cde410-af28-430b-883d-e5b9a0d0cbac","system_id":"levelo_inurba_marseille","lat":43.251135,"lon":5.403377,"is_reserved":false,"is_disabled":false,"rental_uris":{"android":"levelo://app?vid=96cde410-af28-430b-883d-e5b9a0d0cbac","ios":"levelo://app?vid=96cde410-af28-430b-883d-e5b9a0d0cbac"},"vehicle_type_id":"4","last_reported":1746684923,"current_range_meters":6800,"station_id":"ce4bhlh2rcd13ifvqgig","pricing_plan_id":"cebpf4jnsgd1na2vs0mg"},{"bike_id":"dfd27e22-9b34-42f8-9fdf-f3a07c5bdce7","system_id":"levelo_inurba_marseille","lat":43.24176,"lon":5.3639,"is_reserved":false,"is_disabled":false,"rental_uris":{"android":"levelo://app?vid=dfd27e22-9b34-42f8-9fdf-f3a07c5bdce7","ios":"levelo://app?vid=dfd27e22-9b34-42f8-9fdf-f3a07c5bdce7"},"vehicle_type_id":"4","last_reported":1746684923,"current_range_meters":6800,"station_id":"cpo36qri1sfpv3e86is0","pricing_plan_id":"cebpf4jnsgd1na2vs0mg"},{"bike_id":"e643ab0a-d97d-4d9f-bf0d-21fd7dcb7558","system_id":"levelo_inurba_marseille","lat":43.324512,"lon":5.411408,"is_reserved":false,"is_disabled":false,"rental_uris":{"android":"levelo://app?vid=e643ab0a-d97d-4d9f-bf0d-21fd7dcb7558","ios":"levelo://app?vid=e643ab0a-d97d-4d9f-bf0d-21fd7dcb7558"},"vehicle_type_id":"4","last_reported":1746684923,"current_range_meters":6800,"station_id":"","pricing_plan_id":"cebpf4jnsgd1na2vs0mg"},{"bike_id":"fa63a7e4-e781-4293-89ae-80fbf3b33863","system_id":"levelo_inurba_marseille","lat":43.25447,"lon":5.41861,"is_reserved":false,"is_disabled":true,"rental_uris":{"android":"levelo://app?vid=fa63a7e4-e781-4293-89ae-80fbf3b33863","ios":"levelo://app?vid=fa63a7e4-e781-4293-89ae-80fbf3b33863"},"vehicle_type_id":"4","last_reported":1746684923,"current_range_meters":7200,"station_id":"","pricing_plan_id":"cebpf4jnsgd1na2vs0mg"},{"bike_id":"922f47de-f5fb-4e00-9974-a09ff3caf4c7","system_id":"levelo_inurba_marseille","lat":43.241802,"lon":5.397264,"is_reserved":false,"is_disabled":false,"rental_uris":{"android":"levelo://app?vid=922f47de-f5fb-4e00-9974-a09ff3caf4c7","ios":"levelo://app?vid=922f47de-f5fb-4e00-9974-a09ff3caf4c7"},"vehicle_type_id":"4","last_reported":1746684923,"current_range_meters":7200,"station_id":"ce4bhn12rcd13ifvqgpg","pricing_plan_id":"cebpf4jnsgd1na2vs0mg"},{"bike_id":"2e445f61-4a73-4073-acba-6c82db587ecc","system_id":"levelo_inurba_marseille","lat":43.294539,"lon":5.396132,"is_reserved":false,"is_disabled":false,"rental_uris":{"android":"levelo://app?vid=2e445f61-4a73-4073-acba-6c82db587ecc","ios":"levelo://app?vid=2e445f61-4a73-4073-acba-6c82db587ecc"},"vehicle_type_id":"4","last_reported":1746684923,"current_range_meters":7200,"station_id":"","pricing_plan_id":"cebpf4jnsgd1na2vs0mg"},{"bike_id":"de08f367-3ba8-4ab1-ad17-0f6a6563b4e5","system_id":"levelo_inurba_marseille","lat":43.28194,"lon":5.39909,"is_reserved":false,"is_disabled":true,"rental_uris":{"android":"levelo://app?vid=de08f367-3ba8-4ab1-ad17-0f6a6563b4e5","ios":"levelo://app?vid=de08f367-3ba8-4ab1-ad17-0f6a6563b4e5"},"vehicle_type_id":"4","last_reported":1746684923,"current_range_meters":7200,"station_id":"","pricing_plan_id":"cebpf4jnsgd1na2vs0mg"},{"bike_id":"81ba7db5-5264-4e66-9236-ac68ced72379","system_id":"levelo_inurba_marseille","lat":43.31358,"lon":5.38508,"is_reserved":false,"is_disabled":false,"rental_uris":{"android":"levelo://app?vid=81ba7db5-5264-4e66-9236-ac68ced72379","ios":"levelo://app?vid=81ba7db5-5264-4e66-9236-ac68ced72379"},"vehicle_type_id":"4","last_reported":1746684923,"current_range_meters":7200,"station_id":"ce4bgt92rcd13ifvqcf0","pricing_plan_id":"cebpf4jnsgd1na2vs0mg"},{"bike_id":"741b655c-a3a9-46a1-bbce-25f85ccce089","system_id":"levelo_inurba_marseille","lat":43.27663,"lon":5.38046,"is_reserved":false,"is_disabled":false,"rental_uris":{"android":"levelo://app?vid=741b655c-a3a9-46a1-bbce-25f85ccce089","ios":"levelo://app?vid=741b655c-a3a9-46a1-bbce-25f85ccce089"},"vehicle_type_id":"4","last_reported":1746684923,"current_range_meters":7200,"station_id":"","pricing_plan_id":"cebpf4jnsgd1na2vs0mg"},{"bike_id":"fb158fd2-2336-47ee-a8b2-1a7cf41ae5f2","system_id":"levelo_inurba_marseille","lat":43.26464,"lon":5.39566,"is_reserved":false,"is_disabled":false,"rental_uris":{"android":"levelo://app?vid=fb158fd2-2336-47ee-a8b2-1a7cf41ae5f2","ios":"levelo://app?vid=fb158fd2-2336-47ee-a8b2-1a7cf41ae5f2"},"vehicle_type_id":"4","last_reported":1746684923,"current_range_meters":7200,"station_id":"ce4bhi12rcd13ifvqfq0","pricing_plan_id":"cebpf4jnsgd1na2vs0mg"},{"bike_id":"2ffa008f-4045-404e-a632-f92e2b79f62f","system_id":"levelo_inurba_marseille","lat":43.28123,"lon":5.42633,"is_reserved":false,"is_disabled":false,"rental_uris":{"android":"levelo://app?vid=2ffa008f-4045-404e-a632-f92e2b79f62f","ios":"levelo://app?vid=2ffa008f-4045-404e-a632-f92e2b79f62f"},"vehicle_type_id":"4","last_reported":1746684923,"current_range_meters":8000,"station_id":"ce4bhnh2rcd13ifvqgug","pricing_plan_id":"cebpf4jnsgd1na2vs0mg"},{"bike_id":"149dbc3f-738a-4425-9044-fb81967ea585","system_id":"levelo_inurba_marseille","lat":43.23057,"lon":5.35494,"is_reserved":false,"is_disabled":false,"rental_uris":{"android":"levelo://app?vid=149dbc3f-738a-4425-9044-fb81967ea585","ios":"levelo://app?vid=149dbc3f-738a-4425-9044-fb81967ea585"},"vehicle_type_id":"4","last_reported":1746684923,"current_range_meters":8000,"station_id":"cpo3342slgdg3j2ifvpg","pricing_plan_id":"cebpf4jnsgd1na2vs0mg"},{"bike_id":"3e8d8104-67f6-4ceb-98a1-a0150fb4c1b0","system_id":"levelo_inurba_marseille","lat":43.30329,"lon":5.40437,"is_reserved":false,"is_disabled":false,"rental_uris":{"android":"levelo://app?vid=3e8d8104-67f6-4ceb-98a1-a0150fb4c1b0","ios":"levelo://app?vid=3e8d8104-67f6-4ceb-98a1-a0150fb4c1b0"},"vehicle_type_id":"4","last_reported":1746684923,"current_range_meters":8000,"station_id":"ce4bh012rcd13ifvqd10","pricing_plan_id":"cebpf4jnsgd1na2vs0mg"},{"bike_id":"a96833c3-7aad-4769-953e-d8192a324355","system_id":"levelo_inurba_marseille","lat":43.22503,"lon":5.34787,"is_reserved":false,"is_disabled":false,"rental_uris":{"android":"levelo://app?vid=a96833c3-7aad-4769-953e-d8192a324355","ios":"levelo://app?vid=a96833c3-7aad-4769-953e-d8192a324355"},"vehicle_type_id":"4","last_reported":1746684923,"current_range_meters":8000,"station_id":"st_cvj5dfep6f1abm77gieg","pricing_plan_id":"cebpf4jnsgd1na2vs0mg"},{"bike_id":"028c3799-fdb4-49d4-90e9-300404e8fc36","system_id":"levelo_inurba_marseille","lat":43.3248,"lon":5.36607,"is_reserved":false,"is_disabled":true,"rental_uris":{"android":"levelo://app?vid=028c3799-fdb4-49d4-90e9-300404e8fc36","ios":"levelo://app?vid=028c3799-fdb4-49d4-90e9-300404e8fc36"},"vehicle_type_id":"4","last_reported":1746684923,"current_range_meters":8000,"station_id":"ce4bhs12rcd13ifvqhvg","pricing_plan_id":"cebpf4jnsgd1na2vs0mg"},{"bike_id":"b7bdbe3a-b7ec-4256-908f-dfa71835a5d1","system_id":"levelo_inurba_marseille","lat":43.28854,"lon":5.37145,"is_reserved":false,"is_disabled":false,"rental_uris":{"android":"levelo://app?vid=b7bdbe3a-b7ec-4256-908f-dfa71835a5d1","ios":"levelo://app?vid=b7bdbe3a-b7ec-4256-908f-dfa71835a5d1"},"vehicle_type_id":"4","last_reported":1746684923,"current_range_meters":8000,"station_id":"","pricing_plan_id":"cebpf4jnsgd1na2vs0mg"},{"bike_id":"be3a2ed9-e107-46dc-8066-89cfcff50847","system_id":"levelo_inurba_marseille","lat":43.29255,"lon":5.37142,"is_reserved":false,"is_disabled":false,"rental_uris":{"android":"levelo://app?vid=be3a2ed9-e107-46dc-8066-89cfcff50847","ios":"levelo://app?vid=be3a2ed9-e107-46dc-8066-89cfcff50847"},"vehicle_type_id":"4","last_reported":1746684923,"current_range_meters":8400,"station_id":"","pricing_plan_id":"cebpf4jnsgd1na2vs0mg"},{"bike_id":"e59273d9-1d25-49e7-8fcc-7ac339d3fc05","system_id":"levelo_inurba_marseille","lat":43.31717,"lon":5.40447,"is_reserved":false,"is_disabled":false,"rental_uris":{"android":"levelo://app?vid=e59273d9-1d25-49e7-8fcc-7ac339d3fc05","ios":"levelo://app?vid=e59273d9-1d25-49e7-8fcc-7ac339d3fc05"},"vehicle_type_id":"4","last_reported":1746684923,"current_range_meters":8400,"station_id":"ce4bh012rcd13ifvqd00","pricing_plan_id":"cebpf4jnsgd1na2vs0mg"},{"bike_id":"dbe6c090-a883-4f7a-86ca-f7062cab9bbf","system_id":"levelo_inurba_marseille","lat":43.21754,"lon":5.34612,"is_reserved":false,"is_disabled":false,"rental_uris":{"android":"levelo://app?vid=dbe6c090-a883-4f7a-86ca-f7062cab9bbf","ios":"levelo://app?vid=dbe6c090-a883-4f7a-86ca-f7062cab9bbf"},"vehicle_type_id":"4","last_reported":1746684923,"current_range_meters":8400,"station_id":"st_cvj6r9ubvosntc0bgbag","pricing_plan_id":"cebpf4jnsgd1na2vs0mg"},{"bike_id":"19b6b99c-4396-4548-b087-15910aa32c76","system_id":"levelo_inurba_marseille","lat":43.30304,"lon":5.39198,"is_reserved":false,"is_disabled":true,"rental_uris":{"android":"levelo://app?vid=19b6b99c-4396-4548-b087-15910aa32c76","ios":"levelo://app?vid=19b6b99c-4396-4548-b087-15910aa32c76"},"vehicle_type_id":"4","last_reported":1746684923,"current_range_meters":8400,"station_id":"ce4bgkh2rcd13ifvqbk0","pricing_plan_id":"cebpf4jnsgd1na2vs0mg"},{"bike_id":"871d92dc-153b-42ec-8d90-34c9e0fb29bf","system_id":"levelo_inurba_marseille","lat":43.306276,"lon":5.398719,"is_reserved":false,"is_disabled":false,"rental_uris":{"android":"levelo://app?vid=871d92dc-153b-42ec-8d90-34c9e0fb29bf","ios":"levelo://app?vid=871d92dc-153b-42ec-8d90-34c9e0fb29bf"},"vehicle_type_id":"4","last_reported":1746684923,"current_range_meters":8400,"station_id":"","pricing_plan_id":"cebpf4jnsgd1na2vs0mg"},{"bike_id":"89420609-8590-4e4d-9042-8fb0e02b5686","system_id":"levelo_inurba_marseille","lat":43.24183,"lon":5.36416,"is_reserved":false,"is_disabled":false,"rental_uris":{"android":"levelo://app?vid=89420609-8590-4e4d-9042-8fb0e02b5686","ios":"levelo://app?vid=89420609-8590-4e4d-9042-8fb0e02b5686"},"vehicle_type_id":"4","last_reported":1746684923,"current_range_meters":8400,"station_id":"cpo36qri1sfpv3e86is0","pricing_plan_id":"cebpf4jnsgd1na2vs0mg"},{"bike_id":"de98c600-f638-4cff-9c9e-a1bfa0672c00","system_id":"levelo_inurba_marseille","lat":43.25717,"lon":5.41119,"is_reserved":false,"is_disabled":false,"rental_uris":{"android":"levelo://app?vid=de98c600-f638-4cff-9c9e-a1bfa0672c00","ios":"levelo://app?vid=de98c600-f638-4cff-9c9e-a1bfa0672c00"},"vehicle_type_id":"4","last_reported":1746684923,"current_range_meters":8400,"station_id":"ce4bhkp2rcd13ifvqgd0","pricing_plan_id":"cebpf4jnsgd1na2vs0mg"},{"bike_id":"c650db92-e467-494a-8ffb-fba552729a60","system_id":"levelo_inurba_marseille","lat":43.239666,"lon":5.366285,"is_reserved":false,"is_disabled":false,"rental_uris":{"android":"levelo://app?vid=c650db92-e467-494a-8ffb-fba552729a60","ios":"levelo://app?vid=c650db92-e467-494a-8ffb-fba552729a60"},"vehicle_type_id":"4","last_reported":1746684923,"current_range_meters":8400,"station_id":"ce4bhi12rcd13ifvqfp0","pricing_plan_id":"cebpf4jnsgd1na2vs0mg"},{"bike_id":"9fcf8f94-bd3a-4bcd-a417-322eed8d3454","system_id":"levelo_inurba_marseille","lat":43.30617,"lon":5.401,"is_reserved":false,"is_disabled":false,"rental_uris":{"android":"levelo://app?vid=9fcf8f94-bd3a-4bcd-a417-322eed8d3454","ios":"levelo://app?vid=9fcf8f94-bd3a-4bcd-a417-322eed8d3454"},"vehicle_type_id":"4","last_reported":1746684923,"current_range_meters":8400,"station_id":"ce4bh112rcd13ifvqda0","pricing_plan_id":"cebpf4jnsgd1na2vs0mg"},{"bike_id":"7ac090f6-ac88-4d74-bff6-95aa8d4e1c9d","system_id":"levelo_inurba_marseille","lat":43.2828,"lon":5.35064,"is_reserved":false,"is_disabled":false,"rental_uris":{"android":"levelo://app?vid=7ac090f6-ac88-4d74-bff6-95aa8d4e1c9d","ios":"levelo://app?vid=7ac090f6-ac88-4d74-bff6-95aa8d4e1c9d"},"vehicle_type_id":"4","last_reported":1746684923,"current_range_meters":8800,"station_id":"ce4bhbp2rcd13ifvqerg","pricing_plan_id":"cebpf4jnsgd1na2vs0mg"},{"bike_id":"ce40ea43-bacf-49f3-b5af-ffaf2a1f03b1","system_id":"levelo_inurba_marseille","lat":43.30463,"lon":5.36773,"is_reserved":false,"is_disabled":false,"rental_uris":{"android":"levelo://app?vid=ce40ea43-bacf-49f3-b5af-ffaf2a1f03b1","ios":"levelo://app?vid=ce40ea43-bacf-49f3-b5af-ffaf2a1f03b1"},"vehicle_type_id":"4","last_reported":1746684923,"current_range_meters":8800,"station_id":"","pricing_plan_id":"cebpf4jnsgd1na2vs0mg"},{"bike_id":"6fcecdbd-a5d7-498c-85d8-462b7a653c6a","system_id":"levelo_inurba_marseille","lat":43.28452,"lon":5.35898,"is_reserved":false,"is_disabled":false,"rental_uris":{"android":"levelo://app?vid=6fcecdbd-a5d7-498c-85d8-462b7a653c6a","ios":"levelo://app?vid=6fcecdbd-a5d7-498c-85d8-462b7a653c6a"},"vehicle_type_id":"4","last_reported":1746684923,"current_range_meters":8800,"station_id":"ce4bhah2rcd13ifvqei0","pricing_plan_id":"cebpf4jnsgd1na2vs0mg"},{"bike_id":"577c68d3-e214-4444-8d4f-e2a733fa506e","system_id":"levelo_inurba_marseille","lat":43.270731,"lon":5.422827,"is_reserved":false,"is_disabled":false,"rental_uris":{"android":"levelo://app?vid=577c68d3-e214-4444-8d4f-e2a733fa506e","ios":"levelo://app?vid=577c68d3-e214-4444-8d4f-e2a733fa506e"},"vehicle_type_id":"4","last_reported":1746684923,"current_range_meters":8800,"station_id":"ce4bhk92rcd13ifvqgb0","pricing_plan_id":"cebpf4jnsgd1na2vs0mg"},{"bike_id":"1f77a630-8a52-477b-86b4-44132d8564e3","system_id":"levelo_inurba_marseille","lat":43.23184,"lon":5.39996,"is_reserved":false,"is_disabled":false,"rental_uris":{"android":"levelo://app?vid=1f77a630-8a52-477b-86b4-44132d8564e3","ios":"levelo://app?vid=1f77a630-8a52-477b-86b4-44132d8564e3"},"vehicle_type_id":"4","last_reported":1746684923,"current_range_meters":8800,"station_id":"ce4bhn12rcd13ifvqgqg","pricing_plan_id":"cebpf4jnsgd1na2vs0mg"},{"bike_id":"957aba25-c5b1-43b8-b7ae-7df1badff429","system_id":"levelo_inurba_marseille","lat":43.31279,"lon":5.40173,"is_reserved":false,"is_disabled":false,"rental_uris":{"android":"levelo://app?vid=957aba25-c5b1-43b8-b7ae-7df1badff429","ios":"levelo://app?vid=957aba25-c5b1-43b8-b7ae-7df1badff429"},"vehicle_type_id":"4","last_reported":1746684923,"current_range_meters":9200,"station_id":"ce4bh092rcd13ifvqd30","pricing_plan_id":"cebpf4jnsgd1na2vs0mg"},{"bike_id":"569154da-5aba-4b6a-9874-971785801a0f","system_id":"levelo_inurba_marseille","lat":43.278147,"lon":5.40725,"is_reserved":false,"is_disabled":false,"rental_uris":{"android":"levelo://app?vid=569154da-5aba-4b6a-9874-971785801a0f","ios":"levelo://app?vid=569154da-5aba-4b6a-9874-971785801a0f"},"vehicle_type_id":"4","last_reported":1746684923,"current_range_meters":9200,"station_id":"ce4bhnh2rcd13ifvqgtg","pricing_plan_id":"cebpf4jnsgd1na2vs0mg"},{"bike_id":"f90504b1-69d0-454d-a9d6-21119d763b82","system_id":"levelo_inurba_marseille","lat":43.25105,"lon":5.40348,"is_reserved":false,"is_disabled":false,"rental_uris":{"android":"levelo://app?vid=f90504b1-69d0-454d-a9d6-21119d763b82","ios":"levelo://app?vid=f90504b1-69d0-454d-a9d6-21119d763b82"},"vehicle_type_id":"4","last_reported":1746684923,"current_range_meters":9200,"station_id":"ce4bhlh2rcd13ifvqgig","pricing_plan_id":"cebpf4jnsgd1na2vs0mg"},{"bike_id":"c460d626-46dc-4323-977a-1bf36ca4902b","system_id":"levelo_inurba_marseille","lat":43.28037,"lon":5.36885,"is_reserved":false,"is_disabled":false,"rental_uris":{"android":"levelo://app?vid=c460d626-46dc-4323-977a-1bf36ca4902b","ios":"levelo://app?vid=c460d626-46dc-4323-977a-1bf36ca4902b"},"vehicle_type_id":"4","last_reported":1746684923,"current_range_meters":9600,"station_id":"ce4bha12rcd13ifvqef0","pricing_plan_id":"cebpf4jnsgd1na2vs0mg"},{"bike_id":"be14bb78-6eb0-48f8-90f5-613b7d561dab","system_id":"levelo_inurba_marseille","lat":43.31071,"lon":5.38355,"is_reserved":false,"is_disabled":true,"rental_uris":{"android":"levelo://app?vid=be14bb78-6eb0-48f8-90f5-613b7d561dab","ios":"levelo://app?vid=be14bb78-6eb0-48f8-90f5-613b7d561dab"},"vehicle_type_id":"4","last_reported":1746684923,"current_range_meters":9600,"station_id":"ce4bgv92rcd13ifvqcr0","pricing_plan_id":"cebpf4jnsgd1na2vs0mg"},{"bike_id":"8b3204dd-c684-4e41-9504-d9a19e706268","system_id":"levelo_inurba_marseille","lat":43.21754,"lon":5.34622,"is_reserved":false,"is_disabled":false,"rental_uris":{"android":"levelo://app?vid=8b3204dd-c684-4e41-9504-d9a19e706268","ios":"levelo://app?vid=8b3204dd-c684-4e41-9504-d9a19e706268"},"vehicle_type_id":"4","last_reported":1746684923,"current_range_meters":9600,"station_id":"st_cvj6r9ubvosntc0bgbag","pricing_plan_id":"cebpf4jnsgd1na2vs0mg"},{"bike_id":"8bbd2297-75b9-4288-bc6d-1be3b3ff638a","system_id":"levelo_inurba_marseille","lat":43.27059,"lon":5.40262,"is_reserved":false,"is_disabled":false,"rental_uris":{"android":"levelo://app?vid=8bbd2297-75b9-4288-bc6d-1be3b3ff638a","ios":"levelo://app?vid=8bbd2297-75b9-4288-bc6d-1be3b3ff638a"},"vehicle_type_id":"4","last_reported":1746684923,"current_range_meters":9600,"station_id":"ce4bhk92rcd13ifvqgc0","pricing_plan_id":"cebpf4jnsgd1na2vs0mg"},{"bike_id":"b15fe93b-1059-4d75-abd3-040e349ce402","system_id":"levelo_inurba_marseille","lat":43.30113,"lon":5.36992,"is_reserved":false,"is_disabled":false,"rental_uris":{"android":"levelo://app?vid=b15fe93b-1059-4d75-abd3-040e349ce402","ios":"levelo://app?vid=b15fe93b-1059-4d75-abd3-040e349ce402"},"vehicle_type_id":"4","last_reported":1746684923,"current_range_meters":9600,"station_id":"","pricing_plan_id":"cebpf4jnsgd1na2vs0mg"},{"bike_id":"3ff97c15-77c0-41de-8e71-21d6d5ebd16f","system_id":"levelo_inurba_marseille","lat":43.30376,"lon":5.42487,"is_reserved":false,"is_disabled":false,"rental_uris":{"android":"levelo://app?vid=3ff97c15-77c0-41de-8e71-21d6d5ebd16f","ios":"levelo://app?vid=3ff97c15-77c0-41de-8e71-21d6d5ebd16f"},"vehicle_type_id":"4","last_reported":1746684923,"current_range_meters":9600,"station_id":"ce4bhoh2rcd13ifvqh6g","pricing_plan_id":"cebpf4jnsgd1na2vs0mg"},{"bike_id":"f48191bb-3f3c-4965-b323-74d778d7c2f2","system_id":"levelo_inurba_marseille","lat":43.309276,"lon":5.401472,"is_reserved":false,"is_disabled":false,"rental_uris":{"android":"levelo://app?vid=f48191bb-3f3c-4965-b323-74d778d7c2f2","ios":"levelo://app?vid=f48191bb-3f3c-4965-b323-74d778d7c2f2"},"vehicle_type_id":"4","last_reported":1746684923,"current_range_meters":9600,"station_id":"ce4bgvp2rcd13ifvqct0","pricing_plan_id":"cebpf4jnsgd1na2vs0mg"},{"bike_id":"da1da5b7-01c4-402d-9f7a-8ee4a44e531b","system_id":"levelo_inurba_marseille","lat":43.23147,"lon":5.43702,"is_reserved":false,"is_disabled":false,"rental_uris":{"android":"levelo://app?vid=da1da5b7-01c4-402d-9f7a-8ee4a44e531b","ios":"levelo://app?vid=da1da5b7-01c4-402d-9f7a-8ee4a44e531b"},"vehicle_type_id":"4","last_reported":1746684923,"current_range_meters":9600,"station_id":"ce4bhmp2rcd13ifvqgog","pricing_plan_id":"cebpf4jnsgd1na2vs0mg"},{"bike_id":"15c94903-bff0-448b-a6ba-943a7f56259b","system_id":"levelo_inurba_marseille","lat":43.24667,"lon":5.3816,"is_reserved":false,"is_disabled":false,"rental_uris":{"android":"levelo://app?vid=15c94903-bff0-448b-a6ba-943a7f56259b","ios":"levelo://app?vid=15c94903-bff0-448b-a6ba-943a7f56259b"},"vehicle_type_id":"4","last_reported":1746684923,"current_range_meters":10000,"station_id":"ce4bhih2rcd13ifvqfr0","pricing_plan_id":"cebpf4jnsgd1na2vs0mg"},{"bike_id":"f239e61b-13fc-400d-ba4a-9e414ced2af9","system_id":"levelo_inurba_marseille","lat":43.31765,"lon":5.39053,"is_reserved":false,"is_disabled":false,"rental_uris":{"android":"levelo://app?vid=f239e61b-13fc-400d-ba4a-9e414ced2af9","ios":"levelo://app?vid=f239e61b-13fc-400d-ba4a-9e414ced2af9"},"vehicle_type_id":"4","last_reported":1746684923,"current_range_meters":10000,"station_id":"ce4bhqp2rcd13ifvqhng","pricing_plan_id":"cebpf4jnsgd1na2vs0mg"},{"bike_id":"eff01a47-9a9f-4a02-be20-e3fd0c3270dd","system_id":"levelo_inurba_marseille","lat":43.30656,"lon":5.40094,"is_reserved":false,"is_disabled":false,"rental_uris":{"android":"levelo://app?vid=eff01a47-9a9f-4a02-be20-e3fd0c3270dd","ios":"levelo://app?vid=eff01a47-9a9f-4a02-be20-e3fd0c3270dd"},"vehicle_type_id":"4","last_reported":1746684923,"current_range_meters":10000,"station_id":"ce4bh112rcd13ifvqda0","pricing_plan_id":"cebpf4jnsgd1na2vs0mg"},{"bike_id":"ad21cab8-b4a2-418f-915f-6f5eeb2f1f3e","system_id":"levelo_inurba_marseille","lat":43.2439,"lon":5.37063,"is_reserved":false,"is_disabled":false,"rental_uris":{"android":"levelo://app?vid=ad21cab8-b4a2-418f-915f-6f5eeb2f1f3e","ios":"levelo://app?vid=ad21cab8-b4a2-418f-915f-6f5eeb2f1f3e"},"vehicle_type_id":"4","last_reported":1746684923,"current_range_meters":9600,"station_id":"ce4bhhh2rcd13ifvqfk0","pricing_plan_id":"cebpf4jnsgd1na2vs0mg"},{"bike_id":"87b9a829-6d08-4a6d-9a8e-b298b8a08212","system_id":"levelo_inurba_marseille","lat":43.28457,"lon":5.35893,"is_reserved":false,"is_disabled":false,"rental_uris":{"android":"levelo://app?vid=87b9a829-6d08-4a6d-9a8e-b298b8a08212","ios":"levelo://app?vid=87b9a829-6d08-4a6d-9a8e-b298b8a08212"},"vehicle_type_id":"4","last_reported":1746684923,"current_range_meters":10000,"station_id":"ce4bhah2rcd13ifvqei0","pricing_plan_id":"cebpf4jnsgd1na2vs0mg"},{"bike_id":"d0c7c74a-d8f2-497f-ac50-e84654d5a6c9","system_id":"levelo_inurba_marseille","lat":43.29765,"lon":5.37106,"is_reserved":false,"is_disabled":false,"rental_uris":{"android":"levelo://app?vid=d0c7c74a-d8f2-497f-ac50-e84654d5a6c9","ios":"levelo://app?vid=d0c7c74a-d8f2-497f-ac50-e84654d5a6c9"},"vehicle_type_id":"4","last_reported":1746684923,"current_range_meters":10000,"station_id":"ce4bgop2rcd13ifvqc1g","pricing_plan_id":"cebpf4jnsgd1na2vs0mg"},{"bike_id":"cb804ca6-4e74-4d08-aea7-2b4aae9112aa","system_id":"levelo_inurba_marseille","lat":43.29983,"lon":5.37908,"is_reserved":false,"is_disabled":false,"rental_uris":{"android":"levelo://app?vid=cb804ca6-4e74-4d08-aea7-2b4aae9112aa","ios":"levelo://app?vid=cb804ca6-4e74-4d08-aea7-2b4aae9112aa"},"vehicle_type_id":"4","last_reported":1746684923,"current_range_meters":10800,"station_id":"","pricing_plan_id":"cebpf4jnsgd1na2vs0mg"},{"bike_id":"20da30d8-616a-42d7-b387-2934b1539b36","system_id":"levelo_inurba_marseille","lat":43.25929,"lon":5.40876,"is_reserved":false,"is_disabled":false,"rental_uris":{"android":"levelo://app?vid=20da30d8-616a-42d7-b387-2934b1539b36","ios":"levelo://app?vid=20da30d8-616a-42d7-b387-2934b1539b36"},"vehicle_type_id":"4","last_reported":1746684923,"current_range_meters":10800,"station_id":"ce4bhm92rcd13ifvqglg","pricing_plan_id":"cebpf4jnsgd1na2vs0mg"},{"bike_id":"1eace673-3a00-40bd-93b8-c982c5e56958","system_id":"levelo_inurba_marseille","lat":43.295548,"lon":5.42287,"is_reserved":false,"is_disabled":false,"rental_uris":{"android":"levelo://app?vid=1eace673-3a00-40bd-93b8-c982c5e56958","ios":"levelo://app?vid=1eace673-3a00-40bd-93b8-c982c5e56958"},"vehicle_type_id":"4","last_reported":1746684923,"current_range_meters":10800,"station_id":"ce4bhph2rcd13ifvqhdg","pricing_plan_id":"cebpf4jnsgd1na2vs0mg"},{"bike_id":"cb5561fb-3ed2-49bf-bd58-7c8862116c78","system_id":"levelo_inurba_marseille","lat":43.21218,"lon":5.35082,"is_reserved":false,"is_disabled":false,"rental_uris":{"android":"levelo://app?vid=cb5561fb-3ed2-49bf-bd58-7c8862116c78","ios":"levelo://app?vid=cb5561fb-3ed2-49bf-bd58-7c8862116c78"},"vehicle_type_id":"4","last_reported":1746684923,"current_range_meters":10800,"station_id":"st_cvj6sg6p6f1abm77japg","pricing_plan_id":"cebpf4jnsgd1na2vs0mg"},{"bike_id":"e5536c63-7559-437b-8afa-b4350cca2c29","system_id":"levelo_inurba_marseille","lat":43.23166,"lon":5.40001,"is_reserved":false,"is_disabled":false,"rental_uris":{"android":"levelo://app?vid=e5536c63-7559-437b-8afa-b4350cca2c29","ios":"levelo://app?vid=e5536c63-7559-437b-8afa-b4350cca2c29"},"vehicle_type_id":"4","last_reported":1746684923,"current_range_meters":11200,"station_id":"ce4bhn12rcd13ifvqgqg","pricing_plan_id":"cebpf4jnsgd1na2vs0mg"},{"bike_id":"5453c7c8-d7df-431d-98db-167d3c16d978","system_id":"levelo_inurba_marseille","lat":43.31349,"lon":5.3851,"is_reserved":false,"is_disabled":false,"rental_uris":{"android":"levelo://app?vid=5453c7c8-d7df-431d-98db-167d3c16d978","ios":"levelo://app?vid=5453c7c8-d7df-431d-98db-167d3c16d978"},"vehicle_type_id":"4","last_reported":1746684923,"current_range_meters":11600,"station_id":"ce4bgt92rcd13ifvqcf0","pricing_plan_id":"cebpf4jnsgd1na2vs0mg"},{"bike_id":"9cc2a72e-8fad-423e-8975-ae01a9f1bc89","system_id":"levelo_inurba_marseille","lat":43.26774,"lon":5.39424,"is_reserved":false,"is_disabled":false,"rental_uris":{"android":"levelo://app?vid=9cc2a72e-8fad-423e-8975-ae01a9f1bc89","ios":"levelo://app?vid=9cc2a72e-8fad-423e-8975-ae01a9f1bc89"},"vehicle_type_id":"4","last_reported":1746684923,"current_range_meters":11600,"station_id":"ce4bhh12rcd13ifvqfg0","pricing_plan_id":"cebpf4jnsgd1na2vs0mg"},{"bike_id":"9209774a-06b7-47c7-a6eb-adc0c3f47cff","system_id":"levelo_inurba_marseille","lat":43.25577,"lon":5.3825,"is_reserved":false,"is_disabled":false,"rental_uris":{"android":"levelo://app?vid=9209774a-06b7-47c7-a6eb-adc0c3f47cff","ios":"levelo://app?vid=9209774a-06b7-47c7-a6eb-adc0c3f47cff"},"vehicle_type_id":"4","last_reported":1746684923,"current_range_meters":11600,"station_id":"ce4bhih2rcd13ifvqfs0","pricing_plan_id":"cebpf4jnsgd1na2vs0mg"},{"bike_id":"84628364-7e3f-47f9-bbf2-3101fea10d79","system_id":"levelo_inurba_marseille","lat":43.295533,"lon":5.422883,"is_reserved":false,"is_disabled":false,"rental_uris":{"android":"levelo://app?vid=84628364-7e3f-47f9-bbf2-3101fea10d79","ios":"levelo://app?vid=84628364-7e3f-47f9-bbf2-3101fea10d79"},"vehicle_type_id":"4","last_reported":1746684923,"current_range_meters":11600,"station_id":"ce4bhph2rcd13ifvqhdg","pricing_plan_id":"cebpf4jnsgd1na2vs0mg"},{"bike_id":"b3dda9f1-e281-4acc-a3e5-f9bdd89841dd","system_id":"levelo_inurba_marseille","lat":43.28418,"lon":5.3753,"is_reserved":false,"is_disabled":false,"rental_uris":{"android":"levelo://app?vid=b3dda9f1-e281-4acc-a3e5-f9bdd89841dd","ios":"levelo://app?vid=b3dda9f1-e281-4acc-a3e5-f9bdd89841dd"},"vehicle_type_id":"4","last_reported":1746684923,"current_range_meters":11600,"station_id":"ce4bh412rcd13ifvqds0","pricing_plan_id":"cebpf4jnsgd1na2vs0mg"},{"bike_id":"814b049e-86d8-441d-a9b7-533911196968","system_id":"levelo_inurba_marseille","lat":43.31349,"lon":5.38492,"is_reserved":false,"is_disabled":false,"rental_uris":{"android":"levelo://app?vid=814b049e-86d8-441d-a9b7-533911196968","ios":"levelo://app?vid=814b049e-86d8-441d-a9b7-533911196968"},"vehicle_type_id":"4","last_reported":1746684923,"current_range_meters":12000,"station_id":"ce4bgt92rcd13ifvqcf0","pricing_plan_id":"cebpf4jnsgd1na2vs0mg"},{"bike_id":"d1d025cd-b4c2-45c4-b8a2-5328e19eb3f6","system_id":"levelo_inurba_marseille","lat":43.29026,"lon":5.37562,"is_reserved":false,"is_disabled":true,"rental_uris":{"android":"levelo://app?vid=d1d025cd-b4c2-45c4-b8a2-5328e19eb3f6","ios":"levelo://app?vid=d1d025cd-b4c2-45c4-b8a2-5328e19eb3f6"},"vehicle_type_id":"4","last_reported":1746684923,"current_range_meters":12000,"station_id":"ce4bh692rcd13ifvqe90","pricing_plan_id":"cebpf4jnsgd1na2vs0mg"},{"bike_id":"492a7a57-4c14-4260-ba62-da55dda4a419","system_id":"levelo_inurba_marseille","lat":43.32345,"lon":5.40613,"is_reserved":false,"is_disabled":false,"rental_uris":{"android":"levelo://app?vid=492a7a57-4c14-4260-ba62-da55dda4a419","ios":"levelo://app?vid=492a7a57-4c14-4260-ba62-da55dda4a419"},"vehicle_type_id":"4","last_reported":1746684923,"current_range_meters":12400,"station_id":"ce4bhq92rcd13ifvqhjg","pricing_plan_id":"cebpf4jnsgd1na2vs0mg"},{"bike_id":"e945a495-d359-4bb7-bb94-1340aff95955","system_id":"levelo_inurba_marseille","lat":43.28129,"lon":5.40658,"is_reserved":false,"is_disabled":false,"rental_uris":{"android":"levelo://app?vid=e945a495-d359-4bb7-bb94-1340aff95955","ios":"levelo://app?vid=e945a495-d359-4bb7-bb94-1340aff95955"},"vehicle_type_id":"4","last_reported":1746684923,"current_range_meters":12400,"station_id":"","pricing_plan_id":"cebpf4jnsgd1na2vs0mg"},{"bike_id":"ced4ac19-9a7f-426e-a234-ca7336ba4fae","system_id":"levelo_inurba_marseille","lat":43.30148,"lon":5.381,"is_reserved":false,"is_disabled":false,"rental_uris":{"android":"levelo://app?vid=ced4ac19-9a7f-426e-a234-ca7336ba4fae","ios":"levelo://app?vid=ced4ac19-9a7f-426e-a234-ca7336ba4fae"},"vehicle_type_id":"4","last_reported":1746684923,"current_range_meters":12800,"station_id":"ce4bgjp2rcd13ifvqbh0","pricing_plan_id":"cebpf4jnsgd1na2vs0mg"},{"bike_id":"2574c1c6-9761-4223-8bf8-0f4ec6798a10","system_id":"levelo_inurba_marseille","lat":43.25105,"lon":5.40367,"is_reserved":false,"is_disabled":false,"rental_uris":{"android":"levelo://app?vid=2574c1c6-9761-4223-8bf8-0f4ec6798a10","ios":"levelo://app?vid=2574c1c6-9761-4223-8bf8-0f4ec6798a10"},"vehicle_type_id":"4","last_reported":1746684923,"current_range_meters":12800,"station_id":"ce4bhlh2rcd13ifvqgig","pricing_plan_id":"cebpf4jnsgd1na2vs0mg"},{"bike_id":"ab0829c7-4dad-444c-acbb-a5c3d542fa8c","system_id":"levelo_inurba_marseille","lat":43.24075,"lon":5.37762,"is_reserved":false,"is_disabled":false,"rental_uris":{"android":"levelo://app?vid=ab0829c7-4dad-444c-acbb-a5c3d542fa8c","ios":"levelo://app?vid=ab0829c7-4dad-444c-acbb-a5c3d542fa8c"},"vehicle_type_id":"4","last_reported":1746684923,"current_range_meters":12800,"station_id":"ce4bhnp2rcd13ifvqgvg","pricing_plan_id":"cebpf4jnsgd1na2vs0mg"},{"bike_id":"34ccc2df-2bb0-4545-b584-1bdf204879f9","system_id":"levelo_inurba_marseille","lat":43.28609,"lon":5.35113,"is_reserved":false,"is_disabled":false,"rental_uris":{"android":"levelo://app?vid=34ccc2df-2bb0-4545-b584-1bdf204879f9","ios":"levelo://app?vid=34ccc2df-2bb0-4545-b584-1bdf204879f9"},"vehicle_type_id":"4","last_reported":1746684923,"current_range_meters":13600,"station_id":"ce4bhch2rcd13ifvqeug","pricing_plan_id":"cebpf4jnsgd1na2vs0mg"},{"bike_id":"809c8673-c032-46b9-aa07-62c38e26d44e","system_id":"levelo_inurba_marseille","lat":43.250496,"lon":5.387998,"is_reserved":false,"is_disabled":false,"rental_uris":{"android":"levelo://app?vid=809c8673-c032-46b9-aa07-62c38e26d44e","ios":"levelo://app?vid=809c8673-c032-46b9-aa07-62c38e26d44e"},"vehicle_type_id":"4","last_reported":1746684923,"current_range_meters":13600,"station_id":"","pricing_plan_id":"cebpf4jnsgd1na2vs0mg"},{"bike_id":"2aace568-ac2f-49c7-9458-5246d5166cd0","system_id":"levelo_inurba_marseille","lat":43.2888,"lon":5.44977,"is_reserved":false,"is_disabled":false,"rental_uris":{"android":"levelo://app?vid=2aace568-ac2f-49c7-9458-5246d5166cd0","ios":"levelo://app?vid=2aace568-ac2f-49c7-9458-5246d5166cd0"},"vehicle_type_id":"4","last_reported":1746684923,"current_range_meters":14000,"station_id":"","pricing_plan_id":"cebpf4jnsgd1na2vs0mg"},{"bike_id":"3cf2ec27-f7b8-4e23-8492-0e23be5e930a","system_id":"levelo_inurba_marseille","lat":43.28999,"lon":5.37849,"is_reserved":false,"is_disabled":true,"rental_uris":{"android":"levelo://app?vid=3cf2ec27-f7b8-4e23-8492-0e23be5e930a","ios":"levelo://app?vid=3cf2ec27-f7b8-4e23-8492-0e23be5e930a"},"vehicle_type_id":"4","last_reported":1746684923,"current_range_meters":14000,"station_id":"ce4bh9p2rcd13ifvqed0","pricing_plan_id":"cebpf4jnsgd1na2vs0mg"},{"bike_id":"5090961f-1c7d-4202-8794-ee3f3eb80c81","system_id":"levelo_inurba_marseille","lat":43.30493,"lon":5.39318,"is_reserved":false,"is_disabled":false,"rental_uris":{"android":"levelo://app?vid=5090961f-1c7d-4202-8794-ee3f3eb80c81","ios":"levelo://app?vid=5090961f-1c7d-4202-8794-ee3f3eb80c81"},"vehicle_type_id":"4","last_reported":1746684923,"current_range_meters":14000,"station_id":"","pricing_plan_id":"cebpf4jnsgd1na2vs0mg"},{"bike_id":"179e39d6-f393-46e0-b36a-f5293148431d","system_id":"levelo_inurba_marseille","lat":43.3247,"lon":5.36589,"is_reserved":false,"is_disabled":true,"rental_uris":{"android":"levelo://app?vid=179e39d6-f393-46e0-b36a-f5293148431d","ios":"levelo://app?vid=179e39d6-f393-46e0-b36a-f5293148431d"},"vehicle_type_id":"4","last_reported":1746684923,"current_range_meters":14000,"station_id":"ce4bhs12rcd13ifvqhvg","pricing_plan_id":"cebpf4jnsgd1na2vs0mg"},{"bike_id":"47cd9dba-9c5a-4de3-a27d-45ec0de547bc","system_id":"levelo_inurba_marseille","lat":43.2886,"lon":5.43313,"is_reserved":false,"is_disabled":false,"rental_uris":{"android":"levelo://app?vid=47cd9dba-9c5a-4de3-a27d-45ec0de547bc","ios":"levelo://app?vid=47cd9dba-9c5a-4de3-a27d-45ec0de547bc"},"vehicle_type_id":"4","last_reported":1746684923,"current_range_meters":14000,"station_id":"","pricing_plan_id":"cebpf4jnsgd1na2vs0mg"},{"bike_id":"4e2f2b99-e7c6-4c4b-88ab-6de4be19b89a","system_id":"levelo_inurba_marseille","lat":43.28262,"lon":5.3506,"is_reserved":false,"is_disabled":false,"rental_uris":{"android":"levelo://app?vid=4e2f2b99-e7c6-4c4b-88ab-6de4be19b89a","ios":"levelo://app?vid=4e2f2b99-e7c6-4c4b-88ab-6de4be19b89a"},"vehicle_type_id":"4","last_reported":1746684923,"current_range_meters":14400,"station_id":"ce4bhbp2rcd13ifvqerg","pricing_plan_id":"cebpf4jnsgd1na2vs0mg"},{"bike_id":"f19bfea6-e4ad-4f01-8691-f490acd211d4","system_id":"levelo_inurba_marseille","lat":43.307808,"lon":5.376496,"is_reserved":false,"is_disabled":false,"rental_uris":{"android":"levelo://app?vid=f19bfea6-e4ad-4f01-8691-f490acd211d4","ios":"levelo://app?vid=f19bfea6-e4ad-4f01-8691-f490acd211d4"},"vehicle_type_id":"4","last_reported":1746684923,"current_range_meters":14800,"station_id":"ce4bgv92rcd13ifvqcq0","pricing_plan_id":"cebpf4jnsgd1na2vs0mg"},{"bike_id":"caccb556-2ad0-45b8-84b8-819024dd44e6","system_id":"levelo_inurba_marseille","lat":43.29784,"lon":5.36801,"is_reserved":false,"is_disabled":false,"rental_uris":{"android":"levelo://app?vid=caccb556-2ad0-45b8-84b8-819024dd44e6","ios":"levelo://app?vid=caccb556-2ad0-45b8-84b8-819024dd44e6"},"vehicle_type_id":"4","last_reported":1746684923,"current_range_meters":14800,"station_id":"","pricing_plan_id":"cebpf4jnsgd1na2vs0mg"},{"bike_id":"1f0ec024-dd17-4e6c-b386-b5410269e547","system_id":"levelo_inurba_marseille","lat":43.30216,"lon":5.40044,"is_reserved":false,"is_disabled":false,"rental_uris":{"android":"levelo://app?vid=1f0ec024-dd17-4e6c-b386-b5410269e547","ios":"levelo://app?vid=1f0ec024-dd17-4e6c-b386-b5410269e547"},"vehicle_type_id":"4","last_reported":1746684923,"current_range_meters":14800,"station_id":"ce4bgvh2rcd13ifvqcs0","pricing_plan_id":"cebpf4jnsgd1na2vs0mg"},{"bike_id":"6971f759-8594-489e-a8f6-9153c9a9c438","system_id":"levelo_inurba_marseille","lat":43.27689,"lon":5.41962,"is_reserved":false,"is_disabled":false,"rental_uris":{"android":"levelo://app?vid=6971f759-8594-489e-a8f6-9153c9a9c438","ios":"levelo://app?vid=6971f759-8594-489e-a8f6-9153c9a9c438"},"vehicle_type_id":"4","last_reported":1746684923,"current_range_meters":15200,"station_id":"","pricing_plan_id":"cebpf4jnsgd1na2vs0mg"},{"bike_id":"409ac4af-1a09-48e2-98b6-3b67bc8cd418","system_id":"levelo_inurba_marseille","lat":43.3014,"lon":5.39887,"is_reserved":false,"is_disabled":false,"rental_uris":{"android":"levelo://app?vid=409ac4af-1a09-48e2-98b6-3b67bc8cd418","ios":"levelo://app?vid=409ac4af-1a09-48e2-98b6-3b67bc8cd418"},"vehicle_type_id":"4","last_reported":1746684923,"current_range_meters":15200,"station_id":"ce4bh0h2rcd13ifvqd40","pricing_plan_id":"cebpf4jnsgd1na2vs0mg"},{"bike_id":"1916e3c8-cbe8-49aa-8b03-cd6efeec9565","system_id":"levelo_inurba_marseille","lat":43.30139,"lon":5.39877,"is_reserved":false,"is_disabled":false,"rental_uris":{"android":"levelo://app?vid=1916e3c8-cbe8-49aa-8b03-cd6efeec9565","ios":"levelo://app?vid=1916e3c8-cbe8-49aa-8b03-cd6efeec9565"},"vehicle_type_id":"4","last_reported":1746684923,"current_range_meters":16000,"station_id":"ce4bh0h2rcd13ifvqd40","pricing_plan_id":"cebpf4jnsgd1na2vs0mg"},{"bike_id":"e6282093-23fb-41a9-859d-c0d9ad966535","system_id":"levelo_inurba_marseille","lat":43.317029,"lon":5.377271,"is_reserved":false,"is_disabled":false,"rental_uris":{"android":"levelo://app?vid=e6282093-23fb-41a9-859d-c0d9ad966535","ios":"levelo://app?vid=e6282093-23fb-41a9-859d-c0d9ad966535"},"vehicle_type_id":"4","last_reported":1746684923,"current_range_meters":16000,"station_id":"ce4bgth2rcd13ifvqch0","pricing_plan_id":"cebpf4jnsgd1na2vs0mg"},{"bike_id":"a60892ec-d65f-4ea1-a529-725b1e5fe55a","system_id":"levelo_inurba_marseille","lat":43.310646,"lon":5.383511,"is_reserved":false,"is_disabled":false,"rental_uris":{"android":"levelo://app?vid=a60892ec-d65f-4ea1-a529-725b1e5fe55a","ios":"levelo://app?vid=a60892ec-d65f-4ea1-a529-725b1e5fe55a"},"vehicle_type_id":"4","last_reported":1746684923,"current_range_meters":16000,"station_id":"ce4bgv92rcd13ifvqcr0","pricing_plan_id":"cebpf4jnsgd1na2vs0mg"},{"bike_id":"81590081-7c0c-4e6b-b3f0-1b05fc7e3976","system_id":"levelo_inurba_marseille","lat":43.30149,"lon":5.38087,"is_reserved":false,"is_disabled":false,"rental_uris":{"android":"levelo://app?vid=81590081-7c0c-4e6b-b3f0-1b05fc7e3976","ios":"levelo://app?vid=81590081-7c0c-4e6b-b3f0-1b05fc7e3976"},"vehicle_type_id":"4","last_reported":1746684923,"current_range_meters":16000,"station_id":"ce4bgjp2rcd13ifvqbh0","pricing_plan_id":"cebpf4jnsgd1na2vs0mg"},{"bike_id":"6a12e15e-b49d-4142-b121-ab33a215e4e1","system_id":"levelo_inurba_marseille","lat":43.31327,"lon":5.39743,"is_reserved":false,"is_disabled":true,"rental_uris":{"android":"levelo://app?vid=6a12e15e-b49d-4142-b121-ab33a215e4e1","ios":"levelo://app?vid=6a12e15e-b49d-4142-b121-ab33a215e4e1"},"vehicle_type_id":"4","last_reported":1746684923,"current_range_meters":16400,"station_id":"ce4bgvp2rcd13ifvqcu0","pricing_plan_id":"cebpf4jnsgd1na2vs0mg"},{"bike_id":"89f953df-2061-408d-8f0d-6a2938e5443a","system_id":"levelo_inurba_marseille","lat":43.23677,"lon":5.40387,"is_reserved":false,"is_disabled":false,"rental_uris":{"android":"levelo://app?vid=89f953df-2061-408d-8f0d-6a2938e5443a","ios":"levelo://app?vid=89f953df-2061-408d-8f0d-6a2938e5443a"},"vehicle_type_id":"4","last_reported":1746684923,"current_range_meters":16400,"station_id":"","pricing_plan_id":"cebpf4jnsgd1na2vs0mg"},{"bike_id":"e9135506-ad92-4336-9c8f-389560d4b052","system_id":"levelo_inurba_marseille","lat":43.31326,"lon":5.38488,"is_reserved":false,"is_disabled":false,"rental_uris":{"android":"levelo://app?vid=e9135506-ad92-4336-9c8f-389560d4b052","ios":"levelo://app?vid=e9135506-ad92-4336-9c8f-389560d4b052"},"vehicle_type_id":"4","last_reported":1746684923,"current_range_meters":16800,"station_id":"ce4bgt92rcd13ifvqcf0","pricing_plan_id":"cebpf4jnsgd1na2vs0mg"},{"bike_id":"6c990ab7-1787-46fb-bf99-030755abaccf","system_id":"levelo_inurba_marseille","lat":43.27242,"lon":5.39187,"is_reserved":false,"is_disabled":true,"rental_uris":{"android":"levelo://app?vid=6c990ab7-1787-46fb-bf99-030755abaccf","ios":"levelo://app?vid=6c990ab7-1787-46fb-bf99-030755abaccf"},"vehicle_type_id":"4","last_reported":1746684923,"current_range_meters":16800,"station_id":"ce4bhhp2rcd13ifvqfm0","pricing_plan_id":"cebpf4jnsgd1na2vs0mg"},{"bike_id":"084222e8-109d-40e5-bbed-f1d8a90c69e1","system_id":"levelo_inurba_marseille","lat":43.30205,"lon":5.39503,"is_reserved":false,"is_disabled":false,"rental_uris":{"android":"levelo://app?vid=084222e8-109d-40e5-bbed-f1d8a90c69e1","ios":"levelo://app?vid=084222e8-109d-40e5-bbed-f1d8a90c69e1"},"vehicle_type_id":"4","last_reported":1746684923,"current_range_meters":16800,"station_id":"ce4bh0p2rcd13ifvqd70","pricing_plan_id":"cebpf4jnsgd1na2vs0mg"},{"bike_id":"386441d1-d0cd-4783-a499-3625d3e469b1","system_id":"levelo_inurba_marseille","lat":43.2818,"lon":5.36347,"is_reserved":false,"is_disabled":true,"rental_uris":{"android":"levelo://app?vid=386441d1-d0cd-4783-a499-3625d3e469b1","ios":"levelo://app?vid=386441d1-d0cd-4783-a499-3625d3e469b1"},"vehicle_type_id":"4","last_reported":1746684923,"current_range_meters":16800,"station_id":"","pricing_plan_id":"cebpf4jnsgd1na2vs0mg"},{"bike_id":"1108c86b-8eee-40fa-bff1-779c0b83c7a7","system_id":"levelo_inurba_marseille","lat":43.30489,"lon":5.37913,"is_reserved":false,"is_disabled":false,"rental_uris":{"android":"levelo://app?vid=1108c86b-8eee-40fa-bff1-779c0b83c7a7","ios":"levelo://app?vid=1108c86b-8eee-40fa-bff1-779c0b83c7a7"},"vehicle_type_id":"4","last_reported":1746684923,"current_range_meters":16800,"station_id":"ce4bgup2rcd13ifvqcn0","pricing_plan_id":"cebpf4jnsgd1na2vs0mg"},{"bike_id":"ad29d92a-66a4-4434-a9eb-9d33cbff844a","system_id":"levelo_inurba_marseille","lat":43.30255,"lon":5.40109,"is_reserved":false,"is_disabled":false,"rental_uris":{"android":"levelo://app?vid=ad29d92a-66a4-4434-a9eb-9d33cbff844a","ios":"levelo://app?vid=ad29d92a-66a4-4434-a9eb-9d33cbff844a"},"vehicle_type_id":"4","last_reported":1746684923,"current_range_meters":16800,"station_id":"ce4bgvh2rcd13ifvqcs0","pricing_plan_id":"cebpf4jnsgd1na2vs0mg"},{"bike_id":"49e1edb5-3fad-4311-9de7-56cceb654a91","system_id":"levelo_inurba_marseille","lat":43.26807,"lon":5.40257,"is_reserved":false,"is_disabled":false,"rental_uris":{"android":"levelo://app?vid=49e1edb5-3fad-4311-9de7-56cceb654a91","ios":"levelo://app?vid=49e1edb5-3fad-4311-9de7-56cceb654a91"},"vehicle_type_id":"4","last_reported":1746684923,"current_range_meters":16800,"station_id":"ce501612rcd8frsf0b60","pricing_plan_id":"cebpf4jnsgd1na2vs0mg"},{"bike_id":"e433a49d-4b63-4b26-816f-c8626448fe9e","system_id":"levelo_inurba_marseille","lat":43.299606,"lon":5.413333,"is_reserved":false,"is_disabled":false,"rental_uris":{"android":"levelo://app?vid=e433a49d-4b63-4b26-816f-c8626448fe9e","ios":"levelo://app?vid=e433a49d-4b63-4b26-816f-c8626448fe9e"},"vehicle_type_id":"4","last_reported":1746684923,"current_range_meters":16800,"station_id":"ce4bhp12rcd13ifvqh9g","pricing_plan_id":"cebpf4jnsgd1na2vs0mg"},{"bike_id":"ad3912e1-02bc-450f-9f15-6e4766049115","system_id":"levelo_inurba_marseille","lat":43.2956,"lon":5.42286,"is_reserved":false,"is_disabled":false,"rental_uris":{"android":"levelo://app?vid=ad3912e1-02bc-450f-9f15-6e4766049115","ios":"levelo://app?vid=ad3912e1-02bc-450f-9f15-6e4766049115"},"vehicle_type_id":"4","last_reported":1746684923,"current_range_meters":17200,"station_id":"ce4bhph2rcd13ifvqhdg","pricing_plan_id":"cebpf4jnsgd1na2vs0mg"},{"bike_id":"70a29a45-574c-4ff1-aca3-740aa0e705be","system_id":"levelo_inurba_marseille","lat":43.241675,"lon":5.363911,"is_reserved":false,"is_disabled":false,"rental_uris":{"android":"levelo://app?vid=70a29a45-574c-4ff1-aca3-740aa0e705be","ios":"levelo://app?vid=70a29a45-574c-4ff1-aca3-740aa0e705be"},"vehicle_type_id":"4","last_reported":1746684923,"current_range_meters":17200,"station_id":"cpo36qri1sfpv3e86is0","pricing_plan_id":"cebpf4jnsgd1na2vs0mg"},{"bike_id":"16d82653-e2e5-4531-a384-7902e244f0cf","system_id":"levelo_inurba_marseille","lat":43.22511,"lon":5.34787,"is_reserved":false,"is_disabled":false,"rental_uris":{"android":"levelo://app?vid=16d82653-e2e5-4531-a384-7902e244f0cf","ios":"levelo://app?vid=16d82653-e2e5-4531-a384-7902e244f0cf"},"vehicle_type_id":"4","last_reported":1746684923,"current_range_meters":17600,"station_id":"st_cvj5dfep6f1abm77gieg","pricing_plan_id":"cebpf4jnsgd1na2vs0mg"},{"bike_id":"54272090-29e3-4a6f-9a52-5e9dc22600d2","system_id":"levelo_inurba_marseille","lat":43.26943,"lon":5.40242,"is_reserved":false,"is_disabled":false,"rental_uris":{"android":"levelo://app?vid=54272090-29e3-4a6f-9a52-5e9dc22600d2","ios":"levelo://app?vid=54272090-29e3-4a6f-9a52-5e9dc22600d2"},"vehicle_type_id":"4","last_reported":1746684923,"current_range_meters":17600,"station_id":"cjm6bp8fraef2m0cb0m0","pricing_plan_id":"cebpf4jnsgd1na2vs0mg"},{"bike_id":"e85fb6e7-29b9-4a2c-aa10-343a3bf1aacc","system_id":"levelo_inurba_marseille","lat":43.29885,"lon":5.4366,"is_reserved":false,"is_disabled":false,"rental_uris":{"android":"levelo://app?vid=e85fb6e7-29b9-4a2c-aa10-343a3bf1aacc","ios":"levelo://app?vid=e85fb6e7-29b9-4a2c-aa10-343a3bf1aacc"},"vehicle_type_id":"4","last_reported":1746684923,"current_range_meters":17600,"station_id":"ce4bhpp2rcd13ifvqhfg","pricing_plan_id":"cebpf4jnsgd1na2vs0mg"},{"bike_id":"86faaeb0-89f8-42b9-be93-a34d16b7bcf7","system_id":"levelo_inurba_marseille","lat":43.30106,"lon":5.37007,"is_reserved":false,"is_disabled":false,"rental_uris":{"android":"levelo://app?vid=86faaeb0-89f8-42b9-be93-a34d16b7bcf7","ios":"levelo://app?vid=86faaeb0-89f8-42b9-be93-a34d16b7bcf7"},"vehicle_type_id":"4","last_reported":1746684923,"current_range_meters":17600,"station_id":"","pricing_plan_id":"cebpf4jnsgd1na2vs0mg"},{"bike_id":"f3035667-5db8-4d82-95b2-1aa404290e19","system_id":"levelo_inurba_marseille","lat":43.24167,"lon":5.39745,"is_reserved":false,"is_disabled":false,"rental_uris":{"android":"levelo://app?vid=f3035667-5db8-4d82-95b2-1aa404290e19","ios":"levelo://app?vid=f3035667-5db8-4d82-95b2-1aa404290e19"},"vehicle_type_id":"4","last_reported":1746684923,"current_range_meters":17600,"station_id":"ce4bhn12rcd13ifvqgpg","pricing_plan_id":"cebpf4jnsgd1na2vs0mg"},{"bike_id":"3cac0407-9710-44bd-a04a-af262a1048b3","system_id":"levelo_inurba_marseille","lat":43.28164,"lon":5.42664,"is_reserved":false,"is_disabled":false,"rental_uris":{"android":"levelo://app?vid=3cac0407-9710-44bd-a04a-af262a1048b3","ios":"levelo://app?vid=3cac0407-9710-44bd-a04a-af262a1048b3"},"vehicle_type_id":"4","last_reported":1746684923,"current_range_meters":18000,"station_id":"ce4bhnh2rcd13ifvqgug","pricing_plan_id":"cebpf4jnsgd1na2vs0mg"},{"bike_id":"89b5c51b-cd9c-475c-ba7a-726b12d22f75","system_id":"levelo_inurba_marseille","lat":43.2119,"lon":5.35076,"is_reserved":false,"is_disabled":false,"rental_uris":{"android":"levelo://app?vid=89b5c51b-cd9c-475c-ba7a-726b12d22f75","ios":"levelo://app?vid=89b5c51b-cd9c-475c-ba7a-726b12d22f75"},"vehicle_type_id":"4","last_reported":1746684923,"current_range_meters":18000,"station_id":"st_cvj6sg6p6f1abm77japg","pricing_plan_id":"cebpf4jnsgd1na2vs0mg"},{"bike_id":"545f7335-f587-48c6-bdc0-fb5f2925857f","system_id":"levelo_inurba_marseille","lat":43.31075,"lon":5.38352,"is_reserved":false,"is_disabled":false,"rental_uris":{"android":"levelo://app?vid=545f7335-f587-48c6-bdc0-fb5f2925857f","ios":"levelo://app?vid=545f7335-f587-48c6-bdc0-fb5f2925857f"},"vehicle_type_id":"4","last_reported":1746684923,"current_range_meters":18000,"station_id":"ce4bgv92rcd13ifvqcr0","pricing_plan_id":"cebpf4jnsgd1na2vs0mg"},{"bike_id":"a71a0dfc-7de8-44ee-9bb2-1e81dadd19e0","system_id":"levelo_inurba_marseille","lat":43.317061,"lon":5.437037,"is_reserved":false,"is_disabled":false,"rental_uris":{"android":"levelo://app?vid=a71a0dfc-7de8-44ee-9bb2-1e81dadd19e0","ios":"levelo://app?vid=a71a0dfc-7de8-44ee-9bb2-1e81dadd19e0"},"vehicle_type_id":"4","last_reported":1746684923,"current_range_meters":18000,"station_id":"ce4bhp92rcd13ifvqhcg","pricing_plan_id":"cebpf4jnsgd1na2vs0mg"},{"bike_id":"31e69915-0dbd-4c3f-9f9d-99fb88776bd2","system_id":"levelo_inurba_marseille","lat":43.29627,"lon":5.40579,"is_reserved":false,"is_disabled":false,"rental_uris":{"android":"levelo://app?vid=31e69915-0dbd-4c3f-9f9d-99fb88776bd2","ios":"levelo://app?vid=31e69915-0dbd-4c3f-9f9d-99fb88776bd2"},"vehicle_type_id":"4","last_reported":1746684923,"current_range_meters":18000,"station_id":"ce4bh0h2rcd13ifvqd60","pricing_plan_id":"cebpf4jnsgd1na2vs0mg"},{"bike_id":"fc0953ab-6307-4092-9957-be52c434151e","system_id":"levelo_inurba_marseille","lat":43.27491,"lon":5.42456,"is_reserved":false,"is_disabled":false,"rental_uris":{"android":"levelo://app?vid=fc0953ab-6307-4092-9957-be52c434151e","ios":"levelo://app?vid=fc0953ab-6307-4092-9957-be52c434151e"},"vehicle_type_id":"4","last_reported":1746684923,"current_range_meters":18000,"station_id":"ce4bhn92rcd13ifvqgrg","pricing_plan_id":"cebpf4jnsgd1na2vs0mg"},{"bike_id":"0885713a-ed66-4206-87cd-d112127c760a","system_id":"levelo_inurba_marseille","lat":43.2315,"lon":5.43726,"is_reserved":false,"is_disabled":false,"rental_uris":{"android":"levelo://app?vid=0885713a-ed66-4206-87cd-d112127c760a","ios":"levelo://app?vid=0885713a-ed66-4206-87cd-d112127c760a"},"vehicle_type_id":"4","last_reported":1746684923,"current_range_meters":18000,"station_id":"ce4bhmp2rcd13ifvqgog","pricing_plan_id":"cebpf4jnsgd1na2vs0mg"},{"bike_id":"385efc73-c8f2-4acf-91a3-ae63842dcfc6","system_id":"levelo_inurba_marseille","lat":43.28608,"lon":5.37086,"is_reserved":false,"is_disabled":true,"rental_uris":{"android":"levelo://app?vid=385efc73-c8f2-4acf-91a3-ae63842dcfc6","ios":"levelo://app?vid=385efc73-c8f2-4acf-91a3-ae63842dcfc6"},"vehicle_type_id":"4","last_reported":1746684923,"current_range_meters":18800,"station_id":"ce4bht12rcd13ifvqi60","pricing_plan_id":"cebpf4jnsgd1na2vs0mg"},{"bike_id":"14581aba-b181-4996-ae9c-58bc49578e0e","system_id":"levelo_inurba_marseille","lat":43.29584,"lon":5.40677,"is_reserved":false,"is_disabled":false,"rental_uris":{"android":"levelo://app?vid=14581aba-b181-4996-ae9c-58bc49578e0e","ios":"levelo://app?vid=14581aba-b181-4996-ae9c-58bc49578e0e"},"vehicle_type_id":"4","last_reported":1746684923,"current_range_meters":18800,"station_id":"","pricing_plan_id":"cebpf4jnsgd1na2vs0mg"},{"bike_id":"ff807334-3ad3-4e40-bbde-648eb2b1c45b","system_id":"levelo_inurba_marseille","lat":43.21191,"lon":5.35085,"is_reserved":false,"is_disabled":false,"rental_uris":{"android":"levelo://app?vid=ff807334-3ad3-4e40-bbde-648eb2b1c45b","ios":"levelo://app?vid=ff807334-3ad3-4e40-bbde-648eb2b1c45b"},"vehicle_type_id":"4","last_reported":1746684923,"current_range_meters":18800,"station_id":"st_cvj6sg6p6f1abm77japg","pricing_plan_id":"cebpf4jnsgd1na2vs0mg"},{"bike_id":"6619ad38-8d79-49fa-b7fe-9d35f862ea57","system_id":"levelo_inurba_marseille","lat":43.26059,"lon":5.4162,"is_reserved":false,"is_disabled":true,"rental_uris":{"android":"levelo://app?vid=6619ad38-8d79-49fa-b7fe-9d35f862ea57","ios":"levelo://app?vid=6619ad38-8d79-49fa-b7fe-9d35f862ea57"},"vehicle_type_id":"4","last_reported":1746684923,"current_range_meters":19200,"station_id":"","pricing_plan_id":"cebpf4jnsgd1na2vs0mg"},{"bike_id":"c821e32e-d925-441c-80d2-d5a984744aba","system_id":"levelo_inurba_marseille","lat":43.21182,"lon":5.35078,"is_reserved":false,"is_disabled":false,"rental_uris":{"android":"levelo://app?vid=c821e32e-d925-441c-80d2-d5a984744aba","ios":"levelo://app?vid=c821e32e-d925-441c-80d2-d5a984744aba"},"vehicle_type_id":"4","last_reported":1746684923,"current_range_meters":19200,"station_id":"st_cvj6sg6p6f1abm77japg","pricing_plan_id":"cebpf4jnsgd1na2vs0mg"},{"bike_id":"582c235c-07fb-42aa-a5b1-9306682bc7a9","system_id":"levelo_inurba_marseille","lat":43.29277,"lon":5.40122,"is_reserved":false,"is_disabled":false,"rental_uris":{"android":"levelo://app?vid=582c235c-07fb-42aa-a5b1-9306682bc7a9","ios":"levelo://app?vid=582c235c-07fb-42aa-a5b1-9306682bc7a9"},"vehicle_type_id":"4","last_reported":1746684923,"current_range_meters":19200,"station_id":"ce4bh312rcd13ifvqdk0","pricing_plan_id":"cebpf4jnsgd1na2vs0mg"},{"bike_id":"95407fdd-6b53-4c42-85f7-ee3e66f21b13","system_id":"levelo_inurba_marseille","lat":43.24343,"lon":5.37991,"is_reserved":false,"is_disabled":false,"rental_uris":{"android":"levelo://app?vid=95407fdd-6b53-4c42-85f7-ee3e66f21b13","ios":"levelo://app?vid=95407fdd-6b53-4c42-85f7-ee3e66f21b13"},"vehicle_type_id":"4","last_reported":1746684923,"current_range_meters":19600,"station_id":"","pricing_plan_id":"cebpf4jnsgd1na2vs0mg"},{"bike_id":"90dd7ece-e0e3-4e3f-8585-4f4f345a0f96","system_id":"levelo_inurba_marseille","lat":43.31726,"lon":5.40436,"is_reserved":false,"is_disabled":false,"rental_uris":{"android":"levelo://app?vid=90dd7ece-e0e3-4e3f-8585-4f4f345a0f96","ios":"levelo://app?vid=90dd7ece-e0e3-4e3f-8585-4f4f345a0f96"},"vehicle_type_id":"4","last_reported":1746684923,"current_range_meters":19600,"station_id":"ce4bh012rcd13ifvqd00","pricing_plan_id":"cebpf4jnsgd1na2vs0mg"},{"bike_id":"c00b4dc3-faff-4d5a-88c8-7b701ca8bbe6","system_id":"levelo_inurba_marseille","lat":43.316835,"lon":5.40477,"is_reserved":false,"is_disabled":false,"rental_uris":{"android":"levelo://app?vid=c00b4dc3-faff-4d5a-88c8-7b701ca8bbe6","ios":"levelo://app?vid=c00b4dc3-faff-4d5a-88c8-7b701ca8bbe6"},"vehicle_type_id":"4","last_reported":1746684923,"current_range_meters":19600,"station_id":"ce4bh012rcd13ifvqd00","pricing_plan_id":"cebpf4jnsgd1na2vs0mg"},{"bike_id":"bc4a17a8-edea-4cae-b62d-433382f254e3","system_id":"levelo_inurba_marseille","lat":43.26923,"lon":5.4028,"is_reserved":false,"is_disabled":false,"rental_uris":{"android":"levelo://app?vid=bc4a17a8-edea-4cae-b62d-433382f254e3","ios":"levelo://app?vid=bc4a17a8-edea-4cae-b62d-433382f254e3"},"vehicle_type_id":"4","last_reported":1746684923,"current_range_meters":19600,"station_id":"cjm6bp8fraef2m0cb0m0","pricing_plan_id":"cebpf4jnsgd1na2vs0mg"},{"bike_id":"8667c9cf-b1e4-47a2-a990-8aa6e7913022","system_id":"levelo_inurba_marseille","lat":43.2809,"lon":5.3788,"is_reserved":false,"is_disabled":true,"rental_uris":{"android":"levelo://app?vid=8667c9cf-b1e4-47a2-a990-8aa6e7913022","ios":"levelo://app?vid=8667c9cf-b1e4-47a2-a990-8aa6e7913022"},"vehicle_type_id":"4","last_reported":1746684923,"current_range_meters":19600,"station_id":"ce4bha12rcd13ifvqee0","pricing_plan_id":"cebpf4jnsgd1na2vs0mg"},{"bike_id":"bda5be8e-0919-47ea-aae0-c476c63ec293","system_id":"levelo_inurba_marseille","lat":43.30535,"lon":5.38419,"is_reserved":false,"is_disabled":true,"rental_uris":{"android":"levelo://app?vid=bda5be8e-0919-47ea-aae0-c476c63ec293","ios":"levelo://app?vid=bda5be8e-0919-47ea-aae0-c476c63ec293"},"vehicle_type_id":"4","last_reported":1746684923,"current_range_meters":19600,"station_id":"ce4bgg92rcd13ifvqb30","pricing_plan_id":"cebpf4jnsgd1na2vs0mg"},{"bike_id":"f3e9ab38-3242-4aa5-83f9-529a16ccf936","system_id":"levelo_inurba_marseille","lat":43.22497,"lon":5.34788,"is_reserved":false,"is_disabled":false,"rental_uris":{"android":"levelo://app?vid=f3e9ab38-3242-4aa5-83f9-529a16ccf936","ios":"levelo://app?vid=f3e9ab38-3242-4aa5-83f9-529a16ccf936"},"vehicle_type_id":"4","last_reported":1746684923,"current_range_meters":19600,"station_id":"st_cvj5dfep6f1abm77gieg","pricing_plan_id":"cebpf4jnsgd1na2vs0mg"},{"bike_id":"8d07c3e4-4780-432f-81a8-525c811272d6","system_id":"levelo_inurba_marseille","lat":43.31482,"lon":5.372993,"is_reserved":false,"is_disabled":false,"rental_uris":{"android":"levelo://app?vid=8d07c3e4-4780-432f-81a8-525c811272d6","ios":"levelo://app?vid=8d07c3e4-4780-432f-81a8-525c811272d6"},"vehicle_type_id":"4","last_reported":1746684923,"current_range_meters":19600,"station_id":"ce4bgt12rcd13ifvqcd0","pricing_plan_id":"cebpf4jnsgd1na2vs0mg"},{"bike_id":"00ec563f-f51e-4242-b88d-7a29630508da","system_id":"levelo_inurba_marseille","lat":43.29721,"lon":5.37672,"is_reserved":false,"is_disabled":true,"rental_uris":{"android":"levelo://app?vid=00ec563f-f51e-4242-b88d-7a29630508da","ios":"levelo://app?vid=00ec563f-f51e-4242-b88d-7a29630508da"},"vehicle_type_id":"4","last_reported":1746684923,"current_range_meters":20000,"station_id":"ce4bgkh2rcd13ifvqbl0","pricing_plan_id":"cebpf4jnsgd1na2vs0mg"},{"bike_id":"1f4e258c-bfd8-4e7c-b84a-8afc2720c5b9","system_id":"levelo_inurba_marseille","lat":43.3259,"lon":5.36397,"is_reserved":false,"is_disabled":false,"rental_uris":{"android":"levelo://app?vid=1f4e258c-bfd8-4e7c-b84a-8afc2720c5b9","ios":"levelo://app?vid=1f4e258c-bfd8-4e7c-b84a-8afc2720c5b9"},"vehicle_type_id":"4","last_reported":1746684923,"current_range_meters":20400,"station_id":"ce4bgpp2rcd13ifvqc3g","pricing_plan_id":"cebpf4jnsgd1na2vs0mg"},{"bike_id":"08f13c7a-2eb9-4abf-8400-826a57aabaef","system_id":"levelo_inurba_marseille","lat":43.31671,"lon":5.37256,"is_reserved":false,"is_disabled":false,"rental_uris":{"android":"levelo://app?vid=08f13c7a-2eb9-4abf-8400-826a57aabaef","ios":"levelo://app?vid=08f13c7a-2eb9-4abf-8400-826a57aabaef"},"vehicle_type_id":"4","last_reported":1746684923,"current_range_meters":20400,"station_id":"","pricing_plan_id":"cebpf4jnsgd1na2vs0mg"},{"bike_id":"ba38a60a-fe6b-4d9c-9ac1-ebdcd46cf517","system_id":"levelo_inurba_marseille","lat":43.24194,"lon":5.39736,"is_reserved":false,"is_disabled":true,"rental_uris":{"android":"levelo://app?vid=ba38a60a-fe6b-4d9c-9ac1-ebdcd46cf517","ios":"levelo://app?vid=ba38a60a-fe6b-4d9c-9ac1-ebdcd46cf517"},"vehicle_type_id":"4","last_reported":1746684923,"current_range_meters":20800,"station_id":"ce4bhn12rcd13ifvqgpg","pricing_plan_id":"cebpf4jnsgd1na2vs0mg"},{"bike_id":"f1be0eeb-570a-41ec-ba38-e001b9c7d591","system_id":"levelo_inurba_marseille","lat":43.25113,"lon":5.40305,"is_reserved":false,"is_disabled":false,"rental_uris":{"android":"levelo://app?vid=f1be0eeb-570a-41ec-ba38-e001b9c7d591","ios":"levelo://app?vid=f1be0eeb-570a-41ec-ba38-e001b9c7d591"},"vehicle_type_id":"4","last_reported":1746684923,"current_range_meters":20800,"station_id":"ce4bhlh2rcd13ifvqgig","pricing_plan_id":"cebpf4jnsgd1na2vs0mg"},{"bike_id":"f73d450b-fde6-4898-99b1-916875a407c6","system_id":"levelo_inurba_marseille","lat":43.22505,"lon":5.34786,"is_reserved":false,"is_disabled":true,"rental_uris":{"android":"levelo://app?vid=f73d450b-fde6-4898-99b1-916875a407c6","ios":"levelo://app?vid=f73d450b-fde6-4898-99b1-916875a407c6"},"vehicle_type_id":"4","last_reported":1746684923,"current_range_meters":20800,"station_id":"st_cvj5dfep6f1abm77gieg","pricing_plan_id":"cebpf4jnsgd1na2vs0mg"},{"bike_id":"558b8a1e-be21-41e1-a822-a54991f92fe8","system_id":"levelo_inurba_marseille","lat":43.29188,"lon":5.42266,"is_reserved":false,"is_disabled":false,"rental_uris":{"android":"levelo://app?vid=558b8a1e-be21-41e1-a822-a54991f92fe8","ios":"levelo://app?vid=558b8a1e-be21-41e1-a822-a54991f92fe8"},"vehicle_type_id":"4","last_reported":1746684923,"current_range_meters":20800,"station_id":"","pricing_plan_id":"cebpf4jnsgd1na2vs0mg"},{"bike_id":"8d366d29-94ab-49a7-8c41-3bbac4da9cde","system_id":"levelo_inurba_marseille","lat":43.25861,"lon":5.39903,"is_reserved":false,"is_disabled":false,"rental_uris":{"android":"levelo://app?vid=8d366d29-94ab-49a7-8c41-3bbac4da9cde","ios":"levelo://app?vid=8d366d29-94ab-49a7-8c41-3bbac4da9cde"},"vehicle_type_id":"4","last_reported":1746684923,"current_range_meters":20800,"station_id":"ce4bhl92rcd13ifvqghg","pricing_plan_id":"cebpf4jnsgd1na2vs0mg"},{"bike_id":"da3aa9b6-280e-441a-9902-7b55cb9fe3a3","system_id":"levelo_inurba_marseille","lat":43.32359,"lon":5.36744,"is_reserved":false,"is_disabled":false,"rental_uris":{"android":"levelo://app?vid=da3aa9b6-280e-441a-9902-7b55cb9fe3a3","ios":"levelo://app?vid=da3aa9b6-280e-441a-9902-7b55cb9fe3a3"},"vehicle_type_id":"4","last_reported":1746684923,"current_range_meters":20800,"station_id":"ce4bhsh2rcd13ifvqi2g","pricing_plan_id":"cebpf4jnsgd1na2vs0mg"},{"bike_id":"b7d249f8-d402-44a4-bedf-62a47def9566","system_id":"levelo_inurba_marseille","lat":43.307889,"lon":5.376488,"is_reserved":false,"is_disabled":false,"rental_uris":{"android":"levelo://app?vid=b7d249f8-d402-44a4-bedf-62a47def9566","ios":"levelo://app?vid=b7d249f8-d402-44a4-bedf-62a47def9566"},"vehicle_type_id":"4","last_reported":1746684923,"current_range_meters":21600,"station_id":"ce4bgv92rcd13ifvqcq0","pricing_plan_id":"cebpf4jnsgd1na2vs0mg"},{"bike_id":"91e162dc-df90-4b10-94c0-748de28a9b55","system_id":"levelo_inurba_marseille","lat":43.27807,"lon":5.39976,"is_reserved":false,"is_disabled":false,"rental_uris":{"android":"levelo://app?vid=91e162dc-df90-4b10-94c0-748de28a9b55","ios":"levelo://app?vid=91e162dc-df90-4b10-94c0-748de28a9b55"},"vehicle_type_id":"4","last_reported":1746684923,"current_range_meters":21600,"station_id":"","pricing_plan_id":"cebpf4jnsgd1na2vs0mg"},{"bike_id":"5a66b016-8425-4ea9-ad57-b6177cc96802","system_id":"levelo_inurba_marseille","lat":43.3157,"lon":5.38907,"is_reserved":false,"is_disabled":false,"rental_uris":{"android":"levelo://app?vid=5a66b016-8425-4ea9-ad57-b6177cc96802","ios":"levelo://app?vid=5a66b016-8425-4ea9-ad57-b6177cc96802"},"vehicle_type_id":"4","last_reported":1746684923,"current_range_meters":21600,"station_id":"","pricing_plan_id":"cebpf4jnsgd1na2vs0mg"},{"bike_id":"75facf72-3d79-4108-a95c-fcce1e0b9a39","system_id":"levelo_inurba_marseille","lat":43.257392,"lon":5.382293,"is_reserved":false,"is_disabled":true,"rental_uris":{"android":"levelo://app?vid=75facf72-3d79-4108-a95c-fcce1e0b9a39","ios":"levelo://app?vid=75facf72-3d79-4108-a95c-fcce1e0b9a39"},"vehicle_type_id":"4","last_reported":1746684923,"current_range_meters":21600,"station_id":"","pricing_plan_id":"cebpf4jnsgd1na2vs0mg"},{"bike_id":"277f2b47-80a1-428b-8dbe-81e5e0c02f6d","system_id":"levelo_inurba_marseille","lat":43.304587,"lon":5.379088,"is_reserved":false,"is_disabled":false,"rental_uris":{"android":"levelo://app?vid=277f2b47-80a1-428b-8dbe-81e5e0c02f6d","ios":"levelo://app?vid=277f2b47-80a1-428b-8dbe-81e5e0c02f6d"},"vehicle_type_id":"4","last_reported":1746684923,"current_range_meters":21600,"station_id":"ce4bgup2rcd13ifvqcn0","pricing_plan_id":"cebpf4jnsgd1na2vs0mg"},{"bike_id":"37f2c22e-dc87-4650-ae08-b53837cd376a","system_id":"levelo_inurba_marseille","lat":43.23969,"lon":5.36627,"is_reserved":false,"is_disabled":false,"rental_uris":{"android":"levelo://app?vid=37f2c22e-dc87-4650-ae08-b53837cd376a","ios":"levelo://app?vid=37f2c22e-dc87-4650-ae08-b53837cd376a"},"vehicle_type_id":"4","last_reported":1746684923,"current_range_meters":22000,"station_id":"ce4bhi12rcd13ifvqfp0","pricing_plan_id":"cebpf4jnsgd1na2vs0mg"},{"bike_id":"17b5d9fc-a9af-4ef7-b57c-f269d43e9280","system_id":"levelo_inurba_marseille","lat":43.324754,"lon":5.365812,"is_reserved":false,"is_disabled":false,"rental_uris":{"android":"levelo://app?vid=17b5d9fc-a9af-4ef7-b57c-f269d43e9280","ios":"levelo://app?vid=17b5d9fc-a9af-4ef7-b57c-f269d43e9280"},"vehicle_type_id":"4","last_reported":1746684923,"current_range_meters":22000,"station_id":"ce4bhs12rcd13ifvqhvg","pricing_plan_id":"cebpf4jnsgd1na2vs0mg"},{"bike_id":"81d4cec4-4182-4035-b937-2cdef08d4fe1","system_id":"levelo_inurba_marseille","lat":43.30722,"lon":5.42452,"is_reserved":false,"is_disabled":true,"rental_uris":{"android":"levelo://app?vid=81d4cec4-4182-4035-b937-2cdef08d4fe1","ios":"levelo://app?vid=81d4cec4-4182-4035-b937-2cdef08d4fe1"},"vehicle_type_id":"4","last_reported":1746684923,"current_range_meters":22400,"station_id":"st_cvj6ca6bvosntc0bfgr0","pricing_plan_id":"cebpf4jnsgd1na2vs0mg"},{"bike_id":"46b78159-ed00-4041-a24f-3ed1435c9009","system_id":"levelo_inurba_marseille","lat":43.30929,"lon":5.40155,"is_reserved":false,"is_disabled":false,"rental_uris":{"android":"levelo://app?vid=46b78159-ed00-4041-a24f-3ed1435c9009","ios":"levelo://app?vid=46b78159-ed00-4041-a24f-3ed1435c9009"},"vehicle_type_id":"4","last_reported":1746684923,"current_range_meters":22400,"station_id":"ce4bgvp2rcd13ifvqct0","pricing_plan_id":"cebpf4jnsgd1na2vs0mg"},{"bike_id":"a0f59bc0-650a-4106-a079-d368ed8a3edf","system_id":"levelo_inurba_marseille","lat":43.27428,"lon":5.394,"is_reserved":false,"is_disabled":true,"rental_uris":{"android":"levelo://app?vid=a0f59bc0-650a-4106-a079-d368ed8a3edf","ios":"levelo://app?vid=a0f59bc0-650a-4106-a079-d368ed8a3edf"},"vehicle_type_id":"4","last_reported":1746684923,"current_range_meters":22400,"station_id":"ce4bhdp2rcd13ifvqf20","pricing_plan_id":"cebpf4jnsgd1na2vs0mg"},{"bike_id":"3efe50aa-6a3d-4e17-a8ae-822980fea60a","system_id":"levelo_inurba_marseille","lat":43.29223,"lon":5.36091,"is_reserved":false,"is_disabled":false,"rental_uris":{"android":"levelo://app?vid=3efe50aa-6a3d-4e17-a8ae-822980fea60a","ios":"levelo://app?vid=3efe50aa-6a3d-4e17-a8ae-822980fea60a"},"vehicle_type_id":"4","last_reported":1746684923,"current_range_meters":22800,"station_id":"ce4bhbh2rcd13ifvqeqg","pricing_plan_id":"cebpf4jnsgd1na2vs0mg"},{"bike_id":"f597e4b6-c723-45d1-a62d-164b4d4c53ce","system_id":"levelo_inurba_marseille","lat":43.31348,"lon":5.38506,"is_reserved":false,"is_disabled":false,"rental_uris":{"android":"levelo://app?vid=f597e4b6-c723-45d1-a62d-164b4d4c53ce","ios":"levelo://app?vid=f597e4b6-c723-45d1-a62d-164b4d4c53ce"},"vehicle_type_id":"4","last_reported":1746684923,"current_range_meters":22800,"station_id":"ce4bgt92rcd13ifvqcf0","pricing_plan_id":"cebpf4jnsgd1na2vs0mg"},{"bike_id":"6536cb6e-d928-4440-9089-a7deb10c7d96","system_id":"levelo_inurba_marseille","lat":43.2416,"lon":5.36413,"is_reserved":false,"is_disabled":false,"rental_uris":{"android":"levelo://app?vid=6536cb6e-d928-4440-9089-a7deb10c7d96","ios":"levelo://app?vid=6536cb6e-d928-4440-9089-a7deb10c7d96"},"vehicle_type_id":"4","last_reported":1746684923,"current_range_meters":22800,"station_id":"cpo36qri1sfpv3e86is0","pricing_plan_id":"cebpf4jnsgd1na2vs0mg"},{"bike_id":"ec311775-3339-4577-838b-f717d13eb583","system_id":"levelo_inurba_marseille","lat":43.25719,"lon":5.41118,"is_reserved":false,"is_disabled":false,"rental_uris":{"android":"levelo://app?vid=ec311775-3339-4577-838b-f717d13eb583","ios":"levelo://app?vid=ec311775-3339-4577-838b-f717d13eb583"},"vehicle_type_id":"4","last_reported":1746684923,"current_range_meters":22800,"station_id":"ce4bhkp2rcd13ifvqgd0","pricing_plan_id":"cebpf4jnsgd1na2vs0mg"},{"bike_id":"b4c5f569-86b0-45f5-b55a-c2587db1b919","system_id":"levelo_inurba_marseille","lat":43.23059,"lon":5.35495,"is_reserved":false,"is_disabled":false,"rental_uris":{"android":"levelo://app?vid=b4c5f569-86b0-45f5-b55a-c2587db1b919","ios":"levelo://app?vid=b4c5f569-86b0-45f5-b55a-c2587db1b919"},"vehicle_type_id":"4","last_reported":1746684923,"current_range_meters":23200,"station_id":"cpo3342slgdg3j2ifvpg","pricing_plan_id":"cebpf4jnsgd1na2vs0mg"},{"bike_id":"c1041c9f-2085-470a-b13c-f88fd8323115","system_id":"levelo_inurba_marseille","lat":43.27746,"lon":5.38677,"is_reserved":false,"is_disabled":false,"rental_uris":{"android":"levelo://app?vid=c1041c9f-2085-470a-b13c-f88fd8323115","ios":"levelo://app?vid=c1041c9f-2085-470a-b13c-f88fd8323115"},"vehicle_type_id":"4","last_reported":1746684923,"current_range_meters":23200,"station_id":"","pricing_plan_id":"cebpf4jnsgd1na2vs0mg"},{"bike_id":"d1107ecd-be4f-458d-a1cd-17553b1323a8","system_id":"levelo_inurba_marseille","lat":43.21486,"lon":5.3482,"is_reserved":false,"is_disabled":true,"rental_uris":{"android":"levelo://app?vid=d1107ecd-be4f-458d-a1cd-17553b1323a8","ios":"levelo://app?vid=d1107ecd-be4f-458d-a1cd-17553b1323a8"},"vehicle_type_id":"4","last_reported":1746684923,"current_range_meters":23200,"station_id":"","pricing_plan_id":"cebpf4jnsgd1na2vs0mg"},{"bike_id":"83a50b95-d68b-4f37-b42f-f4b6d18160f2","system_id":"levelo_inurba_marseille","lat":43.259405,"lon":5.409027,"is_reserved":false,"is_disabled":false,"rental_uris":{"android":"levelo://app?vid=83a50b95-d68b-4f37-b42f-f4b6d18160f2","ios":"levelo://app?vid=83a50b95-d68b-4f37-b42f-f4b6d18160f2"},"vehicle_type_id":"4","last_reported":1746684923,"current_range_meters":23200,"station_id":"ce4bhm92rcd13ifvqglg","pricing_plan_id":"cebpf4jnsgd1na2vs0mg"},{"bike_id":"590a2231-4831-42d6-b5fc-66fb6bb33da2","system_id":"levelo_inurba_marseille","lat":43.31301,"lon":5.40188,"is_reserved":false,"is_disabled":true,"rental_uris":{"android":"levelo://app?vid=590a2231-4831-42d6-b5fc-66fb6bb33da2","ios":"levelo://app?vid=590a2231-4831-42d6-b5fc-66fb6bb33da2"},"vehicle_type_id":"4","last_reported":1746684923,"current_range_meters":23200,"station_id":"ce4bh092rcd13ifvqd30","pricing_plan_id":"cebpf4jnsgd1na2vs0mg"},{"bike_id":"d555e0d6-19ba-408b-ad9f-2e129d0a634e","system_id":"levelo_inurba_marseille","lat":43.31062,"lon":5.37594,"is_reserved":false,"is_disabled":false,"rental_uris":{"android":"levelo://app?vid=d555e0d6-19ba-408b-ad9f-2e129d0a634e","ios":"levelo://app?vid=d555e0d6-19ba-408b-ad9f-2e129d0a634e"},"vehicle_type_id":"4","last_reported":1746684923,"current_range_meters":23200,"station_id":"","pricing_plan_id":"cebpf4jnsgd1na2vs0mg"},{"bike_id":"e1eefe4b-c8d9-4584-bc99-1ff52d9d59bc","system_id":"levelo_inurba_marseille","lat":43.31539,"lon":5.38017,"is_reserved":false,"is_disabled":false,"rental_uris":{"android":"levelo://app?vid=e1eefe4b-c8d9-4584-bc99-1ff52d9d59bc","ios":"levelo://app?vid=e1eefe4b-c8d9-4584-bc99-1ff52d9d59bc"},"vehicle_type_id":"4","last_reported":1746684923,"current_range_meters":24000,"station_id":"ce4bhsp2rcd13ifvqi50","pricing_plan_id":"cebpf4jnsgd1na2vs0mg"},{"bike_id":"05af4aa6-15a9-427f-b97e-db9d190d483a","system_id":"levelo_inurba_marseille","lat":43.31718,"lon":5.40435,"is_reserved":false,"is_disabled":false,"rental_uris":{"android":"levelo://app?vid=05af4aa6-15a9-427f-b97e-db9d190d483a","ios":"levelo://app?vid=05af4aa6-15a9-427f-b97e-db9d190d483a"},"vehicle_type_id":"4","last_reported":1746684923,"current_range_meters":24000,"station_id":"ce4bh012rcd13ifvqd00","pricing_plan_id":"cebpf4jnsgd1na2vs0mg"},{"bike_id":"e143f927-77fa-433f-8c67-63fa7888f990","system_id":"levelo_inurba_marseille","lat":43.274974,"lon":5.424535,"is_reserved":false,"is_disabled":false,"rental_uris":{"android":"levelo://app?vid=e143f927-77fa-433f-8c67-63fa7888f990","ios":"levelo://app?vid=e143f927-77fa-433f-8c67-63fa7888f990"},"vehicle_type_id":"4","last_reported":1746684923,"current_range_meters":24000,"station_id":"ce4bhn92rcd13ifvqgrg","pricing_plan_id":"cebpf4jnsgd1na2vs0mg"},{"bike_id":"371f44c9-186d-4778-97f3-945a8631fc05","system_id":"levelo_inurba_marseille","lat":43.240788,"lon":5.377543,"is_reserved":false,"is_disabled":false,"rental_uris":{"android":"levelo://app?vid=371f44c9-186d-4778-97f3-945a8631fc05","ios":"levelo://app?vid=371f44c9-186d-4778-97f3-945a8631fc05"},"vehicle_type_id":"4","last_reported":1746684923,"current_range_meters":23200,"station_id":"ce4bhnp2rcd13ifvqgvg","pricing_plan_id":"cebpf4jnsgd1na2vs0mg"},{"bike_id":"2d8b0937-d5c9-496b-a867-537923bdfe85","system_id":"levelo_inurba_marseille","lat":43.25117,"lon":5.40358,"is_reserved":false,"is_disabled":false,"rental_uris":{"android":"levelo://app?vid=2d8b0937-d5c9-496b-a867-537923bdfe85","ios":"levelo://app?vid=2d8b0937-d5c9-496b-a867-537923bdfe85"},"vehicle_type_id":"4","last_reported":1746684923,"current_range_meters":24400,"station_id":"ce4bhlh2rcd13ifvqgig","pricing_plan_id":"cebpf4jnsgd1na2vs0mg"},{"bike_id":"77edca4d-55bc-4f6d-9c31-13dc55f264c1","system_id":"levelo_inurba_marseille","lat":43.28409,"lon":5.34996,"is_reserved":false,"is_disabled":true,"rental_uris":{"android":"levelo://app?vid=77edca4d-55bc-4f6d-9c31-13dc55f264c1","ios":"levelo://app?vid=77edca4d-55bc-4f6d-9c31-13dc55f264c1"},"vehicle_type_id":"4","last_reported":1746684923,"current_range_meters":24400,"station_id":"ce4bhbh2rcd13ifvqepg","pricing_plan_id":"cebpf4jnsgd1na2vs0mg"},{"bike_id":"8bd2766e-f806-43b2-a3d2-44445c285677","system_id":"levelo_inurba_marseille","lat":43.28704,"lon":5.37411,"is_reserved":false,"is_disabled":true,"rental_uris":{"android":"levelo://app?vid=8bd2766e-f806-43b2-a3d2-44445c285677","ios":"levelo://app?vid=8bd2766e-f806-43b2-a3d2-44445c285677"},"vehicle_type_id":"4","last_reported":1746684923,"current_range_meters":24400,"station_id":"ce4bh3p2rcd13ifvqdq0","pricing_plan_id":"cebpf4jnsgd1na2vs0mg"},{"bike_id":"b6ef3f00-dd79-48ff-9fc3-86c640ce7218","system_id":"levelo_inurba_marseille","lat":43.257078,"lon":5.411211,"is_reserved":false,"is_disabled":false,"rental_uris":{"android":"levelo://app?vid=b6ef3f00-dd79-48ff-9fc3-86c640ce7218","ios":"levelo://app?vid=b6ef3f00-dd79-48ff-9fc3-86c640ce7218"},"vehicle_type_id":"4","last_reported":1746684923,"current_range_meters":24400,"station_id":"ce4bhkp2rcd13ifvqgd0","pricing_plan_id":"cebpf4jnsgd1na2vs0mg"},{"bike_id":"2f0cbd38-7746-40cd-aad8-7b6caf605afe","system_id":"levelo_inurba_marseille","lat":43.297717,"lon":5.459999,"is_reserved":false,"is_disabled":false,"rental_uris":{"android":"levelo://app?vid=2f0cbd38-7746-40cd-aad8-7b6caf605afe","ios":"levelo://app?vid=2f0cbd38-7746-40cd-aad8-7b6caf605afe"},"vehicle_type_id":"4","last_reported":1746684923,"current_range_meters":24400,"station_id":"","pricing_plan_id":"cebpf4jnsgd1na2vs0mg"},{"bike_id":"ed06df07-7779-49c9-b77d-daf51756af8d","system_id":"levelo_inurba_marseille","lat":43.23187,"lon":5.39987,"is_reserved":false,"is_disabled":false,"rental_uris":{"android":"levelo://app?vid=ed06df07-7779-49c9-b77d-daf51756af8d","ios":"levelo://app?vid=ed06df07-7779-49c9-b77d-daf51756af8d"},"vehicle_type_id":"4","last_reported":1746684923,"current_range_meters":24800,"station_id":"ce4bhn12rcd13ifvqgqg","pricing_plan_id":"cebpf4jnsgd1na2vs0mg"},{"bike_id":"96a71fca-5b6e-47fb-a481-c874b310c77b","system_id":"levelo_inurba_marseille","lat":43.29045,"lon":5.40578,"is_reserved":false,"is_disabled":false,"rental_uris":{"android":"levelo://app?vid=96a71fca-5b6e-47fb-a481-c874b310c77b","ios":"levelo://app?vid=96a71fca-5b6e-47fb-a481-c874b310c77b"},"vehicle_type_id":"4","last_reported":1746684923,"current_range_meters":24800,"station_id":"","pricing_plan_id":"cebpf4jnsgd1na2vs0mg"},{"bike_id":"b98245b3-448c-466a-9849-25e82baf913d","system_id":"levelo_inurba_marseille","lat":43.32523,"lon":5.41449,"is_reserved":false,"is_disabled":false,"rental_uris":{"android":"levelo://app?vid=b98245b3-448c-466a-9849-25e82baf913d","ios":"levelo://app?vid=b98245b3-448c-466a-9849-25e82baf913d"},"vehicle_type_id":"4","last_reported":1746684923,"current_range_meters":24400,"station_id":"ce4bhq12rcd13ifvqhhg","pricing_plan_id":"cebpf4jnsgd1na2vs0mg"},{"bike_id":"8ccee0fe-8e26-413a-b69d-23db49899afa","system_id":"levelo_inurba_marseille","lat":43.26208,"lon":5.37444,"is_reserved":false,"is_disabled":false,"rental_uris":{"android":"levelo://app?vid=8ccee0fe-8e26-413a-b69d-23db49899afa","ios":"levelo://app?vid=8ccee0fe-8e26-413a-b69d-23db49899afa"},"vehicle_type_id":"4","last_reported":1746684923,"current_range_meters":24800,"station_id":"ce4bhgp2rcd13ifvqfc0","pricing_plan_id":"cebpf4jnsgd1na2vs0mg"},{"bike_id":"936c8d22-0874-4acf-afca-5bf5afcf3472","system_id":"levelo_inurba_marseille","lat":43.313781,"lon":5.382404,"is_reserved":false,"is_disabled":false,"rental_uris":{"android":"levelo://app?vid=936c8d22-0874-4acf-afca-5bf5afcf3472","ios":"levelo://app?vid=936c8d22-0874-4acf-afca-5bf5afcf3472"},"vehicle_type_id":"4","last_reported":1746684923,"current_range_meters":24800,"station_id":"","pricing_plan_id":"cebpf4jnsgd1na2vs0mg"},{"bike_id":"cfcf0a27-3831-4e84-9bea-34b38798a087","system_id":"levelo_inurba_marseille","lat":43.21193,"lon":5.35092,"is_reserved":false,"is_disabled":false,"rental_uris":{"android":"levelo://app?vid=cfcf0a27-3831-4e84-9bea-34b38798a087","ios":"levelo://app?vid=cfcf0a27-3831-4e84-9bea-34b38798a087"},"vehicle_type_id":"4","last_reported":1746684923,"current_range_meters":24800,"station_id":"st_cvj6sg6p6f1abm77japg","pricing_plan_id":"cebpf4jnsgd1na2vs0mg"},{"bike_id":"4b12119b-886f-455b-b2ae-8814b17b579d","system_id":"levelo_inurba_marseille","lat":43.24178,"lon":5.39729,"is_reserved":false,"is_disabled":false,"rental_uris":{"android":"levelo://app?vid=4b12119b-886f-455b-b2ae-8814b17b579d","ios":"levelo://app?vid=4b12119b-886f-455b-b2ae-8814b17b579d"},"vehicle_type_id":"4","last_reported":1746684923,"current_range_meters":24800,"station_id":"ce4bhn12rcd13ifvqgpg","pricing_plan_id":"cebpf4jnsgd1na2vs0mg"},{"bike_id":"a6d1bd63-6479-4d7a-8f5e-5ed72d41d3e1","system_id":"levelo_inurba_marseille","lat":43.30461,"lon":5.37902,"is_reserved":false,"is_disabled":false,"rental_uris":{"android":"levelo://app?vid=a6d1bd63-6479-4d7a-8f5e-5ed72d41d3e1","ios":"levelo://app?vid=a6d1bd63-6479-4d7a-8f5e-5ed72d41d3e1"},"vehicle_type_id":"4","last_reported":1746684923,"current_range_meters":24800,"station_id":"ce4bgup2rcd13ifvqcn0","pricing_plan_id":"cebpf4jnsgd1na2vs0mg"},{"bike_id":"bd52f189-d2de-4f50-a91e-4fbab3379dc9","system_id":"levelo_inurba_marseille","lat":43.274966,"lon":5.424601,"is_reserved":false,"is_disabled":false,"rental_uris":{"android":"levelo://app?vid=bd52f189-d2de-4f50-a91e-4fbab3379dc9","ios":"levelo://app?vid=bd52f189-d2de-4f50-a91e-4fbab3379dc9"},"vehicle_type_id":"4","last_reported":1746684923,"current_range_meters":24800,"station_id":"ce4bhn92rcd13ifvqgrg","pricing_plan_id":"cebpf4jnsgd1na2vs0mg"},{"bike_id":"433f6fb8-f6ef-4a4c-9ef6-e451913b5776","system_id":"levelo_inurba_marseille","lat":43.27043,"lon":5.40273,"is_reserved":false,"is_disabled":true,"rental_uris":{"android":"levelo://app?vid=433f6fb8-f6ef-4a4c-9ef6-e451913b5776","ios":"levelo://app?vid=433f6fb8-f6ef-4a4c-9ef6-e451913b5776"},"vehicle_type_id":"4","last_reported":1746684923,"current_range_meters":24800,"station_id":"ce4bhk92rcd13ifvqgc0","pricing_plan_id":"cebpf4jnsgd1na2vs0mg"},{"bike_id":"d26fb97c-799b-4029-af88-10b9b5aa5519","system_id":"levelo_inurba_marseille","lat":43.323634,"lon":5.389031,"is_reserved":false,"is_disabled":false,"rental_uris":{"android":"levelo://app?vid=d26fb97c-799b-4029-af88-10b9b5aa5519","ios":"levelo://app?vid=d26fb97c-799b-4029-af88-10b9b5aa5519"},"vehicle_type_id":"4","last_reported":1746684923,"current_range_meters":24800,"station_id":"ce4bhqp2rcd13ifvqhog","pricing_plan_id":"cebpf4jnsgd1na2vs0mg"},{"bike_id":"005c511e-2f41-4c8d-b2c4-44c27f419d45","system_id":"levelo_inurba_marseille","lat":43.25077,"lon":5.39526,"is_reserved":false,"is_disabled":false,"rental_uris":{"android":"levelo://app?vid=005c511e-2f41-4c8d-b2c4-44c27f419d45","ios":"levelo://app?vid=005c511e-2f41-4c8d-b2c4-44c27f419d45"},"vehicle_type_id":"4","last_reported":1746684923,"current_range_meters":24800,"station_id":"ce4bhm12rcd13ifvqgkg","pricing_plan_id":"cebpf4jnsgd1na2vs0mg"},{"bike_id":"545e5687-b7df-4883-81be-75a8925d5f91","system_id":"levelo_inurba_marseille","lat":43.337444,"lon":5.374475,"is_reserved":false,"is_disabled":true,"rental_uris":{"android":"levelo://app?vid=545e5687-b7df-4883-81be-75a8925d5f91","ios":"levelo://app?vid=545e5687-b7df-4883-81be-75a8925d5f91"},"vehicle_type_id":"4","last_reported":1746684923,"current_range_meters":24800,"station_id":"","pricing_plan_id":"cebpf4jnsgd1na2vs0mg"},{"bike_id":"8cfd22d8-2392-41b8-898f-fe18fb78c2a9","system_id":"levelo_inurba_marseille","lat":43.25717,"lon":5.41809,"is_reserved":false,"is_disabled":false,"rental_uris":{"android":"levelo://app?vid=8cfd22d8-2392-41b8-898f-fe18fb78c2a9","ios":"levelo://app?vid=8cfd22d8-2392-41b8-898f-fe18fb78c2a9"},"vehicle_type_id":"4","last_reported":1746684923,"current_range_meters":25200,"station_id":"","pricing_plan_id":"cebpf4jnsgd1na2vs0mg"},{"bike_id":"63277f5e-591a-4cad-8a76-1105e4343f72","system_id":"levelo_inurba_marseille","lat":43.26191,"lon":5.40424,"is_reserved":false,"is_disabled":false,"rental_uris":{"android":"levelo://app?vid=63277f5e-591a-4cad-8a76-1105e4343f72","ios":"levelo://app?vid=63277f5e-591a-4cad-8a76-1105e4343f72"},"vehicle_type_id":"4","last_reported":1746684923,"current_range_meters":25200,"station_id":"ce4bhmh2rcd13ifvqgmg","pricing_plan_id":"cebpf4jnsgd1na2vs0mg"},{"bike_id":"b5a62d82-0425-41dd-a4e3-3b5f0949a169","system_id":"levelo_inurba_marseille","lat":43.33747,"lon":5.39211,"is_reserved":false,"is_disabled":false,"rental_uris":{"android":"levelo://app?vid=b5a62d82-0425-41dd-a4e3-3b5f0949a169","ios":"levelo://app?vid=b5a62d82-0425-41dd-a4e3-3b5f0949a169"},"vehicle_type_id":"4","last_reported":1746684923,"current_range_meters":25200,"station_id":"ce4bhr92rcd13ifvqhsg","pricing_plan_id":"cebpf4jnsgd1na2vs0mg"},{"bike_id":"75b67d7e-9404-474a-a6b6-7f58417a2ee5","system_id":"levelo_inurba_marseille","lat":43.281537,"lon":5.426443,"is_reserved":false,"is_disabled":false,"rental_uris":{"android":"levelo://app?vid=75b67d7e-9404-474a-a6b6-7f58417a2ee5","ios":"levelo://app?vid=75b67d7e-9404-474a-a6b6-7f58417a2ee5"},"vehicle_type_id":"4","last_reported":1746684923,"current_range_meters":25200,"station_id":"ce4bhnh2rcd13ifvqgug","pricing_plan_id":"cebpf4jnsgd1na2vs0mg"},{"bike_id":"cd1dd69c-1b2c-404e-b0bf-114f06f0b210","system_id":"levelo_inurba_marseille","lat":43.23277,"lon":5.36097,"is_reserved":false,"is_disabled":false,"rental_uris":{"android":"levelo://app?vid=cd1dd69c-1b2c-404e-b0bf-114f06f0b210","ios":"levelo://app?vid=cd1dd69c-1b2c-404e-b0bf-114f06f0b210"},"vehicle_type_id":"4","last_reported":1746684923,"current_range_meters":25200,"station_id":"","pricing_plan_id":"cebpf4jnsgd1na2vs0mg"},{"bike_id":"66d39f5f-1aac-423b-9ea7-bf9c1b0e5079","system_id":"levelo_inurba_marseille","lat":43.275024,"lon":5.411479,"is_reserved":false,"is_disabled":false,"rental_uris":{"android":"levelo://app?vid=66d39f5f-1aac-423b-9ea7-bf9c1b0e5079","ios":"levelo://app?vid=66d39f5f-1aac-423b-9ea7-bf9c1b0e5079"},"vehicle_type_id":"4","last_reported":1746684923,"current_range_meters":25200,"station_id":"","pricing_plan_id":"cebpf4jnsgd1na2vs0mg"},{"bike_id":"943c17e1-2f10-4f8b-b508-00da99e73e39","system_id":"levelo_inurba_marseille","lat":43.23215,"lon":5.3997,"is_reserved":false,"is_disabled":false,"rental_uris":{"android":"levelo://app?vid=943c17e1-2f10-4f8b-b508-00da99e73e39","ios":"levelo://app?vid=943c17e1-2f10-4f8b-b508-00da99e73e39"},"vehicle_type_id":"4","last_reported":1746684923,"current_range_meters":25600,"station_id":"ce4bhn12rcd13ifvqgqg","pricing_plan_id":"cebpf4jnsgd1na2vs0mg"},{"bike_id":"668d09cf-38a9-49a4-87d3-67b6dce864b1","system_id":"levelo_inurba_marseille","lat":43.28048,"lon":5.37811,"is_reserved":false,"is_disabled":false,"rental_uris":{"android":"levelo://app?vid=668d09cf-38a9-49a4-87d3-67b6dce864b1","ios":"levelo://app?vid=668d09cf-38a9-49a4-87d3-67b6dce864b1"},"vehicle_type_id":"4","last_reported":1746684923,"current_range_meters":25600,"station_id":"","pricing_plan_id":"cebpf4jnsgd1na2vs0mg"},{"bike_id":"3dee8004-8508-420a-bb9f-5bb997808493","system_id":"levelo_inurba_marseille","lat":43.32285,"lon":5.3827,"is_reserved":false,"is_disabled":false,"rental_uris":{"android":"levelo://app?vid=3dee8004-8508-420a-bb9f-5bb997808493","ios":"levelo://app?vid=3dee8004-8508-420a-bb9f-5bb997808493"},"vehicle_type_id":"4","last_reported":1746684923,"current_range_meters":25600,"station_id":"ce4bhr12rcd13ifvqhqg","pricing_plan_id":"cebpf4jnsgd1na2vs0mg"},{"bike_id":"cba9399e-d991-4631-881f-8bf1d2e05a93","system_id":"levelo_inurba_marseille","lat":43.30257,"lon":5.40054,"is_reserved":false,"is_disabled":false,"rental_uris":{"android":"levelo://app?vid=cba9399e-d991-4631-881f-8bf1d2e05a93","ios":"levelo://app?vid=cba9399e-d991-4631-881f-8bf1d2e05a93"},"vehicle_type_id":"4","last_reported":1746684923,"current_range_meters":25600,"station_id":"ce4bgvh2rcd13ifvqcs0","pricing_plan_id":"cebpf4jnsgd1na2vs0mg"},{"bike_id":"b8028275-38d4-43d3-8766-3f46166cf91f","system_id":"levelo_inurba_marseille","lat":43.2888,"lon":5.44972,"is_reserved":false,"is_disabled":false,"rental_uris":{"android":"levelo://app?vid=b8028275-38d4-43d3-8766-3f46166cf91f","ios":"levelo://app?vid=b8028275-38d4-43d3-8766-3f46166cf91f"},"vehicle_type_id":"4","last_reported":1746684923,"current_range_meters":25600,"station_id":"","pricing_plan_id":"cebpf4jnsgd1na2vs0mg"},{"bike_id":"320445d7-aaf7-43ec-baaf-4e67030e8b62","system_id":"levelo_inurba_marseille","lat":43.27125,"lon":5.40437,"is_reserved":false,"is_disabled":false,"rental_uris":{"android":"levelo://app?vid=320445d7-aaf7-43ec-baaf-4e67030e8b62","ios":"levelo://app?vid=320445d7-aaf7-43ec-baaf-4e67030e8b62"},"vehicle_type_id":"4","last_reported":1746684923,"current_range_meters":26000,"station_id":"","pricing_plan_id":"cebpf4jnsgd1na2vs0mg"},{"bike_id":"82c7ad49-2b47-42b0-ae00-f5ed96512a26","system_id":"levelo_inurba_marseille","lat":43.26212,"lon":5.40443,"is_reserved":false,"is_disabled":false,"rental_uris":{"android":"levelo://app?vid=82c7ad49-2b47-42b0-ae00-f5ed96512a26","ios":"levelo://app?vid=82c7ad49-2b47-42b0-ae00-f5ed96512a26"},"vehicle_type_id":"4","last_reported":1746684923,"current_range_meters":26000,"station_id":"ce4bhmh2rcd13ifvqgmg","pricing_plan_id":"cebpf4jnsgd1na2vs0mg"},{"bike_id":"ab2dd3f7-6433-434b-8cbf-a95398429e78","system_id":"levelo_inurba_marseille","lat":43.25498,"lon":5.37651,"is_reserved":false,"is_disabled":false,"rental_uris":{"android":"levelo://app?vid=ab2dd3f7-6433-434b-8cbf-a95398429e78","ios":"levelo://app?vid=ab2dd3f7-6433-434b-8cbf-a95398429e78"},"vehicle_type_id":"4","last_reported":1746684923,"current_range_meters":26000,"station_id":"ce4bhh12rcd13ifvqff0","pricing_plan_id":"cebpf4jnsgd1na2vs0mg"},{"bike_id":"b2987c7b-aca8-40d4-9313-e79d51161e43","system_id":"levelo_inurba_marseille","lat":43.31067,"lon":5.38353,"is_reserved":false,"is_disabled":false,"rental_uris":{"android":"levelo://app?vid=b2987c7b-aca8-40d4-9313-e79d51161e43","ios":"levelo://app?vid=b2987c7b-aca8-40d4-9313-e79d51161e43"},"vehicle_type_id":"4","last_reported":1746684923,"current_range_meters":26000,"station_id":"ce4bgv92rcd13ifvqcr0","pricing_plan_id":"cebpf4jnsgd1na2vs0mg"},{"bike_id":"c72646b0-a27b-4a8a-b8a4-ff0dac367554","system_id":"levelo_inurba_marseille","lat":43.28717,"lon":5.39992,"is_reserved":false,"is_disabled":true,"rental_uris":{"android":"levelo://app?vid=c72646b0-a27b-4a8a-b8a4-ff0dac367554","ios":"levelo://app?vid=c72646b0-a27b-4a8a-b8a4-ff0dac367554"},"vehicle_type_id":"4","last_reported":1746684923,"current_range_meters":26000,"station_id":"ce4bho92rcd13ifvqh3g","pricing_plan_id":"cebpf4jnsgd1na2vs0mg"},{"bike_id":"7dd541b9-e858-4734-8b38-bf5cec4a45d8","system_id":"levelo_inurba_marseille","lat":43.301096,"lon":5.371661,"is_reserved":false,"is_disabled":false,"rental_uris":{"android":"levelo://app?vid=7dd541b9-e858-4734-8b38-bf5cec4a45d8","ios":"levelo://app?vid=7dd541b9-e858-4734-8b38-bf5cec4a45d8"},"vehicle_type_id":"4","last_reported":1746684923,"current_range_meters":26000,"station_id":"","pricing_plan_id":"cebpf4jnsgd1na2vs0mg"},{"bike_id":"8618c0fe-5ba6-4f68-9cb4-d7d8b0d7e380","system_id":"levelo_inurba_marseille","lat":43.295436,"lon":5.374699,"is_reserved":false,"is_disabled":true,"rental_uris":{"android":"levelo://app?vid=8618c0fe-5ba6-4f68-9cb4-d7d8b0d7e380","ios":"levelo://app?vid=8618c0fe-5ba6-4f68-9cb4-d7d8b0d7e380"},"vehicle_type_id":"4","last_reported":1746684923,"current_range_meters":26800,"station_id":"","pricing_plan_id":"cebpf4jnsgd1na2vs0mg"},{"bike_id":"27fa5d52-888f-4e10-8d44-5382f42e0054","system_id":"levelo_inurba_marseille","lat":43.31712,"lon":5.43709,"is_reserved":false,"is_disabled":false,"rental_uris":{"android":"levelo://app?vid=27fa5d52-888f-4e10-8d44-5382f42e0054","ios":"levelo://app?vid=27fa5d52-888f-4e10-8d44-5382f42e0054"},"vehicle_type_id":"4","last_reported":1746684923,"current_range_meters":26000,"station_id":"ce4bhp92rcd13ifvqhcg","pricing_plan_id":"cebpf4jnsgd1na2vs0mg"},{"bike_id":"3746ad73-69a9-4875-af78-53bf1889c1af","system_id":"levelo_inurba_marseille","lat":43.30298,"lon":5.36873,"is_reserved":false,"is_disabled":false,"rental_uris":{"android":"levelo://app?vid=3746ad73-69a9-4875-af78-53bf1889c1af","ios":"levelo://app?vid=3746ad73-69a9-4875-af78-53bf1889c1af"},"vehicle_type_id":"4","last_reported":1746684923,"current_range_meters":26000,"station_id":"ce4bgqh2rcd13ifvqc5g","pricing_plan_id":"cebpf4jnsgd1na2vs0mg"},{"bike_id":"50ec8065-e316-4c0b-8822-af10c3d582ca","system_id":"levelo_inurba_marseille","lat":43.313601,"lon":5.385005,"is_reserved":false,"is_disabled":false,"rental_uris":{"android":"levelo://app?vid=50ec8065-e316-4c0b-8822-af10c3d582ca","ios":"levelo://app?vid=50ec8065-e316-4c0b-8822-af10c3d582ca"},"vehicle_type_id":"4","last_reported":1746684923,"current_range_meters":27200,"station_id":"ce4bgt92rcd13ifvqcf0","pricing_plan_id":"cebpf4jnsgd1na2vs0mg"},{"bike_id":"9f27de67-82c5-4a83-ae00-14d42854c677","system_id":"levelo_inurba_marseille","lat":43.28146,"lon":5.4264,"is_reserved":false,"is_disabled":false,"rental_uris":{"android":"levelo://app?vid=9f27de67-82c5-4a83-ae00-14d42854c677","ios":"levelo://app?vid=9f27de67-82c5-4a83-ae00-14d42854c677"},"vehicle_type_id":"4","last_reported":1746684923,"current_range_meters":27200,"station_id":"ce4bhnh2rcd13ifvqgug","pricing_plan_id":"cebpf4jnsgd1na2vs0mg"},{"bike_id":"0ba8250e-7150-4c3c-b4a9-796c5cf1ca93","system_id":"levelo_inurba_marseille","lat":43.324778,"lon":5.36579,"is_reserved":false,"is_disabled":false,"rental_uris":{"android":"levelo://app?vid=0ba8250e-7150-4c3c-b4a9-796c5cf1ca93","ios":"levelo://app?vid=0ba8250e-7150-4c3c-b4a9-796c5cf1ca93"},